timestamp,control[0],control[1],control[2],control[3],control[4]
8004000,0.033799186,0.037431426,-0.005565638,0.15,0
8008000,0.033537872,0.037771717,-0.005004104,0.15,0
8012000,0.03378284,0.037979744,-0.005016007,0.15,0
8016000,0.034182575,0.0378356,-0.005134921,0.15,0
8020000,0.034122292,0.037554026,-0.005174522,0.15,0
8024000,0.033830702,0.037430283,-0.005216966,0.15,0
8028000,0.033759676,0.037467048,-0.005177247,0.15,0
8032000,0.033939872,0.03772869,-0.005197984,0.15,0
8036000,0.03333412,0.038108647,-0.005248391,0.15,0
8040000,0.031721707,0.038243182,-0.005234453,0.15,0
8044000,0.030587044,0.038021404,-0.005077339,0.15,0
8048000,0.030912241,0.037623912,-0.004881177,0.15,0
8052000,0.03230969,0.03730622,-0.004726729,0.15,0
8056000,0.03352775,0.03716724,-0.004696799,0.15,0
8060000,0.033232387,0.03708516,-0.004849458,0.15,0
8064000,0.03257483,0.037205275,-0.005181599,0.15,0
8068000,0.032574784,0.037722226,-0.005509633,0.15,0
8076000,0.03155715,0.038454928,-0.005560872,0.15,0
8080000,0.03198389,0.03808033,-0.005479488,0.15,0
8084000,0.03286894,0.03785,-0.005279751,0.15,0
8088000,0.032878663,0.037851825,-0.005279347,0.15,0
8092000,0.034204513,0.03777231,-0.004879001,0.15,0
8096000,0.03437703,0.037502784,-0.00514456,0.15,0
8100000,0.03406165,0.037237655,-0.005562039,0.15,0
8104000,0.033266705,0.03734446,-0.005761931,0.15,0
8108000,0.032515313,0.037716784,-0.005647809,0.15,0
8112000,0.032533757,0.037710436,-0.005647286,0.15,0
8116000,0.03330303,0.03778795,-0.005535572,0.15,0
8124000,0.03295399,0.03768269,-0.005506988,0.15,0
8128000,0.03291422,0.037828144,-0.00538576,0.15,0
8132000,0.03327516,0.03760189,-0.005535246,0.15,0
8136000,0.033399183,0.037485495,-0.005606488,0.15,0
8140000,0.033471756,0.03757637,-0.00539414,0.15,0
8144000,0.034218002,0.03769111,-0.005203646,0.15,0
8148000,0.035106987,0.037683263,-0.00519231,0.15,0
8152000,0.035095975,0.037534583,-0.005086816,0.15,0
8156000,0.034298472,0.037317894,-0.005027609,0.15,0
8160000,0.033211946,0.037122894,-0.005101518,0.15,0
8164000,0.03291733,0.03709092,-0.005131883,0.15,0
8168000,0.0334245,0.03713043,-0.005180116,0.15,0
8172000,0.033665553,0.037031144,-0.005268486,0.15,0
8176000,0.033650447,0.03693695,-0.005271158,0.15,0
8184000,0.03324194,0.037231985,-0.005367356,0.15,0
8188000,0.032615267,0.03745887,-0.005405679,0.15,0
8192000,0.03188286,0.03770177,-0.005349582,0.15,0
8196000,0.03183003,0.037794787,-0.005164008,0.15,0
8200000,0.032308407,0.037752315,-0.004955108,0.15,0
8204000,0.0327092,0.037912454,-0.004854503,0.15,0
8208000,0.033557963,0.03799521,-0.004908722,0.15,0
8212000,0.034626864,0.03773262,-0.004990684,0.15,0
8216000,0.03460437,0.037718687,-0.004978741,0.15,0
8220000,0.034310322,0.037338395,-0.005057863,0.15,0
8224000,0.034316372,0.037345856,-0.005057459,0.15,0
8232000,0.033380546,0.03710574,-0.004990992,0.15,0
8236000,0.033407707,0.036832254,-0.005025443,0.15,0
8240000,0.024799226,0.036890008,0.000449867,0,0
8244000,0.02413846,0.037041117,-0.000284024,0,0
8248000,0.022879321,0.03686291,-0.001570865,0,0
8252000,0.022062326,0.036765665,-0.001534686,0,0
8256000,0.022054557,0.036800526,-0.001406178,0,0
8260000,0.022768307,0.037408054,-0.00011378,0,0
8264000,0.022743233,0.037385684,-0.000136311,1,0
8268000,0.022910306,0.037275925,-0.000921134,1,0
8272000,0.02304455,0.037292656,-0.000963634,1,0
8276000,0.023175128,0.037339125,-0.001223494,1,0
8280000,0.023963874,0.037367295,-0.001618783,1,0
8284000,0.024971532,0.03746851,-0.00156545,1,0
8288000,0.024993109,0.037421323,-0.000760045,1,0
8292000,0.02409818,0.03709196,0.000274293,1,0
8296000,0.023172561,0.036727253,0.000602975,1,0
8300000,0.02214069,0.03641855,-0.000149063,1,0
8304000,0.021121802,0.036222354,-0.001098172,1,0
8308000,0.02170014,0.036325093,-0.000888153,1,0
8312000,0.02345976,0.03668783,-0.000171679,1,0
8316000,0.024526576,0.037022002,-0.000137491,1,0
8320000,0.02445397,0.037183046,-0.000198213,1,0
8324000,0.02374333,0.03718607,0.000153277,1,0
8328000,0.02281218,0.036960777,0.000858077,1,0
8336000,0.022546228,0.03663441,0.000257996,1,0
8340000,0.023615964,0.036675524,-0.000302553,1,0
8344000,0.023839116,0.036787577,-9.81E-05,1,0
8348000,0.023209,0.03685349,0.001037749,1,0
8352000,0.023199687,0.03687176,0.00239038,1,0
8356000,0.023523556,0.036861155,0.002988935,1,0
8360000,0.023556555,0.03665102,0.002893679,1,0
8364000,0.024383267,0.0363987,0.003408569,1,0
8368000,0.025907466,0.036359943,0.004085213,1,0
8372000,0.026324762,0.036424357,0.004052363,1,0
8376000,0.026335651,0.03636423,0.004271206,1,0
8380000,0.025673693,0.036172803,0.003206127,1,0
8384000,0.025670562,0.036170002,0.003119495,1,0
8388000,0.025163038,0.036417995,0.00063939,1,0
8392000,0.025389193,0.036524933,0.001158747,1,0
8400000,0.02561031,0.036796294,0.001644116,1,0
8404000,0.025070442,0.03666235,0.001524351,1,0
8408000,0.02386068,0.036436792,0.002632173,1,0
8412000,0.023331584,0.03620872,0.004021839,1,0
8416000,0.024117896,0.03624827,0.00432085,1,0
8424000,0.02505241,0.0363356,0.003571898,1,0
8428000,0.024742775,0.036119424,0.003561019,1,0
8432000,0.025006702,0.036045894,0.003689151,1,0
8436000,0.025842529,0.036257677,0.003931379,1,0
8440000,0.025823051,0.036282826,0.004023702,1,0
8444000,0.024349403,0.036886696,0.004454485,1,0
8448000,0.023066377,0.036731407,0.005150575,1,0
8452000,0.021674085,0.03620452,0.005311403,1,0
8456000,0.021296686,0.035627868,0.005547229,1,0
8460000,0.02187106,0.035201173,0.004840359,1,0
8464000,0.02161594,0.03500666,0.004714563,1,0
8468000,0.021085907,0.035098813,0.004482781,1,0
8472000,0.021089919,0.03507535,0.004644009,1,0
8476000,0.023222923,0.0355698,0.004748378,1,0
8480000,0.024681175,0.03552349,0.004824398,1,0
8484000,0.025280064,0.035274748,0.004054319,1,0
8488000,0.025126832,0.03525979,0.003383012,1,0
8492000,0.024674311,0.03554752,0.002969598,1,0
8496000,0.024424896,0.035703722,0.002990626,1,0
8500000,0.024321627,0.03551561,0.002985531,1,0
8504000,0.02420841,0.035394426,0.002943453,1,0
8508000,0.024427298,0.03546946,0.002630672,1,0
8512000,0.024693646,0.035641935,0.002922997,1,0
8516000,0.024564736,0.03586555,0.003130423,1,0
8520000,0.024566954,0.0358452,0.003112352,1,0
8524000,0.02448182,0.03599332,0.002622317,1,0
8528000,0.024585743,0.03607729,0.002725882,1,0
8532000,0.024023188,0.03595546,0.002867535,1,0
8536000,0.023223847,0.035840053,0.003220469,1,0
8540000,0.022444842,0.035740837,0.00350971,1,0
8544000,0.022079483,0.03553219,0.003755466,1,0
8548000,0.022323828,0.03527285,0.003647232,1,0
8552000,0.022501443,0.035113897,0.003567724,1,0
8556000,0.022715522,0.035117883,0.003366606,1,0
8560000,0.023222115,0.035157174,0.003568769,1,0
8564000,0.02340018,0.035157222,0.003468666,1,0
8568000,0.023094641,0.035142805,0.003474465,1,0
8572000,0.0230758,0.035280608,0.003654496,1,0
8576000,0.02373936,0.035435304,0.00394335,1,0
8580000,0.024401655,0.035301518,0.003859506,1,0
8584000,0.024472231,0.03505743,0.003864835,1,0
8588000,0.024049582,0.034998827,0.003629189,1,0
8592000,0.024078177,0.034982115,0.00369743,1,0
8596000,0.022073774,0.03310588,0.003468845,1,0
8600000,0.02271971,0.03317385,0.00366985,1,0
8604000,0.022608379,0.033019815,0.003419332,1,0
8608000,0.022292623,0.03295539,0.003257167,1,0
8612000,0.022166925,0.032905396,0.003423991,1,0
8616000,0.022051984,0.03285338,0.00390694,1,0
8620000,0.021813605,0.032782637,0.003959636,1,0
8624000,0.021289,0.032539528,0.003784106,1,0
8628000,0.020372272,0.032338385,0.003766516,1,0
8632000,0.019706601,0.032361597,0.004000992,1,0
8640000,0.021045532,0.032329235,0.004038889,1,0
8644000,0.020983424,0.032268304,0.004236582,1,0
8648000,0.02032535,0.032206357,0.004555215,1,0
8652000,0.020586865,0.032206718,0.004554251,1,0
8656000,0.020602014,0.032198444,0.004618906,1,0
8660000,0.021364527,0.032439094,0.0042434,1,0
8664000,0.021572866,0.032333504,0.004103297,1,0
8668000,0.022334585,0.03221278,0.003845143,1,0
8672000,0.022952264,0.03193438,0.003882722,1,0
8676000,0.022671742,0.03151788,0.003952811,1,0
8680000,0.02241898,0.031252228,0.003911682,1,0
8684000,0.022679811,0.031179614,0.003818759,1,0
8688000,0.022708636,0.031122297,0.003877676,1,0
8692000,0.022749828,0.031278644,0.003790803,1,0
8696000,0.014810554,0.023369538,0.003607212,1,0
8700000,0.014616216,0.023507373,0.003391153,1,0
8704000,0.014256882,0.02357963,0.003294447,1,0
8708000,0.013897284,0.02352312,0.003297509,1,0
8712000,0.013847679,0.02346793,0.003263122,1,0
8716000,0.014159027,0.023413777,0.002874625,1,0
8720000,0.014174663,0.023394069,0.002807547,1,0
8724000,0.014578077,0.023463514,0.002018941,1,0
8728000,0.014289201,0.023513582,0.001558863,1,0
8732000,0.014005992,0.023460707,0.001144717,1,0
8736000,0.014032875,0.023417614,0.001055815,1,0
8740000,0.014660446,0.023124356,0.000896371,1,0
8744000,0.014640771,-0.2752566,0.000815942,1,0
8748000,0.014559384,-0.27528515,0.000716114,1,0
8752000,0.014655739,-0.27524054,0.000561761,1,0
8756000,0.014588182,-0.27533197,8.47E-05,1,0
8760000,0.014125713,-0.27544367,-0.00090059,1,0
8764000,0.013355344,-0.27552426,-0.002276704,1,0
8768000,0.012209452,-0.2619628,-0.004149928,1,0
8776000,0.010907597,-0.26229593,-0.006638974,1,0
8784000,0.008359888,-0.26246032,-0.010162188,1,0
8788000,0.005300738,-0.26237416,-0.01273105,1,0
8792000,0.003429441,-0.24964331,-0.014404829,1,0
8796000,0.001927898,-0.24987097,-0.015758604,1,0
8800000,0.002149716,-0.21366577,-0.016744234,1,0
8804000,0.00113324,-0.2137121,-0.018332114,1,0
8808000,-0.001466424,-0.21349373,-0.021397734,1,0
8812000,-0.002917315,-0.21348049,-0.022902703,1,0
8816000,-0.004479483,-0.20306805,-0.024655873,1,0
8820000,-0.006144891,-0.2030835,-0.026036197,1,0
8824000,-0.007819362,-0.20316702,-0.027891796,1,0
8828000,-0.009488802,-0.20330022,-0.02933025,1,0
8832000,-0.01130323,-0.20352271,-0.031184403,1,0
8840000,-0.01534759,-0.1942554,-0.034076862,1,0
8844000,-0.01708901,-0.19439557,-0.035068303,1,0
8848000,-0.018496461,-0.1945149,-0.036590457,1,0
8852000,-0.02011302,-0.19465795,-0.037717775,1,0
8856000,-0.02205033,-0.1948744,-0.039332997,1,0
8864000,-0.024234425,-0.18588398,-0.04152423,1,0
8872000,-0.02857111,-0.18627512,-0.043075286,1,0
8876000,-0.030618453,-0.1863948,-0.043626502,1,0
8880000,-0.032630615,-0.18646616,-0.044685885,1,0
8884000,-0.034359846,-0.18661977,-0.04514633,1,0
8888000,-0.036060344,-0.17779882,-0.046074547,1,0
8892000,-0.038011964,-0.17792684,-0.046320748,1,0
8896000,-0.032008737,-0.15812725,-0.046901662,1,0
8900000,-0.033863705,-0.15825847,-0.046780907,1,0
8904000,-0.035839073,-0.15835007,-0.04717774,1,0
8908000,-0.037807394,-0.15851268,-0.046943016,1,0
8912000,-0.03964669,-0.15110198,-0.047166042,1,0
8916000,-0.041395225,-0.15128565,-0.04688373,1,0
8920000,-0.0429958,-0.151487,-0.047093336,1,0
8924000,-0.044424463,-0.15170462,-0.04672563,1,0
8928000,-0.045939863,-0.15184371,-0.04682506,1,0
8932000,-0.047679808,-0.15192816,-0.04643018,1,0
8936000,-0.04931594,-0.14474314,-0.046348616,1,0
8940000,-0.05066549,-0.14485341,-0.04565584,1,0
8948000,-0.053187832,-0.14494072,-0.044846088,1,0
8952000,-0.05443311,-0.14497721,-0.044626538,1,0
8956000,-0.05586132,-0.14508297,-0.043760233,1,0
8960000,-0.05749732,-0.13816962,-0.04335071,1,0
8964000,-0.05903458,-0.13818115,-0.04263559,1,0
8968000,-0.060213245,-0.1380961,-0.04225251,1,0
8976000,-0.062332135,-0.13809752,-0.04065262,1,0
8984000,-0.064050436,-0.13154717,-0.039279893,1,0
8988000,-0.06544258,-0.13163461,-0.03756416,1,0
8992000,-0.06593008,-0.1314951,-0.03675668,1,0
8996000,-0.05872442,-0.12260847,-0.035675943,1,0
9000000,-0.059669353,-0.122584805,-0.03482257,1,0
9004000,-0.060539536,-0.12258361,-0.033717506,1,0
9008000,-0.061417546,-0.1165244,-0.032837674,1,0
9016000,-0.062982626,-0.11674245,-0.030734092,1,0
9020000,-0.063184604,-0.11667389,-0.029437166,1,0
9024000,-0.06344275,-0.11650637,-0.028289514,1,0
9032000,-0.06476838,-0.11031929,-0.025912492,1,0
9036000,-0.06546069,-0.110289045,-0.024747178,1,0
9040000,-0.06595254,-0.11024735,-0.023744255,1,0
9044000,-0.066606306,-0.110266894,-0.022485022,1,0
9048000,-0.067366935,-0.110318035,-0.021313632,1,0
9052000,-0.06798772,-0.110355884,-0.020077873,1,0
9056000,-0.068443194,-0.104623154,-0.019016612,1,0
9064000,-0.06926988,-0.10468656,-0.016992163,1,0
9072000,-0.07033228,-0.10440976,-0.014097596,1,0
9076000,-0.070812784,-0.104370326,-0.012766365,1,0
9080000,-0.0709817,-0.098715186,-0.011540481,1,0
9084000,-0.07103716,-0.09873186,-0.010323432,1,0
9088000,-0.07118072,-0.09870489,-0.009175647,1,0
9092000,-0.071420945,-0.098650225,-0.00800236,1,0
9096000,-0.06580825,-0.09392511,-0.006823638,1,0
9100000,-0.06600506,-0.09391796,-0.005542793,1,0
9104000,-0.066035144,-0.088735305,-0.004298931,1,0
9108000,-0.06632307,-0.08880479,-0.003191697,1,0
9112000,-0.066766255,-0.08883598,-0.002164389,1,0
9116000,-0.06701488,-0.088787414,-0.00117119,1,0
9120000,-0.06726744,-0.08867482,-0.000175323,1,0
9124000,-0.06758737,-0.0885424,0.000856091,1,0
9128000,-0.067808196,-0.08332877,0.001910069,1,0
9136000,-0.06837918,-0.08335403,0.003907852,1,0
9140000,-0.0688193,-0.08334959,0.00493572,1,0
9144000,-0.06928048,-0.083324395,0.005904418,1,0
9148000,-0.0696582,-0.08333994,0.006645863,1,0
9156000,-0.069912374,-0.0785308,0.008273725,1,0
9160000,-0.06997199,-0.07858667,0.009273846,1,0
9164000,-0.070048876,-0.07859504,0.010192438,1,0
9168000,-0.07027884,-0.078627974,0.011071304,1,0
9172000,-0.07046407,-0.078693695,0.011838635,1,0
9176000,-0.07063141,-0.07392108,0.012629516,1,0
9180000,-0.07105549,-0.07409169,0.013280516,1,0
9184000,-0.071432516,-0.07425304,0.014016546,1,0
9188000,-0.07149506,-0.07444368,0.014736067,1,0
9192000,-0.07144408,-0.07468394,0.015549342,1,0
9200000,-0.071877874,-0.07025589,0.017065179,1,0
9208000,-0.07188165,-0.07073307,0.018174505,1,0
9216000,-0.072902724,-0.07120036,0.018906504,1,0
9220000,-0.0729227,-0.07145036,0.019383136,1,0
9224000,-0.07287745,-0.06695132,0.01994393,1,0
9228000,-0.07308732,-0.067210406,0.020445865,1,0
9232000,-0.07341575,-0.06748827,0.020922706,1,0
9236000,-0.07363285,-0.06779409,0.021180805,1,0
9240000,-0.07359992,-0.06810339,0.021411346,1,0
9244000,-0.07345071,-0.06843715,0.021501053,1,0
9248000,-0.07352873,-0.06413992,0.021681447,1,0
9252000,-0.07384827,-0.0644916,0.021858238,1,0
9256000,-0.074148044,-0.06480912,0.022110324,1,0
9260000,-0.074276105,-0.06510288,0.022246856,1,0
9264000,-0.07438433,-0.06537824,0.022408206,1,0
9268000,-0.07457191,-0.06567805,0.02244974,1,0
9272000,-0.07479237,-0.061437957,0.022505699,1,0
9276000,-0.075085044,-0.0618615,0.022416405,1,0
9280000,-0.07537255,-0.062289506,0.022428041,1,0
9284000,-0.07562583,-0.06269034,0.022447294,1,0
9288000,-0.07593795,-0.06304883,0.02251162,1,0
9292000,-0.07618526,-0.0634135,0.022482777,1,0
9296000,-0.07656766,-0.059179656,0.02266122,1,0
9300000,-0.07645008,-0.059865743,0.022307726,1,0
9304000,-0.0765228,-0.060412053,0.022114689,1,0
9308000,-0.07652934,-0.060890354,0.021788573,1,0
9312000,-0.076453514,-0.061319117,0.02151918,1,0
9316000,-0.076276906,-0.06177324,0.021251602,1,0
9320000,-0.076132104,-0.05776726,0.021091748,1,0
9324000,-0.0763476,-0.05827013,0.020862652,1,0
9328000,-0.076862104,-0.058775544,0.020646382,1,0
9332000,-0.07720533,-0.05928099,0.020302996,1,0
9336000,-0.07728594,-0.059781887,0.019860229,1,0
9340000,-0.077235445,-0.06030155,0.019293435,1,0
9344000,-0.07713654,-0.056431025,0.018743046,1,0
9348000,-0.07701471,-0.057032265,0.018228887,1,0
9352000,-0.07693623,-0.057619102,0.01788511,1,0
9356000,-0.077065825,-0.05817827,0.017491713,1,0
9360000,-0.077313036,-0.05869233,0.01708716,1,0
9364000,-0.07756481,-0.059238724,0.016607076,1,0
9368000,-0.07774281,-0.055440687,0.01605124,1,0
9372000,-0.07766281,-0.056068152,0.015471548,1,0
9376000,-0.07749244,-0.056673512,0.015001228,1,0
9380000,-0.07765917,-0.057218827,0.014507268,1,0
9384000,-0.0780994,-0.057704624,0.013980029,1,0
9388000,-0.07842814,-0.05819679,0.01331804,1,0
9392000,-0.078732416,-0.05431985,0.012895921,1,0
9396000,-0.07864658,-0.054961488,0.012064339,1,0
9400000,-0.0788399,-0.05563145,0.011631459,1,0
9404000,-0.079192586,-0.056336194,0.011097684,1,0
9408000,-0.07939277,-0.05700821,0.010483094,1,0
9412000,-0.07927666,-0.057663627,0.009860415,1,0
9416000,-0.079102635,-0.053960107,0.009290196,1,0
9420000,-0.07889533,-0.054554425,0.008642816,1,0
9424000,-0.078534216,-0.055189073,0.007954098,1,0
9428000,-0.07835237,-0.055840362,0.007322402,1,0
9432000,-0.078639135,-0.056404993,0.006789844,1,0
9436000,-0.07921205,-0.057108305,0.006145741,1,0
9440000,-0.07973737,-0.053419802,0.005572872,1,0
9448000,-0.07998529,-0.05453433,0.004602158,1,0
9452000,-0.07996573,-0.055046193,0.004038374,1,0
9456000,-0.07994142,-0.055560842,0.003378965,1,0
9460000,-0.080019474,-0.056193177,0.0027353,1,0
9464000,-0.08009861,-0.052630633,0.002118986,1,0
9468000,-0.08009362,-0.05334966,0.00147131,1,0
9472000,-0.0800572,-0.054049343,0.000859623,1,0
9480000,-0.080222115,-0.055288393,-0.000251882,1,0
9484000,-0.08052123,-0.055817507,-0.000825854,1,0
9488000,-0.08078421,-0.052142378,-0.001431145,1,0
9492000,-0.081037775,-0.05268919,-0.002121214,1,0
9496000,-0.08101349,-0.05332365,-0.002535041,1,0
9500000,-0.08097479,-0.054030623,-0.00286682,1,0
9504000,-0.08101726,-0.054752927,-0.003309059,1,0
9508000,-0.081087135,-0.055407964,-0.003793559,1,0
9512000,-0.08107824,-0.051755395,-0.004268657,1,0
9516000,-0.08097053,-0.05230806,-0.004692633,1,0
9520000,-0.0809002,-0.05285247,-0.00513331,1,0
9524000,-0.080957144,-0.053398788,-0.005638525,1,0
9528000,-0.08113288,-0.053977266,-0.006172883,1,0
9532000,-0.08134595,-0.05460759,-0.006658469,1,0
9536000,-0.081582,-0.050987434,-0.00716874,1,0
9540000,-0.08137511,-0.051584717,-0.007507787,1,0
9544000,-0.081170425,-0.052051347,-0.007997625,1,0
9548000,-0.08109593,-0.052519023,-0.008497752,1,0
9552000,-0.08115945,-0.053064294,-0.008863181,1,0
9556000,-0.081342176,-0.053651232,-0.009128401,1,0
9560000,-0.08141613,-0.0500231,-0.009498494,1,0
9564000,-0.08120345,-0.050632276,-0.009952519,1,0
9568000,-0.0814254,-0.05122174,-0.010408282,1,0
9572000,-0.08133376,-0.05183692,-0.010670577,1,0
9576000,-0.08145853,-0.052340064,-0.010911971,1,0
9580000,-0.081663564,-0.052825455,-0.011088558,1,0
9584000,-0.08195591,-0.049129482,-0.011263764,1,0
9588000,-0.08195019,-0.049647104,-0.011514883,1,0
9596000,-0.08158078,-0.05078699,-0.012242761,1,0
9600000,-0.08181227,-0.051433947,-0.012574071,1,0
9604000,-0.08203866,-0.05209305,-0.012796223,1,0
9608000,-0.08211306,-0.048542216,-0.012993184,1,0
9612000,-0.08208336,-0.049059853,-0.013125681,1,0
9616000,-0.08205787,-0.049443085,-0.013241997,1,0
9620000,-0.082028665,-0.049902193,-0.013395053,1,0
9624000,-0.08220801,-0.050484702,-0.013677184,1,0
9628000,-0.0817187,-0.051098213,-0.013669618,1,0
9632000,-0.081696786,-0.04745656,-0.013782926,1,0
9636000,-0.08175386,-0.04797343,-0.013972424,1,0
9640000,-0.08175753,-0.048482887,-0.014241765,1,0
9644000,-0.081681035,-0.048977993,-0.014454963,1,0
9648000,-0.08151383,-0.04948692,-0.014585708,1,0
9656000,-0.08123533,-0.046299696,-0.014842473,1,0
9664000,-0.08159401,-0.047219202,-0.014976425,1,0
9672000,-0.08140484,-0.048512284,-0.015247889,1,0
9676000,-0.08160342,-0.04905752,-0.015376186,1,0
9680000,-0.08185222,-0.04534593,-0.015473675,1,0
9684000,-0.08182782,-0.045852944,-0.015588457,1,0
9688000,-0.081785336,-0.046339802,-0.015750637,1,0
9696000,-0.08208979,-0.047218755,-0.016039666,1,0
9700000,-0.08208499,-0.047673415,-0.016156482,1,0
9704000,-0.08187624,-0.043941915,-0.016297048,1,0
9708000,-0.08153452,-0.044445083,-0.016398894,1,0
9712000,-0.08130227,-0.04497687,-0.016458515,1,0
9720000,-0.0811592,-0.04586381,-0.01655038,1,0
9724000,-0.08130981,-0.046297032,-0.016606035,1,0
9728000,-0.081706114,-0.042684514,-0.01669897,1,0
9732000,-0.08198614,-0.043265894,-0.01683216,1,0
9736000,-0.08208312,-0.04375192,-0.0169786,1,0
9740000,-0.082108535,-0.044232707,-0.017130978,1,0
9744000,-0.08201372,-0.044739492,-0.017230045,1,0
9748000,-0.08193923,-0.045203142,-0.017287225,1,0
9752000,-0.081939064,-0.04149723,-0.017434759,1,0
9756000,-0.08183721,-0.042058356,-0.017593216,1,0
9760000,-0.081962675,-0.0425615,-0.017710049,1,0
9764000,-0.08186854,-0.04304807,-0.017738217,1,0
9768000,-0.08206428,-0.043418504,-0.017792756,1,0
9772000,-0.08222515,-0.0437559,-0.017891752,1,0
9776000,-0.0823152,-0.039987378,-0.018016897,1,0
9780000,-0.08244087,-0.04054469,-0.01807715,1,0
9784000,-0.08277593,-0.041140363,-0.018144723,1,0
9788000,-0.082911305,-0.04162462,-0.01829514,1,0
9792000,-0.083288565,-0.042146258,-0.018527906,1,0
9796000,-0.0832356,-0.042542085,-0.018995952,1,0
9800000,-0.08287526,-0.038749162,-0.019152578,1,0
9804000,-0.082608946,-0.039210845,-0.019314155,1,0
9808000,-0.08273091,-0.039690122,-0.019488309,1,0
9812000,-0.08269103,-0.04015428,-0.019767564,1,0
9816000,-0.082686715,-0.040509824,-0.01993315,1,0
9820000,-0.082510225,-0.040891286,-0.020049943,1,0
9824000,-0.082620345,-0.037133962,-0.020226847,1,0
9828000,-0.08238114,-0.037522636,-0.020493641,1,0
9832000,-0.08259244,-0.037968446,-0.02078774,1,0
9836000,-0.08277845,-0.038516257,-0.02104821,1,0
9840000,-0.08282238,-0.039131884,-0.021260843,1,0
9848000,-0.08281702,-0.035957567,-0.021657258,1,0
9852000,-0.0827018,-0.036421128,-0.021863934,1,0
9856000,-0.082820036,-0.03685876,-0.022055876,1,0
9860000,-0.08271166,-0.037284564,-0.022312008,1,0
9864000,-0.08265847,-0.037705015,-0.022622813,1,0
9868000,-0.08295646,-0.03810642,-0.02294495,1,0
9872000,-0.08323241,-0.03429335,-0.02330973,1,0
9876000,-0.083187364,-0.03478241,-0.023637874,1,0
9880000,-0.08292548,-0.03527948,-0.023885224,1,0
9884000,-0.08270739,-0.035715178,-0.024155524,1,0
9888000,-0.08264845,-0.036141045,-0.024469648,1,0
9892000,-0.08274028,-0.036593616,-0.024807697,1,0
9896000,-0.082844526,-0.032808807,-0.025075937,1,0
9904000,-0.08270459,-0.033771798,-0.02563082,1,0
9908000,-0.08283146,-0.03423285,-0.02594565,1,0
9912000,-0.0832682,-0.034688458,-0.02632578,1,0
9920000,-0.083712846,-0.03136858,-0.027035665,1,0
9928000,-0.08337341,-0.03234542,-0.027922869,1,0
9936000,-0.08353191,-0.033298045,-0.02864718,1,0
9940000,-0.08367449,-0.03384538,-0.029062832,1,0
9944000,-0.083666496,-0.03001747,-0.029394452,1,0
9948000,-0.08367701,-0.030415658,-0.029715942,1,0
9952000,-0.08365497,-0.030804165,-0.030070323,1,0
9956000,-0.08373196,-0.031217922,-0.030480225,1,0
9960000,-0.0840357,-0.031643867,-0.030935012,1,0
9964000,-0.084411874,-0.032075685,-0.031445816,1,0
9968000,-0.08455555,-0.028247226,-0.03194196,1,0
9972000,-0.08439481,-0.028712817,-0.032356612,1,0
9976000,-0.084232554,-0.029217523,-0.03264462,1,0
9980000,-0.08426516,-0.02975512,-0.03292705,1,0
9984000,-0.084418684,-0.030287359,-0.03329323,1,0
9988000,-0.08457076,-0.030737013,-0.033751316,1,0
9992000,-0.08467431,-0.026887324,-0.03413993,1,0
9996000,-0.084780075,-0.027258288,-0.034665532,1,0
10000000,-0.08473534,-0.027732067,-0.035084426,1,0
10004000,-0.084492266,-0.028220108,-0.03551058,1,0
10008000,-0.084322646,-0.028705675,-0.0358421,1,0
10012000,-0.08440862,-0.029152572,-0.03611841,1,0
10016000,-0.08451852,-0.025278322,-0.036457524,1,0
10020000,-0.084384315,-0.02572439,-0.036952145,1,0
10024000,-0.0841742,-0.026189234,-0.03751128,1,0
10028000,-0.08423105,-0.026667546,-0.038037084,1,0
10032000,-0.08452634,-0.027119366,-0.038467053,1,0
10036000,-0.084800385,-0.027567217,-0.03883318,1,0
10040000,-0.08498258,-0.023721453,-0.03921185,1,0
10044000,-0.0851552,-0.024200246,-0.0396374,1,0
10048000,-0.08525108,-0.024692057,-0.040076546,1,0
10056000,-0.085382156,-0.025642594,-0.04092832,1,0
10064000,-0.08533125,-0.022396376,-0.04192534,1,0
10068000,-0.085081674,-0.023089983,-0.042617843,1,0
10072000,-0.08495353,-0.023601957,-0.04295128,1,0
10080000,-0.08501112,-0.024515897,-0.04355135,1,0
10084000,-0.0852869,-0.024921317,-0.043835554,1,0
10088000,-0.08573571,-0.020975083,-0.044248488,1,0
10096000,-0.08613898,-0.02182797,-0.045215644,1,0
10100000,-0.08599878,-0.0222818,-0.0456319,1,0
10104000,-0.08607664,-0.022755058,-0.046011098,1,0
10108000,-0.08533228,-0.023195267,-0.046202153,1,0
10116000,-0.08555868,-0.019718867,-0.047034714,1,0
10120000,-0.085902095,-0.020188615,-0.047457725,1,0
10124000,-0.086013086,-0.020786585,-0.04758438,1,0
10128000,-0.085924,-0.021310546,-0.047589343,1,0
10132000,-0.085823044,-0.021825496,-0.047529317,1,0
10136000,-0.08589998,-0.01791156,-0.04753346,1,0
10140000,-0.08559877,-0.018360585,-0.04746637,1,0
10144000,-0.08578204,-0.018862251,-0.047494464,1,0
10148000,-0.08613899,-0.019401914,-0.04754365,1,0
10152000,-0.08642172,-0.019860206,-0.0475618,1,0
10160000,-0.08661996,-0.016297523,-0.047536872,1,0
10164000,-0.08625542,-0.016674455,-0.047341734,1,0
10168000,-0.086338215,-0.017145298,-0.047345832,1,0
10172000,-0.086374804,-0.01764703,-0.04731356,1,0
10176000,-0.08667617,-0.018135676,-0.04732282,1,0
10180000,-0.08678222,-0.018635083,-0.04732289,1,0
10184000,-0.08668328,-0.014758074,-0.047320135,1,0
10188000,-0.086703226,-0.015282335,-0.047356136,1,0
10192000,-0.0869062,-0.015733961,-0.04734014,1,0
10196000,-0.08708872,-0.016163504,-0.047314428,1,0
10200000,-0.08716444,-0.016576618,-0.047258936,1,0
10204000,-0.08708953,-0.01702704,-0.04725734,1,0
10208000,-0.08682019,-0.013107341,-0.047275446,1,0
10212000,-0.086511366,-0.013607575,-0.0472992,1,0
10216000,-0.08649043,-0.01405442,-0.047257308,1,0
10220000,-0.0867572,-0.014500503,-0.0472091,1,0
10224000,-0.08690486,-0.014980409,-0.04718072,1,0
10228000,-0.08670268,-0.015495298,-0.04719843,1,0
10232000,-0.08647223,-0.011600291,-0.047183044,1,0
10236000,-0.08649225,-0.012128499,-0.047193952,1,0
10240000,-0.08668927,-0.012596054,-0.047154874,1,0
10244000,-0.08696993,-0.013051258,-0.047139898,1,0
10248000,-0.08720908,-0.013475334,-0.047178883,1,0
10252000,-0.08734712,-0.013888243,-0.04727249,1,0
10256000,-0.08742649,-0.00988947,-0.04727654,1,0
10260000,-0.08746565,-0.010349575,-0.047279075,1,0
10264000,-0.08753742,-0.010901969,-0.047229975,1,0
10268000,-0.087627046,-0.011456413,-0.047220737,1,0
10272000,-0.08772151,-0.011952791,-0.047170084,1,0
10276000,-0.08789605,-0.012399817,-0.047114354,1,0
10280000,-0.08794908,-0.008368742,-0.04704748,1,0
10284000,-0.08769787,-0.008840072,-0.047049936,1,0
10288000,-0.0874788,-0.009273602,-0.0470786,1,0
10296000,-0.0876333,-0.01015585,-0.04716501,1,0
10300000,-0.08788942,-0.010626568,-0.04715781,1,0
10304000,-0.08798159,-0.006603065,-0.04705531,1,0
10308000,-0.088258706,-0.007072158,-0.047052436,1,0
10312000,-0.08837417,-0.007538137,-0.04708699,1,0
10320000,-0.087796435,-0.008352608,-0.04710771,1,0
10324000,-0.08754628,-0.008773077,-0.047088504,1,0
10328000,-0.08768632,-0.004732641,-0.04705273,1,0
10336000,-0.08803656,-0.005888286,-0.04695495,1,0
10344000,-0.0882402,-0.0068662,-0.04692728,1,0
10348000,-0.08813163,-0.007274435,-0.04705651,1,0
10352000,-0.08819839,-0.003213189,-0.047060497,1,0
10356000,-0.08819948,-0.003658632,-0.047256295,1,0
10360000,-0.088327914,-0.004121413,-0.047238618,1,0
10364000,-0.088249825,-0.004577654,-0.047241617,1,0
10368000,-0.08796249,-0.005096475,-0.047216654,1,0
10372000,-0.08784369,-0.005641336,-0.04721359,1,0
10376000,-0.08799969,-0.001538379,-0.047208205,1,0
10384000,-0.08820528,-0.002377628,-0.047331646,1,0
10388000,-0.08808179,-0.002830593,-0.047546163,1,0
10392000,-0.08784244,-0.003330931,-0.047541395,1,0
10396000,-0.08767864,-0.003817624,-0.047557198,1,0
10400000,-0.087706,0.000268359,-0.04758839,1,0
10404000,-0.08802053,-0.000210671,-0.04769826,1,0
10408000,-0.088474445,-0.000665445,-0.04771577,1,0
10412000,-0.08869071,-0.001096083,-0.047678493,1,0
10416000,-0.08859445,-0.001562795,-0.04766474,1,0
10420000,-0.088406816,-0.002075773,-0.047723517,1,0
10424000,-0.088423915,0.002046889,-0.047738813,1,0
10428000,-0.088611975,0.001634466,-0.04776575,1,0
10432000,-0.08852418,0.001194501,-0.047751796,1,0
10436000,-0.08824148,0.00079144,-0.047752,1,0
10440000,-0.0881944,0.000385508,-0.047734037,1,0
10444000,-0.088275425,-0.000116313,-0.047739983,1,0
10448000,-0.08837526,0.003976818,-0.04766501,1,0
10452000,-0.08847987,0.003495878,-0.047642212,1,0
10456000,-0.08852364,0.00304783,-0.04766427,1,0
10460000,-0.08853921,0.002614331,-0.04773999,1,0
10464000,-0.088542454,0.002120595,-0.04776332,1,0
10468000,-0.08855976,0.001603589,-0.047823265,1,0
10472000,-0.088482924,0.005735684,-0.04788593,1,0
10476000,-0.0882356,0.005283551,-0.047960617,1,0
10480000,-0.08800262,0.004827861,-0.047950402,1,0
10488000,-0.08853336,0.003799088,-0.048010245,1,0
10492000,-0.088956885,0.00324495,-0.048133016,1,0
10496000,-0.089038886,0.007386295,-0.048237123,1,0
10504000,-0.089092396,0.006494023,-0.048322134,1,0
10508000,-0.08918083,0.006152039,-0.048319347,1,0
10512000,-0.08920955,0.005694665,-0.048330136,1,0
10516000,-0.089237176,0.005235307,-0.048343644,1,0
10520000,-0.0893019,0.009418163,-0.048347846,1,0
10524000,-0.089526705,0.008941988,-0.048345953,1,0
10528000,-0.0896435,0.008443093,-0.048389204,1,0
10536000,-0.0897413,0.007467356,-0.048465647,1,0
10544000,-0.090087205,0.011210498,-0.0485532,1,0
10548000,-0.09002391,0.010738924,-0.048647597,1,0
10552000,-0.090016454,0.010233087,-0.048712973,1,0
10556000,-0.08983715,0.009709515,-0.048757225,1,0
10560000,-0.089666314,0.009176727,-0.04870283,1,0
10564000,-0.089723326,0.008666698,-0.048686594,1,0
10568000,-0.089612804,0.012891687,-0.04867865,1,0
10572000,-0.08935782,0.012490114,-0.048785474,1,0
10576000,-0.089235485,0.012070835,-0.04888951,1,0
10580000,-0.089279905,0.011634072,-0.048964888,1,0
10584000,-0.08959555,0.011161512,-0.048957627,1,0
10588000,-0.08990885,0.010667441,-0.049011316,1,0
10592000,-0.08986531,0.014844246,-0.049041595,1,0
10596000,-0.089636855,0.014332932,-0.049058117,1,0
10600000,-0.08958862,0.013876084,-0.048993155,1,0
10608000,-0.08986557,0.012974469,-0.048997425,1,0
10612000,-0.09067618,0.012443278,-0.048969164,1,0
10616000,-0.091095105,0.01656905,-0.048959244,1,0
10620000,-0.091385044,0.016008927,-0.049050733,1,0
10624000,-0.091550134,0.015533539,-0.04911279,1,0
10628000,-0.091612525,0.015130524,-0.049213592,1,0
10632000,-0.09156773,0.014677407,-0.049284186,1,0
10640000,-0.091193885,0.0183234,-0.049381007,1,0
10644000,-0.09101053,0.01783781,-0.04935296,1,0
10648000,-0.09107375,0.01734655,-0.049357325,1,0
10652000,-0.090673685,0.01680028,-0.04928273,1,0
10656000,-0.09073282,0.01625408,-0.049339183,1,0
10660000,-0.09109832,0.015737234,-0.04945602,1,0
10664000,-0.091478616,0.019962681,-0.04953947,1,0
10672000,-0.091694474,0.018981835,-0.049649075,1,0
10676000,-0.09098409,0.018436706,-0.04959336,1,0
10680000,-0.09085275,0.017834907,-0.04953573,1,0
10684000,-0.09091921,0.017359182,-0.04958137,1,0
10688000,-0.09138361,0.021755476,-0.049571604,1,0
10692000,-0.091974795,0.021351723,-0.04960099,1,0
10696000,-0.092369705,0.020854067,-0.04961207,1,0
10700000,-0.092397064,0.02032745,-0.04968912,1,0
10704000,-0.092466034,0.019836377,-0.04969354,1,0
10708000,-0.092066176,0.019298393,-0.04973669,1,0
10712000,-0.09201328,0.023522867,-0.049701594,1,0
10716000,-0.09206026,0.023007315,-0.049761772,1,0
10720000,-0.09206785,0.022518596,-0.04978875,1,0
10724000,-0.09188771,0.022052012,-0.04980135,1,0
10728000,-0.09146056,0.021584999,-0.049733922,1,0
10732000,-0.09098594,0.021114819,-0.049718,1,0
10736000,-0.09072963,0.025342535,-0.049660478,1,0
10740000,-0.09082192,0.024773337,-0.049656164,1,0
10744000,-0.091299236,0.024223963,-0.04968746,1,0
10748000,-0.09185195,0.02367551,-0.04982063,1,0
10752000,-0.09190975,0.023147903,-0.049825057,1,0
10756000,-0.09221986,0.022480374,-0.049889643,1,0
10760000,-0.09240385,0.026730513,-0.049819857,1,0
10764000,-0.092420615,0.02630496,-0.04979327,1,0
10768000,-0.0921195,0.025875539,-0.049785353,1,0
10772000,-0.09188583,0.025354128,-0.049856976,1,0
10776000,-0.09197047,0.024810743,-0.049838364,1,0
10780000,-0.092073336,0.02427845,-0.049871653,1,0
10784000,-0.09206744,0.028464176,-0.049907736,1,0
10792000,-0.09233864,0.0274208,-0.050011136,1,0
10796000,-0.092911,0.026989944,-0.050052874,1,0
10800000,-0.092924155,0.026482446,-0.049979363,1,0
10808000,-0.092608735,0.03021768,-0.049878463,1,0
10812000,-0.09242139,0.02966692,-0.050010044,1,0
10816000,-0.09225817,0.029094296,-0.05010359,1,0
10820000,-0.09210728,0.028581083,-0.0501659,1,0
10824000,-0.092156455,0.028055064,-0.05017037,1,0
10828000,-0.091985464,0.02750339,-0.050175037,1,0
10832000,-0.09245286,0.03175389,-0.05019613,1,0
10836000,-0.0925136,0.031233564,-0.05024775,1,0
10840000,-0.09296795,0.030738244,-0.050183553,1,0
10848000,-0.09308058,0.029753443,-0.050260633,1,0
10856000,-0.09299537,0.02885719,-0.0503878,1,0
10860000,-0.09271531,0.028317636,-0.050293848,1,0
10864000,-0.092606366,0.027848888,-0.050283767,1,0
10868000,-0.092764035,0.027373541,-0.05030674,1,0
10872000,-0.09306994,0.026920814,-0.050245848,1,0
10876000,-0.09332106,0.026476922,-0.050247658,1,0
10880000,-0.0935739,0.02598571,-0.050225772,1,0
10884000,-0.093767986,0.02541942,-0.05030849,1,0
10888000,-0.0938229,0.024892805,-0.050312966,1,0
10892000,-0.09361413,0.02425615,-0.0504517,1,0
10896000,-0.09350061,0.02381264,-0.05048959,1,0
10904000,-0.09334856,0.02284059,-0.050543934,1,0
10908000,-0.093054354,0.022345914,-0.050545,1,0
10912000,-0.09285839,0.021919906,-0.05053073,1,0
10916000,-0.09260116,0.021503488,-0.05054143,1,0
10920000,-0.0924407,0.021054126,-0.050519764,1,0
10924000,-0.09238943,0.020573216,-0.050563313,1,0
10928000,0.07057078,0.027009707,0.009817596,1,0
10932000,0.0700562,0.026551032,0.009929984,1,0
10936000,0.06957301,0.026088078,0.009939581,1,0
10940000,0.0690278,0.025581393,0.009872792,1,0
10944000,0.06730776,0.025119979,0.009817909,1,0
10948000,0.06412168,0.024750425,0.009853927,1,0
10952000,0.060171835,0.024416592,0.009959669,1,0
10956000,0.05575897,0.024025816,0.010085925,1,0
10960000,0.051037602,0.023604186,0.010206694,1,0
10964000,0.04627871,0.023204753,0.010302294,1,0
10968000,0.041719098,0.022781173,0.01038316,1,0
10972000,0.037496343,0.022392659,0.01045371,1,0
10976000,0.033459477,0.022062486,0.010516782,1,0
10984000,0.028811553,0.02136908,0.010733172,1,0
10992000,0.021734051,0.020761361,0.010979419,1,0
10996000,0.01675183,0.020644324,0.011139698,1,0
11000000,0.014092448,0.020396113,0.011235692,1,0
11004000,0.011556529,0.020125046,0.011303673,1,0
11008000,0.009101043,0.019838499,0.01136543,1,0
11012000,0.006674341,0.01953506,0.011464995,1,0
11016000,0.004220198,0.019258345,0.011588927,1,0
11020000,0.001754627,0.0190282,0.011712611,1,0
11024000,0.000841863,0.018768702,0.011874825,1,0
11028000,-0.002953561,0.01861484,0.011927014,1,0
11032000,-0.004988883,0.018428829,0.012075117,1,0
11036000,-0.00714324,0.018267998,0.012240599,1,0
11040000,-0.009281455,0.018080723,0.0123634,1,0
11044000,-0.011214021,0.017883321,0.012435664,1,0
11052000,-0.014717933,0.017391983,0.012624947,1,0
11056000,-0.016386872,0.01709531,0.012772368,1,0
11060000,-0.01797287,0.016888134,0.012924492,1,0
11064000,-0.01899621,0.016684921,0.013101588,1,0
11068000,-0.020621113,0.01653867,0.013240082,1,0
11072000,-0.021824777,0.016359523,0.013348704,1,0
11076000,-0.023054011,0.016255049,0.013456935,1,0
11080000,-0.024375718,0.016150953,0.013594041,1,0
11084000,-0.025422119,0.015978124,0.013773976,1,0
11088000,-0.026708782,0.015843837,0.013841134,1,0
11092000,-0.02770375,0.01572398,0.013963096,1,0
11096000,-0.028865252,0.01566554,0.014098121,1,0
11100000,-0.030002668,0.015640663,0.014221218,1,0
11104000,-0.031094085,0.015559409,0.014345412,1,0
11108000,-0.03215041,0.015400372,0.014480535,1,0
11112000,-0.032948263,0.015232062,0.014637851,1,0
11116000,-0.033652775,0.015072057,0.014779002,1,0
11120000,-0.034540795,0.014906427,0.01492535,1,0
11124000,-0.03547682,0.014797241,0.015088714,1,0
11128000,-0.03636177,0.014714319,0.015233614,1,0
11132000,-0.037341896,0.014623158,0.01540486,1,0
11136000,-0.038391516,0.014530076,0.01558223,1,0
11140000,-0.03968896,0.014528452,0.015780123,1,0
11144000,-0.04073668,0.014418218,0.01596204,1,0
11148000,-0.041623853,0.014161486,0.01603768,1,0
11152000,-0.042278163,0.013959276,0.016126134,1,0
11156000,-0.042658217,0.013874546,0.016249718,1,0
11160000,-0.043678135,0.013772741,0.016427308,1,0
11164000,-0.04340157,0.013779661,0.016616704,1,0
11168000,-0.043858957,0.013749851,0.016819846,1,0
11172000,-0.04454317,0.01367495,0.01701539,1,0
11176000,-0.045382753,0.013623141,0.017168574,1,0
11180000,-0.046364855,0.013608879,0.017251665,1,0
11184000,-0.047371116,0.013566356,0.01730975,1,0
11188000,-0.048207715,0.013462056,0.017441867,1,0
11192000,-0.048943393,0.013293622,0.017664935,1,0
11196000,-0.049561217,0.013159623,0.017990924,1,0
11200000,-0.049875405,0.012999376,0.018155532,1,0
11204000,-0.050146423,0.012870705,0.018285042,1,0
11208000,-0.050568283,0.012775499,0.018426226,1,0
11212000,-0.051246725,0.012746234,0.018590026,1,0
11216000,-0.052071527,0.012730319,0.018721597,1,0
11220000,-0.05278111,0.012642622,0.018813081,1,0
11224000,-0.05321464,0.012460796,0.018960446,1,0
11228000,-0.05344073,0.012258913,0.019179953,1,0
11232000,-0.054396026,0.012187541,0.019355219,1,0
11240000,-0.05531877,0.012023183,0.019706806,1,0
11244000,-0.055276662,0.012021268,0.019903034,1,0
11248000,-0.05578263,0.011988197,0.020125382,1,0
11252000,-0.056503195,0.011922704,0.020342113,1,0
11256000,-0.05708356,0.011863545,0.02052172,1,0
11260000,-0.057327174,0.011802763,0.020662613,1,0
11264000,-0.05750235,0.011708593,0.02080118,1,0
11268000,-0.0579139,0.011632964,0.02093558,1,0
11272000,-0.058557108,0.011577964,0.021085327,1,0
11276000,-0.059290417,0.011537172,0.021273253,1,0
11280000,-0.06016989,0.011482619,0.021441538,1,0
11284000,-0.06031532,0.011484265,0.021645997,1,0
11288000,-0.06082634,0.011425948,0.021836638,1,0
11292000,-0.06141416,0.01134832,0.022072405,1,0
11296000,-0.061777174,0.011369634,0.022393398,1,0
11300000,-0.061948474,0.011339285,0.02258522,1,0
11304000,-0.06215889,0.011268446,0.02274857,1,0
11308000,-0.062333442,0.011165367,0.022886246,1,0
11312000,-0.062692285,0.011087606,0.023013335,1,0
11316000,-0.06323554,0.011039654,0.023142261,1,0
11320000,-0.06360385,0.010994788,0.023295918,1,0
11328000,-0.06423329,0.010829823,0.0236341,1,0
11336000,-0.06542056,0.010670701,0.023987839,1,0
11340000,-0.06575806,0.010661235,0.024155583,1,0
11344000,-0.06622013,0.010646237,0.024260955,1,0
11352000,-0.06732771,0.010496723,0.024567448,1,0
11356000,-0.067054525,0.010302449,0.024751566,1,0
11360000,-0.06721831,0.010222936,0.024972972,1,0
11364000,-0.0674852,0.010188164,0.025192581,1,0
11368000,-0.067792766,0.010144621,0.025354447,1,0
11372000,-0.06807966,0.010047065,0.02548796,1,0
11376000,-0.06848905,0.009888088,0.02558543,1,0
11380000,-0.06903193,0.00970047,0.025705114,1,0
11384000,-0.0695455,0.009597993,0.025854489,1,0
11388000,-0.06973472,0.009528168,0.025921736,1,0
11392000,-0.06967713,0.009435875,0.026013924,1,0
11400000,-0.07037823,0.009219945,0.026186027,1,0
11404000,-0.0711599,0.00908835,0.026267918,1,0
11408000,-0.0717603,0.008932233,0.026296087,1,0
11412000,-0.07196338,0.008744769,0.026266918,1,0
11416000,-0.07178227,0.008532546,0.026256133,1,0
11424000,-0.07201085,0.008205056,0.026285224,1,0
11428000,-0.07159778,0.008117598,0.026214715,1,0
11432000,-0.07203328,0.008020032,0.02625461,1,0
11436000,-0.07240355,0.00789742,0.026343646,1,0
11440000,-0.07272023,0.007686844,0.026415195,1,0
11444000,-0.07285158,0.00743873,0.02643407,1,0
11448000,-0.07296358,0.007196352,0.026490118,1,0
11452000,-0.073186666,0.006975556,0.02661166,1,0
11456000,-0.073493704,0.006818373,0.026710443,1,0
11464000,-0.07424461,0.006714895,0.026739294,1,0
11468000,-0.0744759,0.006667992,0.026759678,1,0
11472000,-0.0744716,0.006565681,0.026772944,1,0
11476000,-0.07439817,0.006405333,0.026737053,1,0
11480000,-0.07494423,0.006257204,0.026770297,1,0
11484000,-0.07462666,0.006042311,0.026700312,1,0
11488000,-0.074831,0.005904503,0.026705666,1,0
11496000,-0.075758986,0.005778903,0.026838768,1,0
11500000,-0.07625013,0.005678684,0.026842073,1,0
11504000,-0.076573245,0.005530546,0.026866503,1,0
11508000,-0.07689273,0.005371828,0.026919851,1,0
11512000,-0.077261776,0.005220933,0.026972702,1,0
11516000,-0.07773162,0.005081005,0.026996713,1,0
11520000,-0.078106105,0.004954714,0.027028918,1,0
11524000,-0.07810161,0.004846906,0.027073424,1,0
11528000,-0.07812726,0.004782194,0.027090505,1,0
11532000,-0.07850087,0.004726131,0.027073745,1,0
11536000,-0.07901961,0.004622476,0.027040036,1,0
11540000,-0.07933808,0.004489493,0.027045108,1,0
11544000,-0.07924139,0.004402697,0.027070083,1,0
11548000,-0.079000995,0.004368808,0.027071342,1,0
11552000,-0.078947835,0.004324809,0.027106795,1,0
11556000,-0.07901631,0.004282331,0.02716852,1,0
11560000,-0.07914961,0.004253218,0.027196532,1,0
11568000,-0.07978997,0.004116546,0.027199594,1,0
11572000,-0.07979338,0.003915377,0.027146358,1,0
11576000,-0.07990185,0.003730757,0.027181365,1,0
11584000,-0.08053092,0.003486175,0.02725957,1,0
11588000,-0.08088425,0.003370112,0.02731779,1,0
11592000,-0.08107482,0.003241573,0.027241113,1,0
11596000,-0.0815951,0.003179716,0.027281076,1,0
11600000,-0.08219594,0.003026996,0.02726532,1,0
11604000,-0.0826082,0.002902223,0.027267039,1,0
11608000,-0.08278469,0.002842395,0.027303334,1,0
11612000,-0.08286993,0.002791982,0.027329173,1,0
11616000,-0.08330576,0.002685778,0.02735643,1,0
11624000,-0.08273395,0.002376523,0.02722298,1,0
11628000,-0.082982,0.002342729,0.02720216,1,0
11632000,-0.083326615,0.002352953,0.027232373,1,0
11636000,-0.08353566,0.002322851,0.02725335,1,0
11640000,-0.08371926,0.002187647,0.02722539,1,0
11644000,-0.083988465,0.002011867,0.027208406,1,0
11648000,0.079006605,0.004153678,0.03572777,0.42101303,0
11652000,0.079032496,0.004188007,0.03591347,0.42101303,0
11656000,0.07921799,0.004256262,0.03606531,0.42101303,0
11660000,0.078918666,0.004320387,0.03614535,0.42101303,0
11668000,0.07350622,0.004452363,0.036220692,0.42101303,0
11672000,0.06947184,9.46E-05,0.037826948,0.44439435,0
11676000,0.06522085,6.21E-05,0.037930023,0.44439435,0
11680000,0.06148991,3.94E-05,0.038055506,0.44439435,0
11688000,0.057551637,0.000163294,0.03833154,0.44439435,0
11692000,0.052881256,0.000114378,0.038205598,0.44439435,0
11696000,0.048367385,-0.004024863,0.03989572,0.4666721,0
11704000,0.04426775,-0.003947197,0.040068597,0.4666721,0
11712000,0.040731512,-0.003855994,0.040172003,0.4666721,0
11720000,0.03693305,-0.008041417,0.04176347,0.48813498,0
11724000,0.035595346,-0.008005803,0.04187199,0.48813498,0
11728000,0.03437728,-0.008004786,0.042044923,0.48813498,0
11732000,0.033045426,-0.008002809,0.042219874,0.48813498,0
11736000,0.03151514,-0.00785617,0.04233572,0.48813498,0
11740000,0.03000898,-0.007586325,0.042385668,0.48813498,0
11744000,0.026529457,-0.011637008,0.044045653,0.5084434,0
11748000,0.025440432,-0.011516459,0.044160955,0.5084434,0
11752000,0.024330817,-0.011455562,0.04428187,0.5084434,0
11760000,0.022437776,-0.011216104,0.04442113,0.5084434,0
11764000,0.02172388,-0.011056136,0.044449955,0.5084434,0
11768000,0.020217907,-0.015160868,0.04614958,0.5275436,0
11772000,0.019063365,-0.015022333,0.04630833,0.5275436,0
11776000,0.018091422,-0.014817488,0.04654582,0.5275436,0
11784000,0.01617065,-0.014286054,0.047016047,0.5275436,0
11788000,0.015610346,-0.013956915,0.047022376,0.5275436,0
11792000,0.012458093,-0.017866423,0.048749648,0.54538465,0
11796000,0.010852044,-0.016390353,0.049944066,0.54538465,0
11800000,0.009808819,-0.01605843,0.050120685,0.54538465,0
11804000,0.008725059,-0.015771532,0.050312705,0.54538465,0
11808000,0.007836752,-0.015504045,0.050496284,0.54538465,0
11812000,0.007160935,-0.015180169,0.05066923,0.54538465,0
11816000,0.006154831,-0.018957557,0.05256116,0.5636948,0
11820000,0.005775818,-0.018529464,0.05272625,0.5636948,0
11824000,0.005046189,-0.01816149,0.05286132,0.5636948,0
11828000,0.00400966,-0.017826417,0.05301291,0.5636948,0
11832000,0.003127858,-0.017462289,0.053209238,0.5636948,0
11836000,0.002371926,-0.017058183,0.053401433,0.5636948,0
11840000,-3.30E-05,-0.020791218,0.055268265,0.5806266,0
11844000,-0.000937123,-0.020397909,0.055379957,0.5806266,0
11848000,-0.001650618,-0.020002894,0.055571683,0.5806266,0
11852000,-0.002327134,-0.019572753,0.055824023,0.5806266,0
11856000,-0.003285479,-0.019161643,0.056022823,0.5806266,0
11860000,-0.003622916,-0.0185875,0.056277618,0.5806266,0
11868000,-0.007057305,-0.021802068,0.05853299,0.59621894,0
11872000,-0.007994263,-0.021393705,0.05873687,0.59621894,0
11880000,-0.008594217,-0.020469226,0.05924139,0.59621894,0
11884000,-0.008833013,-0.019979632,0.0593739,0.59621894,0
11888000,-0.009704144,-0.023551373,0.061308995,0.6104667,0
11892000,-0.010175216,-0.023027029,0.06151244,0.6104667,0
11896000,-0.011053169,-0.021896586,0.062253892,0.6104667,0
11900000,-0.01157687,-0.02135992,0.062472947,0.6104667,0
11904000,-0.012044802,-0.020855563,0.06264852,0.6104667,0
11908000,-0.012598337,-0.02034656,0.06283497,0.6104667,0
11912000,-0.015629992,-0.023889232,0.06490492,0.6240962,0
11916000,-0.016485233,-0.0234234,0.0650872,0.6240962,0
11920000,-0.016993709,-0.022903556,0.065374,0.6240962,0
11924000,-0.017624054,-0.022479195,0.065611735,0.6240962,0
11928000,-0.018046368,-0.022034816,0.06583147,0.6240962,0
11932000,-0.018412378,-0.021597274,0.06605314,0.6240962,0
11936000,-0.019158907,-0.025213972,0.068186566,0.636467,0
11940000,-0.019413814,-0.024737738,0.068444654,0.636467,0
11944000,-0.019753981,-0.024218813,0.06867369,0.636467,0
11952000,-0.020265177,-0.023192238,0.06909054,0.636467,0
11956000,-0.020441312,-0.022734107,0.069268554,0.636467,0
11960000,-0.02321388,-0.026297953,0.07135624,0.64761317,0
11964000,-0.02372843,-0.02578399,0.07155709,0.64761317,0
11968000,-0.024481919,-0.025332421,0.07172847,0.64761317,0
11972000,-0.024779957,-0.024711747,0.072064504,0.64761317,0
11976000,-0.025272168,-0.024270568,0.0723436,0.64761317,0
11980000,-0.025418747,-0.023871701,0.07262941,0.64761317,0
11984000,-0.027484568,-0.027451348,0.07473984,0.6576134,0
11988000,-0.027245805,-0.027037188,0.07511616,0.6576134,0
11992000,-0.027702946,-0.026576634,0.07531105,0.6576134,0
11996000,-0.02875534,-0.02489594,0.07629545,0.6576134,0
12000000,-0.029314289,-0.024380662,0.07646561,0.6576134,0
12008000,-0.031732976,-0.027411377,0.07896519,0.66768837,0
12012000,-0.032070793,-0.026964087,0.0792135,0.66768837,0
12016000,-0.032231025,-0.026480768,0.07936603,0.66768837,0
12020000,-0.03262844,-0.025975132,0.079510584,0.66768837,0
12024000,-0.03298951,-0.025492452,0.0797202,0.66768837,0
12028000,-0.033153865,-0.02501291,0.07999022,0.66768837,0
12032000,-0.034562238,-0.028527465,0.08222444,0.67669237,0
12036000,-0.034799233,-0.028120894,0.082389146,0.67669237,0
12040000,-0.03545148,-0.027676161,0.08255863,0.67669237,0
12044000,-0.0353428,-0.027241679,0.08270845,0.67669237,0
12052000,-0.035237417,-0.02630138,0.08325884,0.67669237,0
12056000,-0.037421506,-0.029847218,0.0855416,0.68470967,0
12060000,-0.037557974,-0.029439414,0.08572414,0.68470967,0
12064000,-0.037842073,-0.02897832,0.0858652,0.68470967,0
12068000,-0.038284764,-0.02852851,0.08602949,0.68470967,0
12072000,-0.03882693,-0.028112672,0.0862043,0.68470967,0
12076000,-0.03931667,-0.027699115,0.08635486,0.68470967,0
12084000,-0.03972089,-0.030872414,0.08885488,0.6917945,0
12088000,-0.039875466,-0.030437833,0.0890639,0.6917945,0
12092000,-0.040102154,-0.030012561,0.08925326,0.6917945,0
12096000,-0.040727712,-0.028913593,0.08985755,0.6917945,0
12100000,-0.041150443,-0.028436806,0.08997694,0.6917945,0
12104000,-0.043682702,-0.03084846,0.0916042,0.6985557,0
12108000,-0.04389939,-0.0304078,0.09173478,0.6985557,0
12112000,-0.043952957,-0.029981181,0.091922835,0.6985557,0
12116000,-0.044073008,-0.02957476,0.092164546,0.6985557,0
12120000,-0.04435301,-0.029175974,0.09239212,0.6985557,0
12124000,-0.044525288,-0.028813265,0.092610046,0.6985557,0
12128000,-0.04659722,-0.027789483,0.092420876,0.7044775,0
12136000,-0.04670519,-0.026965706,0.09259808,0.7044775,0
12140000,-0.046729133,-0.02658623,0.09271765,0.7044775,0
12144000,-0.046729133,-0.02620251,0.092849925,0.7044775,0
12148000,-0.046992227,-0.025843594,0.09303896,0.7044775,0
12152000,-0.047299255,-0.024941746,0.092957206,0.70960104,0
12156000,-0.047749445,-0.024586936,0.09315671,0.70960104,0
12160000,-0.04818745,-0.024195919,0.0932855,0.70960104,0
12164000,-0.048334934,-0.023799187,0.09333288,0.70960104,0
12168000,-0.048804544,-0.02341672,0.09346857,0.70960104,0
12172000,-0.048349142,-0.023091298,0.093391456,0.70960104,0
12176000,-0.05059622,-0.0222398,0.09324896,0.7140378,0
12184000,-0.05139445,-0.02147939,0.09357747,0.7140378,0
12192000,-0.051660478,-0.020688653,0.093745105,0.7140378,0
12196000,-0.05141954,-0.019856924,0.09415184,0.7140378,0
12204000,-0.052855983,-0.018932693,0.094232015,0.7182383,0
12208000,-0.05289635,-0.018585162,0.09434073,0.7182383,0
12212000,-0.053158622,-0.018187016,0.09440079,0.7182383,0
12216000,-0.053644337,-0.017858429,0.09442575,0.7182383,0
12224000,-0.05643756,-0.016859122,0.09438956,0.7218376,0
12228000,-0.05616945,-0.016596138,0.094508596,0.7218376,0
12232000,-0.05602467,-0.016332395,0.09469975,0.7218376,0
12240000,-0.05594349,-0.015805095,0.094930865,0.7218376,0
12244000,-0.05605242,-0.015465255,0.09495916,0.7218376,0
12248000,-0.055920396,-0.014846083,0.09477323,0.72488904,0
12252000,-0.05631447,-0.014508771,0.094884574,0.72488904,0
12256000,-0.0559807,-0.014229739,0.09488036,0.72488904,0
12260000,-0.056087557,-0.01393524,0.09495619,0.72488904,0
12264000,-0.05649711,-0.013692454,0.09502286,0.72488904,0
12268000,-0.0569997,-0.013458724,0.095079504,0.72488904,0
12272000,-0.059457466,-0.012832755,0.09502481,0.72748244,0
12276000,-0.059456896,-0.012536556,0.095024295,0.72748244,0
12280000,-0.05958057,-0.012179443,0.09511705,0.72748244,0
12288000,-0.060248464,-0.011501603,0.095240355,0.72748244,0
12292000,-0.060479216,-0.01118414,0.0952322,0.72748244,0
12296000,-0.06292273,-0.010127705,0.095442094,0.72963923,0
12304000,-0.06251481,-0.009722838,0.095560424,0.72963923,0
12312000,-0.06280484,-0.00934349,0.09572804,0.72963923,0
12320000,-0.063923866,-0.00879449,0.09583597,0.73175436,0
12324000,-0.064221025,-0.008616861,0.09584362,0.73175436,0
12328000,-0.063970484,-0.008423857,0.09578023,0.73175436,0
12332000,-0.06396283,-0.008347727,0.09567036,0.73175436,0
12336000,-0.064092785,-0.008301387,0.09554145,0.73175436,0
12340000,-0.06443405,-0.008230709,0.09543374,0.73175436,0
12344000,-0.065459885,-0.008457135,0.094982006,0.7334503,0
12348000,-0.06528089,-0.008353097,0.09497069,0.7334503,0
12352000,-0.06556691,-0.008190978,0.094976194,0.7334503,0
12356000,-0.065003574,-0.008003077,0.09497447,0.7334503,0
12360000,-0.065200835,-0.007810948,0.094936,0.7334503,0
12364000,-0.065494634,-0.007679129,0.09491446,0.7334503,0
12368000,-0.0666598,-0.007893806,0.09451747,0.7347697,0
12376000,-0.067219995,-0.007799614,0.09443149,0.7347697,0
12384000,-0.06740736,-0.00757435,0.09436686,0.7347697,0
12388000,-0.06712892,-0.007463088,0.094232865,0.7347697,0
12392000,-0.06887512,-0.008382171,0.093394406,0.73578656,0
12396000,-0.06908768,-0.008075962,0.093523815,0.73578656,0
12400000,-0.06920466,-0.007931029,0.09354756,0.73578656,0
12404000,-0.069118366,-0.007761197,0.0935945,0.73578656,0
12408000,-0.06899862,-0.007633157,0.09361377,0.73578656,0
12412000,-0.06898159,-0.007562297,0.09359248,0.73578656,0
12416000,-0.07122928,-0.008487666,0.0928294,0.73665667,0
12420000,-0.07108773,-0.008499207,0.09262531,0.73665667,0
12424000,-0.07133022,-0.008332299,0.09255666,0.73665667,0
12428000,-0.07138591,-0.008188039,0.092583954,0.73665667,0
12432000,-0.07138464,-0.008111773,0.092615366,0.73665667,0
12436000,-0.071347885,-0.008062838,0.0925964,0.73665667,0
12440000,-0.07133759,-0.007887753,0.092504635,0.737221,0
12444000,-0.07163307,-0.007741336,0.092505716,0.737221,0
12448000,-0.07208864,-0.007601513,0.09253995,0.737221,0
12456000,-0.07227236,-0.007314045,0.09246597,0.737221,0
12460000,-0.07203987,-0.007185442,0.09236954,0.737221,0
12464000,-0.07440171,-0.008221203,0.091585815,0.7375393,0
12468000,-0.07421304,-0.008131858,0.09155887,0.7375393,0
12472000,-0.07395896,-0.008036716,0.091600455,0.7375393,0
12476000,-0.07412373,-0.007934336,0.09158851,0.7375393,0
12480000,-0.07421391,-0.007854886,0.091553204,0.7375393,0
12484000,-0.074061096,-0.007771192,0.091502815,0.7375393,0
12488000,-0.07611455,-0.008865016,0.090679154,0.7375964,0
12492000,-0.07617424,-0.0087614,0.090667464,0.7375964,0
12496000,-0.076246545,-0.008550424,0.090730034,0.7375964,0
12504000,-0.07640207,-0.008325134,0.09068309,0.7375964,0
12508000,-0.07614727,-0.008282913,0.090526775,0.7375964,0
12512000,-0.077587456,-0.008824112,0.090074584,0.7375264,0
12515999,-0.07708629,-0.008772569,0.09007262,0.7375264,0
12520000,-0.07729631,-0.008645495,0.09005991,0.7375264,0
12524000,-0.07719248,-0.008552967,0.090067856,0.7375264,0
12527999,-0.07738988,-0.008461872,0.09006949,0.7375264,0
12532000,-0.076972455,-0.008489035,0.09017423,0.7375264,0
12536000,-0.0793029,-0.009663416,0.08936614,0.73723125,0
12540000,-0.07939429,-0.009483555,0.08931405,0.73723125,0
12544000,-0.07951194,-0.009334821,0.089224815,0.73723125,0
12547999,-0.07936962,-0.009284966,0.08916032,0.73723125,0
12552000,-0.07901045,-0.009276195,0.08913469,0.73723125,0
12556000,-0.078738846,-0.009203386,0.089104354,0.73723125,0
12559999,-0.08119211,-0.010410219,0.08822987,0.73675215,0
12568000,-0.08141614,-0.010202542,0.088226154,0.73675215,0
12572000,-0.08139076,-0.010119628,0.088263616,0.73675215,0
12576000,-0.08153446,-0.009991316,0.08824803,0.73675215,0
12579999,-0.08173161,-0.009862749,0.08820446,0.73675215,0
12584000,-0.08192605,-0.009894103,0.08807705,0.73611635,0
12588000,-0.08208427,-0.009800386,0.08806678,0.73611635,0
12591999,-0.08133505,-0.009886341,0.088018,0.73611635,0
12600000,-0.081486255,-0.009383328,0.088212416,0.73611635,0
12608000,-0.08420269,-0.01059508,0.087333396,0.73558134,0
12611999,-0.08419271,-0.010470171,0.08735782,0.73558134,0
12616000,-0.08417596,-0.010424769,0.08737664,0.73558134,0
12620000,-0.08406597,-0.010370044,0.08742766,0.73558134,0
12623999,-0.08391531,-0.010303056,0.08747222,0.73558134,0
12628000,-0.083970115,-0.010253837,0.08746974,0.73558134,0
12632000,-0.086766966,-0.011711584,0.08659956,0.7349193,0
12636000,-0.08650109,-0.011697497,0.08655602,0.7349193,0
12640000,-0.08599125,-0.011614667,0.086511046,0.7349193,0
12643999,-0.085757285,-0.011542343,0.086500145,0.7349193,0
12652000,-0.086038545,-0.011566414,0.08657083,0.7349193,0
12655999,-0.088790745,-0.013070885,0.085779116,0.73411125,0
12660000,-0.08864391,-0.013067104,0.085844934,0.73411125,0
12668000,-0.08798091,-0.01292734,0.08589213,0.73411125,0
12672000,-0.087729365,-0.012925196,0.085861854,0.73411125,0
12675999,-0.08757865,-0.012926436,0.08581891,0.73411125,0
12680000,-0.089256056,-0.013743535,0.08527224,0.7331755,0
12684000,-0.08943935,-0.013657423,0.085232265,0.7331755,0
12687999,-0.08957975,-0.013601828,0.08518205,0.7331755,0
12692000,-0.08946493,-0.013591221,0.08512744,0.7331755,0
12696000,-0.08926389,-0.013353161,0.08523631,0.7331755,0
12700000,-0.08894216,-0.013356863,0.08522251,0.7331755,0
12704000,-0.09179178,-0.01487604,0.08431882,0.73228,0
12707999,-0.09185615,-0.014785966,0.08429786,0.73228,0
12712000,-0.09173503,-0.014774673,0.08435271,0.73228,0
12716000,-0.09140354,-0.014812404,0.08439556,0.73228,0
12719999,-0.091142476,-0.014810246,0.08438621,0.73228,0
12724000,-0.091021195,-0.014805006,0.08439003,0.73228,0
12728000,-0.093932,-0.016416214,0.083513044,0.73128647,0
12732000,-0.09374143,-0.01643508,0.083508916,0.73128647,0
12736000,-0.093569264,-0.016443321,0.083472475,0.73128647,0
12739999,-0.09341539,-0.016422927,0.083411805,0.73128647,0
12744000,-0.093055345,-0.01636463,0.083429374,0.73128647,0
12748000,-0.09257924,-0.016289465,0.08351752,0.73128647,0
12751999,-0.09578259,-0.017886788,0.08261748,0.7301411,0
12756000,-0.09518143,-0.01777726,0.08268414,0.7301411,0
12760000,-0.09495524,-0.017764736,0.08266634,0.7301411,0
12764000,-0.09474746,-0.017836623,0.08261019,0.7301411,0
12768000,-0.09442939,-0.017974108,0.082543306,0.7301411,0
12771999,-0.09420044,-0.018059943,0.082493365,0.7301411,0
12776000,-0.096063636,-0.018975452,0.081955634,0.7288766,0
12780000,-0.096092515,-0.018850058,0.08199285,0.7288766,0
12783999,-0.09616404,-0.018765528,0.08200165,0.7288766,0
12792000,-0.096137255,-0.018740352,0.08200571,0.7288766,0
12796000,-0.09587503,-0.01876989,0.08197513,0.7288766,0
12800000,-0.09891475,-0.02049873,0.08104344,0.72750664,0
12803999,-0.09850824,-0.020562846,0.08105251,0.72750664,0
12808000,-0.09828074,-0.020616721,0.08107418,0.72750664,0
12812000,-0.09833689,-0.020638024,0.08107361,0.72750664,0
12815999,-0.098339364,-0.020595944,0.0810131,0.72750664,0
12820000,-0.09806471,-0.020523744,0.08097406,0.72750664,0
12824000,-0.09967212,-0.02144602,0.080450796,0.7260623,0
12828000,-0.09909284,-0.02146714,0.0804102,0.7260623,0
12832000,-0.09829791,-0.021541376,0.08031665,0.7260623,0
12835999,-0.09770238,-0.021648083,0.08026047,0.7260623,0
12840000,-0.09727289,-0.021741651,0.080213234,0.7260623,0
12844000,-0.09682367,-0.021790855,0.080159806,0.7260623,0
12847999,-0.10003778,-0.023547467,0.07920942,0.7245001,0
12852000,-0.09985307,-0.023549186,0.07922201,0.7245001,0
12856000,-0.09972956,-0.023496592,0.07921246,0.7245001,0
12860000,-0.09985176,-0.023453997,0.07921173,0.7245001,0
12864000,-0.10017158,-0.023420451,0.07924238,0.7245001,0
12872000,-0.103499144,-0.025161024,0.07833088,0.72290087,0
12876000,-0.102908455,-0.02517854,0.07838014,0.72290087,0
12879999,-0.10236959,-0.025219984,0.07841693,0.72290087,0
12884000,-0.10196051,-0.025322365,0.078375205,0.72290087,0
12888000,-0.101728484,-0.025446912,0.07831365,0.72290087,0
12892000,-0.10149784,-0.02559048,0.0782945,0.72290087,0
12896000,-0.10347952,-0.026477505,0.077862166,0.7211802,0
12899999,-0.10316984,-0.02645915,0.0778502,0.7211802,0
12904000,-0.10293639,-0.0263665,0.077832796,0.7211802,0
12908000,-0.10274058,-0.02631145,0.077763356,0.7211802,0
12911999,-0.1026936,-0.026296552,0.0777076,0.7211802,0
12916000,-0.10261262,-0.026330877,0.07772508,0.7211802,0
12920000,-0.10635232,-0.028126087,0.07674088,0.71968603,0
12924000,-0.10555346,-0.02821445,0.07669833,0.71968603,0
12928000,-0.10514602,-0.028291421,0.07664535,0.71968603,0
12931999,-0.10492839,-0.02834091,0.076610245,0.71968603,0
12936000,-0.10456312,-0.028328719,0.076576516,0.71968603,0
12940000,-0.103963464,-0.028334904,0.07655207,0.71968603,0
12943999,-0.10778766,-0.030153627,0.075559914,0.7180763,0
12948000,-0.107122526,-0.030246798,0.07554689,0.7180763,0
12956000,-0.10696629,-0.030334285,0.07544513,0.7180763,0
12960000,-0.10682091,-0.03036722,0.07537122,0.7180763,0
12963999,-0.10681953,-0.030377626,0.07530111,0.7180763,0
12972000,-0.11022883,-0.032280326,0.07417312,0.7164268,0
12976000,-0.109252974,-0.03230154,0.07412526,0.7164268,0
12984000,-0.10839246,-0.03233002,0.074080646,0.7164268,0
12988000,-0.107962295,-0.032369763,0.07410184,0.7164268,0
12992000,-0.11357947,-0.03497517,0.07267594,0.71465987,0
12995999,-0.11350122,-0.034927648,0.07271719,0.71465987,0
13000000,-0.11309394,-0.035079196,0.07275453,0.71465987,0
13008000,-0.11281411,-0.03519416,0.07264908,0.71465987,0
13012000,-0.112291425,-0.03517822,0.07251963,0.71465987,0
13015999,-0.11596165,-0.037006214,0.07144165,0.7129897,0
13020000,-0.115394525,-0.036998864,0.0714466,0.7129897,0
