timestamp,roll_body,pitch_body,yaw_body,yaw_sp_move_rate,q_d[0],q_d[1],q_d[2],q_d[3],thrust_body[0]
8020000,0.007606469,0,2.4094367,0,0.35795346,0.001361387,0.003551218,0.9337317,0.15
8044000,0.007634607,0,2.4093,0,0.35801724,0.001366667,0.003564261,0.9337072,0.15
8068000,0.007591037,0,2.4093,0,0.35801724,0.001358868,0.00354392,0.93370724,0.15
8092000,0.007646292,0,2.4093,0,0.3580172,0.001368759,0.003569716,0.9337071,0.15
8116000,0.007701286,0,2.4093,0,0.35801718,0.001378603,0.00359539,0.93370706,0.15
8140000,0.007721141,0,2.4093,0,0.35801715,0.001382157,0.00360466,0.933707,0.15
8164000,0.00770584,0,2.4091632,0,0.35808104,0.001379665,0.003597422,0.9336825,0.15
8188000,0.007742704,0,2.4091632,0,0.35808104,0.001386265,0.003614632,0.93368244,0.15
8212000,0.007726597,0,2.3758206,0,0.37359628,0.001443321,0.003583549,0.9275834,0.15
8236000,0,0,1.623432,0,0.68825454,0,0,0.7254693,0
8260000,0,0,1.623432,0,0.68825454,0,0,0.7254693,1
8284000,0,0,1.623432,0,0.68825454,0,0,0.7254693,1
8308000,0,0,1.623432,0,0.68825454,0,0,0.7254693,1
8332000,0,0,1.623432,0,0.68825454,0,0,0.7254693,1
8356000,0,0,1.623432,0,0.68825454,0,0,0.7254693,1
8380000,0,0,1.623432,0,0.68825454,0,0,0.7254693,1
8404000,0,0,1.623432,0,0.68825454,0,0,0.7254693,1
8428000,0,0,1.623432,0,0.68825454,0,0,0.7254693,1
8452000,0,0,1.623432,0,0.68825454,0,0,0.7254693,1
8476000,0,0,1.623432,0,0.68825454,0,0,0.7254693,1
8500000,0,0,1.623432,0,0.68825454,0,0,0.7254693,1
8524000,0,0,1.623432,0,0.68825454,0,0,0.7254693,1
8548000,0,0,1.623432,0,0.68825454,0,0,0.7254693,1
8572000,0,0,1.623432,0,0.68825454,0,0,0.7254693,1
8596000,0,0,1.623432,0,0.68825454,0,0,0.7254693,1
8620000,0,0,1.623432,0,0.68825454,0,0,0.7254693,1
8644000,0,0,1.623432,0,0.68825454,0,0,0.7254693,1
8668000,0,0,1.623432,0,0.68825454,0,0,0.7254693,1
8692000,0,0,1.623432,0,0.68825454,0,0,0.7254693,1
8716000,0,0,1.623432,0,0.68825454,0,0,0.7254693,1
8740000,0,-0.30315313,1.623432,0,0.6803632,0.10954355,-0.10392424,0.7171513,1
8764000,0,-0.2892299,1.623432,0,0.6810702,0.1045484,-0.09918533,0.71789646,1
8788000,0,-0.27605796,1.623432,0,0.68170863,0.099818125,-0.09469771,0.71856946,1
8812000,0,-0.26366,1.623432,0,0.68228257,0.09536184,-0.09047002,0.7191744,1
8836000,0,-0.2519102,1.623432,0,0.68280226,0.091135144,-0.08646014,0.7197222,1
8860000,0,-0.24070822,1.623432,0,0.6832758,0.08710257,-0.08263443,0.7202214,1
8884000,0,-0.2299728,1.623432,0,0.68370956,0.0832354,-0.07896563,0.72067857,1
8908000,0,-0.21972144,1.623432,0,0.68410534,0.07954035,-0.07546013,0.72109574,1
8932000,0,-0.20988335,1.623432,0,0.6844682,0.0759923,-0.07209409,0.7214782,1
8956000,0,-0.20040008,1.623432,0,0.68480235,0.07257047,-0.06884779,0.7218304,1
8980000,0,-0.19122282,1.623432,0,0.6851111,0.069257505,-0.06570477,0.72215587,1
9004000,0,-0.18235126,1.623432,0,0.6853958,0.06605351,-0.062665135,0.722456,1
9028000,0,-0.17374408,1.623432,0,0.6856591,0.06294376,-0.059714902,0.72273356,1
9052000,0,-0.16536605,1.623432,0,0.68590325,0.059915677,-0.056842152,0.7229909,1
9076000,0,-0.15718696,1.623432,0,0.68613,0.056958474,-0.05403665,0.7232299,1
9100000,0,-0.14921233,1.623432,0,0.68634,0.054074284,-0.05130041,0.7234512,1
9124000,0,-0.14141561,1.623432,0,0.68653476,0.05125361,-0.048624426,0.72365654,1
9148000,0,-0.13377368,1.623432,0,0.68671554,0.048488177,-0.046000857,0.7238471,1
9172000,0,-0.12626633,1.623432,0,0.6868834,0.045770753,-0.04342283,0.724024,1
9196000,0,-0.118896544,1.623432,0,0.6870387,0.043102495,-0.040891446,0.72418773,1
9220000,0,-0.11164646,1.623432,0,0.6871824,0.040477008,-0.03840064,0.72433925,1
9244000,0,-0.104500316,1.623432,0,0.6873153,0.03788864,-0.035945047,0.72447926,1
9268000,0,-0.09744409,1.623432,0,0.68743783,0.035332363,-0.0335199,0.7246084,1
9292000,0,-0.0904652,1.623432,0,0.6875506,0.032803673,-0.031120928,0.7247273,1
9316000,0,-0.08356767,1.623432,0,0.68765384,0.03030407,-0.028749548,0.7248361,1
9340000,0,-0.07674015,1.623432,0,0.68774796,0.027829483,-0.0264019,0.7249353,1
9364000,0,-0.06997242,1.623432,0,0.68783337,0.025376242,-0.024074504,0.72502536,1
9388000,0,-0.06325521,1.623432,0,0.6879104,0.022941032,-0.021764215,0.7251065,1
9412000,0,-0.056589376,1.623432,0,0.68797904,0.020524189,-0.01947135,0.7251789,1
9436000,0,-0.0499667,1.623432,0,0.6880397,0.018122768,-0.017193116,0.72524285,1
9460000,0,-0.04337972,1.623432,0,0.68809265,0.015734093,-0.014926974,0.72529864,1
9484000,0,-0.03682161,1.623432,0,0.6881379,0.01335572,-0.012670605,0.7253463,1
9508000,0,-0.030291598,1.623432,0,0.6881756,0.010987392,-0.010423766,0.7253861,1
9532000,0,-0.023783702,1.623432,0,0.6882059,0.00862697,-0.008184427,0.72541803,1
9556000,0,-0.017292468,1.623432,0,0.6882288,0.006272499,-0.005950735,0.7254422,1
9580000,0,-0.01081287,1.623432,0,0.68824446,0.003922184,-0.003720985,0.7254587,1
9604000,0,-0.004344268,1.623432,0,0.68825287,0.001575815,-0.00149498,0.72546756,1
9628000,0,0.002117723,1.623432,0,0.6882542,-0.000768171,0.000728766,0.7254689,1
9652000,0,0.008577114,1.623432,0,0.6882482,-0.003111207,0.00295161,0.7254626,1
9676000,0,0.015037577,1.623432,0,0.6882351,-0.005454599,0.005174791,0.7254488,1
9700000,0,0.021501113,1.623432,0,0.6882148,-0.007799048,0.007398977,0.7254274,1
9724000,0,0.027970828,1.623432,0,0.68818724,-0.010145658,0.00962521,0.72539836,1
9748000,0,0.034449574,1.623432,0,0.68815243,-0.012495437,0.011854452,0.72536165,1
9772000,0,0.040939957,1.623432,0,0.68811035,-0.014849304,0.014087573,0.7253173,1
9796000,0,0.047441676,1.623432,0,0.6880609,-0.017207127,0.016324444,0.7252652,1
9820000,0,0.05395696,1.623432,0,0.6880041,-0.019569684,0.01856581,0.7252053,1
9844000,0,0.06048782,1.623432,0,0.6879398,-0.021937683,0.020812336,0.72513753,1
9868000,0,0.06703608,1.623432,0,0.687868,-0.024311753,0.023064623,0.72506183,1
9892000,0,0.07360337,1.623432,0,0.6877885,-0.026692465,0.025323208,0.7249781,1
9916000,0,0.080190375,1.623432,0,0.6877014,-0.029080033,0.0275883,0.72488624,1
9940000,0,0.086798415,1.623432,0,0.6876065,-0.031474907,0.029860325,0.7247862,1
9964000,0,0.09342864,1.623432,0,0.6875037,-0.03387748,0.03213965,0.72467786,1
9988000,0,0.10008207,1.623432,0,0.68739295,-0.036288086,0.0344266,0.72456115,1
10012000,0,0.10675977,1.623432,0,0.6872742,-0.03870708,0.036721505,0.7244359,1
10036000,0,0.11346249,1.623432,0,0.68714726,-0.041134704,0.0390246,0.7243022,1
10060000,0,0.120190814,1.623432,0,0.68701214,-0.043571137,0.041336045,0.72415966,1
10084000,0,0.12694521,1.623432,0,0.6868686,-0.046016514,0.043655984,0.72400844,1
10108000,0,0.13372734,1.623432,0,0.6867166,-0.048471406,0.045984946,0.7238482,1
10132000,0,0.14053743,1.623432,0,0.68655604,-0.05093585,0.04832297,0.72367895,1
10156000,0,0.14737557,1.623432,0,0.68638676,-0.05340986,0.05067007,0.72350055,1
10180000,0,0.1542418,1.623432,0,0.6862088,-0.0558934,0.053026207,0.7233129,1
10204000,0,0.16113588,1.623432,0,0.6860219,-0.058386352,0.05539128,0.723116,1
10228000,0,0.16805767,1.623432,0,0.6858261,-0.060888622,0.05776519,0.72290957,1
10252000,0,0.1750069,1.623432,0,0.6856213,-0.06340008,0.06014782,0.7226937,1
10276000,0,0.18198325,1.623432,0,0.68540734,-0.06592058,0.06253902,0.72246814,1
10300000,0,0.18898657,1.623432,0,0.6851841,-0.06845001,0.064938694,0.7222329,1
10324000,0,0.19601642,1.623432,0,0.68495166,-0.07098817,0.067346655,0.7219878,1
10348000,0,0.20307225,1.623432,0,0.6847098,-0.07353484,0.069762684,0.72173285,1
10372000,0,0.21015349,1.623432,0,0.6844585,-0.076089755,0.07218654,0.721468,1
10396000,0,0.21726128,1.623432,0,0.6841976,-0.07865329,0.07461857,0.721193,1
10420000,0,0.2243949,1.623432,0,0.6839271,-0.08122514,0.077058494,0.72090787,1
10444000,0,0.23155358,1.623432,0,0.6836469,-0.083804995,0.079506,0.7206125,1
10468000,0,0.23873651,1.623432,0,0.68335694,-0.0863925,0.08196078,0.7203069,1
10492000,0,0.24594282,1.623432,0,0.68305725,-0.088987306,0.084422484,0.71999097,1
10516000,0,0.2531725,1.623432,0,0.6827476,-0.09158938,0.08689107,0.7196646,1
10540000,0,0.2604246,1.623432,0,0.682428,-0.09419831,0.08936617,0.71932775,1
10564000,0,0.26769823,1.623432,0,0.68209845,-0.09681374,0.091847435,0.7189804,1
10588000,0,0.27499238,1.623432,0,0.68175894,-0.09943526,0.09433448,0.7186225,1
10612000,0,0.28230575,1.623432,0,0.6814095,-0.102062374,0.09682683,0.71825415,1
10636000,0,0.2896374,1.623432,0,0.68104994,-0.104694664,0.09932409,0.7178752,1
10660000,0,0.29698625,1.623432,0,0.6806804,-0.10733174,0.10182589,0.7174856,1
10684000,0,0.3043514,1.623432,0,0.6803008,-0.10997319,0.10433184,0.7170855,1
10708000,0,0.31173375,1.623432,0,0.679911,-0.11261933,0.10684224,0.7166746,1
10732000,0,0.31913227,1.623432,0,0.6795112,-0.11526973,0.10935668,0.71625316,1
10756000,0,0.32654592,1.623432,0,0.6791011,-0.11792395,0.11187475,0.7158209,1
10780000,0,0.33397365,1.623432,0,0.67868096,-0.12058159,0.11439606,0.71537805,1
10804000,0,0.34141573,1.623432,0,0.6782506,-0.123242706,0.116920665,0.7149244,1
10828000,0,0.3488711,1.623432,0,0.67781,-0.12590685,0.11944815,0.7144601,1
10852000,0,0.34906584,1.623432,0,0.6777984,-0.12597643,0.119514145,0.71444774,1
10876000,0,0.34906584,1.623432,0,0.6777984,-0.12597643,0.119514145,0.71444774,1
10900000,0,0.34906584,1.623432,0,0.6777984,-0.12597643,0.119514145,0.71444774,1
10924000,0.43633232,0.34906584,2.5062122,0,0.33603913,-0.09446578,0.25544247,0.9016114,1
10948000,0.43633232,0.34906584,2.5063746,0,0.33596593,-0.09448652,0.2554348,0.9016386,1
10972000,0.43633232,0.34906584,2.5146697,0,0.33222347,-0.095545106,0.2550407,0.9030243,1
10996000,0.43633232,0.34906584,2.5230002,0,0.32845926,-0.096606605,0.25464052,0.9044003,1
11020000,0.43633232,0.34906584,2.527197,0,0.32656085,-0.09714071,0.25443727,0.9050875,1
11044000,0.43633232,0.34906584,2.5315738,0,0.3245793,-0.0976973,0.25422406,0.9058,1
11068000,0.43633232,0.34906584,2.5358012,0,0.322664,-0.09823443,0.254017,0.906484,1
11092000,0.43633232,0.34906584,2.544232,0,0.31884,-0.099304326,0.25360063,0.90783614,1
11116000,0.43633232,0.34906584,2.5526924,0,0.31499675,-0.10037623,0.2531783,0.90917677,1
11140000,0.43633232,0.34906584,2.5529327,0,0.31488752,-0.10040666,0.25316623,0.9092146,1
11164000,0.43633232,0.34906584,2.5614357,0,0.31101918,-0.10148208,0.25273708,0.9105451,1
11188000,0.43633232,0.34906584,2.5657423,0,0.30905777,-0.10202606,0.25251794,0.91121274,1
11212000,0.43633232,0.34906584,2.570228,0,0.30701324,-0.102592185,0.2522885,0.9119036,1
11236000,0.43633232,0.34906584,2.5745544,0,0.3050399,-0.10313769,0.25206596,0.9125656,1
11260000,0.43633232,0.34906584,2.5831368,0,0.30112115,-0.10421838,0.25162107,0.9138662,1
11284000,0.43633232,0.34906584,2.5876615,0,0.2990529,-0.10478737,0.25138465,0.9145451,1
11308000,0.43633232,0.34906584,2.5920298,0,0.29705465,-0.10533619,0.25115517,0.9151961,1
11332000,0.43633232,0.34906584,2.600683,0,0.29309222,-0.10642183,0.25069708,0.91647273,1
11356000,0.43633232,0.34906584,2.6009812,0,0.29295555,-0.10645923,0.2506812,0.9165165,1
11380000,0.43633232,0.34906584,2.6096742,0,0.28896913,-0.107547805,0.25021613,0.9177811,1
11404000,0.43633232,0.34906584,2.614105,0,0.2869352,-0.10810186,0.24997723,0.91841906,1
11428000,0.43633232,0.34906584,2.6187017,0,0.2848236,-0.108676106,0.24972813,0.9190761,1
11452000,0.43633232,0.34906584,2.6231437,0,0.28278163,-0.10923048,0.24948613,0.9197064,1
11476000,0.43633232,0.34906584,2.6319058,0,0.27874967,-0.11032246,0.24900521,0.92093647,1
11500000,0.43633232,0.34906584,2.6322172,0,0.27860627,-0.11036122,0.24898803,0.92097986,1
11524000,0.43633232,0.34906584,2.64101,0,0.27455455,-0.1114548,0.24850042,0.92219585,1
11548000,0.43633232,0.34906584,2.6454926,0,0.27248698,-0.11201148,0.24825001,0.9228088,1
11572000,0.43633232,0.34906584,2.6501548,0,0.27033508,-0.11258988,0.24798821,0.9234416,1
11596000,0.43633232,0.34906584,2.654654,0,0.268257,-0.11314746,0.2477343,0.92404735,1
11620000,0.43633232,0.34906584,2.659328,0,0.2660968,-0.11372611,0.2474692,0.92467177,1
11644000,0.8639488,0.3414059,2.6638157,0,0.2808646,-0.05226378,0.43736696,0.85269797,0.42101303
11668000,0.86475027,0.33374646,2.672751,0,0.27567098,-0.05070948,0.43693724,0.85470456,0.44439435
11692000,0.85982853,0.32608667,2.6735718,0,0.27379495,-0.048164867,0.43427014,0.85681146,0.4666721
11716000,0.8588721,0.3184237,2.6832352,0,0.2682214,-0.04698479,0.43309006,0.8592338,0.48813498
11740000,0.8531424,0.31075668,2.684334,0,0.26621103,-0.0445761,0.43006116,0.8615057,0.5084434
11764000,0.851863,0.30308497,2.6942143,0,0.26051313,-0.043447837,0.42875415,0.8639532,0.5275436
11788000,0.8458895,0.29540807,2.6953504,0,0.2584869,-0.041040532,0.4256098,0.86623126,0.54538465
11812000,0.8445104,0.28771204,2.7053537,0,0.2527083,-0.039903924,0.42427307,0.86864185,0.5636948
11836000,0.8407192,0.27999717,2.7108426,0,0.2488292,-0.03808935,0.42198578,0.87095416,0.5806266
11860000,0.8345294,0.27226397,2.7119217,0,0.2468268,-0.035618782,0.41873148,0.87319624,0.59621894
11884000,0.8332303,0.26451305,2.7219896,0,0.24098217,-0.03440488,0.4174526,0.87548697,0.6104667
11908000,0.827092,0.2567397,2.723,0,0.23901367,-0.031859837,0.41421115,0.8776597,0.6240962
11932000,0.8260174,0.24894498,2.7330747,0,0.23314312,-0.030564435,0.41304797,0.8798304,0.636467
11956000,0.8199935,0.24113001,2.733996,0,0.23121889,-0.027933843,0.40984818,0.8819195,0.64761317
11980000,0.8165643,0.233296,2.7393517,0,0.2273781,-0.025889054,0.40772536,0.88396215,0.6576134
12004000,0.8133623,0.22543475,2.7448606,0,0.22346598,-0.023821041,0.40570343,0.885946,0.66768837
12028000,0.8102237,0.21754786,2.750142,0,0.21964905,-0.021672621,0.40371534,0.88786185,0.67669237
12052000,0.80456245,0.20963703,2.7507863,0,0.21786529,-0.0188414,0.40065256,0.8897512,0.68470967
12076000,0.8044436,0.20170395,2.760678,0,0.2120151,-0.017240196,0.3999707,0.8915019,0.6917945
12100000,0.7989986,0.19591387,2.7612112,0,0.21067923,-0.015296131,0.39714536,0.89311576,0.6985557
12124000,0.7936349,0.19723625,2.7616787,0,0.21066684,-0.016554058,0.394835,0.89412004,0.7044775
12148000,0.7939933,0.19840807,2.7714486,0,0.20651168,-0.018978253,0.3949868,0.8949738,0.70960104
12172000,0.7887977,0.19944927,2.7718194,0,0.20648246,-0.020061225,0.39272523,0.89595157,0.7140378
12196000,0.7864688,0.20031242,2.7767677,0,0.20439506,-0.021663748,0.391686,0.8968475,0.7182383
12220000,0.7813463,0.20107508,2.777073,0,0.20433758,-0.022594236,0.3894336,0.89781797,0.7218376
12244000,0.78203243,0.20174943,2.7867682,0,0.20011161,-0.024720743,0.38966984,0.89861095,0.72488904
12268000,0.7767539,0.20234506,2.7870173,0,0.20003912,-0.025568992,0.38733077,0.8996139,0.72748244
12292000,0.77139366,0.20286906,2.7872431,0,0.19996041,-0.026387967,0.38494813,0.90063,0.72963923
12316000,0.768817,0.20327854,2.7921,0,0.19780925,-0.027764775,0.38374686,0.90157586,0.73175436
12340000,0.76626366,0.20364246,2.7971292,0,0.1955684,-0.029145867,0.38254583,0.902531,0.7334503
12364000,0.7634691,0.20396064,2.8019776,0,0.19339323,-0.030489132,0.38123083,0.9035112,0.7347697
12388000,0.7573966,0.20423836,2.8022027,0,0.1932461,-0.03124616,0.3784988,0.9046648,0.73578656
12412000,0.751044,0.20445938,2.8024395,0,0.19307661,-0.032005776,0.37563282,0.9058682,0.73665667
12436000,0.75100404,0.2046555,2.8121831,0,0.18869415,-0.033929303,0.37546557,0.9067905,0.737221
12460000,0.744243,0.20482984,2.8123894,0,0.1885145,-0.03468561,0.37240446,0.9080606,0.7375393
12484000,0.737209,0.20498402,2.8125894,0,0.18832645,-0.03545636,0.3692139,0.9093718,0.7375964
12508000,0.7333027,0.20510325,2.8174853,0,0.18604846,-0.03677847,0.36735505,0.9105403,0.7375264
12532000,0.72584116,0.20521021,2.8177345,0,0.18581417,-0.037567057,0.36395693,0.9119195,0.73723125
12556000,0.71808785,0.20530033,2.817975,0,0.18557212,-0.038372137,0.3604195,0.9133391,0.73675215
12579999,0.71730053,0.20538534,2.8277874,0,0.18108712,-0.04025058,0.3598717,0.91437393,0.73611635
12604000,0.7091626,0.20539722,2.8280537,0,0.18080181,-0.041040014,0.35614336,0.91585386,0.73558134
12628000,0.70076734,0.20542583,2.828324,0,0.18050857,-0.041859493,0.35229176,0.91736305,0.7349193
12652000,0.6921506,0.20544505,2.8285735,0,0.18021503,-0.04268917,0.3483319,0.9188934,0.73411125
12675999,0.6869712,0.20547134,2.8335032,0,0.17784029,-0.044020563,0.34584513,0.9202316,0.7331755
12700000,0.6778105,0.20543827,2.833748,0,0.17751877,-0.04486108,0.3416192,0.9218302,0.73228
12724000,0.668382,0.20543294,2.8339937,0,0.17719111,-0.04573637,0.3372637,0.9234525,0.73128647
12748000,0.6586655,0.2054202,2.8342319,0,0.17685473,-0.04663034,0.33276716,0.9251022,0.7301411
12771999,0.6527554,0.2054107,2.839203,0,0.17441238,-0.047968447,0.32991323,0.92651844,0.7288766
12796000,0.642516,0.20537633,2.8394837,0,0.17402911,-0.048890293,0.32515672,0.92822236,0.72750664
12820000,0.6364987,0.20536692,2.844673,0,0.17146839,-0.05024548,0.32223275,0.9296451,0.7260623
12844000,0.62574077,0.20534815,2.844963,0,0.17105778,-0.051204268,0.3172191,0.93139106,0.7245001
12867999,0.61478996,0.20534614,2.8452005,0,0.1706638,-0.05217621,0.31210837,0.93313444,0.72290087
12892000,0.60801107,0.205322,2.8501976,0,0.16814798,-0.053514708,0.3088097,0.9346117,0.7211802
12916000,0.5964967,0.2052892,2.8504593,0,0.16771002,-0.054506097,0.30341497,0.9363983,0.71968603
12940000,0.58471304,0.20525253,2.850727,0,0.16725543,-0.05551579,0.2978832,0.9381947,0.7180763
12963999,0.57258254,0.2052279,2.8510005,0,0.16678387,-0.05655747,0.2921783,0.94000864,0.7164268
12988000,0.5550425,0.20518006,2.8463612,0,0.1684613,-0.057336476,0.28405443,0.9421499,0.71465987
13012000,0.5422125,0.2051428,2.8466733,0,0.16793808,-0.05844161,0.27799344,0.94398147,0.7129897
13036000,0.53428966,0.20510602,2.8517218,0,0.16531458,-0.05978099,0.27409965,0.94549817,0.71121264
13059999,0.5209663,0.20508702,2.8520064,0,0.16477558,-0.060909975,0.26778528,0.9473279,0.70941985
13084000,0.50739056,0.20504631,2.8522737,0,0.16422677,-0.062042486,0.26133823,0.9491485,0.7075171
13108000,0.4934812,0.20501804,2.8525486,0,0.1636574,-0.063204594,0.25472063,0.9509674,0.7056505
13132000,0.47928607,0.20498662,2.85282,0,0.16307198,-0.06438312,0.24795416,0.95277554,0.70370567
13155999,0.46480092,0.20496905,2.8530946,0,0.16246846,-0.06558713,0.24103716,0.95456976,0.70172
13180000,0.45006955,0.20492792,2.853382,0,0.16183925,-0.06679587,0.23398761,0.95634526,0.699644
13204000,0.42904297,0.20488623,2.8487234,0,0.16335683,-0.067951724,0.22407696,0.95837706,0.69771767
13228000,0.41376424,0.2048409,2.8490288,0,0.16268212,-0.06920888,0.2167358,0.96008873,0.6957106
13251999,0.39826402,0.20480852,2.84932,0,0.16199794,-0.07048239,0.20927632,0.9617653,0.69365644
13276000,0.3826104,0.20475942,2.8495963,0,0.16130401,-0.07175223,0.2017295,0.9633992,0.69152695
13300000,0.36679283,0.20471199,2.8498726,0,0.16059424,-0.07302949,0.19409093,0.96498954,0.6895477
13324000,0.34421843,0.20466588,2.845191,0,0.16201958,-0.07438605,0.18335852,0.9667451,0.68748784
13348000,0.3281251,0.20462051,2.845461,0,0.16128184,-0.07568896,0.17556046,0.9682138,0.6853642
13372000,0.31198224,0.20457888,2.845741,0,0.16052698,-0.07699147,0.16772649,0.96962434,0.68319273
13396000,0.28877467,0.20453924,2.8410547,0,0.16189626,-0.07846278,0.15664582,0.97113085,0.68095845
13420000,0.2725112,0.20450349,2.8413067,0,0.16112822,-0.079777956,0.1487313,0.972395,0.6786622
13444000,0.2564209,0.20446853,2.8415804,0,0.16034603,-0.081073865,0.14089009,0.97358423,0.67632943
13468000,0.23310864,0.20444044,2.8368797,0,0.16168027,-0.082618915,0.12972517,0.97478455,0.6739899
13492000,0.2170045,0.20441553,2.8370838,0,0.16090906,-0.083918326,0.12186172,0.9758154,0.67161417
13516000,0.20100854,0.20437573,2.8373024,0,0.16012432,-0.08519554,0.11404126,0.9767787,0.6693623
13540000,0.17778014,0.20433825,2.832576,0,0.16143359,-0.08678817,0.10289205,0.97766054,0.66707337
13564000,0.16203345,0.20430657,2.8327768,0,0.16064605,-0.08805051,0.09518036,0.97845834,0.66476583
13588000,0.13896309,0.20427553,2.828062,0,0.16192748,-0.08968446,0.08409697,0.9791139,0.662442
13612000,0.12378435,0.20425436,2.8282852,0,0.16113237,-0.09090896,0.07665205,0.97974306,0.6600662
13636000,0.108724855,0.20424078,2.8284938,0,0.16034077,-0.0921202,0.0692621,0.98030984,0.65767264
13660000,0.086421385,0.204232,2.8237882,0,0.16161115,-0.09376073,0.058545977,0.9806443,0.65530187
13684000,0.07202348,0.2042312,2.8239572,0,0.16084906,-0.094925664,0.051476825,0.98105395,0.6529509
13708000,0.05023652,0.204192,2.8191938,0,0.1621426,-0.096555546,0.041013934,0.9811752,0.650936
13732000,0.036459498,0.20415856,2.8193557,0,0.16139416,-0.09765651,0.034243636,0.9814492,0.6489102
13756000,0.015272146,0.20413359,2.8146286,0,0.1626707,-0.09929187,0.024077523,0.98137647,0.64692223
13780000,0.002177738,0.20411146,2.8148036,0,0.16193141,-0.100345455,0.01764121,0.9815283,0.64494854
13804000,-0.01819407,0.20410477,2.8100624,0,0.16322766,-0.10196796,0.007883917,0.9812733,0.64291894
13828000,-0.030437246,0.20410532,2.81021,0,0.162528,-0.10296565,0.001869302,0.9813151,0.6408957
13852000,-0.050031535,0.20411453,2.805475,0,0.16383399,-0.10457557,-0.007496389,0.98090065,0.638904
13876000,-0.06921236,0.20412895,2.8007007,0,0.165164,-0.10618907,-0.016648475,0.9803915,0.63692963
13900000,-0.080323435,0.20415999,2.8008175,0,0.16451338,-0.107118905,-0.022098366,0.9802921,0.6349308
13924000,-0.09877571,0.20419404,2.796068,0,0.1658439,-0.10872244,-0.030880554,0.97965384,0.6329556
13948000,-0.1092958,0.20423338,2.7961867,0,0.16521017,-0.10961037,-0.036036164,0.97948587,0.63101715
13972000,-0.12695758,0.20427534,2.7914581,0,0.16654858,-0.11119085,-0.044417907,0.97873646,0.62912256
13996000,-0.15130529,0.2043133,2.7820942,0,0.16975859,-0.11349108,-0.055795155,0.97733754,0.6273356
14020000,-0.1607258,0.20435275,2.78226,0,0.1691393,-0.11430364,-0.06040384,0.97707623,0.62556326
14044000,-0.17722832,0.20440172,2.7775762,0,0.17047429,-0.11587918,-0.06818806,0.9761459,0.6238269
14068000,-0.185909,0.20445155,2.777752,0,0.16988125,-0.11663587,-0.07242977,0.9758536,0.62212175
14092000,-0.20145905,0.20450476,2.7730782,0,0.17124477,-0.11816566,-0.07973383,0.9748613,0.62045455
14116000,-0.21652448,0.2045863,2.7684236,0,0.17261162,-0.1196941,-0.08678869,0.9738307,0.618622
14140000,-0.22407961,0.20467281,2.7686129,0,0.17206056,-0.12037866,-0.09046975,0.97350883,0.61683345
14164000,-0.23827095,0.20475942,2.7640033,0,0.17343797,-0.121862516,-0.09708605,0.97244185,0.615104
14188000,-0.25196326,0.20484704,2.759414,0,0.1748228,-0.123327106,-0.10344984,0.97135246,0.6134574
14212000,-0.25834262,0.20487419,2.7596393,0,0.17431717,-0.123885214,-0.106558844,0.9710362,0.6122352
14236000,-0.27127776,0.20491454,2.755034,0,0.1757431,-0.12528898,-0.11254455,0.96992314,0.61104053
14260000,-0.29024613,0.20495011,2.7458336,0,0.1789989,-0.1275259,-0.12114931,0.9679976,0.60988647
14284000,-0.3021066,0.20499682,2.7412403,0,0.18045664,-0.12889865,-0.12658702,0.9668486,0.60878944
14308000,-0.30695254,0.20504947,2.7414272,0,0.18004902,-0.12934875,-0.12893584,0.9665541,0.6076621
14332000,-0.31816244,0.20511411,2.7368236,0,0.18153818,-0.13069578,-0.13404398,0.96539867,0.60659456
14356000,-0.32885176,0.20517434,2.73223,0,0.18304685,-0.13201237,-0.13889247,0.9642487,0.60556525
14380000,-0.33273873,0.20524493,2.7324173,0,0.1826932,-0.13238847,-0.140771,0.96399176,0.6045896
14404000,-0.34275162,0.20531876,2.727814,0,0.1842379,-0.13367149,-0.14528012,0.96285105,0.6036313
14428000,-0.35239893,0.205405,2.7232146,0,0.18579482,-0.13494419,-0.14960352,0.9617115,0.6027266
14452000,-0.36175442,0.20549214,2.7186089,0,0.18736559,-0.13620785,-0.1537776,0.9605696,0.6018397
14476000,-0.36446983,0.20558366,2.7187772,0,0.18709062,-0.13649264,-0.15508287,0.9603729,0.6009927
14500000,-0.37329504,0.20569415,2.7141325,0,0.18870357,-0.13773903,-0.15898731,0.9592403,0.6001057
14524000,-0.387681,0.20581266,2.7049346,0,0.19209968,-0.13991043,-0.16522782,0.9571951,0.5992781
14548000,-0.39579335,0.20593728,2.7003088,0,0.19372916,-0.14113824,-0.16876863,0.9560681,0.5984891
14572000,-0.39753765,0.20606777,2.7004452,0,0.19352686,-0.14135738,-0.1695968,0.9559301,0.597746
14596000,-0.40512806,0.20620918,2.6958413,0,0.19517209,-0.14255607,-0.17287932,0.9548289,0.5969894
14620000,-0.41247222,0.20636079,2.691236,0,0.19682717,-0.14374915,-0.17603597,0.95373297,0.59626484
14644000,-0.413563,0.20651817,2.691377,0,0.19666412,-0.14391832,-0.1765475,0.9536465,0.5955878
14668000,-0.4205009,0.20668149,2.686783,0,0.19833384,-0.14508942,-0.17950237,0.95257103,0.5949424
14692000,-0.4271046,0.20684832,2.6821842,0,0.20002313,-0.14624162,-0.18229078,0.95151156,0.59434843
14716000,-0.4335433,0.20700403,2.6775682,0,0.20172748,-0.1473854,-0.1849945,0.95045286,0.5939524
14740000,-0.43947116,0.2071658,2.6731553,0,0.20336623,-0.14847265,-0.18746379,0.94945,0.5935671
14764000,-0.4454441,0.20733222,2.6685665,0,0.20507875,-0.14959359,-0.18993515,0.94841397,0.59320796
14788000,-0.45119604,0.20750353,2.664,0,0.20679078,-0.15070248,-0.19229701,0.9473902,0.59288645
14812000,-0.4566846,0.20770974,2.6594415,0,0.20850901,-0.15180965,-0.19452466,0.94638145,0.59234107
14836000,-0.45628184,0.20792119,2.6595924,0,0.20844252,-0.15185186,-0.19431867,0.9464317,0.59182686
14860000,-0.46138105,0.20813584,2.6550467,0,0.21017781,-0.15292983,-0.19635671,0.9454532,0.5913342
14884000,-0.4662806,0.20835313,2.6505156,0,0.211916,-0.1539953,-0.19829606,0.9444871,0.5908862
14908000,-0.4709502,0.2085444,2.6459613,0,0.2136811,-0.15503493,-0.20012343,0.94353336,0.5906993
14932000,-0.46987498,0.20874357,2.6461034,0,0.21367255,-0.15499863,-0.1996012,0.94365185,0.5905393
14956000,-0.4795334,0.20895012,2.6370726,0,0.2171497,-0.15704493,-0.20342197,0.9417019,0.5904016
14980000,-0.48375475,0.20916055,2.6325512,0,0.21891814,-0.15806454,-0.20502442,0.94077384,0.5902912
15004000,-0.48777285,0.20939718,2.628037,0,0.22069158,-0.15908034,-0.2065239,0.93985987,0.5900157
15028000,-0.48623005,0.20963909,2.6282036,0,0.22070478,-0.15900505,-0.20577948,0.9400328,0.58975357
15052000,-0.48990357,0.20988402,2.6237106,0,0.222491,-0.15998934,-0.20711383,0.9391512,0.58952963
15076000,-0.49344495,0.2101332,2.6192179,0,0.22428314,-0.1609669,-0.20838155,0.9382771,0.5893222
15100000,-0.49677262,0.2103581,2.6147199,0,0.22609432,-0.16191551,-0.20954798,0.937419,0.58936614
15124000,-0.4946407,0.21058899,2.6148794,0,0.2261618,-0.16176447,-0.20852968,0.9376558,0.5894202
15148000,-0.4976875,0.21082294,2.6103845,0,0.22799039,-0.16268829,-0.20956047,0.93682295,0.5894922
15172000,-0.5057168,0.2110609,2.6014237,0,0.23149486,-0.16466594,-0.21255109,0.9349424,0.5895697
15196000,-0.50323933,0.21133627,2.6015956,0,0.23158169,-0.16448772,-0.21136802,0.9352204,0.589369
15220000,-0.50584865,0.21161665,2.5971172,0,0.23342238,-0.16539434,-0.2121786,0.934419,0.58916396
15244000,-0.5083888,0.21190047,2.592649,0,0.23526046,-0.16629738,-0.21295387,0.93362105,0.58899057
15268000,-0.5107629,0.21218693,2.588186,0,0.23710646,-0.1671853,-0.21364841,0.93283653,0.58884376
15292000,-0.50780946,0.21247488,2.5883722,0,0.23722762,-0.16694748,-0.21224464,0.93316877,0.5887183
15316000,-0.51001376,0.2127425,2.5838928,0,0.2390963,-0.16780888,-0.2128591,0.932397,0.5887569
15340000,-0.51205003,0.21301784,2.5794253,0,0.24096975,-0.1686556,-0.21339206,0.9316398,0.58880687
15364000,-0.50871986,0.21329506,2.5796022,0,0.24113052,-0.16836253,-0.21181484,0.93201107,0.5888698
15388000,-0.5155255,0.21357329,2.570689,0,0.24466632,-0.17026576,-0.21418767,0.9301997,0.5889502
15412000,-0.51726633,0.21385334,2.5662336,0,0.24655098,-0.17108518,-0.21457508,0.9294623,0.5890094
15436000,-0.5137122,0.21413621,2.5664177,0,0.2467306,-0.17075652,-0.21289651,0.92986095,0.5890614
15460000,-0.51528794,0.21442124,2.561966,0,0.24862595,-0.17155614,-0.2132051,0.9291379,0.589124
15484000,-0.516719,0.21470587,2.5575163,0,0.25053048,-0.17233926,-0.21344414,0.9284262,0.5891821
15508000,-0.51809007,0.21500841,2.5530624,0,0.25243747,-0.17312524,-0.21364975,0.92771596,0.58911467
15532000,-0.51423115,0.21531244,2.5532393,0,0.2526476,-0.17275777,-0.21182828,0.9281448,0.5890582
15556000,-0.5154318,0.21561472,2.5487876,0,0.25456765,-0.17351949,-0.21195361,0.92744917,0.5890226
15580000,-0.51133364,0.21591768,2.54897,0,0.254797,-0.17311648,-0.21002205,0.92790085,0.58899903
15604000,-0.517446,0.21623708,2.5400696,0,0.25834692,-0.1749852,-0.21203125,0.92611,0.5888387
15628000,-0.5184467,0.21655753,2.5356233,0,0.2602734,-0.17573205,-0.21205457,0.9254236,0.5886836
15652000,-0.51416874,0.21687679,2.5358086,0,0.26051944,-0.17530066,-0.21004088,0.92589533,0.58853245
15676000,-0.5150241,0.21719636,2.5313618,0,0.26245862,-0.1760247,-0.20999601,0.9252203,0.5883942
15700000,-0.51586235,0.2175008,2.526915,0,0.26439944,-0.17674018,-0.20994332,0.924543,0.5883756
15724000,-0.5113805,0.21780974,2.5270946,0,0.26466987,-0.17626889,-0.20783779,0.92503107,0.58835745
15748000,-0.5121516,0.2181191,2.522644,0,0.26661745,-0.17697416,-0.20775208,0.92435616,0.58833086
15772000,-0.5127645,0.21842961,2.518195,0,0.26857644,-0.17765899,-0.20759109,0.9236936,0.5883133
15796000,-0.5081463,0.2187369,2.5183764,0,0.2688606,-0.17715913,-0.20542437,0.9241913,0.58832985
15820000,-0.51364756,0.2190484,2.5094802,0,0.27243546,-0.17896225,-0.2071217,0.9224164,0.58833575
15844000,-0.5089511,0.21936002,2.5096624,0,0.2727287,-0.17844449,-0.20492068,0.92292154,0.588349
15868000,-0.5094008,0.21967189,2.5052135,0,0.2746985,-0.17910278,-0.2046796,0.9222631,0.58836555
15892000,-0.509776,0.2199829,2.500763,0,0.27667427,-0.17975034,-0.20440225,0.92160785,0.58839554
15916000,-0.5049186,0.22024603,2.5009446,0,0.2769908,-0.1791785,-0.20213628,0.9221236,0.5888619
15940000,-0.50526583,0.22051549,2.4964957,0,0.27897388,-0.17979795,-0.20185259,0.9214672,0.58928734
15964000,-0.5002482,0.22078769,2.496678,0,0.2793036,-0.17920244,-0.19951144,0.921993,0.5896899
15988000,-0.5004777,0.22106282,2.492229,0,0.28129655,-0.17980245,-0.19917221,0.9213435,0.59006625
16012000,-0.4953942,0.2213778,2.4924104,0,0.28162727,-0.1792115,-0.19679356,0.92186856,0.5900705
16036000,-0.49550128,0.22169553,2.487959,0,0.2836267,-0.17980784,-0.1963903,0.92122525,0.59006345
16060000,-0.49023625,0.2220136,2.4881384,0,0.28397453,-0.179187,-0.19392729,0.9217607,0.5900661
16084000,-0.49546456,0.22233187,2.47923,0,0.28756356,-0.18094507,-0.19547892,0.91997504,0.5900555
16108000,-0.49552444,0.2226198,2.4747696,0,0.28957087,-0.18151905,-0.19505331,0.91932243,0.5902578
16132000,-0.490277,0.2229194,2.4749522,0,0.2899227,-0.18087623,-0.19260605,0.9198541,0.5904444
16156000,-0.49022967,0.2232141,2.470495,0,0.29193747,-0.18143092,-0.19213016,0.9192069,0.590612
16180000,-0.48479146,0.22351593,2.470674,0,0.29230806,-0.18075562,-0.18959448,0.9197486,0.5907672
16204000,-0.48464504,0.22383064,2.4662101,0,0.29433239,-0.18129861,-0.189069,0.9191041,0.5907106
16228000,-0.479133,0.22414917,2.4663856,0,0.29470903,-0.18061405,-0.18649614,0.9196435,0.59062535
16252000,-0.47896817,0.22446537,2.4619148,0,0.29673812,-0.18114853,-0.18596137,0.918994,0.59053016
16276000,-0.47334173,0.22477908,2.4620814,0,0.29712984,-0.18043923,-0.18333595,0.9195345,0.5904309
16300000,-0.4731587,0.22506455,2.457599,0,0.29917,-0.18095094,-0.18279722,0.9188794,0.59056854
16324000,-0.46753335,0.22535327,2.4577734,0,0.29956093,-0.18022324,-0.18017738,0.9194124,0.5906885
16348000,-0.46740305,0.22564264,2.4533045,0,0.30158967,-0.18073612,-0.17966363,0.91874874,0.5907838
16372000,-0.4617024,0.22593062,2.453482,0,0.30198592,-0.1799899,-0.17700964,0.91928,0.5908402
16396000,-0.46132118,0.22620104,2.4491847,0,0.30396083,-0.18043372,-0.17639975,0.91865915,0.5910251
16420000,-0.4611846,0.22647263,2.444702,0,0.3059974,-0.18093002,-0.17588404,0.917984,0.5911713
16444000,-0.45542765,0.22674523,2.4448693,0,0.30640623,-0.1801568,-0.17320767,0.9185085,0.5912952
16468000,-0.4552298,0.22701806,2.440379,0,0.30845165,-0.18063752,-0.17266335,0.9178318,0.5914014
16492000,-0.44942093,0.22729057,2.440539,0,0.30886802,-0.17985004,-0.16996267,0.9183503,0.5914805
16516000,-0.44923714,0.22755198,2.4360323,0,0.31092095,-0.18032166,-0.1694258,0.917664,0.5916238
16540000,-0.44349304,0.22781952,2.43621,0,0.3113235,-0.17953363,-0.16675755,0.9181707,0.5917487
16564000,-0.43764994,0.22809,2.4363828,0,0.31173474,-0.17873108,-0.16404137,0.91867685,0.59185576
16588000,-0.43755126,0.22836259,2.431892,0,0.31377274,-0.17920625,-0.16354524,0.91797864,0.5919178
16612000,-0.43160594,0.22860697,2.4320598,0,0.31419793,-0.17836939,-0.16078666,0.9184834,0.5922054
16636000,-0.43154332,0.22885485,2.4275594,0,0.3162399,-0.17883246,-0.16031128,0.9177752,0.59243983
16660000,-0.4256602,0.22910309,2.4277203,0,0.3166615,-0.17800066,-0.1575803,0.9182645,0.5926402
16684000,-0.41975862,0.22935368,2.4278774,0,0.31708398,-0.17716634,-0.15483859,0.91874635,0.5928209
16708000,-0.41965535,0.22959778,2.4233558,0,0.31914097,-0.17760946,-0.15434586,0.91803116,0.5930231
16732000,-0.41376573,0.22984499,2.423521,0,0.31955826,-0.17676786,-0.15161142,0.918504,0.5931857
16756000,-0.41376594,0.2300941,2.4190211,0,0.32159528,-0.17722079,-0.15116784,0.9177786,0.59331244
16780000,-0.40789846,0.23034412,2.4191866,0,0.3220094,-0.176377,-0.14844358,0.9182405,0.59340954
16804000,-0.40202492,0.23060723,2.4193537,0,0.32241955,-0.17553711,-0.14571287,0.91869485,0.593326
16828000,-0.40215802,0.23087505,2.414836,0,0.32445204,-0.17600815,-0.14532785,0.9179498,0.59321946
16852000,-0.3963074,0.23114382,2.4149883,0,0.3248656,-0.17516866,-0.14260593,0.91839087,0.59310997
16876000,-0.39043495,0.23141313,2.4151456,0,0.32527658,-0.1743246,-0.139873,0.9188262,0.5929768
16900000,-0.39057457,0.23164245,2.4106095,0,0.32732227,-0.17476769,-0.13949901,0.9180721,0.59320533
16924000,-0.3846237,0.23187461,2.4107475,0,0.32775214,-0.17388833,-0.13673589,0.9185013,0.5934103
16948000,-0.37879452,0.23211035,2.4109156,0,0.32815498,-0.17302755,-0.1340293,0.9189189,0.5935933
16972000,-0.3791206,0.23234871,2.4063923,0,0.33017844,-0.17349163,-0.13374314,0.918148,0.5937364
16996000,-0.37328243,0.2325787,2.4065542,0,0.33058465,-0.1726203,-0.13103375,0.91855663,0.5939201
17020000,-0.36746237,0.23281425,2.4067056,0,0.3309912,-0.17175427,-0.12832949,0.9189542,0.59406626
17044000,-0.3678807,0.23305248,2.402159,0,0.33301833,-0.1722228,-0.12808639,0.91816777,0.5941545
17068000,-0.36207756,0.23329382,2.4023085,0,0.33342287,-0.17135541,-0.12538958,0.9185554,0.59421897
17092000,-0.35630873,0.23353724,2.4024522,0,0.3338247,-0.17049418,-0.12270649,0.9189319,0.59426105
17116000,-0.35676613,0.23378226,2.397886,0,0.33585754,-0.17096135,-0.12248103,0.91813415,0.59422725
17140000,-0.3510289,0.23403193,2.3980486,0,0.33624652,-0.17010026,-0.119813845,0.9185036,0.5941522
17164000,-0.3453182,0.23428728,2.3982105,0,0.33663085,-0.16924544,-0.11715667,0.9188634,0.59405375
17188000,-0.33959615,0.23452988,2.3983672,0,0.33701763,-0.16838244,-0.11449513,0.9192156,0.5939052
17212000,-0.34031054,0.23476586,2.3938081,0,0.33902845,-0.16887078,-0.114394695,0.91839874,0.5938378
17236000,-0.3346058,0.23500423,2.3939557,0,0.33941758,-0.16800259,-0.11174222,0.9187407,0.59373844
17260000,-0.3289899,0.23524249,2.3940954,0,0.3398007,-0.16714905,-0.109128945,0.9190688,0.59362656
17284000,-0.3233574,0.23548084,2.3942327,0,0.3401842,-0.16629204,-0.10650687,0.91939,0.59349424
17308000,-0.32410103,0.23572361,2.389645,0,0.34220698,-0.16677298,-0.10642083,0.91856176,0.5932884
17332000,-0.31853634,0.23596781,2.3897786,0,0.34258527,-0.16592377,-0.10382968,0.91887105,0.59304464
17356000,-0.31298035,0.2362134,2.389934,0,0.3429505,-0.1650748,-0.1012432,0.91917634,0.5927802
17380000,-0.30748266,0.23645866,2.3900845,0,0.34331122,-0.16423514,-0.09868226,0.9194705,0.59249645
17404000,-0.30853048,0.23669618,2.3854983,0,0.34531063,-0.16474947,-0.09874168,0.91862303,0.59227675
17428000,-0.30305907,0.23693532,2.385641,0,0.3456726,-0.16390559,-0.09619462,0.918908,0.59201837
17452000,-0.297618,0.237175,2.385783,0,0.34603044,-0.16306654,-0.09366052,0.9191843,0.5917352
17476000,-0.2922401,0.2374154,2.385914,0,0.34638608,-0.16223851,-0.09115371,0.919449,0.591439
17500000,-0.2935642,0.23762614,2.381312,0,0.3483745,-0.16277395,-0.091348186,0.91858333,0.59140044
17524000,-0.28822854,0.23784125,2.3814452,0,0.3487273,-0.16193552,-0.08886714,0.91884094,0.5913141
17548000,-0.28290763,0.23805888,2.3815837,0,0.34907436,-0.16109985,-0.08639206,0.9190922,0.59121567
17572000,-0.27759448,0.23827988,2.3817308,0,0.34941456,-0.160266,-0.08391993,0.91933763,0.59110075
17596000,-0.27235943,0.2384742,2.3818705,0,0.34975222,-0.15943335,-0.08148749,0.91957283,0.5912384
17620000,-0.27387795,0.23867372,2.3772638,0,0.35173115,-0.15997817,-0.08177948,0.918697,0.5913129
17644000,-0.2621713,0.23887497,2.3819683,0,0.35048193,-0.15782791,-0.07673377,0.9199808,0.59134775
17668000,-0.2569825,0.23907846,2.3820965,0,0.3508148,-0.15700579,-0.07431819,0.9201929,0.5913482
17692000,-0.2518142,0.2392826,2.38222,0,0.35114613,-0.15618707,-0.07191098,0.92039704,0.59132916
17716000,-0.24667382,0.23948702,2.3823452,0,0.35147277,-0.15537268,-0.06951617,0.9205943,0.59126925
17740000,-0.24842946,0.23969775,2.3777022,0,0.35345554,-0.15593973,-0.06992251,0.919708,0.5911698
17764000,-0.24340788,0.23991126,2.3778481,0,0.35376224,-0.15514389,-0.06758377,0.9198995,0.5910312
17788000,-0.23840602,0.24012677,2.377998,0,0.35406357,-0.15435179,-0.065253526,0.9200851,0.5908547
17812000,-0.23353839,0.24033391,2.378131,0,0.35436133,-0.15357965,-0.06298481,0.92025775,0.5907297
17836000,-0.22863324,0.24054363,2.378264,0,0.35466003,-0.15280151,-0.060697928,0.9204258,0.5905479
17860000,-0.23075278,0.24075341,2.3736145,0,0.3566207,-0.15341559,-0.061276983,0.91952723,0.5903312
17884000,-0.22599813,0.24096428,2.3737361,0,0.3569129,-0.15265967,-0.059059788,0.9196849,0.5900879
17908000,-0.22126667,0.2411517,2.373858,0,0.35720327,-0.15189669,-0.056857374,0.9198372,0.5901341
17932000,-0.20986137,0.24134125,2.3785708,0,0.35588104,-0.14982158,-0.051928002,0.9209808,0.5901365
17956000,-0.20521905,0.2415299,2.378704,0,0.35615337,-0.14907783,-0.04976429,0.9211157,0.5901162
17980000,-0.20062695,0.24171865,2.3788517,0,0.35641384,-0.14834227,-0.047624428,0.9212468,0.59005076
18004000,-0.19609617,0.24191394,2.3789918,0,0.3566712,-0.14762038,-0.045510694,0.92136997,0.58984584
18028000,-0.19863746,0.24211305,2.3743432,0,0.35861027,-0.14827232,-0.046299174,0.9204729,0.5895859
18052000,-0.19419798,0.24231212,2.374479,0,0.3588626,-0.1475637,-0.044228002,0.92059034,0.58929354
18076000,-0.19364066,0.23383738,2.3719692,0,0.36062366,-0.14365558,-0.04540346,0.920463,0.64907527
18100000,-0.19172288,0.2253563,2.3704708,0,0.3620063,-0.13947508,-0.046033513,0.9205319,0.6493547
18124000,-0.19000521,0.21973453,2.368942,0,0.36319202,-0.13663387,-0.046211753,0.920482,0.649374
18148000,-0.1801559,0.21985859,2.3729892,0,0.361989,-0.1348157,-0.04192735,0.9214287,0.6491834
18172000,-0.1787224,0.21998726,2.3714464,0,0.36278832,-0.13464679,-0.041138593,0.9211746,0.64880884
18196000,-0.18336819,0.2201595,2.3658438,0,0.3650425,-0.13568842,-0.04286551,0.92005175,0.64789444
18220000,-0.18208987,0.22033583,2.364308,0,0.3658245,-0.13556793,-0.042139538,0.9197924,0.6468725
18244000,-0.1809813,0.22051471,2.3627744,0,0.3665937,-0.13547859,-0.04149144,0.9195287,0.645787
18268000,-0.1799732,0.22069629,2.361244,0,0.36735418,-0.13540792,-0.0408894,0.9192626,0.6446736
18292000,-0.1790542,0.22088018,2.3597178,0,0.3681063,-0.13535376,-0.040328275,0.91899437,0.64356196
18316000,-0.17822292,0.22106183,2.358194,0,0.36885133,-0.1353139,-0.03980814,0.9187241,0.6424489
18340000,-0.1692255,0.22125109,2.3622174,0,0.36759585,-0.1336675,-0.035907045,0.91962874,0.6413299
18364000,-0.16853958,0.2214448,2.360693,0,0.368331,-0.13365686,-0.0354525,0.91935366,0.64023983
18388000,-0.16797532,0.22164199,2.359171,0,0.36905646,-0.13366961,-0.0350534,0.91907614,0.6391902
18412000,-0.16733058,0.22185165,2.3576534,0,0.36978438,-0.13367255,-0.034615215,0.9187998,0.63805103
18436000,-0.1727707,0.22206639,2.3521085,0,0.37195197,-0.134878,-0.036698915,0.9176671,0.6369564
18460000,-0.17216279,0.22228067,2.3506005,0,0.37267175,-0.13488986,-0.036276545,0.91739,0.63592565
18484000,-0.17151357,0.22249421,2.3490963,0,0.37339243,-0.13489304,-0.03583563,0.9171138,0.63494784
18508000,-0.17098211,0.22271226,2.3475935,0,0.3741041,-0.13491967,-0.035447944,0.91683495,0.6339399
18532000,-0.16208355,0.22293045,2.3516161,0,0.37284285,-0.13328987,-0.031593822,0.9177276,0.6329729
18556000,-0.1615613,0.2231457,2.350116,0,0.37355334,-0.13331397,-0.031212274,0.91744816,0.63204145
18580000,-0.16105491,0.22335926,2.3486145,0,0.37426332,-0.1333398,-0.030838229,0.91716766,0.6311546
18604000,-0.16059975,0.22356875,2.3471148,0,0.37496907,-0.13337287,-0.030488562,0.91688615,0.6302979
18628000,-0.16008215,0.22377877,2.3456173,0,0.37567776,-0.13339396,-0.030110292,0.9166055,0.62947524
18652000,-0.15957889,0.22398639,2.34412,0,0.37638536,-0.13341618,-0.029739074,0.91632396,0.6286923
18676000,-0.15910499,0.22419164,2.3426235,0,0.37709063,-0.13344233,-0.029381797,0.9160418,0.6279479
18700000,-0.15027173,0.2244174,2.3466468,0,0.37581992,-0.1318271,-0.025556568,0.91691214,0.6269654
18724000,-0.14989038,0.22464281,2.3451512,0,0.37651798,-0.13187696,-0.025239017,0.91662735,0.62601936
18748000,-0.15560205,0.22486426,2.3396325,0,0.37865475,-0.13312867,-0.027445983,0.9155021,0.6251301
18772000,-0.15520199,0.22508405,2.3381357,0,0.37935382,-0.13317312,-0.02711982,0.9152158,0.6242653
18796000,-0.15488936,0.22527838,2.3366396,0,0.380048,-0.13322219,-0.026838697,0.914929,0.6236517
18820000,-0.15464821,0.22547264,2.3351438,0,0.38073713,-0.13328451,-0.026590232,0.91464055,0.62305474
18844000,-0.14597498,0.22566344,2.3391669,0,0.37946022,-0.1316731,-0.022850651,0.9155053,0.62249786
18868000,-0.14569291,0.22585075,2.3376718,0,0.3801527,-0.13172165,-0.022586111,0.9152176,0.6219843
18892000,-0.14546132,0.2260353,2.3361764,0,0.38084194,-0.13177823,-0.02234514,0.9149287,0.6214977
18916000,-0.14526509,0.2262,2.334681,0,0.38152975,-0.13183224,-0.022124205,0.9146397,0.62117374
18940000,-0.14504322,0.22636652,2.3331852,0,0.38221917,-0.13188195,-0.021891091,0.9143503,0.6208591
18964000,-0.14494161,0.22653186,2.331689,0,0.38290069,-0.13195387,-0.021713074,0.9140589,0.62055147
18988000,-0.13636403,0.22669797,2.3357148,0,0.3816133,-0.13034989,-0.018022083,0.91490734,0.6202773
19012000,-0.13625012,0.22686765,2.3342183,0,0.3822962,-0.13041866,-0.017838817,0.914616,0.6199475
19036000,-0.1362335,0.22703876,2.3327215,0,0.38297254,-0.13050649,-0.017699629,0.9143231,0.6196197
19060000,-0.13616608,0.22720686,2.3312244,0,0.38365227,-0.13058308,-0.017537683,0.9140303,0.61930436
19084000,-0.13609985,0.22737283,2.329727,0,0.384332,-0.13065876,-0.017376568,0.913737,0.6189984
19108000,-0.13601486,0.22754015,2.328229,0,0.38501292,-0.1307313,-0.017206505,0.9134432,0.6186212
19132000,-0.12764926,0.22771047,2.3322575,0,0.38370675,-0.12916988,-0.013611853,0.9142751,0.61822534
19156000,-0.12771331,0.22787805,2.3307595,0,0.38437867,-0.12926844,-0.013511043,0.9139804,0.61783767
19180000,-0.12778115,0.22804506,2.329261,0,0.38505033,-0.12936741,-0.013411909,0.913685,0.61747456
19204000,-0.1278429,0.22820067,2.3277624,0,0.38572285,-0.12945996,-0.013312124,0.9133897,0.6171896
19228000,-0.12792486,0.22835782,2.3262632,0,0.38639396,-0.12955703,-0.013221078,0.9130935,0.61691785
19252000,-0.12799095,0.22851355,2.3247635,0,0.38706622,-0.12965032,-0.013122913,0.912797,0.6166466
19276000,-0.11968682,0.22866625,2.3287947,0,0.3857529,-0.12809235,-0.009560477,0.9136168,0.61638045
19300000,-0.12599748,0.22882347,2.3232617,0,0.38786465,-0.12941411,-0.012053877,0.9125063,0.6160151
19324000,-0.12611096,0.22898379,2.3217607,0,0.38853386,-0.12951782,-0.011976298,0.91220784,0.6156424
19348000,-0.1262858,0.22914325,2.3202586,0,0.3891993,-0.12963305,-0.01192667,0.91190845,0.6152776
19372000,-0.12659284,0.22930077,2.318756,0,0.3898562,-0.12977317,-0.011937473,0.91160774,0.61491007
19396000,-0.1183586,0.22945675,2.3227906,0,0.3885396,-0.12822096,-0.008411437,0.9124284,0.61454374
19420000,-0.11857515,0.2295738,2.3212888,0,0.38920495,-0.12832245,-0.008390412,0.9121308,0.61455154
19444000,-0.11887105,0.22969367,2.319786,0,0.38986522,-0.12844072,-0.00840478,0.911832,0.6145594
19468000,-0.11916849,0.22981317,2.3182836,0,0.390525,-0.12855923,-0.008419775,0.91153264,0.6145429
19492000,-0.11947619,0.22992595,2.3167799,0,0.39118484,-0.12867679,-0.008440539,0.911233,0.61451256
19516000,-0.1197881,0.23006576,2.3152752,0,0.39184317,-0.12880751,-0.008457519,0.9109314,0.61429894
19540000,-0.11164114,0.23020416,2.3193123,0,0.39051828,-0.12726317,-0.00497574,0.9117427,0.61407256
19564000,-0.112036526,0.23033579,2.3178072,0,0.39117274,-0.12740386,-0.005033631,0.9114421,0.613841
19588000,-0.11241242,0.23048125,2.3163023,0,0.39182746,-0.12754716,-0.005079653,0.9111406,0.6136272
19612000,-0.112827756,0.23059022,2.3147972,0,0.39248127,-0.12768179,-0.00515078,0.91083986,0.6137053
19636000,-0.113168195,0.23070292,2.3132915,0,0.39313957,-0.12780358,-0.005186826,0.9105386,0.6137552
19660000,-0.10509248,0.23081578,2.3173332,0,0.39180622,-0.12626293,-0.001742493,0.9113411,0.61377144
19684000,-0.10546643,0.23092927,2.3158276,0,0.3924632,-0.12638901,-0.001794882,0.91104066,0.61376727
19708000,-0.10596354,0.23105818,2.3143215,0,0.39311168,-0.12654643,-0.001900017,0.910739,0.6135743
19732000,-0.106457226,0.23119122,2.3128145,0,0.3937603,-0.12670526,-0.002002455,0.9104365,0.61336994
19756000,-0.106858306,0.23132388,2.3113077,0,0.39441437,-0.12684587,-0.002062604,0.9101336,0.6131559
19780000,-0.09891767,0.23145665,2.315351,0,0.39306802,-0.12534198,0.00132443,0.91092545,0.6129342
19804000,-0.099408254,0.2315766,2.3138447,0,0.39371774,-0.12549186,0.001219709,0.9106243,0.6128304
19828000,-0.09996777,0.23170128,2.312337,0,0.39436325,-0.1256577,0.001084883,0.9103222,0.61271375
19852000,-0.100500725,0.23182692,2.3108294,0,0.39501,-0.12581898,0.000962574,0.91001964,0.6125813
19876000,-0.101064704,0.23195325,2.3093204,0,0.39565518,-0.12598696,0.000826642,0.90971625,0.6124542
19900000,-0.09317872,0.23207058,2.313367,0,0.39430228,-0.12448776,0.004185595,0.9105004,0.6123928
19924000,-0.09375464,0.23219186,2.3118584,0,0.39494765,-0.124653235,0.004041936,0.9101987,0.61230457
19948000,-0.094340295,0.23231333,2.3103485,0,0.39559275,-0.12482099,0.003894232,0.90989614,0.61221033
19972000,-0.09501054,0.23243533,2.3088384,0,0.3962323,-0.12500602,0.003708437,0.90959316,0.61209875
19996000,-0.08713334,0.23256412,2.3128886,0,0.39487323,-0.12351733,0.007066943,0.9103673,0.61187714
20020000,-0.08778455,0.23269789,2.3113806,0,0.39551347,-0.12370135,0.006890826,0.9100657,0.6116363
20044000,-0.088422075,0.23283334,2.3098712,0,0.39615488,-0.12388374,0.006721649,0.90976316,0.6113981
20068000,-0.08907754,0.23296875,2.3083622,0,0.39679462,-0.124069974,0.006544557,0.9094602,0.61115235
20092000,-0.089739785,0.23310412,2.3068528,0,0.39743385,-0.124257855,0.006364696,0.9091567,0.610886
20116000,-0.08192621,0.23322555,2.3109047,0,0.39606848,-0.12277907,0.009692483,0.9099237,0.61073744
20140000,-0.082674295,0.23335408,2.3093934,0,0.39670458,-0.12297832,0.009471081,0.90962195,0.6105855
20164000,-0.08342665,0.23348393,2.3078818,0,0.39734012,-0.123179376,0.009248327,0.9093196,0.61043304
20188000,-0.084122635,0.23361482,2.30637,0,0.39797893,-0.12337008,0.009051736,0.9090163,0.6102625
20212000,-0.076279305,0.23374894,2.3104246,0,0.39661065,-0.12189451,0.012396697,0.90977365,0.61001104
20236000,-0.07697017,0.23388761,2.3089135,0,0.3972501,-0.12208515,0.01220274,0.90947163,0.6097476
20260000,-0.07786111,0.23402633,2.3074036,0,0.39787644,-0.12231595,0.011918072,0.9091705,0.60946965
20284000,-0.07868411,0.23416553,2.305893,0,0.39850688,-0.12253392,0.011664771,0.9088683,0.6091872
20308000,-0.07955254,0.23430169,2.304381,0,0.399135,-0.12275998,0.011390641,0.9085657,0.6089063
20332000,-0.07186483,0.23444128,2.3084362,0,0.39775532,-0.12131801,0.014665406,0.909317,0.6086167
20356000,-0.072793536,0.2345821,2.3069234,0,0.39838102,-0.121555656,0.014363661,0.90901625,0.60832727
20380000,-0.073656455,0.2347245,2.3054118,0,0.39900967,-0.121781394,0.014092431,0.9087145,0.60801417
20404000,-0.074492685,0.23486042,2.3038998,0,0.39964005,-0.12199931,0.013832372,0.90841216,0.60773927
20428000,-0.06682046,0.23500279,2.3079581,0,0.3982556,-0.12056473,0.017101407,0.9091558,0.6074512
20452000,-0.06774009,0.23514533,2.306446,0,0.39888176,-0.12079975,0.016803594,0.90885556,0.6071663
20476000,-0.06860555,0.23529002,2.304934,0,0.39951077,-0.12102538,0.016531192,0.90855414,0.6068792
20500000,-0.06955817,0.23543283,2.3034205,0,0.40013483,-0.121268064,0.016219262,0.9082527,0.60659873
20524000,-0.055795334,0.2355785,2.3115418,0,0.3972637,-0.11866806,0.022016859,0.90973324,0.6063079
20548000,-0.05678823,0.23572421,2.3100274,0,0.39788818,-0.11891495,0.02168465,0.90943605,0.60602367
20572000,-0.05775029,0.23587053,2.3085136,0,0.39851373,-0.11915653,0.021366933,0.909138,0.6057374
20596000,-0.0587848,0.23601364,2.3069987,0,0.39913526,-0.1194116,0.021016086,0.90884,0.60548764
20620000,-0.059699617,0.23616347,2.3054855,0,0.39976254,-0.11964639,0.020721288,0.9085401,0.6052263
20644000,-0.052094907,0.23631291,2.3095486,0,0.39836285,-0.11824213,0.023965877,0.9092588,0.6049504
20668000,-0.053106513,0.23646301,2.3080342,0,0.398986,-0.118493795,0.023626026,0.9089616,0.6046886
20692000,-0.054130178,0.23661436,2.3065186,0,0.39960858,-0.118748985,0.023281418,0.9086637,0.60443044
20716000,-0.055156477,0.23676452,2.3050034,0,0.40023038,-0.11900471,0.022935739,0.9083653,0.60412496
20740000,-0.04761658,0.23692136,2.309067,0,0.39882445,-0.11761944,0.026152954,0.90907687,0.6038067
20764000,-0.048745647,0.23707941,2.3075511,0,0.3994414,-0.11789674,0.02576104,0.90878123,0.603501
20788000,-0.04985334,0.23723823,2.3060346,0,0.40005943,-0.11817072,0.025379473,0.90848446,0.6032035
20812000,-0.050971318,0.23736967,2.3045185,0,0.4006772,-0.118434966,0.024988068,0.9081886,0.6032079
20836000,-0.04347044,0.23750624,2.3085854,0,0.3992665,-0.11705084,0.028183738,0.9088955,0.6031998
20860000,-0.044620216,0.23764347,2.307069,0,0.3998835,-0.11732154,0.027777903,0.90860176,0.6031941
20884000,-0.045862786,0.23778197,2.3055532,0,0.4004943,-0.11761205,0.027330577,0.90830874,0.6031663
20908000,-0.04704609,0.23791666,2.3040361,0,0.40110886,-0.11788963,0.026909912,0.9080141,0.6031562
20932000,-0.039648887,0.23805806,2.308106,0,0.39968908,-0.116530746,0.030059727,0.9087164,0.6031182
20956000,-0.04079175,0.23820001,2.3065886,0,0.4003071,-0.116801016,0.029657753,0.908423,0.60306484
20980000,-0.042062294,0.23834325,2.305072,0,0.40091667,-0.11709811,0.029198442,0.90813065,0.60299444
21004000,-0.043353505,0.23847666,2.3035543,0,0.40152556,-0.117395595,0.028728295,0.9078382,0.60300314
21028000,-0.03601427,0.23861246,2.3076255,0,0.4001006,-0.11604794,0.031850904,0.908536,0.60299283
21052000,-0.03726124,0.23874806,2.3061094,0,0.4007124,-0.11633508,0.031400036,0.90824544,0.60297
21076000,-0.038439855,0.23888461,2.3045924,0,0.40132806,-0.116609626,0.030980894,0.90795267,0.602934
21100000,-0.039759234,0.23903371,2.3030746,0,0.40193507,-0.11691879,0.030500898,0.90766066,0.6026939
21124000,-0.032460738,0.23918849,2.3071475,0,0.40050513,-0.11559004,0.03360905,0.90835285,0.6024313
21148000,-0.03385883,0.23934346,2.3056304,0,0.4011082,-0.11591519,0.03309331,0.9080643,0.60216975
21172000,-0.035172045,0.23949976,2.3041127,0,0.40171602,-0.11622464,0.032616913,0.90777326,0.60189956
21196000,-0.03654917,0.23963387,2.3025928,0,0.40232128,-0.11653761,0.03210762,0.90748316,0.6018651
21220000,-0.023022654,0.23977244,2.3107433,0,0.39939556,-0.114031754,0.037808087,0.90887314,0.6018044
21244000,-0.024376906,0.23991261,2.3092263,0,0.4000034,-0.114337526,0.037307568,0.9085882,0.6017326
21268000,-0.025771923,0.24005389,2.3077087,0,0.40060863,-0.11465272,0.03678927,0.90830284,0.60165817
21292000,-0.027266502,0.24019626,2.306191,0,0.4012077,-0.11498917,0.036226485,0.90801847,0.6015614
21316000,-0.020138502,0.24034078,2.310266,0,0.39976013,-0.11370429,0.03926001,0.90869236,0.6013913
21340000,-0.021737054,0.2404913,2.3087468,0,0.4003549,-0.114062764,0.03865062,0.9084116,0.60121274
21364000,-0.023278657,0.2406426,2.3072288,0,0.40095174,-0.1144111,0.038067725,0.9081292,0.6010102
21388000,-0.024793917,0.24079397,2.305709,0,0.4015505,-0.11475502,0.037497453,0.90784496,0.60081327
21412000,-0.017739933,0.24095322,2.3097854,0,0.40009725,-0.113493025,0.04050009,0.908516,0.60045445
21436000,-0.019213261,0.2411169,2.3082669,0,0.40069854,-0.11383172,0.03995016,0.908233,0.60007596
21460000,-0.020771096,0.24128073,2.3067484,0,0.40129447,-0.11418827,0.03936242,0.90795064,0.59969985
21484000,-0.022323122,0.24144575,2.30523,0,0.40189013,-0.11454505,0.038778108,0.90766734,0.5993221
21508000,-0.015368728,0.2415775,2.3093076,0,0.40043122,-0.11329198,0.041729722,0.90833837,0.5993421
21532000,-0.016928,0.24171467,2.3077881,0,0.40102887,-0.113635145,0.041135468,0.90805876,0.59933305
21556000,-0.018584048,0.24185278,2.3062668,0,0.4016213,-0.11399904,0.040498115,0.90778,0.5993136
21580000,-0.01164123,0.24199115,2.3103461,0,0.4001588,-0.112755775,0.043447144,0.9084445,0.599287
21604000,-0.013350287,0.24212717,2.3088255,0,0.40074918,-0.11312691,0.04278417,0.9081695,0.5992445
21628000,-0.015038917,0.24226929,2.3073063,0,0.4013393,-0.113497764,0.04213219,0.9078931,0.59918714
21652000,-0.01673204,0.24241272,2.3057873,0,0.40192845,-0.11387105,0.041478988,0.9076158,0.5991095
21676000,-0.009910302,0.24255648,2.3098695,0,0.4004576,-0.112655476,0.04437365,0.90828055,0.5990221
21700000,-0.011623425,0.24272278,2.3083498,0,0.40104648,-0.11304074,0.043714937,0.9080047,0.598635
21724000,-0.00716348,0.24289162,2.3109145,0,0.40012863,-0.11228136,0.04562965,0.90840954,0.5982483
21748000,-0.008995641,0.24306074,2.3093946,0,0.4007114,-0.11269053,0.044917017,0.9081375,0.5978637
21772000,-0.002271999,0.24322967,2.3134778,0,0.3992292,-0.11151723,0.047776077,0.9087889,0.5974762
21796000,-0.004065649,0.24336694,2.3119571,0,0.39981642,-0.111901835,0.047073554,0.9085201,0.5974853
21820000,-0.005962861,0.24351385,2.3104358,0,0.40039733,-0.112312555,0.046326563,0.90825206,0.59748393
21844000,-0.007811388,0.24366313,2.3089151,0,0.40097988,-0.11271572,0.045602735,0.9079817,0.5974754
21868000,-0.001068528,0.24381469,2.312999,0,0.39949933,-0.11153119,0.048466455,0.90863204,0.5974528
21892000,-0.002931155,0.2439678,2.3114781,0,0.4000823,-0.11193648,0.047735944,0.9083643,0.5974224
21916000,-0.004831565,0.24410936,2.309957,0,0.4006629,-0.112345174,0.046986602,0.9080969,0.5974779
21940000,0.001827979,0.24425703,2.3140419,0,0.39917597,-0.11117944,0.049812716,0.90874434,0.59749454
21964000,-9.24E-05,0.24440455,2.312521,0,0.39975637,-0.111592434,0.049054444,0.9084798,0.59749293
21988000,-0.002142947,0.24455239,2.310998,0,0.4003298,-0.11203268,0.04823785,0.90821683,0.5974894
22012000,-0.004123767,0.24472274,2.3094757,0,0.4009055,-0.11247038,0.04745807,0.90794975,0.59714776
22036000,0.002465071,0.24489358,2.3135622,0,0.3994141,-0.11132949,0.05025586,0.908597,0.5967951
22060000,0.00049221,0.24506453,2.3120391,0,0.3999917,-0.111763455,0.049478814,0.9083322,0.5964554
22084000,-0.001522424,0.24523444,2.3105156,0,0.4005665,-0.11220643,0.048683293,0.9080672,0.5961177
22108000,-0.00355712,0.24540567,2.308993,0,0.40113893,-0.1126552,0.047879536,0.9078017,0.59569764
22132000,0.002950472,0.24558195,2.3130813,0,0.39964306,-0.11153314,0.05064056,0.90845,0.59526616
22156000,0.000892806,0.24575984,2.3115578,0,0.40021566,-0.11198714,0.049826737,0.908187,0.59484655
22180000,-0.001143407,0.24593866,2.310035,0,0.40078834,-0.11243845,0.04902349,0.9079223,0.59443736
22204000,0.003042289,0.24611504,2.3126023,0,0.39985293,-0.111744806,0.05081546,0.9083218,0.5940382
22228000,0.009502582,0.24629375,2.3166916,0,0.39835006,-0.11064357,0.05355875,0.9089591,0.59364295
22252000,0.00745682,0.24647227,2.315168,0,0.39892498,-0.111092,0.05274909,0.9086996,0.5932657
22276000,0.005330741,0.24664997,2.3136442,0,0.3994947,-0.11155726,0.05190346,0.9084409,0.5928943
22300000,0.011694909,0.24679744,2.3177364,0,0.3979852,-0.11046443,0.054597408,0.9090789,0.59288853
22324000,0.009451651,0.24695072,2.3162124,0,0.3985502,-0.110939585,0.053692687,0.90882736,0.5928589
22348000,0.007359069,0.2471038,2.3146882,0,0.39912295,-0.11138587,0.052857094,0.9085704,0.5928154
22372000,0.005104434,0.24725732,2.313162,0,0.3996867,-0.1118659,0.05194877,0.9083159,0.59278005
22396000,0.011494445,0.24741352,2.3172553,0,0.39817923,-0.11077139,0.05465513,0.9089532,0.5926619
22420000,0.00921737,0.24757552,2.3157308,0,0.39874193,-0.11125739,0.053737197,0.9087018,0.5925146
22444000,0.007035391,0.24774441,2.314206,0,0.39930916,-0.11172884,0.052864574,0.9084461,0.59237397
22468000,0.004817596,0.24790038,2.3126812,0,0.3998738,-0.112202846,0.051973812,0.9081906,0.592208
22492000,0.011146352,0.24806319,2.316778,0,0.39836237,-0.11112308,0.054652374,0.9088301,0.59204507
22516000,0.008825348,0.2482133,2.315252,0,0.39892307,-0.11161261,0.05371262,0.9085802,0.59202135
22540000,0.006608268,0.24837385,2.3137262,0,0.39948845,-0.11208745,0.052822873,0.90832543,0.59198457
22564000,0.012805033,0.24852866,2.3178236,0,0.397969,-0.111033306,0.055440433,0.9089657,0.5919289
22588000,0.010349266,0.24867661,2.316297,0,0.39852282,-0.11154766,0.054438796,0.90872055,0.5918581
22612000,0.007969201,0.24883358,2.31477,0,0.39907995,-0.11205238,0.053474113,0.9084712,0.59171
22636000,0.005573035,0.24899936,2.3132424,0,0.3996353,-0.11256569,0.052504655,0.90822023,0.5915571
22660000,0.018044261,0.24915868,2.3214445,0,0.39659953,-0.11038169,0.05774644,0.9094999,0.59138775
22684000,0.015665563,0.24931882,2.319918,0,0.3971587,-0.1108829,0.05678095,0.9092556,0.59122366
22708000,0.013346059,0.24946149,2.3183904,0,0.3977211,-0.11136573,0.055839684,0.9090091,0.591257
22732000,0.019470988,0.24960975,2.3224924,0,0.39619246,-0.1103347,0.058426395,0.90963954,0.59125614
22756000,0.017112,0.24975958,2.320966,0,0.39675304,-0.11082632,0.05746756,0.9093965,0.5912397
22780000,0.014705407,0.24991126,2.319439,0,0.39731044,-0.111329585,0.05648822,0.90915304,0.59120893
22804000,0.012186815,0.25004768,2.317912,0,0.3978609,-0.11184959,0.055455685,0.908912,0.59136605
22828000,0.018260509,0.2501873,2.322015,0,0.39633077,-0.11082359,0.058016077,0.9095462,0.5915095
22852000,0.01583683,0.25032863,2.3204877,0,0.39688766,-0.11132461,0.057026707,0.9093047,0.5916282
22876000,0.013380507,0.25047207,2.31896,0,0.39744207,-0.111834474,0.05602368,0.9090623,0.5917385
22900000,0.010977222,0.250611,2.3174326,0,0.3979984,-0.11233316,0.055044588,0.9088172,0.59187067
22924000,0.017156688,0.25075647,2.3215382,0,0.39647445,-0.111287646,0.05765282,0.90945,0.59197164
22948000,0.014646269,0.25090393,2.3200104,0,0.39702594,-0.11180911,0.056625754,0.90920997,0.59205866
22972000,0.01218467,0.25105286,2.318482,0,0.39757943,-0.112322964,0.05562196,0.9089666,0.5921355
22996000,0.018294523,0.2511971,2.322589,0,0.39605072,-0.11129323,0.058198653,0.9095992,0.5922317
23020000,0.01578777,0.2513457,2.321061,0,0.3966026,-0.11181354,0.057173263,0.9093598,0.5922997
23044000,0.013174025,0.25149548,2.3195322,0,0.3971479,-0.11235704,0.05610027,0.9091217,0.59236723
23068000,0.010729925,0.2516472,2.3180044,0,0.39770123,-0.11286926,0.0551055,0.90887713,0.5924096
23092000,0.016775208,0.25179958,2.3221123,0,0.39617008,-0.11185459,0.05765301,0.90951306,0.5924377
23116000,0.014249467,0.2519722,2.3205838,0,0.39671978,-0.11239012,0.056624316,0.909272,0.59204555
23140000,0.017960021,0.25214934,2.3231645,0,0.3957504,-0.11180971,0.058201917,0.90966624,0.5916289
23164000,0.015365301,0.25232688,2.321636,0,0.39629638,-0.11236023,0.057142556,0.90942794,0.5912128
23188000,0.021366488,0.25250354,2.325745,0,0.39475924,-0.111373864,0.059677236,0.9100548,0.5908063
23212000,0.018728828,0.2526586,2.3242161,0,0.3953044,-0.11192025,0.058592975,0.90982145,0.590673
23236000,0.016082104,0.25281984,2.3226871,0,0.39584804,-0.11247279,0.057506617,0.9095863,0.5905135
