timestamp,roll,pitch,yaw,thrust_body[0]
8004000,0.041808926,0.053670213,-0.006202266,0.15
8008000,0.04181069,0.0536767,-0.006202055,0.15
8012000,0.04182869,0.05365045,-0.006201964,0.15
8016000,0.041838046,0.053566962,-0.00620347,0.15
8020000,0.041832868,0.053511288,-0.006204901,0.15
8024000,0.041943632,0.053473838,-0.006285125,0.15
8028000,0.041955695,0.053445745,-0.006285299,0.15
8032000,0.041961115,0.053467836,-0.006284605,0.15
8036000,0.041924108,0.05349442,-0.006285396,0.15
8040000,0.04186986,0.053471737,-0.006287925,0.15
8044000,0.041846547,0.053419903,-0.006289945,0.15
8048000,0.041884955,0.053354267,-0.006319022,0.15
8052000,0.041906234,0.05330316,-0.006319363,0.15
8056000,0.041903447,0.053256366,-0.006320505,0.15
8060000,0.04186373,0.053192865,-0.006323388,0.15
8064000,0.041863803,0.05319213,-0.006323401,0.15
8068000,0.04185942,0.053260084,-0.00632206,0.15
8076000,0.04174383,0.053287875,-0.006280759,0.15
8080000,0.041757036,0.05324157,-0.006281293,0.15
8084000,0.041758727,0.053264648,-0.006280719,0.15
8088000,0.04177095,0.053267214,-0.006280208,0.15
8092000,0.041785557,0.053236574,-0.006280343,0.15
8096000,0.041863486,0.05317284,-0.006335903,0.15
8100000,0.041865513,0.05312887,-0.006336802,0.15
8104000,0.041838028,0.053158022,-0.006337176,0.15
8112000,0.04185573,0.053179137,-0.006336052,0.15
8116000,0.041843213,0.05313331,-0.006337531,0.15
8124000,0.041898206,0.05318172,-0.00639119,0.15
8128000,0.041903917,0.053147003,-0.006391747,0.15
8132000,0.04190527,0.0531053,-0.006392619,0.15
8136000,0.041902117,0.053108502,-0.006392665,0.15
8140000,0.04190624,0.053120606,-0.006392244,0.15
8144000,0.041973624,0.053122114,-0.006410208,0.15
8148000,0.04199266,0.053104166,-0.006409899,0.15
8152000,0.041991618,0.05307218,-0.006410648,0.15
8156000,0.041981187,0.053030875,-0.006411948,0.15
8160000,0.041954983,0.052977726,-0.006414095,0.15
8164000,0.041967075,0.052953765,-0.006414177,0.15
8168000,0.041949175,0.052913565,-0.006399937,0.15
8172000,0.041938603,0.052843187,-0.006401885,0.15
8176000,0.041936968,0.05280639,-0.00640276,0.15
8184000,0.04191232,0.052793834,-0.006403945,0.15
8188000,0.041881856,0.052797697,-0.006404984,0.15
8192000,0.041901063,0.052831203,-0.006441579,0.15
8196000,0.041900076,0.05282227,-0.006441813,0.15
8200000,0.041885212,0.052829634,-0.006442199,0.15
8204000,0.041878533,0.05289653,-0.00644097,0.15
8208000,0.041902468,0.05288916,-0.006440247,0.15
8212000,0.041920345,0.052848186,-0.006440493,0.15
8220000,0.04188052,0.052833192,-0.00642567,0.15
8224000,0.04188813,0.052843664,-0.006425157,0.15
8232000,0.04187047,0.05273443,-0.006428221,0.15
8236000,0.041879397,0.052687913,-0.006428918,0.15
8244000,0.030794343,0.052670654,-0.006428918,0
8248000,0.030753843,0.052580196,-0.006428918,0
8252000,0.03072491,0.05258065,-0.006428918,0
8256000,0.030715138,0.05262956,-0.006428918,0
8260000,0.030696658,0.052624866,-0.006428918,0
8264000,0.030665122,0.05259348,-0.006428918,1
8268000,0.030651914,0.052591525,-0.006428918,1
8272000,0.030631036,0.05260451,-0.006428918,1
8276000,0.030618604,0.052603804,-0.006428918,1
8280000,0.030641505,0.05260974,-0.006428918,1
8284000,0.03064727,0.05263886,-0.006428918,1
8288000,0.03062664,0.052608844,-0.006428918,1
8292000,0.030597057,0.052548517,-0.006428918,1
8296000,0.030574797,0.052496932,-0.006428918,1
8300000,0.030521186,0.05242299,-0.006428918,1
8304000,0.030478586,0.052364964,-0.006428918,1
8308000,0.030498626,0.052359384,-0.006428918,1
8312000,0.03050956,0.052377112,-0.006428918,1
8316000,0.030502101,0.052380662,-0.006428918,1
8320000,0.030481488,0.052381888,-0.006428918,1
8324000,0.030456927,0.052373808,-0.006428918,1
8328000,0.030420851,0.052321367,-0.006428918,1
8336000,0.030407038,0.052283913,-0.006428918,1
8340000,0.03041244,0.052267008,-0.006428918,1
8344000,0.030379986,0.05227337,-0.006428918,1
8348000,0.030354122,0.052255172,-0.006428918,1
8352000,0.030363772,0.052254777,-0.006428918,1
8356000,0.030347686,0.052240305,-0.006428918,1
8360000,0.030339515,0.05217836,-0.006428918,1
8364000,0.030378094,0.052141592,-0.006428918,1
8368000,0.03041397,0.05212183,-0.006428918,1
8372000,0.030403724,0.05208621,-0.006428918,1
8376000,0.030417418,0.05200186,-0.006428918,1
8380000,0.030432919,0.05197055,-0.006428918,1
8384000,0.030428981,0.051966622,-0.006428918,1
8388000,0.030450454,0.051921945,-0.006428918,1
8392000,0.030462233,0.0519278,-0.006428918,1
8400000,0.030486932,0.05191356,-0.006428918,1
8404000,0.030470377,0.051883083,-0.006428918,1
8408000,0.030437434,0.05183579,-0.006428918,1
8412000,0.030448627,0.051789112,-0.006428918,1
8416000,0.030472675,0.05180179,-0.006428918,1
8424000,0.030474277,0.051723007,-0.006428918,1
8428000,0.030470416,0.051674403,-0.006428918,1
8432000,0.030504344,0.051653977,-0.006428918,1
8436000,0.030530434,0.05167947,-0.006428918,1
8440000,0.030505938,0.051714752,-0.006428918,1
8444000,0.030484034,0.051726267,-0.006428918,1
8448000,0.030452916,0.05167271,-0.006428918,1
8456000,0.030398674,0.051491383,-0.006428918,1
8464000,0.030318253,0.051317714,-0.006428918,1
8468000,0.030288404,0.05127477,-0.006428918,1
8472000,0.03029345,0.05124186,-0.006428918,1
8476000,0.030316722,0.051203005,-0.006428918,1
8480000,0.030329438,0.05112083,-0.006428918,1
8484000,0.03033585,0.051036194,-0.006428918,1
8488000,0.030334605,0.05102456,-0.006428918,1
8492000,0.03033424,0.051028777,-0.006428918,1
8496000,0.030341826,0.050981943,-0.006428918,1
8500000,0.030341325,0.05090199,-0.006428918,1
8504000,0.030342922,0.05088771,-0.006428918,1
8508000,0.030360635,0.050867297,-0.006428918,1
8512000,0.030362733,0.050871495,-0.006428918,1
8516000,0.030360315,0.050882906,-0.006428918,1
8520000,0.030363105,0.050854355,-0.006428918,1
8524000,0.030380787,0.05088862,-0.006428918,1
8528000,0.030376397,0.05088464,-0.006428918,1
8532000,0.030355768,0.050854698,-0.006428918,1
8536000,0.03033797,0.05085618,-0.006428918,1
8540000,0.030305987,0.050827622,-0.006428918,1
8544000,0.030295804,0.050776944,-0.006428918,1
8548000,0.03028602,0.050719265,-0.006428918,1
8552000,0.030265028,0.050678536,-0.006428918,1
8556000,0.03026253,0.050650902,-0.006428918,1
8560000,0.030263761,0.050611474,-0.006428918,1
8564000,0.030247493,0.050572198,-0.006428918,1
8568000,0.030266112,0.05049692,-0.006428918,1
8572000,0.030303555,0.05046618,-0.006428918,1
8576000,0.030353991,0.0504151,-0.006428918,1
8580000,0.030392922,0.050309826,-0.006428918,1
8584000,0.030421238,0.050233718,-0.006428918,1
8588000,0.030443728,0.05018389,-0.006428918,1
8592000,0.030479694,0.050160445,-0.006428918,1
8596000,0.030546091,0.05015952,-0.006428918,1
8600000,0.030585928,0.050093584,-0.006428918,1
8604000,0.03061331,0.05003423,-0.006428918,1
8608000,0.030653229,0.05001269,-0.006428918,1
8612000,0.030688819,0.049955126,-0.006428918,1
8616000,0.030720338,0.04992006,-0.006428918,1
8620000,0.030744966,0.049858924,-0.006428918,1
8624000,0.0307549,0.04975504,-0.006428918,1
8628000,0.03074449,0.049695432,-0.006428918,1
8632000,0.030755956,0.04965721,-0.006428918,1
8640000,0.030831225,0.049514335,-0.006428918,1
8644000,0.03081508,0.049455944,-0.006428918,1
8648000,0.030826313,0.049384598,-0.006428918,1
8652000,0.030872645,0.04934164,-0.006428918,1
8656000,0.030893637,0.0493292,-0.006428918,1
8660000,0.030916898,0.04926701,-0.006428918,1
8664000,0.030954497,0.049204133,-0.006428918,1
8668000,0.031020842,0.049149346,-0.006428918,1
8672000,0.031054892,0.04902796,-0.006428918,1
8676000,0.031076217,0.048901003,-0.006428918,1
8680000,0.03112631,0.04880332,-0.006428918,1
8684000,0.03117642,0.048708506,-0.006428918,1
8688000,0.031216362,0.048622325,-0.006428918,1
8692000,0.031247878,0.048543885,-0.006428918,1
8696000,0.031286106,0.048490986,-0.006428918,1
8700000,0.03130749,0.04846882,-0.006428918,1
8704000,0.031319063,0.048408963,-0.006428918,1
8708000,0.031330362,0.048336476,-0.006428918,1
8712000,0.03136287,0.04829278,-0.006428918,1
8716000,0.031404246,0.04822258,-0.006428918,1
8724000,0.031465463,0.048167013,-0.006428918,1
8728000,0.03146718,0.04812115,-0.006428918,1
8732000,0.03149815,0.048056696,-0.006428918,1
8736000,0.031554777,0.047969125,-0.006428918,1
8740000,0.03158389,0.047871165,-0.006428918,1
8744000,0.031605776,-0.55835396,-0.006428918,1
8748000,0.031640198,-0.5583572,-0.006428918,1
8752000,0.03168113,-0.5583819,-0.006428918,1
8756000,0.03169493,-0.5584468,-0.006428918,1
8760000,0.031695172,-0.5584623,-0.006428918,1
8764000,0.031672362,-0.55848885,-0.006428918,1
8768000,0.0316127,-0.5307007,-0.006428918,1
8776000,0.031537794,-0.53086275,-0.006428918,1
8784000,0.031428203,-0.53099555,-0.006428918,1
8788000,0.031302724,-0.53110385,-0.006428918,1
8792000,0.0311525,-0.5048898,-0.006428918,1
8796000,0.031000273,-0.50499094,-0.006428918,1
8800000,0.030799495,-0.5050266,-0.006428918,1
8804000,0.030546017,-0.50504684,-0.006428918,1
8808000,0.030271726,-0.5050662,-0.006428918,1
8812000,0.029947117,-0.5050771,-0.006428918,1
8816000,0.029581506,-0.4802751,-0.006428918,1
8820000,0.02916734,-0.48026657,-0.006428918,1
8824000,0.028720776,-0.48028323,-0.006428918,1
8828000,0.028223872,-0.48030102,-0.006428918,1
8832000,0.02767014,-0.48037887,-0.006428918,1
8840000,0.026405543,-0.4570801,-0.006428918,1
8844000,0.025744675,-0.45714504,-0.006428918,1
8848000,0.02504039,-0.45723894,-0.006428918,1
8852000,0.02426537,-0.45733568,-0.006428918,1
8856000,0.023444828,-0.45747933,-0.006428918,1
8864000,0.021747246,-0.43537167,-0.006428918,1
8872000,0.019855483,-0.43563035,-0.006428918,1
8876000,0.018830437,-0.4357529,-0.006428918,1
8880000,0.01777745,-0.43584597,-0.006428918,1
8884000,0.016700322,-0.43601006,-0.006428918,1
8888000,0.015560697,-0.41467002,-0.006428918,1
8892000,0.014366851,-0.41477594,-0.006428918,1
8896000,0.013121214,-0.41492626,-0.006428918,1
8904000,0.010451492,-0.41514522,-0.006428918,1
8908000,0.009044335,-0.41531786,-0.006428918,1
8912000,0.007592179,-0.3949794,-0.006428918,1
8916000,0.006093932,-0.3951307,-0.006428918,1
8920000,0.004571206,-0.39532772,-0.006428918,1
8924000,0.003015218,-0.395522,-0.006428918,1
8928000,0.001396809,-0.3956673,-0.006428918,1
8932000,-0.000270584,-0.3958201,-0.006428918,1
8936000,-0.001943948,-0.37633595,-0.006428918,1
8940000,-0.00364289,-0.3764682,-0.006428918,1
8948000,-0.007131361,-0.37670222,-0.006428918,1
8952000,-0.008923682,-0.3767925,-0.006428918,1
8956000,-0.010764728,-0.37693772,-0.006428918,1
8960000,-0.012648571,-0.35808852,-0.006428918,1
8964000,-0.014534665,-0.3581101,-0.006428918,1
8968000,-0.016425828,-0.35812274,-0.006428918,1
8976000,-0.020227443,-0.35826826,-0.006428918,1
8984000,-0.024055311,-0.3402046,-0.006428918,1
8988000,-0.02594675,-0.34022972,-0.006428918,1
8992000,-0.027833764,-0.3402177,-0.006428918,1
9000000,-0.031740095,-0.3402466,-0.006428918,1
9004000,-0.03367977,-0.3402359,-0.006428918,1
9008000,-0.035670456,-0.32254902,-0.006428918,1
9016000,-0.03959534,-0.3226019,-0.006428918,1
9020000,-0.041531455,-0.3225343,-0.006428918,1
9024000,-0.04348239,-0.32242358,-0.006428918,1
9032000,-0.047438845,-0.305029,-0.006428918,1
9036000,-0.049388275,-0.30491418,-0.006428918,1
9040000,-0.0513476,-0.30478406,-0.006428918,1
9044000,-0.05334442,-0.3047146,-0.006428918,1
9048000,-0.05532539,-0.30462408,-0.006428918,1
9052000,-0.057298366,-0.30453736,-0.006428918,1
9056000,-0.059258316,-0.28774253,-0.006428918,1
9064000,-0.06314186,-0.28755143,-0.006428918,1
9072000,-0.06709464,-0.28727657,-0.006428918,1
9076000,-0.06902755,-0.28714943,-0.006428918,1
9080000,-0.070937335,-0.27069795,-0.006428918,1
9084000,-0.07283787,-0.2705866,-0.006428918,1
9088000,-0.07473647,-0.2704354,-0.006428918,1
9092000,-0.07662023,-0.2702934,-0.006428918,1
9096000,-0.078506574,-0.27015755,-0.006428918,1
9100000,-0.08034054,-0.27003914,-0.006428918,1
9104000,-0.08216734,-0.2540321,-0.006428918,1
9108000,-0.084034465,-0.2539525,-0.006428918,1
9112000,-0.08586095,-0.2538457,-0.006428918,1
9116000,-0.08766138,-0.2536993,-0.006428918,1
9120000,-0.08948217,-0.25352547,-0.006428918,1
9124000,-0.09128001,-0.25333855,-0.006428918,1
9128000,-0.093056194,-0.23759665,-0.006428918,1
9136000,-0.09662281,-0.23733734,-0.006428918,1
9140000,-0.09840243,-0.23716538,-0.006428918,1
9144000,-0.10018145,-0.23701617,-0.006428918,1
9148000,-0.10193527,-0.23689549,-0.006428918,1
9156000,-0.10538581,-0.22152357,-0.006428918,1
9160000,-0.10708334,-0.22142218,-0.006428918,1
9164000,-0.108776614,-0.22134218,-0.006428918,1
9168000,-0.11047512,-0.22129045,-0.006428918,1
9172000,-0.112125866,-0.2212531,-0.006428918,1
9176000,-0.113796934,-0.20632109,-0.006428918,1
9180000,-0.1154861,-0.20635483,-0.006428918,1
9184000,-0.11707614,-0.20644692,-0.006428918,1
9188000,-0.11863912,-0.20660791,-0.006428918,1
9196000,-0.12173857,-0.20705755,-0.006428918,1
9200000,-0.123246334,-0.1926164,-0.006428918,1
9208000,-0.1263238,-0.19312641,-0.006428918,1
9216000,-0.12936532,-0.19375095,-0.006428918,1
9220000,-0.13083056,-0.19409007,-0.006428918,1
9224000,-0.13231131,-0.18000801,-0.006428918,1
9228000,-0.1338044,-0.18041068,-0.006428918,1
9232000,-0.13527435,-0.18082687,-0.006428918,1
9236000,-0.13672058,-0.18128611,-0.006428918,1
9240000,-0.13812,-0.18174979,-0.006428918,1
9244000,-0.1395163,-0.1822695,-0.006428918,1
9248000,-0.14093125,-0.16860493,-0.006428918,1
9252000,-0.14234012,-0.16916241,-0.006428918,1
9256000,-0.14372313,-0.16973479,-0.006428918,1
9260000,-0.14508238,-0.17031223,-0.006428918,1
9264000,-0.14645001,-0.1708928,-0.006428918,1
9268000,-0.14780559,-0.17151138,-0.006428918,1
9272000,-0.14915566,-0.15814622,-0.006428918,1
9276000,-0.15051004,-0.1588534,-0.006428918,1
9280000,-0.1518454,-0.15957513,-0.006428918,1
9284000,-0.15318336,-0.16031271,-0.006428918,1
9288000,-0.15452388,-0.1610436,-0.006428918,1
9292000,-0.15583512,-0.16182026,-0.006428918,1
9296000,-0.15714282,-0.14881037,-0.006428918,1
9300000,-0.1584362,-0.14972565,-0.006428918,1
9304000,-0.15971121,-0.15064286,-0.006428918,1
9308000,-0.16096586,-0.15155235,-0.006428918,1
9312000,-0.16219519,-0.15248093,-0.006428918,1
9316000,-0.16339435,-0.15346591,-0.006428918,1
9320000,-0.16459247,-0.1407736,-0.006428918,1
9324000,-0.16583243,-0.1418047,-0.006428918,1
9328000,-0.16706364,-0.14285898,-0.006428918,1
9332000,-0.16825202,-0.14393114,-0.006428918,1
9336000,-0.16943179,-0.14501195,-0.006428918,1
9340000,-0.17058812,-0.14613093,-0.006428918,1
9344000,-0.17173235,-0.13375448,-0.006428918,1
9352000,-0.17396735,-0.13617451,-0.006428918,1
9356000,-0.17509721,-0.13740183,-0.006428918,1
9360000,-0.17621207,-0.13861938,-0.006428918,1
9364000,-0.1773283,-0.13990672,-0.006428918,1
9368000,-0.1784212,-0.12779278,-0.006428918,1
9372000,-0.17947105,-0.12912911,-0.006428918,1
9376000,-0.18052988,-0.13047533,-0.006428918,1
9380000,-0.18162939,-0.13179608,-0.006428918,1
9384000,-0.1826864,-0.13311684,-0.006428918,1
9388000,-0.1837184,-0.13446526,-0.006428918,1
9392000,-0.18474522,-0.12251057,-0.006428918,1
9396000,-0.1857679,-0.123922095,-0.006428918,1
9400000,-0.18680993,-0.12539734,-0.006428918,1
9404000,-0.18785608,-0.12688299,-0.006428918,1
9408000,-0.18885696,-0.12836549,-0.006428918,1
9412000,-0.18983252,-0.12988895,-0.006428918,1
9416000,-0.19081207,-0.118195444,-0.006428918,1
9420000,-0.19174877,-0.11970618,-0.006428918,1
9424000,-0.19265278,-0.121282704,-0.006428918,1
9428000,-0.19359083,-0.1228475,-0.006428918,1
9432000,-0.19455685,-0.12441244,-0.006428918,1
9436000,-0.1955308,-0.1260218,-0.006428918,1
9440000,-0.19649042,-0.11447338,-0.006428918,1
9448000,-0.19835481,-0.117617294,-0.006428918,1
9452000,-0.1992717,-0.11913973,-0.006428918,1
9456000,-0.20018674,-0.12068046,-0.006428918,1
9460000,-0.20110536,-0.122311205,-0.006428918,1
9464000,-0.20199926,-0.110910274,-0.006428918,1
9468000,-0.20288382,-0.112556756,-0.006428918,1
9472000,-0.20375684,-0.11422498,-0.006428918,1
9480000,-0.20550863,-0.11750618,-0.006428918,1
9484000,-0.20641008,-0.1191073,-0.006428918,1
9488000,-0.20728934,-0.107750826,-0.006428918,1
9492000,-0.20815545,-0.10939006,-0.006428918,1
9496000,-0.2090029,-0.111062825,-0.006428918,1
9500000,-0.2098564,-0.112793535,-0.006428918,1
9504000,-0.2107035,-0.114505395,-0.006428918,1
9508000,-0.21154144,-0.11619154,-0.006428918,1
9512000,-0.2123539,-0.104952395,-0.006428918,1
9516000,-0.21315356,-0.106622756,-0.006428918,1
9520000,-0.21395494,-0.108282745,-0.006428918,1
9524000,-0.21475898,-0.10992749,-0.006428918,1
9528000,-0.21556515,-0.11159311,-0.006428918,1
9532000,-0.21636471,-0.11328315,-0.006428918,1
9536000,-0.2171473,-0.102095574,-0.006428918,1
9540000,-0.21789205,-0.10371965,-0.006428918,1
9544000,-0.21864107,-0.10528831,-0.006428918,1
9548000,-0.21939173,-0.10688312,-0.006428918,1
9552000,-0.22013667,-0.108515054,-0.006428918,1
9556000,-0.22089027,-0.110135265,-0.006428918,1
9560000,-0.22160128,-0.098911904,-0.006428918,1
9564000,-0.2222847,-0.10055204,-0.006428918,1
9568000,-0.22301789,-0.10219699,-0.006428918,1
9572000,-0.22373042,-0.103799246,-0.006428918,1
9576000,-0.22442362,-0.1053793,-0.006428918,1
9584000,-0.22586271,-0.095747955,-0.006428918,1
9588000,-0.22652219,-0.09731325,-0.006428918,1
9596000,-0.2278209,-0.10051537,-0.006428918,1
9600000,-0.22849125,-0.102153935,-0.006428918,1
9604000,-0.22913554,-0.10380835,-0.006428918,1
9608000,-0.22977217,-0.092691325,-0.006428918,1
9612000,-0.23039389,-0.094254665,-0.006428918,1
9616000,-0.23101997,-0.0957669,-0.006428918,1
9624000,-0.23220336,-0.09900474,-0.006428918,1
9632000,-0.23336917,-0.08940716,-0.006428918,1
9636000,-0.23394403,-0.09096743,-0.006428918,1
9640000,-0.2345016,-0.092517026,-0.006428918,1
9644000,-0.23504627,-0.0940495,-0.006428918,1
9648000,-0.23556584,-0.09560007,-0.006428918,1
9656000,-0.23660898,-0.085867226,-0.006428918,1
9664000,-0.23765032,-0.08886206,-0.006428918,1
9672000,-0.23863405,-0.09202279,-0.006428918,1
9676000,-0.23916478,-0.093499705,-0.006428918,1
9680000,-0.23965983,-0.08227299,-0.006428918,1
9684000,-0.2401288,-0.083805904,-0.006428918,1
9688000,-0.24062768,-0.08527574,-0.006428918,1
9696000,-0.24161434,-0.08818234,-0.006428918,1
9700000,-0.24207778,-0.08961242,-0.006428918,1
9704000,-0.2425143,-0.078291,-0.006428918,1
9708000,-0.2429311,-0.07975565,-0.006428918,1
9712000,-0.24336086,-0.08120499,-0.006428918,1
9720000,-0.24417716,-0.08397218,-0.006428918,1
9724000,-0.2446214,-0.08539032,-0.006428918,1
9728000,-0.245072,-0.07413015,-0.006428918,1
9732000,-0.24549387,-0.07555483,-0.006428918,1
9736000,-0.24592204,-0.07694146,-0.006428918,1
9740000,-0.24634084,-0.07837312,-0.006428918,1
9744000,-0.24673595,-0.079800755,-0.006428918,1
9748000,-0.24714728,-0.08118144,-0.006428918,1
9752000,-0.24754639,-0.06984273,-0.006428918,1
9756000,-0.24791788,-0.071305834,-0.006428918,1
9760000,-0.24830617,-0.072719365,-0.006428918,1
9764000,-0.2487059,-0.07409678,-0.006428918,1
9768000,-0.24909781,-0.07542828,-0.006428918,1
9772000,-0.24949025,-0.07673851,-0.006428918,1
9776000,-0.24987371,-0.06533248,-0.006428918,1
9780000,-0.2502757,-0.06675847,-0.006428918,1
9784000,-0.25070837,-0.06816866,-0.006428918,1
9788000,-0.25113207,-0.06952866,-0.006428918,1
9792000,-0.25154093,-0.07085683,-0.006428918,1
9796000,-0.2519092,-0.07218743,-0.006428918,1
9800000,-0.25225878,-0.060706355,-0.006428918,1
9804000,-0.25263095,-0.06206198,-0.006428918,1
9808000,-0.25300673,-0.063411415,-0.006428918,1
9812000,-0.25337523,-0.06467601,-0.006428918,1
9816000,-0.25371373,-0.06593535,-0.006428918,1
9820000,-0.2540368,-0.06721912,-0.006428918,1
9824000,-0.25437003,-0.05566312,-0.006428918,1
9828000,-0.25472453,-0.056903973,-0.006428918,1
9832000,-0.25507993,-0.058174103,-0.006428918,1
9836000,-0.25542462,-0.059518866,-0.006428918,1
9840000,-0.25575602,-0.060881913,-0.006428918,1
9848000,-0.25640213,-0.050678786,-0.006428918,1
9852000,-0.25674367,-0.05200076,-0.006428918,1
9856000,-0.2570666,-0.0533177,-0.006428918,1
9864000,-0.2576957,-0.05589211,-0.006428918,1
9868000,-0.25805742,-0.05714497,-0.006428918,1
9872000,-0.2583856,-0.045529354,-0.006428918,1
9876000,-0.2586876,-0.046844337,-0.006428918,1
9880000,-0.25897476,-0.048127595,-0.006428918,1
9884000,-0.2592763,-0.04937324,-0.006428918,1
9888000,-0.2595754,-0.050641105,-0.006428918,1
9892000,-0.25988823,-0.051914107,-0.006428918,1
9896000,-0.26020172,-0.04027979,-0.006428918,1
9904000,-0.26073468,-0.04284358,-0.006428918,1
9908000,-0.26107234,-0.04412094,-0.006428918,1
9912000,-0.26140323,-0.045388855,-0.006428918,1
9920000,-0.26202068,-0.03502194,-0.006428918,1
9928000,-0.26261544,-0.037577767,-0.006428918,1
9936000,-0.26324236,-0.040213343,-0.006428918,1
9940000,-0.26353258,-0.04150705,-0.006428918,1
9944000,-0.2638313,-0.029793696,-0.006428918,1
9948000,-0.26412588,-0.031058658,-0.006428918,1
9952000,-0.2644105,-0.03231016,-0.006428918,1
9956000,-0.26472443,-0.033571307,-0.006428918,1
9960000,-0.26505998,-0.034811098,-0.006428918,1
9964000,-0.26539734,-0.03604971,-0.006428918,1
9968000,-0.26569885,-0.024267148,-0.006428918,1
9972000,-0.26598296,-0.025529677,-0.006428918,1
9976000,-0.26628065,-0.026833829,-0.006428918,1
9980000,-0.26658937,-0.028152065,-0.006428918,1
9984000,-0.26690108,-0.02946312,-0.006428918,1
9988000,-0.26720944,-0.030714145,-0.006428918,1
9992000,-0.2675199,-0.018886775,-0.006428918,1
9996000,-0.26782677,-0.02018479,-0.006428918,1
10000000,-0.26812238,-0.021463567,-0.006428918,1
10004000,-0.26839674,-0.02274771,-0.006428918,1
10008000,-0.2686901,-0.024042787,-0.006428918,1
10012000,-0.26899365,-0.025311684,-0.006428918,1
10016000,-0.2692757,-0.013469538,-0.006428918,1
10020000,-0.26952904,-0.014741376,-0.006428918,1
10024000,-0.26979843,-0.016018417,-0.006428918,1
10028000,-0.270097,-0.01730571,-0.006428918,1
10032000,-0.2703981,-0.018568728,-0.006428918,1
10036000,-0.27068746,-0.019856747,-0.006428918,1
10040000,-0.270986,-0.00799132,-0.006428918,1
10044000,-0.27129263,-0.009281405,-0.006428918,1
10048000,-0.27158257,-0.010595134,-0.006428918,1
10056000,-0.27216822,-0.013230602,-0.006428918,1
10064000,-0.27273205,-0.002782689,-0.006428918,1
10068000,-0.27300304,-0.004172424,-0.006428918,1
10072000,-0.27324536,-0.005553849,-0.006428918,1
10080000,-0.27381513,-0.008260627,-0.006428918,1
10084000,-0.2741216,-0.009607324,-0.006428918,1
10088000,-0.2744172,0.002340323,-0.006428918,1
10096000,-0.274994,-0.000339252,-0.006428918,1
10104000,-0.2754679,-0.002996683,-0.006428918,1
10108000,-0.27570838,-0.004314885,-0.006428918,1
10116000,-0.27627212,0.006364596,-0.006428918,1
10120000,-0.2765279,0.004993415,-0.006428918,1
10128000,-0.27701885,0.002266734,-0.006428918,1
10136000,-0.27747688,0.01289067,-0.006428918,1
10140000,-0.27770856,0.011535212,-0.006428918,1
10144000,-0.27797982,0.01013175,-0.006428918,1
10148000,-0.27824146,0.008731791,-0.006428918,1
10152000,-0.27850246,0.007406099,-0.006428918,1
10160000,-0.27896124,0.018155036,-0.006428918,1
10168000,-0.27941245,0.015446546,-0.006428918,1
10172000,-0.2796711,0.014091563,-0.006428918,1
10176000,-0.2799207,0.012734638,-0.006428918,1
10180000,-0.28013846,0.011357224,-0.006428918,1
10184000,-0.28035915,0.023412364,-0.006428918,1
10188000,-0.2806086,0.022033852,-0.006428918,1
10192000,-0.280855,0.020681472,-0.006428918,1
10196000,-0.28109145,0.019314189,-0.006428918,1
10200000,-0.28135157,0.017988889,-0.006428918,1
10204000,-0.2815939,0.01662818,-0.006428918,1
10208000,-0.2818067,0.028762415,-0.006428918,1
10212000,-0.2820206,0.027413659,-0.006428918,1
10216000,-0.28226593,0.026074287,-0.006428918,1
10220000,-0.2825149,0.024713911,-0.006428918,1
10224000,-0.28272784,0.023345182,-0.006428918,1
10228000,-0.28290725,0.021956984,-0.006428918,1
10232000,-0.28311452,0.034100886,-0.006428918,1
10240000,-0.2835517,0.031335957,-0.006428918,1
10244000,-0.28378555,0.02994854,-0.006428918,1
10248000,-0.28401455,0.02861115,-0.006428918,1
10252000,-0.28424382,0.027264528,-0.006428918,1
10256000,-0.28446767,0.039523914,-0.006428918,1
10260000,-0.284689,0.038136654,-0.006428918,1
10264000,-0.2849203,0.036712784,-0.006428918,1
10268000,-0.28514457,0.035307866,-0.006428918,1
10272000,-0.28536987,0.03392011,-0.006428918,1
10276000,-0.2856078,0.032539383,-0.006428918,1
10280000,-0.2858063,0.04480899,-0.006428918,1
10288000,-0.28618425,0.042072285,-0.006428918,1
10296000,-0.28661928,0.039352953,-0.006428918,1
10300000,-0.28680488,0.037958402,-0.006428918,1
10304000,-0.28702024,0.050317023,-0.006428918,1
10308000,-0.2872623,0.048944067,-0.006428918,1
10312000,-0.2874475,0.047581617,-0.006428918,1
10320000,-0.2877671,0.0449279,-0.006428918,1
10324000,-0.2879384,0.043586407,-0.006428918,1
10328000,-0.28814426,0.055988103,-0.006428918,1
10336000,-0.28849387,0.05313591,-0.006428918,1
10344000,-0.2888375,0.050369523,-0.006428918,1
10348000,-0.2890114,0.04903376,-0.006428918,1
10352000,-0.28918988,0.06147311,-0.006428918,1
10356000,-0.2893739,0.06007935,-0.006428918,1
10360000,-0.28954926,0.05872758,-0.006428918,1
10364000,-0.2896876,0.057353355,-0.006428918,1
10368000,-0.28981635,0.055931814,-0.006428918,1
10372000,-0.2899801,0.05451812,-0.006428918,1
10376000,-0.2901476,0.06705316,-0.006428918,1
10384000,-0.29046184,0.06436462,-0.006428918,1
10388000,-0.29058588,0.06298026,-0.006428918,1
10392000,-0.2907037,0.061613947,-0.006428918,1
10396000,-0.2908321,0.06024215,-0.006428918,1
10400000,-0.29097757,0.072791554,-0.006428918,1
10404000,-0.29116377,0.07142332,-0.006428918,1
10408000,-0.29137865,0.070074484,-0.006428918,1
10412000,-0.29156417,0.0687343,-0.006428918,1
10416000,-0.2917406,0.06736459,-0.006428918,1
10420000,-0.29191953,0.065982275,-0.006428918,1
10424000,-0.29212552,0.07862147,-0.006428918,1
10432000,-0.29245815,0.07592879,-0.006428918,1
10436000,-0.29261082,0.07463701,-0.006428918,1
10440000,-0.29278937,0.07330588,-0.006428918,1
10444000,-0.29294452,0.071916625,-0.006428918,1
10448000,-0.29310727,0.08458138,-0.006428918,1
10452000,-0.29326683,0.08322046,-0.006428918,1
10456000,-0.29342535,0.08189193,-0.006428918,1
10460000,-0.29358193,0.0805512,-0.006428918,1
10464000,-0.29373443,0.079157986,-0.006428918,1
10468000,-0.29389435,0.07778876,-0.006428918,1
10472000,-0.29402584,0.090495944,-0.006428918,1
10476000,-0.29413733,0.08914184,-0.006428918,1
10480000,-0.29425395,0.087772645,-0.006428918,1
10488000,-0.29461172,0.0849658,-0.006428918,1
10492000,-0.294778,0.08356438,-0.006428918,1
10496000,-0.29492822,0.09629918,-0.006428918,1
10504000,-0.2952639,0.093587376,-0.006428918,1
10508000,-0.29542983,0.09223189,-0.006428918,1
10512000,-0.29558995,0.09085786,-0.006428918,1
10516000,-0.29575008,0.08950897,-0.006428918,1
10520000,-0.29592225,0.102300346,-0.006428918,1
10524000,-0.29610634,0.10091164,-0.006428918,1
10528000,-0.2962713,0.099543214,-0.006428918,1
10536000,-0.2966491,0.09675339,-0.006428918,1
10544000,-0.2969927,0.10823208,-0.006428918,1
10548000,-0.29717997,0.106839456,-0.006428918,1
10552000,-0.29735422,0.105447754,-0.006428918,1
10556000,-0.297483,0.10403184,-0.006428918,1
10560000,-0.29764315,0.10260385,-0.006428918,1
10564000,-0.29780844,0.10119121,-0.006428918,1
10568000,-0.29791272,0.11404735,-0.006428918,1
10572000,-0.29804832,0.112689495,-0.006428918,1
10576000,-0.29817736,0.11131683,-0.006428918,1
10580000,-0.29831898,0.109950714,-0.006428918,1
10584000,-0.29849598,0.10855781,-0.006428918,1
10588000,-0.2986459,0.107176766,-0.006428918,1
10592000,-0.29875943,0.12004377,-0.006428918,1
10596000,-0.29887548,0.11863281,-0.006428918,1
10600000,-0.29901463,0.117265046,-0.006428918,1
10608000,-0.29939735,0.11448145,-0.006428918,1
10612000,-0.29962558,0.11304805,-0.006428918,1
10616000,-0.2998689,0.12590311,-0.006428918,1
10620000,-0.30011103,0.12446171,-0.006428918,1
10624000,-0.3003512,0.12307244,-0.006428918,1
10628000,-0.30058786,0.12169861,-0.006428918,1
10632000,-0.30081454,0.1202679,-0.006428918,1
10640000,-0.30121627,0.13173145,-0.006428918,1
10644000,-0.30140895,0.13030015,-0.006428918,1
10648000,-0.30157498,0.12884004,-0.006428918,1
10652000,-0.30174574,0.12737516,-0.006428918,1
10656000,-0.30195865,0.1259037,-0.006428918,1
10660000,-0.30218643,0.124453284,-0.006428918,1
10664000,-0.30240688,0.13736632,-0.006428918,1
10672000,-0.3027533,0.13444582,-0.006428918,1
10676000,-0.30289954,0.13291708,-0.006428918,1
10680000,-0.30309555,0.13138537,-0.006428918,1
10684000,-0.30327445,0.1299761,-0.006428918,1
10688000,-0.30349174,0.14298289,-0.006428918,1
10692000,-0.3037348,0.14150818,-0.006428918,1
10696000,-0.30393884,0.14004959,-0.006428918,1
10700000,-0.3041388,0.13858739,-0.006428918,1
10704000,-0.30432457,0.13712506,-0.006428918,1
10708000,-0.3045055,0.13566567,-0.006428918,1
10712000,-0.3047,0.14860974,-0.006428918,1
10716000,-0.30489373,0.14713885,-0.006428918,1
10720000,-0.30506632,0.14568184,-0.006428918,1
10724000,-0.30520093,0.14422211,-0.006428918,1
10728000,-0.30530077,0.14276037,-0.006428918,1
10732000,-0.3053996,0.1413055,-0.006428918,1
10736000,-0.3055056,0.15425712,-0.006428918,1
10740000,-0.30564284,0.15273501,-0.006428918,1
10744000,-0.3058275,0.15124746,-0.006428918,1
10748000,-0.30599877,0.14972286,-0.006428918,1
10752000,-0.30614552,0.1481471,-0.006428918,1
10756000,-0.30631217,0.14659406,-0.006428918,1
10760000,-0.3064862,0.15956454,-0.006428918,1
10764000,-0.30661333,0.1580744,-0.006428918,1
10768000,-0.30672538,0.15657459,-0.006428918,1
10772000,-0.30686715,0.15501766,-0.006428918,1
10776000,-0.30701655,0.15349337,-0.006428918,1
10780000,-0.30714124,0.15196048,-0.006428918,1
10784000,-0.30727482,0.16489348,-0.006428918,1
10792000,-0.3076224,0.16186516,-0.006428918,1
10796000,-0.30777472,0.16034241,-0.006428918,1
10800000,-0.30790368,0.15878975,-0.006428918,1
10808000,-0.3081479,0.17026079,-0.006428918,1
10812000,-0.3082612,0.16868961,-0.006428918,1
10816000,-0.3084194,0.16713709,-0.006428918,1
10820000,-0.30854937,0.16562057,-0.006428918,1
10824000,-0.30866542,0.16404472,-0.006428918,1
10828000,-0.3088544,0.16248816,-0.006428918,1
10832000,-0.30904436,0.17549829,-0.006428918,1
10836000,-0.30920222,0.17393596,-0.006428918,1
10840000,-0.3093686,0.17239505,-0.006428918,1
10848000,-0.30970627,0.1693453,-0.006428918,1
10856000,-0.30998665,0.1665935,-0.006428918,1
10864000,-0.31024158,0.1635526,-0.006428918,1
10868000,-0.3104039,0.16201746,-0.006428918,1
10872000,-0.3105492,0.16052344,-0.006428918,1
10876000,-0.31070477,0.15902491,-0.006428918,1
10884000,-0.31104174,0.15594345,-0.006428918,1
10888000,-0.31117693,0.15436777,-0.006428918,1
10892000,-0.3113285,0.15285516,-0.006428918,1
10896000,-0.31145856,0.15137616,-0.006428918,1
10904000,-0.31168842,0.1483055,-0.006428918,1
10908000,-0.31179252,0.1468141,-0.006428918,1
10912000,-0.31186354,0.14535794,-0.006428918,1
10916000,-0.3119305,0.1438858,-0.006428918,1
10920000,-0.312006,0.14241627,-0.006428918,1
10924000,-0.31207362,0.14094105,-0.006428918,1
10928000,0.28365844,0.16057801,0.055832304,1
10932000,0.28343514,0.159147,0.056143645,1
10936000,0.28322923,0.15769829,0.056455374,1
10940000,0.28292477,0.15624443,0.056786157,1
10944000,0.28237042,0.15487231,0.057147443,1
10948000,0.28164572,0.15354884,0.057531446,1
10952000,0.28074056,0.15224771,0.05794549,1
10956000,0.2795985,0.15093033,0.058407776,1
10960000,0.27824768,0.14966042,0.05890152,1
10964000,0.27669463,0.14843161,0.059427198,1
10968000,0.274967,0.14718297,0.05999186,1
10972000,0.27307966,0.14601594,0.06057347,1
10976000,0.27100578,0.14488333,0.061186604,1
10984000,0.26642284,0.14266935,0.062495388,1
10992000,0.26144356,0.14062044,0.06386161,1
10996000,0.25866553,0.13975808,0.06498319,1
11000000,0.25592893,0.13880493,0.06571203,1
11004000,0.25309846,0.13788898,0.066455685,1
11008000,0.25019023,0.13698298,0.067216665,1
11012000,0.24719809,0.13608342,0.06799709,1
11016000,0.24406527,0.13524663,0.068796806,1
11020000,0.24085613,0.13445084,0.069607526,1
11024000,0.23756519,0.13368313,0.07043311,1
11028000,0.2342534,0.13292453,0.07126537,1
11032000,0.23087987,0.13221148,0.07210478,1
11036000,0.22741136,0.13153154,0.07296081,1
11040000,0.22391371,0.1308541,0.07382671,1
11048000,0.21678343,0.12957458,0.07558326,1
11052000,0.21316284,0.12889057,0.07648979,1
11056000,0.20950316,0.12823509,0.07740287,1
11060000,0.20583723,0.12764886,0.07830618,1
11064000,0.2021678,0.12705308,0.07921704,1
11068000,0.19847113,0.1264407,0.080142125,1
11072000,0.19476293,0.12589775,0.08105816,1
11076000,0.19104356,0.12540115,0.081970125,1
11080000,0.18729447,0.12489015,0.082896344,1
11084000,0.18354705,0.12438485,0.08382533,1
11088000,0.17982511,0.12391694,0.08474423,1
11092000,0.17607033,0.12347779,0.08566761,1
11096000,0.17228341,0.12311494,0.08664329,1
11104000,0.16475934,0.122375526,0.08848087,1
11108000,0.16099882,0.12198348,0.08941117,1
11112000,0.1572863,0.1216075,0.090330884,1
11116000,0.15354052,0.12123947,0.09126012,1
11120000,0.14979525,0.120861456,0.09219594,1
11124000,0.14607316,0.12054013,0.093116015,1
11128000,0.14234838,0.12021285,0.09404226,1
11132000,0.13861446,0.11988869,0.09497372,1
11136000,0.13486482,0.11962539,0.09589665,1
11140000,0.13112469,0.11934571,0.096825615,1
11144000,0.12738405,0.11902884,0.097768724,1
11148000,0.12363064,0.118681,0.09872727,1
11152000,0.11994816,0.118390605,0.09965795,1
11156000,0.11629845,0.118132725,0.100575946,1
11160000,0.11266049,0.11784579,0.101503,1
11164000,0.109073184,0.1176055,0.10240907,1
11168000,0.10548284,0.11735797,0.10332151,1
11172000,0.10188846,0.11710119,0.10424124,1
11176000,0.09830149,0.1169131,0.10514332,1
11180000,0.09468517,0.116754875,0.106047325,1
11184000,0.09108886,0.116578534,0.106955245,1
11188000,0.087524176,0.11636181,0.107870825,1
11192000,0.08396152,0.11610838,0.10880035,1
11196000,0.08026217,0.11604327,0.11024752,1
11200000,0.07677861,0.11581367,0.111161694,1
11204000,0.07330459,0.11557465,0.112079926,1
11208000,0.06984703,0.11535261,0.11299265,1
11212000,0.06638268,0.11517498,0.11389726,1
11216000,0.06292413,0.11500186,0.114802435,1
11220000,0.059491552,0.11479285,0.115715556,1
11224000,0.056072652,0.11453092,0.11664505,1
11228000,0.05268376,0.11427565,0.11756869,1
11232000,0.049283266,0.11408662,0.11847828,1
11240000,0.042574268,0.11369969,0.12028739,1
11244000,0.039280724,0.11351217,0.12117972,1
11248000,0.0359683,0.11333038,0.12207835,1
11252000,0.03266692,0.11313456,0.12298191,1
11256000,0.029426534,0.112972856,0.12386232,1
11260000,0.026229996,0.11279423,0.124740034,1
11264000,0.023035254,0.1126004,0.1256254,1
11268000,0.0198358,0.11245115,0.12650062,1
11272000,0.016651474,0.112290815,0.12737867,1
11276000,0.013483055,0.112141326,0.12825212,1
11280000,0.0103589,0.112003066,0.12911335,1
11284000,0.007255599,0.11186434,0.12997223,1
11288000,0.004136261,0.111708,0.13084412,1
11292000,0.001067586,0.111538544,0.13171011,1
11296000,-0.002124678,0.11161505,0.13306095,1
11300000,-0.005125351,0.11147227,0.1339082,1
11304000,-0.008103855,0.11130678,0.1347601,1
11308000,-0.011041693,0.111141264,0.13560395,1
11312000,-0.014007688,0.11100842,0.13644698,1
11316000,-0.016933989,0.11087732,0.13728148,1
11324000,-0.022684526,0.11058217,0.13894232,1
11328000,-0.02553469,0.11040564,0.13978003,1
11336000,-0.031208636,0.11010589,0.14143772,1
11340000,-0.034033768,0.109999925,0.14225179,1
11344000,-0.036816657,0.10988137,0.14306119,1
11352000,-0.042339627,0.10953426,0.14471495,1
11356000,-0.045043886,0.109365344,0.14552812,1
11360000,-0.04771462,0.10918575,0.14633837,1
11364000,-0.05038598,0.10903589,0.14714053,1
11368000,-0.053025957,0.10887255,0.14794125,1
11372000,-0.055657476,0.10868238,0.14875177,1
11376000,-0.058314495,0.108486824,0.14957395,1
11380000,-0.060945764,0.10826269,0.15040188,1
11384000,-0.06347785,0.10803604,0.15103531,1
11388000,-0.06574203,0.10757781,0.15114073,1
11392000,-0.06798758,0.10707068,0.15126827,1
11400000,-0.07261221,0.10623658,0.15169992,1
11404000,-0.07488072,0.105764255,0.15181877,1
11408000,-0.077120274,0.10530653,0.15193464,1
11412000,-0.07931806,0.10483667,0.15205865,1
11416000,-0.08145818,0.10434361,0.15219578,1
11424000,-0.08572729,0.10347694,0.15242705,1
11428000,-0.08789219,0.10304785,0.15254277,1
11432000,-0.089998975,0.10263849,0.15265366,1
11436000,-0.092111304,0.10219094,0.152782,1
11440000,-0.09421056,0.10171538,0.15292414,1
11444000,-0.09627333,0.10124999,0.15306489,1
11448000,-0.098326385,0.100747034,0.15322347,1
11452000,-0.10035971,0.10023737,0.15338731,1
11456000,-0.10238691,0.09977544,0.15353297,1
11464000,-0.106391326,0.09895541,0.15378648,1
11468000,-0.10834709,0.09855289,0.15391347,1
11472000,-0.11026784,0.098137006,0.15404849,1
11476000,-0.11219676,0.097734,0.15417935,1
11480000,-0.11411188,0.09731548,0.1543187,1
11484000,-0.11599481,0.09691227,0.15445362,1
11488000,-0.1178824,0.09652538,0.15458283,1
11496000,-0.12193599,0.09613079,0.15551353,1
11500000,-0.123806655,0.09575602,0.15564172,1
11504000,-0.12565891,0.095361724,0.15578026,1
11508000,-0.12751715,0.09497502,0.15591677,1
11512000,-0.12936258,0.0945915,0.15605347,1
11516000,-0.1312308,0.09422247,0.15618478,1
11520000,-0.13303396,0.09384447,0.15632252,1
11524000,-0.13479543,0.0934773,0.15645745,1
11528000,-0.13658626,0.093156904,0.1565722,1
11532000,-0.13839063,0.09283917,0.1566867,1
11536000,-0.14018814,0.092508055,0.15680853,1
11540000,-0.14192778,0.0921668,0.15693705,1
11544000,-0.14361176,0.09187227,0.15704626,1
11548000,-0.14529258,0.09160172,0.15714571,1
11552000,-0.14695856,0.0912987,0.1572611,1
11556000,-0.14859495,0.09102971,0.15736237,1
11560000,-0.15022776,0.09078334,0.15745418,1
11568000,-0.1534763,0.09027572,0.15764755,1
11572000,-0.15507936,0.08995969,0.15777464,1
11576000,-0.15665573,0.08967163,0.15789011,1
11584000,-0.15983438,0.089071244,0.1581349,1
11588000,-0.1614142,0.08879474,0.15824778,1
11592000,-0.16299169,0.08852965,0.15835623,1
11596000,-0.16475955,0.08843176,0.15884626,1
11600000,-0.16636571,0.08814302,0.15896733,1
11604000,-0.16793334,0.08786529,0.15908453,1
11608000,-0.16947389,0.08760958,0.15919243,1
11612000,-0.17101675,0.08735036,0.15930283,1
11616000,-0.17253122,0.08706157,0.1594284,1
11624000,-0.1755348,0.0865362,0.1596575,1
11628000,-0.17702773,0.086324416,0.15974888,1
11632000,-0.17851907,0.0861126,0.159841,1
11636000,-0.17999686,0.08589935,0.15993464,1
11640000,-0.1815019,0.085651845,0.1600454,1
11644000,-0.18298538,0.08540614,0.16015625,1
11648000,0.41151178,0.09205397,0.20322523,0.42101303
11652000,0.40992606,0.09209992,0.20374879,0.42101303
11656000,0.4083681,0.0921691,0.20425355,0.42101303
11660000,0.4066824,0.092278406,0.20478563,0.42101303
11668000,0.40258893,0.09273142,0.20599945,0.42101303
11672000,0.40140957,0.07973176,0.2143793,0.44439435
11676000,0.3989514,0.08004337,0.2151192,0.44439435
11680000,0.3963859,0.08036271,0.2158956,0.44439435
11688000,0.39089075,0.08117078,0.21750931,0.44439435
11692000,0.38797367,0.08161739,0.21836096,0.44439435
11696000,0.37765256,0.06933344,0.22770597,0.4666721
11704000,0.3714996,0.070314765,0.22956277,0.4666721
11712000,0.36504924,0.071483485,0.23145573,0.4666721
11720000,0.35702786,0.059583656,0.24140099,0.48813498
11724000,0.3536745,0.060178645,0.24243285,0.48813498
11728000,0.350275,0.060739756,0.24350052,0.48813498
11732000,0.34681365,0.061340116,0.2445772,0.48813498
11736000,0.34332374,0.062059805,0.24561322,0.48813498
11740000,0.33982152,0.06281683,0.24663933,0.48813498
11744000,0.3281282,0.050524436,0.25583833,0.5084434
11748000,0.32458034,0.05124128,0.25694174,0.5084434
11752000,0.32099837,0.05197099,0.25805566,0.5084434
11760000,0.31386763,0.05354768,0.2602234,0.5084434
11764000,0.31027597,0.054349095,0.26131564,0.5084434
11768000,0.30479592,0.04226403,0.2707473,0.5275436
11772000,0.30118474,0.043075502,0.27188462,0.5275436
11776000,0.2975958,0.043909088,0.27300477,0.5275436
11784000,0.29039398,0.045677714,0.27521467,0.5275436
11788000,0.28679964,0.046644717,0.27628094,0.5275436
11792000,0.27465105,0.03480088,0.28585532,0.54538465
11796000,0.26860958,0.03939625,0.2923481,0.54538465
11800000,0.2649743,0.040455066,0.29345673,0.54538465
11804000,0.26133418,0.041487254,0.29458228,0.54538465
11808000,0.25773174,0.04254614,0.29568052,0.54538465
11812000,0.25415352,0.043638475,0.29675388,0.54538465
11816000,0.24866974,0.03203105,0.30646914,0.5636948
11820000,0.24514666,0.033191837,0.30752426,0.5636948
11824000,0.24155948,0.034359254,0.3086074,0.5636948
11828000,0.23800161,0.035542823,0.30967098,0.5636948
11832000,0.23447989,0.036736317,0.31071478,0.5636948
11836000,0.23093471,0.037982844,0.3117451,0.5636948
11840000,0.22193801,0.026647225,0.32162857,0.5806266
11844000,0.21840748,0.02793844,0.32266927,0.5806266
11848000,0.21490666,0.029218853,0.3237027,0.5806266
11852000,0.21141458,0.030525982,0.3247201,0.5806266
11856000,0.20795032,0.031877145,0.3257038,0.5806266
11860000,0.20452195,0.033219546,0.32667583,0.5806266
11868000,0.18888313,0.023339212,0.33767596,0.59621894
11872000,0.1854993,0.024681106,0.3386653,0.59621894
11880000,0.17891453,0.027419358,0.34052995,0.59621894
11888000,0.17056723,0.017795295,0.35150743,0.6104667
11892000,0.16737063,0.019207135,0.3524068,0.6104667
11896000,0.16305265,0.022458479,0.35570213,0.6104667
11900000,0.15990594,0.023934707,0.35655496,0.6104667
11904000,0.15677404,0.025407717,0.3574025,0.6104667
11912000,0.14180362,0.015984356,0.36842948,0.6240962
11920000,0.13563532,0.018978149,0.37011915,0.6240962
11924000,0.13259351,0.02044776,0.3709566,0.6240962
11928000,0.12959255,0.021929175,0.37176716,0.6240962
11932000,0.12659399,0.023375794,0.37259495,0.6240962
11936000,0.12212124,0.01246798,0.3829424,0.636467
11940000,0.119211495,0.01392825,0.38374773,0.636467
11944000,0.1163176,0.015404329,0.38453674,0.636467
11952000,0.11068223,0.018303618,0.3860615,0.636467
11956000,0.1078887,0.01974766,0.38681436,0.636467
11960000,0.096488744,0.008948907,0.3972466,0.64761317
11964000,0.09375654,0.010432035,0.39797497,0.64761317
11968000,0.09104656,0.011895776,0.39870155,0.64761317
11972000,0.088312365,0.013367698,0.3994375,0.64761317
11976000,0.085655816,0.014757067,0.40017444,0.64761317
11980000,0.083044626,0.016132638,0.400894,0.64761317
11984000,0.075541854,0.005311295,0.41143987,0.6576134
11988000,0.07293008,0.006685719,0.41218844,0.6576134
11992000,0.07035897,0.008124039,0.41288024,0.6576134
11996000,0.06569865,0.013100505,0.41788816,0.6576134
12000000,0.0631381,0.014531449,0.41859287,0.6576134
12008000,0.053505257,0.005197838,0.42996925,0.66768837
12012000,0.051050887,0.006616414,0.4306463,0.66768837
12016000,0.04859434,0.008084446,0.4312985,0.66768837
12024000,0.043751284,0.010933623,0.43260878,0.66768837
12028000,0.041396394,0.012318134,0.4332466,0.66768837
12032000,0.03455977,0.001612306,0.44399244,0.67669237
12036000,0.03221476,0.003019646,0.44463724,0.67669237
12040000,0.02987741,0.004456416,0.4452618,0.67669237
12044000,0.027598262,0.005845085,0.4458776,0.67669237
12052000,0.023213014,0.008511975,0.44706553,0.67669237
12056000,0.012938827,-0.002234668,0.45791304,0.68470967
12060000,0.010785818,-0.000872657,0.45849082,0.68470967
12064000,0.008649185,0.000497311,0.45905438,0.68470967
12068000,0.006503344,0.001837373,0.45963994,0.68470967
12072000,0.004360393,0.003190309,0.46021676,0.68470967
12076000,0.002245262,0.004551768,0.46077204,0.68470967
12084000,-0.002031282,-0.004893988,0.4722792,0.6917945
12088000,-0.004063264,-0.003563806,0.4728223,0.6917945
12092000,-0.006076738,-0.00227727,0.4733777,0.6917945
12096000,-0.009203434,0.001039878,0.47615293,0.6917945
12100000,-0.011204407,0.002398446,0.47666723,0.6917945
12104000,-0.02096375,-0.004976615,0.48480898,0.6985557
12108000,-0.022892155,-0.003626749,0.4852974,0.6985557
12112000,-0.024789132,-0.00233911,0.4857998,0.6985557
12116000,-0.02669613,-0.001048669,0.48630714,0.6985557
12120000,-0.028588273,0.000246629,0.48680228,0.6985557
12124000,-0.030423127,0.001474008,0.48729828,0.6985557
12128000,-0.03989908,0.004730851,0.48599678,0.7044775
12136000,-0.043479294,0.007274389,0.48687655,0.7044775
12140000,-0.045215905,0.008520037,0.48729676,0.7044775
12144000,-0.046936564,0.009757549,0.48771113,0.7044775
12148000,-0.0486975,0.010967225,0.4881667,0.7044775
12152000,-0.04991526,0.013900682,0.48704612,0.70960104
12156000,-0.05164794,0.015119359,0.48747605,0.70960104
12160000,-0.0533695,0.01636365,0.48788452,0.70960104
12164000,-0.055024818,0.017599314,0.48825544,0.70960104
12168000,-0.05669506,0.018834054,0.48863637,0.70960104
12172000,-0.05836629,0.020062163,0.4890215,0.70960104
12176000,-0.06742831,0.02279611,0.48800415,0.7140378
12184000,-0.07069246,0.02523379,0.48872995,0.7140378
12192000,-0.07379995,0.027656317,0.48936343,0.7140378
12196000,-0.076258756,0.030400828,0.49146295,0.7140378
12204000,-0.08269967,0.033968627,0.49100697,0.7182383
12208000,-0.08420545,0.03513661,0.49131894,0.7182383
12212000,-0.08577524,0.036356285,0.49164295,0.7182383
12216000,-0.087346315,0.037544698,0.49198532,0.7182383
12224000,-0.097705856,0.040983915,0.49159646,0.7218376
12228000,-0.09917313,0.04208669,0.49191874,0.7218376
12232000,-0.10063238,0.043136105,0.4922659,0.7218376
12240000,-0.10353685,0.045336545,0.49289382,0.7218376
12244000,-0.10498266,0.04646246,0.49318904,0.7218376
12248000,-0.105448276,0.04856217,0.492565,0.72488904
12252000,-0.10684306,0.049657315,0.49284336,0.72488904
12256000,-0.108222485,0.050748304,0.4931141,0.72488904
12260000,-0.10964328,0.051849335,0.49340585,0.72488904
12264000,-0.11110098,0.052956626,0.49371788,0.72488904
12268000,-0.112536214,0.05406548,0.4940145,0.72488904
12272000,-0.12146804,0.056042403,0.49345925,0.72748244
12276000,-0.12283981,0.05714917,0.49371475,0.72748244
12280000,-0.124226764,0.058247894,0.49398458,0.72748244
12288000,-0.1270162,0.06052804,0.49448687,0.72748244
12292000,-0.12839814,0.06167513,0.49472547,0.72748244
12296000,-0.13828185,0.0651741,0.49595708,0.72963923
12304000,-0.14092684,0.067293614,0.496462,0.72963923
12312000,-0.14361472,0.06938976,0.49700826,0.72963923
12320000,-0.14964493,0.07148671,0.49652395,0.73175436
12324000,-0.15068375,0.072102144,0.49629927,0.73175436
12328000,-0.15172817,0.07268919,0.49609393,0.73175436
12332000,-0.15278225,0.0732609,0.49590003,0.73175436
12336000,-0.1538545,0.07386573,0.49568623,0.73175436
12344000,-0.15887262,0.074110806,0.49328673,0.7334503
12348000,-0.15985666,0.07466687,0.493087,0.7334503
12352000,-0.16085525,0.07524054,0.492877,0.7334503
12356000,-0.16186467,0.07583979,0.4926507,0.7334503
12360000,-0.16286281,0.07643986,0.4924208,0.7334503
12364000,-0.16388571,0.077001646,0.49222112,0.7334503
12368000,-0.16809586,0.07642625,0.48997292,0.7347697
12376000,-0.1701131,0.07758264,0.4895407,0.7347697
12384000,-0.1721054,0.078712925,0.48911905,0.7347697
12388000,-0.17306253,0.07930873,0.48887837,0.7347697
12392000,-0.18095729,0.07680522,0.48484224,0.73578656
12396000,-0.18228547,0.07803686,0.48531732,0.73578656
12400000,-0.18321703,0.078589335,0.48509967,0.73578656
12404000,-0.18412252,0.07911201,0.48489755,0.73578656
12408000,-0.1850506,0.079640046,0.48469517,0.73578656
12412000,-0.18597142,0.08015427,0.4845004,0.73578656
12416000,-0.1941351,0.07742204,0.48041666,0.73665667
12420000,-0.19506636,0.07800087,0.4801762,0.73665667
12424000,-0.19595791,0.078543335,0.47995353,0.73665667
12428000,-0.1968385,0.07903592,0.47976398,0.73665667
12432000,-0.19774193,0.07954,0.4795698,0.73665667
12436000,-0.19861057,0.080045685,0.47936738,0.73665667
12440000,-0.1995282,0.080813974,0.47885716,0.737221
12444000,-0.20043316,0.08133134,0.4786515,0.737221
12448000,-0.20133553,0.08182719,0.47846025,0.737221
12456000,-0.20305102,0.08290386,0.47799772,0.737221
12464000,-0.21246664,0.080356315,0.47361088,0.7375393
12468000,-0.21328136,0.0808555,0.4733976,0.7375393
12472000,-0.21410435,0.08135913,0.47318193,0.7375393
12476000,-0.21493351,0.081850916,0.47297546,0.7375393
12480000,-0.21573418,0.08234167,0.47276393,0.7375393
12484000,-0.21649897,0.08282709,0.47254905,0.7375393
12488000,-0.22535941,0.07962085,0.46830153,0.7375964
12492000,-0.2261539,0.08009294,0.4681005,0.7375964
12496000,-0.22708622,0.08094092,0.4682657,0.7375964
12504000,-0.22859722,0.08191793,0.46782207,0.7375964
12508000,-0.2293252,0.08240047,0.46759862,0.7375964
12512000,-0.2345391,0.080849305,0.46513683,0.7375264
12515999,-0.23523332,0.08129743,0.46493146,0.7375264
12520000,-0.23595439,0.08178353,0.46470225,0.7375264
12524000,-0.2366409,0.08220385,0.46451533,0.7375264
12527999,-0.23731616,0.08258009,0.46435887,0.7375264
12536000,-0.24726045,0.079481244,0.45986408,0.73723125
12540000,-0.24792278,0.0799437,0.4596388,0.73723125
12544000,-0.24857007,0.080396414,0.45941746,0.73723125
12547999,-0.24918403,0.08079068,0.45923376,0.73723125
12552000,-0.24978152,0.081189245,0.45904323,0.73723125
12556000,-0.25037193,0.08162707,0.4588213,0.73723125
12559999,-0.25996822,0.07798676,0.45442444,0.73675215
12568000,-0.26113433,0.07878594,0.45403296,0.73675215
12572000,-0.26170295,0.07919213,0.45382884,0.73675215
12576000,-0.2622924,0.079639345,0.45359677,0.73675215
12579999,-0.26285717,0.080061585,0.4533788,0.73675215
12584000,-0.26431245,0.080135554,0.45265675,0.73611635
12588000,-0.26484388,0.08052339,0.45245802,0.73611635
12591999,-0.26536673,0.080884576,0.45227784,0.73611635
12600000,-0.26702043,0.08289166,0.45304155,0.73611635
12608000,-0.27749494,0.07927911,0.44843858,0.73558134
12611999,-0.27799588,0.07963976,0.44825274,0.73558134
12616000,-0.2784801,0.07999247,0.44806963,0.73558134
12620000,-0.27893993,0.08031976,0.44790155,0.73558134
12623999,-0.279398,0.08065729,0.44772476,0.73558134
12628000,-0.27989653,0.08100101,0.44755057,0.73558134
12632000,-0.29017,0.076863974,0.44311324,0.7349193
12636000,-0.29056978,0.07718538,0.4429369,0.7349193
12640000,-0.29095197,0.07751845,0.44274786,0.7349193
12643999,-0.2913871,0.077821225,0.44259235,0.7349193
12652000,-0.29226094,0.0783803,0.44231784,0.7349193
12655999,-0.30278462,0.07409556,0.43789777,0.73411125
12660000,-0.3031672,0.0743373,0.43777934,0.73411125
12668000,-0.30387285,0.074837536,0.43751752,0.73411125
12672000,-0.3042277,0.07507029,0.43740055,0.73411125
12675999,-0.3045705,0.07531901,0.43726844,0.73411125
12680000,-0.31100205,0.07291399,0.43454057,0.7331755
12684000,-0.31136137,0.073189974,0.43438938,0.7331755
12687999,-0.31169885,0.073459476,0.43423897,0.7331755
12692000,-0.31201467,0.07371563,0.43409503,0.7331755
12696000,-0.31268656,0.07472631,0.43468085,0.7331755
12700000,-0.31297782,0.074971244,0.43454093,0.7331755
12704000,-0.3240757,0.07045442,0.42996657,0.73228
12707999,-0.32436052,0.070712194,0.42981443,0.73228
12712000,-0.32462057,0.07089342,0.4297188,0.73228
12716000,-0.3248698,0.07111141,0.42959145,0.73228
12719999,-0.32511637,0.07134485,0.42945117,0.73228
12724000,-0.32536352,0.07153596,0.42934477,0.73228
12728000,-0.33673683,0.06688286,0.42473674,0.73128647
12732000,-0.33695546,0.067073,0.42462522,0.73128647
12736000,-0.33717424,0.0672774,0.42450204,0.73128647
12739999,-0.3373713,0.067492574,0.42436594,0.73128647
12744000,-0.33749425,0.067652136,0.4242605,0.73128647
12748000,-0.33762828,0.0678135,0.4241556,0.73128647
12751999,-0.3492826,0.06306909,0.41947526,0.7301411
12756000,-0.34937567,0.06324126,0.41935313,0.7301411
12760000,-0.3494921,0.06341107,0.41923735,0.7301411
12764000,-0.34959456,0.0635646,0.4191321,0.7301411
12768000,-0.34968626,0.06369488,0.41904366,0.7301411
12771999,-0.34978163,0.06385535,0.4189313,0.7301411
12776000,-0.3568714,0.061059073,0.41606957,0.7288766
12780000,-0.3569466,0.061226264,0.41594738,0.7288766
12783999,-0.3570235,0.061402604,0.41581798,0.7288766
12792000,-0.35713905,0.06170547,0.4155925,0.7288766
12796000,-0.35717613,0.061854184,0.4154485,0.7288766
12800000,-0.36940613,0.05685717,0.4107113,0.72750664
12803999,-0.36941946,0.05697915,0.4106133,0.72750664
12808000,-0.36945257,0.05708866,0.41052952,0.72750664
12812000,-0.3694994,0.05723229,0.41042042,0.72750664
12815999,-0.36948884,0.057403192,0.41027737,0.72750664
12820000,-0.3694529,0.057536528,0.41016036,0.72750664
12824000,-0.37661406,0.054709435,0.4073348,0.7260623
12828000,-0.37652603,0.054843545,0.40720648,0.7260623
12832000,-0.37642246,0.054965466,0.40708518,0.7260623
12835999,-0.37634048,0.055057004,0.4069933,0.7260623
12840000,-0.37622005,0.055171475,0.4068749,0.7260623
12844000,-0.37607765,0.055279493,0.40675747,0.7260623
12847999,-0.38885182,0.05013734,0.40187585,0.7245001
12852000,-0.3886979,0.05024688,0.4017542,0.7245001
12856000,-0.38855612,0.05037111,0.4016227,0.7245001
12860000,-0.3884551,0.050483406,0.40150928,0.7245001
12864000,-0.38834628,0.050597414,0.40139294,0.7245001
12872000,-0.40119112,0.045564264,0.39635128,0.72290087
12876000,-0.40098834,0.04563065,0.39625525,0.72290087
12879999,-0.4007944,0.04568398,0.39617196,0.72290087
12884000,-0.40060642,0.04575157,0.39607793,0.72290087
12888000,-0.40042096,0.045797825,0.3960023,0.72290087
12892000,-0.40021336,0.045807704,0.39595267,0.72290087
12896000,-0.40856773,0.043491676,0.39375925,0.7211802
12899999,-0.40832126,0.04356131,0.3936517,0.7211802
12904000,-0.4080635,0.043632373,0.39354068,0.7211802
12908000,-0.40781927,0.043723553,0.39341563,0.7211802
12911999,-0.4075786,0.043797433,0.39330578,0.7211802
12916000,-0.4073133,0.043830782,0.39322507,0.7211802
12920000,-0.42092803,0.038500383,0.38816965,0.71968603
12924000,-0.42062134,0.03856498,0.38805366,0.71968603
12928000,-0.42033756,0.03860821,0.3879602,0.71968603
12931999,-0.42003396,0.038673848,0.38784415,0.71968603
12936000,-0.4196685,0.038741678,0.38771385,0.71968603
12940000,-0.41929814,0.038777918,0.38760915,0.71968603
12943999,-0.43322247,0.033379257,0.38252506,0.7180763
12948000,-0.43287253,0.033415362,0.38242376,0.7180763
12956000,-0.43216038,0.03353578,0.38217843,0.7180763
12960000,-0.43180054,0.03360036,0.3820514,0.7180763
12963999,-0.43146724,0.033686846,0.3819114,0.7180763
12972000,-0.4454005,0.028313473,0.37657622,0.7164268
12976000,-0.44492728,0.028374061,0.37642884,0.7164268
12984000,-0.44403407,0.028467879,0.37616858,0.7164268
12988000,-0.44357938,0.028508827,0.376042,0.7164268
12992000,-0.46449125,0.020752996,0.3687149,0.71465987
12995999,-0.46415842,0.021049172,0.36890522,0.71465987
13000000,-0.46370992,0.021049365,0.36881334,0.71465987
13008000,-0.46274936,0.021127224,0.36855087,0.71465987
13012000,-0.46221265,0.021181956,0.3683949,0.71465987
13015999,-0.4773684,0.015600175,0.36308676,0.7129897
13020000,-0.47680393,0.015630215,0.36294508,0.7129897
13024000,-0.47622648,0.015680924,0.3627833,0.7129897
13027999,-0.47562614,0.015719175,0.36262763,0.7129897
13032000,-0.4750084,0.015715718,0.362504,0.7129897
13036000,-0.474402,0.015705705,0.36238843,0.7129897
13040000,-0.4835102,0.012310162,0.35908675,0.71121264
13044000,-0.48289466,0.012318403,0.35895333,0.71121264
13048000,-0.48227242,0.012326732,0.35881853,0.71121264
13052000,-0.48163295,0.012332886,0.35868227,0.71121264
13056000,-0.48095834,0.012336522,0.35854113,0.71121264
13064000,-0.49598747,0.006705433,0.35296297,0.70941985
13068000,-0.49531066,0.006700859,0.3528275,0.70941985
13072000,-0.49459603,0.006715432,0.3526681,0.70941985
13076000,-0.49384046,0.006696969,0.3525286,0.70941985
13084000,-0.49231136,0.006692231,0.35221928,0.70941985
13088000,-0.5082668,0.001009524,0.34676528,0.7075171
13091999,-0.50747585,0.000991002,0.34661788,0.7075171
13100000,-0.50589603,0.001175389,0.34646696,0.7075171
13104000,-0.50506634,0.001159325,0.34631023,0.7075171
13108000,-0.50420713,0.001126826,0.34616166,0.7075171
13111999,-0.5205222,-0.004537225,0.34055698,0.7056505
13116000,-0.5196482,-0.004557088,0.34039354,0.7056505
13120000,-0.5187751,-0.004619613,0.34026688,0.7056505
13123999,-0.517897,-0.004682347,0.34013945,0.7056505
13128000,-0.5169951,-0.004733741,0.33999768,0.7056505
13132000,-0.5160682,-0.004774794,0.33984226,0.7056505
13136000,-0.5327501,-0.010533407,0.3342499,0.70370567
13140000,-0.53183526,-0.010614991,0.33413035,0.70370567
13148000,-0.5299315,-0.010754705,0.3338564,0.70370567
13152000,-0.5289627,-0.010792375,0.33368888,0.70370567
13155999,-0.52798045,-0.010823116,0.33351308,0.70370567
13160000,-0.54499006,-0.016510904,0.32777756,0.70172
13164000,-0.5440058,-0.016529247,0.32758966,0.70172
13168000,-0.54301697,-0.016627938,0.32746935,0.70172
13172000,-0.5419783,-0.01672493,0.3273375,0.70172
13175999,-0.5409155,-0.01677154,0.32715824,0.70172
13180000,-0.5398712,-0.016821235,0.32698572,0.70172
13184000,-0.55716324,-0.022581369,0.32127088,0.699644
13187999,-0.55605763,-0.022630632,0.32108414,0.699644
13192000,-0.55492723,-0.022695094,0.32090548,0.699644
13196000,-0.553995,-0.022337303,0.32114568,0.699644
13200000,-0.5528406,-0.022391304,0.32095397,0.699644
13204000,-0.55168235,-0.022457272,0.32077196,0.699644
13207999,-0.57679594,-0.030513614,0.31274468,0.69771767
13216000,-0.5744205,-0.030626357,0.31234863,0.69771767
13219999,-0.57324284,-0.0307322,0.31219512,0.69771767
13224000,-0.57202554,-0.030859739,0.31205195,0.69771767
13228000,-0.5707608,-0.03096971,0.3118844,0.69771767
13232000,-0.5886167,-0.03674364,0.30606163,0.6957106
13236000,-0.5873765,-0.03680812,0.30585957,0.6957106
13239999,-0.586119,-0.036881953,0.30566216,0.6957106
13244000,-0.5848224,-0.03697723,0.30547518,0.6957106
13248000,-0.5834994,-0.037065938,0.3052775,0.6957106
13251999,-0.5821552,-0.037143037,0.30506617,0.6957106
13256000,-0.6002339,-0.042900607,0.2991879,0.69365644
13260000,-0.59889615,-0.043001056,0.29899633,0.69365644
13264000,-0.59758085,-0.043121368,0.29882646,0.69365644
13268000,-0.5962224,-0.043258086,0.2986617,0.69365644
13271999,-0.5948096,-0.043392643,0.2984842,0.69365644
13276000,-0.59334415,-0.04350786,0.29828006,0.69365644
13280000,-0.61157095,-0.049247317,0.29239687,0.69152695
13284000,-0.6101347,-0.04933667,0.29217595,0.69152695
13288000,-0.6086901,-0.049437076,0.2919629,0.69152695
13292000,-0.60722816,-0.049544543,0.29175258,0.69152695
13296000,-0.6058615,-0.04933738,0.29186833,0.69152695
13304000,-0.62269074,-0.055189677,0.28573012,0.6895477
13308000,-0.6211388,-0.055289626,0.28549492,0.6895477
13312000,-0.61952233,-0.05539187,0.28524888,0.6895477
13320000,-0.61632985,-0.05559431,0.28476495,0.6895477
13324000,-0.61469984,-0.05572612,0.28454208,0.6895477
13328000,-0.6415503,-0.063618444,0.2761623,0.68748784
13332000,-0.63989943,-0.06371027,0.2759003,0.68748784
13336000,-0.63820624,-0.063817784,0.27564317,0.68748784
13340000,-0.6365123,-0.06393604,0.27539527,0.68748784
13344000,-0.6348101,-0.0640368,0.27513188,0.68748784
13348000,-0.6331186,-0.06415601,0.2748863,0.68748784
13352000,-0.65177584,-0.06977081,0.26893085,0.6853642
13356000,-0.65005195,-0.069872014,0.26866287,0.6853642
13360000,-0.6483146,-0.06996142,0.2683831,0.6853642
13368000,-0.64473754,-0.070313685,0.26794624,0.6853642
13372000,-0.64294386,-0.07045584,0.26769963,0.6853642
13376000,-0.66154927,-0.07595258,0.2616877,0.68319273
13384000,-0.6578529,-0.0762079,0.26114756,0.68319273
13392000,-0.654107,-0.076427944,0.26057112,0.68319273
13396000,-0.65220517,-0.07657047,0.26028734,0.68319273
13400000,-0.6797331,-0.084216274,0.25174856,0.68095845
13404000,-0.67777723,-0.08429541,0.25141808,0.68095845
13408000,-0.6758099,-0.08437355,0.25108534,0.68095845
13412000,-0.6738374,-0.08449803,0.2507897,0.68095845
13416000,-0.67185235,-0.08466358,0.25052518,0.68095845
13420000,-0.6698687,-0.0847908,0.25023076,0.68095845
13424000,-0.68850774,-0.09008702,0.24416871,0.6786622
