timestamp,control[0],control[1],control[2],control[3],control[4]
8000000,0.032622553,0.037613362,-0.004780792,0.15,0.1900002
8004000,0.032526392,0.0376879,-0.004793313,0.15,0.1800002
8008000,0.032208286,0.03789871,-0.004878395,0.15,0.1700002
8012000,0.031582773,0.03812276,-0.004916949,0.15,0.16000019
8016000,0.030811273,0.0383619,-0.004832387,0.15,0.15000018
8020000,0.030869301,0.038453978,-0.004721878,0.15,0.14000018
8024000,0.031349737,0.03840838,-0.004512948,0.15,0.13000017
8028000,0.031752534,0.038566105,-0.004412372,0.15,0.120000176
8032000,0.032603,0.038645703,-0.004466618,0.15,0.11000018
8036000,0.033673644,0.038380712,-0.004548567,0.15,0.10000018
8044000,0.033229712,0.037979428,-0.004525317,0.15,0.080000184
8048000,0.033237386,0.037983973,-0.004524925,0.15,0.07000019
8052000,0.03262683,0.038025204,-0.004398983,0.15,0.06000019
8056000,0.032305103,0.03773886,-0.004456202,0.15,0.05000019
8060000,0.03233392,0.037463352,-0.004492184,0.15,0.040000193
8064000,0.032503437,0.037518475,-0.004468308,0.15,0.030000193
8068000,0.031925045,0.037668753,-0.004673159,0.15,0.020000193
8072000,0.030667616,0.037488014,-0.004960327,0.15,0.010000194
8076000,0.029852545,0.03738886,-0.004990915,0.15,1.94E-07
8080000,0.029998148,0.037719063,-0.004804401,0.15,0
8084000,0.030562095,0.03802703,-0.004708776,0.15,0
8088000,0.03068811,0.038000144,-0.00479385,0.15,0
8092000,0.030570222,0.037889052,-0.004806799,0.15,0
8096000,0.030706188,0.037903544,-0.004827307,0.15,0
8100000,0.030838588,0.037948407,-0.004878972,0.15,0
8104000,0.03162898,0.037974443,-0.004966322,0.15,0
8108000,0.03263837,0.038074125,-0.004967455,0.15,0
8112000,0.03266155,0.03802491,-0.004821205,0.15,0
8116000,0.031793404,0.03769445,-0.00463737,0.15,0
8120000,0.03086957,0.03732781,-0.004572293,0.15,0
8124000,0.029839642,0.03701779,-0.004729261,0.15,0
8128000,0.028822495,0.036819763,-0.004947145,0.15,0
8132000,0.029402379,0.036921073,-0.004939943,0.15,0
8136000,0.03116031,0.037280373,-0.0047981,0.15,0
8140000,0.032174345,0.03760744,-0.004750392,0.15,0
8148000,0.03142097,0.0377599,-0.004668476,0.15,0
8152000,0.03051979,0.037535347,-0.00455553,0.15,0
8156000,0.029845405,0.037276883,-0.004565208,0.15,0
8160000,0.030221358,0.03721335,-0.004745914,0.15,0
8164000,0.03132191,0.037255973,-0.004934998,0.15,0
8168000,0.031298183,0.037258916,-0.004935801,0.15,0
8172000,0.031537317,0.03735398,-0.004939534,0.15,0
8176000,0.030943893,0.03745195,-0.004480783,0.15,0
8180000,0.031253967,0.037441514,-0.004353025,0.15,0
8184000,0.031270962,0.037229966,-0.00437137,0.15,0
8188000,0.031905778,0.0369602,-0.004171781,0.15,0
8192000,0.03342174,0.03691515,-0.00406972,0.15,0
8196000,0.03382721,0.03697616,-0.004120159,0.15,0
8200000,0.03339154,0.03684001,-0.004189432,0.15,0
8204000,0.033195518,0.036723945,-0.004366951,0.15,0
8208000,0.032839067,0.036863737,-0.004732882,0.15,0
8212000,0.025086574,0.03696602,-0.002713921,0,0
8216000,0.025310706,0.037070893,-0.002185558,0,0
8220000,0.025324559,0.0370792,-0.00215218,0,0
8224000,0.025537984,0.037338633,-0.001712663,0,0
8228000,0.024997134,0.03720246,-0.001836384,0,0
8236000,0.023247503,0.03674228,0.000803701,1,0
8240000,0.024037145,0.03678004,0.001072738,1,0
8244000,0.024876297,0.036945604,0.000484026,1,0
8248000,0.0250026,0.03686521,9.89E-05,1,0
8252000,0.025001502,0.036828954,0.000171458,1,0
8256000,0.024954623,0.036571637,8.07E-05,1,0
8260000,0.025777644,0.03678207,0.000302152,1,0
8264000,0.025555603,0.037158962,0.000418065,1,0
8268000,0.024289612,0.03740719,0.000839998,1,0
8272000,0.022989843,0.037249308,0.001544185,1,0
8276000,0.02159604,0.03672122,0.002245772,1,0
8280000,0.021235151,0.036144506,0.002550253,1,0
8284000,0.021837648,0.035721567,0.002259986,1,0
8288000,0.021604989,0.035531696,0.001913106,1,0
8292000,0.021035882,0.03562498,0.001889445,1,0
8300000,0.023155238,0.036087476,0.002795292,1,0
8304000,0.024635362,0.036037114,0.002975145,1,0
8308000,0.025242774,0.03578557,0.002385515,1,0
8316000,0.024623202,0.036052432,0.001113743,1,0
8320000,0.024361735,0.0362061,0.001132103,1,0
8324000,0.024286075,0.03601679,0.001306766,1,0
8328000,0.0241893,0.03589481,0.00105285,1,0
8332000,0.024393227,0.035968773,0.000697554,1,0
8336000,0.024676003,0.0361387,0.001347624,1,0
8340000,0.024675256,0.036145784,0.001439004,1,0
8344000,0.024312714,0.036408365,0.0020176,1,0
8348000,0.024466023,0.03648472,0.00142448,1,0
8352000,0.02457167,0.036567435,0.001629779,1,0
8356000,0.023994895,0.036444653,0.002251863,1,0
8360000,0.023210684,0.036327932,0.003076661,1,0
8364000,0.022435552,0.036228072,0.004164154,1,0
8368000,0.02205525,0.036018297,0.00476365,1,0
8372000,0.022313338,0.03575854,0.004882819,1,0
8376000,0.022497421,0.035599306,0.004573585,1,0
8380000,0.022710757,0.03560397,0.004287433,1,0
8384000,0.023227917,0.035642345,0.004830525,1,0
8388000,0.023390954,0.03564106,0.005030909,1,0
8392000,0.023005519,0.03566837,0.004875045,1,0
8396000,0.022857811,0.03584898,0.005621972,1,0
8400000,0.023367332,0.036047395,0.006290325,1,0
8404000,0.023905339,0.035949927,0.006245774,1,0
8412000,0.023438675,0.035703633,0.005491511,1,0
8416000,0.023123952,0.035890814,0.004588527,1,0
8420000,0.023667363,0.036220957,0.004719748,1,0
8424000,0.024340978,0.036325745,0.004746572,1,0
8432000,0.0237709,0.036136072,0.003185327,1,0
8440000,0.023454467,0.03607662,0.004805783,1,0
8444000,0.023155535,0.036025688,0.005195359,1,0
8448000,0.02254071,0.03578187,0.004268152,1,0
8452000,0.021465193,0.03558443,0.004374161,1,0
8456000,0.020657197,0.035639208,0.004579466,1,0
8460000,0.021093467,0.035707615,0.004575598,1,0
8464000,0.022124942,0.035662603,0.004465066,1,0
8472000,0.02199451,0.035599872,0.00500172,1,0
8476000,0.021514513,0.035614025,0.005706491,1,0
8480000,0.022143457,0.03582373,0.005097034,1,0
8488000,0.02252421,0.035843696,0.004127539,1,0
8492000,0.02333774,0.035736986,0.0036895,1,0
8496000,0.02400187,0.0354546,0.003516634,1,0
8500000,0.023655746,0.03501698,0.003778004,1,0
8504000,0.023320884,0.03474873,0.00350482,1,0
8508000,0.02359356,0.03469993,0.003543091,1,0
8512000,0.023827292,0.034762263,0.003770504,1,0
8516000,0.023697771,0.03487742,0.003844699,1,0
8520000,0.023466919,0.035062015,0.003575554,1,0
8524000,0.023037212,0.035359386,0.003621027,1,0
8528000,0.022311276,0.035539452,0.003661396,1,0
8532000,0.021605525,0.035476387,0.00415355,1,0
8540000,0.021923227,0.03535141,0.004031515,1,0
8544000,0.022467444,0.035348937,0.003503388,1,0
8548000,0.022666745,0.035519183,0.00318054,1,0
8552000,0.022632029,0.035516948,0.003025238,1,0
8556000,0.022104226,0.035640877,0.002644369,1,0
8560000,0.022034079,0.035368882,0.00239379,1,0
8564000,0.022725493,0.03506101,0.002704056,1,0
8568000,0.02262073,0.034891095,0.002957757,1,0
8572000,0.02242816,0.03510314,0.003275406,1,0
8576000,0.02259651,0.035458636,0.003379649,1,0
8580000,0.022599235,0.03555303,0.003306258,1,0
8584000,0.022492273,0.03556999,0.003062269,1,0
8588000,0.022568295,0.03560906,0.00305079,1,0
8596000,0.018998215,0.03111959,0.002719616,1,0
8600000,0.019422371,0.031015826,0.002844994,1,0
8604000,0.01985146,0.031092664,0.003173918,1,0
8608000,0.02007469,0.031259775,0.003317596,1,0
8612000,0.019805025,0.031241987,0.003589301,1,0
8616000,0.019469658,0.030988486,0.003909597,1,0
8620000,0.019867288,0.030705024,0.004407261,1,0
8624000,0.020624705,0.030648112,0.004551495,1,0
8628000,0.020853909,0.030781992,0.004461225,1,0
8632000,0.020821024,0.030901108,0.004263991,1,0
8636000,0.020788552,0.030981839,0.004422797,1,0
8640000,0.020689247,0.031139394,0.004635014,1,0
8644000,0.020513179,0.0313587,0.004866939,1,0
8648000,0.020345764,0.031490337,0.004858498,1,0
8652000,0.020195078,0.03154211,0.004822577,1,0
8656000,0.019867072,0.031458452,0.004625769,1,0
8660000,0.019254422,0.031195736,0.004592283,1,0
8668000,0.018632028,0.031129781,0.00475894,1,0
8672000,0.019418335,0.031257365,0.004703756,1,0
8676000,0.019832958,0.03133589,0.004447471,1,0
8680000,0.019723853,0.03127638,0.004079431,1,0
8684000,0.01982057,0.031092677,0.003994059,1,0
8688000,0.020606874,0.030968603,0.003973848,1,0
8692000,0.014247122,0.023204135,0.004082438,1,0
8696000,0.014392545,0.023253702,0.004019068,1,0
8700000,0.014219982,0.02329996,0.003886136,1,0
8704000,0.014090455,0.023398556,0.003623176,1,0
8708000,0.014338071,0.02341044,0.003340617,1,0
8712000,0.014697058,0.023378212,0.002997099,1,0
8716000,0.014752516,0.023418874,0.002745869,1,0
8720000,0.014589268,0.023420049,0.002622908,1,0
8724000,0.014329935,0.023420928,0.002591941,1,0
8728000,0.013901153,0.023496753,0.002417445,1,0
8732000,0.01351659,0.023500348,0.002266553,1,0
8736000,0.013406153,0.02343793,0.002069665,1,0
8740000,0.013422972,-0.28609526,0.001759911,1,0
8748000,0.014068571,-0.28653762,0.00093167,1,0
8756000,0.013307365,-0.28662497,-0.00057513,1,0
8760000,0.012112435,-0.28658554,-0.001749037,1,0
8768000,0.009514752,-0.27396053,-0.004631278,1,0
8772000,0.008112252,-0.2736437,-0.006520971,1,0
8780000,0.006566135,-0.2733199,-0.009005073,1,0
8784000,0.002647767,-0.27290925,-0.011438148,1,0
8788000,0.000507791,-0.26096147,-0.013359233,1,0
8792000,-0.000226836,-0.22683059,-0.015046795,1,0
8796000,-0.001447568,-0.2264977,-0.016934766,1,0
8800000,-0.002819386,-0.22625169,-0.01838869,1,0
8804000,-0.00425614,-0.22622229,-0.019917995,1,0
8808000,-0.005839304,-0.22627808,-0.021190628,1,0
8812000,-0.007193266,-0.21665679,-0.022763306,1,0
8816000,-0.008121781,-0.21646512,-0.024046706,1,0
8820000,-0.00934976,-0.21633276,-0.025708634,1,0
8824000,-0.011137313,-0.21629441,-0.026969904,1,0
8828000,-0.012895293,-0.21629572,-0.028620046,1,0
8836000,-0.014927829,-0.20732242,-0.031102853,1,0
8840000,-0.01790705,-0.20764762,-0.03255868,1,0
8844000,-0.01870662,-0.20757315,-0.033929903,1,0
8848000,-0.01961316,-0.20736657,-0.03478525,1,0
8852000,-0.020953475,-0.20718403,-0.03609927,1,0
8860000,-0.024385354,-0.19848509,-0.038340967,1,0
8864000,-0.025860278,-0.19853751,-0.03922517,1,0
8868000,-0.026228828,-0.1985485,-0.040425498,1,0
8872000,-0.029558983,-0.19888453,-0.040921062,1,0
8876000,-0.031380903,-0.19908404,-0.041961633,1,0
8880000,-0.033007603,-0.19932121,-0.042560697,1,0
8884000,-0.0343805,-0.19119537,-0.043577332,1,0
8888000,-0.03583616,-0.1913341,-0.04395359,1,0
8892000,-0.031393837,-0.17355163,-0.044575855,1,0
8896000,-0.03323399,-0.17359127,-0.04462064,1,0
8900000,-0.03475832,-0.17369005,-0.04510969,1,0
8904000,-0.035943836,-0.1738506,-0.045121387,1,0
8908000,-0.037040755,-0.16679278,-0.045565873,1,0
8916000,-0.03964627,-0.16719621,-0.045865208,1,0
8920000,-0.041100156,-0.16740131,-0.045648023,1,0
8924000,-0.041584,-0.16751814,-0.04628368,1,0
8928000,-0.0435538,-0.16797984,-0.045192875,1,0
8932000,-0.044966195,-0.16131476,-0.045224465,1,0
8936000,-0.04649174,-0.16160712,-0.044868164,1,0
8940000,-0.047722604,-0.16178252,-0.044839285,1,0
8944000,-0.048919372,-0.16186756,-0.044352222,1,0
8948000,-0.05014044,-0.16191162,-0.044120856,1,0
8952000,-0.051167224,-0.1619592,-0.0434726,1,0
8956000,-0.05212737,-0.15529795,-0.043159716,1,0
8960000,-0.053212155,-0.15548608,-0.0424126,1,0
8964000,-0.05438309,-0.15560454,-0.041878,1,0
8968000,-0.05557645,-0.155676,-0.04107629,1,0
8972000,-0.056672476,-0.15577084,-0.04074274,1,0
8976000,-0.057515595,-0.15592764,-0.04004801,1,0
8980000,-0.05823808,-0.1495222,-0.039426893,1,0
8984000,-0.0589099,-0.14962089,-0.0383381,1,0
8988000,-0.059575427,-0.14962675,-0.03748256,1,0
8992000,-0.05250022,-0.13846007,-0.0363916,1,0
8996000,-0.053157974,-0.13848762,-0.035538062,1,0
9000000,-0.05377654,-0.1385904,-0.034418315,1,0
9004000,-0.0546479,-0.1328348,-0.033446934,1,0
9008000,-0.055519134,-0.13294527,-0.032239124,1,0
9012000,-0.056131616,-0.13307281,-0.031118149,1,0
9016000,-0.056686558,-0.13323812,-0.02972868,1,0
9020000,-0.05730516,-0.13343269,-0.028549755,1,0
9024000,-0.057858516,-0.13359128,-0.027242739,1,0
9028000,-0.0584089,-0.1279676,-0.026556453,1,0
9036000,-0.060570434,-0.12799579,-0.0238658,1,0
9040000,-0.0614382,-0.1280397,-0.022489605,1,0
9044000,-0.06186376,-0.12808295,-0.021224137,1,0
9048000,-0.062426306,-0.12816839,-0.020232396,1,0
9052000,-0.0627552,-0.12253651,-0.018399449,1,0
9060000,-0.06396617,-0.12259529,-0.015766116,1,0
9064000,-0.06420092,-0.12260466,-0.014553584,1,0
9068000,-0.064281344,-0.12262209,-0.013438552,1,0
9072000,-0.06457957,-0.12267122,-0.012211979,1,0
9076000,-0.06511327,-0.117217824,-0.010925213,1,0
9080000,-0.06559253,-0.11718305,-0.009565368,1,0
9084000,-0.0658547,-0.11710412,-0.008257953,1,0
9088000,-0.066069975,-0.116992876,-0.006947824,1,0
9092000,-0.06268496,-0.1131697,-0.005679093,1,0
9100000,-0.063529104,-0.108013175,-0.003356583,1,0
9108000,-0.064160444,-0.10801487,-0.000673775,1,0
9116000,-0.064989045,-0.10789966,0.001992107,1,0
9120000,-0.06526749,-0.10793776,0.003259706,1,0
9124000,-0.06550038,-0.10301809,0.004488838,1,0
9128000,-0.06566729,-0.10314105,0.005589269,1,0
9132000,-0.065769285,-0.103192605,0.00665616,1,0
9136000,-0.065795116,-0.103189476,0.007682662,1,0
9140000,-0.06572088,-0.1032035,0.008820718,1,0
9144000,-0.06567336,-0.103253566,0.009978393,1,0
9148000,-0.066162914,-0.09833953,0.011105204,1,0
9152000,-0.066593595,-0.09843759,0.012287874,1,0
9156000,-0.0670268,-0.098501265,0.013365649,1,0
9160000,-0.06718366,-0.098557554,0.014216838,1,0
9164000,-0.06719126,-0.09863228,0.015051651,1,0
9172000,-0.067046806,-0.09408579,0.016674865,1,0
9176000,-0.066994585,-0.094240464,0.017612098,1,0
9180000,-0.06714967,-0.094370864,0.018595774,1,0
9184000,-0.067426205,-0.09446599,0.019446332,1,0
9188000,-0.06771537,-0.09460351,0.02031722,1,0
9192000,-0.06793371,-0.09481328,0.020975342,1,0
9196000,-0.06789547,-0.09026269,0.02170056,1,0
9200000,-0.06776708,-0.09047423,0.022413313,1,0
9204000,-0.06797751,-0.09063092,0.023188733,1,0
9208000,-0.06847687,-0.090725064,0.023757823,1,0
9212000,-0.0688575,-0.090851486,0.024313208,1,0
9220000,-0.06915556,-0.086569555,0.025357265,1,0
9224000,-0.06939518,-0.08689054,0.026005939,1,0
9228000,-0.0698062,-0.0872464,0.026610166,1,0
9232000,-0.07007446,-0.08756924,0.026989738,1,0
9236000,-0.070038326,-0.08787591,0.02744042,1,0
9240000,-0.06989891,-0.08801784,0.02754471,1,0
9244000,-0.069621876,-0.08322855,0.027136507,1,0
9248000,-0.069147356,-0.083038434,0.026410822,1,0
9252000,-0.06890108,-0.08295412,0.025955075,1,0
9256000,-0.06919557,-0.082963035,0.025648734,1,0
9260000,-0.0698423,-0.08307699,0.025512606,1,0
9264000,-0.07047127,-0.083204806,0.025340583,1,0
9268000,-0.07080965,-0.07870321,0.02527788,1,0
9272000,-0.07096206,-0.07876837,0.025135502,1,0
9276000,-0.07106843,-0.078792855,0.024891566,1,0
9280000,-0.07116145,-0.07881373,0.024411146,1,0
9284000,-0.071345285,-0.07894034,0.02394795,1,0
9288000,-0.07169929,-0.07902267,0.023869678,1,0
9296000,-0.07169248,-0.07502656,0.022223791,1,0
9300000,-0.071726024,-0.07518846,0.021696126,1,0
9304000,-0.07201344,-0.07529102,0.02105541,1,0
9308000,-0.072371334,-0.07535898,0.020809341,1,0
9312000,-0.073188394,-0.07543666,0.019538535,1,0
9316000,-0.073509865,-0.07110977,0.018771304,1,0
9324000,-0.07376305,-0.071644895,0.017662289,1,0
9328000,-0.07395748,-0.07200116,0.01699711,1,0
9332000,-0.07418226,-0.0723162,0.016293367,1,0
9336000,-0.07433258,-0.07259153,0.015560331,1,0
9340000,-0.0743913,-0.068416186,0.014893904,1,0
9344000,-0.074488685,-0.06870654,0.014195671,1,0
9348000,-0.074706376,-0.069029905,0.013456579,1,0
9352000,-0.075032175,-0.06941776,0.012683955,1,0
9356000,-0.0753902,-0.06989099,0.011985459,1,0
9360000,-0.07566221,-0.07040729,0.011335555,1,0
9364000,-0.0757089,-0.06647869,0.01074087,1,0
9368000,-0.07565041,-0.06689031,0.010055389,1,0
9376000,-0.07593502,-0.067852646,0.008791873,1,0
9380000,-0.076264925,-0.068441235,0.008325716,1,0
9384000,-0.07648275,-0.06905042,0.007747928,1,0
9388000,-0.076412655,-0.06533369,0.007077124,1,0
9392000,-0.07648453,-0.0660297,0.006444097,1,0
9396000,-0.07679602,-0.06668085,0.005921792,1,0
9400000,-0.07701855,-0.0672734,0.005464827,1,0
9404000,-0.07730878,-0.06786056,0.005065552,1,0
9408000,-0.0776787,-0.06848125,0.004673678,1,0
9412000,-0.07773497,-0.06479399,0.004218162,1,0
9416000,-0.0775133,-0.06548387,0.003667537,1,0
9420000,-0.07749279,-0.06624174,0.003073431,1,0
9424000,-0.077797845,-0.06705401,0.002542176,1,0
9428000,-0.0781007,-0.067885116,0.002112949,1,0
9436000,-0.07829367,-0.065103844,0.001390064,1,0
9440000,-0.078339346,-0.06568838,0.001089256,1,0
9444000,-0.07838033,-0.06635466,0.000744816,1,0
9448000,-0.07829923,-0.06716315,0.000406491,1,0
9452000,-0.07820729,-0.06797112,0.000115248,1,0
9460000,-0.07837474,-0.06517288,-0.00052097,1,0
9468000,-0.078401156,-0.06662296,-0.001309367,1,0
9472000,-0.078253865,-0.06734768,-0.001572083,1,0
9476000,-0.07802932,-0.06808663,-0.00182629,1,0
9480000,-0.07797931,-0.06877008,-0.00208308,1,0
9484000,-0.07818136,-0.065144196,-0.002274013,1,0
9488000,-0.07833225,-0.065849334,-0.00243661,1,0
9492000,-0.07824346,-0.06667995,-0.002654363,1,0
9496000,-0.07816084,-0.067557566,-0.002887729,1,0
9504000,-0.078635864,-0.068975195,-0.003255501,1,0
9508000,-0.078613415,-0.06542532,-0.003435243,1,0
9512000,-0.07856676,-0.06610669,-0.003641883,1,0
9516000,-0.07870937,-0.06672527,-0.003840247,1,0
9520000,-0.0788564,-0.06734565,-0.003998342,1,0
9524000,-0.07884323,-0.06796732,-0.004139683,1,0
9528000,-0.078625165,-0.06858083,-0.004282518,1,0
9532000,-0.07828024,-0.06500237,-0.004387614,1,0
9536000,-0.07806047,-0.065691195,-0.004425754,1,0
9540000,-0.07800321,-0.06632326,-0.004444611,1,0
9544000,-0.0779638,-0.06685789,-0.004455259,1,0
9548000,-0.07812102,-0.06741477,-0.004470867,1,0
9552000,-0.078510344,-0.06810676,-0.004502473,1,0
9556000,-0.07878159,-0.064572714,-0.004576125,1,0
9560000,-0.07887678,-0.06516723,-0.004644104,1,0
9564000,-0.07890212,-0.06574801,-0.004717435,1,0
9572000,-0.07900659,-0.06697385,-0.004825222,1,0
9576000,-0.07872143,-0.06745083,-0.004707307,1,0
9580000,-0.07863987,-0.06386598,-0.004752451,1,0
9584000,-0.078582875,-0.06447544,-0.004715697,1,0
9588000,-0.07871272,-0.06498876,-0.004639165,1,0
9592000,-0.07890454,-0.065411195,-0.004549503,1,0
9596000,-0.07904705,-0.06579539,-0.004506588,1,0
9600000,-0.07911018,-0.06626535,-0.004475978,1,0
9604000,-0.079212636,-0.06264598,-0.004381535,1,0
9608000,-0.07954016,-0.06327545,-0.004281159,1,0
9612000,-0.07993449,-0.063831754,-0.004331363,1,0
9616000,-0.0801542,-0.0642973,-0.004507951,1,0
9620000,-0.08006847,-0.06472469,-0.004612485,1,0
9624000,-0.07972877,-0.06514186,-0.004575662,1,0
9628000,-0.07947268,-0.06140135,-0.004546114,1,0
9636000,-0.07953064,-0.062348865,-0.004603411,1,0
9640000,-0.07951382,-0.06269394,-0.004564773,1,0
9644000,-0.07933963,-0.06306005,-0.004481293,1,0
9648000,-0.07918413,-0.06346563,-0.004454323,1,0
9652000,-0.07924367,-0.059659857,-0.004514258,1,0
9656000,-0.079476394,-0.060086463,-0.004599058,1,0
9660000,-0.07968369,-0.060608756,-0.004654199,1,0
9664000,-0.0797468,-0.061191842,-0.004656587,1,0
9668000,-0.07990363,-0.06168592,-0.004674931,1,0
9672000,-0.079573296,-0.062180705,-0.004646,1,0
9676000,-0.07973638,-0.058451753,-0.004654653,1,0
9680000,-0.0798156,-0.058771614,-0.004615484,1,0
9684000,-0.07972401,-0.059151836,-0.004666016,1,0
9688000,-0.079686835,-0.05951893,-0.004768848,1,0
9692000,-0.080001175,-0.059863687,-0.004888422,1,0
9696000,-0.080292754,-0.06022393,-0.005049915,1,0
9700000,-0.080264,-0.05644983,-0.005179401,1,0
9704000,-0.08001253,-0.056894388,-0.005227585,1,0
9708000,-0.07978826,-0.05727712,-0.005304013,1,0
9712000,-0.07970384,-0.057645835,-0.005424158,1,0
9716000,-0.079757445,-0.05803786,-0.005574448,1,0
9720000,-0.07991257,-0.05845266,-0.005717251,1,0
9724000,-0.07987223,-0.05466076,-0.005799898,1,0
9728000,-0.079660915,-0.05507007,-0.005851426,1,0
9732000,-0.07980245,-0.055472955,-0.00599279,1,0
9736000,-0.080261305,-0.055865135,-0.006203859,1,0
9740000,-0.08063093,-0.05627238,-0.006439775,1,0
9748000,-0.080552705,-0.052917384,-0.006923008,1,0
9752000,-0.08043233,-0.053323537,-0.007171987,1,0
9756000,-0.08057273,-0.053740133,-0.007324649,1,0
9760000,-0.08059316,-0.054214217,-0.007657005,1,0
9764000,-0.080643065,-0.05464846,-0.007895059,1,0
9768000,-0.08059713,-0.055028506,-0.008100148,1,0
9772000,-0.08073054,-0.051204193,-0.008272505,1,0
9776000,-0.08051682,-0.051489923,-0.008539496,1,0
9780000,-0.080562964,-0.051850077,-0.008836906,1,0
9784000,-0.08083751,-0.052220806,-0.009187629,1,0
9788000,-0.081186056,-0.052600116,-0.009599213,1,0
9796000,-0.081123106,-0.049195364,-0.01032878,1,0
9800000,-0.08095945,-0.049657,-0.01053701,1,0
9804000,-0.08101145,-0.050149478,-0.010743996,1,0
9808000,-0.0811984,-0.050635062,-0.01104301,1,0
9812000,-0.08139111,-0.051040087,-0.011435136,1,0
9816000,-0.08155032,-0.05138475,-0.011856544,1,0
9820000,-0.08168563,-0.047536585,-0.012236372,1,0
9828000,-0.08146272,-0.048431657,-0.012991466,1,0
9832000,-0.08132169,-0.048882872,-0.013288945,1,0
9836000,-0.0814393,-0.049296543,-0.013535533,1,0
9840000,-0.08158358,-0.04969871,-0.013852472,1,0
9844000,-0.08148582,-0.04587307,-0.01432358,1,0
9848000,-0.081313394,-0.04631393,-0.014867513,1,0
9852000,-0.08140901,-0.0467675,-0.015376603,1,0
9856000,-0.08174342,-0.047191896,-0.015802307,1,0
9860000,-0.082057156,-0.047612444,-0.016164284,1,0
9864000,-0.082278594,-0.04806433,-0.016548038,1,0
9868000,-0.082411855,-0.044223737,-0.016925767,1,0
9876000,-0.08267141,-0.045204822,-0.017869523,1,0
9880000,-0.0826911,-0.045683153,-0.01831689,1,0
9884000,-0.082604684,-0.04623387,-0.018859655,1,0
9888000,-0.08249487,-0.04681998,-0.019478973,1,0
9892000,-0.0824105,-0.0431184,-0.020062119,1,0
9896000,-0.08226437,-0.043621115,-0.020431643,1,0
9900000,-0.082204685,-0.04405384,-0.020645166,1,0
9904000,-0.082466125,-0.044444405,-0.020952761,1,0
9908000,-0.08290516,-0.0448504,-0.021417923,1,0
9912000,-0.08322898,-0.04525444,-0.02193221,1,0
9916000,-0.08336863,-0.04140023,-0.022436008,1,0
9920000,-0.08337594,-0.04187074,-0.022932235,1,0
9924000,-0.08322697,-0.042320732,-0.023386396,1,0
9928000,-0.082870334,-0.0427734,-0.023732398,1,0
9932000,-0.082575366,-0.043220215,-0.024054848,1,0
9936000,-0.08274046,-0.04364411,-0.024516303,1,0
9940000,-0.08311967,-0.039813302,-0.025056995,1,0
9944000,-0.083315104,-0.04034365,-0.025592824,1,0
9948000,-0.08336857,-0.040894277,-0.026122054,1,0
9952000,-0.083287165,-0.041416287,-0.026588742,1,0
9956000,-0.08318506,-0.04192972,-0.026958764,1,0
9960000,-0.083071664,-0.042405277,-0.027343819,1,0
9964000,-0.08296986,-0.03855821,-0.027809912,1,0
9968000,-0.08316574,-0.039068423,-0.028303597,1,0
9972000,-0.08352974,-0.039613716,-0.028804705,1,0
9976000,-0.08381358,-0.040070824,-0.029280877,1,0
9980000,-0.08393084,-0.040435083,-0.029665906,1,0
9988000,-0.08394528,-0.036982767,-0.030415159,1,0
9992000,-0.08363185,-0.037462726,-0.030694896,1,0
9996000,-0.08387463,-0.037956577,-0.03113104,1,0
10000000,-0.08423451,-0.038445037,-0.031562828,1,0
10004000,-0.084400296,-0.038946398,-0.031958204,1,0
10008000,-0.08435934,-0.03949604,-0.03239101,1,0
10012000,-0.084429026,-0.03570275,-0.032824107,1,0
10016000,-0.08466275,-0.036165513,-0.03322106,1,0
10020000,-0.08485488,-0.036604386,-0.033576593,1,0
10028000,-0.08480832,-0.037485976,-0.03430477,1,0
10032000,-0.08451157,-0.03801081,-0.03473128,1,0
10036000,-0.084183596,-0.03417919,-0.03512357,1,0
10040000,-0.084148616,-0.034637913,-0.035461552,1,0
10044000,-0.08425652,-0.0351144,-0.03584846,1,0
10048000,-0.08453941,-0.035578087,-0.036124192,1,0
10052000,-0.0843261,-0.036093257,-0.036487155,1,0
10056000,-0.08408408,-0.036656037,-0.036848746,1,0
10060000,-0.08409234,-0.03283839,-0.037201922,1,0
10064000,-0.08427788,-0.033317424,-0.037511,1,0
10068000,-0.08454634,-0.03377994,-0.037832916,1,0
10076000,-0.08489818,-0.03461852,-0.038673315,1,0
10080000,-0.08496119,-0.035068356,-0.039050315,1,0
10084000,-0.08499138,-0.031198278,-0.03934654,1,0
10088000,-0.08504991,-0.03175997,-0.039652184,1,0
10092000,-0.08512619,-0.032317948,-0.03995452,1,0
10096000,-0.085207865,-0.03281212,-0.040229127,1,0
10100000,-0.08536993,-0.033258863,-0.04045507,1,0
10104000,-0.08541042,-0.033719555,-0.04070644,1,0
10108000,-0.08514624,-0.029813787,-0.04099353,1,0
10116000,-0.08497831,-0.030665796,-0.041710034,1,0
10120000,-0.08518757,-0.031116787,-0.0420518,1,0
10124000,-0.085284606,-0.0316168,-0.04226453,1,0
10128000,-0.08536349,-0.03209898,-0.042450637,1,0
10132000,-0.085626915,-0.028173275,-0.042716216,1,0
10136000,-0.08572873,-0.028643463,-0.043043893,1,0
10140000,-0.085503,-0.029065669,-0.043325737,1,0
10144000,-0.085128985,-0.029456925,-0.043581516,1,0
10148000,-0.084887005,-0.029870477,-0.04378809,1,0
10152000,-0.08505419,-0.030344442,-0.044028316,1,0
10156000,-0.08529103,-0.02649955,-0.044233993,1,0
10164000,-0.08565854,-0.027604124,-0.044567734,1,0
10168000,-0.08565965,-0.028059244,-0.044844624,1,0
10172000,-0.08553824,-0.02845989,-0.045210823,1,0
10180000,-0.085628085,-0.024945619,-0.045901783,1,0
10184000,-0.08579091,-0.025406055,-0.045991838,1,0
10188000,-0.0857536,-0.025856681,-0.04594945,1,0
10192000,-0.08550824,-0.02636415,-0.045926567,1,0
10196000,-0.08543026,-0.026896734,-0.045878597,1,0
10200000,-0.08562507,-0.027338613,-0.045877606,1,0
10204000,-0.08580047,-0.023264429,-0.04594963,1,0
10208000,-0.08585728,-0.02368661,-0.04607998,1,0
10212000,-0.085743524,-0.024177695,-0.046125375,1,0
10216000,-0.08548945,-0.024663756,-0.046128225,1,0
10220000,-0.08532095,-0.025135227,-0.046102945,1,0
10224000,-0.08536139,-0.0256068,-0.046140067,1,0
10228000,-0.08571491,-0.021616148,-0.04620839,1,0
10232000,-0.08619095,-0.022061914,-0.046233274,1,0
10236000,-0.08640158,-0.022480106,-0.046163924,1,0
10240000,-0.086280175,-0.022930998,-0.04616341,1,0
10244000,-0.08607077,-0.023429783,-0.046188533,1,0
10248000,-0.086070366,-0.023879614,-0.046216734,1,0
10252000,-0.086238086,-0.0198091,-0.04621119,1,0
10256000,-0.0861262,-0.020238815,-0.046211798,1,0
10260000,-0.08619402,-0.020672912,-0.046215665,1,0
10264000,-0.08574239,-0.021020662,-0.046179984,1,0
10268000,-0.08579616,-0.021506162,-0.046154294,1,0
10272000,-0.08586998,-0.021997133,-0.04610099,1,0
10276000,-0.085954234,-0.017974911,-0.046048597,1,0
10280000,-0.085995,-0.01840729,-0.04608957,1,0
10284000,-0.08602751,-0.018825073,-0.046134975,1,0
10288000,-0.08606148,-0.019301675,-0.046177946,1,0
10292000,-0.086115375,-0.019802341,-0.046208173,1,0
10296000,-0.08607085,-0.020269481,-0.046291493,1,0
10300000,-0.0858381,-0.01620254,-0.046335146,1,0
10304000,-0.08559883,-0.01664123,-0.046350617,1,0
10308000,-0.0856503,-0.017105293,-0.04634259,1,0
10316000,-0.0865019,-0.018156486,-0.046501964,1,0
10320000,-0.08659694,-0.01862111,-0.046629965,1,0
10324000,-0.08660936,-0.014518132,-0.046684418,1,0
10328000,-0.08669395,-0.014894516,-0.046701036,1,0
10332000,-0.08676374,-0.015337275,-0.046704985,1,0
10336000,-0.08677919,-0.015708156,-0.046730824,1,0
10340000,-0.086781204,-0.016139664,-0.046722118,1,0
10344000,-0.0868629,-0.016559372,-0.0467122,1,0
10348000,-0.087015845,-0.012491047,-0.046733715,1,0
10352000,-0.08710722,-0.012967937,-0.046808016,1,0
10356000,-0.087106325,-0.013445646,-0.046856124,1,0
10360000,-0.087268695,-0.01392616,-0.04690977,1,0
10364000,-0.087487966,-0.014347013,-0.046926986,1,0
10368000,-0.08746157,-0.014744268,-0.046992727,1,0
10372000,-0.087377585,-0.010644961,-0.047062255,1,0
10376000,-0.087355845,-0.011131007,-0.04716351,1,0
10380000,-0.08717939,-0.011631549,-0.04718347,1,0
10388000,-0.08712362,-0.012612518,-0.047132526,1,0
10392000,-0.08704909,-0.013028661,-0.047162488,1,0
10396000,-0.086814485,-0.008841217,-0.047245108,1,0
10400000,-0.086692885,-0.009236155,-0.047385223,1,0
10404000,-0.08675428,-0.00967096,-0.047389295,1,0
10408000,-0.08701948,-0.010083044,-0.047467344,1,0
10412000,-0.08731061,-0.010539884,-0.047498994,1,0
10416000,-0.0872466,-0.011011629,-0.047567952,1,0
10420000,-0.086999446,-0.006913258,-0.047561064,1,0
10424000,-0.08693468,-0.007340755,-0.047537647,1,0
10428000,-0.087115444,-0.007734483,-0.047515325,1,0
10432000,-0.087480456,-0.00817269,-0.04754284,1,0
10436000,-0.08793768,-0.00866627,-0.047510713,1,0
10440000,-0.08833346,-0.009201589,-0.047539577,1,0
10444000,-0.08861294,-0.005139191,-0.047603995,1,0
10448000,-0.08877642,-0.005586289,-0.04769949,1,0
10452000,-0.08884558,-0.005956482,-0.04777346,1,0
10456000,-0.08880758,-0.006370864,-0.04787749,1,0
10460000,-0.08865853,-0.006869443,-0.04794534,1,0
10468000,-0.088225424,-0.003208719,-0.04792947,1,0
10472000,-0.08805077,-0.00368586,-0.04788744,1,0
10476000,-0.08785686,-0.004187375,-0.04787191,1,0
10480000,-0.08790069,-0.004697284,-0.047961533,1,0
10484000,-0.088251606,-0.005179015,-0.04804746,1,0
10488000,-0.08862387,-0.00563791,-0.048163727,1,0
10492000,-0.088790976,-0.001476392,-0.04823651,1,0
10496000,-0.08859517,-0.001934363,-0.048259825,1,0
10500000,-0.088181466,-0.002455013,-0.048191108,1,0
10504000,-0.088056594,-0.003026014,-0.04817521,1,0
10508000,-0.08821832,-0.003467722,-0.048176657,1,0
10516000,-0.08914698,0.000479598,-0.048209906,1,0
10520000,-0.089527376,5.27E-06,-0.048256733,1,0
10524000,-0.08954079,-0.000497259,-0.048297755,1,0
10528000,-0.08937459,-0.000996003,-0.048360407,1,0
10532000,-0.089191504,-0.001473878,-0.04834543,1,0
10536000,-0.08914939,-0.001960672,-0.048347253,1,0
10540000,-0.08922576,0.002191886,-0.04837121,1,0
10544000,-0.08927624,0.001725743,-0.048433267,1,0
10548000,-0.08914464,0.001282783,-0.048408106,1,0
10552000,-0.08876728,0.00084302,-0.048379283,1,0
10556000,-0.08834076,0.000401415,-0.04832787,1,0
10560000,-0.08812571,-8.57E-05,-0.048306193,1,0
10564000,-0.08824098,0.004030826,-0.048264183,1,0
10568000,-0.08872127,0.003509972,-0.0483271,1,0
10572000,-0.08926307,0.002991287,-0.04841382,1,0
10580000,-0.0895724,0.001932135,-0.048501983,1,0
10584000,-0.089764655,0.001395101,-0.048433863,1,0
10588000,-0.08976643,0.005663766,-0.048365057,1,0
10596000,-0.08923125,0.004771229,-0.04841172,1,0
10600000,-0.089343704,0.004266081,-0.048424713,1,0
10604000,-0.08948619,0.00377324,-0.048409138,1,0
10608000,-0.08952025,0.003231099,-0.048476543,1,0
10612000,-0.08975214,0.007400813,-0.04852304,1,0
10616000,-0.09015166,0.006957067,-0.0485748,1,0
10620000,-0.0904102,0.006523557,-0.048550695,1,0
10628000,-0.09033085,0.005563043,-0.048396423,1,0
10632000,-0.09017896,0.005087841,-0.048393704,1,0
10636000,-0.09001465,0.009259537,-0.048472144,1,0
10640000,-0.08985619,0.008713121,-0.048587084,1,0
10644000,-0.08969358,0.008228306,-0.048599012,1,0
10648000,-0.089458756,0.007735893,-0.048596554,1,0
10652000,-0.08952154,0.007221082,-0.04859113,1,0
10656000,-0.089986324,0.006724708,-0.048642963,1,0
10660000,-0.09038307,0.010941347,-0.048608407,1,0
10664000,-0.090553015,0.010469744,-0.04861144,1,0
10668000,-0.09062893,0.010026194,-0.048632115,1,0
10672000,-0.0906638,0.009581821,-0.04871591,1,0
10676000,-0.090579025,0.009085415,-0.04873244,1,0
10680000,-0.090463184,0.008562915,-0.048701048,1,0
10684000,-0.09033495,0.012798566,-0.04862833,1,0
10692000,-0.09034344,0.011913469,-0.04862179,1,0
10700000,-0.090696886,0.011017451,-0.04859871,1,0
10704000,-0.09109822,0.010585442,-0.048557084,1,0
10708000,-0.09127469,0.014748877,-0.04858377,1,0
10712000,-0.09122621,0.014137672,-0.048666503,1,0
10716000,-0.091087334,0.013593026,-0.048695844,1,0
10720000,-0.09095762,0.013147362,-0.04876463,1,0
10724000,-0.09073823,0.012677006,-0.048755944,1,0
10728000,-0.090566516,0.012136782,-0.048756093,1,0
10732000,-0.09046337,0.01634456,-0.048736,1,0
10736000,-0.09025242,0.015884724,-0.048752315,1,0
10740000,-0.08998016,0.015430862,-0.048706934,1,0
10744000,-0.08980489,0.014938027,-0.048716873,1,0
10748000,-0.089738905,0.014403205,-0.04870224,1,0
10752000,-0.08991461,0.013841601,-0.048662305,1,0
10756000,-0.08997632,0.018083217,-0.048666526,1,0
10760000,-0.09097497,0.017505556,-0.048706226,1,0
10764000,-0.09112129,0.01691803,-0.048868798,1,0
10768000,-0.09114537,0.016374582,-0.04905609,1,0
10772000,-0.09111867,0.015922224,-0.049088016,1,0
10776000,-0.090840906,0.015500069,-0.049072836,1,0
10780000,-0.09058371,0.019760612,-0.048999384,1,0
10784000,-0.090594605,0.019230828,-0.048978105,1,0
10788000,-0.09080427,0.018715926,-0.048952244,1,0
10792000,-0.091051154,0.018170204,-0.048993416,1,0
10796000,-0.09121025,0.017647345,-0.04900779,1,0
10800000,-0.09141056,0.017164964,-0.049079277,1,0
10804000,-0.09147523,0.021414302,-0.04908357,1,0
10808000,-0.09209341,0.020925147,-0.049099356,1,0
10812000,-0.09208169,0.020432452,-0.04906225,1,0
10816000,-0.091859,0.019988429,-0.04908414,1,0
10820000,-0.091649525,0.019567598,-0.049078017,1,0
10828000,-0.091483325,0.023381246,-0.04913298,1,0
10832000,-0.09125311,0.022884605,-0.049221992,1,0
10836000,-0.090943016,0.022333952,-0.049288347,1,0
10840000,-0.09098633,0.021817995,-0.04931558,1,0
10844000,-0.09116554,0.021341847,-0.049308557,1,0
10848000,-0.0914574,0.020877188,-0.049363744,1,0
10852000,-0.09151203,0.025159307,-0.049368076,1,0
10856000,-0.09168449,0.024707476,-0.049379244,1,0
10860000,-0.09193076,0.024265438,-0.04932238,1,0
10864000,-0.092233926,0.023792624,-0.049365975,1,0
10868000,-0.09240568,0.023299353,-0.049432226,1,0
10872000,-0.09252047,0.022779185,-0.04954616,1,0
10876000,-0.092610806,0.02696255,-0.049561456,1,0
10880000,-0.09271762,0.02634725,-0.049584463,1,0
10884000,-0.09278942,0.02581915,-0.04955834,1,0
10888000,-0.09272502,0.025338244,-0.049560886,1,0
10892000,-0.09256609,0.024803244,-0.049544476,1,0
10896000,-0.09241707,0.024273777,-0.049623467,1,0
10900000,-0.09233981,0.028601144,-0.04965898,1,0
10904000,-0.092397355,0.028143587,-0.04970566,1,0
10908000,-0.09246242,0.027635915,-0.04971812,1,0
10916000,-0.09217471,0.026640704,-0.049819574,1,0
10920000,-0.09222712,0.026200721,-0.04988534,1,0
10924000,-0.09229771,0.030587886,-0.04990737,1,0
10928000,-0.09235287,0.03011898,-0.049980618,1,0
10932000,-0.092401505,0.029570937,-0.049996,1,0
10936000,-0.09222611,0.029012993,-0.05002828,1,0
10940000,-0.0919921,0.028451897,-0.050040476,1,0
10944000,-0.09197618,0.02787773,-0.05009253,1,0
10948000,-0.09203924,0.029540705,-0.050073326,1,0
10952000,-0.09208552,0.029035058,-0.050123572,1,0
10956000,-0.09224223,0.028543547,-0.050102104,1,0
10960000,-0.092625044,0.02809017,-0.0500876,1,0
10964000,-0.09303292,0.027636342,-0.050059527,1,0
10968000,-0.09329331,0.027097242,-0.050123997,1,0
10972000,-0.09345445,0.026455682,-0.050197005,1,0
10980000,-0.093050756,0.02537585,-0.05038337,1,0
10988000,-0.092450686,0.0245104,-0.05036889,1,0
10992000,-0.09227296,0.024100756,-0.050361395,1,0
10996000,-0.09233848,0.023647204,-0.050319396,1,0
11000000,-0.092567705,0.023216292,-0.050375782,1,0
11004000,-0.09293643,0.022820076,-0.05047602,1,0
11008000,-0.09332896,0.022399414,-0.050661266,1,0
11012000,-0.09355962,0.021924065,-0.050704695,1,0
11016000,-0.09370522,0.021387577,-0.050684437,1,0
11020000,-0.23985386,0.027630363,0.009175341,1,0
11024000,-0.23967591,0.027113104,0.0092371,1,0
11028000,-0.23947695,0.026633667,0.009261331,1,0
11032000,-0.23904458,0.026188279,0.009294748,1,0
11036000,-0.23906577,0.025718559,0.009344362,1,0
11040000,-0.23517776,0.0253983,0.009368187,1,0
11044000,-0.228768,0.024922313,0.009346747,1,0
11048000,-0.22457527,0.024346173,0.009375731,1,0
11052000,-0.22013284,0.023748172,0.009472366,1,0
11056000,-0.2159754,0.023233486,0.009543813,1,0
11060000,-0.21229598,0.022792418,0.009565447,1,0
11068000,-0.20705889,0.021920191,0.009660315,1,0
11072000,-0.20398197,0.02149005,0.009740287,1,0
11076000,-0.20129474,0.021029226,0.009808779,1,0
11080000,-0.19861206,0.020579033,0.009834804,1,0
11084000,-0.19571237,0.02012654,0.009818183,1,0
11088000,-0.19285865,0.019634927,0.009798174,1,0
11092000,-0.1919536,0.019166442,0.009807288,1,0
11096000,-0.18979461,0.018705754,0.009796393,1,0
11100000,-0.1878327,0.018261438,0.00982138,1,0
11104000,-0.1858513,0.017840903,0.009856411,1,0
11108000,-0.18375602,0.017419023,0.009863406,1,0
11112000,-0.18185295,0.016976677,0.009879731,1,0
11116000,-0.18150869,0.016524957,0.009935952,1,0
11120000,-0.179596,0.016112613,0.009976781,1,0
11124000,-0.17763002,0.015724134,0.009989301,1,0
11128000,-0.17577519,0.015296219,0.009973297,1,0
11132000,-0.17393668,0.014838133,0.009929009,1,0
11136000,-0.17232719,0.014405694,0.009871855,1,0
11140000,-0.17619273,0.014009038,0.009815021,1,0
11144000,-0.17471525,0.013620291,0.009782113,1,0
11148000,-0.17322466,0.013215512,0.009756689,1,0
11152000,-0.17182995,0.012777196,0.009734477,1,0
11156000,-0.17047778,0.012336684,0.009724917,1,0
11160000,-0.16925974,0.011947693,0.009714808,1,0
11164000,-0.16929018,0.011602813,0.009662151,1,0
11168000,-0.16807117,0.011256184,0.009567468,1,0
11172000,-0.16677319,0.010849973,0.009502784,1,0
11176000,-0.1654887,0.010393815,0.009467256,1,0
11180000,-0.16414903,0.009958062,0.009435607,1,0
11184000,-0.16280273,0.009577945,0.009444446,1,0
11188000,-0.16264966,0.00924434,0.009449054,1,0
11192000,-0.16156693,0.008932894,0.009476986,1,0
11196000,-0.16046028,0.008549014,0.009389953,1,0
11200000,-0.15950437,0.008103436,0.009264948,1,0
11204000,-0.15870596,0.007641379,0.009156062,1,0
11208000,-0.15792644,0.007298028,0.009109968,1,0
11212000,-0.16168614,0.007070422,0.009083511,1,0
11216000,-0.16046552,0.006819405,0.009078655,1,0
11220000,-0.15946579,0.006538626,0.009053749,1,0
11224000,-0.1589068,0.006272925,0.00901114,1,0
11228000,-0.15856299,0.006000254,0.008987604,1,0
11236000,-0.15774243,0.005356032,0.00877736,1,0
11240000,-0.15641378,0.004998691,0.008655671,1,0
11244000,-0.15489887,0.004678831,0.008547483,1,0
11252000,-0.15277608,0.004100459,0.008315442,1,0
11260000,-0.15227628,0.003770942,0.008193512,1,0
11264000,-0.15160075,0.003468089,0.00815044,1,0
11268000,-0.15076649,0.003132828,0.008059802,1,0
11272000,-0.14992745,0.002813768,0.008006923,1,0
11276000,-0.14921068,0.002517918,0.008016354,1,0
11280000,-0.14859396,0.002285261,0.00800494,1,0
11284000,-0.1486047,0.002141148,0.007926543,1,0
11288000,-0.14808287,0.002029175,0.007826499,1,0
11292000,-0.1474414,0.001907595,0.007751525,1,0
11296000,-0.14656326,0.001726249,0.007655761,1,0
11300000,-0.14561579,0.001478164,0.007511254,1,0
11304000,-0.14482786,0.001195686,0.007360796,1,0
11308000,-0.14838505,0.000936354,0.007257115,1,0
11312000,-0.14777566,0.000707157,0.00715448,1,0
11316000,-0.1473288,0.000482278,0.007040246,1,0
11324000,-0.14621538,6.31E-05,0.006828112,1,0
11328000,-0.14622235,-0.000123559,0.006741157,1,0
11332000,-0.1459883,-0.000374071,0.006680808,1,0
11340000,-0.14468566,-0.00085189,0.006514743,1,0
11344000,-0.14466338,-0.001062596,0.006450634,1,0
11348000,-0.14384605,-0.001251342,0.006375114,1,0
11352000,-0.14307874,-0.001394404,0.006276602,1,0
11356000,-0.14291748,-0.001534691,0.006149146,1,0
11360000,-0.1426696,-0.001728026,0.00600728,1,0
11364000,-0.14224418,-0.001941597,0.005899467,1,0
11368000,-0.14142522,-0.002103554,0.005808358,1,0
11372000,-0.14047034,-0.002213404,0.005695035,1,0
11380000,-0.14292549,-0.002449783,0.005564963,1,0
11388000,-0.14181474,-0.002648035,0.005350023,1,0
11392000,-0.14135763,-0.00281173,0.005222922,1,0
11396000,-0.14087838,-0.00305732,0.005118796,1,0
11400000,-0.1402445,-0.00329202,0.005041247,1,0
11404000,-0.13960584,-0.003462145,0.004976893,1,0
11408000,-0.13920398,-0.003624575,0.00492604,1,0
11412000,-0.13879454,-0.003794095,0.004828573,1,0
11416000,-0.13833952,-0.003947325,0.004681711,1,0
11420000,-0.1380919,-0.004129704,0.004553765,1,0
11424000,-0.13799502,-0.004342986,0.004442425,1,0
11428000,-0.13762501,-0.004522976,0.004352084,1,0
11432000,-0.13712159,-0.004639991,0.004303706,1,0
11436000,-0.13652916,-0.004754037,0.004246732,1,0
11440000,-0.13584797,-0.004941063,0.004144634,1,0
11444000,-0.13509084,-0.005179595,0.004010605,1,0
11448000,-0.13447477,-0.005378233,0.003874794,1,0
11452000,-0.13397297,-0.005481971,0.003775632,1,0
11460000,-0.13299933,-0.005697258,0.003621408,1,0
11464000,-0.1329413,-0.005869037,0.003545676,1,0
11468000,-0.13262592,-0.006125903,0.003441528,1,0
11472000,-0.13222833,-0.006320439,0.003403838,1,0
11476000,-0.13520592,-0.006452881,0.003405274,1,0
11484000,-0.13370444,-0.006663282,0.003271435,1,0
11488000,-0.13332137,-0.006786547,0.00310654,1,0
11492000,-0.13334101,-0.006917774,0.002961298,1,0
11496000,-0.13341555,-0.00711844,0.002857869,1,0
11500000,-0.13298447,-0.007328467,0.002772283,1,0
11508000,-0.1319586,-0.007673607,0.00264219,1,0
11512000,-0.13139868,-0.007795136,0.002519683,1,0
11516000,-0.13097224,-0.007915001,0.002370649,1,0
11520000,-0.13070977,-0.008010392,0.002241576,1,0
11524000,-0.12970498,-0.008145767,0.002140761,1,0
11528000,-0.12950508,-0.008245323,0.002104987,1,0
11532000,-0.12896973,-0.008401333,0.002043238,1,0
11536000,-0.12865281,-0.008497806,0.001918547,1,0
11540000,-0.12846772,-0.008610888,0.001766332,1,0
11544000,-0.12818041,-0.008758519,0.001652778,1,0
11548000,-0.12730336,-0.00890817,0.001609592,1,0
11552000,-0.12677793,-0.009094433,0.001622071,1,0
11556000,-0.12642643,-0.009288603,0.00163428,1,0
11560000,-0.12634148,-0.00935269,0.001597881,1,0
11564000,-0.1262941,-0.009319901,0.001498588,1,0
11568000,-0.12602462,-0.009355824,0.001395579,1,0
11572000,-0.1288123,-0.009502162,0.001338695,1,0
11576000,-0.1284824,-0.00972484,0.001283129,1,0
11580000,-0.12813236,-0.009934953,0.001196773,1,0
11584000,-0.12759338,-0.010085349,0.001080322,1,0
11588000,-0.126952,-0.010258396,0.000932399,1,0
11592000,-0.12660596,-0.010474277,0.000798716,1,0
11596000,-0.12585911,-0.010681518,0.000755841,1,0
11600000,-0.12551472,-0.010821166,0.000791979,1,0
11604000,-0.124903984,-0.010953311,0.000698256,1,0
11608000,-0.12473493,-0.011000947,0.000804699,1,0
11612000,-0.12421707,-0.011084569,0.000651606,1,0
11616000,-0.123828426,-0.011201476,0.000489513,1,0
11620000,-0.12291057,-0.011324342,0.000399996,1,0
11624000,-0.122777805,-0.0114302,0.000352458,1,0
11628000,-0.12270127,-0.011587959,0.000309509,1,0
11636000,-0.12207877,-0.011912154,0.000186786,1,0
11640000,-0.121519335,-0.011972779,0.000133492,1,0
11644000,-0.12389355,-0.012018294,5.69E-05,1,0
11648000,-0.123630755,-0.012136818,-6.02E-05,1,0
11652000,-0.12368534,-0.012287712,-0.000163931,1,0
11656000,-0.12358601,-0.012414494,-0.000222334,1,0
11660000,-0.12336822,-0.01251808,-0.000278074,1,0
11664000,-0.12331128,-0.012630112,-0.000401584,1,0
11668000,-0.12251831,-0.012760258,-0.000542737,1,0
11676000,-0.12193133,-0.012976589,-0.000610836,1,0
11680000,-0.12166995,-0.013014228,-0.000618808,1,0
11684000,-0.12113269,-0.013114973,-0.000702797,1,0
11688000,-0.12084755,-0.013131846,-0.000703359,1,0
11692000,-0.11980045,-0.013224035,-0.000694338,1,0
11696000,-0.11966787,-0.013328151,-0.000657853,1,0
11700000,-0.1193404,-0.013427045,-0.000683243,1,0
11704000,-0.11873714,-0.01351679,-0.000774616,1,0
11708000,-0.11817013,-0.013589473,-0.000898189,1,0
11712000,-0.117755175,-0.013628255,-0.001035155,1,0
11716000,-0.11661153,-0.013653446,-0.001104635,1,0
11720000,-0.11642121,-0.013671952,-0.001109388,1,0
11724000,-0.11618874,-0.013704413,-0.001153177,1,0
11728000,-0.11590797,-0.013770579,-0.001241194,1,0
11732000,-0.115729876,-0.013832347,-0.001322517,1,0
11736000,-0.11563934,-0.013874956,-0.001373122,1,0
11740000,-0.11842661,-0.018905943,-0.001632155,0.39386106,0
11748000,-0.117941536,-0.019113567,-0.001767001,0.39386106,0
11756000,-0.11781497,-0.019461013,-0.001884583,0.39386106,0
11760000,-0.11725635,-0.019596294,-0.001938663,0.39386106,0
11764000,-0.11542204,-0.024677884,-0.002244526,0.41615248,0
11768000,-0.11429082,-0.024781343,-0.002358692,0.41615248,0
11772000,-0.11287793,-0.024896255,-0.002504909,0.41615248,0
11776000,-0.11110114,-0.025066163,-0.002684954,0.41615248,0
11780000,-0.109167695,-0.025307873,-0.002904756,0.41615248,0
11784000,-0.10738191,-0.025562998,-0.003130906,0.41615248,0
11788000,-0.10448952,-0.03073047,-0.003606239,0.43715236,0
11792000,-0.1026835,-0.030898735,-0.003835612,0.43715236,0
11796000,-0.10105741,-0.031116605,-0.004005308,0.43715236,0
11800000,-0.09936641,-0.031423517,-0.004169382,0.43715236,0
11804000,-0.097383015,-0.031775437,-0.004330131,0.43715236,0
11808000,-0.09544024,-0.032107197,-0.004506492,0.43715236,0
11812000,-0.092552274,-0.037417248,-0.004987873,0.45745915,0
11816000,-0.09106287,-0.037738875,-0.005248069,0.45745915,0
11820000,-0.08965377,-0.037997812,-0.005567911,0.45745915,0
11824000,-0.088386945,-0.038276594,-0.005857107,0.45745915,0
11828000,-0.087209836,-0.038574245,-0.00607462,0.45745915,0
11832000,-0.086103596,-0.03889417,-0.006242971,0.45745915,0
11836000,-0.08715063,-0.04418999,-0.006775781,0.4765817,0
11844000,-0.08464113,-0.04476781,-0.007391857,0.4765817,0
11848000,-0.08354197,-0.045035347,-0.007636248,0.4765817,0
11852000,-0.08229588,-0.0452914,-0.007820543,0.4765817,0
11856000,-0.08111285,-0.045581684,-0.00803137,0.4765817,0
11860000,-0.0786967,-0.050883405,-0.008666515,0.49447444,0
11864000,-0.077730566,-0.051200666,-0.008973076,0.49447444,0
11868000,-0.07672621,-0.051473968,-0.009233233,0.49447444,0
11872000,-0.07554485,-0.05170679,-0.0094142,0.49447444,0
11876000,-0.07428737,-0.051920854,-0.009545895,0.49447444,0
11880000,-0.07317173,-0.052192852,-0.009712413,0.49447444,0
11884000,-0.07090045,-0.057409804,-0.010335533,0.5110977,0
11888000,-0.07019265,-0.057610895,-0.010612942,0.5110977,0
11892000,-0.069580756,-0.0577783,-0.01105033,0.5110977,0
11900000,-0.06845339,-0.058262393,-0.011491737,0.5110977,0
11904000,-0.068260916,-0.05848169,-0.011747733,0.5110977,0
11908000,-0.066168174,-0.06363451,-0.012305341,0.5277304,0
11912000,-0.06559391,-0.063784465,-0.012487491,0.5277304,0
11916000,-0.06510966,-0.06392239,-0.01268515,0.5277304,0
11920000,-0.0647349,-0.06403549,-0.012898084,0.5277304,0
11924000,-0.0644788,-0.06411673,-0.013147583,0.5277304,0
11928000,-0.064230576,-0.06421639,-0.013387468,0.5277304,0
11932000,-0.066047385,-0.06925612,-0.014055278,0.54299235,0
11936000,-0.06551853,-0.0693124,-0.014224076,0.54299235,0
11940000,-0.065073095,-0.06938235,-0.014332052,0.54299235,0
11944000,-0.0647991,-0.069448054,-0.014441893,0.54299235,0
11948000,-0.06441345,-0.069520414,-0.014559235,0.54299235,0
11952000,-0.06384022,-0.06957771,-0.014723833,0.54299235,0
11956000,-0.061815813,-0.074531786,-0.015427513,0.5569375,0
11960000,-0.061395384,-0.0745195,-0.01564179,0.5569375,0
11964000,-0.060926728,-0.07451252,-0.015823988,0.5569375,0
11968000,-0.060468145,-0.07447965,-0.01598522,0.5569375,0
11972000,-0.060306363,-0.07445532,-0.016088143,0.5569375,0
11976000,-0.06036051,-0.07443089,-0.01614476,0.5569375,0
11980000,-0.05888603,-0.07933281,-0.01672167,0.5695881,0
11984000,-0.05895082,-0.07923132,-0.016855318,0.5695881,0
11988000,-0.05872087,-0.07910634,-0.017058644,0.5695881,0
11992000,-0.058158584,-0.078940794,-0.01750729,0.5695881,0
11996000,-0.057858624,-0.07884088,-0.017705824,0.5695881,0
12000000,-0.05771422,-0.078699134,-0.017809886,0.5695881,0
12004000,-0.05617611,-0.08347653,-0.018369759,0.58210295,0
12008000,-0.056157492,-0.08327463,-0.018450744,0.58210295,0
12012000,-0.055839255,-0.083036,-0.018622138,0.58210295,0
12016000,-0.055422097,-0.08280353,-0.018771484,0.58210295,0
12020000,-0.055244528,-0.08264109,-0.018842792,0.58210295,0
12024000,-0.055298474,-0.08251571,-0.018878086,0.58210295,0
12028000,-0.057402153,-0.08732224,-0.019487593,0.59339094,0
12036000,-0.05663333,-0.08692144,-0.019724648,0.59339094,0
12040000,-0.057490103,-0.08651867,-0.0198261,0.59339094,0
12044000,-0.057610925,-0.08631111,-0.01994346,0.59339094,0
12048000,-0.05751113,-0.08605189,-0.020015197,0.59339094,0
12052000,-0.055721875,-0.090709634,-0.02060685,0.6035162,0
12056000,-0.05514579,-0.09053614,-0.020767681,0.6035162,0
12060000,-0.05488267,-0.090207845,-0.020600066,0.6035162,0
12064000,-0.054664407,-0.08987948,-0.020662604,0.6035162,0
12068000,-0.054549713,-0.08951803,-0.020774756,0.6035162,0
12072000,-0.05448319,-0.089187145,-0.020912427,0.6035162,0
12076000,-0.052869756,-0.09381099,-0.021613937,0.61256003,0
12080000,-0.052639976,-0.09342299,-0.021658853,0.61256003,0
12084000,-0.05211577,-0.093168646,-0.021796696,0.61256003,0
12088000,-0.05268578,-0.092783615,-0.021762133,0.61256003,0
12092000,-0.052821007,-0.092401855,-0.022077033,0.61256003,0
12096000,-0.052892935,-0.09202549,-0.022141095,0.61256003,0
12100000,-0.051437065,-0.096558586,-0.022821967,0.62163204,0
12104000,-0.051348984,-0.09608292,-0.02283769,0.62163204,0
12108000,-0.05146458,-0.0956319,-0.022846399,0.62163204,0
12112000,-0.051618606,-0.09518892,-0.022904728,0.62163204,0
12116000,-0.05167581,-0.09476211,-0.023001334,0.62163204,0
12120000,-0.051624775,-0.09436309,-0.023074713,0.62163204,0
12124000,-0.04994638,-0.09899527,-0.023765825,0.6296818,0
12128000,-0.049550693,-0.098675005,-0.023808934,0.6296818,0
12132000,-0.049476735,-0.098367184,-0.023842316,0.6296818,0
12136000,-0.049585618,-0.09799471,-0.023844123,0.6296818,0
12140000,-0.04959038,-0.09756011,-0.02380656,0.6296818,0
12144000,-0.04958384,-0.097087316,-0.0237269,0.6296818,0
12148000,-0.052057296,-0.10155321,-0.02437249,0.6367826,0
12152000,-0.052058212,-0.10103033,-0.024434349,0.6367826,0
12156000,-0.05202538,-0.10062701,-0.02454139,0.6367826,0
12160000,-0.052118286,-0.10026345,-0.024661545,0.6367826,0
12164000,-0.052390903,-0.09986855,-0.024762003,0.6367826,0
12168000,-0.05251267,-0.099448405,-0.024823587,0.6367826,0
12172000,-0.05093173,-0.10399598,-0.025534384,0.64297485,0
12180000,-0.050103754,-0.103028275,-0.025597421,0.64297485,0
12184000,-0.05041835,-0.10234096,-0.025540413,0.64297485,0
12188000,-0.050032824,-0.10190224,-0.025616342,0.64297485,0
12192000,-0.05074053,-0.101348296,-0.025740836,0.64297485,0
12196000,-0.04966249,-0.10555586,-0.02642618,0.64897937,0
12200000,-0.04974038,-0.105051875,-0.026451714,0.64897937,0
12204000,-0.049820382,-0.104550645,-0.026455963,0.64897937,0
12208000,-0.049701486,-0.10407102,-0.026506621,0.64897937,0
12212000,-0.049338125,-0.10358885,-0.026634447,0.64897937,0
12216000,-0.049120013,-0.10311936,-0.02671948,0.64897937,0
12220000,-0.047551155,-0.10188143,-0.02666769,0.65417457,0
12224000,-0.048014287,-0.101301886,-0.026585579,0.65417457,0
12228000,-0.047866978,-0.10070716,-0.026533093,0.65417457,0
12232000,-0.047694214,-0.1001753,-0.026502628,0.65417457,0
12236000,-0.047637105,-0.09971229,-0.026513362,0.65417457,0
12240000,-0.047587443,-0.09930753,-0.026579088,0.65417457,0
12244000,-0.046040438,-0.09814464,-0.026521308,0.6586327,0
12248000,-0.046714444,-0.09760986,-0.026643863,0.6586327,0
12252000,-0.046758242,-0.09707534,-0.026619019,0.6586327,0
12256000,-0.04675312,-0.09663215,-0.026586879,0.6586327,0
12260000,-0.04672158,-0.096218914,-0.026608637,0.6586327,0
12264000,-0.046710186,-0.09576473,-0.026638485,0.6586327,0
12268000,-0.04962033,-0.09465611,-0.02653416,0.6623973,0
12272000,-0.050083574,-0.09415868,-0.026493056,0.6623973,0
12276000,-0.049806327,-0.09368035,-0.026521478,0.6623973,0
12280000,-0.050260313,-0.09319925,-0.026543986,0.6623973,0
12284000,-0.049991403,-0.09273875,-0.026636235,0.6623973,0
12288000,-0.04975202,-0.09230775,-0.026664857,0.6623973,0
12292000,-0.048428968,-0.09128612,-0.026653938,0.66552806,0
12296000,-0.048407674,-0.090833336,-0.026647706,0.66552806,0
12300000,-0.04851555,-0.090402186,-0.026667802,0.66552806,0
12304000,-0.04856608,-0.09001046,-0.026716249,0.66552806,0
12312000,-0.048205838,-0.089169025,-0.026816573,0.66552806,0
12316000,-0.047098096,-0.08831742,-0.026767563,0.6683976,0
12324000,-0.04701248,-0.08754404,-0.026824426,0.6683976,0
12328000,-0.04700903,-0.08719411,-0.026914822,0.6683976,0
12332000,-0.04699476,-0.08684471,-0.027012378,0.6683976,0
12340000,-0.04558798,-0.08574411,-0.027008064,0.670712,0
12344000,-0.045661323,-0.085366935,-0.027034909,0.670712,0
12348000,-0.045431875,-0.08496884,-0.027055403,0.670712,0
12352000,-0.04573509,-0.08471368,-0.027038448,0.670712,0
12356000,-0.045668468,-0.08441862,-0.02701553,0.670712,0
12360000,-0.045704357,-0.08403787,-0.027030436,0.670712,0
12364000,-0.044658873,-0.08326745,-0.027033657,0.6725357,0
12368000,-0.04484823,-0.08288854,-0.027133131,0.6725357,0
12372000,-0.04477056,-0.08261046,-0.027222918,0.6725357,0
12376000,-0.044486064,-0.08237736,-0.02727687,0.6725357,0
12380000,-0.044305712,-0.08208529,-0.027332587,0.6725357,0
12384000,-0.044394046,-0.08174004,-0.027408086,0.6725357,0
12388000,-0.046774887,-0.08108162,-0.027371446,0.67392665,0
12396000,-0.04737231,-0.08042041,-0.027549438,0.67392665,0
12400000,-0.047615238,-0.08010019,-0.027583696,0.67392665,0
12404000,-0.047905978,-0.07978183,-0.02765111,0.67392665,0
12408000,-0.0479273,-0.07953027,-0.027705694,0.67392665,0
12412000,-0.046416637,-0.079106435,-0.027724847,0.67530245,0
12416000,-0.046163253,-0.07893902,-0.027786247,0.67530245,0
12420000,-0.04604702,-0.0787751,-0.027846958,0.67530245,0
12424000,-0.046142038,-0.078530535,-0.027915474,0.67530245,0
12428000,-0.046299897,-0.07819559,-0.027971443,0.67530245,0
12432000,-0.046444025,-0.07788228,-0.028012488,0.67530245,0
12436000,-0.045258988,-0.07742792,-0.028010901,0.6762806,0
12440000,-0.045287058,-0.07719641,-0.02802872,0.6762806,0
12444000,-0.0452233,-0.07693722,-0.028016068,0.6762806,0
12448000,-0.04514524,-0.076687366,-0.02800734,0.6762806,0
12452000,-0.045312416,-0.07648049,-0.028042166,0.6762806,0
12460000,-0.044052027,-0.075884506,-0.028095167,0.67690957,0
12464000,-0.043736223,-0.075718954,-0.028245654,0.67690957,0
12468000,-0.04360543,-0.07548036,-0.028258871,0.67690957,0
12472000,-0.04392967,-0.07533291,-0.02831612,0.67690957,0
12476000,-0.04422111,-0.07519271,-0.02832838,0.67690957,0
12480000,-0.044383183,-0.075045936,-0.028328624,0.67690957,0
12484000,-0.043059293,-0.07469786,-0.028289698,0.6772278,0
12488000,-0.04292107,-0.07444747,-0.028292969,0.6772278,0
12492000,-0.04277186,-0.0742137,-0.028319698,0.6772278,0
12496000,-0.04271114,-0.07405361,-0.028386235,0.6772278,0
12500000,-0.042778008,-0.07389801,-0.028460093,0.6772278,0
12504000,-0.04302696,-0.073688105,-0.028526086,0.6772278,0
12508000,-0.042051002,-0.07331424,-0.028571203,0.6772452,0
12516000,-0.042508353,-0.07297254,-0.028755097,0.6772452,0
12520000,-0.042416595,-0.0728468,-0.02882434,0.6772452,0
12524000,-0.042314515,-0.07270788,-0.028870732,0.6772452,0
12528000,-0.04244157,-0.07251693,-0.028925106,0.6772452,0
12532000,-0.045177136,-0.072147354,-0.028942674,0.6769833,0
12536000,-0.045274556,-0.07197946,-0.02892435,0.6769833,0
12540000,-0.04516547,-0.071876615,-0.028908983,0.6769833,0
12544000,-0.04513488,-0.071732104,-0.028934894,0.6769833,0
12548000,-0.04523487,-0.071582936,-0.028954765,0.6769833,0
12552000,-0.045305323,-0.071465746,-0.028973272,0.6769833,0
12556000,-0.043850686,-0.07123056,-0.028984034,0.6764817,0
12564000,-0.04380429,-0.07095837,-0.029053694,0.6764817,0
12568000,-0.043758683,-0.070740476,-0.029138558,0.6764817,0
12572000,-0.043513544,-0.07049966,-0.029067576,0.6764817,0
12580000,-0.042005014,-0.06993413,-0.028987879,0.6757612,0
12588000,-0.042099297,-0.069711566,-0.02906819,0.6757612,0
12592000,-0.042046484,-0.069716595,-0.02915546,0.6757612,0
12596000,-0.04208926,-0.0696532,-0.029235804,0.6757612,0
12600000,-0.04232114,-0.0694291,-0.029232949,0.6757612,0
12604000,-0.041071616,-0.06905584,-0.02918006,0.6749179,0
12612000,-0.04165274,-0.06865111,-0.029155318,0.6749179,0
12616000,-0.041836023,-0.068506494,-0.029141223,0.6749179,0
12620000,-0.042038266,-0.068371,-0.029162105,0.6749179,0
12624000,-0.042067528,-0.068273835,-0.029170342,0.6749179,0
12628000,-0.04047311,-0.068106525,-0.029134836,0.6739037,0
12632000,-0.04058169,-0.06801021,-0.029106366,0.6739037,0
12636000,-0.040558018,-0.06786789,-0.029103559,0.6739037,0
12640000,-0.041275114,-0.06770649,-0.029130438,0.6739037,0
12644000,-0.041332077,-0.06746413,-0.02915725,0.6739037,0
12648000,-0.041319042,-0.06725605,-0.029133562,0.6739037,0
12652000,-0.03951197,-0.06706187,-0.02914575,0.6727306,0
12656000,-0.039076716,-0.066988036,-0.02922179,0.6727306,0
12660000,-0.038832456,-0.06695373,-0.029262066,0.6727306,0
12664000,-0.03875544,-0.06691784,-0.029284319,0.6727306,0
12668000,-0.038666397,-0.06682803,-0.02931295,0.6727306,0
12672000,-0.038710404,-0.06672875,-0.029304804,0.6727306,0
12676000,-0.037111815,-0.066521876,-0.029294036,0.67145,0
12680000,-0.03754266,-0.0663077,-0.029239275,0.67145,0
12684000,-0.038001888,-0.06610362,-0.029217698,0.67145,0
12692000,-0.03913864,-0.0657394,-0.029107561,0.67145,0
12696000,-0.039160803,-0.06559953,-0.029044896,0.67145,0
12700000,-0.04129052,-0.06536044,-0.028945498,0.67003345,0
12708000,-0.04109413,-0.06518604,-0.028875886,0.67003345,0
12712000,-0.041245237,-0.065152384,-0.028908558,0.67003345,0
12716000,-0.041389994,-0.06514407,-0.028909437,0.67003345,0
12724000,-0.039830223,-0.06488788,-0.028875206,0.66852057,0
12728000,-0.03997337,-0.064577244,-0.028833954,0.66852057,0
12731999,-0.040091068,-0.06436285,-0.028853366,0.66852057,0
12736000,-0.040366806,-0.06416721,-0.028855704,0.66852057,0
12740000,-0.040626332,-0.06401925,-0.028790835,0.66852057,0
12744000,-0.04064083,-0.06391165,-0.02873218,0.66852057,0
12751999,-0.038784713,-0.06367017,-0.028725993,0.66687864,0
12756000,-0.038907804,-0.06355184,-0.028706264,0.66687864,0
12760000,-0.03889953,-0.063363284,-0.028683908,0.66687864,0
12763999,-0.038674224,-0.06319356,-0.028663293,0.66687864,0
12768000,-0.038556688,-0.06308116,-0.028629735,0.66687864,0
12772000,-0.03708812,-0.062924564,-0.028571267,0.66519976,0
12776000,-0.037414223,-0.062813774,-0.02853728,0.66519976,0
12780000,-0.037701312,-0.06270608,-0.02854042,0.66519976,0
12783999,-0.03794515,-0.0625918,-0.028542398,0.66519976,0
12788000,-0.0383621,-0.062463816,-0.028537743,0.66519976,0
12795999,-0.03705345,-0.06215796,-0.028641209,0.6637334,0
12800000,-0.036409546,-0.062046155,-0.028636023,0.6637334,0
12804000,-0.036103178,-0.061872814,-0.028596349,0.6637334,0
12808000,-0.036188923,-0.061738484,-0.028532255,0.6637334,0
12812000,-0.036480546,-0.061624642,-0.028453834,0.6637334,0
12815999,-0.0367201,-0.061506476,-0.028386898,0.6637334,0
12824000,-0.03521971,-0.06128522,-0.028296964,0.66223294,0
12827999,-0.035495214,-0.061248176,-0.028216375,0.66223294,0
12832000,-0.036128417,-0.061194427,-0.02821241,0.66223294,0
12836000,-0.0361267,-0.0610329,-0.02827668,0.66223294,0
12840000,-0.036052607,-0.060853906,-0.028266924,0.66223294,0
12844000,-0.03439297,-0.060653254,-0.028185653,0.6606566,0
12852000,-0.034468807,-0.06034415,-0.028109076,0.6606566,0
12856000,-0.034434453,-0.060225688,-0.02807842,0.6606566,0
12859999,-0.03458668,-0.060112108,-0.027975421,0.6606566,0
12864000,-0.034942675,-0.059989765,-0.027895268,0.6606566,0
12868000,-0.03358573,-0.059870884,-0.027885526,0.65908015,0
12872000,-0.033787906,-0.059837956,-0.02792618,0.65908015,0
12876000,-0.033903167,-0.059795666,-0.027963616,0.65908015,0
12879999,-0.033922207,-0.059667498,-0.027936978,0.65908015,0
12888000,-0.03405483,-0.059322014,-0.027765617,0.65908015,0
12891999,-0.03281169,-0.059194088,-0.02759694,0.65747064,0
12896000,-0.033076163,-0.05904837,-0.027546918,0.65747064,0
12900000,-0.033065695,-0.058880597,-0.02751423,0.65747064,0
12904000,-0.03289996,-0.058768593,-0.027499221,0.65747064,0
12908000,-0.032757144,-0.05869314,-0.02753565,0.65747064,0
12916000,-0.035250522,-0.05844283,-0.027483936,0.6556721,0
12923999,-0.035230868,-0.05819221,-0.027438495,0.6556721,0
12928000,-0.03530308,-0.05809742,-0.02746321,0.6556721,0
12932000,-0.03541626,-0.05801742,-0.027454134,0.6556721,0
12936000,-0.035537586,-0.05785808,-0.02741697,0.6556721,0
12940000,-0.03408711,-0.05762856,-0.027361978,0.6538178,0
12943999,-0.034265142,-0.057531256,-0.02729028,0.6538178,0
12948000,-0.034382295,-0.05752426,-0.027230496,0.6538178,0
12952000,-0.03449499,-0.057468507,-0.027177064,0.6538178,0
12955999,-0.034531917,-0.057348743,-0.02715142,0.6538178,0
12960000,-0.034645155,-0.057252284,-0.027112208,0.6538178,0
12964000,-0.033067197,-0.057202283,-0.027110048,0.65199906,0
12968000,-0.033033878,-0.057196207,-0.027112635,0.65199906,0
12972000,-0.033046797,-0.057103783,-0.027098566,0.65199906,0
12975999,-0.033179455,-0.05695771,-0.027109673,0.65199906,0
12980000,-0.033334997,-0.056777533,-0.027127968,0.65199906,0
12987999,-0.03227044,-0.05635561,-0.027117133,0.6501573,0
12992000,-0.032525815,-0.056301773,-0.027073659,0.6501573,0
12996000,-0.03265602,-0.05624122,-0.026935633,0.6501573,0
13000000,-0.032628357,-0.056106757,-0.026830668,0.6501573,0
13004000,-0.032647856,-0.055977896,-0.026830181,0.6501573,0
13007999,-0.032817792,-0.055876955,-0.026877,0.6501573,0
13012000,-0.031231727,-0.055698045,-0.026888749,0.64835316,0
