timestamp,roll,pitch,yaw,thrust_body[0]
9180000,-0.11083593,-0.26536456,-0.005465881,1
9184000,-0.11237732,-0.26544982,-0.005465881,1
9188000,-0.11391978,-0.265603,-0.005465881,1
9192000,-0.115430474,-0.26578844,-0.005465881,1
9196000,-0.11689799,-0.25143123,-0.005465881,1
9200000,-0.11836767,-0.2516477,-0.005465881,1
9204000,-0.11987687,-0.25183466,-0.005465881,1
9208000,-0.12137159,-0.25200477,-0.005465881,1
9212000,-0.12279363,-0.252278,-0.005465881,1
9220000,-0.12561598,-0.23858373,-0.005465881,1
9224000,-0.12703913,-0.23899385,-0.005465881,1
9228000,-0.12846531,-0.23941441,-0.005465881,1
9232000,-0.12984021,-0.23983793,-0.005465881,1
9236000,-0.13119139,-0.24030325,-0.005465881,1
9244000,-0.1337999,-0.22658822,-0.005465881,1
9248000,-0.135034,-0.2267592,-0.005465881,1
9252000,-0.13630323,-0.22690597,-0.005465881,1
9256000,-0.13759685,-0.22704966,-0.005465881,1
9260000,-0.13889936,-0.2272282,-0.005465881,1
9264000,-0.14018369,-0.22735968,-0.005465881,1
9268000,-0.14143968,-0.21351297,-0.005465881,1
9276000,-0.14394005,-0.21369061,-0.005465881,1
9280000,-0.1451748,-0.21376228,-0.005465881,1
9284000,-0.14641401,-0.21390794,-0.005465881,1
9288000,-0.14762382,-0.21405956,-0.005465881,1
9296000,-0.15001331,-0.20057286,-0.005465881,1
9300000,-0.15118158,-0.2007275,-0.005465881,1
9304000,-0.15240456,-0.20085688,-0.005465881,1
9308000,-0.15362918,-0.20096305,-0.005465881,1
9312000,-0.1548291,-0.20110954,-0.005465881,1
9316000,-0.15602082,-0.18761715,-0.005465881,1
9324000,-0.15837894,-0.18814144,-0.005465881,1
9328000,-0.15955363,-0.18845665,-0.005465881,1
9332000,-0.16072404,-0.18877487,-0.005465881,1
9336000,-0.1618691,-0.18912101,-0.005465881,1
9340000,-0.1630068,-0.17596221,-0.005465881,1
9344000,-0.16414484,-0.17637986,-0.005465881,1
9348000,-0.16528745,-0.1768291,-0.005465881,1
9352000,-0.16643205,-0.17735608,-0.005465881,1
9356000,-0.16757394,-0.17796533,-0.005465881,1
9360000,-0.16869901,-0.17862594,-0.005465881,1
9364000,-0.16978934,-0.16587242,-0.005465881,1
9368000,-0.17088173,-0.16655576,-0.005465881,1
9376000,-0.17307676,-0.16818948,-0.005465881,1
9380000,-0.17418517,-0.16910662,-0.005465881,1
9384000,-0.17524767,-0.17007574,-0.005465881,1
9388000,-0.17628695,-0.15781155,-0.005465881,1
9392000,-0.17737563,-0.15894249,-0.005465881,1
9396000,-0.178447,-0.16008264,-0.005465881,1
9400000,-0.17949718,-0.16125934,-0.005465881,1
9404000,-0.18058641,-0.1624901,-0.005465881,1
9408000,-0.18165441,-0.16377626,-0.005465881,1
9412000,-0.18264171,-0.15189208,-0.005465881,1
9416000,-0.18362032,-0.15329838,-0.005465881,1
9420000,-0.18463834,-0.15478718,-0.005465881,1
9424000,-0.18565653,-0.15634182,-0.005465881,1
9428000,-0.18665154,-0.15795663,-0.005465881,1
9436000,-0.18860999,-0.14807594,-0.005465881,1
9440000,-0.18958595,-0.14967738,-0.005465881,1
9444000,-0.19054109,-0.15140946,-0.005465881,1
9448000,-0.191469,-0.1532021,-0.005465881,1
9452000,-0.19240227,-0.15497684,-0.005465881,1
9460000,-0.19425969,-0.14551355,-0.005465881,1
9468000,-0.19605167,-0.14919409,-0.005465881,1
9472000,-0.19691186,-0.15107477,-0.005465881,1
9476000,-0.19775838,-0.15296355,-0.005465881,1
9480000,-0.19862717,-0.15480696,-0.005465881,1
9484000,-0.19949742,-0.14365171,-0.005465881,1
9488000,-0.2003314,-0.14557387,-0.005465881,1
9492000,-0.20114021,-0.14757755,-0.005465881,1
9496000,-0.20196734,-0.14958203,-0.005465881,1
9504000,-0.20363429,-0.15346082,-0.005465881,1
9508000,-0.20441847,-0.1424818,-0.005465881,1
9512000,-0.20522717,-0.1444152,-0.005465881,1
9516000,-0.20603794,-0.14632165,-0.005465881,1
9520000,-0.20682591,-0.14824626,-0.005465881,1
9524000,-0.20759104,-0.1501388,-0.005465881,1
9528000,-0.20832323,-0.15201998,-0.005465881,1
9532000,-0.20903623,-0.14102013,-0.005465881,1
9536000,-0.20975985,-0.14292806,-0.005465881,1
9540000,-0.21046594,-0.1447841,-0.005465881,1
9544000,-0.21115743,-0.14658096,-0.005465881,1
9548000,-0.21188775,-0.14843097,-0.005465881,1
9552000,-0.21261781,-0.15034392,-0.005465881,1
9556000,-0.2133177,-0.13929193,-0.005465881,1
9560000,-0.21402016,-0.14108273,-0.005465881,1
9564000,-0.21470962,-0.1429051,-0.005465881,1
9572000,-0.21604824,-0.14645413,-0.005465881,1
9576000,-0.21670741,-0.14823271,-0.005465881,1
9580000,-0.21733981,-0.13717104,-0.005465881,1
9584000,-0.21798576,-0.1389126,-0.005465881,1
9588000,-0.21864079,-0.1405996,-0.005465881,1
9592000,-0.21928239,-0.14222641,-0.005465881,1
9596000,-0.21992114,-0.14381993,-0.005465881,1
9600000,-0.22054484,-0.1454635,-0.005465881,1
9604000,-0.22118722,-0.13429774,-0.005465881,1
9608000,-0.22185567,-0.13594718,-0.005465881,1
9612000,-0.22251242,-0.13752742,-0.005465881,1
9616000,-0.2231541,-0.13906239,-0.005465881,1
9620000,-0.22373669,-0.14059304,-0.005465881,1
9624000,-0.22429857,-0.14209852,-0.005465881,1
9628000,-0.22487941,-0.13079676,-0.005465881,1
9636000,-0.22602665,-0.133709,-0.005465881,1
9640000,-0.22656433,-0.1350914,-0.005465881,1
9644000,-0.22708628,-0.13648473,-0.005465881,1
9648000,-0.22761321,-0.13784926,-0.005465881,1
9652000,-0.22816062,-0.12635016,-0.005465881,1
9656000,-0.2287053,-0.12769094,-0.005465881,1
9660000,-0.22923902,-0.12908947,-0.005465881,1
9668000,-0.2302558,-0.13185723,-0.005465881,1
9672000,-0.2307693,-0.13318112,-0.005465881,1
9676000,-0.23129341,-0.12168024,-0.005465881,1
9680000,-0.23179573,-0.12298746,-0.005465881,1
9684000,-0.23226315,-0.12425347,-0.005465881,1
9688000,-0.23277645,-0.12549841,-0.005465881,1
9696000,-0.23381004,-0.1279094,-0.005465881,1
9700000,-0.23428228,-0.11632988,-0.005465881,1
9704000,-0.23473628,-0.117537014,-0.005465881,1
9708000,-0.23520038,-0.11869596,-0.005465881,1
9716000,-0.2361241,-0.12103493,-0.005465881,1
9720000,-0.23658818,-0.12220411,-0.005465881,1
9724000,-0.2370012,-0.11053672,-0.005465881,1
9728000,-0.2374225,-0.11169243,-0.005465881,1
9732000,-0.23790868,-0.11283636,-0.005465881,1
9736000,-0.23838535,-0.11396324,-0.005465881,1
9740000,-0.23885286,-0.11510617,-0.005465881,1
9748000,-0.23971969,-0.10453526,-0.005465881,1
9752000,-0.24016598,-0.10565612,-0.005465881,1
9756000,-0.24060886,-0.1068067,-0.005465881,1
9760000,-0.24105784,-0.10796498,-0.005465881,1
9764000,-0.24147655,-0.109091714,-0.005465881,1
9768000,-0.24190067,-0.11019946,-0.005465881,1
9772000,-0.24231829,-0.0984283,-0.005465881,1
9776000,-0.24272223,-0.09950756,-0.005465881,1
9780000,-0.24315313,-0.10059204,-0.005465881,1
9784000,-0.24360162,-0.101653986,-0.005465881,1
9788000,-0.24404922,-0.10271655,-0.005465881,1
9796000,-0.24485026,-0.09199128,-0.005465881,1
9800000,-0.24525833,-0.09311917,-0.005465881,1
9804000,-0.24567825,-0.09425941,-0.005465881,1
9808000,-0.24610005,-0.09539299,-0.005465881,1
9812000,-0.24651991,-0.09646781,-0.005465881,1
9816000,-0.24694195,-0.097540095,-0.005465881,1
9820000,-0.24736406,-0.08575047,-0.005465881,1
9828000,-0.24813367,-0.08798881,-0.005465881,1
9832000,-0.24853064,-0.08912122,-0.005465881,1
9836000,-0.24893996,-0.09022991,-0.005465881,1
9840000,-0.24932648,-0.0913489,-0.005465881,1
9844000,-0.24968383,-0.07953142,-0.005465881,1
9848000,-0.2500575,-0.080659874,-0.005465881,1
9852000,-0.2504627,-0.081798166,-0.005465881,1
9856000,-0.25087163,-0.08291301,-0.005465881,1
9860000,-0.2512712,-0.08405559,-0.005465881,1
9864000,-0.25167882,-0.0852129,-0.005465881,1
9868000,-0.25209635,-0.07339814,-0.005465881,1
9872000,-0.25249586,-0.07457905,-0.005465881,1
9876000,-0.25290242,-0.075740255,-0.005465881,1
9880000,-0.25329748,-0.076947086,-0.005465881,1
9884000,-0.25367865,-0.0781994,-0.005465881,1
9888000,-0.25406498,-0.07946072,-0.005465881,1
9892000,-0.25443652,-0.06772973,-0.005465881,1
9896000,-0.2547819,-0.06899539,-0.005465881,1
9900000,-0.255149,-0.070247784,-0.005465881,1
9904000,-0.25555438,-0.07147469,-0.005465881,1
9908000,-0.2559589,-0.07271365,-0.005465881,1
9912000,-0.25635162,-0.073920935,-0.005465881,1
9916000,-0.25673935,-0.062121447,-0.005465881,1
9920000,-0.25711942,-0.06337208,-0.005465881,1
9924000,-0.25747153,-0.06458466,-0.005465881,1
9928000,-0.25778696,-0.06584323,-0.005465881,1
9932000,-0.2581274,-0.067074604,-0.005465881,1
9936000,-0.25852072,-0.06828873,-0.005465881,1
9940000,-0.2588864,-0.056473784,-0.005465881,1
9944000,-0.2592397,-0.05777072,-0.005465881,1
9948000,-0.25959602,-0.059059817,-0.005465881,1
9952000,-0.2599241,-0.060352214,-0.005465881,1
9956000,-0.26026508,-0.061675113,-0.005465881,1
9960000,-0.26057664,-0.06295985,-0.005465881,1
9964000,-0.26090476,-0.05114952,-0.005465881,1
9968000,-0.26127124,-0.05249867,-0.005465881,1
9972000,-0.2616268,-0.05384365,-0.005465881,1
9980000,-0.2623156,-0.056371618,-0.005465881,1
9988000,-0.2629445,-0.045840513,-0.005465881,1
9992000,-0.2632795,-0.047148507,-0.005465881,1
9996000,-0.26363826,-0.048459213,-0.005465881,1
10000000,-0.26399133,-0.049772117,-0.005465881,1
10004000,-0.26431417,-0.051112164,-0.005465881,1
10008000,-0.26463997,-0.05248833,-0.005465881,1
10012000,-0.26499444,-0.040647294,-0.005465881,1
10016000,-0.2653454,-0.041969467,-0.005465881,1
10020000,-0.26568526,-0.043306854,-0.005465881,1
10028000,-0.26633918,-0.04595748,-0.005465881,1
10032000,-0.26663372,-0.047321245,-0.005465881,1
10036000,-0.2669277,-0.035424538,-0.005465881,1
10040000,-0.26725286,-0.036749247,-0.005465881,1
10044000,-0.2675801,-0.038093764,-0.005465881,1
10048000,-0.26786917,-0.039444715,-0.005465881,1
10052000,-0.2681244,-0.040816464,-0.005465881,1
10056000,-0.2684055,-0.042228345,-0.005465881,1
10060000,-0.26869625,-0.030330108,-0.005465881,1
10064000,-0.26898867,-0.03170124,-0.005465881,1
10068000,-0.26929238,-0.033075955,-0.005465881,1
10076000,-0.2698841,-0.035735227,-0.005465881,1
10080000,-0.27017373,-0.037088852,-0.005465881,1
10084000,-0.2704594,-0.025153097,-0.005465881,1
10088000,-0.27075273,-0.02656931,-0.005465881,1
10092000,-0.27103797,-0.027963186,-0.005465881,1
10096000,-0.27132478,-0.029337965,-0.005465881,1
10100000,-0.27162337,-0.030709727,-0.005465881,1
10104000,-0.2718807,-0.032103058,-0.005465881,1
10108000,-0.27211082,-0.020128256,-0.005465881,1
10116000,-0.27264407,-0.02280051,-0.005465881,1
10120000,-0.27291068,-0.024168069,-0.005465881,1
10124000,-0.27314928,-0.025554975,-0.005465881,1
10128000,-0.2734159,-0.026908223,-0.005465881,1
10132000,-0.27370635,-0.014872923,-0.005465881,1
10140000,-0.27415812,-0.017543107,-0.005465881,1
10144000,-0.27435192,-0.018856216,-0.005465881,1
10148000,-0.2745717,-0.020183135,-0.005465881,1
10152000,-0.27482644,-0.02153726,-0.005465881,1
10156000,-0.27503702,-0.00951141,-0.005465881,1
10164000,-0.27550572,-0.012288613,-0.005465881,1
10168000,-0.27570844,-0.013646203,-0.005465881,1
10172000,-0.2759243,-0.0149612,-0.005465881,1
10180000,-0.2763757,-0.004208644,-0.005465881,1
10184000,-0.27659723,-0.005538735,-0.005465881,1
10188000,-0.2767827,-0.00688795,-0.005465881,1
10192000,-0.27695915,-0.008280862,-0.005465881,1
10196000,-0.27717212,-0.009666253,-0.005465881,1
10200000,-0.2773898,-0.010972137,-0.005465881,1
10204000,-0.27759367,0.001270881,-0.005465881,1
10208000,-0.27779672,-7.34E-05,-0.005465881,1
10212000,-0.2779652,-0.00142561,-0.005465881,1
10216000,-0.27812797,-0.002755101,-0.005465881,1
10220000,-0.2783011,-0.004091413,-0.005465881,1
10224000,-0.27849162,-0.005424832,-0.005465881,1
10228000,-0.2787639,0.006838218,-0.005465881,1
10232000,-0.27901646,0.005527232,-0.005465881,1
10236000,-0.27923846,0.004228863,-0.005465881,1
10240000,-0.27944958,0.002902953,-0.005465881,1
10244000,-0.2796632,0.001562497,-0.005465881,1
10248000,-0.27990347,0.000279925,-0.005465881,1
10252000,-0.2801328,0.012620428,-0.005465881,1
10256000,-0.28029874,0.011306523,-0.005465881,1
10260000,-0.28048128,0.010063831,-0.005465881,1
10264000,-0.2806878,0.008785147,-0.005465881,1
10268000,-0.28087026,0.007447647,-0.005465881,1
10272000,-0.28106108,0.006153331,-0.005465881,1
10276000,-0.28124586,0.018522495,-0.005465881,1
10284000,-0.28161615,0.015968671,-0.005465881,1
10288000,-0.28179887,0.014636187,-0.005465881,1
10292000,-0.28198898,0.013326457,-0.005465881,1
10296000,-0.28215116,0.012035964,-0.005465881,1
10300000,-0.28229213,0.024466708,-0.005465881,1
10304000,-0.28243813,0.023161972,-0.005465881,1
10308000,-0.28262553,0.021847887,-0.005465881,1
10316000,-0.28303888,0.019165747,-0.005465881,1
10320000,-0.28321636,0.017870827,-0.005465881,1
10324000,-0.28341287,0.030342197,-0.005465881,1
10328000,-0.28360772,0.029076817,-0.005465881,1
10332000,-0.2837979,0.02780013,-0.005465881,1
10336000,-0.28398117,0.026508704,-0.005465881,1
10340000,-0.2841653,0.025242109,-0.005465881,1
10344000,-0.28435996,0.023972312,-0.005465881,1
10348000,-0.2845631,0.03648318,-0.005465881,1
10352000,-0.28474745,0.035200328,-0.005465881,1
10356000,-0.28493512,0.033898592,-0.005465881,1
10360000,-0.2851605,0.032594502,-0.005465881,1
10364000,-0.28535846,0.031341214,-0.005465881,1
10368000,-0.28553563,0.030072495,-0.005465881,1
10372000,-0.28573653,0.042630862,-0.005465881,1
10376000,-0.28592557,0.041332014,-0.005465881,1
10380000,-0.28607228,0.040012944,-0.005465881,1
10388000,-0.28644007,0.037373036,-0.005465881,1
10392000,-0.28656706,0.036100708,-0.005465881,1
10396000,-0.28672248,0.0487496,-0.005465881,1
10400000,-0.2868717,0.047477737,-0.005465881,1
10404000,-0.28703263,0.046216425,-0.005465881,1
10408000,-0.28722912,0.04493297,-0.005465881,1
10412000,-0.28739548,0.043662377,-0.005465881,1
10416000,-0.28752705,0.04237255,-0.005465881,1
10420000,-0.2876606,0.055025805,-0.005465881,1
10424000,-0.287819,0.05376989,-0.005465881,1
10428000,-0.28798905,0.05250966,-0.005465881,1
10432000,-0.288183,0.051210735,-0.005465881,1
10436000,-0.28842342,0.0498968,-0.005465881,1
10440000,-0.28867573,0.048567254,-0.005465881,1
10444000,-0.2889254,0.061242495,-0.005465881,1
10448000,-0.2891757,0.05997167,-0.005465881,1
10452000,-0.2894215,0.058719527,-0.005465881,1
10456000,-0.2896571,0.0574133,-0.005465881,1
10460000,-0.2898778,0.056083646,-0.005465881,1
10468000,-0.2902776,0.06751663,-0.005465881,1
10472000,-0.29045367,0.066176854,-0.005465881,1
10476000,-0.29063094,0.06483466,-0.005465881,1
10480000,-0.29085052,0.06348787,-0.005465881,1
10484000,-0.29108375,0.06216001,-0.005465881,1
10488000,-0.29131097,0.06082987,-0.005465881,1
10492000,-0.29152077,0.073575824,-0.005465881,1
10496000,-0.29167807,0.07223602,-0.005465881,1
10500000,-0.29183483,0.07082757,-0.005465881,1
10508000,-0.2922301,0.06812603,-0.005465881,1
10516000,-0.29271176,0.07961832,-0.005465881,1
10520000,-0.29292548,0.07827385,-0.005465881,1
10524000,-0.29313335,0.07692609,-0.005465881,1
10528000,-0.29332834,0.075578324,-0.005465881,1
10532000,-0.29351988,0.07423025,-0.005465881,1
10536000,-0.29372725,0.07285912,-0.005465881,1
10540000,-0.29393405,0.08565223,-0.005465881,1
10544000,-0.29412442,0.08430296,-0.005465881,1
10548000,-0.29427907,0.08295172,-0.005465881,1
10552000,-0.29440227,0.08159959,-0.005465881,1
10556000,-0.29452524,0.080251634,-0.005465881,1
10560000,-0.29465804,0.07885782,-0.005465881,1
10564000,-0.29481906,0.091632366,-0.005465881,1
10568000,-0.29502645,0.09025377,-0.005465881,1
10572000,-0.29521775,0.0888408,-0.005465881,1
10580000,-0.2955731,0.08593922,-0.005465881,1
10588000,-0.29591602,0.09737847,-0.005465881,1
10596000,-0.29621097,0.09454797,-0.005465881,1
10600000,-0.29638574,0.09314243,-0.005465881,1
10604000,-0.2965346,0.09172691,-0.005465881,1
10608000,-0.29669416,0.09026652,-0.005465881,1
10612000,-0.29689753,0.103121385,-0.005465881,1
10616000,-0.29709205,0.101724684,-0.005465881,1
10620000,-0.29727075,0.10031982,-0.005465881,1
10628000,-0.2975789,0.09746005,-0.005465881,1
10632000,-0.2977348,0.096058264,-0.005465881,1
10636000,-0.29792643,0.10890611,-0.005465881,1
10640000,-0.2981123,0.107468046,-0.005465881,1
10644000,-0.29826954,0.10606809,-0.005465881,1
10648000,-0.29841307,0.10461148,-0.005465881,1
10652000,-0.29862624,0.10317167,-0.005465881,1
10656000,-0.2988452,0.10173903,-0.005465881,1
10660000,-0.29903314,0.1146221,-0.005465881,1
10664000,-0.2992298,0.11319638,-0.005465881,1
10668000,-0.2994285,0.11179276,-0.005465881,1
10672000,-0.2996255,0.110380694,-0.005465881,1
10680000,-0.2999642,0.1074793,-0.005465881,1
10684000,-0.30011287,0.12043242,-0.005465881,1
10692000,-0.3004599,0.11760554,-0.005465881,1
10700000,-0.3008116,0.11482648,-0.005465881,1
10704000,-0.3010042,0.11339751,-0.005465881,1
10708000,-0.3011925,0.1263256,-0.005465881,1
10712000,-0.3013488,0.12483567,-0.005465881,1
10716000,-0.30151883,0.12340323,-0.005465881,1
10720000,-0.30166832,0.121994846,-0.005465881,1
10724000,-0.30179366,0.12052013,-0.005465881,1
10728000,-0.30193442,0.119027585,-0.005465881,1
10732000,-0.30205488,0.13199332,-0.005465881,1
10736000,-0.30214408,0.13056192,-0.005465881,1
10740000,-0.30222777,0.12910362,-0.005465881,1
10744000,-0.30231947,0.12763412,-0.005465881,1
10748000,-0.3024026,0.12614205,-0.005465881,1
10752000,-0.30251896,0.124624856,-0.005465881,1
10756000,-0.30268216,0.13758586,-0.005465881,1
10760000,-0.30282956,0.13606879,-0.005465881,1
10764000,-0.30295897,0.13452855,-0.005465881,1
10768000,-0.30311567,0.13303745,-0.005465881,1
10772000,-0.30322844,0.13156965,-0.005465881,1
10780000,-0.30341932,0.14304708,-0.005465881,1
10784000,-0.3035387,0.14154047,-0.005465881,1
10788000,-0.3036693,0.1400464,-0.005465881,1
10792000,-0.30379677,0.13850513,-0.005465881,1
10796000,-0.30392045,0.137015,-0.005465881,1
10804000,-0.3042468,0.14850464,-0.005465881,1
10808000,-0.30439588,0.14699745,-0.005465881,1
10812000,-0.3045128,0.14550075,-0.005465881,1
10816000,-0.3046283,0.1440476,-0.005465881,1
10820000,-0.3047392,0.14259234,-0.005465881,1
10828000,-0.3049206,0.15416814,-0.005465881,1
10832000,-0.305003,0.1526899,-0.005465881,1
10836000,-0.30508578,0.15119494,-0.005465881,1
10840000,-0.30517676,0.14971907,-0.005465881,1
10844000,-0.30533358,0.14826886,-0.005465881,1
10848000,-0.30550665,0.146817,-0.005465881,1
10852000,-0.30564287,0.15989102,-0.005465881,1
10860000,-0.30597934,0.15701586,-0.005465881,1
10864000,-0.30615193,0.1555608,-0.005465881,1
10868000,-0.30633163,0.15411961,-0.005465881,1
10872000,-0.3065117,0.15264745,-0.005465881,1
10876000,-0.30668974,0.16566604,-0.005465881,1
10880000,-0.3068763,0.16413736,-0.005465881,1
10884000,-0.30704498,0.16266136,-0.005465881,1
10888000,-0.30719465,0.16115661,-0.005465881,1
10892000,-0.30734423,0.15960807,-0.005465881,1
10896000,-0.30749154,0.15810795,-0.005465881,1
10900000,-0.30763426,0.17121765,-0.005465881,1
10904000,-0.3077905,0.16971348,-0.005465881,1
10908000,-0.3079297,0.1681982,-0.005465881,1
10916000,-0.30817112,0.16522324,-0.005465881,1
10924000,-0.30843207,0.1769466,-0.005465881,1
10928000,-0.30857196,0.17545798,-0.005465881,1
10932000,-0.3086931,0.17395209,-0.005465881,1
10936000,-0.30877417,0.1724542,-0.005465881,1
10940000,-0.30888367,0.17093533,-0.005465881,1
10944000,-0.30899763,0.16939351,-0.005465881,1
10948000,-0.30909616,0.17455125,-0.005465881,1
10952000,-0.30920255,0.17303205,-0.005465881,1
10956000,-0.3093244,0.17150736,-0.005465881,1
10960000,-0.30947313,0.17003061,-0.005465881,1
10964000,-0.30961645,0.16852635,-0.005465881,1
10968000,-0.30976516,0.16697316,-0.005465881,1
10972000,-0.309928,0.16537486,-0.005465881,1
10980000,-0.31014144,0.16234852,-0.005465881,1
10988000,-0.31030723,0.15935427,-0.005465881,1
10992000,-0.31039178,0.15787613,-0.005465881,1
10996000,-0.31048986,0.15638518,-0.005465881,1
11000000,-0.31059998,0.1549598,-0.005465881,1
11004000,-0.31074777,0.153553,-0.005465881,1
11008000,-0.31089035,0.15213233,-0.005465881,1
11012000,-0.3110147,0.15068363,-0.005465881,1
11016000,-0.3111509,0.14920044,-0.005465881,1
11020000,-0.84502035,0.16844946,0.0537089,1
11024000,-0.84518933,0.1670057,0.054011818,1
11028000,-0.8453631,0.16555831,0.054316342,1
11032000,-0.8454398,0.16412589,0.05460106,1
11036000,-0.84533757,0.162717,0.054849595,1
11040000,-0.8450518,0.16128376,0.055069756,1
11044000,-0.83408344,0.15980987,0.055270933,1
11048000,-0.8334199,0.15826361,0.05544328,1
11052000,-0.8325658,0.15670976,0.055581413,1
11060000,-0.83044404,0.1536988,0.05575995,1
11068000,-0.8337762,0.1506448,0.0558168,1
11072000,-0.8322233,0.14912263,0.055812024,1
11076000,-0.83055806,0.14758351,0.05578717,1
11080000,-0.82874626,0.14607897,0.055726312,1
11084000,-0.8268028,0.14455234,0.055642284,1
11088000,-0.82478124,0.14300358,0.055544708,1
11092000,-0.82852876,0.14152735,0.05559106,1
11096000,-0.8263631,0.14000687,0.05545406,1
11100000,-0.82412136,0.13850017,0.055297114,1
11104000,-0.821784,0.1370106,0.05511592,1
11108000,-0.8193744,0.13552004,0.054917887,1
11112000,-0.8169381,0.13402393,0.054712333,1
11116000,-0.8194849,0.1325305,0.054485522,1
11120000,-0.8168681,0.13108328,0.05423043,1
11124000,-0.8142102,0.12963772,0.05396366,1
11128000,-0.81150115,0.12817183,0.053686924,1
11132000,-0.80872446,0.12671712,0.053391714,1
11136000,-0.805956,0.12529942,0.053088464,1
11140000,-0.82226,0.12389996,0.052767403,1
11144000,-0.81936604,0.12250061,0.052429803,1
11148000,-0.81646556,0.121106096,0.052086577,1
11152000,-0.81352144,0.119698465,0.05173327,1
11156000,-0.8105485,0.11831084,0.051367566,1
11160000,-0.80756605,0.11696896,0.050989427,1
11164000,-0.8087678,0.11565328,0.050600126,1
11168000,-0.805721,0.11434207,0.050197802,1
11172000,-0.8026523,0.11299378,0.04979308,1
11176000,-0.7995603,0.11164768,0.049379803,1
11180000,-0.79642206,0.11033192,0.048949424,1
11184000,-0.7932555,0.10903756,0.048506826,1
11188000,-0.79392624,0.10777655,0.048057027,1
11192000,-0.7908731,0.10658714,0.04802445,1
11196000,-0.7876766,0.105307974,0.0475577,1
11200000,-0.7845111,0.10401795,0.047095068,1
11204000,-0.7813262,0.10273315,0.04662426,1
11208000,-0.77812684,0.10155159,0.046133645,1
11212000,-0.7922998,0.10040434,0.045623727,1
11216000,-0.7890331,0.09922471,0.045112807,1
11220000,-0.78581166,0.09809693,0.04460135,1
11228000,-0.7794196,0.095914066,0.043570716,1
11236000,-0.7754755,0.093747064,0.042512555,1
11240000,-0.7721815,0.09266094,0.04196624,1
11244000,-0.7688666,0.091621816,0.041407317,1
11252000,-0.7623914,0.08965224,0.040300585,1
11260000,-0.75846076,0.08778638,0.039172657,1
11264000,-0.7552362,0.08681288,0.038611613,1
11268000,-0.7519913,0.08586584,0.03804098,1
11272000,-0.7487557,0.08492013,0.037469566,1
11276000,-0.7455181,0.0839845,0.036894128,1
11280000,-0.7423055,0.08310885,0.03631552,1
11284000,-0.74105746,0.08229764,0.03573175,1
11288000,-0.737859,0.08150127,0.03514407,1
11292000,-0.73465997,0.08073437,0.03458787,1
11296000,-0.7314323,0.079946324,0.033988494,1
11300000,-0.728234,0.07915711,0.033393256,1
11304000,-0.72504604,0.078366205,0.03279821,1
11308000,-0.7373527,0.07760416,0.032196995,1
11312000,-0.734192,0.076852,0.031600267,1
11316000,-0.7310577,0.07610169,0.031006865,1
11324000,-0.72484946,0.07468203,0.029820517,1
11328000,-0.7217431,0.07394295,0.029226303,1
11332000,-0.7197561,0.07322203,0.028634647,1
11340000,-0.71366596,0.07179175,0.027458834,1
11344000,-0.7106006,0.07109832,0.026862323,1
11348000,-0.70751494,0.07041693,0.026258873,1
11352000,-0.70449466,0.06978664,0.025664058,1
11356000,-0.70241547,0.06914651,0.025075695,1
11360000,-0.69944763,0.06848845,0.024490422,1
11364000,-0.6964429,0.067848004,0.023894558,1
11368000,-0.69341564,0.06725863,0.023289189,1
11372000,-0.69041216,0.06669281,0.022685975,1
11380000,-0.69858325,0.065575816,0.021476597,1
11388000,-0.69264996,0.06456101,0.02026957,1
11392000,-0.6897479,0.06401954,0.019767089,1
11396000,-0.68679553,0.063444,0.019163776,1
11400000,-0.6838431,0.062904246,0.01855727,1
11404000,-0.6807182,0.06238908,0.017955301,1
11408000,-0.6778183,0.06184795,0.017357307,1
11412000,-0.67492735,0.061322372,0.016759168,1
11416000,-0.67205983,0.060814317,0.01616399,1
11420000,-0.6692487,0.060269285,0.015581045,1
11424000,-0.6664518,0.059725743,0.01499969,1
11428000,-0.6632737,0.05921636,0.014411632,1
11432000,-0.66045696,0.058737658,0.013820978,1
11436000,-0.65766066,0.058241244,0.013234042,1
11440000,-0.6548525,0.057701297,0.012644633,1
11444000,-0.65205353,0.057158235,0.012055835,1
11448000,-0.6492857,0.05665731,0.011471111,1
11452000,-0.64602315,0.05621484,0.010896933,1
11460000,-0.6406107,0.055307098,0.009745576,1
11464000,-0.6379511,0.054778073,0.009179944,1
11468000,-0.6352937,0.054269053,0.008612991,1
11472000,-0.63261515,0.05379438,0.008039416,1
11476000,-0.6430369,0.053330317,0.007460618,1
11484000,-0.63768196,0.052422248,0.006307007,1
11488000,-0.6350865,0.05198847,0.005746023,1
11492000,-0.63252485,0.051541645,0.005196037,1
11500000,-0.62638414,0.05057636,0.004084854,1
11508000,-0.6212594,0.04964012,0.0029664,1
11512000,-0.6187323,0.0492101,0.002412867,1
11516000,-0.6162282,0.04875715,0.001863379,1
11520000,-0.61374974,0.048355255,0.001318195,1
11524000,-0.61003447,0.04794899,0.000765503,1
11528000,-0.6075222,0.047487397,0.000210756,1
11532000,-0.6050491,0.047082894,-0.000336485,1
11536000,-0.6026226,0.04670379,-0.000874412,1
11540000,-0.6002026,0.046285633,-0.001412022,1
11544000,-0.5977684,0.0458712,-0.001953847,1
11548000,-0.5938407,0.04546463,-0.002499674,1
11552000,-0.59140337,0.0450146,-0.003044641,1
11556000,-0.58900857,0.044582568,-0.003581171,1
11560000,-0.5866574,0.044261105,-0.004108015,1
11564000,-0.5843112,0.043950718,-0.004634484,1
11568000,-0.5819454,0.043582905,-0.005166837,1
11572000,-0.5911802,0.04319308,-0.005695229,1
11576000,-0.588861,0.042772494,-0.006219919,1
11580000,-0.5865425,0.042380482,-0.006745067,1
11584000,-0.5842059,0.04200276,-0.007275066,1
11588000,-0.581893,0.041565433,-0.007801824,1
11592000,-0.5796228,0.041117538,-0.008354009,1
11596000,-0.5752723,0.04067951,-0.00888181,1
11600000,-0.5729673,0.04028439,-0.009411401,1
11604000,-0.57069004,0.03989352,-0.009935631,1
11608000,-0.5684099,0.039500777,-0.0104616,1
11612000,-0.5661542,0.039130796,-0.010982472,1
11616000,-0.56392044,0.038729813,-0.01150017,1
11620000,-0.5592423,0.038362455,-0.012017285,1
11624000,-0.55705094,0.03799943,-0.012526278,1
11628000,-0.5548645,0.037583232,-0.013036667,1
11636000,-0.55048615,0.03681471,-0.014059844,1
11640000,-0.5482718,0.036489572,-0.014576681,1
11644000,-0.5570375,0.036149666,-0.015087817,1
11648000,-0.55492854,0.03576317,-0.015584488,1
11652000,-0.55281985,0.035401825,-0.016081136,1
11656000,-0.5506849,0.035056937,-0.0165841,1
11660000,-0.54862916,0.034720894,-0.017069414,1
11664000,-0.54663134,0.034369215,-0.017542874,1
11668000,-0.5420111,0.034014653,-0.018024432,1
11676000,-0.537967,0.03335982,-0.018984715,1
11680000,-0.5359705,0.033085424,-0.019457856,1
11684000,-0.533959,0.032789577,-0.019936131,1
11688000,-0.5319398,0.032491755,-0.020417018,1
11692000,-0.52736974,0.03220885,-0.020875234,1
11696000,-0.5253928,0.031916033,-0.021347297,1
11700000,-0.5233849,0.031638216,-0.021826549,1
11704000,-0.5213784,0.03135972,-0.022306232,1
11708000,-0.51940185,0.031098086,-0.022778824,1
11712000,-0.5174361,0.030862054,-0.023248233,1
11716000,-0.51235896,0.03063533,-0.023718577,1
11720000,-0.51041156,0.030429848,-0.024183284,1
11724000,-0.5084669,0.030214872,-0.024648463,1
11728000,-0.50654256,0.029991189,-0.025109982,1
11732000,-0.5046439,0.029795123,-0.025564505,1
11736000,-0.5027546,0.029607495,-0.026016885,1
11740000,-0.51127315,0.014254157,-0.02756929,0.39386106
11748000,-0.50759524,0.013762024,-0.028496012,0.39386106
11756000,-0.50392514,0.013251737,-0.029424496,0.39386106
11760000,-0.50204164,0.012989854,-0.029901981,0.39386106
11764000,-0.49675345,-0.002400559,-0.031598352,0.41615248
11772000,-0.49279577,-0.002934768,-0.03264261,0.41615248
11776000,-0.49070948,-0.00325612,-0.033197038,0.41615248
11780000,-0.48857838,-0.003624838,-0.033767123,0.41615248
11788000,-0.47992098,-0.01946956,-0.03627574,0.43715236
11792000,-0.47755516,-0.019820299,-0.03712666,0.43715236
11796000,-0.4752499,-0.020246832,-0.037775602,0.43715236
11804000,-0.470343,-0.021244863,-0.039168175,0.43715236
11808000,-0.4678354,-0.021765258,-0.039883137,0.43715236
11812000,-0.4607881,-0.037466824,-0.04208466,0.45745915
11816000,-0.45822883,-0.0380338,-0.0428456,0.45745915
11820000,-0.45565328,-0.038603634,-0.04361323,0.45745915
11828000,-0.4504223,-0.039848346,-0.045185614,0.45745915
11832000,-0.44777986,-0.04050791,-0.04598574,0.45745915
11836000,-0.45358917,-0.056288917,-0.048430167,0.4765817
11844000,-0.44823575,-0.0576246,-0.0501144,0.4765817
11848000,-0.44548458,-0.058296032,-0.050982226,0.4765817
11852000,-0.44272396,-0.058958873,-0.05185443,0.4765817
11856000,-0.43996903,-0.059671447,-0.05273205,0.4765817
11860000,-0.43234304,-0.07550846,-0.055388063,0.49447444
11864000,-0.4296125,-0.07620444,-0.056288365,0.49447444
11868000,-0.4268356,-0.076905616,-0.05720586,0.49447444
11872000,-0.424017,-0.07757051,-0.058135122,0.49447444
11876000,-0.4211806,-0.07823491,-0.059072323,0.49447444
11880000,-0.4183639,-0.07895242,-0.060011446,0.49447444
11884000,-0.41053417,-0.09470332,-0.06288655,0.5110977
11888000,-0.40774557,-0.09533658,-0.06384036,0.5110977
11892000,-0.4046328,-0.09587564,-0.06572585,0.5110977
11900000,-0.39914373,-0.097177036,-0.06764267,0.5110977
11904000,-0.39636305,-0.09780891,-0.0686144,0.5110977
11908000,-0.38840836,-0.113496654,-0.07167919,0.5277304
11912000,-0.38568687,-0.1140611,-0.07265517,0.5277304
11916000,-0.3829651,-0.11461712,-0.0736325,0.5277304
11920000,-0.38029328,-0.11512801,-0.07459001,0.5277304
11924000,-0.3776472,-0.11561329,-0.075537875,0.5277304
11932000,-0.3804419,-0.13162339,-0.07968706,0.54299235
11936000,-0.3777972,-0.13201176,-0.08065421,0.54299235
11940000,-0.3751899,-0.132393,-0.081609175,0.54299235
11944000,-0.37260744,-0.13273458,-0.08255224,0.54299235
11948000,-0.3699869,-0.13306765,-0.08350915,0.54299235
11952000,-0.3674017,-0.13336071,-0.084450245,0.54299235
11956000,-0.3593305,-0.14870346,-0.08778772,0.5569375
11960000,-0.35677323,-0.14893153,-0.08873837,0.5569375
11964000,-0.35421818,-0.14911912,-0.08968427,0.5569375
11968000,-0.35168785,-0.14925906,-0.09061624,0.5569375
11972000,-0.34920913,-0.1493931,-0.091529764,0.5569375
11976000,-0.34673887,-0.14948055,-0.09243509,0.5569375
11980000,-0.3386609,-0.16463605,-0.09588031,0.5695881
11984000,-0.33627048,-0.16463372,-0.096769616,0.5695881
11988000,-0.33385727,-0.16460018,-0.09766382,0.5695881
11992000,-0.33108002,-0.16437352,-0.09961477,0.5695881
11996000,-0.32873452,-0.1642835,-0.10048519,0.5695881
12000000,-0.3263944,-0.16412401,-0.101344414,0.5695881
12004000,-0.31846702,-0.17904393,-0.10488367,0.58210295
12008000,-0.3161854,-0.17881095,-0.105733305,0.58210295
12012000,-0.31389597,-0.17850226,-0.10657534,0.58210295
12016000,-0.31162643,-0.17818074,-0.10740776,0.58210295
12020000,-0.30939582,-0.17786503,-0.10822587,0.58210295
12024000,-0.30719206,-0.17752102,-0.10902937,0.58210295
12028000,-0.31281888,-0.19226627,-0.112669334,0.59339094
12036000,-0.3085447,-0.19129157,-0.11422347,0.59339094
12040000,-0.30646476,-0.19081856,-0.11497928,0.59339094
12044000,-0.3043789,-0.1902985,-0.115729965,0.59339094
12048000,-0.30230683,-0.18970808,-0.11646402,0.59339094
12052000,-0.29469174,-0.20422618,-0.12016613,0.6035162
12056000,-0.29259163,-0.20361379,-0.12092738,0.6035162
12060000,-0.29053217,-0.20295595,-0.121664405,0.6035162
12064000,-0.28850248,-0.20220202,-0.12237365,0.6035162
12068000,-0.28651744,-0.2014611,-0.12306576,0.6035162
12072000,-0.28455493,-0.20070124,-0.1237448,0.6035162
12076000,-0.27713445,-0.21504158,-0.12750912,0.61256003
12080000,-0.27517512,-0.21417019,-0.1281867,0.61256003
12084000,-0.27326474,-0.2133188,-0.12884597,0.61256003
12088000,-0.2714061,-0.21246521,-0.12948224,0.61256003
12092000,-0.26907733,-0.21130964,-0.13138796,0.61256003
12096000,-0.26723117,-0.21034057,-0.13200511,0.61256003
12100000,-0.26051491,-0.22453094,-0.13582186,0.62163204
12104000,-0.2587159,-0.22348417,-0.13642207,0.62163204
12108000,-0.25696686,-0.2224225,-0.13699697,0.62163204
12112000,-0.25523162,-0.22132914,-0.13755935,0.62163204
12116000,-0.2535201,-0.2202297,-0.13810909,0.62163204
12120000,-0.25180182,-0.21911421,-0.13865755,0.62163204
12124000,-0.24505906,-0.23322912,-0.14254367,0.6296818
12128000,-0.24335006,-0.2321339,-0.14310595,0.6296818
12132000,-0.24169074,-0.23102163,-0.14364226,0.6296818
12136000,-0.24002582,-0.22985157,-0.14416972,0.6296818
12140000,-0.23835686,-0.22865194,-0.14469232,0.6296818
12144000,-0.23671758,-0.22741242,-0.14519353,0.6296818
12148000,-0.24403188,-0.24137224,-0.14910123,0.6367826
12152000,-0.24244377,-0.24010515,-0.14958842,0.6367826
12156000,-0.24087363,-0.23888305,-0.15007377,0.6367826
12160000,-0.23936406,-0.2376328,-0.15052576,0.6367826
12164000,-0.23788449,-0.2363667,-0.15096012,0.6367826
12168000,-0.23637801,-0.23508638,-0.1514023,0.6367826
12172000,-0.23023632,-0.24903062,-0.15538606,0.64297485
12180000,-0.22729124,-0.2462461,-0.15622279,0.64297485
12184000,-0.22585443,-0.24482337,-0.15661693,0.64297485
12188000,-0.2244414,-0.24342439,-0.15700284,0.64297485
12192000,-0.22272253,-0.24182822,-0.15830623,0.64297485
12196000,-0.2167527,-0.25454947,-0.16202728,0.64897937
12200000,-0.21540439,-0.25308502,-0.16238397,0.64897937
12204000,-0.2140736,-0.2516419,-0.16273475,0.64897937
12208000,-0.21272871,-0.25019535,-0.16308965,0.64897937
12212000,-0.21139994,-0.2487431,-0.16343442,0.64897937
12216000,-0.21010049,-0.24729066,-0.16376399,0.64897937
12220000,-0.20436388,-0.24345915,-0.16350278,0.65417457
12224000,-0.20308407,-0.24190287,-0.16379863,0.65417457
12228000,-0.20178734,-0.2403474,-0.1641005,0.65417457
12232000,-0.20053345,-0.2388275,-0.16438769,0.65417457
12236000,-0.1992876,-0.23732097,-0.16467202,0.65417457
12240000,-0.1980594,-0.23585396,-0.16495407,0.65417457
12244000,-0.19240212,-0.23225896,-0.16467585,0.6586327
12248000,-0.19123149,-0.2306908,-0.1649076,0.6586327
12252000,-0.19004492,-0.2291626,-0.16515246,0.6586327
12256000,-0.1889049,-0.22767954,-0.16538328,0.6586327
12260000,-0.18775848,-0.2261898,-0.16561413,0.6586327
12264000,-0.18665205,-0.22467342,-0.16582029,0.6586327
12268000,-0.1951116,-0.22131212,-0.16552377,0.6623973
12272000,-0.19408095,-0.2198075,-0.16569372,0.6623973
12276000,-0.19305559,-0.21830535,-0.1658603,0.6623973
12280000,-0.19203754,-0.2167928,-0.16602011,0.6623973
12284000,-0.19101104,-0.21531866,-0.16618972,0.6623973
12288000,-0.18999836,-0.21383312,-0.16634949,0.6623973
12292000,-0.18460208,-0.21058774,-0.1665801,0.66552806
12296000,-0.1836282,-0.20911776,-0.16672322,0.66552806
12300000,-0.182677,-0.20766875,-0.16685908,0.66552806
12304000,-0.18171468,-0.20625499,-0.16700548,0.66552806
12312000,-0.17980611,-0.20337993,-0.16727775,0.66552806
12316000,-0.1747298,-0.20064922,-0.16705135,0.6683976
12324000,-0.17289142,-0.19789544,-0.16730742,0.6683976
12328000,-0.17201032,-0.19657864,-0.16742904,0.6683976
12332000,-0.17112829,-0.19525999,-0.16754955,0.6683976
12340000,-0.16496599,-0.19146645,-0.16747801,0.670712
12344000,-0.1641565,-0.1901836,-0.16757004,0.670712
12348000,-0.16330571,-0.18892837,-0.16768469,0.670712
12352000,-0.16244511,-0.18771298,-0.16781074,0.670712
12356000,-0.16162577,-0.18648708,-0.16791569,0.670712
12360000,-0.1608271,-0.18522964,-0.16800414,0.670712
12364000,-0.155651,-0.18294278,-0.16779394,0.6725357
12368000,-0.1548941,-0.1817592,-0.16787703,0.6725357
12372000,-0.1540949,-0.18062675,-0.16798818,0.6725357
12376000,-0.15330969,-0.17949864,-0.16809331,0.6725357
12380000,-0.1525654,-0.1783523,-0.16817608,0.6725357
12384000,-0.1518611,-0.17722744,-0.16824526,0.6725357
12388000,-0.16054258,-0.17517728,-0.16805884,0.67392665
12396000,-0.15892038,-0.1728128,-0.16887699,0.67392665
12400000,-0.15829988,-0.17173746,-0.16891839,0.67392665
12404000,-0.1576653,-0.17068073,-0.16896906,0.67392665
12408000,-0.15700139,-0.16967636,-0.16904277,0.67392665
12412000,-0.15161061,-0.16798495,-0.16892162,0.67530245
12416000,-0.15095474,-0.1670397,-0.16900274,0.67530245
12420000,-0.15032896,-0.16613367,-0.16907871,0.67530245
12424000,-0.14973585,-0.16518192,-0.16913038,0.67530245
12428000,-0.14914358,-0.16421792,-0.16917852,0.67530245
12432000,-0.14856929,-0.16330448,-0.16922922,0.67530245
12436000,-0.14325576,-0.16177572,-0.1691073,0.6762806
12440000,-0.14268512,-0.16087222,-0.16915727,0.6762806
12444000,-0.14210555,-0.15995653,-0.16920787,0.6762806
12448000,-0.14154646,-0.15907839,-0.16925731,0.6762806
12452000,-0.14104594,-0.15824649,-0.16929132,0.6762806
12460000,-0.13497114,-0.15606673,-0.16924655,0.67690957
12464000,-0.1344253,-0.15522477,-0.16929612,0.67690957
12468000,-0.13393056,-0.154449,-0.1693379,0.67690957
12472000,-0.13345598,-0.15371564,-0.16937995,0.67690957
12476000,-0.13298097,-0.15297368,-0.16941999,0.67690957
12480000,-0.13252145,-0.15225343,-0.16945782,0.67690957
12484000,-0.12707181,-0.15100403,-0.16935262,0.6772278
12488000,-0.1266011,-0.15023558,-0.16938382,0.6772278
12492000,-0.12615539,-0.14953153,-0.1693874,0.6772278
12496000,-0.12570731,-0.14886251,-0.16943005,0.6772278
12500000,-0.12528661,-0.14817148,-0.16945605,0.6772278
12504000,-0.12490408,-0.14746936,-0.16946323,0.6772278
12508000,-0.11945985,-0.14634806,-0.1693341,0.6772452
12516000,-0.1187409,-0.14508137,-0.16935776,0.6772452
12520000,-0.11837728,-0.14446354,-0.16937439,0.6772452
12524000,-0.118028596,-0.1438503,-0.16938555,0.6772452
12528000,-0.11774024,-0.14322321,-0.16936812,0.6772452
12532000,-0.12635389,-0.14217818,-0.16923572,0.6769833
12536000,-0.12600988,-0.14159311,-0.16925037,0.6769833
12540000,-0.125687,-0.14102057,-0.16925874,0.6769833
12544000,-0.12539662,-0.14041832,-0.16924675,0.6769833
12548000,-0.12510094,-0.13985401,-0.16924524,0.6769833
12552000,-0.12480174,-0.13930841,-0.16924913,0.6769833
12556000,-0.119160324,-0.13840139,-0.1691458,0.6764817
12564000,-0.118621215,-0.13734567,-0.16913576,0.6764817
12568000,-0.11829555,-0.13673781,-0.16913608,0.6764817
12572000,-0.117998265,-0.13614477,-0.16912767,0.6764817
12580000,-0.11203346,-0.13461834,-0.16899988,0.6757612
12588000,-0.11149205,-0.1335708,-0.1689905,0.6757612
12592000,-0.11120674,-0.13311341,-0.16900653,0.6757612
12596000,-0.11093383,-0.13257438,-0.16910084,0.6757612
12600000,-0.11070723,-0.13197958,-0.16906148,0.6757612
12604000,-0.10477593,-0.13114798,-0.16894141,0.6749179
12612000,-0.10438203,-0.13006827,-0.16886199,0.6749179
12616000,-0.104219474,-0.12953363,-0.16880901,0.6749179
12620000,-0.104053736,-0.12901378,-0.16876058,0.6749179
12624000,-0.10385461,-0.12851687,-0.16873102,0.6749179
12628000,-0.09807637,-0.12776828,-0.16862033,0.6739037
12632000,-0.097927704,-0.12728328,-0.16857234,0.6739037
12636000,-0.0978205,-0.12680103,-0.16850778,0.6739037
12640000,-0.09769522,-0.12627876,-0.1684416,0.6739037
12644000,-0.097558334,-0.1257296,-0.16837399,0.6739037
12648000,-0.09743276,-0.12521034,-0.16830839,0.6739037
12652000,-0.09146675,-0.12451796,-0.16820905,0.6727306
12656000,-0.091290936,-0.12404956,-0.16817544,0.6727306
12660000,-0.09113383,-0.123619795,-0.16814277,0.6727306
12664000,-0.09096395,-0.123188324,-0.16811489,0.6727306
12668000,-0.09079239,-0.12274121,-0.16808406,0.6727306
12672000,-0.090641476,-0.12232065,-0.16805068,0.6727306
12676000,-0.0847839,-0.121640936,-0.16793844,0.67145
12680000,-0.084673546,-0.12116023,-0.1678746,0.67145
12684000,-0.08461822,-0.120684735,-0.16778931,0.67145
12692000,-0.08451581,-0.11971289,-0.16761042,0.67145
12696000,-0.08443664,-0.11922763,-0.1674735,0.67145
12700000,-0.09287484,-0.11849438,-0.16733234,0.67003345
12708000,-0.092710696,-0.11760401,-0.1671967,0.67003345
12712000,-0.092653066,-0.11717606,-0.16712275,0.67003345
12716000,-0.092561685,-0.11679155,-0.16707243,0.67003345
12724000,-0.08676654,-0.11566578,-0.16685829,0.66852057
12728000,-0.08670625,-0.11518681,-0.1667736,0.66852057
12731999,-0.086672686,-0.11472857,-0.1666827,0.66852057
12736000,-0.08666118,-0.11423286,-0.16657421,0.66852057
12740000,-0.08661729,-0.11376332,-0.16648483,0.66852057
12744000,-0.08656482,-0.11329749,-0.16639976,0.66852057
12751999,-0.08052853,-0.112255305,-0.16618803,0.66687864
12756000,-0.080504715,-0.11178115,-0.1660893,0.66687864
12760000,-0.08044109,-0.1112762,-0.1659996,0.66687864
12763999,-0.08036619,-0.110810526,-0.16592343,0.66687864
12768000,-0.08031732,-0.110359035,-0.16583988,0.66687864
12772000,-0.07437214,-0.10972318,-0.16569464,0.66519976
12776000,-0.074363604,-0.10927233,-0.16559486,0.66519976
12780000,-0.074345335,-0.1088423,-0.16550374,0.66519976
12783999,-0.07435234,-0.108400345,-0.16539963,0.66519976
12788000,-0.074409425,-0.10797009,-0.16527799,0.66519976
12795999,-0.068202555,-0.10690449,-0.16562694,0.6637334
12804000,-0.06815407,-0.10598299,-0.16543555,0.6637334
12808000,-0.06815357,-0.10555463,-0.16533762,0.6637334
12812000,-0.068166256,-0.10510999,-0.16523063,0.6637334
12815999,-0.068160415,-0.104666814,-0.16513143,0.6637334
12824000,-0.062164582,-0.10377589,-0.1649074,0.66223294
12827999,-0.062213216,-0.10337971,-0.16479698,0.66223294
12836000,-0.0622865,-0.1025587,-0.16457921,0.66223294
12840000,-0.06231784,-0.10211786,-0.16446552,0.66223294
12844000,-0.056283757,-0.10161101,-0.16433057,0.6606566
12852000,-0.056360967,-0.100733325,-0.16409822,0.6606566
12856000,-0.05638509,-0.10029374,-0.16398767,0.6606566
12859999,-0.056445073,-0.099837616,-0.16385894,0.6606566
12864000,-0.05652622,-0.09940563,-0.16372727,0.6606566
12868000,-0.05044031,-0.09891641,-0.16357854,0.65908015
12872000,-0.050517555,-0.09855971,-0.16346575,0.65908015
12876000,-0.050598122,-0.09818411,-0.1633473,0.65908015
12879999,-0.05066206,-0.0977483,-0.1632217,0.65908015
12888000,-0.05085538,-0.096892655,-0.1629481,0.65908015
12891999,-0.045094427,-0.09648217,-0.16244899,0.65747064
12896000,-0.045205593,-0.09604025,-0.1623032,0.65747064
12900000,-0.045284875,-0.095584065,-0.16216685,0.65747064
12904000,-0.045370705,-0.09518662,-0.1620414,0.65747064
12908000,-0.045461413,-0.094790846,-0.16191442,0.65747064
12916000,-0.0542767,-0.09382426,-0.16160375,0.6556721
12923999,-0.05444701,-0.09300122,-0.1613471,0.6556721
12928000,-0.05455449,-0.09262928,-0.16121906,0.6556721
12932000,-0.05464655,-0.09223967,-0.16109312,0.6556721
12936000,-0.054765876,-0.09178926,-0.1609424,0.6556721
12940000,-0.048912082,-0.09125411,-0.16076508,0.6538178
12943999,-0.049017776,-0.09088719,-0.16063902,0.6538178
12948000,-0.0491264,-0.0905422,-0.16051686,0.6538178
12952000,-0.049246315,-0.090138935,-0.16037688,0.6538178
12955999,-0.049359106,-0.08973407,-0.1602394,0.6538178
12960000,-0.049481314,-0.08939916,-0.1601143,0.6538178
12964000,-0.04349853,-0.08895555,-0.15995811,0.65199906
12972000,-0.043725405,-0.08826886,-0.15971108,0.65199906
12975999,-0.04385759,-0.08792356,-0.1595798,0.65199906
12980000,-0.04400448,-0.08754377,-0.15943485,0.65199906
12987999,-0.03835238,-0.08665871,-0.15908605,0.6501573
12992000,-0.03850151,-0.08632087,-0.15898398,0.6501573
12996000,-0.038645435,-0.085924424,-0.15883659,0.6501573
13000000,-0.03879839,-0.0855241,-0.15868479,0.6501573
13004000,-0.03897855,-0.085174754,-0.15853408,0.6501573
13007999,-0.039167114,-0.08482392,-0.1583798,0.6501573
13012000,-0.033169515,-0.08429044,-0.15818653,0.64835316
13016000,-0.033314396,-0.08389835,-0.15803999,0.64835316
13019999,-0.03346163,-0.08355978,-0.15790486,0.64835316
13024000,-0.033612873,-0.08322406,-0.15776885,0.64835316
13028000,-0.033774897,-0.08290021,-0.1576314,0.64835316
13032000,-0.033978168,-0.08258586,-0.15748006,0.64835316
13036000,-0.02804451,-0.082110286,-0.15728766,0.64650023
13039999,-0.028233059,-0.08174254,-0.15712997,0.64650023
13044000,-0.028434392,-0.08144681,-0.15698385,0.64650023
13048000,-0.028616078,-0.08114762,-0.15684468,0.64650023
13051999,-0.028785836,-0.080808945,-0.15670113,0.64650023
13060000,-0.022980005,-0.07997587,-0.15632556,0.6446983
13064000,-0.023234095,-0.079632536,-0.1561484,0.6446983
13068000,-0.023455705,-0.07931009,-0.1559887,0.6446983
13071999,-0.023671053,-0.07900201,-0.1558348,0.6446983
13076000,-0.023894232,-0.07868318,-0.15567546,0.6446983
13080000,-0.02411345,-0.07837576,-0.15552032,0.6446983
13083999,-0.01829426,-0.07795039,-0.15531039,0.6428907
13088000,-0.018584244,-0.07770434,-0.15514202,0.6428907
13092000,-0.018779017,-0.07737833,-0.15523043,0.6428907
13100000,-0.019230247,-0.07680592,-0.15492542,0.6428907
13103999,-0.01948388,-0.07652654,-0.15476376,0.6428907
13108000,-0.013619736,-0.076161236,-0.15456359,0.6412522
13115999,-0.014208455,-0.075657696,-0.15422174,0.6412522
13120000,-0.0144713,-0.075380325,-0.1540573,0.6412522
13124000,-0.014710199,-0.0751167,-0.15390529,0.6412522
13132000,-0.009126466,-0.07456279,-0.1535497,0.6395762
13140000,-0.009665992,-0.07401948,-0.1532188,0.6395762
13144000,-0.009975318,-0.073795155,-0.15304899,0.6395762
13147999,-0.010265652,-0.07356568,-0.15288536,0.6395762
13152000,-0.010586891,-0.073317975,-0.15270585,0.6395762
13156000,-0.004681584,-0.072925836,-0.15248461,0.6379626
13160000,-0.0049791,-0.07265374,-0.15230888,0.6379626
13164000,-0.005285498,-0.072426036,-0.15213987,0.6379626
13172000,-0.005971927,-0.071998075,-0.15178005,0.6379626
13176000,-0.006333735,-0.071844794,-0.15160686,0.6379626
13180000,-0.000589121,-0.07154499,-0.15139227,0.6363487
13184000,-0.000964817,-0.0713595,-0.15120667,0.6363487
13188000,-0.001294531,-0.07118721,-0.15104175,0.6363487
13192000,-0.001550991,-0.070931226,-0.1511695,0.6363487
13196000,-0.001925279,-0.070764184,-0.15098864,0.6363487
13199999,-0.002285112,-0.07056482,-0.15080617,0.6363487
13204000,0.003649181,-0.07030219,-0.15060258,0.6349189
13212000,0.002879372,-0.07000968,-0.15024275,0.6349189
13216000,0.002481224,-0.069849536,-0.1500548,0.6349189
13219999,0.002076015,-0.069666356,-0.1498591,0.6349189
13224000,0.001668245,-0.0694758,-0.1496609,0.6349189
13228000,-0.008019108,-0.069207,-0.14944488,0.6334443
13231999,-0.008435141,-0.0689663,-0.14923258,0.6334443
13236000,-0.008841291,-0.06880014,-0.14904079,0.6334443
13244000,-0.009673428,-0.06854053,-0.14866605,0.6334443
13248000,-0.010071389,-0.068407014,-0.14848489,0.6334443
13252000,-0.004259292,-0.068155706,-0.14827494,0.6320121
13256000,-0.004676707,-0.068041466,-0.14809087,0.6320121
13260000,-0.005090572,-0.06794631,-0.14791241,0.6320121
13268000,-0.00588778,-0.067707315,-0.14755662,0.6320121
13276000,-0.000628065,-0.06747843,-0.14718038,0.63059187
13283999,-0.001438268,-0.06729378,-0.14683227,0.63059187
13288000,-0.001860142,-0.06713249,-0.14663681,0.63059187
13292000,-0.002219014,-0.06690671,-0.14672641,0.63059187
13295999,-0.002665084,-0.06681876,-0.1465378,0.63059187
13304000,0.002444014,-0.06658797,-0.14614658,0.6293562
13308000,0.002025416,-0.06643438,-0.1459543,0.6293562
13312000,0.001617894,-0.066339545,-0.14577913,0.6293562
13315999,0.001199421,-0.0662332,-0.1455974,0.6293562
13324000,0.006070152,-0.06608773,-0.14521728,0.6280838
13327999,0.005609341,-0.06603714,-0.14503188,0.6280838
13332000,0.0051945,-0.065942794,-0.14485443,0.6280838
13340000,0.004387997,-0.06571419,-0.14449987,0.6280838
13344000,0.004002145,-0.06561208,-0.14433193,0.6280838
13347999,0.009471606,-0.065433726,-0.14411664,0.626858
13352000,0.008991228,-0.06535104,-0.14391737,0.626858
13356000,0.008532967,-0.06528837,-0.14373086,0.626858
13359999,0.00806874,-0.06518842,-0.14353415,0.626858
13364000,0.007565001,-0.06512076,-0.14332958,0.626858
13368000,0.007061539,-0.065085575,-0.14313217,0.626858
13372000,0.012413202,-0.064979136,-0.14292182,0.6256197
13379999,0.011420656,-0.06488183,-0.14252707,0.6256197
13384000,0.011008326,-0.06479492,-0.1423532,0.6256197
13388000,0.010560472,-0.06468689,-0.14216152,0.6256197
13396000,0.015435318,-0.06444514,-0.14182596,0.62443537
13400000,0.014958454,-0.06440967,-0.14163907,0.62443537
13404000,0.014488444,-0.06435559,-0.14145084,0.62443537
13408000,0.013984572,-0.06427879,-0.14124513,0.62443537
13411999,0.013463091,-0.06421004,-0.14103457,0.62443537
13420000,0.018230448,-0.06412882,-0.1406476,0.62321424
13423999,0.017727254,-0.06410825,-0.1404544,0.62321424
13428000,0.017226476,-0.0640729,-0.14025903,0.62321424
13432000,0.016733555,-0.06401499,-0.1400619,0.62321424
13436000,0.016223527,-0.06388733,-0.13984372,0.62321424
13440000,0.015705332,-0.06377557,-0.13962594,0.62321424
13443999,0.021028385,-0.063629515,-0.13940442,0.6220471
13452000,0.020036662,-0.063421994,-0.13898951,0.6220471
13460000,0.019016333,-0.06325802,-0.13857345,0.6220471
13464000,0.018476851,-0.06319137,-0.1383578,0.6220471
13468000,0.023640966,-0.06307246,-0.1381306,0.6208845
13475999,0.022594543,-0.06292348,-0.1377087,0.6208845
13480000,0.022073712,-0.0628375,-0.1374964,0.6208845
13484000,0.021547683,-0.06275968,-0.13728395,0.6208845
13488000,0.021003326,-0.062687665,-0.13706596,0.6208845
13492000,0.026168212,-0.06262754,-0.13671002,0.6197436
13496000,0.02564656,-0.062558144,-0.1365014,0.6197436
13500000,0.025078794,-0.062415257,-0.1362605,0.6197436
13504000,0.024485573,-0.062271193,-0.13601002,0.6197436
13508000,0.023948444,-0.06219741,-0.13579506,0.6197436
13516000,0.028372275,-0.062079165,-0.13535477,0.61854947
13520000,0.027772948,-0.061971545,-0.13511007,0.61854947
13524000,0.027214075,-0.061884776,-0.13488477,0.61854947
13528000,0.0266729,-0.06181352,-0.13466933,0.61854947
13532000,0.026093796,-0.06169664,-0.1344306,0.61854947
13536000,0.025502834,-0.061543927,-0.13418026,0.61854947
13540000,0.030414049,-0.061405912,-0.13363206,0.61734045
13544000,0.029896133,-0.06131259,-0.1335785,0.61734045
13548000,0.02938155,-0.06122187,-0.13348056,0.61734045
13556000,0.028256765,-0.061021477,-0.13302371,0.61734045
13560000,0.027687624,-0.060920194,-0.13279273,0.61734045
13564000,0.032139324,-0.061030835,-0.13153435,0.61614734
13568000,0.03157127,-0.060914844,-0.13147318,0.61614734
13572000,0.031041622,-0.06077224,-0.13140872,0.61614734
13576000,0.030512812,-0.06064964,-0.1313488,0.61614734
13580000,0.02995648,-0.060522404,-0.13128628,0.61614734
13584000,0.029407188,-0.06042695,-0.13123123,0.61614734
13588000,0.03380322,-0.060688257,-0.12940972,0.61497915
13592000,0.033440124,-0.06036169,-0.13009347,0.61497915
13596000,0.03287842,-0.060203463,-0.13002433,0.61497915
13604000,0.031776927,-0.059927143,-0.1298965,0.61497915
13612000,0.035533097,-0.060139105,-0.12806633,0.61427087
13616000,0.034953903,-0.060048223,-0.12801115,0.61427087
13620000,0.034364164,-0.059938405,-0.12795138,0.61427087
13624000,0.03376485,-0.059819866,-0.12788928,0.61427087
13628000,0.03317757,-0.059716072,-0.12783119,0.61427087
13632000,0.032627307,-0.059573226,-0.12776709,0.61427087
13636000,0.036990017,-0.059860587,-0.12595773,0.61353487
13640000,0.036418136,-0.0597677,-0.12590314,0.61353487
13644000,0.035852477,-0.05968552,-0.12585133,0.61353487
13648000,0.03527483,-0.05963342,-0.12580526,0.61353487
13652000,0.034695603,-0.059571356,-0.12575707,0.61353487
13660000,0.03843263,-0.059790052,-0.123915225,0.61281973
13664000,0.037842397,-0.059673965,-0.1238551,0.61281973
13668000,0.037244435,-0.0595527,-0.12379354,0.61281973
13676000,0.03602185,-0.05928137,-0.12366316,0.61281973
13680000,0.03543303,-0.059113916,-0.12359285,0.61281973
13684000,0.039696082,-0.059378177,-0.12182547,0.61208314
13688000,0.039137393,-0.059312306,-0.12177843,0.61208314
13692000,0.03854948,-0.059179425,-0.12169629,0.61208314
13696000,0.03798185,-0.05902524,-0.121630445,0.61208314
13700000,0.03739693,-0.058897093,-0.12156916,0.61208314
13704000,0.03679446,-0.05881623,-0.12151682,0.61208314
13708000,0.04073265,-0.059103623,-0.11984713,0.6113267
13712000,0.040114995,-0.059007946,-0.11979091,0.6113267
13716000,0.039522894,-0.05894677,-0.11974347,0.6113267
13720000,0.038955286,-0.058883328,-0.11969707,0.6113267
13724000,0.038386855,-0.05874662,-0.11963557,0.6113267
13728000,0.03777368,-0.058572695,-0.119563915,0.6113267
13732000,0.041785814,-0.05882013,-0.11785862,0.6105679
13736000,0.0411782,-0.058722436,-0.117803186,0.6105679
13740000,0.040578038,-0.058607236,-0.1177447,0.6105679
13744000,0.03998035,-0.05853921,-0.117696136,0.6105679
13748000,0.039402194,-0.05848851,-0.11765232,0.6105679
13752000,0.038818963,-0.058424607,-0.11760558,0.6105679
13756000,0.042609084,-0.05869163,-0.11600324,0.609794
13760000,0.042010702,-0.058632564,-0.11595671,0.609794
13764000,0.041417524,-0.05861138,-0.115918264,0.609794
13768000,0.040818676,-0.058580153,-0.1158775,0.609794
13772000,0.040221713,-0.058507286,-0.11582845,0.609794
13780000,0.04348836,-0.05871889,-0.11416252,0.60901386
13788000,0.042284854,-0.058644757,-0.11407874,0.60901386
13792000,0.04166203,-0.058603458,-0.11389626,0.60901386
13796000,0.041035954,-0.058499895,-0.113839805,0.60901386
13804000,0.044047173,-0.05860705,-0.112205796,0.6081521
13808000,0.043434747,-0.05853884,-0.11215746,0.6081521
13812000,0.042829342,-0.05848474,-0.11211241,0.6081521
13816000,0.042220116,-0.05842384,-0.11206587,0.6081521
13820000,0.041585185,-0.058324724,-0.112010375,0.6081521
13824000,0.04094179,-0.058182634,-0.11194603,0.6081521
13828000,0.04469454,-0.058353998,-0.11034768,0.60727435
13832000,0.044108827,-0.058240823,-0.11029247,0.60727435
13836000,0.04348866,-0.058121894,-0.11023434,0.60727435
13840000,0.042884726,-0.058048934,-0.11018625,0.60727435
13844000,0.042266272,-0.058012214,-0.11014457,0.60727435
13852000,0.045086723,-0.05811637,-0.10859145,0.60639405
13856000,0.044445235,-0.058071747,-0.10854712,0.60639405
13860000,0.04375663,-0.05802769,-0.108500354,0.60639405
13864000,0.043083098,-0.057950318,-0.108448036,0.60639405
13868000,0.042415325,-0.05786507,-0.1083946,0.60639405
13872000,0.041774526,-0.057781123,-0.10834303,0.60639405
13876000,0.045326516,-0.057988696,-0.10680628,0.6055008
13880000,0.04465983,-0.057954498,-0.10676301,0.6055008
13884000,0.043986917,-0.057861045,-0.106708065,0.6055008
13888000,0.043307427,-0.057765115,-0.10665241,0.6055008
13892000,0.042700514,-0.057670712,-0.10679013,0.6055008
13896000,0.04206615,-0.057616442,-0.10674511,0.6055008
13900000,0.0454109,-0.057852633,-0.10529125,0.6047268
13904000,0.04477048,-0.05781252,-0.10524868,0.6047268
13908000,0.044127643,-0.05771615,-0.10519537,0.6047268
13912000,0.043468162,-0.057623908,-0.10514206,0.6047268
13916000,0.04280957,-0.057549708,-0.105092295,0.6047268
13920000,0.042123064,-0.057497192,-0.10504522,0.6047268
13924000,0.045341514,-0.05770245,-0.103619665,0.6039341
13932000,0.043942116,-0.057684854,-0.10354078,0.6039341
13936000,0.04328131,-0.05770301,-0.103508525,0.6039341
13940000,0.042608447,-0.057618946,-0.10345658,0.6039341
13948000,0.04506104,-0.057788715,-0.102023095,0.60313725
13952000,0.04440961,-0.057697237,-0.10197115,0.60313725
13956000,0.04373689,-0.057622954,-0.101921365,0.60313725
13960000,0.043039583,-0.057587266,-0.101877466,0.60313725
13964000,0.042350437,-0.057544343,-0.10183275,0.60313725
13968000,0.04168573,-0.0574803,-0.10178552,0.60313725
13972000,0.059943132,-0.058694836,-0.09509918,0.60233456
13976000,0.059244953,-0.058603935,-0.095045164,0.60233456
13980000,0.058558926,-0.058562428,-0.09500098,0.60233456
13984000,0.057919383,-0.05850546,-0.094956495,0.60233456
13988000,0.05726262,-0.058466762,-0.09491452,0.60233456
13996000,0.05963445,-0.058503166,-0.093542784,0.60157764
14000000,0.058951903,-0.058416925,-0.09349102,0.60157764
14004000,0.058257245,-0.05837629,-0.093446985,0.60157764
14008000,0.057521164,-0.058348093,-0.093403086,0.60157764
14012000,0.056788534,-0.05829039,-0.093354106,0.60157764
14016000,0.056090828,-0.058222897,-0.0933053,0.60157764
14020000,0.059215136,-0.058341645,-0.091911085,0.60081726
14024000,0.058536336,-0.05822538,-0.09185469,0.60081726
14028000,0.057849906,-0.05812584,-0.09180101,0.60081726
14032000,0.057139702,-0.058052994,-0.09175098,0.60081726
14036000,0.056412548,-0.057973612,-0.09169901,0.60081726
14040000,0.055707548,-0.057867598,-0.09164357,0.60081726
14044000,0.05867058,-0.057982497,-0.090313844,0.6000509
14048000,0.05796966,-0.057895977,-0.09026227,0.6000509
14052000,0.057217255,-0.05774331,-0.090196505,0.6000509
14056000,0.056474406,-0.057597056,-0.09013255,0.6000509
14060000,0.05574947,-0.057520017,-0.0900818,0.6000509
14064000,0.05503929,-0.057418358,-0.09002763,0.6000509
14068000,0.05781261,-0.057515968,-0.08875601,0.59925646
14072000,0.057064258,-0.057478886,-0.08871132,0.59925646
14076000,0.056301918,-0.057403192,-0.08865932,0.59925646
14084000,0.05487823,-0.05732508,-0.088573374,0.59925646
14088000,0.054169193,-0.057270613,-0.08852799,0.59925646
14092000,0.05704855,-0.057359442,-0.08758026,0.59846294
14096000,0.056304425,-0.057313714,-0.08753475,0.59846294
14100000,0.055580072,-0.05723601,-0.08748486,0.59846294
14104000,0.05484747,-0.057203487,-0.08744234,0.59846294
14108000,0.054110505,-0.05721408,-0.08740696,0.59846294
14116000,0.05593993,-0.057315093,-0.08614177,0.5979713
14120000,0.05519359,-0.05725629,-0.086094335,0.5979713
14124000,0.05446772,-0.057178512,-0.08604485,0.5979713
14128000,0.053725928,-0.057116624,-0.08599734,0.5979713
14132000,0.052986126,-0.057043616,-0.085948154,0.5979713
14136000,0.052263543,-0.056996528,-0.08590425,0.5979713
14140000,0.054716244,-0.05716401,-0.08475817,0.5974413
14144000,0.053999513,-0.057095025,-0.08471103,0.5974413
14148000,0.05324834,-0.056995258,-0.08465719,0.5974413
14152000,0.052487224,-0.05695779,-0.08461324,0.5974413
14156000,0.051737957,-0.05695165,-0.08457508,0.5974413
14160000,0.05101449,-0.056909107,-0.08453228,0.5974413
14164000,0.053238146,-0.057031542,-0.08344826,0.59691083
14168000,0.052503478,-0.056969583,-0.08340187,0.59691083
14172000,0.051790096,-0.056893773,-0.083354376,0.59691083
14176000,0.05108448,-0.056836102,-0.08331029,0.59691083
14180000,0.050351482,-0.056759335,-0.08326186,0.59691083
14184000,0.049603004,-0.05668067,-0.08321247,0.59691083
14188000,0.052007146,-0.056829795,-0.082073525,0.5963788
14196000,0.050558455,-0.056802344,-0.08212635,0.5963788
14200000,0.04978993,-0.056747258,-0.08208004,0.5963788
14204000,0.0490781,-0.056675326,-0.0820339,0.5963788
14208000,0.048356995,-0.056633353,-0.081992134,0.5963788
14212000,0.050446473,-0.056747023,-0.08095659,0.5959412
14216000,0.049748592,-0.05669731,-0.08091486,0.5959412
14220000,0.049049877,-0.056681022,-0.08087838,0.5959412
14224000,0.04833068,-0.056708805,-0.080847815,0.5959412
14228000,0.047643196,-0.05675187,-0.080821164,0.5959412
14236000,0.049246877,-0.056887176,-0.07969005,0.5954905
14240000,0.048513774,-0.056852765,-0.079649225,0.5954905
14244000,0.04779491,-0.05680048,-0.0796064,0.5954905
14248000,0.047099806,-0.056765113,-0.0795674,0.5954905
14252000,0.046403173,-0.056755595,-0.07953233,0.5954905
14256000,0.045681853,-0.05672981,-0.07949363,0.5954905
14260000,0.04777912,-0.05685559,-0.07846569,0.59502316
14268000,0.046361692,-0.056826502,-0.0783931,0.59502316
14272000,0.04565631,-0.056806136,-0.07835614,0.59502316
14276000,0.044947848,-0.056811277,-0.0783229,0.59502316
14284000,0.046454992,-0.05681872,-0.07722197,0.59452045
14288000,0.045761727,-0.05678754,-0.077184156,0.59452045
14292000,0.045089424,-0.05680543,-0.07722713,0.59452045
14296000,0.04434044,-0.056826875,-0.07719452,0.59452045
14300000,0.043591887,-0.056792032,-0.077153645,0.59452045
14304000,0.0428912,-0.05673736,-0.077112205,0.59452045
14308000,0.044796683,-0.05685669,-0.0761604,0.5940639
14312000,0.044084948,-0.05681449,-0.07612037,0.5940639
14316000,0.043368377,-0.056760833,-0.0760785,0.5940639
14320000,0.042661585,-0.056704704,-0.07603682,0.5940639
14328000,0.041229855,-0.056605034,-0.07595463,0.5940639
14332000,0.043122195,-0.056723904,-0.0750176,0.59356666
14336000,0.042426866,-0.056689207,-0.07497979,0.59356666
14340000,0.041751444,-0.05660329,-0.074935645,0.59356666
14344000,0.041055813,-0.056562882,-0.07489713,0.59356666
14348000,0.040364824,-0.056523684,-0.07485907,0.59356666
14352000,0.03969114,-0.05644484,-0.07481628,0.59356666
14356000,0.041436754,-0.05647311,-0.07391464,0.593079
14360000,0.040736627,-0.056460887,-0.073880136,0.593079
14364000,0.040028382,-0.056457132,-0.073846474,0.593079
14368000,0.039324343,-0.056410715,-0.07380709,0.593079
14372000,0.038628023,-0.05636235,-0.07376784,0.593079
14376000,0.037949517,-0.056342237,-0.073733434,0.593079
14380000,0.055247262,-0.057213683,-0.06740756,0.5925619
14384000,0.05459713,-0.057129446,-0.0673655,0.5925619
14388000,0.053963095,-0.05708593,-0.06732993,0.5925619
14392000,0.05332015,-0.057072844,-0.06735255,0.5925619
14396000,0.052637156,-0.057029255,-0.067314796,0.5925619
14400000,0.051959462,-0.056988023,-0.06727766,0.5925619
14404000,0.053542145,-0.057064474,-0.06643904,0.5920945
14408000,0.052847207,-0.057040267,-0.06640354,0.5920945
14412000,0.052149054,-0.057043176,-0.06637163,0.5920945
