timestamp,control[0],control[1],control[2],control[3],control[4],output[2],output[3],output[4],output[5],output[6],output[7],indicated_airspeed_m_s,true_airspeed_m_s,indicated_airspeed_m_s.1,equivalent_airspeed_m_s,true_airspeed_m_s.1,equivalent_ground_minus_wind_m_s,true_ground_minus_wind_m_s,differential_pressure_raw_pa,differential_pressure_filtered_pa,temperature,gyro_bias[0],gyro_bias[1],gyro_bias[2],accel_bias[0],accel_bias[1],accel_bias[2],instance_count,seq_reached,seq_current,seq_total,item_changed_index,item_do_jump_remaining,valid,warning,finished,failure,stay_in_failsafe,flight_termination,item_do_jump_changed,execution_mode,nav_roll,nav_pitch,nav_bearing,target_bearing,xtrack_error,wp_dist,acceptance_radius,rollspeed_integ,pitchspeed_integ,yawspeed_integ,additional_integ1,x,y,z,temperature.1,pressure,temperature.2,gyro_rad[0],gyro_rad[1],gyro_rad[2],accelerometer_m_s2[0],accelerometer_m_s2[1],accelerometer_m_s2[2],x.1,y.1,z.1,temperature.3,altitude_sp,altitude_filtered,height_rate_setpoint,height_rate,airspeed_sp,airspeed_filtered,airspeed_derivative_sp,airspeed_derivative,throttle_integ,pitch_integ,baro_alt_meter,baro_temp_celcius,baro_pressure_pa,rho,xyz[0],xyz[1],xyz[2],xyz[0].1,xyz[1].1,xyz[2].1,roll_body,pitch_body,yaw_body,q_d[0],q_d[1],q_d[2],q_d[3],thrust_body[0],lat,lon,alt,vel_m_s,vel_n_m_s,vel_e_m_s,vel_d_m_s,cog_rad,ground_contact,maybe_landed,landed,ref_lat,ref_lon,x.2,y.2,z.2,vx,vy,vz,ax,ay,az,dist_bottom,roll,pitch,yaw,thrust_body[0].1,timestamp.1,isTakeoff,isClimbing,isDescending,isCruise,isLand
35525352.0,-0.036426068,0.109593341,0.263978879,0.28616909999999995,0.0,1631.0,1500.0,1285.0,1517.0,1482.0,1555.0,15.43187421,15.812955800000005,19.57980377,19.63195623,20.08011981,19.7551141,20.20609387,151.0277739,151.0277739,11.73151086,-0.001759044,-0.006553514,0.000683995,-0.182921282,0.131276121,-0.08988642599999999,2.0,-0.203040608,0.796959392,11.0,0.0,0.0,1.0,0.0,0.0,0.0,0.0,0.0,0.0,0.0,0.755901307,0.00335494,1.702852504,1.5926315430000002,-5.989784648,275.1635091,45.5150205,-0.007097302,-0.031153113,0.094501328,0.0,0.36223788,-0.122043113,-9.96777802,2.2e-23,954.1809221,11.72771058,-0.061645373,0.223370743,0.445934233,0.432788867,-0.060282517,-9.815851006,-0.054704598,0.241708139,0.451526537,2.2e-23,99.99841,104.0013901,-0.200148847,-1.008604735,15.3703614,15.68509552,-0.006294685,-0.158167964,-0.295617878,49.55938906,503.6967992,11.72809192,95419.4735,1.133741221,-0.33579400600000003,0.350201124,-0.5775165839999999,-0.07027934400000001,0.23252913600000005,0.437221452,0.7498102520000001,0.0040619340000000006,1.720436855,0.607528234,0.23741832,0.278794059,0.7048499490000001,0.275709603,398729468.4,327396561.0,504115.0942,15.85967794,14.71258826,5.850950113,-1.110008002,0.378667632,0.0,0.0,0.0,39.87141370000001,32.7364368,172.2163086,275.55366519999995,-104.1489553,14.40194523,6.70842164,-0.687320041,-3.266351692,6.611173345,3.0731467410000004,104.3046279,-0.098650334,0.471781237,0.380760598,0.277113479,35525352.0,0.0,0.0,0.0,1.0,0.0
35723657.0,-0.03388778611022044,0.12955742790380761,0.25729440275951904,0.2841027986252505,0.0,1627.1683366733466,1500.0,1283.1683366733466,1516.0967456112223,1482.9032543887777,1564.8316633266534,15.387382975831663,15.767499346092185,19.602021347575153,19.657999836933868,20.107711363647294,19.79701839158317,20.249913018236473,149.0577708641283,149.0577708641283,11.729891425410822,-0.0017550696372745493,-0.006545767551102205,0.0006721780501002004,-0.18281887699198396,0.13202757164128257,-0.08980559231462927,2.0,-0.18787525005410824,0.8121247499458918,11.0,0.0,0.0,1.0,0.0,0.0,0.0,0.0,0.0,0.0,0.0,0.7202735156573147,0.007602511328657315,1.7468610254428858,1.600184365745491,-7.9979925201002,272.6815907456914,45.65194983234469,-0.007352729759519039,-0.030480346833667335,0.09186304973747494,0.0,0.2763424088296593,-0.09741189550300602,-10.6016763,3.3655048107114243,954.1910314308617,11.727264303006011,-0.04750565108416834,0.2558453158376754,0.4510510075671343,0.33690035167134275,-0.10695623255711423,-10.255140214248497,-0.04289906407615231,0.28041013919038077,0.45474424395991986,3.3655048107114243,99.99841,103.75060647735471,-0.18760958235270542,-1.3568506478677356,15.37043313533066,15.818050824128257,-0.00895234614228457,0.0853877446232465,-0.29735983911022046,48.861915703206414,503.82965761322646,11.727337722464931,95417.93369615231,1.133722867785571,-0.21095818917234477,0.021350007458917575,0.17668300177354718,-0.05568587884168337,0.2520416827174349,0.44608438450501003,0.7088709558937876,0.00923013586773547,1.7586293269679358,0.5992672332144289,0.21797779917635268,0.2700964370501002,0.7213911053507014,0.2717469943767535,398729740.8921844,327396722.3973948,504281.10745531064,15.824540448076153,14.055275991142285,7.231230838144289,-0.4780326725871743,0.4754984829138277,0.0,0.0,0.0,39.87141370000001,32.7364368,175.1170276492986,277.06971498256513,-104.22969103947895,13.649590766372745,8.065323950294589,-0.08009851535871741,-4.001818687745491,6.558678900466934,2.825017048278557,104.38536103947895,-0.11988331081563126,0.46321203116432874,0.322269212002004,0.27349471237474954,35723656.66933868,0.0,0.0,0.0,1.0,0.0
35925960.0,-0.03250174156112225,0.14220569177755513,0.24132667314028058,0.28234443504008017,0.0,1618.8134691422847,1500.0,1281.3366733466935,1515.859877551102,1483.140122448898,1571.140122448898,15.360444013146292,15.739951062605211,19.57159328292585,19.632732338977956,20.08289350492986,19.78931826190381,20.243074179158317,147.08776772825647,147.08776772825647,11.728271984188376,-0.001751094611222445,-0.006538020102204409,0.0006603611002004008,-0.18271647198396793,0.13277902228256513,-0.08972475862925851,2.0,-0.17270989277154308,0.827290107228457,11.0,0.0,0.0,1.0,0.0,0.0,0.0,0.0,0.0,0.0,0.0,0.6737880433146292,0.01278174465731463,1.7809815608857715,1.6063236121543087,-9.5700614692004,269.9822314913828,45.858510894689374,-0.007618137032064128,-0.030023819899799603,0.08839790647094188,0.0,0.24341513664729458,0.05326069357715432,-11.262792612825653,2.2e-23,954.1813370280561,11.727514574048095,-0.037200105096192385,0.29186682449699397,0.45627363579759517,0.26569789028657315,-0.041388843879759524,-10.862938460561123,-0.03999005742084168,0.3092539246993988,0.46161817983166337,2.2e-23,99.99841,103.46908583346693,-0.17353363201002003,-1.5885236043747495,15.370110806012024,15.978230126853708,-0.012162383080160322,0.27798045293787577,-0.2989222333827655,48.3346192842485,503.8727041406814,11.727358465190381,95417.44670991984,1.1337171513026052,0.15237483587775547,0.23723495207815626,-0.11801801497194436,-0.038848810024048094,0.2859195582665331,0.45245131137074146,0.6583618297715431,0.014704682895791587,1.7931354694068136,0.5926117469659319,0.1963749879238477,0.2568668937034068,0.7377386567935872,0.26744410006613223,398729994.6300601,327396914.14509016,504320.197098998,15.809999,13.248031463527054,8.60575410528457,0.10666562142484975,0.5762545629979959,0.0,0.0,0.0,39.87141370000001,32.7364368,177.84780323507013,278.8694561983968,-104.1941729250501,12.72508582957916,9.429436854507014,0.44749900531462933,-4.891554758629258,6.607332372859719,2.4016297181843687,104.3498429250501,-0.14983067411623247,0.44552799619238476,0.27140695973146295,0.2696868261523046,35925960.338677354,0.0,0.0,0.0,1.0,0.0
36128265.0,-0.033641495741482966,0.152754693248497,0.22472673326653306,0.2800024263326653,0.0,1610.0100200400802,1500.0,1279.0,1516.4949899799599,1482.5050100200401,1576.3325015991984,15.462716946312625,15.844728026372746,19.51465110438878,19.581622828517034,20.03168049739479,19.75663567280561,20.210722278737475,146.41389997114229,146.41389997114229,11.727958274829659,-0.0017461080060120241,-0.006529596056112225,0.0006523921943887775,-0.18254361174749498,0.13344516142685373,-0.08950043032264529,2.0,-0.15754453465731463,0.8424554653426855,11.0,0.0,0.0,1.0,0.0,0.0,0.0,0.0,0.0,0.0,0.0,0.6247494101803607,0.01800871283967936,1.8134887408376754,1.6122316187174348,-11.07345901995992,267.2402604306613,46.075816130440884,-0.007886571216432865,-0.029678384486973946,0.08440997379759518,0.0,0.18821379775551098,0.04971346387575151,-11.956349621643287,2.2e-23,954.1955110032064,11.728403707014028,-0.03540112597795591,0.32296632385971946,0.45871345819438875,0.22577917155310614,0.04108986611222441,-11.41996028745491,-0.03414345938276553,0.3502679068436874,0.4586421097835672,2.2e-23,99.99841,103.143061249499,-0.15723241447494987,-1.7557779440561123,15.369767783326653,16.117860481002005,-0.014961853769539079,0.4501747768216433,-0.300485206244489,47.90594609320641,503.7376446665331,11.728060566012024,95418.9996290982,1.133735542250501,0.28942329333667294,0.410388900148296,0.33279248895591335,-0.03224380854509017,0.3264056001663327,0.45733593030460923,0.5950124154969939,0.020202356086172345,1.8183987688857717,0.5896891951022044,0.17246954891983968,0.2372055601803607,0.7524898899298597,0.26330472103406816,398730230.4531062,327397139.0310621,504250.12355891784,15.816055075771542,12.260875832144288,9.95968053753507,0.5501991783507015,0.6822755824589178,0.0,0.0,0.0,39.87141370000001,32.7364368,180.37105595531062,280.95364573386775,-104.05819723466934,11.613080141863728,10.779126610501002,0.8960196611963929,-5.817798850745492,6.462006061975953,2.021971671022044,104.21386723466934,-0.19246476505210422,0.4155452373326653,0.22174258456713425,0.2649738593987976,36128265.008016035,0.0,0.0,0.0,1.0,0.0
36343876.0,-0.03610471864529058,0.15777077879759518,0.2049687783987976,0.2780395276793587,0.0,1599.9700676553105,1500.0,1277.0,1517.4265981563126,1481.5734018436874,1578.2967209619237,15.482229313046092,15.864584106372744,19.4577089258517,19.530513324689377,19.98046749659319,19.723953087074147,20.17837036831663,147.56530446152306,147.56530446152306,11.729483353106213,-0.0017396986813627254,-0.006520219741482966,0.00064984225250501,-0.18227153198997997,0.1339911625691383,-0.08907402843687375,2.0,-0.14237917754308616,0.8576208224569138,11.0,0.0,0.0,1.0,0.0,0.0,0.0,0.0,0.0,0.0,0.0,0.5459996381663327,0.023791171903807615,1.8272212979458917,1.6154486864128257,-11.777727385651303,264.00241556432866,46.418151251863726,-0.00814978393987976,-0.02935014843687375,0.08002356892785571,0.0,0.138117936004008,0.19477364820641285,-12.544244152164328,5.792330585733472,954.2273673370742,11.729838767915831,-0.03697984605611222,0.3663230751442886,0.46952364247294587,0.15796739718236477,0.12029392770541086,-12.121969873306613,-0.039008236144288576,0.38076447605210423,0.47829313533867734,5.792330585733472,99.99841,102.75946832004009,-0.13805277102204408,-1.8761466763066132,15.36949941517034,16.259111443987976,-0.017792231825651303,0.5927959735951904,-0.30213691192384773,47.56557481795591,503.602561603006,11.729309843587174,95420.53848945892,1.1337538702204408,0.09393429063927873,-0.026509720354709942,-0.09748430501001971,-0.030170419332665337,0.3629879215611223,0.46526583386372744,0.5223175885450901,0.025958607713426854,1.838297476260521,0.5885401895991984,0.14661306051102205,0.212877152252505,0.7660213067274549,0.2588323153967936,398730450.2388778,327397400.4507014,504090.2358492986,15.842708051062125,11.066988102184368,11.280303212424851,0.9548413740921844,0.7949584468276553,0.0,0.0,0.0,39.87141370000001,32.7364368,182.64400282865734,283.31151078557116,-103.84265830240481,10.296449695871743,12.08047244527054,1.254900711260521,-6.82876320833467,6.116359342691383,1.5727639056693388,103.99832893306613,-0.23957640115631265,0.3782636400240481,0.17562843239679357,0.26108978056112225,36343876.29058116,0.0,0.0,0.0,1.0,0.0
36560873.0,-0.041323999855711425,0.1531451750480962,0.17837478674148294,0.2752965037274549,0.0,1587.5250501002004,1500.0,1273.8416833667334,1520.1583166332666,1478.8416833667334,1576.6473351102204,15.56827013034068,15.952419463346693,19.400766747314627,19.479403820861723,19.92925449074148,19.691270501342686,20.146018457895792,148.71670896773549,148.71670896773549,11.731008431382765,-0.00173328901002004,-0.006510843426853708,0.0006472928156312624,-0.1819994525791583,0.13453716371142282,-0.08864762604609218,2.0,-0.1272138194288577,0.8727861805711423,11.0,0.0,0.0,1.0,0.0,0.0,0.0,0.0,0.0,0.0,0.0,0.46704275295791586,0.029577503038076155,1.8408229783406813,1.6186469968577155,-12.476425103647294,260.7611139054108,46.761357944829655,-0.00838757764729459,-0.028923355078156313,0.07531964953907816,0.0,0.1170064220521042,0.33702499983166334,-13.064936464488978,2.2e-23,954.2535764242484,11.731564405410822,-0.04822162552905812,0.38307160905410825,0.4725500183126252,0.15309281221042084,0.18797794728857717,-12.807933040721442,-0.06573443735871745,0.3919885826312625,0.4622893140320641,2.2e-23,99.99841,102.39058039939879,-0.11960837423647294,-1.9469602908737473,15.369178008476954,16.382424124108216,-0.020264926985971946,0.6789868071242486,-0.30357432398797596,47.37254847136273,503.27872574849704,11.730999226132266,95424.23681831663,1.13379781797996,-0.6584181613226451,0.4492383162444886,-0.5058377873426848,-0.042139437250501004,0.39694616086172346,0.4699749086773547,0.4357242766492986,0.031809624260521044,1.8455910878176351,0.5919880972144289,0.11806441174148297,0.1816790829739479,0.77626800002004,0.25445617757915834,398730641.5653307,327397687.73827654,503859.8595064128,15.889956488036072,9.677752771358717,12.549114081883769,1.2731317794769539,0.913533594492986,0.0,0.0,0.0,39.87141370000001,32.7364368,184.6251756553106,285.93199550280565,-103.56253783747495,8.77401061522445,13.287146354388778,1.525508577002004,-7.813387870873746,5.498851755492986,1.184164953771543,103.71820783747495,-0.3004220989498998,0.33308636819038073,0.12066503161923847,0.25561782713426856,36560873.34669339,0.0,0.0,0.0,1.0,0.0
36755178.0,-0.04728699084969941,0.14913378658917834,0.16020355286773547,0.2715114163206413,0.0,1578.0164361523045,1500.0,1271.0,1523.9899799599198,1475.0100200400802,1573.0100200400802,15.688070708236472,16.07489116274549,19.34373901470942,19.428075897755512,19.877822243927856,19.65679570539078,20.111837321903806,149.86811344228457,149.86811344228457,11.732533509559119,-0.001726879012024048,-0.006501467112224449,0.000644743378757515,-0.18172737348496992,0.1350831638537074,-0.08822122365531061,2.0,-0.1120484613246493,0.8879515386753506,11.0,0.0,0.0,1.0,0.0,0.0,0.0,0.0,0.0,0.0,0.0,0.3784502878456913,0.035452545122244494,1.8442783055511023,1.620223596254509,-12.72525,257.3967476523046,47.118976887875746,-0.008587200028056113,-0.028383118761523045,0.07037897539078156,0.0,0.11417223092384778,0.258199680250501,-13.32558808482966,2.2e-23,954.2908121066132,11.733721211482965,-0.0778784796212425,0.39379545863326654,0.45784980548496995,0.18989723290180377,0.25286416329258526,-13.154840153306612,-0.10178564787975954,0.3893887988697394,0.44631085785370744,2.2e-23,99.99841,102.00330188436874,-0.10024450701803607,-1.983690571707415,15.369028413567134,16.517337064308617,-0.022966171422845693,0.7142079838476955,-0.30499088028256516,47.294804781382766,502.9188204707415,11.73302204759519,95428.37243066133,1.133846896945892,-0.08634284191583047,0.045918885557113154,0.13163993871543087,-0.060834214897795606,0.4061692605270541,0.46562304782765535,0.33915272928256507,0.037702083050100206,1.8433303399338676,0.5982508420060121,0.08719835886172343,0.14564675374348696,0.7831192009138277,0.25019918318436873,398730808.04448897,327398010.20681363,503567.0114779559,15.961276693006011,8.075730509118236,13.741852835791583,1.5225546183887777,1.0391008155110222,0.0,0.0,0.0,39.87141370000001,32.7364368,186.2745911488978,288.7841762753507,-103.23608686452906,7.091477385052103,14.336408825771544,1.719489409208417,-8.412603601176354,4.727587627567134,0.7500779901042081,103.39175686452906,-0.3487901383947897,0.2961328440821643,0.07609030987374746,0.25138541913827656,36755178.01603206,0.0,0.0,0.0,1.0,0.0
36969482.0,-0.053641925306613235,0.13604554384969939,0.13692026193386775,0.2668377925851704,0.0,1566.3567134268537,1500.0,1266.1350786352705,1526.8649213647295,1472.1350786352705,1566.3134353486973,15.82649363995992,16.216502761082165,19.285310461523046,19.37317201298597,19.822800555791584,19.59297916975952,20.04770841751503,151.01951801482966,151.01951801482966,11.734058586152305,-0.001720469014028056,-0.006492089797595191,0.0006421939418837675,-0.18145529341082164,0.13562916499599198,-0.08779482126452906,2.0,-0.09688310420040079,0.9031168957995992,11.0,0.0,0.0,1.0,0.0,0.0,0.0,0.0,0.0,0.0,0.0,0.28452837783166324,0.04137665297595191,1.8421216796312625,1.6209032271302608,-12.72525,253.96431429318636,47.48456726418838,-0.008749241346693387,-0.027744024789579158,0.06545423219639278,0.0,0.1803969432104208,0.2945220085551101,-13.211809003406815,2.2e-23,954.3307090226456,11.736031780881763,-0.11580517071543088,0.3774100949418837,0.4274284307955912,0.13612739664529053,0.25344825967935863,-13.276061850440882,-0.1327492060240481,0.35225656586372744,0.41504223343687374,8.241969485635282,99.99841,101.58985952805612,-0.07957244421843687,-1.9885109898436875,15.36880270256513,16.647662570340675,-0.02557719357715431,0.7153587510621243,-0.3064325245290581,47.33601412366733,502.51392029218437,11.735272314929858,95432.984067495,1.13390176801002,-0.4093113857254501,0.07864968337875705,-0.2040538760240495,-0.09437184648096195,0.3995001558176352,0.4478799144789579,0.2466690888116232,0.043516627414829666,1.8412305836172345,0.6027158236853707,0.057264548763527046,0.11096865702004005,0.7881158727695391,0.24653269044288575,398730943.8755511,327398358.4737475,503230.4958196393,16.0598682293988,6.351103346330659,14.726326351362726,1.6762438423266532,1.1634250528677357,0.0,0.0,0.0,39.87141370000001,32.7364368,187.56607405551102,291.83835550841684,-102.87741660180362,5.321802274545089,15.185710015110221,1.8472427680921846,-8.695779149236472,3.536625581122244,0.5301511526833667,103.03308660180362,-0.37650866955511025,0.26647130726252505,0.04052989957314629,0.24788260707414828,36969481.68537074,0.0,0.0,0.0,1.0,0.0
37167786.0,-0.062299613639278564,0.12274842883366732,0.11902917936472945,0.2630506598997996,0.0,1557.0400801603207,1500.0,1261.3466933867735,1532.5203836252506,1466.4796163747494,1559.0400801603207,15.907358810881764,16.299148751422845,19.22688022745491,19.31826382198397,19.767774538657314,19.529127221763527,19.98354336573146,152.96897246472946,152.96897246472946,11.73612443761523,-0.0017145201723446895,-0.006480976110220441,0.0006430767575150301,-0.18106003481963928,0.136303288498998,-0.08711223787174348,2.0,-0.08171774608617233,0.9182822539138276,11.0,0.0,0.0,1.0,0.0,0.0,0.0,0.0,0.0,0.0,0.0,0.19179511990781561,0.04706264029258517,1.8369115930841682,1.6209737118376755,-12.574682728697395,250.52370686753508,47.825218254629256,-0.008856092879759518,-0.027005934895791582,0.06060825157915832,0.0,0.18089261730861717,0.3175357236853707,-12.961344299839679,2.6791034828015943,954.3757950813628,11.738328307294589,-0.16343651153106212,0.3407376521442886,0.3999327195270541,0.11981374216633264,0.2581874668436874,-13.156789601242485,-0.19095463389579162,0.30811749839879754,0.3898067883326653,2.2e-23,99.99841,101.21807490340682,-0.060983092250501,-1.952712396024048,15.368484391462925,16.771024558797595,-0.028050806685370744,0.6824133364529058,-0.30768761760120245,47.494287296853706,502.22631396052105,11.737648796032063,95436.28484945893,1.1339409010841683,-0.057963015757513836,0.314398303871743,-0.4449358564388775,-0.1383629997895792,0.36968479302404805,0.41403859903406814,0.15147347559519037,0.04921700196993988,1.830256712759519,0.6092276981683367,0.026669489096192375,0.07491521309018036,0.7889891692985972,0.24335936220641283,398731044.9422846,327398724.8142285,502871.6066777555,16.17905560507014,4.604541843601202,15.475278032284569,1.7777350444709419,1.2813473438456915,0.0,0.0,0.0,39.87141370000001,32.7364368,188.48945934709417,295.0536952647295,-102.49259473847695,3.552813421390781,15.814802931082165,1.9336031336913828,-8.469399081555109,2.5061767396973944,0.33720010518436866,102.64826473847695,-0.4098034171222445,0.23690553863727454,0.001842330240480957,0.24413901973947896,37167786.35470942,0.0,0.0,0.0,1.0,0.0
37378090.0,-0.06981849231863728,0.10635445376152304,0.0983838545751503,0.25840990659318636,0.0,1546.5450901803606,1500.0,1257.0300601202405,1535.4549098196394,1463.5450901803606,1551.0300601202405,16.105069913086172,16.501478649258516,19.168449993386773,19.263355625831664,19.712748524589177,19.465275276833665,19.919378318797595,155.51506291182363,155.51506291182363,11.738594583567135,-0.0017089149438877756,-0.006468563498997996,0.000646525617234469,-0.18057268506212423,0.1370731987014028,-0.08623812885571142,2.0,-0.06655238897194388,0.9334476110280562,11.0,0.0,0.0,1.0,0.0,0.0,0.0,0.0,0.0,0.0,0.0,0.10338906914629256,0.051881767064128254,1.8205855813446894,1.6188266401923848,-11.875985002284569,247.05334278697396,48.07507903380762,-0.008915187298597195,-0.026173863541082164,0.055973838885771544,0.0,-0.10122530348497,0.13058181532264523,-12.57783908957916,2.2e-23,954.4220562410821,11.740996366713427,-0.21487448446292584,0.2942067567354709,0.36797138816432867,0.040470365953907766,0.1789305453426856,-12.84079983282565,-0.2412887568957916,0.26710107816232465,0.35344378658717435,2.2e-23,99.99841,100.84985261342685,-0.042571963036072136,-1.8652769579498998,15.368205696332666,16.88945260693387,-0.030424944006012023,0.6160409618316632,-0.3089268988176353,47.77601878861723,501.87255273086174,11.740123961603206,95440.32629751503,1.1339889501062124,-0.216353989893787,-0.09736924898597159,0.06933950704208375,-0.1943651161943888,0.32306957042484974,0.3819248694468938,0.06290124659519035,0.05407156836673347,1.8153393141763527,0.6157115928717435,-0.0019529179078156425,0.04141251769138275,0.7868554499318637,0.24255649967735474,398731115.2222445,327399113.78697395,502487.5090220441,16.310994216953908,2.8388430117575143,16.040827528737477,1.8596131000541083,1.3952478374068136,0.0,0.0,0.0,39.87141370000001,32.7364368,189.05469291102204,298.38246959038077,-102.09494331923848,1.8699584338036068,16.224673351302606,1.9799887658296593,-7.759408931763526,1.5008538477234465,0.17722755260521036,102.25061331923847,-0.42126833931462937,0.2151554434789579,-0.027128784454909828,0.24287759661322644,37378090.0240481,0.0,0.0,0.0,1.0,0.0
37596395.0,-0.07782391541883768,0.09181950821042084,0.08001265376352705,0.25399566712625254,0.0,1536.7574587214428,1500.0,1252.683366733467,1539.659913713427,1459.340086286573,1543.0740919879759,16.18236365719439,16.58026877751503,19.11001975931864,19.20844742997996,19.657722503987976,19.40142333220441,19.85521326533066,158.06115332424852,158.06115332424852,11.741064729519037,-0.0017033097154308618,-0.006456150887775551,0.0006499744468937876,-0.18008533595791582,0.1378431085571142,-0.08536401952304609,2.0,-0.051387030857715434,0.9486129691422845,11.0,0.0,0.0,1.0,0.0,0.0,0.0,0.0,0.0,0.0,0.0,0.01498301870140279,0.05670089386573147,1.8042595696052104,1.6166795675470942,-11.177287275871745,243.58297864108215,48.324939813286576,-0.00892421868537074,-0.025302912156312626,0.05173680904208417,0.0,-0.1264419529418838,0.06861214302404808,-12.151540482284569,10.125394875707416,954.4625385965932,11.743426578757516,-0.27645434048096196,0.24179194528456913,0.33525965059519036,0.0031587443426853564,0.1670790283987976,-12.33446173246493,-0.3013253911282565,0.22062163546092184,0.31190160993587174,9.55556694480561,99.99841,100.487447251503,-0.02445174710821643,-1.7245708513987974,15.367953488156312,16.97522282028056,-0.03214539327254509,0.5173070152184368,-0.31016183758717436,48.180685166072145,501.52549957795594,11.742643565270543,95444.30959943887,1.134036280985972,-0.21617532839078163,-0.27451392195190416,-0.11410183191583104,-0.2525819586412826,0.2749816553547094,0.3501473846292585,-0.011352485771543097,0.05820988275350702,1.8000378318917836,0.6211882056392786,-0.026324629430861727,0.013646258392785568,0.7830925065531062,0.24184618054308615,398731153.1082164,327399506.1777555,502106.30913146294,16.447004181382763,1.243667042827655,16.39179290496994,1.8655694218677354,1.4944597521002005,0.0,0.0,0.0,39.87141370000001,32.7364368,189.28914927194387,301.77437184509023,-101.69630178657314,0.3377170813547092,16.462218905931863,1.9933157728577153,-7.0831598322525045,0.8237330153406812,0.0007108596633266066,101.85197178657315,-0.40834443374549095,0.1972496952965932,-0.048180808907815634,0.24221165104208417,37596394.69338677,0.0,0.0,0.0,1.0,0.0
37802699.0,-0.08481419361723447,0.07728829100000001,0.06178573450501002,0.24975803358717436,0.0,1529.7034068136272,1500.0,1248.8517034068136,1541.2587699919839,1457.7412300080161,1537.8517034068136,16.32038272448898,16.721518503286575,19.061981820981966,19.161341491142284,19.610645521302605,19.340382210400804,19.79388468462926,160.607243751503,160.607243751503,11.743534875470942,-0.0016977044869739481,-0.006443738276553107,0.0006534237915831664,-0.179597986002004,0.13861301856112226,-0.08448990982364729,2.0,-0.03622167274348697,0.963778327256513,11.0,0.0,0.0,1.0,0.0,0.0,0.0,0.0,0.0,0.0,0.0,-0.04661475063527054,0.0601485396513026,1.786109393503006,1.6138057199539078,-10.341100429438878,240.13060728817635,48.417439421983964,-0.008882459020040081,-0.024359006527054108,0.04869531338677355,0.0,-0.20350878123647298,-0.0024315926312625225,-11.771419921082163,0.7243615281062121,954.4905993507014,11.74579665503006,-0.3349390687935872,0.19353531416032063,0.294202728503006,-0.1495602922304609,0.03153628533266533,-11.92703652234469,-0.35337005952705414,0.17513740287575152,0.2698477727995992,2.2e-23,99.99841,100.18747069959922,-0.00945287245490982,-1.5530938836733466,15.367685359779559,17.02681903192385,-0.0331826699759519,0.4213610649278557,-0.31122048832264526,48.64018315348697,501.19687474549096,11.74514354533066,95448.05993655311,1.1340808187835671,0.08854797097995996,-0.14484065992985976,0.1158104759539075,-0.3073220606693387,0.22529344354108216,0.30680227725851705,-0.07504643086773548,0.06159780047695391,1.7808769750360722,0.6274280396553106,-0.047512194444889785,-0.009786672210420844,0.7771544634048095,0.23948416491182364,398731162.02204406,327399905.9549098,501724.0286753507,16.589091743907815,-0.18826057736873755,16.586429101462926,1.8468834633867734,1.5818504567134268,0.0,0.0,0.0,39.87141370000001,32.7364368,189.22337721523044,305.2080212869739,-101.3006501741483,-1.0147750393827657,16.562773776152305,1.9692705098617234,-6.054403212663327,0.2515443677895791,-0.24686011931262525,101.45632031863728,-0.3857474223767535,0.19070448137074147,-0.016587895206412823,0.24046342224448897,37802699.21442886,0.0,0.0,0.0,1.0,0.0
38016843.0,-0.08403590435871743,0.06701827095591181,0.04754236676953905,0.24579695268537072,0.0,1522.0200400801602,1500.0,1244.0200400801602,1542.0,1457.0,1532.0200400801602,16.457408475671343,16.86159680543086,19.02676575743487,19.123861885791584,19.573375954148297,19.282809045891785,19.736055705050102,163.15333424709414,163.15333424709414,11.746005021623246,-0.0016921002585170342,-0.006431325665330662,0.0006568731362725451,-0.1791106367294589,0.13938292924849702,-0.08361580080761523,2.0,-0.0210563156292585,0.9789436843707415,11.0,0.0,0.0,1.0,0.0,0.0,0.0,0.0,0.0,0.0,0.0,-0.10096213521843694,0.06322526307414829,1.7674658661142286,1.6107353152024049,-9.467729198691382,236.68310209619239,48.467380192364736,-0.008809179735470941,-0.023438777062124248,0.04761230012825651,0.0,-0.30609236243887805,-0.05840126715430879,-11.541534031322644,2.2e-23,954.549801631463,11.748373247154309,-0.37944483937875756,0.15584957615831663,0.2497938129859719,-0.27995983938076174,0.0687471514208417,-11.62374726781563,-0.389939773991984,0.1388761465330661,0.23602341802204405,2.2e-23,99.99841,99.91851799176352,0.003994857593186388,-1.339786420603206,15.36748503985972,17.042747623306614,-0.033505243452905814,0.305785198543086,-0.31223671616833665,49.18728297196393,500.8451701134269,11.747592505470942,95452.09753681363,1.1341287738617234,-0.7670126743286612,-0.08530758894589294,0.0001607476432879118,-0.36031544057114234,0.1793258080721442,0.2727524879559118,-0.12478657462925857,0.06462006958116234,1.7606904764288576,0.6337556289018036,-0.06455275697995994,-0.027507259354709438,0.7703344244048096,0.23915082039879762,398731145.79619235,327400311.3312625,501346.3688260521,16.722439612965932,-1.4563304419358731,16.654370003246495,1.8131899442945891,1.6581831639318638,0.0,0.0,0.0,39.87141370000001,32.7364368,188.90052391623246,308.65816890701404,-100.91941988537074,-2.1634846664569154,16.569430060420842,1.8908272306873748,-5.14155578233066,-0.11873341246893816,-0.48533350911623274,101.07508988737474,-0.34367083645090174,0.17715502711823647,0.03276998333266537,0.23892869533066133,38016842.711422846,0.0,0.0,0.0,1.0,0.0
38223308.0,-0.08559594743086173,0.05877248497995992,0.03545013293587174,0.24311981124248497,0.0,1516.1226222845692,1500.0,1242.5613111422845,1543.370516987976,1455.629483012024,1528.188376753507,16.56442131086172,16.970817153847694,18.991549693887777,19.086382272324652,19.536106376993988,19.225235891382766,19.678226725470942,164.7532039002004,164.7532039002004,11.748066091102205,-0.0016885394208416835,-0.006415274116232465,0.000661145124248497,-0.17870020028657313,0.1405762873787575,-0.08252137115631263,2.0,-0.0058909575150300625,0.99410904248497,11.0,0.0,0.0,1.0,0.0,0.0,0.0,0.0,0.0,0.0,0.0,-0.1449931849278557,0.0656304276232465,1.747738472290581,1.6073142424488978,-8.53169438873547,233.24417850160322,48.47056216378758,-0.00870881458717435,-0.022556022561122244,0.04776520295791583,0.0,-0.3599083986432866,-0.04294856130060121,-11.2647650002004,2.2e-23,954.5739808619238,11.75054153963928,-0.4071202463567134,0.12303804125651303,0.20728500912024048,-0.3482129699679359,0.0029863762585170253,-11.405662500741483,-0.40880038463326657,0.10194978722044089,0.1910457168777555,9.602490316394789,99.99841,99.68630028346693,0.015605623761523043,-1.0922666053967935,15.367408136813626,17.05129298028056,-0.03367769877955912,0.16801892382765532,-0.3132100418717435,49.80842594693388,500.4070126014027,11.749879574689379,95457.1038120441,1.1341883210841683,0.09876630664729413,-0.1475843373927853,-0.4202948639679357,-0.39017250666733466,0.1423124315470942,0.22528279795991984,-0.16162861502805612,0.06606202531663327,1.7395906393426854,0.640486942773547,-0.07719672251903807,-0.04042330038076152,0.7630039592625251,0.2446903633486974,398731108.2823647,327400712.3266533,500992.868759519,16.839709865430862,-2.499317185779559,16.65096174296593,1.6857704604629258,1.7197797475490983,0.0,0.0,0.0,39.87141370000001,32.7364368,188.3606080825651,312.1056349509018,-100.56117484629259,-3.104745216787575,16.51553324961924,1.7630113508737475,-4.07414790232465,-0.3386551018737475,-0.7069076105350701,100.71684484629259,-0.30381441740681364,0.15251058060120243,0.028443462068136277,0.2422088944048096,38223307.701402806,0.0,0.0,0.0,1.0,0.0
38418417.0,-0.08700120769939879,0.05098452762725451,0.024719398264529055,0.24244089201202404,0.0,1511.0,1500.0,1242.0,1540.733763442886,1458.266236557114,1525.0,16.646513246312626,17.054648966292586,18.956333636773547,19.048902668657313,19.49883680983968,19.167662726873747,19.620397745891783,166.00163433867738,166.00163433867738,11.749975229158316,-0.0016857382224448898,-0.006397870432865731,0.0006657219799599198,-0.17831832966533065,0.1419269201002004,-0.08134511181162325,2.0,0.009274399599198412,1.0092743995991984,11.0,0.0,0.0,1.0,0.0,0.0,0.0,0.0,0.0,0.0,0.0,-0.17058378607615232,0.06683517928657315,1.7260736670821644,1.603266351993988,-7.483648422302604,229.82059460941883,48.39016276456914,-0.008590114256513025,-0.021693069701402803,0.04816272295991984,0.0,-0.465656393294589,-0.059118284480962006,-11.160579723787576,2.2e-23,954.6060951683367,11.75252895220441,-0.41822943573547094,0.09503489449098196,0.15980987811022038,-0.38403495353907807,-0.026476875611221966,-11.201834420721443,-0.4167724894008016,0.08370099949298594,0.13712983792785569,2.2e-23,99.99841,99.51730085871743,0.024055654751503015,-0.8742073642484969,15.367248835891782,17.004389385971944,-0.03274281951503006,0.04891432176553097,-0.31402901746893785,50.41631348879759,500.00761735090185,11.751991184709418,95461.68251895792,1.1342426811322646,0.39114488545691434,-0.4635706393947883,-0.8977493244488959,-0.4127058088797595,0.11541922036272545,0.17391401296192383,-0.183763084755511,0.06703844415831663,1.7204377610180361,0.646824624751503,-0.08510898423246492,-0.04774050668336673,0.7563697236092184,0.2509026332284569,398731052.159519,327401120.51603204,500660.28177515033,16.93734601743487,-3.36078241678958,16.60265398256513,1.5546444683426852,1.7705153556733466,0.0,0.0,0.0,39.87141370000001,32.7364368,187.631946698998,315.6260051064128,-100.2281277270541,-3.846442084699399,16.438147716232464,1.5834202418517032,-3.0417918945831657,-0.38414647730260537,-0.874923065286573,100.3837977270541,-0.24767176969739474,0.13401312148296593,-0.0021080073206413102,0.24913729400601203,38418417.408817634,0.0,0.0,0.0,1.0,0.0
38623916.0,-0.07970517717434869,0.048808707142284566,0.02546134220841683,0.24130350396793587,0.0,1514.3835728056113,1500.0,1240.0913770941884,1538.81316948497,1460.18683051503,1524.0,16.63058318695391,17.038089138557115,18.921117576793584,19.01142305498998,19.46156723268537,19.110089572364732,19.562568766312626,167.2500648771543,167.2500648771543,11.751884359098197,-0.0016829370240480962,-0.006380466749498998,0.0006702998356713426,-0.17793645933066132,0.1432775532965932,-0.08016885218036071,2.0,0.02443975771342685,1.0244397577134268,11.0,0.0,0.0,1.0,0.0,0.0,0.0,0.0,0.0,0.0,0.0,-0.19594978579158315,0.06803456544088177,1.704443916975952,1.5992229330541081,-6.437295074060121,226.39854907995993,48.30977603513026,-0.008467345054108217,-0.020890879126252503,0.04872413420641283,0.0,-0.5147130194388777,-0.0009159343486974617,-11.178240084609218,2.2e-23,954.6670429881764,11.754400233967935,-0.4144396339699399,0.07461414151703405,0.11670696572745491,-0.3962787518577153,-0.06471991770140269,-11.115692938617235,-0.39595066724248495,0.07816178624649299,0.09151032196793589,2.2e-23,99.99841,99.38409593895791,0.030715846879759517,-0.6902841692444891,15.367078583567135,16.938792002785572,-0.03143426425450902,-0.03542291621843685,-0.3147886333046092,51.060942041863726,499.7569943106213,11.753856065771544,95464.55410721443,1.1342768163466934,-0.09423140735871766,-0.3377113564729465,-0.7877688772044094,-0.4124681727194389,0.09129763946693387,0.1264891660681363,-0.19903835507014025,0.06844475028256514,1.6991094969058114,0.6541094024729459,-0.09113871414428856,-0.05208583553507014,0.7490749035370742,0.25429263301603205,398730982.8681362,327401523.90661323,500354.5221877755,17.00890377410822,-4.0149555521543085,16.516643613226453,1.3595655923446897,1.8093071198537074,0.0,0.0,0.0,39.87141370000001,32.7364368,186.81239594348696,318.9601825781563,-99.95403994224449,-4.347793835180361,16.360067291122245,1.3799869519318637,-2.04540154691984,-0.4028348856192386,-1.015850743557114,100.10970994749499,-0.18955184508617234,0.12456489877755511,-0.02751243009418837,0.2534469393527054,38623916.04008016,0.0,0.0,0.0,1.0,0.0
38822480.0,-0.0702246537995992,0.046356421825651306,0.03945536898396795,0.23936893066132264,0.0,1521.306613226453,1500.0,1238.201815767535,1533.8783445531062,1465.1216554468938,1521.9419158036071,16.716415384569135,17.12587534539078,18.900844826693387,18.9810775102004,19.431533491963926,19.076505960761523,19.529226126212425,168.49849531563126,168.49849531563126,11.753793495971944,-0.0016801358256513027,-0.006363063066132265,0.0006748776913827655,-0.1775545893527054,0.14462818654308618,-0.078992592498998,2.0,0.03960511582765532,1.0396051158276554,11.0,0.0,0.0,1.0,0.0,0.0,0.0,0.0,0.0,0.0,0.0,-0.2002005787214429,0.06872952268737476,1.6861097585010019,1.5955997855731463,-5.550067907458917,223.12112480360722,48.23058037811623,-0.008358535170340681,-0.02013576457314629,0.04930741931062124,0.0,-0.5290946104789579,-0.14202545859118237,-11.104155020280562,7.903865372545071,954.685991041483,11.755815192945892,-0.3840415328837675,0.06817731628456913,0.06781727837274547,-0.4696235228156312,-0.10425191837274554,-11.174854038016031,-0.367637771008016,0.05518228521843684,0.04196746085771541,7.903865372545071,99.99841,99.282207241503,0.035810204689378754,-0.5436446773266532,15.36699012268537,16.907783249418838,-0.03081585165731463,-0.09328548870541085,-0.3154941004288577,51.72504549791583,499.55744655951906,11.755416884068136,95466.8263319439,1.1343037751442886,0.11943167388176282,-0.18728709359919765,0.0004265653466934442,-0.3904831084328657,0.08645113837875751,0.08238622668136271,-0.2025154045951904,0.06927979354308618,1.681050691541082,0.660645359749499,-0.09306217910220442,-0.05227501725250502,0.7430655960140281,0.2588221811503006,398730903.2927856,327401925.1242485,500092.3073054108,17.049932500781562,-4.453961358735471,16.45510050008016,1.1356364941002002,1.8350673476933868,0.0,0.0,0.0,39.87141370000001,32.7364368,185.88593655671343,322.3676075150301,-99.71964000569137,-4.668994290396794,16.283501493066133,1.1354866593507011,-1.1146212432725444,-0.4273919315551101,-1.192354161048096,99.87531000569138,-0.14663835759519034,0.11926254374148296,-0.04753616435671344,0.2570547070541082,38822479.71743487,0.0,0.0,0.0,1.0,0.0
39045167.0,-0.06296204391583161,0.03960882178156311,0.04875042712224448,0.2399748104188377,0.0,1523.0,1500.0,1240.1382765531062,1528.6282069338677,1470.3717930661323,1518.0,16.656310105971944,17.064141066212425,18.883440110861727,18.952101181462925,19.402888488336675,19.047526590941885,19.5005830753507,169.73999583426854,169.73999583426854,11.755696985911824,-0.0016773715470941883,-0.006345636567134269,0.000679403246492986,-0.177175288,0.14598115503206413,-0.07781612634268537,2.0,0.054770472941883794,1.0547704729418839,11.0,0.0,0.0,1.0,0.0,0.0,0.0,0.0,0.0,0.0,0.0,-0.20261281626653307,0.06938055891783568,1.6680625556573145,1.5920132329839678,-4.676696268911822,219.85629306633265,48.1514884342485,-0.008256159250501001,-0.01942160533867735,0.049878580665330664,0.0,-0.4392028338937876,-0.12139990839679381,-10.832189194088176,2.2e-23,954.7101642809619,11.756962428817635,-0.34834746315030046,0.05069126560320641,0.025864859186372793,-0.5412123950420836,-0.08650927465931826,-11.01081961024048,-0.3298778759999999,0.038521414937875705,0.006928351470941821,2.2e-23,99.99841,99.21136470643287,0.03935240941282566,-0.43376029276753486,15.366989918396794,16.872836281062124,-0.03011691744689379,-0.12572643041883771,-0.31610774780561124,52.35362472823647,499.29949965551106,11.756674319338677,95469.7923197996,1.1343391041563127,0.1302885266012007,-0.2733374078937862,-0.552256153078158,-0.356605348038076,0.07171259026252495,0.03839476921442867,-0.197250117236473,0.06962911813226454,1.665833285308617,0.6665078354188377,-0.09183005845691385,-0.04950592328456915,0.7381586527014028,0.26193019129058115,398730817.55350703,327402325.49218434,499874.3147246493,17.06,-4.691849989300602,16.404190120681363,0.9121093716893783,1.8493865980200401,0.0,0.0,0.0,39.87141370000001,32.7364368,184.9093187551102,325.76182768036074,-99.53399224066132,-4.813078000861723,16.218374017354712,0.8966902085150297,-0.3537646294829646,-0.2775155714328651,-0.999127008404809,99.68966224066132,-0.0965902851042083,0.11399936286773547,-0.06468138713827656,0.2617305035470942,39045166.67334669,0.0,0.0,0.0,1.0,0.0
39262709.0,-0.05060896834068135,0.03269591210420841,0.0422742948256513,0.24603498644288577,0.0,1520.0300601202405,1500.0,1246.9699398797595,1524.970108246493,1474.029891753507,1515.0300601202405,16.568138822464928,16.973642232785572,18.86603539503006,18.92312485242485,19.37424348470942,19.01854722805611,19.47194003448898,169.685611906012,169.685611906012,11.756545402124248,-0.001681514847695391,-0.006323937829659319,0.000674321885771543,-0.1772763263987976,0.14777088816032063,-0.07660096071142285,2.0,0.06993583105611223,1.0699358310561122,11.0,0.0,0.0,1.0,0.0,0.0,0.0,0.0,0.0,0.0,0.0,-0.198057497242485,0.07004725732665332,1.651808682254509,1.5887130270641283,-3.89100970452505,216.49701345571142,48.073705024108214,-0.008165476573146292,-0.01876387856913828,0.05047933763927855,0.0,-0.438492990244489,-0.09059284040280562,-10.588602461282564,2.2e-23,954.712499796994,11.75786125496994,-0.3063686287074148,0.036079580302605184,-0.014102453501002043,-0.4438086845190381,-0.06537910098396768,-10.81101622713427,-0.27573762507014027,0.0343456818777555,-0.027739376220440905,2.2e-23,99.99841,99.15818363200401,0.04201143553907816,-0.3362602771422845,15.366957753426853,16.823903959719438,-0.029138912967935873,-0.14120653163727456,-0.3167032782805611,53.0147991297996,499.0682356907816,11.75760509783567,95472.4189496994,1.13437028697996,-0.2890326834408821,0.37996216377154196,-0.1687985176452883,-0.3086423787915832,0.04587546521643284,-0.005532376541082191,-0.18875408821843687,0.07029403717234468,1.650338280006012,0.6725634968016032,-0.08959496720040079,-0.04545574400200401,0.7331878830541081,0.26230311740280565,398730729.6599198,327402720.34989977,499714.61123126256,17.049469975370744,-4.764735146122244,16.36473425482966,0.679440266292585,1.8543110906873748,0.0,0.0,0.0,39.87141370000001,32.7364368,183.90530736412828,329.20004828517034,-99.39296770977955,-4.803029772781563,16.192271630120242,0.7031622896092183,0.30406034612625277,-0.13634876922645292,-0.7043979690160319,99.54863770977956,-0.058061650623246454,0.11121342225450902,-0.07560951874348698,0.26223616513026055,39262708.80761523,0.0,0.0,0.0,1.0,0.0
39491546.0,-0.040573076731462945,0.02795484314428857,0.035886430340681355,0.25223431158316634,0.0,1517.0,1500.0,1252.0,1518.9115254509018,1480.0884745490982,1513.0,16.63341549322645,17.040369865931865,18.848630679198397,18.89414852200401,19.345598491082164,18.98956785715431,19.443296983627253,169.4560120198397,169.4560120198397,11.757251158036071,-0.0016865921963927855,-0.006301660875751503,0.0006679412444889779,-0.17744231103206415,0.14961967605811624,-0.07538056269539078,2.0,0.08510118817034071,1.0851011881703407,11.0,0.0,0.0,1.0,0.0,0.0,0.0,0.0,0.0,0.0,0.0,-0.1865899132004008,0.07072949575751503,1.6373339076813624,1.5856968966232465,-3.1923123928637267,213.04403544769536,47.99721976513026,-0.008086870386773547,-0.01814032459519038,0.051043363250501,0.0,-0.2761985894609219,-0.1737263397154311,-10.575007970901803,5.454515517991943,954.7302714034068,11.758492810821643,-0.2503790141943886,0.02859169137875749,-0.045644585725450895,-0.31459830629859625,-0.07027868185370742,-10.567870671382765,-0.22442991698196382,0.024101013498997993,-0.058439265182364794,5.454515517991943,99.99841,99.1240907852505,0.043716190380761515,-0.25324891423647283,15.36686658509018,16.798650774128255,-0.028635675304609223,-0.1499141685971944,-0.31726301536472945,53.67395379587175,499.05392131402795,11.758337886533067,95472.58197649299,1.1343722299418837,0.0032616913426826155,-0.24960559247695682,-0.2040093747454938,-0.2638168118176352,0.043388258619238486,-0.045129180611222515,-0.18078773584569133,0.07083426709819639,1.6327379113426854,0.6793179559438878,-0.08748151843286571,-0.04158368016232463,0.7274223206312624,0.2623100039498998,398730640.335471,327403122.59158313,499596.612964529,17.029171794008015,-4.700447312346693,16.370827286553105,0.520447404290581,1.8504726113246492,0.0,0.0,0.0,39.87141370000001,32.7364368,182.9454993709419,332.53942689198396,-99.29189139811623,-4.669756245014027,16.199436463026053,0.5581808786152302,0.8151078955470947,0.02074330762525125,-0.6048273513326652,99.44756139811624,-0.028571841038076237,0.10745184906813626,-0.08270624539879759,0.2627374139679359,39491545.54308617,0.0,0.0,0.0,1.0,0.0
39691437.0,-0.03299485254909819,0.02655380368937876,0.031213066601202405,0.25533313168336674,0.0,1515.0,1500.0,1255.633266533066,1515.633266533066,1483.366733466934,1513.0,16.581919943787575,16.987548457515032,18.828305003326655,18.86057057747495,19.312217365370742,18.95734134813627,19.411304968016033,169.2264120733467,169.2264120733467,11.757956907915831,-0.0016916689418837675,-0.006279384921843688,0.0006615612064128256,-0.17760829566533062,0.1514684633226453,-0.07416016567935871,2.0,0.10026654628456914,1.100266546284569,11.0,0.0,0.0,1.0,0.0,0.0,0.0,0.0,0.0,0.0,0.0,-0.17463174454108216,0.07136866792785572,1.6231681266773548,1.5827348553767535,-2.5087143115931863,209.5892502236473,47.920708054909824,-0.008035322316633267,-0.01750278706012024,0.05157534533066132,0.0,-0.2382391567695391,-0.10243410298797594,-10.414348628316635,2.2e-23,954.7450269230461,11.75897960026052,-0.19567692413827653,0.027829537478957913,-0.06460166486773547,-0.297211105006012,-0.08884754146492989,-10.468799113046092,-0.17542583035270534,0.03085087608817635,-0.0757236258456914,2.2e-23,99.99841,99.10555675795591,0.04464281907214429,-0.18795747126252504,15.366744191843688,16.791594888697396,-0.028497015190380764,-0.15933269819038076,-0.3177707028296593,54.29342006294589,499.02012960581163,11.758870991963928,95473.00129963928,1.1343771273226453,0.42504164505811615,-0.007882948625248631,0.22915616519038204,-0.20212043644689376,0.03941125883166333,-0.06475974155711424,-0.16891997630260522,0.07145298940080161,1.6178892110220442,0.6851804536472946,-0.08394744083767536,-0.03643073054709419,0.7225975160420842,0.2617498875511022,398730554.3442886,327403520.12885773,499504.0523450902,17.0033110101002,-4.533177076336673,16.38556299541082,0.3809920580581162,1.8409257993126253,0.0,0.0,0.0,39.87141370000001,32.7364368,182.01059071282566,335.9363227815632,-99.21479942703407,-4.432850137094189,16.23203040284569,0.4418584024589178,1.3147868228757515,0.11835448236072149,-0.4611912743306612,99.37046942703407,0.006460481252505023,0.10621130065931864,-0.08516202923647294,0.261120549498998,39691437.38677355,0.0,0.0,0.0,1.0,0.0
39903601.0,-0.024759738074148305,0.025469240250501,0.027738646234468936,0.26079578649298596,0.0,1513.0,1500.0,1261.0,1512.0701402805612,1486.9298597194388,1512.0,16.556329188517033,16.961394476633266,18.798216211142282,18.811612014348697,19.263006019639278,18.914261451543087,19.36811918306613,168.99681215350702,168.99681215350702,11.758662665811622,-0.0016967459539078157,-0.006257107967935872,0.0006551803667334669,-0.1777742802985972,0.1533172508537074,-0.07293976766332665,2.0,0.11543190439879762,1.1154319043987977,11.0,0.0,0.0,1.0,0.0,0.0,0.0,0.0,0.0,0.0,0.0,-0.1575616648857715,0.07155910318637275,1.6122220710721444,1.5803364257855712,-1.982450828476953,206.11563341162324,47.84392075290582,-0.007988617683366733,-0.016894988096192384,0.05217404046292585,0.0,-0.1904168509218438,-0.004050847260521122,-10.42794378771543,2.2e-23,954.7420711773545,11.759359361462925,-0.14958761099198387,0.029029834875751493,-0.08050189875551102,-0.17918172718236441,-0.09889422183166419,-10.389566731643287,-0.12332269313426845,0.034136641342685424,-0.0978912870921844,2.2e-23,99.99841,99.09436130833667,0.04520253220641283,-0.13610795297394782,15.366856576853708,16.7795754704008,-0.028254386386773547,-0.16939384576553104,-0.31830465296793586,54.95618409456914,499.02228303547093,11.759265126793588,95472.96310396794,1.134376729024048,0.6365080083446879,0.013399219072138924,-0.07077968911823597,-0.14896720845290576,0.0422308567154309,-0.08545660187374748,-0.15252282874148293,0.07173579189979959,1.6062938547074148,0.6900153528456914,-0.07860202403206412,-0.02995446445891782,0.7188887083607214,0.2616819749879759,398730471.74448895,327403920.6450902,499427.3014985972,16.978575758637273,-4.26863638852505,16.42998484012024,0.28143939824248493,1.8252692683727454,0.0,0.0,0.0,39.87141370000001,32.7364368,181.12594234829658,339.36664987735475,-99.15924166933867,-4.123756440416834,16.285397778356714,0.3403550086593185,1.6083020822905814,0.28334248582965954,-0.38284471098797584,99.31491166933867,0.026030646619238422,0.1008170820741483,-0.07736000698997998,0.2616212506212425,39903600.7755511,0.0,0.0,0.0,1.0,0.0
40113232.0,-0.017161067104208415,0.024771915220440883,0.024775034623246494,0.2619277545891784,0.0,1512.0,1500.0,1262.0,1508.7034068136272,1490.2965931863728,1512.0,16.575129322024047,16.980540719739476,18.76812741965932,18.762653441222444,19.213794663907816,18.8711815549499,19.324933398817635,168.7424361805611,168.7424361805611,11.75933935757515,-0.0017020840380761522,-0.006234916246492987,0.000648343366733467,-0.177968488256513,0.15515555833466935,-0.0717311320501002,2.0,0.13059726151302606,1.130597261513026,11.0,0.0,0.0,1.0,0.0,0.0,0.0,0.0,0.0,0.0,0.0,-0.14041879073747493,0.07174314818436874,1.601321866218437,1.5779460221563126,-1.4584278451663326,202.64174840741484,47.76712952685371,-0.007958837206412824,-0.0163039543246493,0.052898109811623246,0.0,-0.13828433225651304,-0.10500897840881765,-10.351819179478957,2.2e-23,954.7527099472946,11.759589630380761,-0.10160740293987976,0.02900321156312625,-0.0976304191202405,-0.14557418741082168,-0.03945368362925854,-10.371618717014028,-0.07721760385971943,0.030783915579158314,-0.09952852578957916,3.003614881428854,99.99841,99.09170181711424,0.0453355666993988,-0.09258600734068136,15.366929955450901,16.760635626553107,-0.0278741194509018,-0.17880369874148297,-0.318824667490982,55.60985484268537,498.9482746875751,11.75954044008016,95473.81703929859,1.1343869281823649,0.1399035338356706,0.15916965435270486,-0.10542763313827709,-0.10479437697194388,0.03964949003607214,-0.10185910464328657,-0.13345650989178356,0.07180792293787576,1.5974564143146293,0.6939017563887775,-0.07214761014629259,-0.022756319334669338,0.7160832932324649,0.261510815757515,398730394.23326653,327404324.50561124,499371.3827521042,16.95827692767535,-3.946578935272545,16.489306226793587,0.2072488004749499,1.8059539149118238,0.0,0.0,0.0,39.87141370000001,32.7364368,180.32231716452907,342.7627658757515,-99.12551007727455,-3.7694866086693386,16.346366653106212,0.2596736914529058,1.749670975466934,0.19010318539478957,-0.2938776065871744,99.28118007727456,0.037240609124248494,0.09638239858517034,-0.07101208528857715,0.2614166615230461,40113232.098196395,0.0,0.0,0.0,1.0,0.0
40318349.0,-0.011341562525050084,0.023829606517034068,0.023131792585170338,0.2624763390781563,0.0,1511.0,1500.0,1262.0,1503.8997241082163,1495.1002758917837,1511.0,16.533301003547095,16.937469680661323,18.738038624108217,18.71369487681363,19.164583309458916,18.828101668356716,19.28174761921844,168.00540653767533,168.00540653767533,11.759449786072144,-0.0017125048356713428,-0.006214368280561123,0.0006326160661322646,-0.17871248760921843,0.15678970113226454,-0.07075161638076152,2.0,0.14576261962725454,1.1457626196272546,11.0,0.0,0.0,1.0,0.0,0.0,0.0,0.0,0.0,0.0,0.0,-0.1227046105310621,0.07173308766332664,1.5927397779438877,1.5760040534969941,-1.047111574613226,199.16320026773548,47.700395607374745,-0.007947102354709419,-0.01568352206212425,0.053687708615230464,0.0,-0.04003886183967929,-0.06183013853106214,-10.351950474248497,2.2e-23,954.7686514362728,11.759754656753506,-0.05505939152304605,0.035914438719438835,-0.11049546204008014,-0.16348129722845708,-0.0818415362244488,-10.357569882024048,-0.04062861233266528,0.01979724305210418,-0.10901011536673345,2.2e-23,99.99841,99.09934355136274,0.044953476931863724,-0.05662965875751499,15.366852166032062,16.73945045699399,-0.027451975701402807,-0.18244256654509017,-0.31930386051102205,56.22048404563127,498.8596138957916,11.759710660921844,95474.81363498999,1.1343986471442886,0.578439966701398,-0.34216713232264445,0.3028467562504977,-0.0635318698837675,0.038692016128256526,-0.1051568919639279,-0.11601626464128252,0.07177494688376754,1.5885949781943889,0.697672537260521,-0.06615484739478956,-0.016229749378757503,0.7131702856192386,0.26144769668537077,398730324.3250501,327404722.4086172,499338.9740687375,16.93797886064128,-3.5876162485150296,16.564093318436875,0.13393778920440874,1.7841215537134267,0.0,0.0,0.0,39.87141370000001,32.7364368,179.58703266793586,346.20317822484975,-99.10572950038076,-3.3787836284849697,16.403493898496993,0.18755776638076144,1.784510291517034,0.1829840566052101,-0.2350826502224449,99.26139950038076,0.05147233694188379,0.09295252465731463,-0.06112447588577153,0.26130390460921843,40318349.39478958,0.0,0.0,0.0,1.0,0.0
40516654.0,-0.009464246104208478,0.023631596104208417,0.022256676308617232,0.2618308033266533,0.0,1511.0,1500.0,1261.0,1503.0,1496.0,1511.0,16.44282534667335,16.84495870709419,18.707949835591183,18.66473630496994,19.11537196204409,18.785021771763525,19.238561839218438,167.26559531322644,167.26559531322644,11.759556943727455,-0.0017229541763527053,-0.006193829162324649,0.0006168374569138276,-0.17945965580961926,0.15842266787374748,-0.06977342196593186,2.0,0.160927976741483,1.160927976741483,11.0,0.0,0.0,1.0,0.0,0.0,0.0,0.0,0.0,0.0,0.0,-0.1046763188116232,0.07161630564529058,1.585432219767535,1.5743086403446895,-0.6977629186833659,195.68208826633264,47.6391913380962,-0.00793975907214429,-0.015093734226452904,0.054529326176352706,0.0,-0.04700737520040072,0.010343939585170431,-10.17030804272545,2.2e-23,954.7376418490982,11.759853503547095,-0.025871714739478913,0.02765784987174348,-0.10901217394789578,-0.12347970798597173,0.023825867282565395,-10.265393784148296,-0.008865355677354688,0.022519377927855733,-0.11459298350100205,2.2e-23,99.99841,99.11326057286573,0.04425767973547094,-0.029914965663326597,15.36689571460922,16.704409866392787,-0.026750292923847695,-0.18204998744488976,-0.3198033776212425,56.8634259052505,498.8639226963928,11.759826348697395,95474.75205893787,1.1343980208557114,-0.1476694313467043,0.15346033285572247,-0.359730334306614,-0.025817272156312472,0.03928320920440884,-0.11196383175350703,-0.10085484650500996,0.07172766130861724,1.5797052304709418,0.7013190713066132,-0.06089493677154306,-0.010569006711422824,0.7101625999639278,0.2612997795751503,398730261.0208417,327405127.4743487,499318.5288811623,16.911521520521042,-3.175141749072143,16.618478479478956,0.07304304360120226,1.759626777302605,0.0,0.0,0.0,39.87141370000001,32.7364368,178.93342763406812,349.65244961583164,-99.0936154749499,-2.9790678294529047,16.453957314348695,0.13656571126653294,1.8805105174989984,0.20110131312424895,-0.2315168667274549,99.24928553254509,0.0746210529078157,0.08742110221042083,-0.04560487499599194,0.261546253246493,40516654.06412826,0.0,0.0,0.0,1.0,0.0
40726959.0,-0.003363214873747458,0.022474423895791577,0.024067409388777564,0.26217552877755507,0.0,1512.0,1500.0,1261.0,1499.3471299098196,1499.6528700901804,1511.0,16.470186345270537,16.873065761242483,18.652514059278555,18.599152508557115,19.04917729292585,18.732951586012025,19.186216228517036,166.52578408877753,166.52578408877753,11.759664111382765,-0.0017334045170340681,-0.006173290044088176,0.0006010589759519037,-0.18020682401002006,0.160055633743487,-0.06879522663126252,2.0,0.17609333485571146,1.1760933348557114,11.0,0.0,0.0,1.0,0.0,0.0,0.0,0.0,0.0,0.0,0.0,-0.0869907935891783,0.07157746423446894,1.578913437012024,1.5727847264108215,-0.3862946314809613,192.20010726813626,47.582704088657316,-0.007954971474949899,-0.01448302712024048,0.05536463278356714,0.0,-0.08198817677354592,0.013781096048095694,-10.231711413146293,0.8035828347093408,954.7647389002004,11.75988521755511,0.007288102539078202,0.02552581544889775,-0.11285788689178339,-0.15509023287775575,0.06494714789579374,-10.251010228056112,0.017772635484969976,0.027287100128256546,-0.10836762011422843,0.8035828347093408,99.99841,99.12843045330662,0.04349921064729459,-0.00968805704809613,15.366934634569137,16.668816663947897,-0.026037639204408814,-0.17966389323647294,-0.3202730338496994,57.47492649853707,498.93051362925854,11.759857,95474.01394366733,1.1343892043887776,0.2689480375831703,0.2542552441322658,-0.4420352482925866,0.0049494660681364665,0.04168569549098206,-0.11297992400000001,-0.0766250765691382,0.07156340806813627,1.579713350248497,0.7020066892665331,-0.052336090050100176,-0.0020229292084168043,0.7102410956593186,0.2611937534749499,398730205.85490984,327405530.28597194,499310.10741442884,16.88107352014028,-2.7639639593827643,16.655234467054107,0.031074149458917733,1.7353974713707416,0.0,0.0,0.0,39.87141370000001,32.7364368,178.36533253486976,353.10199973887774,-99.09042911513026,-2.5772624572344673,16.49229483318637,0.09371383616032049,1.8711439689879756,0.09854801217434858,-0.11447710613827616,99.24609914847696,0.07126783845290582,0.08510200896993987,-0.040321278751502966,0.2617111940280561,40726958.73346694,0.0,0.0,0.0,1.0,0.0
40922233.0,0.0019479464809619203,0.021619110390781564,0.0276321801002004,0.26167744749499,0.0,1513.376753507014,1500.0,1261.0,1500.246492985972,1498.753507014028,1510.0,16.416912491703407,16.818404725170343,18.581647761082163,18.52344774346693,18.972643651442883,18.67540837002004,19.128294378857714,165.78597296432864,165.78597296432864,11.759771275270541,-0.0017438548577154308,-0.006152751925851703,0.00058528049498998,-0.18095399221042083,0.16168860061322646,-0.06781703187975952,2.0,0.1912586929699399,1.1912586929699398,11.0,0.0,0.0,1.0,0.0,0.0,0.0,0.0,0.0,0.0,0.0,-0.0705430643727455,0.0718200789238477,1.575243083252505,1.571880130250501,-0.21162030410020044,188.7149884685371,47.54325097803607,-0.00796899055511022,-0.013877242460921844,0.05625186093587174,0.0,-0.015990715396793576,0.03731998362525052,-10.200662098496995,2.2e-23,954.7619721220442,11.759854076973948,0.03143913024448897,0.023544529062124245,-0.11182547973346692,-0.07243000102605218,0.06573821251903786,-10.163699598396793,0.04113994036673345,0.019391696737474953,-0.1008002938717435,2.2e-23,99.99841,99.14662386476954,0.04258950215230461,0.0042324719939879725,15.366917262044089,16.63809376496994,-0.02542352918036072,-0.1730560238977956,-0.32070363366533067,58.04239191937876,498.8804314268537,11.759857,95474.58489362725,1.1343959921082165,-0.207761671707415,-0.6868472491102183,0.46930661186573114,0.025012248244488975,0.036169685943887774,-0.10916466343286574,-0.06691730898997997,0.07177271086172345,1.5707964,0.7054069681703407,-0.048995013775551106,0.0017166414649298573,0.7071043695410821,0.2597968969238477,398730158.601002,327405932.6533066,499310.29155210423,16.85708416811623,-2.3552326418396796,16.689372578917837,0.0006267786372745584,1.7111622219539078,0.0,0.0,0.0,39.87141370000001,32.7364368,177.87896513206414,356.5648026154309,-99.09935536104209,-2.1830349021122246,16.52359852579158,0.055812591456913835,1.7472604016893787,-0.011865136268537043,-0.17852704685170342,99.25502536104209,0.06519397714428858,0.08343420824248497,-0.034690559857715436,0.2605138935671343,40922232.79759519,0.0,0.0,0.0,1.0,0.0
