timestamp,control[0],control[1],control[2],control[3],control[4],output[2],output[3],output[4],output[5],output[6],output[7],indicated_airspeed_m_s,true_airspeed_m_s,indicated_airspeed_m_s.1,equivalent_airspeed_m_s,true_airspeed_m_s.1,equivalent_ground_minus_wind_m_s,true_ground_minus_wind_m_s,differential_pressure_raw_pa,differential_pressure_filtered_pa,temperature,gyro_bias[0],gyro_bias[1],gyro_bias[2],accel_bias[0],accel_bias[1],accel_bias[2],instance_count,seq_reached,seq_current,seq_total,item_changed_index,item_do_jump_remaining,valid,warning,finished,failure,stay_in_failsafe,flight_termination,item_do_jump_changed,execution_mode,nav_roll,nav_pitch,nav_bearing,target_bearing,xtrack_error,wp_dist,acceptance_radius,rollspeed_integ,pitchspeed_integ,yawspeed_integ,additional_integ1,x,y,z,temperature.1,pressure,temperature.2,gyro_rad[0],gyro_rad[1],gyro_rad[2],accelerometer_m_s2[0],accelerometer_m_s2[1],accelerometer_m_s2[2],x.1,y.1,z.1,temperature.3,altitude_sp,altitude_filtered,height_rate_setpoint,height_rate,airspeed_sp,airspeed_filtered,airspeed_derivative_sp,airspeed_derivative,throttle_integ,pitch_integ,baro_alt_meter,baro_temp_celcius,baro_pressure_pa,rho,xyz[0],xyz[1],xyz[2],xyz[0].1,xyz[1].1,xyz[2].1,roll_body,pitch_body,yaw_body,q_d[0],q_d[1],q_d[2],q_d[3],thrust_body[0],lat,lon,alt,vel_m_s,vel_n_m_s,vel_e_m_s,vel_d_m_s,cog_rad,ground_contact,maybe_landed,landed,ref_lat,ref_lon,x.2,y.2,z.2,vx,vy,vz,ax,ay,az,dist_bottom,roll,pitch,yaw,thrust_body[0].1,timestamp.1,isTakeoff,isClimbing,isDescending,isCruise,isLand
53515512.0,-0.040869191,0.0637724,0.188755501,0.0,0.0,1594.0,1500.0,1000.0,1520.0,1479.0,1526.0,15.03195547,15.40064759,15.91104205,15.84682294,16.23471993,15.67955816,16.06336085,145.4945362,145.4945362,11.75165605,-0.001459218,-0.005797111,0.000112882,-0.19989493100000005,0.178894382,-0.02691528,2.0,1.120624125,2.120624125,11.0,0.0,0.0,1.0,0.0,0.0,0.0,0.0,0.0,0.0,0.0,0.361148442,-0.131646614,-3.066869281,-1.485729583,-3.70084824,261.5039498,43.18370472,-0.011495818,0.014513821,0.068784736,0.0,-1.3613065430000002,0.125473189,-9.306114076,2.2e-23,954.5949236,11.75188177,-0.156406164,0.09823057,0.377395253,-1.39495055,0.24764333,-9.492395325,-0.15672331,0.081491545,0.367550794,2.2e-23,95.36510904,99.57376794,-2.44345982,-2.33384178,15.36721733,15.06001041,0.006144138,-0.576412524,-0.11972618,77.63289471,500.1340518,11.75146132,95460.24096,1.134225598,-0.6952133070000001,-0.08998547400000001,0.242340237,-0.150673011,0.101428827,0.374751262,0.348448549,-0.133820982,-3.055090635,0.054069682,-0.05830787,-0.17564089,-0.981234074,0.0,398728312.6,327429755.8,500721.9122,15.47322865,-13.40195955,7.675131026,1.120377991,2.621219048,0.0,0.0,0.0,39.87141370000001,32.7364368,156.0515679,558.8422916000002,-100.4145932,-13.62827391,7.055676075,1.436668706,-1.740790009,-5.319777365,2.163913129,100.5702632,-0.140916992,0.140183482,0.218136693,0.0,53515512.0,0.0,0.0,1.0,0.0,0.0
53540297.0,-0.03960207095791583,0.06109329912825651,0.18937289883567135,0.0,0.0,1593.1253150901803,1500.0,1000.0,1518.5961277955912,1480.4038722044088,1527.576621012024,15.050561726873747,15.419556796232465,15.909647854068137,15.845562221943888,16.233425238657315,15.677639599719438,16.061392328557115,145.00716612484968,145.00716612484968,11.751816088256513,-0.0014589392565130261,-0.005797247713426854,0.00011241793386773547,-0.1999048882945892,0.17887727459318636,-0.026833122066132264,2.0,1.1225992694488978,2.122599269448898,11.0,0.0,0.0,1.0,0.0,0.0,0.0,0.0,0.0,0.0,0.0,0.3552845775450902,-0.13192788820440882,-3.0645192326372745,-1.8223143008016032,-3.8012919235811626,261.11213990380764,43.17227471799599,-0.011492186739478959,0.014602687765531062,0.06855147175350702,0.0,-1.3782543619519039,0.12963089723046092,-9.283020692298596,2.2e-23,954.6012095314629,11.752130641603207,-0.15675948238276552,0.09571902586372745,0.3773720383006012,-1.4070949943466933,0.17689237331663327,-9.459627114118236,-0.15889654688777555,0.07714337521843687,0.36729150103607217,2.2e-23,95.2935162514028,99.51375436851703,-2.4673936183527054,-2.3774419331643286,15.367163692765532,15.07526714993988,0.005837930304609219,-0.5456932820581162,-0.11770168200400802,77.51571711537073,500.2028613386774,11.751702588817635,95459.45338432866,1.1342162627515031,-0.2836977243026052,-0.5081027095911823,0.4349283077334669,-0.15342662904408816,0.09679426461523047,0.3710124930781563,0.3404566405591183,-0.13604004446893786,-3.055206147212425,0.05396100545891783,-0.05962418105210421,-0.17174953826052106,-0.9818481428637275,0.0,398728279.56092185,327429781.4717435,500693.50596012024,15.446070406232465,-13.457957825350702,7.522157602154309,1.1782983340901805,2.6315483648877755,0.0,0.0,0.0,39.87141370000001,32.7364368,155.6668648234469,559.0343599895793,-100.3731145741483,-13.675911285851702,6.910954391058117,1.496259953757515,-1.7524831486533066,-5.270318006270541,2.127779733825651,100.5287845741483,-0.1410142438557114,0.13854170868537072,0.2132793150721443,0.0,53540297.38476954,0.0,0.0,1.0,0.0,0.0
53565083.0,-0.04017129205811623,0.05795887054709419,0.18901018046292586,0.0,0.0,1591.0812109238477,1500.0,1000.0,1518.5919663326654,1480.4080336673346,1528.0364641282565,15.013521859699399,15.381661681282566,15.908253658136273,15.844301498697394,16.23213054731463,15.675721044629258,16.059423812304612,144.51979599779557,144.51979599779557,11.751976121322645,-0.0014586599939879759,-0.005797383907815631,0.00011195386773547094,-0.19991484610821644,0.17886016770541083,-0.026750964651302604,2.0,1.1245744138977956,2.1245744138977956,11.0,0.0,0.0,1.0,0.0,0.0,0.0,0.0,0.0,0.0,0.0,0.34942071309018036,-0.13220916240881764,-3.0621691842745493,-2.1588990186032064,-3.901735607162325,260.72033000761525,43.160844715991985,-0.011488315164328657,0.014687260529058116,0.06831985285771544,0.0,-1.4005892931863728,0.14798066721042086,-9.259148509092183,2.2e-23,954.6113391993988,11.752389395691383,-0.15293477626252505,0.09346461734268537,0.37304346452505016,-1.3970109552184369,0.1718770517735471,-9.439646518541082,-0.1609171896953908,0.07276022434669338,0.3670659673466934,2.2e-23,95.22192346799599,99.45374079184369,-2.491327417224449,-2.421042086847695,15.367110055531063,15.090523889879758,0.005531722609218437,-0.5149740401162325,-0.11567718348897796,77.39853951555111,500.1698025440882,11.75195851008016,95459.83744368739,1.1342208340901803,-0.07680602535470941,-0.36100896271943883,0.07222511884168337,-0.152826740002004,0.0947425727234469,0.3691655795350702,0.33244174703607215,-0.1379213891042084,-3.0553401605370745,0.0538051836513026,-0.06077664735470942,-0.167838665498998,-0.9824607324689378,0.0,398728246.88517034,327429804.3925852,500658.8579759519,15.423018584108217,-13.508207292064128,7.380682132438877,1.234576128246493,2.641203967238477,0.0,0.0,0.0,39.87141370000001,32.7364368,155.2821617468938,559.2264283272547,-100.3316359482966,-13.723548666893787,6.766232707116232,1.5558512020340682,-1.7641762883066132,-5.220858647541082,2.0916463386513025,100.4873059482966,-0.1435476569779559,0.1329910440480962,0.20936452586172344,0.0,53565082.76953908,0.0,0.0,1.0,0.0,0.0
53590982.0,-0.040299559360721444,0.05714724458116233,0.1884761570761523,0.0,0.0,1588.7732348957916,1500.0,1000.0,1519.0,1480.0,1528.5263553947896,14.962707403947897,15.329652621543087,15.906859462204409,15.843040773046093,16.230835855971943,15.673802491943887,16.057455295671343,144.0324258745491,144.0324258745491,11.75213615476954,-0.001458380769539078,-0.005797519861723447,0.00011148980160320641,-0.19992480416232464,0.1788430607795591,-0.02666880747695391,2.0,1.1265495583466933,2.1265495583466936,11.0,0.0,0.0,1.0,0.0,0.0,0.0,0.0,0.0,0.0,0.0,0.34355684863527053,-0.13249043661322646,-3.0598191359118236,-2.4954837364048097,-4.002179290464929,260.3285200835671,43.14941471398797,-0.011485513885771542,0.014768359084168335,0.06808547671743488,0.0,-1.4254201837795593,0.17290591009418838,-9.234915492416834,2.2e-23,954.6232497769539,11.752652728537074,-0.15214801141482967,0.09048924600601203,0.3697923167014029,-1.381263161503006,0.16614129433667332,-9.425328513034067,-0.16286713254308618,0.06836086629859718,0.3668560750200401,2.2e-23,95.15033068420843,99.3937272155511,-2.5152612160581165,-2.464642240492986,15.367056418296594,15.105780627034068,0.005225514913827656,-0.4842547984529058,-0.11365268501202405,77.28136191332665,500.1172017456914,11.752221523747494,95460.4316786974,1.134227891731463,-0.07002582195791587,-0.11177136797595191,-0.3128209386973948,-0.1513393211462926,0.09230227924248496,0.3688273451683367,0.3266152364228457,-0.13897294615631262,-3.0533727806813626,0.054678222541082164,-0.06128938750501002,-0.16505286930460922,-0.9828543281503006,0.0,398728214.3777555,327429826.0667335,500621.3180639279,15.401869348376755,-13.55579321531062,7.244533900436873,1.2900928961482967,2.650547423857715,0.0,0.0,0.0,39.87141370000001,32.7364368,154.9013783032064,559.4141613450902,-100.28985269238477,-13.770149483607215,6.623847605374748,1.6145358293186374,-1.7649303978817634,-5.168945741593187,2.057477444683367,100.44552269238477,-0.14629358791983968,0.1262672810741483,0.20594159767334672,0.0,53590982.38276553,0.0,0.0,1.0,0.0,0.0
53618654.0,-0.038352630298597194,0.06029694286372747,0.18843808590981964,0.0,0.0,1586.977632470942,1500.0,1000.0,1519.0,1480.0,1529.8557062925852,14.935622261903807,15.301788670621242,15.905465266272545,15.84178004739479,16.229541164248495,15.671883938877755,16.055486774609218,143.5450557955912,143.5450557955912,11.752296193026051,-0.0014581019879759518,-0.005797655853707415,0.00011102573547094188,-0.1999347621783567,0.17882595341082164,-0.026586650264529058,2.0,1.1285247027955911,2.128524702795591,11.0,0.0,0.0,1.0,0.0,0.0,0.0,0.0,0.0,0.0,0.0,0.3376910679218437,-0.13277180056312626,-3.0574867838597193,-2.8274288234549094,-4.1019014658396795,259.93678908136275,43.13842285883768,-0.01148461653507014,0.014846775466933868,0.0678444686252505,0.0,-1.4476957756813629,0.1966368062244489,-9.212971922420842,0.11844554689378736,954.6347089527054,11.752917280581164,-0.15927721728456914,0.08593530068537075,0.37186996762925856,-1.374452502507014,0.1118020101503006,-9.409756773997996,-0.16470383729458918,0.06426869844689378,0.3665292914569139,0.11844554689378736,95.07873789599199,99.33371364368737,-2.539195014448898,-2.508242393657315,15.367002781062125,15.12103735975952,0.0049193071803607215,-0.4535355572324649,-0.11162818701603207,77.1641843111022,500.0987350815631,11.752486179579158,95460.6098261523,1.1342299980040078,-0.23887701490581162,-0.12232859628256516,-0.2691641454589179,-0.15096027017835673,0.08731415752104209,0.36958123778156315,0.3242944177755511,-0.13909600755911825,-3.04804867396994,0.05723376387975952,-0.06097583610821643,-0.16407739721242487,-0.9828932778276553,0.0,398728181.8703407,327429847.7851703,500583.77815190377,15.380720107835671,-13.603379134128256,7.108385668915832,1.345609664492986,2.659890880476954,0.0,0.0,0.0,39.87141370000001,32.7364368,154.5280914322645,559.5936028042083,-100.24748680681363,-13.814767795711422,6.485931378016032,1.671486480995992,-1.74476285902004,-5.112340257643287,2.0270657946132267,100.40315680681363,-0.1473720097955912,0.12178689547895792,0.20214911823046094,0.0,53618653.53907815,0.0,0.0,1.0,0.0,0.0
53643439.0,-0.0393462346232465,0.05561148282965932,0.1885451416372746,0.0,0.0,1585.7972563386772,1500.0,1000.0,1519.0,1480.0,1529.1800548657316,14.96532452987976,15.332137008276552,15.904071070340683,15.840519321743487,16.228246465310622,15.669965378597194,16.05351826076152,143.05768564448897,143.05768564448897,11.752456231282565,-0.0014578224849699398,-0.005797792567134269,0.00011056166933867735,-0.1999447194729459,0.17880884676352707,-0.026504492330661322,2.0,1.130499847244489,2.1304998472444887,11.0,0.0,0.0,1.0,0.0,0.0,0.0,0.0,0.0,0.0,0.0,0.33178897915230465,-0.1330548649539078,-3.0554897303246493,-3.0714651173186374,-4.187952973799599,259.54655435170343,43.135732733547094,-0.011481136418837676,0.014922943833667336,0.06759294478156312,0.0,-1.4215551818517034,0.19773796528056112,-9.234407333026052,2.4811225086172337,954.6376143408818,11.753204933226453,-0.15367905385571143,0.07895527135671343,0.37440810328657315,-1.3853384298837674,0.15650893293787574,-9.379007067747496,-0.16439497811823647,0.06599696730861723,0.3639877265711423,2.4811225086172337,95.00714511498998,99.27370006460922,-2.5631288135611223,-2.5518425468216432,15.366949143827656,15.136294099699398,0.004613098725450902,-0.42281631529058117,-0.10960368902004008,77.04700670887776,499.8222681769539,11.752772016973948,95463.78736519038,1.13426773850501,-0.29043840713226454,0.17023274839679348,0.21141512617635244,-0.1497866104729459,0.0859142416513026,0.3703475514769539,0.3164561547194389,-0.1436539724488978,-3.0481506842124246,0.0572946408496994,-0.06345132663527055,-0.16030016776553108,-0.9833545572845691,0.0,398728149.3629258,327429869.43146294,500546.2382398798,15.35957086729459,-13.65096506016032,6.972237437394791,1.4011264321162324,2.669234337096192,0.0,0.0,0.0,39.87141370000001,32.7364368,154.16861456533067,559.7577697302606,-100.20404755851703,-13.855734019639279,6.35624755202004,1.72524286349499,-1.68605420352505,-5.047090274054109,2.003575606266533,100.35971755851705,-0.146829078244489,0.1389414623486974,0.18955070403807617,0.0,53643438.9238477,0.0,0.0,1.0,0.0,0.0
53668224.0,-0.03981748419038076,0.057514516386773545,0.18490972180961926,0.0,0.0,1586.3304599498997,1500.0,1000.0,1519.5546623687376,1479.4453376312624,1528.4428857715432,14.994095068877755,15.361546836873748,15.902676874408819,15.839258596092185,16.226951771943888,15.668046823887776,16.051549741342686,142.5703155490982,142.5703155490982,11.752616269539079,-0.0014575429819639277,-0.005797928723446894,0.00011009760320641282,-0.1999546773246493,0.17879173955911823,-0.026422334953907816,2.0,1.1324749916933867,2.1324749916933867,11.0,0.0,0.0,1.0,0.0,0.0,0.0,0.0,0.0,0.0,0.0,0.32581289447094186,-0.1333413934809619,-3.0541760264168336,-3.1363406721122247,-4.246143252120241,259.1593688753507,43.14996178853708,-0.011478309240480962,0.01501819057715431,0.06732491141482966,0.0,-1.382669302527054,0.19288197431663326,-9.267262013138277,5.434580620825653,954.6382679847695,11.753498669559118,-0.15235881515230462,0.07721855211623246,0.37148338016633264,-1.395625801533066,0.16687712859118237,-9.324746337140281,-0.16352131208016032,0.06925743289178357,0.3608631321743487,5.434580620825653,94.92892022336673,99.20256333226453,-2.5571784377595193,-2.5937860740300605,15.366895244749498,15.152062393066132,0.004296654967935872,-0.39153691170541083,-0.10814385192184368,76.92248816288577,499.71617059178357,11.753058522905812,95465.02263689379,1.13428242450501,-0.19581014943086167,0.2975317757014028,0.07779733518236459,-0.14748820677955912,0.08497983093186372,0.3655281504509018,0.3086231552785571,-0.13983471542284567,-3.0482681733166332,0.05670941517835671,-0.061801895503006014,-0.15637598384168336,-0.9841225866212425,0.0,398728116.855511,327429891.13346696,500508.6983835671,15.338421626753506,-13.698550980621242,6.836089205873748,1.456643199739479,2.6785777931583166,0.0,0.0,0.0,39.87141370000001,32.7364368,153.8091376426854,559.9219367120243,-100.16060831022044,-13.896700249138277,6.226563726581162,1.778999245993988,-1.627345547472946,-4.98184029046493,1.9800854179198397,100.31627831022044,-0.14945829717034068,0.13888989499799598,0.18425144280360722,0.0,53668224.308617234,0.0,0.0,1.0,0.0,0.0
53696809.0,-0.040300608450901804,0.0601944080501002,0.17985715065731464,0.0,0.0,1586.3697409639278,1500.0,1000.0,1519.3637259699399,1479.6362740300601,1529.2665330661323,15.015356805551102,15.383287124408817,15.901282678476955,15.837997870440882,16.225657080601202,15.666128271202405,16.0495812198998,142.0829454739479,142.0829454739479,11.75277630779559,-0.0014572637955911824,-0.00579806467735471,0.0001096335370741483,-0.19996463506212425,0.17877463246893788,-0.026340177779559118,2.0,1.1344501361422845,2.1344501361422847,11.0,0.0,0.0,1.0,0.0,0.0,0.0,0.0,0.0,0.0,0.0,0.3198099263827655,-0.13362918056112225,-3.0531105901362725,-3.136125454480962,-4.294211284823648,258.77329122124246,43.170337736793584,-0.011476173016032064,0.015116001983967935,0.06705448865330661,0.0,-1.33915294146493,0.1858616953527054,-9.304265420661322,8.60267505092986,954.6381035488978,11.753794616152303,-0.15240503121643287,0.07641663018837676,0.3686519485791583,-1.390927239511022,0.1628615027975952,-9.295984490426854,-0.16244244611022043,0.07307456019038076,0.3575267177034068,8.60267505092986,94.84788077398798,99.1267061208016,-2.5385457223446894,-2.6350265571743487,15.366841231543086,15.168047780781563,0.003975866961923848,-0.3600197848817635,-0.10692364752104208,76.79485424016032,499.73099534408817,11.753358459498997,95464.85892018036,1.134280466028056,-0.15768775556312628,0.24467720838677354,-0.015561470396793564,-0.14790741363727455,0.08316288445490982,0.36142378058517033,0.30231095983767536,-0.13585445977955912,-3.046996538977956,0.05684216461122245,-0.05992396765731462,-0.15323668230661322,-0.9847290544729459,0.0,398728084.31643283,327429912.8240481,500471.15851583163,15.317272386212425,-13.74613690222445,6.699940974352706,1.5121599676793587,2.687921249334669,0.0,0.0,0.0,39.87141370000001,32.7364368,153.44101512344693,560.0860053677357,-100.11487454729459,-13.93747713713427,6.0950030741222445,1.8330998750300602,-1.5706486048456914,-4.923169863196393,1.9636666259619238,100.27054454729459,-0.15344712223246493,0.1318767376553106,0.18085486703006012,0.0,53696808.9759519,0.0,0.0,1.0,0.0,0.0
53730704.0,-0.04091554775751503,0.06039606573547094,0.17505775086573147,0.0,0.0,1584.9238476953908,1500.0,1000.0,1518.0761523046092,1480.9238476953908,1531.8476953907816,15.02101444737475,15.389065855230461,15.899888483306613,15.836737145551103,16.224362389258516,15.664209717755512,16.047612699218437,141.59557539118236,141.59557539118236,11.75293634529058,-0.0014569849759519036,-0.00579820070741483,0.00010916947094188377,-0.19997459243286572,0.178757525745491,-0.026258020529058117,2.0,1.1364252806673345,2.1364252806673347,11.0,0.0,0.0,1.0,0.0,0.0,0.0,0.0,0.0,0.0,0.0,0.31380695837074146,-0.13391696764128258,-3.0520451542224447,-3.135910236482966,-4.342279317160321,258.38721356713427,43.19071368138276,-0.011474755671342686,0.015206791877755511,0.06678846372945892,0.0,-1.300779199539078,0.17746986874348697,-9.33214928585972,11.181317115222447,954.6385225995992,11.754093646152304,-0.15230461685971944,0.07408055280761523,0.3682099438997996,-1.3643235642064127,0.1572735072945892,-9.316899011759519,-0.16120099361322646,0.07602038303807615,0.3544070249238477,11.181317115222447,94.76627476741483,99.04989870158317,-2.5173601221082165,-2.67612552148497,15.366787192525049,15.18407686803607,0.003654203889779559,-0.32845480557915835,-0.10575167994789579,76.66659320446894,499.8183287472946,11.753677164408817,95463.84199176352,1.134268330745491,-0.24732023076953913,0.031153549973947925,0.2408659831022044,-0.15203262992985972,0.08031322891583167,0.3611882398076153,0.2980197554829659,-0.13630755297995992,-3.0438753971422847,0.05828294885370742,-0.06003210399799598,-0.15122416834068136,-0.9849485905951904,0.0,398728051.6873748,327429934.3713427,500433.1570294589,15.296351648276554,-13.793540020841684,6.5639298443947895,1.5677224360501,2.697255931,0.0,0.0,0.0,39.87141370000001,32.7364368,153.0594553254509,560.2499211717435,-100.06557455671343,-13.977959741102206,5.960525385879759,1.887735544953908,-1.5170783436172346,-4.874725631122245,1.958238465517034,100.22124455671343,-0.15721731042685372,0.12414701577755512,0.17673646019038075,0.0,53730703.56513026,0.0,0.0,1.0,0.0,0.0
53764560.0,-0.04018227010220441,0.05865262320240482,0.1732516449739479,0.0,0.0,1584.1643286573146,1500.0,1000.0,1518.8356713426854,1480.1643286573146,1530.3286573146293,14.976645988296594,15.343597377134268,15.89849429496994,15.83547642749499,16.22306769791583,15.66229115747495,16.04564418537074,141.10820524008017,141.10820524008017,11.753096375951904,-0.0014567054729458916,-0.005798337420841683,0.00010870540480961924,-0.19998455048697394,0.17874041833867735,-0.026175862595190384,2.0,1.1384004258757514,2.1384004258757514,11.0,0.0,0.0,1.0,0.0,0.0,0.0,0.0,0.0,0.0,0.0,0.3078039910420842,-0.1342047547214429,-3.0509797176252507,-3.135695019168337,-4.3903473501803605,258.0011359130261,43.21108963280561,-0.01147409413026052,0.01528938273747495,0.06651660832064128,0.0,-1.308553701731463,0.15677020271142286,-9.278197258092185,8.470399783625252,954.6441776745492,11.754420345671344,-0.15324505409218436,0.07015452978356715,0.36312727363727454,-1.3265212186072144,0.1615274162064128,-9.356322070729458,-0.15850054493987975,0.07114739091783566,0.35323212416432864,8.470399783625252,94.68466876084169,98.97309127553108,-2.4961745218717435,-2.717224485795591,15.366733160340681,15.200105955290582,0.0033325415010020043,-0.29688982627655314,-0.10457971169138276,76.53833216877754,499.8154548032064,11.75399875995992,95463.87133198397,1.1342686573386773,-0.10748234386573152,-0.11653901015430854,0.3299893999899799,-0.15017446204609217,0.08139656965531063,0.3612235247835672,0.29279946416833663,-0.14036325172745492,-3.0416639435350703,0.05950339721042084,-0.062020188372745484,-0.14880126463326654,-0.9851226472945892,0.0,398728018.6482966,327429955.0302605,500391.01352064125,15.277481420561122,-13.839302683446894,6.429149020569138,1.6236950016813627,2.7065118690000003,0.0,0.0,0.0,39.87141370000001,32.7364368,152.66583116613228,560.4136997557116,-100.01307265130261,-14.01817813498998,5.823428697364729,1.9428515895731462,-1.466315309194389,-4.835462778262525,1.9626780168316633,100.16874265130261,-0.15642561360521043,0.1189043763747495,0.17554393858917836,0.0,53764559.88577154,0.0,0.0,1.0,0.0,0.0
53791342.0,-0.03965672460320642,0.05654896073747496,0.17682244553306614,0.0,0.0,1582.809619238477,1500.0,1000.0,1518.7385400080161,1480.2614599919839,1529.071079230461,14.988185398456913,15.355453065450902,15.897100100681364,15.834215703486974,16.221773006573144,15.660372603146293,16.043675665571143,140.620835148497,140.620835148497,11.75325641256513,-0.0014564265651302605,-0.005798473539078156,0.00010824133867735471,-0.19999450794589177,0.1787233115270541,-0.026093705256513028,2.0,1.140375570488978,2.140375570488978,11.0,0.0,0.0,1.0,0.0,0.0,0.0,0.0,0.0,0.0,0.0,0.3018010231182365,-0.1344925418016032,-3.0499142810280566,-3.1354798018537076,-4.4384153832004,257.6150582589178,43.23146558422846,-0.011469685865731463,0.015366568078156314,0.06624233108216433,0.0,-1.3194538325190381,0.13523692493587175,-9.218702470503006,5.401219660290584,954.6501873044089,11.754748925991985,-0.15367110994188377,0.07018823872545091,0.3605476354529058,-1.3532130170080159,0.17260856887174345,-9.290005010112225,-0.155701277997996,0.06574482934669339,0.3521889443927856,5.401219660290584,94.60306275426855,98.89628385543087,-2.474988922230461,-2.7583234501062126,15.366679122204408,15.216135036593187,0.003010879112224449,-0.2653248469739479,-0.10340774403006012,76.41007113903807,499.77910616172346,11.754336443507015,95464.2938014028,1.1342737162905812,0.07775428690180346,0.022848344026051903,0.005222956010020374,-0.15176721156112222,0.08296948602805611,0.35791762284969947,0.28571886960721443,-0.14157935014028056,-3.041282944376754,0.05955372746693387,-0.06280197719038076,-0.14534807625851703,-0.9855822287234469,0.0,398727984.7759519,327429974.2012024,500342.0156208417,15.262004456533067,-13.882350670821642,6.296404154955912,1.680346213503006,2.7156374989939884,0.0,0.0,0.0,39.87141370000001,32.7364368,152.2722069472946,560.5774783396794,-99.96057071613227,-14.058396528877756,5.6863320088497,1.9979676341923849,-1.4155522753667336,-4.796199925402806,1.9671175687414828,100.11624068637275,-0.15665018055110222,0.1197649072244489,0.17120792196793588,0.0,53791341.77354709,0.0,0.0,1.0,0.0,0.0
53816150.0,-0.03858123866933868,0.05651555607815631,0.17779795011422847,0.0,0.0,1581.6452905811623,1500.0,1000.0,1518.7165315911823,1480.2834684088177,1527.92875898998,14.974280181503005,15.341220697835672,15.895705904749498,15.832954977835671,16.220478315230462,15.658454050460922,16.04170714767535,140.13346507334668,140.13346507334668,11.753416450821645,-0.0014561474669338677,-0.005798609492985972,0.00010777727254509018,-0.2000044655951904,0.1787062045250501,-0.02601154808216433,2.0,1.1423507149378758,2.142350714937876,11.0,0.0,0.0,1.0,0.0,0.0,0.0,0.0,0.0,0.0,0.0,0.2957980550300601,-0.1347803285270541,-3.048848844430862,-3.1352645841843687,-4.486483415865732,257.22898060480964,43.25184153210421,-0.011465306216432866,0.015447752951903808,0.0659545269739479,0.0,-1.3295879291743486,0.11526873497995992,-9.162543577088176,2.395759914721443,954.6563009613226,11.755080129018035,-0.15319939953707415,0.06895594242885772,0.35943659137074147,-1.3704974442785571,0.15493762853707413,-9.262608021811623,-0.1529753901743487,0.060505599531062125,0.351013191739479,2.395759914721443,94.5214567476954,98.81947643697394,-2.4538033223987976,-2.7994224144168336,15.366625085971943,15.232164119799599,0.002689216723446894,-0.23375986802605211,-0.10223577653306613,76.28181010739479,499.66023564529064,11.754679047715431,95465.65738903808,1.1342899498356713,0.08929821013226454,0.11416271569739479,-0.19150020158116232,-0.15106914048296594,0.08248142814629258,0.3534537971202405,0.2781078370661323,-0.14174309858116232,-3.041415157681363,0.05926025211623246,-0.06311833041482966,-0.141595460254509,-0.98612589797996,0.0,398727950.6735471,327429992.9613226,500291.12526292587,15.247464353186373,-13.924649151903807,6.164221405751503,1.7371847956533066,2.724727151693387,0.0,0.0,0.0,39.87141370000001,32.7364368,151.88837659378757,560.7320677859719,-99.90756170144289,-14.096636225931864,5.554305200148297,2.0510918598577157,-1.3781134888496993,-4.765821003336673,1.951368526,100.06323168336674,-0.16021023221442887,0.12414183295791582,0.16364404704809618,0.0,53816150.23246493,0.0,0.0,1.0,0.0,0.0
53840936.0,-0.037477084120240485,0.058769325240480966,0.17419694795190382,0.0,0.0,1581.0,1500.0,1000.0,1518.7715430861724,1480.2284569138276,1527.3426853707415,14.927810105450902,15.293568929118237,15.89420067761523,15.831592784188377,16.21908007008016,15.656556482685371,16.039760521142284,139.64609498677356,139.64609498677356,11.753576489078156,-0.0014558679639278557,-0.005798745561122244,0.00010731320641282565,-0.20001442353507015,0.17868909723246493,-0.025929390907815632,2.0,1.1443258593867736,2.1443258593867736,11.0,0.0,0.0,1.0,0.0,0.0,0.0,0.0,0.0,0.0,0.0,0.2897950869418838,-0.13506811496192386,-3.0477834078336676,-3.135049366224449,-4.534551448240482,256.84290296212424,43.27221747707414,-0.011462506911823647,0.01553620419238477,0.0656558679739479,0.0,-1.3336150728617233,0.10203071869939881,-9.1246276108998,2.2e-23,954.6624374877756,11.755419216673346,-0.152568034252505,0.06667412878557115,0.35904062024248495,-1.3578730422284568,0.11846985306212429,-9.304906413591182,-0.15062687477354708,0.05642681179158317,0.34920410027655313,2.2e-23,94.4400544938477,98.74271767412826,-2.4338693527214432,-2.8401593987995994,15.366571178296594,15.248230049158318,0.0023668199599198394,-0.20238887042084167,-0.10109841694589179,76.1541106256513,499.49050495410825,11.75502350290581,95467.59661759519,1.1343129910741483,-0.07817734919839678,0.09275147992384783,-0.157840784699399,-0.1471894804749499,0.07928680424649298,0.35002566114028055,0.2709308865230461,-0.14085803266733468,-3.041152238102205,0.0591087159238477,-0.06287573492785571,-0.13804652401002004,-0.9866573498076153,0.0,398727916.57114226,327430011.7328657,500240.23490501003,15.232924249839678,-13.966947632985972,6.032038656547094,1.7940233778036072,2.7338168043927857,0.0,0.0,0.0,39.87141370000001,32.7364368,151.51655686092184,560.8753882314628,-99.8539308465531,-14.132449369599199,5.428495781897796,2.1017734405971944,-1.3570147434649298,-4.746336790180361,1.9108614263927854,100.00960088198399,-0.16485422990981963,0.13118803766332665,0.15434948397394788,0.0,53840935.61723447,0.0,0.0,1.0,0.0,0.0
53865721.0,-0.040126215130260524,0.05995543726052103,0.1710454429478958,0.0,0.0,1581.0,1500.0,1000.0,1517.25250501002,1481.74749498998,1529.62124248497,14.960934409238478,15.327353315711424,15.892068221583166,15.829657385370743,16.21709683675351,15.654777461242485,16.037937538737474,139.15872483567134,139.15872483567134,11.753736527334668,-0.001455588460921844,-0.005798882274549098,0.00010684914028056113,-0.20002438082965932,0.17867199058517033,-0.025847233733466937,2.0,1.1463010038356714,2.146301003835671,11.0,0.0,0.0,1.0,0.0,0.0,0.0,0.0,0.0,0.0,0.0,0.2837921188537074,-0.13535590204208417,-3.046717971236473,-3.1348341489098193,-4.582619481260521,256.4568253839679,43.29259342849699,-0.011461781571142284,0.015630297208416834,0.06537878555511023,0.0,-1.3136455021002003,0.11523830817434869,-9.158395566058115,2.2e-23,954.6686636450902,11.755789284729458,-0.1559070857735471,0.07367369218436873,0.35767148767935875,-1.351738170747495,0.1733342059839679,-9.301788118557115,-0.14976121067134268,0.05690787444088176,0.3449063617995992,2.2e-23,94.35980326416833,98.66623377280561,-2.4210059977815632,-2.8788515141162323,15.366517973987976,15.264504104088177,0.0020402746232464934,-0.17211369495591186,-0.10015656169138278,76.02958343112223,499.50589470861723,11.75537532731463,95467.42006739479,1.134310870496994,-0.05634621246492987,0.25546514908416823,-0.3849377821743486,-0.14624818726452907,0.07496103951703408,0.35396615831863726,0.26631455031663326,-0.13577816047294589,-3.038606655360722,0.059892740084168325,-0.06032905392184369,-0.1357447240941884,-0.9870858977915832,0.0,398727882.4687375,327430030.56893784,500189.3445470942,15.218384146492987,-14.009246114068137,5.899855907342686,1.8508619599539078,2.742906457092184,0.0,0.0,0.0,39.87141370000001,32.7364368,151.14944523266536,561.0142912757515,-99.8000562395992,-14.167311316232464,5.305123541639278,2.1514975198136277,-1.3423211891703406,-4.731123232695391,1.8606493280921843,99.9557262446493,-0.15592656515230463,0.14150660963527054,0.15049274655511022,0.0,53865721.002004005,0.0,0.0,1.0,0.0,0.0
53890506.0,-0.03844899963927856,0.06305875294388777,0.16676929077755512,0.0,0.0,1579.1002004008017,1500.0,1000.0,1518.8997995991983,1480.1002004008017,1530.633266533066,14.948094942525051,15.314088354649297,15.889460916973947,15.827288040661323,16.21467074747495,15.653088186332665,16.036208172124248,138.6713547478958,138.6713547478958,11.753896559258516,-0.0014553095911823647,-0.005799018354709419,0.00010638570741482966,-0.20003433875751503,0.1786548833046092,-0.025765075925851703,2.0,1.1482761482845691,2.148276148284569,11.0,0.0,0.0,1.0,0.0,0.0,0.0,0.0,0.0,0.0,0.0,0.27778915076553107,-0.1356436891222445,-3.045652535272545,-3.1346189315951904,-4.630687514280561,256.07074774248497,43.31296937358717,-0.01145596666733467,0.0157371853747495,0.06506078525250501,0.0,-1.2936759307054109,0.12844589828256514,-9.192163520583167,2.2e-23,954.6748898024048,11.756159346452906,-0.15016174396392787,0.07054961361122244,0.3509319192845691,-1.382680576028056,0.13351948241683365,-9.266694516845691,-0.14889554593587176,0.057388937723446894,0.3406086239559118,2.2e-23,94.28417539312625,98.59085394635271,-2.436543574729459,-2.909329891460922,15.366467625711422,15.281614146833668,0.001697066144288577,-0.14624017088176353,-0.1,75.91779852813627,499.47360753567136,11.755748454809618,95467.7910901002,1.1343152561002003,0.12296009703006017,-0.049275141699398894,-0.1768934180701402,-0.1439527460300601,0.07549669414629258,0.3486582815971944,0.26203965939278556,-0.13410039304008015,-3.035834638038076,0.0610254104008016,-0.05944381669138277,-0.1336808664789579,-0.9873532756432867,0.0,398727848.36633265,327430049.3416833,500138.45418917836,15.203844043146292,-14.051544588817636,5.767673158138276,1.9077005421042084,2.7519961091583167,0.0,0.0,0.0,39.87141370000001,32.7364368,150.78233360440885,561.1531942567134,-99.74618162631263,-14.202173262865731,5.181751300747495,2.201221599663327,-1.327627635509018,-4.715909675843688,1.8104372297915834,99.90185162631263,-0.15933016016232465,0.13823949429659318,0.1457797593246493,0.0,53890506.38677355,0.0,0.0,1.0,0.0,0.0
53916863.0,-0.03690065207214429,0.06311546761923849,0.16412019046693388,0.0,0.0,1577.6072144288578,1500.0,1000.0,1519.2144288577153,1479.7855711422847,1532.1783567134269,14.938228238757516,15.303988672945891,15.886758943186372,15.8248321853507,16.212156363366734,15.651416803927855,16.034497469418838,138.18398467274548,138.18398467274548,11.754056593847695,-0.0014550304549098196,-0.005799154308617235,0.00010592200801603207,-0.20004429641883767,0.17863777629058117,-0.025682918384769538,2.0,1.150251292733467,2.1502512927334667,11.0,0.0,0.0,1.0,0.0,0.0,0.0,0.0,0.0,0.0,0.0,0.2717861826773547,-0.1359314762024048,-3.0445870990420842,-3.134403713887776,-4.678755547300601,255.68467008837678,43.333345321342684,-0.011450484326653307,0.01583761082965932,0.06475652899398797,0.0,-1.2771650989118237,0.13920238636072144,-9.22358715393988,2.2e-23,954.6822657609217,11.756531936452905,-0.1468013950761523,0.06471090614028056,0.34820122347895793,-1.380634290775551,0.12193405921042079,-9.236820825627255,-0.14805603313026053,0.05772606171743487,0.33658914810621243,2.2e-23,94.2094692637074,98.51569423216434,-2.4577433627815632,-2.938170719386773,15.366417850761524,15.298890858036073,0.001350535583166333,-0.12124419162324652,-0.1,75.80855401478958,499.47458584829667,11.756130008677355,95467.77893196393,1.1343151303086172,-0.04871362829258455,-0.23730651639278558,-0.1442688835110218,-0.14333293115631263,0.07552328766332665,0.34182789662725455,0.2561880325951904,-0.13624660534468935,-3.0345772380420843,0.06160086416432866,-0.06059999993987975,-0.13087550273547097,-0.9876204973627255,0.0,398727814.2639278,327430068.1018036,500087.5638312625,15.189303943727454,-14.093843066232465,5.635490408933867,1.9645391242545092,2.761085761490982,0.0,0.0,0.0,39.87141370000001,32.7364368,150.39803210841686,561.2911552466934,-99.68753175653308,-14.23746910008016,5.054601088635271,2.2507396486813627,-1.3119542771883768,-4.687176245330662,1.7758732628336675,99.84320175653308,-0.1617783589799599,0.12935127571142285,0.14430866916032065,0.0,53916862.91382766,0.0,0.0,1.0,0.0,0.0
53945256.0,-0.036665932046092184,0.05993070171943889,0.16332459136472946,0.0,0.0,1576.8476953907816,1500.0,1000.0,1517.8717948537073,1481.1282051462927,1533.6953907815632,14.936711089078155,15.302518853667335,15.884056969398797,15.82237633218437,16.209641977114227,15.649745421523045,16.03278676519038,137.69661458236473,137.69661458236473,11.754216632104209,-0.0014547511042084169,-0.00579929041482966,0.00010545794188376754,-0.20005425386573147,0.17862066949098196,-0.025600761210420844,2.0,1.1522264371823647,2.1522264371823647,11.0,0.0,0.0,1.0,0.0,0.0,0.0,0.0,0.0,0.0,0.0,0.2657832145891784,-0.13621926328256512,-3.0435216624448898,-3.134188495965932,-4.726823580168337,255.29859243426853,43.353721271242485,-0.011446463208416833,0.0159278702004008,0.06447224873547094,0.0,-1.267135486202405,0.1453658343947896,-9.250617840727454,2.2e-23,954.6917962859717,11.756909259599198,-0.1480658339719439,0.05959283439478958,0.34931732991983966,-1.3499260323386775,0.1484694599519038,-9.216558563276553,-0.1472655251002004,0.057793462276553104,0.33309109800400805,2.2e-23,94.13476313214429,98.44053451583166,-2.478943150681363,-2.9670115470981964,15.366368077955912,15.316167569238477,0.0010040050220440882,-0.09624821273146295,-0.1,75.6993094992986,499.47462653466937,11.75651703028056,95467.7757387976,1.134315143731463,-0.49088201818837673,-0.20723809549098202,-0.25776253578557123,-0.14510066430661323,0.07467376654709419,0.3363835768096193,0.24881469782364732,-0.14114059006212423,-3.0347626058697394,0.06158149864729459,-0.06325823810821643,-0.1273363515190381,-0.9879190324368737,0.0,398727780.00921845,327430086.54208416,500035.53059478954,15.175557511863728,-14.135189148517036,5.503466392811623,2.0202665726973947,2.770153253412826,0.0,0.0,0.0,39.87141370000001,32.7364368,149.99750752064134,561.4282272478958,-99.6243751943487,-14.273174426653307,4.923885380206413,2.300063254168337,-1.2953562188496994,-4.6456833044669334,1.7560773698056114,99.7800451943487,-0.1626930636312625,0.12373385419038076,0.1426019169719439,0.0,53945255.99398798,0.0,0.0,1.0,0.0,0.0
53975920.0,-0.03797804523647295,0.05658616495190381,0.16302742726252506,0.0,0.0,1576.0881763527054,1500.0,1000.0,1517.2324560320642,1481.7675439679358,1532.1763527054109,14.923305555270542,15.288755935771544,15.881354995611224,15.819920472945892,16.207127596933866,15.648074039118237,16.031076054889777,137.20924443126253,137.20924443126253,11.754376670360722,-0.0014544723607214428,-0.005799427128256513,0.000104993875751503,-0.20006421191983967,0.17860356208416836,-0.025518604036072146,2.0,1.1542015816312625,2.1542015816312627,11.0,0.0,0.0,1.0,0.0,0.0,0.0,0.0,0.0,0.0,0.0,0.259780246501002,-0.13650705036272545,-3.0424562258476953,-3.1339732786513026,-4.774891612428858,254.9125147801603,43.374097215070144,-0.011443252721442886,0.01601115146292585,0.06418608246893788,0.0,-1.270070627777555,0.14234156098196393,-9.268861064210421,2.2e-23,954.7056366975952,11.757296037074148,-0.15214889059519038,0.059939765981963926,0.34686182841482965,-1.3552604041723448,0.15164178944889778,-9.191455210418837,-0.14657304273146293,0.057321319418837675,0.3306360856292585,2.2e-23,94.06005700665331,98.36537480557115,-2.500142937973948,-2.995852375416834,15.366318299078156,15.333444280440881,0.0006574744609218436,-0.07125223383967935,-0.1,75.59006498987976,499.31171904308616,11.756910294048096,95469.64101122245,1.1343373338396794,-0.5881124045751503,-0.0889881480841683,0.022107596665330798,-0.14914486013827655,0.07583403289378758,0.33526922111022045,0.24149720431262525,-0.145279883753507,-3.034893993549098,0.06152360962525051,-0.06553893098997997,-0.12380847748897796,-0.9882233815891783,0.0,398727745.14729464,327430103.7072144,499978.94088196394,15.16497529260521,-14.17273816717435,5.37207522042485,2.071564106490982,2.7791323938136276,0.0,0.0,0.0,39.87141370000001,32.7364368,149.59629174068135,561.5652614196393,-99.5610266127455,-14.308897204569138,4.793017753406813,2.349378575428858,-1.2787187614028057,-4.603646706308617,1.7369107154809622,99.7166966127455,-0.17020169010821642,0.14199833888977959,0.12725250659519038,0.0,53975920.05611222,0.0,0.0,1.0,0.0,0.0
54004248.0,-0.038556249288577156,0.06386697423647293,0.15946795125651303,0.0,0.0,1576.0,1500.0,1000.0,1517.7233467895792,1481.2766532104208,1529.9859719438878,14.958887776372745,15.325096490621242,15.878653021823647,15.817464613707415,16.20461321004008,15.646402656713427,16.029365351302605,136.72187434729457,136.72187434729457,11.754536708617234,-0.0014541929458917835,-0.005799563170340681,0.00010452980961923847,-0.20007416930260521,0.1785864553486974,-0.02543644619038076,2.0,1.1561767260801603,2.1561767260801603,11.0,0.0,0.0,1.0,0.0,0.0,0.0,0.0,0.0,0.0,0.0,0.25377727841282566,-0.13679483744288579,-3.041390789250501,-3.1337580613366733,-4.822959645360721,254.52643712605212,43.394473165611224,-0.011440541042084168,0.016100913196392785,0.06388896391783566,0.0,-1.2730057693527053,0.13931728824048095,-9.287104287022045,2.2e-23,954.7194771763527,11.7576828145491,-0.1486619414769539,0.06319762266933866,0.33923881025651303,-1.373350554222445,0.17992359280360717,-9.1858342068497,-0.14588055969138278,0.05684917723246493,0.3281810739258517,2.2e-23,93.98535088116233,98.29021509531063,-2.521342725937876,-3.0246932030641283,15.3662685202004,15.350720991643286,0.00031094389979959957,-0.046256254947895814,-0.1,75.48082048046092,499.2385965194389,11.757316145490982,95470.47780679358,1.134347226292585,-0.47984243452905834,-0.23092869276152286,-0.032532053769538966,-0.14877648363527055,0.07452727599398798,0.3353963465430862,0.23418123676352706,-0.14100032534068135,-3.0350796821102204,0.06095845944088177,-0.0636557289519038,-0.1200906920260521,-0.9888354842985972,0.0,398727709.74829656,327430119.9324649,499918.976597996,15.156736529258517,-14.207475038737474,5.241152739220441,2.119580799993988,2.788046100456914,0.0,0.0,0.0,39.87141370000001,32.7364368,149.19894551282565,561.6991927797594,-99.49773350418837,-14.343844031182364,4.664017025214429,2.397803804374749,-1.2608511309198396,-4.5631471740821645,1.7139295249138278,99.65340350418838,-0.16278710716633266,0.13742403343887777,0.12939378793186374,0.0,54004247.84569138,0.0,0.0,1.0,0.0,0.0
54030433.0,-0.039233924304609216,0.06584129294388778,0.15752394923647295,0.0,0.0,1574.2765531062125,1500.0,1000.0,1518.430861723447,1480.569138276553,1531.5851703406813,14.968737676593186,15.335112967835672,15.87595105234469,15.815008754468938,16.202098826573145,15.644731278617234,16.027654648597196,136.43330581022042,136.43330581022042,11.754799072224449,-0.0014540599358717436,-0.005799718082164329,0.00010428979158316633,-0.20008790956312625,0.17857435229859722,-0.025351455771543085,2.0,1.158151870529058,2.1581518705290583,11.0,0.0,0.0,1.0,0.0,0.0,0.0,0.0,0.0,0.0,0.0,0.24777431075551104,-0.1370826245230461,-3.0403253526533067,-3.133542843591182,-4.871027678380762,254.1403594719439,43.41484911272545,-0.011436049927855711,0.01619757797995992,0.06358863687775551,0.0,-1.2750488324108216,0.13102738121843688,-9.309766222490982,2.2e-23,954.729957933467,11.758109313166333,-0.14971780408016033,0.0665753503987976,0.3357074297254509,-1.378063077052104,0.1921058229458918,-9.250020931993989,-0.14631734876753508,0.05658317834068136,0.3257353822805611,2.2e-23,93.91064475567134,98.21505538074149,-2.54254251398998,-3.0535340306232466,15.366218741322646,15.367997702845692,-3.558666132264521e-05,-0.021260276056112228,-0.1,75.37157597104208,499.1292156563126,11.757726407755511,95471.73949258517,1.1343621853346693,-0.41981115384368745,-0.4383945731903807,0.030595041659318603,-0.14693795334869741,0.07255804596793587,0.333274666492986,0.22691578308617236,-0.13811553221843687,-3.03528498651503,0.060464467026052106,-0.062460934126252504,-0.11642692872344688,-0.9893814971983969,0.0,398727674.3218437,327430136.07735467,499858.56908677355,15.148805563106212,-14.241842553667334,5.11029181745491,2.167166576729459,2.7969512123847697,0.0,0.0,0.0,39.87141370000001,32.7364368,148.81531132525052,561.8221293859718,-99.43463696781563,-14.37604122757515,4.541631784440882,2.443074931835671,-1.2386242934769538,-4.528094343288577,1.677431258547094,99.59030696781564,-0.16049662084769536,0.13413480635671343,0.12791870030260521,0.0,54030433.31062124,0.0,0.0,1.0,0.0,0.0
54055219.0,-0.03930512316032064,0.06387060274348698,0.15675121548096194,0.0,0.0,1571.6192384769538,1500.0,1000.0,1519.0,1480.0,1534.428857715431,14.948929051823647,15.31475910521042,15.873249084248497,15.81255289523046,16.199584444488977,15.643059901903808,16.025943945891783,136.36719309478957,136.36719309478957,11.755175940861724,-0.0014540908336673347,-0.005799893927855711,0.00010430063527054109,-0.20010588275951904,0.1785678481002004,-0.025263295931863727,2.0,1.160127014977956,2.160127014977956,11.0,0.0,0.0,1.0,0.0,0.0,0.0,0.0,0.0,0.0,0.0,0.24177134323647295,-0.1373704116032064,-3.039259916246493,-3.1333276257074147,-4.919095711210421,253.75428181783568,43.435225058456915,-0.011429884208416834,0.016297453312625252,0.06328552119639279,0.0,-1.2759741321362725,0.11613969854509021,-9.337964751298598,2.2e-23,954.7362289925852,11.758585582845692,-0.1521305479178357,0.06715311014228459,0.3364171493066132,-1.3582601645771544,0.18061008470741488,-9.32802079438076,-0.14816910193787575,0.05657547463126253,0.3233013685791583,2.2e-23,93.83589432096191,98.13925668793587,-2.5600603615310624,-3.0815928168496995,15.366166611242486,15.38459709260521,-0.0003686175130260516,0.0031806060320640904,-0.1,75.26292885741482,499.01671656272543,11.758144427735472,95473.0394988978,1.134377629791583,-0.28078855862324736,-0.5522310319298601,0.1948774794749497,-0.144807543997996,0.0701255911222445,0.329579763751503,0.22021427107414832,-0.13709426017034068,-3.0350558750100203,0.06031152706613226,-0.06214543296593186,-0.113096193498998,-0.9898001225430861,0.0,398727638.90921843,327430152.2360721,499798.16157555114,15.140874596953909,-14.276210068597194,4.97943089587976,2.2147523531362725,2.8058563241743486,0.0,0.0,0.0,39.87141370000001,32.7364368,148.44174887394794,561.9369901589179,-99.37168481907815,-14.406218774088176,4.424105735957916,2.48602931609018,-1.2131955412064128,-4.497042210987976,1.6310044609118237,99.52735481907816,-0.16385901714228454,0.1337693327074148,0.12229401600601203,0.0,54055218.69539078,0.0,0.0,1.0,0.0,0.0
54080004.0,-0.03711663816833667,0.06538940233066132,0.15481903550501003,0.0,0.0,1570.1002004008017,1500.0,1000.0,1519.0,1480.0,1532.1503006012024,14.913807767414829,15.278648205470942,15.87054711046092,15.810097035991983,16.197070056713425,15.641388519499,16.024233243186373,136.51277056452906,136.51277056452906,11.75566178240481,-0.0014542776753507015,-0.0058000891242484965,0.00010455051703406814,-0.200127883747495,0.17856667160521042,-0.025172120228456916,2.0,1.1621021594268537,2.1621021594268535,11.0,0.0,0.0,1.0,0.0,0.0,0.0,0.0,0.0,0.0,0.0,0.2357683751482966,-0.1376581986833667,-3.0381944804088175,-3.133112408392786,-4.967163743470942,253.36820416372746,43.455601009879764,-0.011422919418837676,0.016393126128256514,0.06297810510621243,0.0,-1.2755921525430862,0.09353559017234471,-9.372638600763526,2.2e-23,954.7375766072145,11.759120063987975,-0.14597320986372747,0.05995893669939881,0.33892747897194386,-1.2994950320060121,0.1425627083927856,-9.293964234899798,-0.15167572538476953,0.05686986041282565,0.3208810130581162,2.2e-23,93.76101142501001,98.06154779633266,-2.5665711448076154,-3.1073137110921847,15.36610745230461,15.39917164773547,-0.0006612913386773544,0.025962040833667318,-0.1,75.15606764278557,499.0044683308617,11.758579351122245,95473.17713134269,1.1343792885811623,0.2659261757955908,-0.3146736321763529,0.29282435434869736,-0.14383542494789578,0.06708011117835672,0.32668163353907814,0.21508391592785572,-0.1359418814288577,-3.033499621260521,0.06086396171943888,-0.061641634114228454,-0.1105809679739479,-0.9900808081202405,0.0,398727603.4396794,327430168.3378757,499737.7540643287,15.132943630801604,-14.310577583527053,4.848569974873747,2.262338129543086,2.814761436533066,0.0,0.0,0.0,39.87141370000001,32.7364368,148.06818642264528,562.0518509318639,-99.30873267603207,-14.436396326292584,4.3065796869058115,2.5289837003446896,-1.1877667883667336,-4.465990078687375,1.5845776627074148,99.46440267603207,-0.16796624469939878,0.13237353039278557,0.11774937915631263,0.0,54080004.08016032,0.0,0.0,1.0,0.0,0.0
54113302.0,-0.03541636245090181,0.06588085064328657,0.15270814299198399,0.0,0.0,1569.1229830901802,1500.0,1000.0,1519.0,1480.0,1531.7933760881763,14.937288877394788,15.302730841442886,15.867845136673346,15.807641176753506,16.194555676032063,15.63971713709419,16.022522533386773,136.65834796332666,136.65834796332666,11.756147616853706,-0.001454464517034068,-0.005800284320641283,0.0001048003987975952,-0.2001498840260521,0.1785654958196393,-0.025080943815631265,2.0,1.1640773045851702,2.1640773045851707,11.0,0.0,0.0,1.0,0.0,0.0,0.0,0.0,0.0,0.0,0.0,0.22976540706012025,-0.13794598576352704,-3.0371290438617233,-3.1328971910781562,-5.015231776440881,252.98212650961923,43.47597695420842,-0.011417914044088175,0.016479214695390782,0.06266931345290581,0.0,-1.2752101729499,0.07093148109018035,-9.407312449519038,2.2e-23,954.7389242927856,11.75965454513026,-0.14405736218236473,0.05583839485971944,0.32954563053707414,-1.3459030468817634,0.1758546996733467,-9.36101496828056,-0.15518234883166332,0.05716424548496994,0.3184606568276553,2.2e-23,93.68595649498998,97.98135796773546,-2.558786189302605,-3.12999820048497,15.366039148957915,15.411116387234468,-0.0009015497535070139,0.046588219350701406,-0.1,75.05152591561122,498.9792445446894,11.759008882925851,95473.4619114429,1.1343826755150301,0.7974502048076152,-0.20705452960521042,-0.11775227431663332,-0.14495136106412826,0.06931478740280561,0.3260603532905812,0.21231549063727456,-0.13759673616633267,-3.029921433727455,0.06263429329058116,-0.06235162890180361,-0.10935910663326653,-0.9900626048997996,0.0,398727568.04108214,327430184.4396794,499677.34648216434,15.125012671743487,-14.344945098456913,4.717709053158316,2.3099239059499,2.823666548891784,0.0,0.0,0.0,39.87141370000001,32.7364368,147.6836306751503,562.1656858142285,-99.2426966892986,-14.466796203266533,4.187045036178357,2.5717564740861727,-1.163554187983968,-4.436290682543087,1.546907718519038,99.3983666892986,-0.1681455967975952,0.12029629453507014,0.11926294223446894,0.0,54113302.490981966,0.0,0.0,1.0,0.0,0.0
54143451.0,-0.037344340072144294,0.06414454868937876,0.15053873036673346,0.0,0.0,1567.9366624148297,1500.0,1000.0,1518.8854623927855,1480.1145376072145,1532.3142617835672,14.885417419318637,15.249582561783567,15.865143162885772,15.805185322204409,16.192041291162322,15.63804575468938,16.02081182777555,136.80392540400803,136.80392540400803,11.75663345549098,-0.001454650889779559,-0.005800479985971944,0.000105050749498998,-0.2001718847234469,0.17856432008416834,-0.02498976735270541,2.0,1.1660524493246494,2.166052449324649,11.0,0.0,0.0,1.0,0.0,0.0,0.0,0.0,0.0,0.0,0.0,0.22376212290781564,-0.13819827096392784,-3.0361248650881763,-3.132690983466934,-5.060839214114228,252.59398126152303,43.49765416781563,-0.011413269322645291,0.016558239474949898,0.06236178832665331,0.0,-1.28133098348497,0.05251792977354707,-9.426861547847695,2.2e-23,954.7465449653307,11.760152444428858,-0.14432741553507014,0.05863008413226453,0.325810607997996,-1.3570597026833666,0.17056269086773543,-9.353259182957915,-0.15728963352104208,0.057203563004008015,0.3146275553246493,2.2e-23,93.61088941567135,97.90099293641282,-2.549991647256513,-3.152468254038076,15.365970204509017,15.42287540997996,-0.0011381065150300603,0.06706219097194391,-0.1,74.94714799873748,498.9574930547094,11.759451797294588,95473.71296565131,1.1343856419318639,0.5005503004228449,-0.24406655181362735,-0.22892067006613218,-0.14676089313226454,0.07042297264128256,0.3239646445811623,0.20707575980561121,-0.14130348481362726,-3.0285814370861726,0.06331466495190381,-0.06428025997194389,-0.10689561083967936,-0.990162768498998,0.0,398727532.647495,327430200.58837676,499616.9389418838,15.117081708496993,-14.379312613386773,4.586848131392785,2.3575096823567137,2.832571661250501,0.0,0.0,0.0,39.87141370000001,32.7364368,147.2843157753507,562.2781432863727,-99.17252046268537,-14.497494574128256,4.064813712264529,2.6142854248356713,-1.1409743453767534,-4.408407418268537,1.5209943931743486,99.32819046268537,-0.1692059461282565,0.12058258476753508,0.11489413428657314,0.0,54143450.601202406,0.0,0.0,1.0,0.0,0.0
54170360.0,-0.03935911618036072,0.06388640053907817,0.14713678510220438,0.0,0.0,1567.2913408216432,1500.0,1000.0,1518.874435280561,1480.125564719439,1532.7086591783568,14.83363987028056,15.196513829078157,15.862441191382766,15.802729468276553,16.189526905671343,15.63637437228457,16.01910112507014,136.94950287374752,136.94950287374752,11.757119294749499,-0.0014548372004008017,-0.005800675713426853,0.0001053011623246493,-0.20019388548296593,0.17856314412024046,-0.024898590889779557,2.0,1.1680275937735471,2.168027593773547,11.0,0.0,0.0,1.0,0.0,0.0,0.0,0.0,0.0,0.0,0.0,0.2177574380220441,-0.13829321788977955,-3.03539217090982,-3.1325247061462926,-5.09554169251503,252.19667256873745,43.52509838468938,-0.011408619779559119,0.01664028224248497,0.062051055613226457,0.0,-1.2931415204188377,0.037770977749498974,-9.433176988863728,2.2e-23,954.7596542935872,11.760618338456913,-0.14589192345290583,0.06214258710821642,0.3243667874008016,-1.356352929240481,0.14279795454108213,-9.317192221452906,-0.15817254338076153,0.05701970445891783,0.30955834814028055,2.2e-23,93.53582233635271,97.82062790571142,-2.54119710491984,-3.1749383075290583,15.36590126296593,15.434634433346694,-0.0013746635050100205,0.08753616265531067,-0.1,74.84277008476954,498.92280887234466,11.759907153687374,95474.10945024049,1.1343903529318637,0.0670817366292593,-0.42361879419238535,-0.2258599889559122,-0.14852250474348697,0.06966729049498997,0.3213311911302605,0.200188613755511,-0.14219964339679358,-3.028745747921844,0.06306269010821643,-0.06494967370340682,-0.10350137292985971,-0.9904944967735471,0.0,398727497.41382766,327430215.8066132,499554.9376695391,15.11050710018036,-14.412662800541083,4.458699992693386,2.404756367705411,2.841311059645291,0.0,0.0,0.0,39.87141370000001,32.7364368,146.87633634929858,562.3897921292586,-99.09991365541083,-14.52836817767535,3.9409992716673345,2.656671236176353,-1.1193530343607214,-4.381590337312625,1.501982941779559,99.25558365541083,-0.17157313758917836,0.1268380385711423,0.10728446163727454,0.0,54170360.23446894,0.0,0.0,1.0,0.0,0.0
54195146.0,-0.03639906693787576,0.0701687296032064,0.14093585673146294,0.0,0.0,1568.2599212725452,1500.0,1000.0,1519.2690084589178,1479.7309915410822,1531.7400787274548,14.896582329458917,15.260999213206413,15.85973922519038,15.800273609038076,16.18701252549098,15.63470298987976,16.017390422364727,137.09508034348698,137.09508034348698,11.757605128697396,-0.0014550240420841683,-0.005800870909819639,0.00010555104408817635,-0.20021588571142285,0.1785619676252505,-0.02480741442685371,2.0,1.1700027382224447,2.1700027382224447,11.0,0.0,0.0,1.0,0.0,0.0,0.0,0.0,0.0,0.0,0.0,0.2117499523146293,-0.13807356042685373,-3.0352023215310626,-3.132438271360722,-5.108439247078156,251.78104111743485,43.564073962384775,-0.011403638853707414,0.016738540460921842,0.061730902388777556,0.0,-1.308811339977956,0.025511041697394814,-9.430516175691384,2.2e-23,954.7764865266533,11.761062527975952,-0.1477482935551102,0.05768672436272546,0.31890539208416835,-1.3895449122505008,0.1256286978136273,-9.33335318855511,-0.1582249729799599,0.056684467186372746,0.30365070272945893,2.2e-23,93.46075525703407,97.7402628696994,-2.5324025625831665,-3.197408361551102,15.365832321422845,15.446393451402805,-0.0016112210260521038,0.10801013380761519,-0.1,74.7383921708016,498.85174029619236,11.76037160717435,95474.9075452505,1.1343999008456913,0.5078951160721433,-0.7394010762004001,-0.44027422537074107,-0.14938605206613229,0.0667386959739479,0.3198031466773547,0.19327196932865734,-0.13389236366332666,-3.028977266793587,0.06233732436272544,-0.06106006885771544,-0.09986362763527054,-0.9911636072224449,0.0,398727462.5519038,327430228.7943888,499489.2316016032,15.107085428937875,-14.443648146813628,4.336857884805612,2.4512148150681363,2.849665245755511,0.0,0.0,0.0,39.87141370000001,32.7364368,146.46835697635265,562.5014409721443,-99.02730684813628,-14.559241775911824,3.817184831070141,2.6990570475170337,-1.0977317238757516,-4.354773255825651,1.4829714898537076,99.18297684813628,-0.17530958086372744,0.12807376996993988,0.10123063691382767,0.0,54195145.61923847,0.0,0.0,1.0,0.0,0.0
54219930.0,-0.040046030232464926,0.06882769064729459,0.13753143568737478,0.0,0.0,1565.8270182965932,1500.0,1000.0,1519.069503266533,1479.930496733467,1535.0738933126252,14.97177218757515,15.337927757735471,15.857037251523046,15.7978177497996,16.18449813783567,15.63303160747495,16.015679719659317,137.24065773847695,137.24065773847695,11.758090970120241,-0.001455210883767535,-0.005801066853707414,0.0001058009258517034,-0.20023788668737474,0.1785607918777555,-0.024716237963927856,2.0,1.1719778826713427,2.1719778826713427,11.0,0.0,0.0,1.0,0.0,0.0,0.0,0.0,0.0,0.0,0.0,0.20574246660721443,-0.13785390296392785,-3.035012472152305,-3.132351836575151,-5.121336802388778,251.36540966613225,43.60304954008016,-0.01140088695791583,0.01683212085571142,0.06140769938476954,0.0,-1.324481159537074,0.013251106392785587,-9.427855363266534,2.2e-23,954.7933187597195,11.76150671749499,-0.1523767406052104,0.05800277769138276,0.31637862846092185,-1.3815012840561123,0.1964830420781562,-9.347127380981965,-0.15827740183166333,0.05634923066132265,0.2977430565711423,2.2e-23,93.38568817771542,97.65989784116232,-2.5236080202464932,-3.219878414825651,15.365763379879759,15.458152469458922,-0.0018477777995991982,0.1284841057074148,-0.1,74.63401424935871,498.6466632849699,11.760840964228457,95477.24620501001,1.1344276345651303,0.10071827878557166,-0.5005334951482969,-0.05557623628056163,-0.1450996466933868,0.06793090155110221,0.31452750170741484,0.18649862268136275,-0.13533182733066132,-3.029203561422846,0.06207953168336673,-0.06199598295190382,-0.09653512625050101,-0.9914513845971944,0.0,398727427.76472944,327430241.18416834,499422.62599819637,15.104429327114229,-14.474059282384768,4.216546952382766,2.4974818693286576,2.8579258985651306,0.0,0.0,0.0,39.87141370000001,32.7364368,146.0747805611222,562.6028301472946,-98.95557253943889,-14.58801588496994,3.6994545810941886,2.7378753104488975,-1.0788333223607216,-4.325219914360722,1.4518681635450903,99.11124268146293,-0.17486227150701403,0.13420047321242484,0.09605664817835673,0.0,54219930.25651303,0.0,0.0,1.0,0.0,0.0
54244715.0,-0.03907783471543086,0.06611672567535071,0.1373581635551102,0.0,0.0,1565.0,1500.0,1000.0,1519.0,1480.0,1535.0871528777554,14.971621072945892,15.33768812236473,15.854335277735471,15.795361890561123,16.18198375513026,15.631360230140281,16.013969011883766,137.38623518296592,137.38623518296592,11.758576806593187,-0.0014553977254509018,-0.005801262302605211,0.00010605080761523046,-0.20025988716833668,0.17855961614228458,-0.024625061501002004,2.0,1.1739530271202405,2.1739530271202407,11.0,0.0,0.0,1.0,0.0,0.0,0.0,0.0,0.0,0.0,0.0,0.1997349808997996,-0.137634245501002,-3.034822622773547,-3.1322654017895792,-5.134234357711423,250.94977821482965,43.64202511777555,-0.011394013402805611,0.01692484266733467,0.06109124333867735,0.0,-1.3351814070761523,0.020163053773547088,-9.432468412903807,1.7741284717535062,954.8003705400802,11.761969301482965,-0.1485845665270541,0.05704513790581162,0.3132779131202405,-1.384490775218437,0.18503667828256515,-9.359720355420842,-0.15820073121042086,0.0563653660240481,0.2934999749739479,1.7741284717535062,93.3106210983968,97.57953280767535,-2.51481347790982,-3.2423484685951904,15.365694438336673,15.469911487515033,-0.0020843345611222443,0.14895807761923846,-0.1,74.52963633286572,498.53135968777553,11.761305274248498,95478.56658122245,1.1344432998156313,0.04747179274148292,0.09254570573947862,-0.29787046496392766,-0.14507399095791584,0.06640929864729458,0.3091635631222445,0.179802190741483,-0.13653808698196393,-3.0294304798076155,0.06180835863326654,-0.06281274566933868,-0.09323788696192385,-0.991731732507014,0.0,398727392.9787575,327430253.61503005,499356.00592505006,15.10178554008016,-14.504461181322645,4.096260650635271,2.5437458448797594,2.8661850468176358,0.0,0.0,0.0,39.87141370000001,32.7364368,145.69025239719437,562.6977741583166,-98.88438634907817,-14.615471063206414,3.585546503621243,2.774452391945892,-1.0616454900601202,-4.293947616360722,1.4131685568036072,99.04005671653306,-0.17281111863527054,0.13254072500601202,0.09403935622845692,0.0,54244715.388777554,0.0,0.0,1.0,0.0,0.0
