timestamp,control[0],control[1],control[2],control[3],control[4],output[2],output[3],output[4],output[5],output[6],output[7],indicated_airspeed_m_s,true_airspeed_m_s,indicated_airspeed_m_s.1,equivalent_airspeed_m_s,true_airspeed_m_s.1,equivalent_ground_minus_wind_m_s,true_ground_minus_wind_m_s,differential_pressure_raw_pa,differential_pressure_filtered_pa,temperature,gyro_bias[0],gyro_bias[1],gyro_bias[2],accel_bias[0],accel_bias[1],accel_bias[2],instance_count,seq_reached,seq_current,seq_total,item_changed_index,item_do_jump_remaining,valid,warning,finished,failure,stay_in_failsafe,flight_termination,item_do_jump_changed,execution_mode,nav_roll,nav_pitch,nav_bearing,target_bearing,xtrack_error,wp_dist,acceptance_radius,rollspeed_integ,pitchspeed_integ,yawspeed_integ,additional_integ1,x,y,z,temperature.1,pressure,temperature.2,gyro_rad[0],gyro_rad[1],gyro_rad[2],accelerometer_m_s2[0],accelerometer_m_s2[1],accelerometer_m_s2[2],x.1,y.1,z.1,temperature.3,altitude_sp,altitude_filtered,height_rate_setpoint,height_rate,airspeed_sp,airspeed_filtered,airspeed_derivative_sp,airspeed_derivative,throttle_integ,pitch_integ,baro_alt_meter,baro_temp_celcius,baro_pressure_pa,rho,xyz[0],xyz[1],xyz[2],xyz[0].1,xyz[1].1,xyz[2].1,roll_body,pitch_body,yaw_body,q_d[0],q_d[1],q_d[2],q_d[3],thrust_body[0],lat,lon,alt,vel_m_s,vel_n_m_s,vel_e_m_s,vel_d_m_s,cog_rad,ground_contact,maybe_landed,landed,ref_lat,ref_lon,x.2,y.2,z.2,vx,vy,vz,ax,ay,az,dist_bottom,roll,pitch,yaw,thrust_body[0].1,timestamp.1,isTakeoff,isClimbing,isDescending,isCruise,isLand
23923302.0,-0.004061663,-0.111891629,-0.018815058,0.12984811,0.0,1488.0,1500.0,1366.847169,1526.615723,1472.384277,1454.307862,16.95205276,17.32980561,21.11226414,21.0691822,21.49709466,20.93474397,21.35992563,177.2654441,177.2654441,12.0439157,-0.001691263,-0.006862297,0.003273957,-0.160543262,-0.002889898,-0.108919703,2.0,-1.0,0.0,11.0,0.0,0.0,1.0,0.0,0.0,0.0,0.0,0.0,0.0,0.0,-0.8482540000000001,0.21931096,0.561532537,0.15159615,-30.08773501,181.6469757,55.53896664,-0.022153531,-0.039675526,-0.008100996,0.0,1.866387993,0.287543057,-6.949003782999999,2.2e-23,959.7434477,12.04231829,-0.022851151,-0.171182382,-0.033703439,0.011549753,0.199277318,-6.736951779,-0.11633073,-0.136311695,-0.033603496000000004,2.2e-23,53.86779698,56.6696789,3.805690515,1.787023589,15.33507683,19.57986243,-0.084895709,1.7584913969999998,-0.161107834,-22.58839748,455.2237114,12.04270137,95975.37071,1.140346206,-1.493830339,1.133013984,0.32126181,-0.013272068,-0.157060548,-0.037330904,-0.8592672140000001,0.224665817,0.525462975,0.8602604970000001,-0.426175896,-0.009088835,0.279717488,0.548267885,398713724.7,327393603.7,455695.5957,17.34065143,0.648771714,17.31368474,-1.3371194240000002,1.532780855,0.0,0.0,0.0,39.87141370000001,32.7364368,-4.534795116000001,250.8426289,-55.79564388,0.598143137,17.25531299,-1.088121539,0.287485198,1.349668162,2.960061395,55.95131388,-0.3842222770000001,0.333814715,-0.162935033,0.54846203,23923302.0,0.0,1.0,0.0,0.0,0.0
23949912.0,-0.015806782470941885,-0.1110527254729459,-0.021643454633266532,0.247196968757515,0.0,1488.0,1500.0,1386.4253598697394,1531.4103236973947,1467.5896763026053,1458.6530578156312,16.96013150196393,17.33816630987976,21.087867797074146,21.04486628569138,21.472466933026052,20.910872260340682,21.335749931723445,176.17174009038078,176.17174009038078,12.04347017727455,-0.0016907903106212424,-0.0068612912364729465,0.0032720811763527055,-0.16052311231663327,-0.002940295258517034,-0.1089283159458918,2.0,-1.0,0.0,11.0,0.0,0.0,1.0,0.0,0.0,0.0,0.0,0.0,0.0,0.0,-0.8515006286893788,0.22093786853707417,0.5505797527114229,0.14939411419238477,-29.668989598937873,181.5191198458918,55.629974571462924,-0.02214291496793587,-0.03960271560320641,-0.007914384985971943,0.0,2.2268630630681363,0.2992949155410822,-7.120853943993988,1.8580877535390783,959.7366116246493,12.042184930561122,-0.041019300362725455,-0.16854501550701403,-0.03020675373346694,0.7551098026513028,0.2109726550981964,-6.7173161174128255,-0.1502342523246493,-0.11950381710821643,-0.03338425188777555,1.8580877535390783,53.97599753967936,56.711249515470946,3.812841500170341,1.8276107807114228,15.335089231603206,19.63621020498998,-0.08602241802605211,1.7283236771362724,-0.1615209171182365,-22.470665126012022,455.277167244489,12.042541830841683,95974.7438186974,1.1403387572464931,-1.9894979120340681,1.4255741654669338,0.20902806390781564,-0.01575574811222445,-0.15815499013226453,-0.037582205931863726,-0.8596090878917836,0.2256712376973948,0.5171709897414829,0.8612307692164328,-0.42644631263326654,-0.00692228401002004,0.2763342890901804,0.5486673107715431,398713725.93366736,327393651.48837674,455730.3998579158,17.31805120931864,0.6566817532545091,17.28995462288577,-1.2636690622765532,1.5322483626232464,0.0,0.0,0.0,39.87141370000001,32.7364368,-4.520566378749499,251.23175686072145,-55.81685755599199,0.6089550546593187,17.298876634008018,-1.0260829351603207,0.36622831788777555,1.7097194809739478,2.831755530214429,55.97252775727455,-0.3709549464428858,0.3384221345991984,-0.16616616487975952,0.5482411645891784,23949911.55511022,0.0,1.0,0.0,0.0,0.0
23975223.0,-0.02724865290180361,-0.10709478135671342,-0.02322421723446894,0.3199488584769539,0.0,1488.0,1500.0,1410.7354709418837,1538.2333423146292,1460.7666576853708,1463.687374749499,16.99435469166333,17.373210338837676,21.063471454148296,21.020550371382765,21.44783920306613,20.887000550681364,21.311574233446894,175.94804325871743,175.94804325871743,12.043132224188376,-0.0016895717254509018,-0.00685986892985972,0.003267952138276553,-0.1604833755531062,-0.0030574800501002005,-0.10893199487174349,2.0,-1.0,0.0,11.0,0.0,0.0,1.0,0.0,0.0,0.0,0.0,0.0,0.0,0.0,-0.8547472570801604,0.22256477737274552,0.5396269681242485,0.14719207868336673,-29.25024418787575,181.39126399178357,55.72098250591182,-0.02213264769739479,-0.03953542746292585,-0.007739031086172345,0.0,2.57130126343487,0.31003264783366735,-7.3126831292004,4.137666845328657,959.7296015567135,12.042058011863727,-0.06213951147895791,-0.16104158014028055,-0.0273509425490982,1.3459274306492985,0.25393121250701406,-6.748030557623246,-0.18624157313226453,-0.10068549416032065,-0.033688836236472945,4.137666845328657,54.084198099358716,56.752820127955914,3.8199924853406815,1.8681979721242485,15.335101633206413,19.69255797997996,-0.08714912735070139,1.698155957272545,-0.16193400053507015,-22.352932772024047,455.32049855390784,12.042384758096192,95974.23466725451,1.140332683234469,-2.0767885308176353,1.6509982980901803,0.023381424801603212,-0.020458109290581162,-0.15624540175951904,-0.03715831361723447,-0.8601770664468937,0.22665867358717434,0.5082463463026051,0.8622324045891783,-0.4268069713106213,-0.004658665342685371,0.27267220906012024,0.5490666505470942,398713727.1971944,327393699.2468938,455763.46465731465,17.304950679218436,0.664725591224449,17.27612556472946,-1.1932960614529058,1.5317345498897794,0.0,0.0,0.0,39.87141370000001,32.7364368,-4.506342758857715,251.6192143492986,-55.83756110256513,0.6199749366052104,17.344947443386772,-0.9649605093286573,0.44850150456913823,2.051698458266533,2.7001098438657314,55.99323151707414,-0.3562473568036072,0.34262223358517035,-0.1696452945691383,0.548213340771543,23975222.511022042,0.0,1.0,0.0,0.0,0.0
23999008.0,-0.038334358352705405,-0.09947353453507014,-0.023339637851703406,0.34032175771543083,0.0,1488.0,1500.0,1440.6032064128256,1547.4387309719439,1451.5612690280561,1469.5310621242486,17.05928444749499,17.439593848256514,21.039075111222445,20.99623445707415,21.4232114695992,20.863128841022043,21.287398535170343,176.74616693807616,176.74616693807616,12.042920611282565,-0.0016874770881763527,-0.006857957394789579,0.00326117670741483,-0.16042063382965932,-0.0032531065751503006,-0.10892987880761523,2.0,-1.0,0.0,11.0,0.0,0.0,1.0,0.0,0.0,0.0,0.0,0.0,0.0,0.0,-0.8579938851202406,0.22419168655911825,0.5286741831863727,0.1449900435250501,-28.831498776813625,181.26340813767536,55.811990443867735,-0.022122790046092185,-0.039474625194388775,-0.007576898629258517,0.0,2.896904214152305,0.319579292250501,-7.527977611300601,6.912286099492986,959.7223871350702,12.04193865779559,-0.08672690921843687,-0.14782296321042085,-0.025247835823647296,1.7573495969739477,0.3336083172605211,-6.8378810234348695,-0.22471979819839677,-0.07950591024048097,-0.03460865535470942,6.912286099492986,54.192398659038076,56.79439073693387,3.827143470511022,1.9087851631863726,15.335114034809619,19.74890575496994,-0.0882758370260521,1.6679882374088177,-0.16234708430260522,-22.235200418036072,455.3519386308617,12.042230582144288,95973.86380088177,1.1403282238517034,-1.6844417872264528,1.7975713666352704,-0.24848841079759512,-0.02776630393587174,-0.15080758963927857,-0.0359414079258517,-0.8610106041703406,0.2276249863807615,0.4985786479539078,0.8632708758837675,-0.42727361896593186,-0.0022810410140280566,0.26868258409018037,0.5494658893206413,398713728.4957916,327393746.97034067,455794.48658597196,17.303007503827658,0.6729265753366734,17.27392526709419,-1.1265374106793586,1.5312426763346694,0.0,0.0,0.0,39.87141370000001,32.7364368,-4.492125149286573,252.0047098739479,-55.8576655038477,0.6312390719078157,17.39396291008016,-0.904914131492986,0.5349207428537074,2.3724515308997995,2.5645415482985974,56.01333614561122,-0.3398481877054108,0.3463439358777555,-0.17341569685370742,0.5484122436573147,23999008.266533066,0.0,1.0,0.0,0.0,0.0
24026108.0,-0.05747150006412825,-0.08654679843086173,-0.023012191651302607,0.37523113278557113,0.0,1488.0,1500.0,1454.3466933867735,1550.4602493687375,1448.5397506312625,1472.9859719438878,17.092895388697393,17.474032098076155,21.01467877426854,20.971918542765533,21.398583736132263,20.839257131362725,21.26322283689379,177.87127311803607,177.87127311803607,12.042749416492986,-0.001685102366733467,-0.00685588939478958,0.00325355445490982,-0.16035052989378756,-0.00347383377755511,-0.10892590905210421,2.0,-1.0,0.0,11.0,0.0,0.0,1.0,0.0,0.0,0.0,0.0,0.0,0.0,0.0,-0.8587077872725452,0.22518725258717437,0.5193778631983967,0.14271021065931863,-28.40090803296593,181.0921583476954,55.8435998453507,-0.0221127024749499,-0.03941610958316633,-0.007419575378757515,0.0,3.222507164272545,0.3291259360701403,-7.743272093997996,9.686905354851703,959.7151727731464,12.041819297755511,-0.11444822783967935,-0.1382171406212425,-0.02706329771543086,2.0052772212625247,0.31278020298396797,-6.923326351126253,-0.26319802326452907,-0.0583263257234469,-0.035528474472945895,9.686905354851703,54.30059921871744,56.83596135188377,3.8342944556813627,1.9493723542484969,15.335126436412827,19.80525352995992,-0.08940254610420842,1.6378205175450902,-0.1627601674729459,-22.117468064048097,455.4177004248497,12.042094471322645,95973.12393406813,1.1403194706412825,-1.6627615368256514,1.3765598346152303,0.015191967486973934,-0.0476321767775551,-0.14994716979158315,-0.036104005745490976,-0.8622037872845691,0.22855620683767536,0.4877937523827655,0.8643529608817635,-0.42787179390781566,0.0002801154829659312,0.2641985615931864,0.549906995004008,398713730.092986,327393794.3354709,455815.4760072144,17.355857200260523,0.6818992916613227,17.32883288324649,-1.077528535697395,1.5308585432164328,0.0,0.0,0.0,39.87141370000001,32.7364368,-4.47773266268537,252.392386352505,-55.87755269358717,0.643008786008016,17.444607457374747,-0.8460183495731464,0.6222245221763527,2.683361984823647,2.4173815316813627,56.03322354468938,-0.32756306089178355,0.349403413492986,-0.17504661202004007,0.5489358172444889,24026108.450901803,0.0,1.0,0.0,0.0,0.0
24052734.0,-0.07491027562925852,-0.0743719495511022,-0.02276694629258517,0.40651269833667336,0.0,1488.0,1500.0,1469.3339923306614,1554.7242429458918,1444.2757570541082,1477.0050299018037,17.163594452104206,17.546358875811624,20.99028243537074,20.947602625991983,21.37395600266533,20.815385421703407,21.239047138617234,179.0249079478958,179.0249079478958,12.042581750581162,-0.0016827032084168337,-0.006853807743486975,0.003245858318637275,-0.16027978386372746,-0.0036967512184368735,-0.10892177731863728,2.0,-1.0,0.0,11.0,0.0,0.0,1.0,0.0,0.0,0.0,0.0,0.0,0.0,0.0,-0.8589421370220441,0.22606327854709424,0.5103951821382765,0.1404156475771543,-27.96807446721443,180.91269226653307,55.86396258895792,-0.022102314581162325,-0.03935659083967936,-0.007254835218436874,0.0,3.4666114647234467,0.3411395319258517,-8.001621424032065,11.564323541422846,959.7104632781563,12.041706644268537,-0.1419089891703407,-0.12677434551302605,-0.02774203112825651,2.2998183942084167,0.2805511123046092,-7.020627574943888,-0.30136180265130263,-0.036218650446893784,-0.03785611856112225,11.564323541422846,54.4087997783968,56.87753196735471,3.8414454408517034,1.9899595453106211,15.335138838016032,19.8616013049499,-0.09052925513026053,1.6076527976813628,-0.16317325083767534,-21.99973570759519,455.4373455671343,12.041966463787574,95972.90699204408,1.1403169389539078,-1.6967560142925853,0.9669334026032063,0.18047283197795588,-0.068757414501002,-0.14461303573547094,-0.03507627739679359,-0.8626586690841684,0.22946586674148295,0.4785587242004008,0.8653807167174349,-0.4281416681002004,0.0025983249919839684,0.26037756695390785,0.5504404761903807,398713731.69158316,327393841.6693387,455835.590109018,17.41348748282565,0.6909393405731463,17.388723066593187,-1.0300682986252505,1.5304838105170342,0.0,0.0,0.0,39.87141370000001,32.7364368,-4.4621884131462926,252.79442693066133,-55.89600931102204,0.6581083144468938,17.505981330941882,-0.7947005521422846,0.7153540126012025,2.929447575478958,2.193876812230461,56.0516802047495,-0.3141098607114229,0.35264328351302604,-0.17742675273547093,0.5493651124408817,24052733.685370743,0.0,1.0,0.0,0.0,0.0
24078110.0,-0.08842572655511022,-0.06418223266132266,-0.022719171551102205,0.42979333200400804,0.0,1488.0,1500.0,1488.6528013967936,1561.9002975350702,1437.0997024649298,1482.2865720821644,17.29936626252505,17.685155696973947,20.96588609244489,20.92328670519038,21.349328269198395,20.791513712044086,21.21487144034068,180.17854273747497,180.17854273747497,12.042414088697395,-0.0016803040501002003,-0.006851726092184369,0.0032381621823647294,-0.16020903823647295,-0.003919669062124248,-0.10891764518236473,2.0,-1.0,0.0,11.0,0.0,0.0,1.0,0.0,0.0,0.0,0.0,0.0,0.0,0.0,-0.8587539352264529,0.22683397325651303,0.5016888599659318,0.1381081052925852,-27.533264668657313,180.7259865198397,55.8744154847495,-0.022091468697394787,-0.03929510680761523,-0.00707728906212425,0.0,3.5775350450681365,0.357184488511022,-8.330328675238476,11.975583883707415,959.7098470937876,12.041604951122244,-0.16849713820440881,-0.11181456881563126,-0.026004487953907814,2.6938434110501,0.24402084276553107,-7.137931137332665,-0.3390117317815631,-0.012594339136272552,-0.04248435467334669,11.975583883707415,54.51700033807615,56.91910258282565,3.848596426022044,2.030546736372745,15.335151239619238,19.91794907993988,-0.09165596415631262,1.5774850778176353,-0.1635863346052104,-21.882003347114228,455.3767358805611,12.04184912254509,95973.5971964529,1.1403251863446893,-1.7688828035511022,0.6568361309238477,0.1085976017735471,-0.0901502086012024,-0.13131556928256513,-0.031906697076152304,-0.861855781501002,0.23034529688977956,0.47201569224048096,0.8663134724609219,-0.42785629812024045,0.004493356190380762,0.2577105463446894,0.5511189432284569,398713733.2498998,327393889.00320643,455855.70421082166,17.47111776539078,0.6999793898877755,17.448613245911826,-0.9826080611503006,1.530109078220441,0.0,0.0,0.0,39.87141370000001,32.7364368,-4.444786947775551,253.21962959679357,-55.91215913322645,0.6785771631362726,17.58465622513026,-0.7556022423707416,0.817877452721443,3.07100317937475,1.8472663832765532,56.067829799699396,-0.29816129185370743,0.3562723588156312,-0.18133627828256513,0.5495940525290581,24078110.22244489,0.0,1.0,0.0,0.0,0.0
24099971.0,-0.09995364731663327,-0.05495302081362726,-0.022515112913827656,0.44944267300601204,0.0,1488.0,1500.0,1501.1543300140281,1565.3173132144289,1433.6826867855711,1485.7865120821643,17.294989805851703,17.68071543212425,20.941489749519036,20.89897078983968,21.324700535731463,20.76764200238477,21.19069574206413,181.33217758156312,181.33217758156312,12.042246421362726,-0.0016779048917835672,-0.006849643895791583,0.0032304655010020043,-0.16013829206412825,-0.0041425863607214425,-0.10891351304609219,2.0,-1.0,0.0,11.0,0.0,0.0,1.0,0.0,0.0,0.0,0.0,0.0,0.0,0.0,-0.8585657334308617,0.22760466851102204,0.492982537248497,0.13580056246292588,-27.098454864649298,180.53928082765532,55.88486838054108,-0.022081710813627253,-0.03923528693587174,-0.006902649326653308,0.0,3.657089276955912,0.3741789905551102,-8.67560801048497,12.041505841703406,959.7101950649298,12.041505841703406,-0.1997802023807615,-0.09092317746492987,-0.02624821512825651,2.883366085318637,0.2596044775470942,-7.324366796971944,-0.3765406285430861,0.011387200839679349,-0.047654471474949896,12.041505841703406,54.625235085811624,56.96112311573146,3.85559806902004,2.0707446104008014,15.335165614448897,19.972912549358718,-0.09275494771543086,1.547004311028056,-0.16399986861723448,-21.762646661503005,455.4495977386773,12.041731476052105,95972.77597480963,1.140315361270541,-1.7055440488256515,0.9845539033807613,-0.15643779122044074,-0.12252007236072143,-0.11562943426052105,-0.03205862376953908,-0.8624644223827655,0.23118937903006012,0.4620253284649299,0.8673708423607215,-0.4281564432985972,0.006930272438877755,0.253541656749499,0.5518817062825652,398713734.8082164,327393936.33707416,455875.8183126252,17.52874805340681,0.7090194386573146,17.508503430681362,-0.935147824220441,1.5297343459238477,0.0,0.0,0.0,39.87141370000001,32.7364368,-4.42738548240481,253.64483226292583,-55.928308960881765,0.6990460118256513,17.663331119318638,-0.7165039331442886,0.9204008933867736,3.212558782725451,1.5006559537775552,56.0839793891984,-0.28622190924048097,0.36015140375350696,-0.18390362064729457,0.5501798893226453,24099970.92785571,0.0,1.0,0.0,0.0,0.0
24121937.0,-0.10883247768737475,-0.046724225470941884,-0.0224744618997996,0.46608924683366737,0.0,1488.0,1500.0,1512.5855960581162,1568.3252954128257,1430.6747045871743,1489.21175102004,17.302343299939878,17.68825024701403,20.917093408537074,20.874654875531064,21.300072802264527,20.74377029272545,21.166520043787575,182.48581243607214,182.48581243607214,12.04207875492986,-0.001675505733466934,-0.006847561789579158,0.0032227689098196393,-0.1600675459819639,-0.0043655035551102206,-0.10890938110420842,2.0,-1.0,0.0,11.0,0.0,0.0,1.0,0.0,0.0,0.0,0.0,0.0,0.0,0.0,-0.8583775316352705,0.2283753636753507,0.4842762146212425,0.1334930197234469,-26.663645061543086,180.3525751264529,55.895321276332666,-0.02207203690981964,-0.03917550179358718,-0.006726741086172346,0.0,3.7301271109038074,0.3914146447194389,-9.023823382278557,12.013314305891784,959.7107132861723,12.041407370080162,-0.23184623731663326,-0.0707307150981964,-0.02629755362725451,3.049391365819639,0.27542813957915835,-7.536364131008017,-0.4140550489218437,0.03535761563527053,-0.052945831088176354,12.013314305891784,54.733639265350696,57.005373385591184,3.861859600216433,2.1090130958196394,15.335189780761523,20.021015663707416,-0.09371652712024048,1.5149721393066131,-0.1644156341743487,-21.635240073627255,455.5136987094188,12.041620067454911,95972.04683911824,1.140306634723447,-1.6823978835851703,1.1432079555350703,-0.3622026191022044,-0.15645048898396793,-0.09980596406813627,-0.03196866425651303,-0.8631444447134269,0.23201571194388776,0.4517864125731463,0.8684342023286573,-0.4284766343186373,0.00940434927254509,0.24925895498396797,0.5527148788977956,398713736.3859719,327393983.69038075,455895.93241442885,17.58637834052104,0.7180594875170341,17.568393614549098,-0.8876875873947896,1.5293596136272545,0.0,0.0,0.0,39.87141370000001,32.7364368,-4.409899671549098,254.0681897519038,-55.94422846220441,0.7203185679138275,17.74198534997996,-0.6800433984789579,1.0257448194849699,3.3439386443206414,1.1541783655771543,56.099898671663325,-0.2747318558537074,0.36371207677755507,-0.18620015779358717,0.5507911939478958,24121937.044088177,0.0,1.0,0.0,0.0,0.0
24145723.0,-0.11240109614829659,-0.04040688840480962,-0.02288613863727455,0.4773333389378758,0.0,1488.0,1500.0,1524.5622261903807,1572.0578202144288,1426.9421797855712,1493.259249272545,17.399848561182363,17.78789239539078,20.89269707210421,20.850338961222445,21.275445068797595,20.719898583066133,21.14234434551102,183.63944729058116,183.63944729058116,12.041911093046092,-0.0016731065751503006,-0.0068454801382765535,0.0032150727735470942,-0.15999680035470942,-0.004588420749498998,-0.10890524961723447,2.0,-1.0,0.0,11.0,0.0,0.0,1.0,0.0,0.0,0.0,0.0,0.0,0.0,0.0,-0.8581893298396794,0.2291460583847696,0.4755698924488978,0.13118547743887776,-26.22883526298597,180.16586937975953,55.90577417212425,-0.022062072773547096,-0.03911505339278557,-0.006546563971943888,0.0,3.801949636891784,0.40878982518436874,-9.371495461188378,11.919379544128256,959.7111985719439,12.04130923509018,-0.2636441161062124,-0.05482764973547094,-0.025005577330661322,3.2519206855470943,0.2684981522765531,-7.777251881509018,-0.4515897405370741,0.05914217383967935,-0.0582784905991984,11.919379544128256,54.84242465476954,57.05464041004008,3.866455931743487,2.142940591547094,15.335235978356712,20.053683460420842,-0.09436895663527053,1.47944941496994,-0.16483642057114228,-21.48972176533066,455.4975832480962,12.041523393386774,95972.20940400801,1.1403085644388777,-1.8139169141583167,0.6208644664769539,-0.34284372298997995,-0.18912186398196393,-0.08472977332665331,-0.029826624288577155,-0.8633600073026053,0.23281632243687375,0.4425081433947896,0.8694558288697395,-0.42858178173346695,0.011722954306613225,0.24538183398196395,0.55367511101002,398713738.0092184,327394031.0891784,455916.0465162325,17.644008623086172,0.7270995368316633,17.628283793867737,-0.8402273505691383,1.5289848813306615,0.0,0.0,0.0,39.87141370000001,32.7364368,-4.392216474867735,254.48722914589177,-55.95960894997996,0.743471965028056,17.820591223727455,-0.6497557999138277,1.1376892627955912,3.4515051723607213,0.8080116536492985,56.11527899062124,-0.2624996462104208,0.36641585937474946,-0.18846343739278557,0.5513024256913828,24145722.799599197,0.0,1.0,0.0,0.0,0.0
24173452.0,-0.12165156625651304,-0.03104265351102204,-0.022553321270541084,0.4944127630260521,0.0,1488.0,1500.0,1532.6487148637275,1575.3318754569138,1423.6681245430862,1496.5833921663327,17.49778379492986,17.888069985691384,20.868300730741485,20.826023041983966,21.25081733533066,20.696026873406815,21.118168647234466,184.79308214509018,184.79308214509018,12.041743431162324,-0.0016707074168336674,-0.006843398486973949,0.003207376637274549,-0.15992605423446893,-0.004811338436873747,-0.10890111763727454,2.0,-1.0,0.0,11.0,0.0,0.0,1.0,0.0,0.0,0.0,0.0,0.0,0.0,0.0,-0.8580011280440881,0.2299167535871744,0.4668635702765531,0.12887793466132266,-25.794025464428856,179.97916363306612,55.916227067915834,-0.022052624793587175,-0.03905432349699399,-0.006362180701402806,0.0,3.8361490081663328,0.4304844146432866,-9.702348439248498,9.790185134573145,959.7106645599198,12.041221576052104,-0.3048377243186373,-0.03123020376753506,-0.028744688028056114,3.455557594392786,0.29931257599599204,-8.053317235649299,-0.48975197371543083,0.07717305036873748,-0.06488970528456914,9.790185134573145,54.95121004418838,57.10390743941884,3.871052263270541,2.176868087767535,15.335282175951903,20.08635125220441,-0.0950213861503006,1.4439266906332666,-0.1652572069679359,-21.34420345210421,455.5565401835671,12.041425191062125,95971.52563523046,1.1403004658336673,-1.5443344118577154,0.6078527190981964,-0.27526884758316633,-0.2261371074729459,-0.06379305606012023,-0.032916989531062125,-0.8629044301282566,0.23358558395190382,0.4345495069539078,0.8704493113346693,-0.4283897429078156,0.013825155260521043,0.2420636535731463,0.5547665424649298,398713739.5831663,327394078.4386774,455936.1606180361,17.701638905651304,0.7361395856533066,17.688173973186373,-0.792767113743487,1.5286101485410823,0.0,0.0,0.0,39.87141370000001,32.7364368,-4.3738682839859715,254.89172111543087,-55.973173523927855,0.7729619238096191,17.89903420012024,-0.6402648476052104,1.2718708756132266,3.478844484529058,0.4628922840100199,56.128843523927856,-0.25242937281162325,0.36935306146292585,-0.1910407544789579,0.5518155997995993,24173452.44288577,0.0,1.0,0.0,0.0,0.0
24200725.0,-0.133286154509018,-0.020893730789579165,-0.022107021673346692,0.5122082853707415,0.0,1488.0,1500.0,1539.1382765531062,1577.7903817775552,1421.2096182224448,1499.3264661102205,17.59976229222445,17.99239347973948,20.84390438781563,20.80170712260521,21.226189601863727,20.672155163747494,21.093992947535067,185.94671699959918,185.94671699959918,12.041575767855711,-0.001668308116232465,-0.006841316835671343,0.003199680501002004,-0.1598553081002004,-0.0050342561382765525,-0.10889698564328656,2.0,-1.0,0.0,11.0,0.0,0.0,1.0,0.0,0.0,0.0,0.0,0.0,0.0,0.0,-0.8578129262484969,0.23068744880360723,0.45815724796192386,0.12657039186973948,-25.359215665871744,179.79245788637274,55.926679963707414,-0.022043586340681362,-0.03899321365931864,-0.006177541008016032,0.0,3.858419086482966,0.45354857280761524,-10.027868530961923,7.015664495941886,959.7098073701403,12.041137240080161,-0.3476293615871744,-0.0054865945551102364,-0.03320870855310621,3.6455038936833666,0.33020483776953913,-8.36863622731062,-0.5281131836292584,0.0933795888056112,-0.07190631551302604,7.015664495941886,55.05999543360722,57.15317446893787,3.8756485946553103,2.210795584002004,15.335328372124248,20.119019043847697,-0.09567381566533066,1.4084039664388777,-0.16567799336472946,-21.198685138737478,455.60675507254507,12.041326848496993,95970.94687288578,1.1402936195390783,-1.2875459886673346,0.6371869062685372,-0.20454459689779567,-0.2656975857074148,-0.040299592198396815,-0.03699536446893788,-0.8623440317314629,0.23434053641482966,0.42671731574148297,0.8714405426452905,-0.42814392195991985,0.01590629918837675,0.23879398049498998,0.5559106021883767,398713741.1699399,327394125.8721443,455955.8314038076,17.76192903176353,0.7483460975831663,17.750090715891783,-0.7507531968517034,1.5280718324488978,0.0,0.0,0.0,39.87141370000001,32.7364368,-4.355309241284569,255.29160048697395,-55.986162320320645,0.8044610362905811,17.977425524709417,-0.6373679538657315,1.413103298274549,3.4807458988396793,0.1181049983687377,56.141832320320646,-0.24266141776753508,0.37260287686773547,-0.1936176363026052,0.5525035603206413,24200725.17234469,0.0,1.0,0.0,0.0,0.0
24221914.0,-0.1469966092825651,-0.01139121140681363,-0.022097510098196393,0.5259624749498998,0.0,1488.0,1500.0,1544.3326653306613,1577.8607800300601,1421.1392199699399,1500.8162551202404,17.715662669699398,18.11088543517034,20.81950804488978,20.777391208296596,21.201561868396794,20.648283454088176,21.06981724276553,187.10035185410823,187.10035185410823,12.041408099478959,-0.0016659083086172342,-0.006839235184368737,0.003191984364729459,-0.1597845624729459,-0.00525717333266533,-0.10889285415631263,2.0,-1.0,0.0,11.0,0.0,0.0,1.0,0.0,0.0,0.0,0.0,0.0,0.0,0.0,-0.8576247244529058,0.23145814351302604,0.44945092514028057,0.12426284958517034,-24.92440586731463,179.60575213967937,55.937132859498995,-0.02203542400801603,-0.03893106799198397,-0.005996739917835671,0.0,3.8806891647995996,0.4766127309719439,-10.353388620140281,4.2411438598456925,959.7089502310622,12.041052909178356,-0.3854995977314629,0.019211096939879754,-0.03457147333066132,3.7854139327454908,0.31872885711222443,-8.784085361066131,-0.5664743940501001,0.10958612724248495,-0.07892292574148295,4.2411438598456925,55.168780823026054,57.20244149338677,3.8802449255330664,2.244723079729459,15.335374563226452,20.151686840561123,-0.09632624518036073,1.3728812427515031,-0.16609877976152304,-21.053166830440883,455.5409980064128,12.041229732905812,95971.69852042085,1.1403025662244488,-1.5295332179098196,0.24194612974749508,-0.1770748587975952,-0.30941977349899796,-0.01431699721643287,-0.03868254869338677,-0.8621684042525051,0.235079919997996,0.41784470689979963,0.8724555508857715,-0.42804223141082165,0.01815691356913828,0.2350656371763527,0.5570939605691383,398713742.8581162,327394173.66052103,455973.92248597194,17.831697191923848,0.771835922272545,17.819228874609216,-0.72814658902004,1.5269506073987977,0.0,0.0,0.0,39.87141370000001,32.7364368,-4.336750198583166,255.69147985851703,-55.99915111671343,0.835960148771543,18.055816844228456,-0.6344710601262525,1.5543357209358717,3.4826473126432864,-0.226682287779559,56.15482111671343,-0.23152806938276554,0.3767029228557114,-0.19583815114829659,0.5538121567134269,24221913.733466934,0.0,1.0,0.0,0.0,0.0
24244865.0,-0.15239758734268538,-0.005404718356713426,-0.022532203653306614,0.534174467735471,0.0,1488.0,1500.0,1550.8496993987976,1581.8207095050102,1417.1792904949898,1504.250809741483,17.782590716513027,18.17929567797595,20.795111706372744,20.753075293987976,21.17693413492986,20.62441174442886,21.04564154240481,188.25398670861725,188.25398670861725,12.041240435511021,-0.0016635089418837676,-0.006837153092184369,0.003184288228456914,-0.1597138164048096,-0.005480090527054108,-0.10888872222845691,2.0,-1.0,0.0,11.0,0.0,0.0,1.0,0.0,0.0,0.0,0.0,0.0,0.0,0.0,-0.8574365226573146,0.23222883866332666,0.44074460275951904,0.12195530685971943,-24.489596068757514,179.41904639298596,55.94758575529058,-0.022027579551102204,-0.038869441683366736,-0.005812985360721443,0.0,3.8950882612324653,0.4916886031643287,-10.677411353607214,1.8733575148917836,959.7080890358718,12.04096547006012,-0.42402446614028055,0.04125801196192385,-0.04256132279759519,3.8550975985410822,0.35588097236673344,-9.151239478909819,-0.6018151261543085,0.1245539523727455,-0.08642805280360721,1.8733575148917836,55.27756621244489,57.251708517835674,3.8848412568517037,2.2786505758977955,15.335420758737474,20.18435463286573,-0.09697867513627255,1.3373585186232466,-0.16651956615831662,-20.90764852214429,455.5741724272545,12.04113869266533,95971.320139499,1.1402980192825651,-1.6067513995370741,0.48603415675350703,-0.06022090935470942,-0.3512419645771543,0.011600898366733465,-0.04137941035270541,-0.8617094855511022,0.23579430999398798,0.4094967116452906,0.8734594206893788,-0.4278102162124248,0.02031515528456914,0.23155430423847695,0.5583609396713427,398713744.6344689,327394221.757515,455990.7017244489,17.909336700781562,0.8046963533346694,17.894364299458918,-0.7216574338136272,1.5253452849138278,0.0,0.0,0.0,39.87141370000001,32.7364368,-4.316475998847695,256.1035094024048,-56.01297661851703,0.8739128364829659,18.134266055931864,-0.6412427731202405,1.720538513496994,3.4451322205551103,-0.5526939225851702,56.16864661851703,-0.21808545903406815,0.38056293164929855,-0.1979423944509018,0.5551627043286573,24244865.380761523,0.0,1.0,0.0,0.0,0.0
24268290.0,-0.1544720627054108,-0.0008556782585170403,-0.023055671501002007,0.5399349601202406,0.0,1487.9398918136274,1500.0,1557.3607214428857,1586.6804513366733,1412.3195486633267,1508.1803607214429,17.82817000521042,18.225885723847696,20.770715369038076,20.728759378777553,21.152306401462926,20.600540034769537,21.021465844128254,189.40762156312627,189.40762156312627,12.04107277272545,-0.0016611097835671344,-0.006835070881763527,0.003176592002004008,-0.15964307021843685,-0.005703007811623246,-0.10888459018236474,2.0,-1.0,0.0,11.0,0.0,0.0,1.0,0.0,0.0,0.0,0.0,0.0,0.0,0.0,-0.8572483208617234,0.23299953393186373,0.43203828058717436,0.11964776401603207,-24.0547862702004,179.23234064629258,55.95803865108216,-0.022019898348697393,-0.038807730288577154,-0.0056270706112224456,0.0,3.899919341148297,0.49705386309218447,-10.999613890380761,2.2e-23,959.7072229112224,12.040874252985972,-0.4620293368737475,0.06191838204008014,-0.053258633230460914,3.8876786797134266,0.4045163491482966,-9.495428346887774,-0.6334841458116232,0.13801598956112224,-0.09452702431462925,2.2e-23,55.38635160186373,57.30097554228457,3.8894375882885774,2.312578072274549,15.335466955430862,20.217022423987974,-0.09763110521042083,1.3018357943767536,-0.16694035255511022,-20.762130213847694,455.6413316735471,12.041050526212425,95970.55351030061,1.1402888509699398,-1.6173073440661323,0.8991538189038081,0.05920883779759532,-0.39157606497995984,0.036456304490981944,-0.04477827485370741,-0.8612051661503005,0.23649409664328658,0.40116750420841685,0.874461857264529,-0.4275499439498998,0.02246713799799599,0.22804475748496994,0.5596813815250501,398713746.452505,327394270.00040084,456006.8608186373,17.990697211743488,0.8419865255911824,17.972334796472946,-0.7227874381202404,1.5235111163687376,0.0,0.0,0.0,39.87141370000001,32.7364368,-4.2949202962525055,256.5246171100201,-56.02742727643287,0.9166874006032063,18.21275852282565,-0.6552385169098197,1.9053982571322643,3.3781665503747496,-0.8646770745370738,56.18309727643287,-0.20441968810621244,0.3842149355791583,-0.19998798726252504,0.5564868961162325,24268289.855711423,0.0,1.0,0.0,0.0,0.0
24289478.0,-0.16027654218436874,0.0050863070801603245,-0.02282761510821643,0.546739824985972,0.0,1487.5071128717434,1500.0,1559.9579158316633,1585.7191673607215,1413.2808326392785,1509.4789579158316,17.884920442725452,18.283975495551104,20.746319026112225,20.70444345797595,21.12767866799599,20.57666832511022,20.997290145851704,190.56125641763526,190.56125641763526,12.040905104348697,-0.001658710625250501,-0.006832989230460922,0.0031688952164328657,-0.15957232459118237,-0.005925925655310621,-0.10888045869539079,2.0,-1.0,0.0,11.0,0.0,0.0,1.0,0.0,0.0,0.0,0.0,0.0,0.0,0.0,-0.8570601190661322,0.23377022864128255,0.4233319584148296,0.11734022173146293,-23.619976471643284,179.04563489959918,55.96849154687375,-0.022012297659318635,-0.038743969166332666,-0.005436419012024049,0.0,3.8684978510160324,0.4656262669559118,-11.314919821122245,2.2e-23,959.706338112024,12.04076872248497,-0.4948915543647295,0.08175135832865733,-0.06131881888977957,3.8960508520501,0.38182341901603206,-9.83878096687976,-0.6512412956553106,0.1457726976012024,-0.10487603297995993,2.2e-23,55.495136991282564,57.35024256673348,3.8940339191663327,2.3465055686513026,15.335513146533067,20.249690220701403,-0.0982835347254509,1.2663130706893786,-0.1673611389519038,-20.616611905551103,455.6292376430861,12.040962370941884,95970.69175246493,1.140290578753507,-1.6974805181422845,0.4864550166112222,-0.06736846685971949,-0.42825272083567134,0.05491390402605212,-0.049570284200400806,-0.8612496632324649,0.2371765964749499,0.391417186509018,0.8754880535691383,-0.4274964475891783,0.024851050783567134,0.2239102473767535,0.5610882077054109,398713748.2705411,327394318.2432866,456023.01991282566,18.072057728296592,0.8792766978476955,18.050305299078158,-0.7239174429859719,1.5216769478236474,0.0,0.0,0.0,39.87141370000001,32.7364368,-4.270446245270541,256.96639838216436,-56.043301594749494,0.9704427561462926,18.29134949517034,-0.6856854442605211,2.1327452132845695,3.244133491472946,-1.1447133600040083,56.198971594749494,-0.19613855847094186,0.3872808365490982,-0.20201072835270542,0.5575247265531061,24289478.41683367,0.0,1.0,0.0,0.0,0.0
24310667.0,-0.16692990773547092,0.011081089965931861,-0.02278326893987976,0.5526356719438879,0.0,1487.5926000701402,1500.0,1563.7214428857715,1587.8681038256514,1411.1318961743486,1511.943887775551,17.98759562160321,18.388923521843687,20.72977259965932,20.687998400981964,21.1110604247495,20.56099000523046,20.98145339567134,191.71489127214429,191.71489127214429,12.040737439859718,-0.0016563114669338676,-0.006830907579158317,0.003161198819639279,-0.1595015785751503,-0.006148843110220441,-0.10887632681963928,2.0,-1.0,0.0,11.0,0.0,0.0,1.0,0.0,0.0,0.0,0.0,0.0,0.0,0.0,-0.856871917270541,0.23454092373947896,0.414625636242485,0.11503267905811623,-23.185166669198395,178.8589291529058,55.97894443877755,-0.022005783214428858,-0.03867856507014028,-0.005248161116232466,0.0,3.837076360883768,0.43419867043086174,-11.630225747975953,2.2e-23,959.7054533128256,12.040663191983969,-0.5301684579759519,0.09634158958717434,-0.06761340355110221,3.9231297702464927,0.38394426027054107,-10.150010938186373,-0.6689984451102204,0.15352940564128256,-0.11522504203406814,2.2e-23,55.60694176326653,57.40236861466934,3.8984527299358716,2.3795685361022043,15.335562754989981,20.27830311028056,-0.0988547991503006,1.2306182662805611,-0.1677921008236473,-20.46235061985972,455.57546113807615,12.040857121122244,95971.31646420842,1.1402980316753508,-1.4125715330961925,0.4360639961583166,-0.19249916794589172,-0.4668747165511022,0.0776841091763527,-0.058893053911823645,-0.860347558503006,0.23784774788977958,0.3837339026533066,0.8764747924509019,-0.42704508288777554,0.02689199295190381,0.22066270293587173,0.5624944075651302,398713750.08857715,327394366.4861724,456039.179007014,18.153418240961923,0.9165668701042085,18.12827579779559,-0.7250474474629258,1.5198427792785572,0.0,0.0,0.0,39.87141370000001,32.7364368,-4.245972193899799,257.40817965430864,-56.059175916953905,1.0241981120781563,18.369940471402806,-0.716132372,2.3600921694368737,3.1101004325711425,-1.4247496454709419,56.214845916953905,-0.1860356794168337,0.39042132721442885,-0.20421619178356715,0.558477384769539,24310666.97795591,0.0,1.0,0.0,0.0,0.0
24332008.0,-0.1736376472805611,0.01694702019238476,-0.022900481961923846,0.5577785296593186,0.0,1488.0,1500.0,1568.0761523046092,1591.6823709138278,1407.3176290861722,1515.114228456914,18.11343160533066,18.517489426012023,20.718769076072146,20.67711103725451,21.100097760541082,20.55109711787575,20.971504858276553,192.8685261266533,192.8685261266533,12.040569777975952,-0.0016539123086172344,-0.006828825927855712,0.0031535026833667337,-0.15943083233667335,-0.006371760342685371,-0.10887219468336673,2.0,-1.0,0.0,11.0,0.0,0.0,1.0,0.0,0.0,0.0,0.0,0.0,0.0,0.0,-0.8566837154749499,0.23531161906012024,0.40591931403206416,0.11272513616232466,-22.75035686452906,178.6722234062124,55.98939732845692,-0.022000023394789577,-0.038612035072144286,-0.005061193272545091,0.0,3.8041796545130264,0.4038499392985972,-11.941173089358717,2.2e-23,959.7045786228456,12.040556021162324,-0.567090614513026,0.10791568788777552,-0.07316483145891782,3.9593781884248496,0.4021566191663326,-10.446198962965932,-0.6861611874148297,0.16118104181563125,-0.12547121698997996,2.2e-23,55.7212887247495,57.45690183775551,3.9027220763286574,2.4119036076232465,15.33561523941884,20.30350194448898,-0.09935772600801604,1.1947785774048096,-0.16823162995991983,-20.300728125971947,455.50559519919847,12.040741441202405,95972.12931096193,1.140307684288577,-0.8761499346853717,0.6011707939218441,-0.3035875368997998,-0.507028868024048,0.10259431615230459,-0.07111362756112223,-0.8589058299619239,0.2385095691222445,0.3772216223747495,0.8774370845731463,-0.42636451173547096,0.02873741335871743,0.217916159498998,0.5639045520140281,398713751.90661323,327394414.7328657,456055.3381012024,18.234778751402807,0.9538570423607213,18.206246293907814,-0.7261774516793587,1.518008610733467,0.0,0.0,0.0,39.87141370000001,32.7364368,-4.2212515146913825,257.85021803947893,-56.07522300164329,1.078885582797595,18.447986235911824,-0.7474006290681362,2.588735934112224,2.9754830073086174,-1.6995095730240477,56.23089300164329,-0.17486302175350704,0.39359366758316633,-0.20645813573747496,0.5594319670541081,24332007.843687374,0.0,1.0,0.0,0.0,0.0
24355794.0,-0.17208683459118235,0.02017658726252505,-0.02363498931262525,0.5606121596392786,0.0,1488.0,1500.0,1569.374749498998,1588.773190496994,1410.226809503006,1517.062124248497,18.117050776232464,18.521134016953905,20.712302821723448,20.670773038857714,21.09376459292585,20.545940024809617,20.96637624993988,194.02216098116233,194.02216098116233,12.040402116092185,-0.0016515131503006012,-0.006826744276553106,0.0031458065470941882,-0.15936008670941884,-0.006594678186372746,-0.10886806254709419,2.0,-1.0,0.0,11.0,0.0,0.0,1.0,0.0,0.0,0.0,0.0,0.0,0.0,0.0,-0.8564955136793587,0.2360823137695391,0.3972129912104208,0.11041759387775552,-22.315547065971945,178.48551765951905,55.9998502242485,-0.021994692653306613,-0.038545104723446896,-0.004869185288577155,0.0,3.7476018453667335,0.3908198410220441,-12.182153705791583,2.2e-23,959.7038662124248,12.040422518877754,-0.6044488293667335,0.12746869376352707,-0.0857790630741483,3.941594279038076,0.4117604765290581,-10.846464861963929,-0.6937821349098197,0.16714599804008015,-0.13406662987174348,2.2e-23,55.84396526679358,57.51932227527054,3.906501695406814,2.441853700777555,15.335677130561123,20.317514509458917,-0.0996367413026052,1.1584641697815632,-0.16869922948697394,-20.114986360440884,455.62582646973954,12.04064221539078,95970.72930631263,1.1402910628937877,-0.22944789037274538,0.32826954879959913,-0.20482051771743487,-0.5508522899078157,0.115466838749499,-0.08111456218236472,-0.8589842373126253,0.23914369036472946,0.36727211739679355,0.8784313821362725,-0.42628441101402803,0.031133501791583168,0.21367098358717435,0.5653847547795592,398713753.7246493,327394463.04068136,456071.4971953908,18.31613926795591,0.9911472146172344,18.28421679002004,-0.7273074558957916,1.516174442188377,0.0,0.0,0.0,39.87141370000001,32.7364368,-4.1925718138497,258.2963837653307,-56.094043337034066,1.1485359446092185,18.517279875671342,-0.7918533790721444,2.8381968882364728,2.8314849641503006,-1.8895700709078156,56.249713337034066,-0.16611401144488977,0.39647492426452907,-0.20732015883967936,0.5613336262925851,24355793.599198397,0.0,1.0,0.0,0.0,0.0
24378233.0,-0.1760846609238477,0.025180029971943883,-0.023380851004008017,0.5642539739879759,0.0,1488.0,1500.0,1570.6733466933867,1584.5173170300602,1414.4826829699398,1519.0100200400802,18.19196835258517,18.597763901683365,20.70583656737475,20.664435040460923,21.087431428677352,20.540782928376753,20.961247638236472,195.17579583567135,195.17579583567135,12.040234450841684,-0.0016491139919839679,-0.0068246626252505,0.003138110410821643,-0.15928934074549098,-0.006817595693386773,-0.10886393074749498,2.0,-1.0,0.0,11.0,0.0,0.0,1.0,0.0,0.0,0.0,0.0,0.0,0.0,0.0,-0.8563073118837675,0.23685300881563126,0.3885066687254509,0.10811005125651303,-21.88073726741483,178.298811946493,56.01030312004008,-0.021989589503006012,-0.03848035702805611,-0.0046789249759519045,0.0,3.671291727186373,0.39222051550701403,-12.364834457214428,2.2e-23,959.70328901002,12.040267082324648,-0.636016174785571,0.13996150367935872,-0.09740929714228456,3.9381589523687373,0.42466542615631264,-11.162374382124248,-0.6934523689458918,0.17170552686573146,-0.1412865439318637,2.2e-23,55.96664181220441,57.58174270941884,3.9102813148216433,2.471803793931864,15.33573902507014,20.331527071062123,-0.09991575659719439,1.1221497621583167,-0.1691668293507014,-19.92924459154309,455.6670926228457,12.040530152224449,95970.24903601203,1.140285363519038,0.18461809957515013,0.32305090807014003,-0.21813627921643278,-0.5878332956793587,0.1311327350541082,-0.08967882005811621,-0.8580967645190382,0.2397676817795591,0.3593852908316633,0.8794032212304609,-0.4258049854028056,0.03318625074549098,0.21031146933466935,0.5669030225070141,398713755.50901806,327394511.31482965,456087.65625591186,18.397499781142283,1.0284373868737475,18.362187286132265,-0.7284374604488979,1.5143402736432867,0.0,0.0,0.0,39.87141370000001,32.7364368,-4.162502012326653,258.74399863426856,-56.11383742601202,1.2234401091462925,18.583500458757516,-0.8409354966753507,3.094967218344689,2.6841931783066135,-2.0498907249919838,56.26950742601202,-0.15647614613026053,0.39931534852905815,-0.20886963659519037,0.5627489844488978,24378232.661322646,0.0,1.0,0.0,0.0,0.0
24399421.0,-0.18523479491983968,0.03183064291783568,-0.02220868458316633,0.568646245250501,0.0,1488.0,1500.0,1571.9719438877755,1579.0109428737476,1419.9890571262524,1520.9579158316633,18.333091591142285,18.742165844929858,20.69937031302605,20.658097042064128,21.08109826755511,20.535625828817636,20.956119023406814,196.32943069018037,196.32943069018037,12.040066782464931,-0.0016467148336673345,-0.006822580973947895,0.003130414274549098,-0.15921859446893788,-0.0070405128877755515,-0.10885979926052104,2.0,-1.0,0.0,11.0,0.0,0.0,1.0,0.0,0.0,0.0,0.0,0.0,0.0,0.0,-0.8561191100881764,0.2376237041743487,0.37980034655310624,0.10580250832264529,-21.445927468857715,178.1121062647295,56.02075601583166,-0.021984697687374752,-0.03841763608216432,-0.004490287501002004,0.0,3.5766587506172343,0.4070211932705411,-12.493379619699398,2.2e-23,959.7028373579158,12.040091278236474,-0.6622062843006011,0.14589841734669337,-0.10812581920240483,3.9480473096513027,0.4406356757434871,-11.399952979078158,-0.6857397976272546,0.17496001596392785,-0.14722920908617235,2.2e-23,56.08931836074149,57.64416314044088,3.914060934549098,2.5017538870861724,15.33580092270541,20.34553962953908,-0.10019477189178358,1.0858353545350703,-0.1696344295270541,-19.743502819519037,455.6350340240481,12.040406168657315,95970.6228047495,1.14028980602004,0.3826648961843689,0.566394685705411,-0.33552890849098205,-0.6184606293466934,0.1493924783727455,-0.09690902095591183,-0.8563124030200402,0.24038226692585168,0.353413808507014,0.8803542060320642,-0.4249547581082165,0.03492018446893788,0.20777435519438878,0.5684566362705411,398713757.26212424,327394559.5577155,456103.81528517033,18.478860291202405,1.0657275591302606,18.44015778224449,-0.7295674653146293,1.5125061050981963,0.0,0.0,0.0,39.87141370000001,32.7364368,-4.131141403028056,259.19295913607215,-56.1345357147495,1.3032228047855712,18.646867489218437,-0.8943163127635272,3.358524826152305,2.5338429171122243,-2.1825958098336677,56.2902057147495,-0.14601291545290582,0.40211785697795593,-0.2110574651002004,0.5637127773146292,24399421.22244489,0.0,1.0,0.0,0.0,0.0
24420610.0,-0.17981064745290581,0.03525877489378758,-0.022479633028056112,0.5697578650901803,0.0,1488.0,1500.0,1572.6352705410823,1574.139839258517,1424.860160741483,1521.0,18.392359362865733,18.80270333543086,20.692904058677353,20.651759043667337,21.07476510008016,20.530468735611223,20.95099041492986,197.48306554468937,197.48306554468937,12.039899120440882,-0.0016443156753507013,-0.0068204986873747495,0.003122718138276553,-0.1591478488276553,-0.00726343008216433,-0.10885566713827656,2.0,-1.0,0.0,11.0,0.0,0.0,1.0,0.0,0.0,0.0,0.0,0.0,0.0,0.0,-0.8559309082925852,0.2383943988977956,0.3710940243807615,0.1034949660240481,-21.011117670300603,177.9254005194389,56.031208911623246,-0.021981088482965934,-0.038354298923847695,-0.004296578026052105,0.0,3.4820257740480964,0.4218218710340682,-12.621924782184369,2.2e-23,959.7023857693387,12.039915467795591,-0.6898834065110221,0.15624828928456913,-0.11508918132865731,3.8259381393807623,0.4254819308476954,-11.643471342885773,-0.6780272256733467,0.17821450506212422,-0.1531718748757515,2.2e-23,56.21199490927856,57.706583577815636,3.9178405536412826,2.531703980240481,15.335862820340681,20.359552188016032,-0.10047378782164329,1.0495209469118236,-0.1701020297034068,-19.55776104749499,455.67890975771536,12.04027746503006,95970.13322176354,1.1402839571382763,0.06568484590380763,0.11179784493386785,-0.4509404592885772,-0.6478759894288577,0.1565672792945892,-0.10756681516432866,-0.856243428258517,0.2409738552785571,0.3434640943426854,0.8813325678176352,-0.4247723278416834,0.03730602710420842,0.20350387171342685,0.570075257268537,398713759.96813625,327394609.7699399,456124.29078717437,18.549218175951903,1.131793635719439,18.507125564108215,-0.7704758981803608,1.5092538519819638,0.0,0.0,0.0,39.87141370000001,32.7364368,-4.0997807943647295,259.64191970140286,-56.15523400348697,1.383005499789579,18.710234513326654,-0.9476971288517034,3.6220824333246493,2.383492655917836,-2.3153008940400803,56.31090400348697,-0.1391456819539078,0.4047528604669339,-0.2126520023767535,0.5650203830440882,24420609.783567134,0.0,1.0,0.0,0.0,0.0
24441798.0,-0.17194980068336674,0.03857711658517034,-0.022889282731462925,0.5707568854028056,0.0,1487.7154308617235,1500.0,1572.430861723447,1569.871541230461,1429.128458769539,1521.549499022044,18.45049412907816,18.86213311478958,20.686437801482963,20.645421048116233,21.06843193246493,20.52531164254509,20.945861806593186,198.6367003991984,198.6367003991984,12.039731458557114,-0.00164191623246493,-0.006818416671342685,0.0031150217174348697,-0.15907710291583166,-0.007486347561122245,-0.10885153528657315,2.0,-1.0,0.0,11.0,0.0,0.0,1.0,0.0,0.0,0.0,0.0,0.0,0.0,0.0,-0.855742706496994,0.23916509389178356,0.3623877022084168,0.10118742345490983,-20.576307871743488,177.7386947727455,56.04166180741483,-0.021977829448897798,-0.03829102783767535,-0.004108061488977956,0.0,3.3889640821162326,0.4355198342805612,-12.722719513567133,2.2e-23,959.7001686867735,12.03973965721443,-0.704502848242485,0.16489236021042084,-0.12325159259118235,3.7600498433727463,0.39421649366933875,-11.886405427775552,-0.6681768772845692,0.1811095668336673,-0.15921991037074149,2.2e-23,56.334671454969936,57.76900401248497,3.921620173004008,2.5616540733947897,15.335924717975953,20.373564746492985,-0.10075280348096192,1.013206539004008,-0.17056962959519037,-19.372019278316632,455.69311476452896,12.040141562865731,95969.97388569139,1.1402820431102203,-0.050475295859719646,-0.1561237772064128,-0.5276193658897795,-0.6744164141462926,0.1655213077034068,-0.11765655520841682,-0.8553452906593185,0.24155875554308617,0.3352142752244489,0.882307069252505,-0.42425019253106216,0.03940936198597194,0.19996258608216433,0.5717111523066132,398713762.78056115,327394660.28176355,456145.4538224449,18.61782343278557,1.2024434774148296,18.57234070470942,-0.8177207078797595,1.505775709977956,0.0,0.0,0.0,39.87141370000001,32.7364368,-4.066316026300601,260.0807532492986,-56.17719284813627,1.46788245758517,18.766593720621245,-1.0017239171683365,3.8544113839779555,2.231145059432866,-2.4043471360240485,56.33286284813627,-0.13052746195791584,0.4075054484749499,-0.2142845070781563,0.5665365225230461,24441798.34468938,0.0,1.0,0.0,0.0,0.0
24462987.0,-0.16137834621442887,0.04184594479358718,-0.023435860991983967,0.571704438012024,0.0,1487.066132264529,1500.0,1571.1322645290581,1566.3578735591182,1432.6421264408818,1522.8032855230458,18.509493431763527,18.922516709098197,20.679971540641283,20.639083056212424,21.062098764849697,20.52015454947896,20.940733198256513,199.7903352537074,199.7903352537074,12.039563796673347,-0.0016395164248496996,-0.0068163350200400805,0.0031073249318637275,-0.15900635663927856,-0.00770926540480962,-0.10884740379959919,2.0,-1.0,0.0,11.0,0.0,0.0,1.0,0.0,0.0,0.0,0.0,0.0,0.0,0.0,-0.8555545047014028,0.239935789250501,0.35368138003607213,0.09887988052104209,-20.141498073186373,177.5519890260521,56.05211470320641,-0.021974982923847697,-0.0382278588757515,-0.0039263442384769535,0.0,3.297916290212425,0.4478044592024048,-12.787946791002005,2.2e-23,959.6956887861724,12.039563846633266,-0.7023443037535071,0.1712252259018036,-0.13305703639078156,3.7699551220260523,0.34318174015430863,-12.128422539038077,-0.6555865619338678,0.1835439541442886,-0.16540299716032064,2.2e-23,56.457347997014026,57.83142444350701,3.925399792731463,2.5916041665490983,15.335986615611223,20.38757730496994,-0.1010318187755511,0.976892130731463,-0.1710372291222445,-19.18627751278557,455.6671419765531,12.039996567995992,95970.26225867737,1.1402854636152304,0.10532990660120246,-0.1650322831703407,-0.5547110933847695,-0.6973063641983968,0.1770694838717435,-0.12692121703607215,-0.8533358738256512,0.24213573461322646,0.32925578796192384,0.8832758480821644,-0.4232737604188377,0.04113215893987976,0.19740496449498998,0.5733673474569138,398713765.7024048,327394711.1218437,456167.3758961924,18.68449376336673,1.278153861206413,18.635620904468936,-0.8719609680561123,1.5020481834769541,0.0,0.0,0.0,39.87141370000001,32.7364368,-4.030154377859719,260.506607096994,-56.20076733486974,1.5592886817935872,18.813971078376753,-1.056578641721443,4.046714873476954,2.076237497997996,-2.4374362703887775,56.35643733486974,-0.11956324481963927,0.4104134841783567,-0.21598246576352706,0.5683102069559118,24462986.905811623,0.0,1.0,0.0,0.0,0.0
24484175.0,-0.151786669501002,0.04263899632064128,-0.02301794045490982,0.5725354763206413,0.0,1487.0,1500.0,1570.4168336673347,1563.6673346693387,1435.3326653306613,1522.9712326412823,18.628669691643285,19.04429758280561,20.67350528563126,20.632745058476953,21.05576560306613,20.514997456412825,20.935604584088175,200.94397010821643,200.94397010821643,12.039396128957916,-0.0016371172004008016,-0.006814253368737475,0.003099628729458918,-0.1589356109458918,-0.007932182665330662,-0.10884327172945892,2.0,-1.0,0.0,11.0,0.0,0.0,1.0,0.0,0.0,0.0,0.0,0.0,0.0,0.0,-0.8553663029058116,0.2407064840260521,0.3449750572805611,0.0965723381703407,-19.706688268797595,177.36528327935872,56.062567598997994,-0.021972282773547094,-0.03816458669338677,-0.003733256993987976,0.0,3.2091998106933866,0.45845298881763524,-12.812000810841685,2.2e-23,959.6885894190381,12.039388041883768,-0.6945599466553106,0.17795775764128258,-0.13891621811022045,3.6690970403547096,0.3605834673967936,-12.336246619619239,-0.639824431725451,0.18544505975350703,-0.1717424220961924,2.2e-23,56.58002454488978,57.89384487452906,3.9291794118757513,2.621554259703407,15.33604850741483,20.401589869278556,-0.10131083465330662,0.9405777230420842,-0.17150482923246493,-19.000535741422844,455.6647078811623,12.039834667134269,95970.29351362726,1.1402857816753507,0.425238470805611,0.09719324094388757,-0.45322659302204416,-0.699304938472946,0.18253143819438877,-0.13486851136673347,-0.8528949749839679,0.24269424830460926,0.3197721325310621,0.884240820002004,-0.42290179770541086,0.043432274817635265,0.1933118869478958,0.5750426471362725,398713768.6242485,327394761.96192384,456189.2980282565,18.751164088116234,1.3538642449979958,18.698901098396792,-0.9262012282324649,1.498320656975952,0.0,0.0,0.0,39.87141370000001,32.7364368,-3.9928764913246493,260.92708875811627,-56.22501053260521,1.653397368767535,18.8576308498998,-1.1117760488076152,4.222451826865732,1.9202703676573147,-2.4473647614068135,56.38068053260521,-0.11255221427855712,0.4129642786012024,-0.21766142547294587,0.5696148786993989,24484175.46693387,0.0,1.0,0.0,0.0,0.0
24505364.0,-0.1432536884028056,0.04333316255711423,-0.022979463348697396,0.5729284971142284,0.0,1487.0,1500.0,1569.5350701402806,1561.5350701402806,1437.4649298597194,1523.2324649298598,18.71953628571142,19.13716468244489,20.667039031282567,20.62640706008016,21.04943243961924,20.509840363346694,20.930475971583167,202.09760493947897,202.09760493947897,12.039228462905813,-0.0016347180420841685,-0.00681217171743487,0.0030919325931863728,-0.15886486508617234,-0.008155099859719439,-0.10883913959318638,2.0,-1.0,0.0,11.0,0.0,0.0,1.0,0.0,0.0,0.0,0.0,0.0,0.0,0.0,-0.8548033355631263,0.24141492857915833,0.3365434673246493,0.0942866206232465,-19.278393851322644,177.16300589258518,56.069634831382764,-0.021969984416833666,-0.03810139207214429,-0.003540581547094188,0.0,3.120747706805611,0.4689159816192385,-12.831385698376755,2.2e-23,959.6811930222444,12.039212235470943,-0.6867349636172345,0.18106158013426854,-0.14542518141282568,3.5681840406272545,0.3746758025711423,-12.50529838731463,-0.6237026109398798,0.18728569011823648,-0.1780995758677355,2.2e-23,56.69952323739479,57.95588141761523,3.932700314456914,2.6499593574589175,15.336102566813627,20.41174121268537,-0.10151278196392786,0.9068544418236473,-0.17195655856312625,-18.81688885036072,455.6830937745491,12.039666485731463,95970.08279386772,1.1402832721603207,0.6875756642645292,0.12309885716833618,-0.4465871183767537,-0.696662775234469,0.18743048253907818,-0.14179316876152306,-0.8519472027114229,0.24324751389979965,0.3113237380460922,0.8852059811242485,-0.42232236095190384,0.04555652336272545,0.189661113248497,0.5767271532765531,398713771.5460922,327394812.80200404,456211.2201436874,18.81783441452906,1.4295746287895792,18.762181293987975,-0.9804414881763528,1.4945931302424849,0.0,0.0,0.0,39.87141370000001,32.7364368,-3.9554720208557117,261.34696117895794,-56.24932956354709,1.7478125203587176,18.90086903947896,-1.167012317032064,4.396310100901804,1.764183080018036,-2.4546667877154307,56.40499956354709,-0.10485239754909818,0.41544585984368737,-0.21915114846292585,0.5711656638937875,24505364.02805611,0.0,1.0,0.0,0.0,0.0
24526553.0,-0.13641982845891784,0.0443534456993988,-0.023817490322645293,0.5725597993987975,0.0,1487.0,1500.0,1568.2364729458918,1560.2364729458918,1438.7635270541082,1523.881763527054,18.74740423993988,19.165701771342686,20.660572776933865,20.620069061683367,21.043099272004007,20.504683270280562,20.92534736324649,203.2512397290581,203.2512397290581,12.039060801022044,-0.001632318883767535,-0.006810090066132265,0.0030842364569138277,-0.15879411880961924,-0.008378017054108216,-0.10883500745691384,2.0,-1.0,0.0,11.0,0.0,0.0,1.0,0.0,0.0,0.0,0.0,0.0,0.0,0.0,-0.8535683748256513,0.24201175216232465,0.3286045018176353,0.09204003708817635,-18.861782197775554,176.93280694428856,56.07063121903808,-0.02196837675350701,-0.03803835751503006,-0.0033509564889779558,0.0,3.0322956029178356,0.47937897400400803,-12.850770585911823,2.2e-23,959.6737966671343,12.03903642488978,-0.6799810959619238,0.17757748281963928,-0.15390170966933867,3.489695369172345,0.368918069993988,-12.611780253607215,-0.607580789737475,0.18912632048296593,-0.1844567292224449,2.2e-23,56.813323705290586,58.01722960991984,3.9357573115951903,2.6755941186372745,15.336142583086172,20.414968986392786,-0.10157653724248497,0.8777773182965932,-0.1723798298256513,-18.63699829757515,455.7340256655311,12.03949048036072,95969.49047122244,1.1402763233667335,0.8133123895551102,-0.3298744034649298,-0.6361594859118236,-0.6899473759238477,0.1925577533206413,-0.14715200799198397,-0.8497716089398798,0.24379512389579158,0.3054484869679359,0.8861722556092184,-0.42124798798998,0.04724803061723447,0.18711565821843687,0.5784242828076153,398713774.46793586,327394863.6420841,456233.1422174348,18.88450474511022,1.5052850125811623,18.825461493747493,-1.034681747703407,1.4908656030921845,0.0,0.0,0.0,39.87141370000001,32.7364368,-3.91806754996994,261.7668335581163,-56.27364859448898,1.842227671533066,18.94410722905812,-1.2222485856733467,4.570168374937876,1.6080957923787575,-2.461968814024048,56.42931859448898,-0.09511366853106212,0.41787597671743487,-0.22030541372144288,0.573253125769539,24526552.589178357,0.0,1.0,0.0,0.0,0.0
24551482.0,-0.13024382596993989,0.0462147607755511,-0.024602501364729457,0.5716931672144288,0.0,1486.4689378757514,1500.0,1566.937875751503,1558.937875751503,1440.062124248497,1524.5310621242486,18.757584989559117,19.176148616653307,20.65410652258517,20.613731063286576,21.03676610438878,20.49952617721443,20.92021875490982,204.4048745717435,204.4048745717435,12.038893133827655,-0.001629919725450902,-0.006808008414829659,0.0030765403206412826,-0.15872337306412826,-0.008600934779559118,-0.10883087585170341,2.0,-1.0,0.0,11.0,0.0,0.0,1.0,0.0,0.0,0.0,0.0,0.0,0.0,0.0,-0.851852305260521,0.24252866151703406,0.3210182258196393,0.08982147185971943,-18.45353472488978,176.68261780861724,56.06728124026052,-0.02196782643486974,-0.037979640492985973,-0.0031618444368737477,0.0,2.9503659594308616,0.47845527113827657,-12.863310454408818,1.728996539789577,959.6715220344688,12.03883878234469,-0.6681576986472946,0.17987253471342685,-0.15905728554108214,3.422406401214429,0.4003425946913827,-12.69083830016032,-0.5923941646873748,0.19251590771142285,-0.18756533095390784,1.728996539789577,56.923323850140285,58.0781187149499,3.9385049145951903,2.6993812552064127,15.336173226112225,20.413579222725453,-0.10154812775150301,0.8517988631362725,-0.17278412145891783,-18.459612961322645,455.7658489853707,12.03931446967936,95969.13219296593,1.1402720734308618,1.0341019207675348,-0.24092101992985993,-0.4050228077254512,-0.6802744263226453,0.19278144285971943,-0.1545168664208417,-0.8491102745571142,0.24432620936272545,0.2963111565210421,0.8871065495330661,-0.4207535162805611,0.04947193189979959,0.18315088974148297,0.5801087013667334,398713777.44288576,327394914.4821643,456255.0643442886,18.95117507569138,1.5809953963727454,18.888741693507015,-1.0889220077615231,1.487138076472946,0.0,0.0,0.0,39.87141370000001,32.7364368,-3.8728742893647294,262.1892509462926,-56.302008673627256,1.949089938559118,18.97535506082164,-1.2744648256272544,4.736622064114228,1.4596073292885774,-2.426464564531062,56.45767867362726,-0.089200252749499,0.41968686771943886,-0.2217118947214429,0.5745622263527054,24551481.95190381,0.0,1.0,0.0,0.0,0.0
