timestamp,gyro_rad[0],gyro_rad[1],gyro_rad[2],accelerometer_m_s2[0],accelerometer_m_s2[1],accelerometer_m_s2[2]
18000000,-0.001544147,-0.010817568,-0.006094445,-0.12588969,0.18479644,-9.951461
18008000,0.002651573,-0.005084702,-0.004909659,-0.21384192,0.17120592,-9.867207
18012000,0.000732292,-0.002923965,0.002418174,-0.14149213,0.14624897,-9.91822
18020000,-0.000746004,-0.01044366,-0.003306894,-0.08971689,0.1665995,-9.99359
18024000,0.003030024,-0.004335699,-0.003085029,-0.15569921,0.1385888,-10.010471
18032000,-0.003921734,-0.005895151,0.000688934,-0.19822204,0.22657605,-9.971874
18036000,-0.000404408,-0.010166866,-6.28E-05,-0.14322293,0.18815202,-10.013064
18044000,-0.006338623,-0.010270061,-0.006961326,-0.19839317,0.1024663,-9.900863
18048000,-0.001566698,-0.0073931,-0.005079086,-0.21338552,0.19582672,-9.916731
18052000,-0.007794584,-0.007326028,-0.005723486,-0.17961591,0.21567576,-9.936432
18060000,0.001072363,-0.005923448,0.007604325,-0.2519437,0.21871229,-10.007148
18068000,-0.004628381,-0.012541043,0.004729366,-0.10879651,0.23713095,-9.941404
18076000,-0.007401031,-0.012105964,-0.003089779,-0.13372703,0.10582879,-9.950299
18080000,-0.003224066,-0.011647001,0.004194593,-0.16737586,0.09580026,-9.991446
18084000,-0.002516212,-0.01095195,0.000572258,-0.18279146,0.10997853,-9.909923
18088000,-0.002970745,-0.004534124,0.000864666,-0.14582938,0.1448875,-9.882747
18096000,-0.002190996,-0.008086703,-0.001657409,-0.20389344,0.22225568,-9.901228
18100000,-0.009576125,-0.008952701,0.000133573,-0.14899279,0.14112975,-9.9102335
18104000,-0.005288004,-0.000819735,0.002506301,-0.190202,0.16497633,-9.968892
18108000,-0.001655264,-0.002805227,0.002253071,-0.20042248,0.1711964,-9.940808
18116000,-0.00174785,-0.006919157,-0.000334493,-0.09943814,0.10710941,-9.976447
18124000,-0.001369643,-0.003925211,-0.006613839,-0.21111469,0.1806157,-9.913217
18128000,-0.00721329,-0.00516378,-0.006730752,-0.21717569,0.20298581,-9.869572
18132000,0.000189128,-0.0049715,0.000255234,-0.119123146,0.17448293,-9.902448
18136000,0.007091262,-0.008052912,0.001952434,-0.08767004,0.13196978,-9.935894
18144000,0.000727553,-0.009840986,0.005334821,-0.14070344,0.1741681,-9.9850645
18148000,-0.001053319,-0.010498714,0.000250294,-0.15555733,0.13935263,-9.969299
18152000,0.001348361,-0.008599847,-0.005718052,-0.17942208,0.14565243,-9.967114
18156000,0.00139908,-0.004299215,-0.006116066,-0.16485651,0.21097298,-9.970209
18164000,-0.000373782,-0.002635395,-0.004126601,-0.17031282,0.14530282,-9.928293
18168000,-0.003170051,-0.002078153,-0.006797753,-0.10087143,0.15519258,-9.897142
18176000,-0.003182545,-0.007923479,-0.00382904,-0.23705854,0.16611223,-9.993462
18180000,-0.002780186,-0.01092831,-0.001210791,-0.2143004,0.13503484,-9.952375
18188000,-0.002549452,-0.008720248,-0.002019414,-0.15936825,0.15102588,-9.947729
18192000,-0.004111787,-0.01174209,-0.001934825,-0.20280959,0.19100107,-9.870476
18196000,-0.006046187,-0.011647268,0.000769808,-0.21567081,0.23118551,-9.875891
18204000,-0.004814845,-0.008566179,0.000494333,-0.24425098,0.118627176,-9.880553
18208000,0.000749754,-0.006769506,-0.003563464,-0.20284301,0.23797794,-9.880553
18212000,0.002039035,-0.01172497,-0.001653653,-0.14508201,0.26479757,-9.962333
18216000,0.003850629,-0.00672343,0.006526742,-0.1134261,0.13147078,-10.01634
18220000,0.000954503,-0.004340963,0.006890368,-0.15187556,0.1616867,-9.992097
18224000,-0.007416769,-0.002797562,-0.000141663,-0.10454468,0.25114846,-9.860845
18228000,-0.008160881,-0.003867745,-0.002569644,-0.12038579,0.2281343,-9.82413
18236000,0.001687629,-0.008323284,0.000205313,-0.10969276,0.15513784,-9.937805
18240000,0.000439529,-0.008814791,0.002271107,-0.07538244,0.15789431,-9.83198
18248000,-0.000227916,-0.008800921,0.000179402,-0.2222769,0.20239858,-9.985778
18252000,-0.000971125,-0.00904568,0.001657241,-0.16802557,0.2378006,-9.944405
18260000,-0.004588116,-0.005521664,-0.000173556,-0.16262239,0.14179498,-9.981145
18264000,-0.004261034,-0.008140952,-0.002415222,-0.13043495,0.17880127,-9.96679
18272000,0.002182581,-0.001596849,-0.006509852,-0.14769989,0.20802717,-9.945676
18276000,-0.000250034,-0.003513082,-0.002647387,-0.15855816,0.19134861,-9.893277
18280000,-0.001188135,-0.004995613,0.000978835,-0.13027115,0.22508405,-9.844186
18288000,-0.001755287,-0.001767658,-0.007554556,-0.19461882,0.24632406,-9.971265
18292000,0.000751857,0.0029479,-0.002032157,-0.24790277,0.19871844,-9.954638
18300000,0.002020965,-0.006658009,0.00186792,-0.13893443,0.1352464,-9.953487
18304000,0.002015553,-0.006041829,0.000348992,-0.13989232,0.17714192,-9.899279
18312000,0.001316791,-0.010417189,0.004061531,-0.18698718,0.2013586,-9.962589
18316000,-0.001586005,-0.008044086,0.001586972,-0.19289838,0.18130824,-9.877115
18324000,-0.0007959,-0.007664346,0.005474979,-0.16789877,0.18586735,-9.979431
18328000,-0.002994634,-0.008311749,-0.000760731,-0.2335216,0.19669698,-10.044841
18336000,-0.003262396,-0.006747366,0.001866192,-0.18876144,0.21600595,-9.937896
18340000,-0.004141675,-0.002952509,-0.004915617,-0.09512283,0.14128786,-9.919952
18344000,-0.000235405,0.001609198,-0.011297355,-0.06359465,0.1506427,-9.839088
18352000,-0.000585927,-0.013830517,0.002899893,7.905713,0.18654735,-9.857867
18356000,-0.005938438,-0.004874623,-0.000956838,18.377865,0.17551371,-9.81838
18360000,-0.010646865,-0.001263065,-0.002024342,27.465622,0.18008676,-9.914418
18364000,-0.006703539,-0.008757265,-0.006070766,34.833313,0.17737103,-9.8705015
18372000,0.001496491,-0.007788978,-0.001042367,44.684597,0.15826523,-9.90301
18380000,0.001221844,-0.01189844,-0.00048309,49.60985,0.18757553,-9.826313
18388000,-0.00390998,-0.004783495,0.005734731,51.709267,0.14138214,-9.901232
18396000,0.000545287,0.00081377,-0.000626375,52.434803,0.19801547,-9.917984
18400000,0.00513819,-0.001521301,-0.002246106,52.308075,0.19010924,-9.859997
18404000,0.003750194,-0.002406295,-0.002760615,52.12902,0.21795963,-9.810651
18412000,-9.42E-05,-0.00588142,0.008763719,51.612972,0.2333923,-9.799786
18416000,-0.003396878,-0.005725753,0.000958522,51.283394,0.1621833,-9.840365
18420000,-0.002113238,-0.004480637,-0.004810236,50.729786,0.14343359,-9.822948
18424000,-0.009691819,-0.00420405,-0.003143897,50.07326,0.22252436,-9.808405
18432000,0.000244805,-0.008471379,0.003169172,49.14219,0.11060701,-9.822439
18440000,0.004374653,-0.008185908,-6.66E-05,48.160362,0.23973686,-9.817389
18444000,0.002166298,-0.015236076,0.003506548,47.578186,0.20534351,-9.840348
18448000,0.00551462,-0.011707815,0.004529725,47.09073,0.1932775,-9.841997
18452000,0.004297732,-0.003479421,0.002693262,46.69277,0.2026644,-9.833507
18456000,-0.003539377,-0.00145442,0.00252489,46.288155,0.17050923,-9.861605
18464000,-0.002214886,-0.003330823,0.002905192,45.271786,0.2285037,-9.873485
18468000,0.002075572,-0.001079382,0.008736937,44.754158,0.15564284,-9.886594
18476000,-0.004141332,-0.004006602,-0.000958735,44.02944,0.21992776,-9.797911
18480000,-0.002270851,-0.01026723,-0.005029052,43.652817,0.20796052,-9.785938
18484000,-0.003958637,-0.006677581,-0.00500788,43.08193,0.17375103,-9.775685
18488000,-0.002068187,-0.003867865,-0.002853813,42.600716,0.17443518,-9.830562
18492000,0.000187817,-0.007776795,0.000352371,42.353825,0.22977121,-9.832815
18500000,-0.000361938,-0.009822873,-0.003362559,41.57664,0.19048375,-9.8825865
18504000,0.000600396,-0.007398005,0.003478205,41.055573,0.25252417,-9.85897
18508000,0.000589983,6.40E-05,0.004140707,40.577675,0.23106962,-9.786462
18512000,-0.0020429,-0.002377798,-0.002689237,40.1891,0.1476272,-9.857727
18516000,-0.008857475,-0.00594206,-0.001153984,39.981014,0.18299422,-9.922297
18520000,-0.008347325,-0.006884574,-0.003459026,39.609974,0.2036171,-9.884075
18528000,-0.007100348,-0.008013712,-0.000399728,38.72523,0.17920822,-9.860428
18532000,-0.004153199,-0.002801033,8.91E-05,38.29872,0.17521712,-9.854189
18536000,-0.004007379,-0.003331502,-0.004621443,38.05963,0.16363156,-9.835184
18540000,-0.002532352,-0.005967606,-0.010967755,37.731663,0.190365,-9.780949
18544000,0.002473308,-0.005417981,-0.003121339,37.239967,0.1934151,-9.868338
18548000,0.001799317,-0.011395483,0.001281863,36.803062,0.1757217,-9.915486
18552000,0.001437405,-0.012254052,-0.000838322,36.466503,0.119936794,-9.862724
18560000,-0.002013579,-0.001071038,0.000627263,35.816757,0.2157907,-9.844043
18564000,0.000135583,-0.002307287,-0.000508113,35.43492,0.22691129,-9.886339
18568000,-0.003461207,-0.007604398,-0.004264038,35.027264,0.20276222,-9.850533
18572000,0.001340834,-0.002439298,-0.001509369,34.622555,0.13988085,-9.873336
18576000,-0.0004785,0.002413332,0.000528146,34.316906,0.09405862,-9.820584
18580000,9.59E-05,-0.003780469,-0.002336034,34.000744,0.12736312,-9.831143
18588000,0.000293512,-0.008912892,0.002553757,33.24023,0.19292158,-9.8407755
18592000,-0.001402018,-0.008078489,0.00032335,32.911934,0.14936201,-9.884128
18600000,-0.000425635,-0.002300292,3.47E-05,32.5093,0.115194395,-9.905305
18604000,0.000836541,-0.005414216,0.001634601,32.19091,0.1398814,-9.908064
18612000,-0.004125795,-0.003183632,-0.00200568,31.380766,0.14718291,-9.799828
18616000,-0.004609717,-0.007561118,-0.005441594,31.107315,0.17431916,-9.871145
18620000,-0.001486973,-0.009576909,-0.009110067,30.914446,0.25864795,-9.937898
18624000,0.00231599,-0.000522888,0.003786214,30.725094,0.24502565,-9.888079
18628000,-0.001028814,0.000410542,0.00801561,30.435915,0.18690501,-9.889503
18632000,-0.006700159,-0.012748986,-0.002110577,30.081032,0.17968045,-9.821398
18636000,-0.004999498,-0.014901803,-0.002755722,29.780577,0.17033225,-9.728395
18640000,0.000220418,-0.003542508,-0.00449698,29.578623,0.20173666,-9.777877
18644000,-0.001086052,-0.000828437,-0.005160531,29.318892,0.17362139,-9.887511
18648000,-0.00331785,-0.003935944,-0.00149032,29.082165,0.14834638,-9.887577
18652000,0.002512169,-0.001687033,-0.003174061,28.817314,0.15910138,-9.913884
18656000,-0.000173615,-0.006374526,-0.001089845,28.50608,0.10018208,-9.921042
18660000,-0.003781567,-0.010409396,0.003062362,28.358753,0.1265195,-9.873936
18664000,-0.002948705,-0.010594862,0.001008612,28.226252,0.18514809,-9.879557
18672000,-0.001288965,-0.001952338,0.006970337,27.575903,0.16229557,-9.867875
18680000,-0.000911734,-0.005822326,-0.002113699,27.031769,0.15006118,-9.86936
18684000,-0.004035254,-0.006048954,-0.004674113,26.901869,0.13834265,-9.84861
18688000,-0.007179451,-0.006671207,-0.004218079,26.596712,0.2559462,-9.8544035
18692000,-0.004123948,-0.004407166,-0.002263223,26.231096,0.26064336,-9.898821
18696000,0.004329497,-0.004886912,5.43E-06,25.968334,0.16840312,-9.870453
18700000,0.006398005,-0.005021585,0.001097101,25.821735,0.15448003,-9.841569
18704000,0.004716961,-0.006413737,0.00466896,25.588963,0.1892353,-9.876031
18708000,0.001897405,-0.007236591,0.003100344,25.330275,0.1995042,-9.864891
18712000,-0.006675879,-0.007257978,-0.004055304,25.082193,0.1741255,-9.876667
18720000,0.004317777,-0.00783766,0.005829608,24.600872,0.19116274,-9.914807
18724000,-0.000904156,-0.007992148,0.00485458,24.458315,0.13952596,-9.852882
18728000,0.003554617,-0.009765328,0.001546506,24.172857,0.025453093,-9.807168
18732000,0.004538197,-0.006239971,0.004440267,23.798435,0.04237047,-9.920405
18736000,-0.002537693,-0.004824868,0.009778325,23.596912,0.019608328,-9.957106
18740000,-0.003712793,-0.006534657,0.009019339,23.463951,0.05666212,-9.905046
18748000,0.000284396,-0.003553721,0.01420777,23.173147,0.1453881,-9.920469
18752000,0.002324779,-0.002596197,0.02091594,22.831686,0.042515773,-9.892188
18760000,-0.003017221,-0.009478449,0.018837746,22.48051,0.00174988,-9.874944
18764000,0.001781741,-0.008768343,0.016531106,22.319857,0.016971087,-9.881385
18768000,-0.003782383,-0.001263495,0.019947385,22.152481,0.08842755,-9.857092
18776000,0.000954735,-0.003004127,0.029909864,21.69424,0.07506482,-9.814073
18784000,0.00487693,-0.004157891,0.028819403,21.535181,0.03245472,-9.894764
18788000,-0.00260242,-0.007081295,0.028384734,21.38175,0.059717786,-9.947382
18792000,-0.002445386,-0.008095296,0.028827798,21.092068,0.03436047,-9.934805
18796000,0.003126423,-0.00875179,0.034110144,20.885456,0.016373789,-9.933633
18800000,0.0033675,-0.006544766,0.040206555,20.739042,0.022950636,-9.949398
18804000,0.002859205,-0.005758783,0.034113653,20.598574,0.025416326,-9.875783
18808000,0.001968594,-0.006892913,0.036485963,20.400425,0.01623302,-9.846742
18812000,-0.00112007,-0.003751699,0.050965704,20.204237,-0.01345393,-9.86036
18820000,0.01289499,-0.011609012,0.07664943,20.452028,-0.726329,-10.106532
18824000,0.017462125,-0.008944831,0.100613646,20.307669,-0.5589009,-10.274215
18828000,0.017604122,-0.006529041,0.10458869,20.21274,-0.50465786,-10.285452
18832000,0.025624216,-0.003063589,0.112146154,20.044474,-0.65009135,-10.294409
18836000,0.033770904,-0.00116381,0.13186179,19.776346,-0.6074498,-10.306147
18840000,0.04067298,-0.007263453,0.14984667,19.546314,-0.5553342,-10.272467
18844000,0.046602,-0.00876134,0.1670198,19.477089,-0.52674264,-10.336598
18848000,0.052775547,-0.002842697,0.17749722,19.321815,-0.4070305,-10.325262
18852000,0.06350763,-0.004837092,0.17968331,19.093239,-0.39206892,-10.321984
18856000,0.07432802,-0.009285932,0.1916494,18.955973,-0.4143359,-10.34561
18860000,0.08262668,-0.006385895,0.206679,18.767706,-0.35073468,-10.403836
18864000,0.087570034,-0.008185283,0.2193484,18.657145,-0.28244898,-10.4213705
18868000,0.09292839,-0.011026828,0.22913945,18.60938,-0.28663772,-10.355104
18876000,0.10443518,-0.005351147,0.24311428,18.152607,-0.32529384,-10.320802
18880000,0.11106966,-0.005767661,0.2463718,17.940935,-0.34926927,-10.3707
18888000,0.12560222,-0.019888034,0.2580647,17.782589,-0.07536769,-10.357677
18896000,0.14923465,-0.010418201,0.26920822,17.613392,-0.115665846,-10.377998
18900000,0.15348507,-0.006771219,0.27045605,17.2859,-0.025999395,-10.373705
18904000,0.1676689,-0.013696724,0.27616525,17.209574,0.033911213,-10.368787
18912000,0.17279264,-0.013486426,0.26623368,16.903212,-0.023112528,-10.328512
18916000,0.18157202,-0.008158248,0.2657202,16.8323,0.04253244,-10.294958
18920000,0.19192906,-0.008211536,0.26958984,16.670458,0.110947125,-10.241237
18928000,0.21274012,-0.004685948,0.25554338,16.477234,0.15613656,-10.282465
18936000,0.22336997,-0.007940931,0.24366714,16.268894,0.30245823,-10.258929
18944000,0.24666439,-0.004143067,0.22802672,15.935163,0.30431348,-10.365917
18948000,0.2437403,-0.006897224,0.2307757,15.7384615,0.27518132,-10.405683
18952000,0.2535203,-0.001940869,0.2195066,15.660186,0.3861932,-10.272548
18960000,0.2759013,0.000479452,0.19445734,15.4227915,0.34668648,-10.398811
18968000,0.2910998,-0.000826427,0.17577292,15.168636,0.37925896,-10.4087305
18976000,0.29597956,-0.01054733,0.15365253,14.934601,0.6255017,-10.2297735
18980000,0.3039482,-0.009190262,0.14884399,14.762112,0.54365903,-10.312702
18984000,0.31514424,-0.002427698,0.13644627,14.598288,0.506989,-10.342732
18988000,0.3205258,0.001605705,0.11815642,14.503309,0.5968608,-10.266649
18996000,0.32600173,-0.013030693,0.099488184,14.27077,0.76512563,-10.303362
19000000,0.3343321,-0.009024413,0.08887181,14.026612,0.8091285,-10.275737
19004000,0.3389647,-0.007366713,0.07764107,13.951126,0.7663951,-10.224972
19008000,0.34081545,-0.016906124,0.07106211,13.835115,0.6856145,-10.25817
19016000,0.34922343,-0.016277345,0.042731654,13.5315075,0.8187226,-10.343805
19020000,0.34526935,-0.013518294,0.030389788,13.3661585,0.8480606,-10.325407
19024000,0.34908044,-0.010969175,0.02256166,13.286231,0.84818697,-10.293136
19028000,0.35812685,-0.012295484,0.017572857,13.114545,0.81539905,-10.3266
19032000,0.35802022,-0.016922707,0.01256814,12.895613,0.8053725,-10.398997
19036000,0.36158502,-0.01777365,0.004069944,12.749019,0.88248026,-10.415092
19040000,0.36685053,-0.02075019,-0.004815788,12.582867,0.9137105,-10.306293
19044000,0.3641608,-0.019938674,-0.012739081,12.409368,0.7705909,-10.328884
19048000,0.36588138,-0.020127982,-0.029236685,12.300257,0.72486275,-10.360382
19052000,0.36708626,-0.024602147,-0.039770905,12.139047,0.738561,-10.328089
19056000,0.36740237,-0.02401869,-0.04222173,12.037852,0.6661729,-10.392955
19064000,0.36265317,-0.023517344,-0.060614813,11.780049,0.7589293,-10.255331
19068000,0.36180317,-0.01753359,-0.07069518,11.617149,0.7402893,-10.3499975
19076000,0.36807203,-0.027737366,-0.08507501,11.256298,0.61862415,-10.369179
19080000,0.3691038,-0.030497694,-0.08943219,11.221944,0.6158017,-10.355379
19084000,0.36466932,-0.021853752,-0.0991718,11.112786,0.6446864,-10.341617
19088000,0.3614535,-0.022084331,-0.106097855,11.025008,0.6688876,-10.317266
19092000,0.352725,-0.022369413,-0.11241978,10.912,0.6108947,-10.316776
19096000,0.3464961,-0.027940476,-0.11805491,10.799635,0.55886453,-10.251937
19100000,0.34742934,-0.032168575,-0.127334,10.653162,0.55097234,-10.252823
19104000,0.35394064,-0.02986707,-0.13529801,10.499706,0.601019,-10.228201
19108000,0.35534862,-0.026337065,-0.14045973,10.383755,0.6288418,-10.132256
19112000,0.34995067,-0.025941752,-0.14396873,10.215267,0.53731126,-10.197059
19116000,0.34911883,-0.025982328,-0.1465968,10.08492,0.50470406,-10.232979
19124000,0.35249227,-0.028932039,-0.15932082,9.792595,0.5348902,-10.0744915
19128000,0.34979832,-0.026369719,-0.15824746,9.78457,0.55964625,-10.035305
19132000,0.35010603,-0.023343455,-0.16302933,9.684124,0.5931632,-10.001624
19140000,0.341683,-0.023349835,-0.16682999,9.449627,0.46267906,-10.039011
19144000,0.33401635,-0.02138401,-0.1719397,9.406025,0.44317985,-9.975211
19148000,0.33336654,-0.017924326,-0.1757225,9.30812,0.42041913,-10.038505
19152000,0.3358207,-0.02054457,-0.1723478,9.152293,0.3255163,-9.990672
19156000,0.33385807,-0.026005838,-0.17295374,9.005068,0.2547032,-9.946566
19160000,0.3299247,-0.030045765,-0.17633872,8.879746,0.2991316,-10.051395
19164000,0.32415542,-0.026091764,-0.17567755,8.823335,0.30655435,-10.032234
19168000,0.32649887,-0.025647774,-0.17979972,8.720413,0.31538346,-10.000029
19172000,0.32468665,-0.022128716,-0.18701224,8.596715,0.31662533,-9.995171
19176000,0.3172649,-0.019316593,-0.19215909,8.567388,0.25734612,-10.009017
19180000,0.32001925,-0.024214309,-0.18287031,8.442463,0.22865199,-9.932031
19188000,0.31501043,-0.02485699,-0.17810723,8.265411,0.20695266,-9.990144
19192000,0.3078683,-0.018451713,-0.17649446,8.130478,0.17093088,-9.947222
19196000,0.30783674,-0.009956633,-0.17709288,8.108996,0.10234848,-9.986209
19200000,0.3076267,-0.013365136,-0.17973648,7.976651,0.09047448,-9.934953
19204000,0.3026658,-0.01493746,-0.18073218,7.823282,0.13971806,-9.8457155
19212000,0.30189282,-0.010866012,-0.17366575,7.7391205,0.021020344,-9.9167595
19216000,0.30474105,-0.00299224,-0.1707481,7.615755,0.02655739,-9.992005
19224000,0.3001804,-0.007225053,-0.16416155,7.4668183,-0.030678974,-9.966522
19228000,0.2938292,-0.0081137,-0.15532093,7.344175,-0.06304356,-9.887702
19232000,0.29259545,0.004911951,-0.15749794,7.264227,-0.05223714,-9.952657
19236000,0.2853562,0.016406875,-0.16068232,7.260014,-0.050963223,-10.047347
19244000,0.27982706,0.017962573,-0.15029396,7.0175385,-0.015989974,-10.195191
19248000,0.28097555,0.015690256,-0.15186475,6.92496,-0.05758166,-10.145709
19252000,0.2845504,0.018076286,-0.15255447,6.786322,-0.07818052,-10.047581
19260000,0.26848632,0.028990854,-0.13586316,6.6747136,-0.036131557,-10.192253
19264000,0.27348906,0.030988775,-0.12866622,6.6301723,-0.038541652,-10.216506
19272000,0.25790027,0.037283644,-0.118013255,6.4689326,-0.08282924,-10.230982
19276000,0.25890157,0.048830688,-0.10934609,6.3585615,-0.12010288,-10.241681
19280000,0.25772583,0.04968743,-0.10095453,6.2560515,-0.16017789,-10.280383
19284000,0.25717345,0.047786303,-0.09741859,6.1839843,-0.20104916,-10.424967
19288000,0.25694492,0.05567485,-0.09819741,6.1477327,-0.144412,-10.428878
19292000,0.25649258,0.05767834,-0.0904841,6.058948,-0.1407558,-10.477297
19300000,0.25192577,0.06021877,-0.07860164,5.9824643,-0.2632056,-10.481321
19304000,0.2488297,0.06948734,-0.06842118,5.892856,-0.29484645,-10.565144
19308000,0.24345669,0.07315572,-0.06413365,5.8277826,-0.2576353,-10.605901
19312000,0.24300675,0.07487671,-0.059355784,5.7442822,-0.20760517,-10.552083
19316000,0.24146989,0.0867104,-0.050778817,5.6711326,-0.23421873,-10.661895
19320000,0.240452,0.08253988,-0.042304106,5.6134267,-0.33826223,-10.817326
19328000,0.23996094,0.08428533,-0.031723104,5.494103,-0.31328294,-10.882902
19332000,0.2270221,0.08583942,-0.022685898,5.4381413,-0.26481012,-10.964158
19336000,0.2301377,0.08517469,-0.019554233,5.28791,-0.26574627,-10.949005
19340000,0.23184496,0.08796658,-0.015731908,5.1617866,-0.2882424,-11.045004
19348000,0.23087148,0.11438885,-0.007679285,5.0336185,-0.3311352,-11.184172
19352000,0.22686133,0.11329018,-0.002334935,4.984287,-0.33297852,-11.237956
19356000,0.22180805,0.110342585,0.010120688,4.952595,-0.34963045,-11.317472
19364000,0.21266606,0.13166587,0.017130733,4.9127593,-0.28437915,-11.504871
19368000,0.2114865,0.13384917,0.027160523,4.843525,-0.27889344,-11.518641
19376000,0.20927879,0.13727254,0.035203937,4.70449,-0.30560696,-11.6044035
19380000,0.21475114,0.14158091,0.037568267,4.5714,-0.29993987,-11.792711
19384000,0.21357967,0.14510195,0.043058917,4.5275235,-0.3277779,-11.903988
19388000,0.2044364,0.14394043,0.055699535,4.454891,-0.3579338,-11.902328
19392000,0.1972609,0.14487496,0.06488585,4.4319644,-0.3149224,-11.96716
19400000,0.2017849,0.15210675,0.07039076,4.275906,-0.30940032,-12.083239
19404000,0.20152155,0.16341479,0.07765911,4.2371078,-0.38265437,-12.210757
19408000,0.1967623,0.16931097,0.082137,4.2031636,-0.35274467,-12.339889
19416000,0.19636974,0.1731241,0.09084031,4.122585,-0.26128495,-12.372399
19424000,0.18554346,0.17732725,0.10339317,3.9616423,-0.21946421,-12.579273
19428000,0.18186277,0.18335444,0.10561309,3.9420762,-0.2871009,-12.690305
19436000,0.18373182,0.17990835,0.11040102,3.8136475,-0.28852433,-12.876002
19444000,0.18156904,0.18837225,0.11515209,3.6960533,-0.28750443,-12.888014
19448000,0.18433878,0.1920996,0.12042176,3.6854873,-0.25996852,-12.995299
19452000,0.17894766,0.1900487,0.12625204,3.6209278,-0.22863448,-13.094716
19456000,0.17421798,0.19037548,0.1327334,3.6285036,-0.18174693,-13.195399
19464000,0.17157924,0.19924547,0.12966184,3.4124608,-0.23480701,-13.379336
19468000,0.17522046,0.1959958,0.13972755,3.3294578,-0.22987518,-13.401626
19472000,0.17266722,0.1978174,0.14152579,3.3284366,-0.23019798,-13.372719
19476000,0.16631807,0.20451316,0.1396556,3.3371735,-0.24182086,-13.44896
19484000,0.1631792,0.20351338,0.1422194,3.2952707,-0.21570604,-13.702683
19492000,0.16327988,0.20505431,0.1429335,3.2046552,-0.14324991,-13.800655
19496000,0.15582187,0.20659651,0.14508896,3.1169739,-0.09432041,-13.808372
19504000,0.15116373,0.2164034,0.14258276,3.1071818,-0.15600388,-14.019179
19512000,0.1600058,0.21504422,0.14349563,2.9972007,-0.10212147,-14.088504
19516000,0.1572234,0.21241733,0.1429189,3.0126517,-0.0684575,-14.130158
19520000,0.15431362,0.21159846,0.14120974,2.9628623,-0.15331423,-14.184754
19524000,0.15558116,0.21213232,0.1440687,2.915913,-0.18646803,-14.281518
19532000,0.14118348,0.21432108,0.14798087,2.7759037,-0.11629433,-14.307517
19536000,0.14055446,0.21750389,0.14769603,2.8253183,-0.06733735,-14.350112
19540000,0.14000571,0.21639934,0.14358205,2.7993853,-0.027605392,-14.409952
19548000,0.13677938,0.21932578,0.1457807,2.7315676,-0.06963453,-14.619666
19552000,0.13588415,0.22015704,0.14151488,2.7215292,-0.10962747,-14.636999
19556000,0.13348506,0.22404659,0.13574424,2.7372258,-0.054354396,-14.580398
19560000,0.13568905,0.2230198,0.13370441,2.650743,-0.055121988,-14.642424
19564000,0.13887678,0.22241682,0.13310014,2.599461,-0.05485417,-14.714766
19568000,0.13471848,0.22850935,0.13152088,2.555742,-0.10308948,-14.682266
19572000,0.12674168,0.22521345,0.13271338,2.5291579,-0.1001192,-14.728932
19576000,0.12781698,0.22240521,0.13100405,2.5342133,-0.045720167,-14.768339
19584000,0.132669,0.2276614,0.1250598,2.460333,-0.02111293,-14.877342
19588000,0.12645324,0.21725531,0.12275042,2.4052176,0.04506927,-14.861421
19592000,0.12346779,0.21525672,0.11547714,2.3941462,0.029262422,-14.774119
19596000,0.121064916,0.22147083,0.11577195,2.4260445,-0.024386689,-14.787148
19600000,0.11854107,0.22323999,0.11312619,2.349577,-0.013827851,-14.917029
19604000,0.12215848,0.22190306,0.10908965,2.245064,0.019062452,-14.926379
19608000,0.117641464,0.21757044,0.10331218,2.2854161,0.04481952,-14.869114
19612000,0.1150327,0.21413232,0.09969207,2.3483543,0.0378454,-14.920535
19620000,0.11621146,0.207456,0.09583634,2.1879754,-0.071636535,-14.830817
19624000,0.115653634,0.20957555,0.09536717,2.1904838,-0.08712397,-14.859689
19628000,0.11542078,0.2127446,0.09321473,2.1416702,-0.001943649,-14.891962
19632000,0.111087844,0.21594563,0.09251825,2.1422596,0.07164908,-14.923841
19636000,0.10777613,0.2110354,0.09419591,2.140159,0.040845662,-14.8926935
19644000,0.106620975,0.21005711,0.08412824,2.1517713,-0.02119162,-14.804206
19648000,0.10663439,0.20287946,0.08123919,2.0500438,-0.054873966,-14.833195
19652000,0.10559964,0.2051198,0.07912036,2.0400355,-0.048854228,-14.958177
19656000,0.1018797,0.2050185,0.069548145,2.0570085,-0.09271184,-14.947714
19660000,0.098214954,0.21058168,0.06800387,1.9561397,-0.10540818,-14.836548
19664000,0.09596039,0.20964505,0.071060196,1.9496306,-0.031922046,-14.802906
19668000,0.09245592,0.20135331,0.06756358,1.9848533,-0.015136424,-14.817046
19672000,0.0943793,0.19797976,0.064079516,1.8617474,-0.001532998,-14.769317
19676000,0.0959233,0.20107329,0.058309417,1.8943042,0.065116934,-14.801329
19680000,0.09076926,0.20446676,0.057490967,1.9911807,0.07570301,-14.85203
19688000,0.091145754,0.20399973,0.051535975,1.8497258,-0.018658606,-14.821033
19692000,0.086143486,0.20617017,0.046521697,1.820444,-0.032523975,-14.797383
19700000,0.088133685,0.1984851,0.04569426,1.856231,-0.006363407,-14.708734
19704000,0.08556305,0.19910556,0.046496585,1.8046386,-0.045655396,-14.690263
19708000,0.08073762,0.20087902,0.04515257,1.7946514,-0.012541063,-14.627752
19716000,0.084148355,0.19426958,0.032339107,1.7285731,0.004577774,-14.68267
19720000,0.082829505,0.18878625,0.037625715,1.7725337,0.017481664,-14.690055
19724000,0.07893785,0.18600367,0.043353442,1.7006148,-0.012049,-14.697568
19728000,0.08060173,0.18808421,0.032311432,1.6757497,-0.036936916,-14.583569
19736000,0.08086881,0.18050057,0.032787174,1.6533654,-0.07409127,-14.528005
19740000,0.073741995,0.17999041,0.028382024,1.6353639,-0.09989248,-14.542498
19748000,0.07152163,0.17799804,0.028328056,1.6744205,-0.08244874,-14.499553
19752000,0.073274516,0.17312543,0.02219446,1.6878874,-0.057045754,-14.419278
19756000,0.07728409,0.1780387,0.018152716,1.7189758,-0.11312543,-14.38187
19760000,0.07180952,0.17617802,0.028189579,1.6607375,-0.1720824,-14.342642
19764000,0.06755537,0.1734912,0.033713285,1.5931966,-0.12632288,-14.334976
19772000,0.07166442,0.17997241,0.01963696,1.5492471,-0.15351392,-14.336819
19776000,0.06486262,0.17999129,0.018161412,1.513737,-0.08423125,-14.2996435
19780000,0.06576896,0.18117821,0.015458301,1.544924,-0.12965253,-14.348525
19788000,0.07423595,0.17430921,0.011303482,1.5470802,-0.11060687,-14.19347
19792000,0.0632066,0.17377435,0.006375931,1.4601673,-0.21384634,-14.207196
19800000,0.05919208,0.17716871,0.010844177,1.572444,-0.10851543,-14.228192
19808000,0.058875684,0.18039401,0.022407528,1.4683335,-0.13189244,-14.198577
19816000,0.063463524,0.16665074,0.014307639,1.4469304,-0.26798382,-14.088572
19820000,0.06141034,0.17140383,0.019548643,1.457894,-0.17649914,-14.05148
19824000,0.059792448,0.17198475,0.017244251,1.5139915,-0.19083694,-14.035854
19828000,0.058210317,0.17092264,0.014549762,1.4738524,-0.22948506,-14.025907
19832000,0.053267643,0.17275423,0.024520244,1.4544839,-0.23263451,-14.016571
19836000,0.05710903,0.17373244,0.026798714,1.3962706,-0.24914406,-13.981483
19844000,0.05375367,0.1765634,0.020619193,1.4262611,-0.23344713,-13.990813
19848000,0.050828747,0.17054053,0.019903656,1.3678005,-0.2048837,-13.982256
19852000,0.055029143,0.1631296,0.023967518,1.378551,-0.25842765,-13.942368
19860000,0.048868895,0.16444539,0.029641805,1.3383553,-0.14792271,-13.964226
19864000,0.048928443,0.16824758,0.02681804,1.422361,-0.1700841,-13.947627
19868000,0.051710684,0.1700671,0.023941914,1.4405872,-0.28709897,-13.93969
19876000,0.050855275,0.17193766,0.028121345,1.3075631,-0.27560633,-13.903863
19880000,0.055426653,0.17232838,0.028659567,1.3502403,-0.25441813,-13.860419
19884000,0.054154575,0.17068897,0.028811762,1.3348534,-0.19981912,-13.897408
19888000,0.053226385,0.16720022,0.032589972,1.308443,-0.1711368,-13.830078
19892000,0.050997496,0.16903156,0.03782311,1.3339951,-0.2613831,-13.7971945
19896000,0.04763284,0.16991788,0.041413367,1.3648306,-0.393473,-13.769826
19900000,0.04698561,0.16926812,0.04036975,1.369808,-0.40227422,-13.763923
19908000,0.037336823,0.17136183,0.04000658,1.2878333,-0.25134847,-13.794238
19912000,0.03925282,0.17044942,0.044974312,1.3132498,-0.2823046,-13.837445
19916000,0.043147985,0.16900215,0.045004953,1.3512384,-0.28285044,-13.84497
19920000,0.047745757,0.16971213,0.04329593,1.2905931,-0.31422597,-13.781706
19924000,0.05177231,0.16735756,0.04714671,1.2471168,-0.3590594,-13.786866
19928000,0.044771712,0.17312212,0.04825301,1.2465135,-0.34385663,-13.742039
19936000,0.042868976,0.17276272,0.044579543,1.2716367,-0.29725814,-13.804917
19944000,0.04221936,0.16837166,0.047766395,1.2236655,-0.36495307,-13.75847
19948000,0.04174447,0.17102131,0.043989453,1.2342199,-0.28697443,-13.735124
19952000,0.038570613,0.17507353,0.050876003,1.2627672,-0.33883613,-13.812683
19960000,0.04636995,0.16740413,0.056229606,1.2518324,-0.3029258,-13.64234
19964000,0.03924353,0.17031668,0.05524764,1.2132705,-0.32522675,-13.716885
19968000,0.041431498,0.17022327,0.0625942,1.2028711,-0.32559955,-13.631705
19972000,0.037886363,0.16940854,0.057783574,1.2021227,-0.3102372,-13.567763
19980000,0.03358449,0.17220688,0.07045058,1.1996415,-0.3328726,-13.817253
19984000,0.038457025,0.16950773,0.06968172,1.2531267,-0.3273776,-13.7860155
19988000,0.038814772,0.16885716,0.070261076,1.2563663,-0.32819885,-13.720162
19992000,0.034339905,0.17456304,0.06928455,1.2235503,-0.3519284,-13.703513
19996000,0.030237414,0.17549655,0.067419365,1.2515501,-0.34697437,-13.712895
20004000,0.034788385,0.17367908,0.07134946,1.1913464,-0.35226694,-13.700175
20008000,0.033851516,0.17887461,0.073217005,1.2443202,-0.33901983,-13.752033
20016000,0.041980546,0.17679198,0.07741386,1.1771967,-0.33242378,-13.742378
20024000,0.035962302,0.181376,0.072110854,1.159601,-0.30043322,-13.744011
20028000,0.036594275,0.17304397,0.07537766,1.2092925,-0.29906815,-13.771833
20032000,0.030435951,0.17154509,0.07611542,1.1338116,-0.36662865,-13.795793
20040000,0.029848985,0.18163401,0.07695363,1.0931069,-0.29573834,-13.788585
20044000,0.021305004,0.18114923,0.07583626,1.1197947,-0.31718072,-13.769348
20052000,0.031160878,0.1817506,0.07799441,1.1755978,-0.34004834,-13.777621
20056000,0.032809295,0.18702728,0.08185222,1.1322514,-0.31754118,-13.767003
20060000,0.036743265,0.17626113,0.08292268,1.0495884,-0.3156284,-13.785223
20064000,0.034014676,0.17345326,0.083527476,1.0682883,-0.35728925,-13.791743
20072000,0.024857543,0.18122308,0.082187116,1.1615541,-0.41314724,-13.806239
20076000,0.03246097,0.18401255,0.087440714,1.0443665,-0.39204884,-13.878854
20084000,0.030867156,0.1825624,0.085641764,1.1383243,-0.30759364,-13.836805
20088000,0.027393553,0.17689307,0.08787812,1.1864322,-0.3521937,-13.884982
20092000,0.027313964,0.17702337,0.083774775,1.1251029,-0.37438825,-13.841908
20100000,0.021782927,0.18356633,0.08433271,1.0684681,-0.35251543,-13.75982
20108000,0.02924418,0.18094572,0.08550809,1.140443,-0.33404946,-13.882346
20112000,0.023254426,0.1867494,0.08182038,1.0907673,-0.32819197,-13.905528
20116000,0.026467629,0.18945032,0.088763475,1.0819758,-0.3312045,-13.846745
20124000,0.030389328,0.17983462,0.08682615,1.028727,-0.35662025,-13.9282
20128000,0.027379004,0.18140589,0.08370482,1.0663201,-0.38259292,-13.892016
20132000,0.02535143,0.1839491,0.08613595,1.053339,-0.3414885,-13.850039
20140000,0.015769394,0.18049917,0.08380905,1.1139369,-0.29829642,-13.839534
20144000,0.018587716,0.18157381,0.08359943,1.0878612,-0.30288926,-13.913833
20148000,0.02000068,0.18485755,0.08070442,1.1593224,-0.30626962,-13.878118
20152000,0.02122618,0.18524157,0.0798704,1.1611289,-0.2269906,-13.771774
20156000,0.025689777,0.18729874,0.07976887,1.0687685,-0.23491918,-13.847816
20160000,0.023943845,0.18661615,0.076648705,1.1050004,-0.25195977,-13.9335575
20164000,0.019044664,0.18359342,0.07727497,1.1491566,-0.22998707,-13.879237
20172000,0.018744819,0.18754561,0.08593159,1.1356204,-0.30322757,-13.885702
20180000,0.01554735,0.18908906,0.0771712,1.1203578,-0.3886223,-13.920583
20184000,0.017417528,0.18284872,0.07802446,1.0429491,-0.33360696,-13.934477
20192000,0.012225962,0.18133749,0.07093258,1.1351634,-0.2922637,-13.93343
20196000,0.015718374,0.18551771,0.07539572,1.1164361,-0.36322117,-13.947376
20200000,0.023826573,0.18797976,0.07456613,1.09126,-0.3415788,-13.913697
20204000,0.017385734,0.18462835,0.06994986,1.0642871,-0.3106285,-13.897544
20208000,0.010292226,0.17999141,0.069499396,1.0528685,-0.31846607,-13.959329
20216000,0.020204524,0.18325196,0.06873934,1.0359008,-0.2772464,-13.949595
20220000,0.013823127,0.18652527,0.06376329,1.071531,-0.3647727,-13.97605
20228000,0.012324439,0.19094293,0.0715299,1.0647439,-0.3325686,-13.928847
20232000,0.017851835,0.18362983,0.06693146,1.0414717,-0.26519617,-13.913068
20236000,0.017726792,0.18284641,0.06774865,1.0651152,-0.33032718,-13.933025
20240000,0.018418856,0.19034708,0.07198897,1.0673939,-0.29643643,-13.942554
20244000,0.01667275,0.19317593,0.07116869,1.073502,-0.29542968,-13.960733
20248000,0.011349471,0.19676128,0.06715838,1.1620898,-0.36263248,-13.9824095
20252000,0.013933633,0.19732732,0.06625049,1.125548,-0.30895808,-13.931383
20256000,0.017141428,0.18987976,0.0630852,1.0342195,-0.27731803,-13.937873
20260000,0.016904483,0.18876302,0.06208687,1.052964,-0.28035694,-13.915997
20268000,0.014131197,0.18398276,0.054008357,1.1540954,-0.33435512,-14.070035
20272000,0.015259806,0.1876719,0.05481854,1.1889415,-0.443013,-13.951925
20276000,0.01590357,0.19260351,0.0532253,1.2448456,-0.3945038,-13.881921
20280000,0.010191515,0.19432844,0.05095967,1.1950321,-0.32894948,-13.936897
20284000,0.007855014,0.19273847,0.054951277,1.1069747,-0.36658788,-13.97453
20292000,0.007891567,0.1916657,0.062362242,1.1195438,-0.371749,-13.938285
20300000,0.011463837,0.18895179,0.054669082,1.1266445,-0.3519963,-13.982099
20304000,0.014233184,0.18394049,0.053244352,1.1412034,-0.36170322,-13.982196
20312000,0.011621253,0.18405679,0.05775621,1.1029041,-0.4270448,-13.914947
20320000,0.008395258,0.18108715,0.05608069,1.125988,-0.36393204,-13.91333
20328000,0.015016768,0.17867164,0.050172478,1.1173763,-0.3970431,-13.860158
20332000,0.004698829,0.18124522,0.049409993,1.1472875,-0.38666606,-13.877391
20336000,0.004062295,0.18312706,0.04353081,1.1757637,-0.34502664,-13.872914
20340000,0.00374034,0.18528208,0.041455403,1.1638877,-0.33803782,-13.880332
20348000,0.016971687,0.18623407,0.053736646,1.1065949,-0.40037075,-13.83728
20352000,0.009981742,0.1835151,0.050719023,1.1134518,-0.4578311,-13.927446
20356000,0.009764945,0.1819742,0.046163514,1.1717603,-0.4803052,-13.874624
20360000,0.007528122,0.18630955,0.049969193,1.1583791,-0.43586203,-13.819173
20364000,0.006493861,0.19197154,0.05394662,1.150094,-0.46469563,-13.823199
20368000,0.011172025,0.19122086,0.051070858,1.180164,-0.46766254,-13.834121
20372000,0.010758705,0.18652865,0.051230267,1.1961446,-0.46310297,-13.881644
20376000,0.009639659,0.18481202,0.05129102,1.1790171,-0.4393748,-13.873225
20384000,-0.002893563,0.18636698,0.048753537,1.1999623,-0.37899867,-13.805266
20392000,0.003582129,0.18357743,0.047371816,1.115959,-0.505648,-13.843989
20396000,0.005565372,0.18169889,0.045689538,1.1313225,-0.4568374,-13.833233
20400000,0.00401328,0.18668842,0.045807544,1.1959497,-0.40896147,-13.854358
20404000,0.000588981,0.18704525,0.048248924,1.2255012,-0.31632712,-13.8821535
20412000,0.000933967,0.18662025,0.04934795,1.1598544,-0.43462577,-13.813754
20416000,0.000505257,0.18545705,0.045719307,1.1964796,-0.46103975,-13.800958
20420000,0.000865971,0.18754186,0.04166288,1.2512734,-0.40189105,-13.829148
20424000,-0.001587104,0.1868424,0.04963937,1.2192894,-0.39132798,-13.838883
20428000,-0.001759816,0.18961746,0.057014156,1.1297412,-0.4128258,-13.837113
20432000,0.001236817,0.18748257,0.05549066,1.1345944,-0.45847657,-13.812818
20436000,-0.002787424,0.18333644,0.051871616,1.220751,-0.4668476,-13.82656
20444000,-0.000678485,0.17783858,0.051516645,1.1714064,-0.43796045,-13.869809
20448000,-0.000364771,0.17968354,0.05205911,1.1747823,-0.45671487,-13.817453
20452000,0.001731221,0.18288057,0.052290026,1.2128631,-0.42115778,-13.818461
20456000,0.00151965,0.18370631,0.04903856,1.2522267,-0.41254643,-13.797969
20460000,0.001652269,0.17902459,0.05071692,1.2581223,-0.49782375,-13.69507
20464000,0.006880581,0.18261963,0.052441694,1.1905367,-0.5431815,-13.639174
20468000,0.003357138,0.18825674,0.050943296,1.2643313,-0.557153,-13.685894
20472000,-0.004582969,0.18699901,0.05269771,1.287262,-0.5791656,-13.781954
20480000,0.002515917,0.17984565,0.053399574,1.289079,-0.46229982,-13.727643
20484000,0.002252783,0.1812328,0.057230618,1.2599077,-0.5194905,-13.716051
20492000,-0.003188739,0.18049228,0.053983334,1.2164687,-0.52997124,-13.857717
20496000,-0.003853244,0.18071954,0.05400317,1.2660432,-0.49338803,-13.803956
20504000,0.002460513,0.18722475,0.05205464,1.1893643,-0.5077495,-13.699478
20508000,-0.000888483,0.18699117,0.05159386,1.2536,-0.5071241,-13.7961445
20512000,-0.002051497,0.18897054,0.048698675,1.3111833,-0.5252857,-13.833747
20516000,-0.003617853,0.1897748,0.05297351,1.3184941,-0.55930877,-13.797706
20524000,-0.002598817,0.18325612,0.0514843,1.3535154,-0.4874259,-13.721864
20528000,0.001520359,0.18951066,0.052497707,1.3619219,-0.52983046,-13.762636
20532000,0.000361813,0.196432,0.05103369,1.244005,-0.5869136,-13.825247
20536000,-0.002342296,0.19260204,0.052830067,1.2783381,-0.5238743,-13.8075285
20540000,-0.00459512,0.18484525,0.058353234,1.3674797,-0.4592925,-13.749584
20544000,-0.000784422,0.19326787,0.061807714,1.3844088,-0.4772987,-13.792023
20552000,-0.000362528,0.19088633,0.06310397,1.3541064,-0.4945999,-13.773985
20560000,-0.010123896,0.19510742,0.05803546,1.3213596,-0.5036321,-13.796405
20564000,0.000459248,0.19436556,0.058457043,1.2643342,-0.47710037,-13.753255
20568000,0.004728523,0.19148628,0.060188144,1.2746395,-0.5236507,-13.762184
20576000,-0.004227845,0.19791128,0.06089962,1.3225703,-0.5193794,-13.736449
20584000,0.007496574,0.18759923,0.06418745,1.3187093,-0.43339717,-13.861705
20592000,-7.26E-05,0.19159733,0.05763127,1.3288397,-0.6102796,-13.815617
20600000,-0.008317027,0.18441957,0.06615159,1.450027,-0.6039081,-13.715909
20604000,-0.009911199,0.18740176,0.071831785,1.4493576,-0.5216612,-13.778418
20612000,-0.003331481,0.18666144,0.062483765,1.3596269,-0.5436664,-13.807407
20616000,-0.003818929,0.18889794,0.05661188,1.3424141,-0.6114946,-13.79853
20620000,-0.002250171,0.19285491,0.05884244,1.3934729,-0.5974839,-13.769307
20624000,-0.00235563,0.18808392,0.050690137,1.3984947,-0.6121425,-13.805212
20628000,-0.002031703,0.1846122,0.052778836,1.3674583,-0.581514,-13.791064
20636000,0.002363799,0.19414291,0.065573856,1.3738966,-0.56712633,-13.7780905
20644000,-0.001714707,0.18761967,0.06952827,1.4020132,-0.5525232,-13.774873
20648000,-0.002922761,0.19302562,0.061111003,1.4074799,-0.5074199,-13.75438
20652000,-0.007642704,0.1867837,0.05715709,1.4316955,-0.522464,-13.790347
20656000,-0.006390169,0.18418327,0.057496037,1.4366227,-0.532052,-13.808161
20660000,-0.006386645,0.19174774,0.060475618,1.3814473,-0.50408435,-13.789311
20664000,-0.010996543,0.19809246,0.06790029,1.3634539,-0.5445164,-13.77674
20668000,-0.013622262,0.195177,0.0702572,1.4195307,-0.58144283,-13.755266
20672000,-0.006026033,0.19134559,0.0656892,1.5160704,-0.53875226,-13.758372
20676000,-0.002476248,0.19326322,0.057671044,1.4509441,-0.5619389,-13.771912
20680000,-0.008523976,0.19465792,0.059352327,1.3946187,-0.56294465,-13.783515
20684000,-0.007399911,0.1984756,0.06603476,1.4336617,-0.6160698,-13.815871
20688000,-0.005003724,0.19971943,0.065713204,1.409831,-0.5624246,-13.8674135
20692000,-0.00647341,0.19961089,0.066535644,1.4499617,-0.48443472,-13.916778
20700000,-0.007858493,0.19962372,0.062486235,1.4641118,-0.5544566,-13.974573
20704000,0.000219968,0.20333715,0.064719684,1.446174,-0.5204915,-13.908965
20712000,-0.002770108,0.19833663,0.069488734,1.5238314,-0.52731544,-13.892321
20716000,-0.001110255,0.2010151,0.0660152,1.5340756,-0.5324692,-13.844571
20720000,-0.004905759,0.20528798,0.06397603,1.4396992,-0.5532262,-13.857799
20728000,-0.015683953,0.19738267,0.069720864,1.4564201,-0.60125613,-13.855826
20732000,-0.013630359,0.1968014,0.06512506,1.4576563,-0.58009535,-13.861379
20736000,-0.009457877,0.201821,0.06173476,1.5355432,-0.5706651,-13.928784
20740000,-0.009969809,0.20130134,0.06537735,1.5851696,-0.5080802,-13.836505
20748000,-0.008740596,0.20007148,0.06256679,1.5179619,-0.6080098,-13.920655
20752000,-0.015565576,0.19949609,0.06584616,1.4981735,-0.6002655,-13.923847
20756000,-0.01979548,0.19583017,0.07209077,1.4985292,-0.5418518,-13.911981
20760000,-0.014987822,0.19532734,0.06830736,1.4584335,-0.5513703,-13.898021
20768000,-0.008729015,0.19699824,0.060893603,1.50798,-0.54971164,-13.939738
20772000,-0.003229698,0.19895016,0.06443884,1.4962142,-0.5329138,-13.99763
20776000,-0.008715776,0.2059024,0.06474775,1.5549896,-0.50665146,-13.927356
20780000,-0.007503951,0.20751505,0.059928216,1.6217064,-0.48628002,-13.903626
20784000,-0.009067444,0.20420118,0.05730624,1.5862058,-0.56868273,-13.947525
20788000,-0.013553983,0.20668733,0.0597833,1.5741507,-0.60536,-13.930259
20792000,-0.008484875,0.21252143,0.06133119,1.5912528,-0.541742,-13.96968
20800000,-0.010507789,0.20926155,0.063964784,1.538731,-0.59526736,-13.915218
20804000,-0.010259848,0.21524753,0.05788341,1.5566572,-0.58657897,-14.026493
20808000,-0.005491999,0.2070093,0.0587655,1.5706433,-0.5752093,-14.025018
20816000,-0.012930296,0.20919462,0.058359887,1.6900227,-0.6306526,-13.908116
20820000,-0.011783739,0.2045587,0.05504467,1.6542271,-0.5686636,-13.918264
20824000,-0.011030721,0.20669857,0.047274306,1.6517919,-0.5871412,-13.962816
20828000,-0.006816329,0.20772266,0.051188644,1.6234971,-0.59370524,-13.991597
20836000,-0.011080977,0.20953202,0.058494702,1.665311,-0.60978955,-13.946163
20840000,-0.012802975,0.20904805,0.062843144,1.593309,-0.6894733,-13.985657
20844000,-0.009857642,0.21120322,0.062847145,1.5957409,-0.6636647,-14.049177
20852000,-0.002664734,0.20769244,0.055092633,1.6382916,-0.6200761,-14.039388
20860000,-0.004838908,0.2104696,0.06174506,1.7040266,-0.5846475,-14.107242
20864000,-0.013467824,0.209075,0.056490522,1.6596739,-0.6076579,-14.065074
20868000,-0.015548014,0.20552595,0.056182016,1.6711005,-0.6186814,-14.06346
20876000,-0.005670123,0.20684406,0.06199801,1.7465974,-0.58123255,-13.988396
20880000,-0.004617672,0.20143142,0.056572806,1.7159897,-0.59390044,-13.984019
20884000,-0.00511831,0.20315136,0.055908117,1.692573,-0.5645938,-14.03306
20888000,-0.006906367,0.20419115,0.053363677,1.7054069,-0.58132327,-14.058857
20892000,-0.013861863,0.19518967,0.05443968,1.7500412,-0.64307415,-14.125106
20900000,-0.008119397,0.19807054,0.05032273,1.7509769,-0.6362784,-14.065879
20904000,-0.013134309,0.19395575,0.04780005,1.7418443,-0.60826206,-14.050002
20912000,-0.008338267,0.19274212,0.057183724,1.7213124,-0.61187917,-14.070569
20920000,-0.012640268,0.18895943,0.055885654,1.784015,-0.584727,-13.965954
20924000,-0.017122308,0.1920693,0.058116082,1.8015152,-0.58166105,-14.049173
20928000,-0.020509163,0.19003503,0.05236076,1.7098249,-0.65740335,-14.100655
20936000,-0.020748446,0.18560524,0.04604714,1.8020073,-0.60274297,-13.937364
20940000,-0.01898325,0.18770319,0.04513503,1.8451082,-0.6072678,-13.889276
20944000,-0.014220187,0.18234271,0.04619566,1.7648818,-0.646674,-13.88974
20948000,-0.012311115,0.17862809,0.052764814,1.7517518,-0.6152392,-13.88524
20952000,-0.033798996,0.18068516,0.05745088,1.8264366,-0.59603506,-13.811448
20956000,-0.067313366,0.18083343,0.05315286,1.8020214,-0.6664099,-13.787733
20960000,-0.10029292,0.17694598,0.05715556,1.7767363,-0.6781843,-13.791748
20964000,-0.13765848,0.17511338,0.060204476,1.7935086,-0.6437356,-13.779185
20968000,-0.17210741,0.17673884,0.052436214,1.8529557,-0.6399344,-13.765312
20972000,-0.20471354,0.1719184,0.051029164,1.8571383,-0.64354765,-13.781973
20976000,-0.23009324,0.16871664,0.049833838,1.8316506,-0.6719815,-13.684093
20984000,-0.2734452,0.16916189,0.052026633,1.8401312,-0.65122145,-13.787166
20988000,-0.3003746,0.16677769,0.049496066,1.8396994,-0.6547557,-13.746325
20992000,-0.324403,0.16474651,0.042753387,1.8715626,-0.6256954,-13.6986885
20996000,-0.3458004,0.16604476,0.04275819,1.9154677,-0.5587652,-13.633691
21000000,-0.36208364,0.16511592,0.049103394,1.8775747,-0.51107055,-13.614577
21004000,-0.38053226,0.16386469,0.039584115,1.8770634,-0.59496987,-13.6683
21012000,-0.40988418,0.15671623,0.034260534,1.8991443,-0.64216727,-13.562069
21016000,-0.428515,0.15932636,0.04239996,1.9510396,-0.65269834,-13.57053
21020000,-0.4403734,0.1611426,0.045760445,1.9837769,-0.65231025,-13.475095
21024000,-0.4525267,0.15369731,0.03728374,1.9286656,-0.6476472,-13.478264
21028000,-0.46015877,0.14738087,0.0387552,2.0034654,-0.6105736,-13.526947
21036000,-0.4846654,0.14574319,0.026433866,2.043322,-0.66231304,-13.420166
21040000,-0.49274334,0.14286685,0.028543256,1.9832075,-0.596533,-13.436206
21044000,-0.499073,0.1451222,0.02800993,1.9385866,-0.551111,-13.397775
21052000,-0.5163205,0.14010459,0.028042853,1.9986918,-0.71565247,-13.380059
21056000,-0.5225479,0.13656324,0.025685223,2.0551739,-0.7906602,-13.359276
21064000,-0.5358585,0.12906477,0.021488426,2.057084,-0.6529032,-13.3545475
21072000,-0.5521646,0.12844743,0.020778593,2.0379305,-0.69173276,-13.198928
21076000,-0.55448353,0.13287732,0.017024536,2.072527,-0.72914356,-13.235867
21084000,-0.5529158,0.13308151,0.01505674,1.94182,-0.68062687,-13.170556
21088000,-0.56010115,0.12605225,0.015991038,2.0158868,-0.71796304,-13.089046
21092000,-0.56240207,0.11958199,0.011000401,2.0158868,-0.71796304,-13.089046
21096000,-0.5627425,0.12214016,0.015265545,2.1053157,-0.729386,-12.9461775
21100000,-0.5681127,0.12460012,0.015491356,2.07644,-0.6847817,-12.951316
21104000,-0.5705987,0.12077469,0.00841134,2.1417904,-0.69765145,-12.975086
21108000,-0.5716135,0.112673074,0.004183768,2.1462276,-0.7410761,-12.963516
21116000,-0.57284343,0.11711866,0.012121892,2.1835759,-0.6768912,-12.870102
21120000,-0.5722601,0.11424593,0.005359819,2.1834517,-0.722205,-12.859815
21128000,-0.56970483,0.10400501,0.004824179,2.1381545,-0.8367424,-12.798568
21132000,-0.5673316,0.10391887,0.005042841,2.1831546,-0.7260039,-12.734654
21136000,-0.56451756,0.10263119,2.57E-05,2.2282286,-0.69691026,-12.737068
21140000,-0.5691141,0.09861286,0.000254675,2.2055206,-0.74252313,-12.679763
21148000,-0.57782656,0.10040037,0.001884545,2.229402,-0.71097237,-12.57493
21152000,-0.5716629,0.09332628,-0.001369753,2.2780714,-0.7375758,-12.539591
21156000,-0.56508297,0.091482766,-0.004642809,2.273493,-0.73450005,-12.552478
21164000,-0.573085,0.09111369,0.000935182,2.2568977,-0.7652054,-12.4115
21168000,-0.5765069,0.08646682,7.07E-05,2.1666477,-0.78724414,-12.34802
21172000,-0.5745155,0.07908102,-0.003698976,2.2126358,-0.7901678,-12.325252
21180000,-0.56259406,0.08056997,-0.006253314,2.3353999,-0.75253445,-12.417048
21188000,-0.56276387,0.07682997,-0.00100465,2.3229504,-0.7298641,-12.201505
21196000,-0.5552568,0.070263304,-0.005338383,2.3254066,-0.82696205,-12.199527
21204000,-0.55191755,0.07399404,-0.012821547,2.3134973,-0.8088235,-12.082422
21212000,-0.5514804,0.07242371,-0.010488191,2.4139984,-0.79207754,-12.114462
21220000,-0.547444,0.07202904,-0.0077138,2.3746052,-0.839621,-12.06139
21228000,-0.5430633,0.057507906,-0.018254189,2.393324,-0.77194977,-11.940464
21232000,-0.54367155,0.05437263,-0.011097919,2.3925557,-0.7237455,-11.901713
21236000,-0.5396969,0.055876046,-0.013677834,2.3395364,-0.7639396,-11.851867
21240000,-0.5408013,0.061204657,-0.017249428,2.3159893,-0.7733671,-11.810939
21244000,-0.5404614,0.06606659,-0.01885518,2.3985817,-0.75468665,-11.807577
21248000,-0.53120464,0.06120961,-0.018296301,2.4440298,-0.7925167,-11.76018
21252000,-0.5237046,0.05321891,-0.012211948,2.414979,-0.8284716,-11.740941
21256000,-0.52472234,0.058000814,-0.011090268,2.4391115,-0.80533713,-11.679436
21260000,-0.5269106,0.05977203,-0.01163895,2.5041032,-0.82612336,-11.617068
21264000,-0.52233076,0.0516701,-0.011581201,2.5284486,-0.85392785,-11.631301
21272000,-0.5167162,0.062475905,-0.0200648,2.5213594,-0.76576763,-11.488909
21280000,-0.51525813,0.04950039,-0.01290147,2.406914,-0.85167813,-11.542112
21284000,-0.5133196,0.04760668,-0.013924978,2.4316435,-0.8862608,-11.429866
21288000,-0.5120893,0.04656431,-0.012674828,2.4601796,-0.91874456,-11.439156
21292000,-0.5059685,0.047933538,-0.015085191,2.4833248,-0.8660265,-11.420129
21300000,-0.4966234,0.04810683,-0.016499996,2.4588485,-0.8635591,-11.445066
21304000,-0.4915673,0.04617066,-0.014997021,2.4573002,-0.9008843,-11.380659
21308000,-0.48946187,0.043094546,-0.017279813,2.549691,-0.9195585,-11.283461
21312000,-0.49464265,0.03940786,-0.018195027,2.5867178,-0.83872193,-11.280902
21316000,-0.48586494,0.045987155,-0.015480187,2.5197484,-0.8803656,-11.239736
21320000,-0.47700387,0.047546104,-0.014576572,2.5088832,-0.90191084,-11.251835
21324000,-0.4824399,0.047113143,-0.01851369,2.5573864,-0.8052502,-11.283026
21328000,-0.4757049,0.045822017,-0.020352494,2.6073496,-0.89110816,-11.250771
21332000,-0.4710356,0.04278591,-0.020886319,2.6114695,-0.9800982,-11.221838
21336000,-0.47535828,0.04506471,-0.018027505,2.5652463,-0.9462992,-11.189724
21340000,-0.4680032,0.039720044,-0.01724317,2.546178,-0.9823596,-11.206986
21344000,-0.46567884,0.040728506,-0.018069027,2.5898664,-0.91697866,-11.239918
21348000,-0.4670195,0.04842161,-0.0198817,2.648477,-0.8840861,-11.178184
21352000,-0.46396008,0.04698737,-0.023407608,2.6555188,-0.91555786,-11.106327
21356000,-0.45568848,0.044967964,-0.02372744,2.5920453,-0.86799604,-11.128803
21364000,-0.45371366,0.042977314,-0.022707544,2.604165,-0.94111973,-11.040246
21368000,-0.45359838,0.043588486,-0.022277998,2.6412656,-0.87828386,-10.973991
21372000,-0.44621488,0.04373315,-0.01665048,2.6930323,-0.8824613,-10.981217
21376000,-0.4432903,0.04391432,-0.0203718,2.6686985,-0.9521104,-11.046791
21384000,-0.4447811,0.044449933,-0.028913645,2.6753736,-0.91579586,-11.100153
21388000,-0.4427093,0.039088838,-0.024406359,2.6293924,-0.93959194,-11.06106
21396000,-0.43462706,0.044932406,-0.0355901,2.6457736,-0.856525,-11.027126
21400000,-0.43189234,0.044786505,-0.03408314,2.7095942,-0.9175966,-11.001736
21408000,-0.42292538,0.047275107,-0.031220483,2.6071048,-0.8143754,-10.962242
21412000,-0.4222911,0.04658094,-0.023272362,2.6497803,-0.85661125,-10.905531
21416000,-0.41960177,0.04272773,-0.020622486,2.645204,-0.92280674,-10.952332
21424000,-0.4094428,0.044144507,-0.035492357,2.7439651,-0.9882221,-10.875715
21432000,-0.402452,0.04516208,-0.029575234,2.730611,-0.8774078,-10.876958
21436000,-0.3989173,0.04762616,-0.03676462,2.6486053,-0.91588783,-10.921154
21440000,-0.40447682,0.04441933,-0.034516368,2.5944116,-0.8997236,-10.907642
21444000,-0.3938582,0.0422393,-0.031848837,2.643412,-0.896534,-10.85063
21448000,-0.386523,0.04014467,-0.030230595,2.6725106,-0.89228785,-10.843974
21456000,-0.3889127,0.04580691,-0.036585085,2.7652428,-0.93279666,-10.874689
21460000,-0.38254213,0.04236606,-0.037143845,2.771909,-0.9563305,-10.826624
21464000,-0.38568228,0.044728108,-0.039399132,2.7447524,-0.9350819,-10.850629
21468000,-0.3806818,0.04360069,-0.04031933,2.7285168,-0.9875203,-10.851725
21472000,-0.37569267,0.04156838,-0.038839117,2.6914158,-0.96467274,-10.799398
21476000,-0.37827805,0.041401673,-0.0414794,2.685812,-0.91776574,-10.776462
21480000,-0.37593833,0.042147826,-0.043810762,2.776667,-0.89692104,-10.792328
21488000,-0.36556712,0.043975994,-0.043039195,2.7477946,-0.937999,-10.803901
21492000,-0.3645981,0.0365019,-0.043898977,2.7667375,-0.8867338,-10.742585
21496000,-0.36379313,0.031992063,-0.042808086,2.7350836,-0.8944272,-10.783533
21500000,-0.36071324,0.036045678,-0.043154478,2.7629805,-0.9647446,-10.813019
21504000,-0.35105044,0.039100766,-0.04312835,2.7517078,-0.9667721,-10.793685
21508000,-0.3456353,0.04441026,-0.044686615,2.7725222,-0.9360205,-10.768881
21512000,-0.34826186,0.048155896,-0.050096042,2.8905237,-0.95798576,-10.678837
21516000,-0.34679812,0.04276227,-0.047629036,2.840134,-0.8980094,-10.640244
21520000,-0.3458451,0.043411564,-0.04737755,2.7713847,-0.88335216,-10.736338
21524000,-0.34624928,0.04866045,-0.048159137,2.7808163,-0.95797485,-10.765912
21528000,-0.34477213,0.04640975,-0.044965886,2.7760453,-0.9409268,-10.755559
21532000,-0.3407177,0.0403072,-0.046638742,2.7858787,-0.90117717,-10.767433
21536000,-0.3360802,0.039268132,-0.05192413,2.8138638,-0.90196383,-10.726382
21540000,-0.33499765,0.03905214,-0.054709964,2.813884,-0.9214801,-10.690445
21544000,-0.32911783,0.036567383,-0.053169843,2.8343103,-0.88452435,-10.708111
21548000,-0.32434514,0.037799314,-0.054601997,2.8291879,-0.93477464,-10.745634
21552000,-0.3284495,0.03710701,-0.05582778,2.8477342,-0.9962741,-10.756551
21556000,-0.325964,0.037306793,-0.05270243,2.9066532,-0.8484102,-10.733138
21560000,-0.31815445,0.03832191,-0.051832467,2.855939,-0.79979527,-10.7500515
21568000,-0.31268412,0.04128612,-0.054564606,2.8658962,-0.83715045,-10.671039
21572000,-0.315479,0.037182786,-0.05821559,2.8233368,-0.8911669,-10.629719
21576000,-0.3107486,0.038016804,-0.055434454,2.817609,-0.95439744,-10.589244
21584000,-0.29975206,0.041151263,-0.062241226,2.8552542,-0.91598576,-10.608557
21588000,-0.2995014,0.0383016,-0.05830832,2.7641535,-0.90461314,-10.59024
21592000,-0.29535446,0.031891875,-0.05953464,2.8024178,-0.941882,-10.627836
21600000,-0.29378334,0.033985063,-0.062842734,2.9288743,-0.98980385,-10.557276
21608000,-0.28481463,0.03342276,-0.07158646,2.9179802,-0.85402673,-10.611196
21612000,-0.2878054,0.038353104,-0.06934609,2.896393,-0.9091327,-10.557678
21616000,-0.28293285,0.041684393,-0.06361773,2.9325612,-0.9640694,-10.495215
21620000,-0.2766044,0.03702164,-0.06638938,2.9251301,-0.95670474,-10.44232
21624000,-0.2831541,0.03564571,-0.06828381,2.893869,-0.90185374,-10.500953
21632000,-0.26995194,0.033286512,-0.06787199,2.8986106,-0.99871653,-10.558297
21636000,-0.26948845,0.034401562,-0.060251057,2.9537785,-0.94837934,-10.545943
21640000,-0.26561776,0.031109085,-0.06793721,2.9348433,-0.87314546,-10.541307
21644000,-0.26997012,0.028046137,-0.07153672,2.9114003,-0.8645873,-10.558089
21648000,-0.26679093,0.029364977,-0.06836906,2.9073768,-0.9257364,-10.64096
21652000,-0.26854464,0.02958695,-0.07790969,2.4073398,-0.92867446,-10.684735
21656000,-0.27500716,0.03394416,-0.07657508,1.6011477,-0.8489542,-10.675791
21664000,-0.2846454,0.042673197,-0.06685647,0.47749653,-0.7452019,-10.728261
21668000,-0.2960877,0.04634565,-0.06805622,0.10074294,-0.69702226,-10.764038
21672000,-0.31148604,0.044363745,-0.06366548,-0.26810107,-0.6306341,-10.83282
21680000,-0.32577255,0.048610844,-0.06030981,-0.62706846,-0.6352637,-10.914003
21684000,-0.32981732,0.056647982,-0.0627387,-0.831454,-0.71698874,-10.872392
21688000,-0.34228373,0.05996111,-0.059400786,-0.95749694,-0.6574112,-10.886251
21692000,-0.35748798,0.06337766,-0.05430799,-0.99505556,-0.5988746,-10.907324
21696000,-0.36154667,0.070546485,-0.04993528,-1.0925149,-0.56801915,-10.936681
21704000,-0.38191304,0.07625646,-0.04888637,-1.2194395,-0.5347625,-10.953377
21708000,-0.38598603,0.08110507,-0.040279914,-1.2177638,-0.5396772,-10.965707
21716000,-0.40517324,0.08636868,-0.034098428,-1.2027462,-0.46144265,-10.965101
21720000,-0.409167,0.09558319,-0.035672538,-1.3056544,-0.47569218,-11.016349
21724000,-0.41706395,0.0951347,-0.033323552,-1.2741339,-0.53173435,-11.045019
21732000,-0.42852542,0.1009046,-0.023748234,-1.2138842,-0.4661996,-11.061943
21736000,-0.43415925,0.10283028,-0.025679087,-1.2201089,-0.48662436,-11.147826
21740000,-0.4338529,0.09613554,-0.021033594,-1.1438094,-0.5138338,-11.224449
21744000,-0.43392402,0.095724896,-0.01308112,-1.1572926,-0.4384857,-11.294029
21748000,-0.44261232,0.10482449,-0.015144737,-1.2202344,-0.4070711,-11.258394
21752000,-0.44365165,0.10215685,-0.016584055,-1.179005,-0.49455962,-11.202202
21756000,-0.43658608,0.09535594,-0.014364868,-1.1329191,-0.51034284,-11.2531395
21764000,-0.45150328,0.1040361,-0.015101669,-1.0296748,-0.40732136,-11.338861
21768000,-0.45294297,0.11021061,-0.016637495,-0.9610761,-0.45905465,-11.365863
21772000,-0.4519287,0.10731213,-0.01277755,-0.90575904,-0.4509344,-11.361858
21776000,-0.44728824,0.09922123,-0.014755527,-0.9693646,-0.40425023,-11.423673
21784000,-0.4369907,0.09882282,-0.010545289,-0.89147896,-0.4562075,-11.390342
21788000,-0.443465,0.104647644,-0.00514336,-0.8876883,-0.44466823,-11.401555
21792000,-0.4392523,0.10564148,-0.006354342,-0.80973464,-0.4691051,-11.371083
21796000,-0.43818823,0.09786714,-0.010317237,-0.7417826,-0.44788215,-11.401363
21800000,-0.44349584,0.0961994,-0.008588459,-0.7430061,-0.4215473,-11.47208
21808000,-0.43792596,0.08987817,-0.008770763,-0.7374888,-0.4044323,-11.399556
21812000,-0.43755955,0.089529276,-0.013313118,-0.6542384,-0.42665732,-11.338292
21816000,-0.4348814,0.08865721,-0.006967586,-0.5929498,-0.44257012,-11.376309
21824000,-0.41837606,0.07987025,-0.005309921,-0.5279245,-0.38639104,-11.421987
21828000,-0.4180319,0.07539642,-0.010341371,-0.57484573,-0.4064063,-11.437577
21832000,-0.41717958,0.073783256,-0.01704841,-0.4884354,-0.3902168,-11.415318
21840000,-0.4059353,0.06557647,-0.011820039,-0.37872738,-0.38520908,-11.325782
21848000,-0.40576023,0.06050087,-0.022314409,-0.31728733,-0.35143992,-11.284048
21856000,-0.40719432,0.047568332,-0.020218663,-0.18617097,-0.38767833,-11.235805
21864000,-0.39185575,0.041268565,-0.02107496,-0.20196618,-0.45931962,-11.218937
21868000,-0.38934538,0.033010546,-0.020902332,-0.18646118,-0.4002469,-11.182437
21872000,-0.3861838,0.031538785,-0.026892178,-0.16494584,-0.3234215,-11.127811
21876000,-0.3808042,0.028832,-0.029329881,-0.17303847,-0.3709774,-11.027506
21884000,-0.3724531,0.016721632,-0.026305983,-0.099915616,-0.23099367,-10.834302
21888000,-0.36997405,0.014163583,-0.031846847,0.04176432,-0.30246034,-10.884901
21892000,-0.36793303,0.011019961,-0.038377862,0.077729285,-0.39063385,-10.905433
21896000,-0.3648715,0.006613202,-0.035327014,0.046778098,-0.31984332,-10.81134
21904000,-0.35671854,0.001417616,-0.04829143,0.1965806,-0.36146876,-10.633399
21908000,-0.35282078,-0.00073527,-0.04948601,0.22836207,-0.38171974,-10.585304
21912000,-0.34470356,-0.004194431,-0.049778022,0.25840196,-0.3864323,-10.5504675
21920000,-0.3394585,-0.015129336,-0.05331967,0.34256846,-0.36719206,-10.432379
21924000,-0.3279363,-0.017699433,-0.05649999,0.3802767,-0.34495315,-10.443802
21928000,-0.32473454,-0.020461174,-0.05813876,0.4640094,-0.38158602,-10.352071
21936000,-0.3197398,-0.025041323,-0.06213769,0.45370317,-0.2506182,-10.22711
21940000,-0.31599,-0.03413431,-0.06491561,0.468313,-0.30755103,-10.10155
21944000,-0.30868632,-0.039948344,-0.06691284,0.53153604,-0.2915842,-10.052547
21952000,-0.30022916,-0.0425515,-0.077115305,0.6098685,-0.30254555,-9.881837
