timestamp,roll_body,pitch_body,yaw_body,yaw_sp_move_rate,q_d[0],q_d[1],q_d[2],q_d[3],thrust_body[0]
18008000,0.008008662,0,1.044843,0,0.8666065,0.003470198,0.001998076,0.49897605,0.15
18032000,0.008008662,0,1.044843,0,0.8666065,0.003470198,0.001998076,0.49897605,0.15
18056000,0.008008662,0,1.044843,0,0.8666065,0.003470198,0.001998076,0.49897605,0.15
18080000,0.008008662,0,1.044843,0,0.8666065,0.003470198,0.001998076,0.49897605,0.15
18104000,0.008008662,0,1.044843,0,0.8666065,0.003470198,0.001998076,0.49897605,0.15
18128000,0.008008662,0,1.044843,0,0.8666065,0.003470198,0.001998076,0.49897605,0.15
18152000,0.008008662,0,1.044843,0,0.8666065,0.003470198,0.001998076,0.49897605,0.15
18176000,0.008008662,0,1.044843,0,0.8666065,0.003470198,0.001998076,0.49897605,0.15
18200000,0.008008662,0,1.044843,0,0.8666065,0.003470198,0.001998076,0.49897605,0.15
18224000,0.008008662,0,1.044843,0,0.8666065,0.003470198,0.001998076,0.49897605,0.15
18248000,0.008008662,0,1.044843,0,0.8666065,0.003470198,0.001998076,0.49897605,0.15
18272000,0.008008662,0,1.044843,0,0.8666065,0.003470198,0.001998076,0.49897605,0.15
18296000,0,0,1.5955746,0,0.6982923,0,0,0.71581274,0
18320000,0,0,1.5955746,0,0.6982923,0,0,0.71581274,1
18344000,0,0,1.5955746,0,0.6982923,0,0,0.71581274,1
18368000,0,0,1.5955746,0,0.6982923,0,0,0.71581274,1
18392000,0,0,1.5955746,0,0.6982923,0,0,0.71581274,1
18416000,0,0,1.5955746,0,0.6982923,0,0,0.71581274,1
18440000,0,0,1.5955746,0,0.6982923,0,0,0.71581274,1
18464000,0,0,1.5955746,0,0.6982923,0,0,0.71581274,1
18488000,0,0,1.5955746,0,0.6982923,0,0,0.71581274,1
18512000,0,0,1.5955746,0,0.6982923,0,0,0.71581274,1
18536000,0,0,1.5955746,0,0.6982923,0,0,0.71581274,1
18560000,0,0,1.5955746,0,0.6982923,0,0,0.71581274,1
18584000,0,0,1.5955746,0,0.6982923,0,0,0.71581274,1
18608000,0,0,1.5955746,0,0.6982923,0,0,0.71581274,1
18632000,0,0,1.5955746,0,0.6982923,0,0,0.71581274,1
18656000,0,0,1.5955746,0,0.6982923,0,0,0.71581274,1
18680000,0,0,1.5955746,0,0.6982923,0,0,0.71581274,1
18704000,0,0,1.5955746,0,0.6982923,0,0,0.71581274,1
18728000,0,0,1.5955746,0,0.6982923,0,0,0.71581274,1
18752000,0,0,1.5955746,0,0.6982923,0,0,0.71581274,1
18776000,0,0,1.5955746,0,0.6982923,0,0,0.71581274,1
18800000,0,-0.2751051,1.5955746,0,0.69169664,0.09815166,-0.095749274,0.7090516,1
18824000,0,-0.26201013,1.5955746,0,0.6923087,0.09350709,-0.09121838,0.709679,1
18848000,0,-0.24963635,1.5955746,0,0.6928598,0.08911463,-0.086933434,0.71024394,1
18872000,0,-0.23786984,1.5955746,0,0.6933593,0.08493456,-0.08285568,0.71075594,1
18896000,0,-0.2267184,1.5955746,0,0.69381046,0.08097028,-0.07898843,0.7112185,1
18920000,0,-0.21608688,1.5955746,0,0.69422054,0.07718849,-0.0752992,0.7116388,1
18944000,0,-0.20589839,1.5955746,0,0.69459516,0.07356224,-0.07176171,0.71202284,1
18968000,0,-0.19608964,1.5955746,0,0.6949387,0.07006934,-0.06835431,0.71237504,1
18992000,0,-0.18660797,1.5955746,0,0.695255,0.06669132,-0.06505896,0.71269923,1
19016000,0,-0.1774644,1.5955746,0,0.69554514,0.06343232,-0.061879735,0.7129966,1
19040000,0,-0.16861261,1.5955746,0,0.6958122,0.06027607,-0.058800735,0.7132704,1
19064000,0,-0.16001342,1.5955746,0,0.69605863,0.057208747,-0.055808492,0.713523,1
19088000,0,-0.15163328,1.5955746,0,0.6962863,0.054218538,-0.05289147,0.71375644,1
19112000,0,-0.14347713,1.5955746,0,0.69649625,0.051307343,-0.05005153,0.7139716,1
19136000,0,-0.13551565,1.5955746,0,0.69668996,0.04846481,-0.047278572,0.7141702,1
19160000,0,-0.12772346,1.5955746,0,0.69686884,0.045681972,-0.04456385,0.71435356,1
19184000,0,-0.12007843,1.5955746,0,0.6970341,0.04295102,-0.041899737,0.714523,1
19208000,0,-0.11258448,1.5955746,0,0.69718623,0.040273424,-0.039287683,0.7146789,1
19232000,0,-0.105222076,1.5955746,0,0.6973261,0.03764228,-0.03672094,0.7148223,1
19256000,0,-0.097973995,1.5955746,0,0.69745463,0.035051495,-0.034193564,0.7149541,1
19280000,0,-0.09082497,1.5955746,0,0.6975724,0.032495663,-0.03170029,0.7150748,1
19304000,0,-0.08377408,1.5955746,0,0.6976798,0.02997451,-0.029240847,0.71518487,1
19328000,0,-0.076808095,1.5955746,0,0.6977774,0.02748335,-0.02681066,0.71528494,1
19352000,0,-0.0699151,1.5955746,0,0.6978657,0.025017964,-0.024405617,0.7153754,1
19376000,0,-0.06308443,1.5955746,0,0.697945,0.022574576,-0.022022035,0.7154567,1
19400000,0,-0.056318603,1.5955746,0,0.6980155,0.020154122,-0.019660825,0.71552896,1
19424000,0,-0.04960803,1.5955746,0,0.6980775,0.01775321,-0.017318677,0.71559256,1
19448000,0,-0.042944007,1.5955746,0,0.6981314,0.015368752,-0.014992583,0.71564776,1
19472000,0,-0.03631861,1.5955746,0,0.6981772,0.012997948,-0.012679806,0.7156947,1
19496000,0,-0.029731123,1.5955746,0,0.6982151,0.010640566,-0.010380125,0.71573365,1
19520000,0,-0.02317462,1.5955746,0,0.69824547,0.008294159,-0.008091149,0.7157647,1
19544000,0,-0.01664278,1.5955746,0,0.6982681,0.005956488,-0.005810695,0.71578795,1
19568000,0,-0.010129824,1.5955746,0,0.6982834,0.003625513,-0.003536774,0.71580356,1
19592000,0,-0.003630451,1.5955746,0,0.6982911,0.001299361,-0.001267557,0.71581155,1
19616000,0,0.002854894,1.5955746,0,0.6982916,-0.001021784,0.000996775,0.715812,1
19640000,0,0.009330898,1.5955746,0,0.6982847,-0.003339576,0.003257835,0.71580493,1
19664000,0,0.015801864,1.5955746,0,0.6982705,-0.005655529,0.005517103,0.7157904,1
19688000,0,0.022271732,1.5955746,0,0.69824904,-0.00797103,0.007775929,0.7157684,1
19712000,0,0.028741684,1.5955746,0,0.69822025,-0.010286477,0.010034703,0.71573883,1
19736000,0,0.035215132,1.5955746,0,0.6981841,-0.01260307,0.012294593,0.71570176,1
19760000,0,0.041695163,1.5955746,0,0.69814056,-0.014921883,0.014556651,0.7156572,1
19784000,0,0.048184633,1.5955746,0,0.69808966,-0.01724392,0.016821852,0.715605,1
19808000,0,0.054684605,1.5955746,0,0.6980313,-0.01956953,0.01909054,0.7155452,1
19832000,0,0.061197475,1.5955746,0,0.69796544,-0.02189955,0.02136353,0.7154777,1
19856000,0,0.06772543,1.5955746,0,0.697892,-0.02423473,0.023641555,0.71540236,1
19880000,0,0.07427046,1.5955746,0,0.6978109,-0.02657576,0.025925284,0.7153192,1
19904000,0,0.08083264,1.5955746,0,0.6977221,-0.028922642,0.028214723,0.7152282,1
19928000,0,0.08741362,1.5955746,0,0.69762546,-0.03127593,0.030510413,0.71512914,1
19952000,0,0.09401487,1.5955746,0,0.697521,-0.03363613,0.03281284,0.715022,1
19976000,0,0.1006377,1.5955746,0,0.6974085,-0.036003675,0.03512244,0.71490675,1
20000000,0,0.10728385,1.5955746,0,0.6972879,-0.038379163,0.037439782,0.71478313,1
20024000,0,0.11395433,1.5955746,0,0.6971592,-0.040762916,0.039765194,0.71465117,1
20048000,0,0.12064998,1.5955746,0,0.69702214,-0.04315521,0.042098932,0.7145107,1
20072000,0,0.1273715,1.5955746,0,0.6968767,-0.045556262,0.044441216,0.7143616,1
20096000,0,0.134118,1.5955746,0,0.6967228,-0.04796572,0.0467917,0.71420383,1
20120000,0,0.14088997,1.5955746,0,0.6965604,-0.050383724,0.04915052,0.71403736,1
20144000,0,0.14768778,1.5955746,0,0.6963893,-0.05281037,0.05151777,0.713862,1
20168000,0,0.15451168,1.5955746,0,0.6962095,-0.055245716,0.053893507,0.71367764,1
20192000,0,0.16136183,1.5955746,0,0.69602084,-0.057689793,0.056277763,0.7134843,1
20216000,0,0.1682385,1.5955746,0,0.6958232,-0.060142647,0.05867058,0.7132817,1
20240000,0,0.17514168,1.5955746,0,0.69561654,-0.06260423,0.061071914,0.71306986,1
20264000,0,0.18207124,1.5955746,0,0.6954008,-0.06507449,0.0634817,0.71284866,1
20288000,0,0.18902697,1.5955746,0,0.69517577,-0.067553274,0.06589982,0.712618,1
20312000,0,0.19600928,1.5955746,0,0.6949415,-0.07004072,0.068326384,0.71237785,1
20336000,0,0.20301779,1.5955746,0,0.6946978,-0.07253664,0.07076121,0.71212804,1
20360000,0,0.21005206,1.5955746,0,0.6944446,-0.07504083,0.073204115,0.7118685,1
20384000,0,0.21711159,1.5955746,0,0.6941819,-0.07755309,0.07565488,0.7115992,1
20408000,0,0.22419655,1.5955746,0,0.6939095,-0.08007342,0.078113526,0.71132,1
20432000,0,0.23130634,1.5955746,0,0.6936275,-0.082601584,0.08057981,0.71103084,1
20456000,0,0.23844029,1.5955746,0,0.6933356,-0.085137285,0.08305344,0.7107317,1
20480000,0,0.24559765,1.5955746,0,0.69303393,-0.08768021,0.085534126,0.71042246,1
20504000,0,0.25277877,1.5955746,0,0.6927224,-0.09023046,0.08802195,0.71010303,1
20528000,0,0.2599828,1.5955746,0,0.6924008,-0.09278767,0.090516575,0.7097734,1
20552000,0,0.26720884,1.5955746,0,0.6920693,-0.09535149,0.09301764,0.70943356,1
20576000,0,0.27445608,1.5955746,0,0.69172764,-0.097921565,0.09552481,0.7090834,1
20600000,0,0.28172457,1.5955746,0,0.691376,-0.100497894,0.098038085,0.70872283,1
20624000,0,0.2890134,1.5955746,0,0.69101405,-0.1030801,0.10055709,0.70835185,1
20648000,0,0.29632157,1.5955746,0,0.690642,-0.10566779,0.103081435,0.7079705,1
20672000,0,0.30364814,1.5955746,0,0.69025975,-0.10826057,0.10561075,0.70757866,1
20696000,0,0.31099552,1.5955746,0,0.68986714,-0.11085925,0.10814583,0.70717615,1
20720000,0,0.31836262,1.5955746,0,0.6894641,-0.113463424,0.110686265,0.70676297,1
20744000,0,0.32574835,1.5955746,0,0.6890506,-0.116072625,0.1132316,0.7063392,1
20768000,0,0.33315167,1.5955746,0,0.68862677,-0.11868645,0.11578145,0.70590466,1
20792000,0,0.34057146,1.5955746,0,0.6881925,-0.12130445,0.11833537,0.70545954,1
20816000,0,0.34800825,1.5955746,0,0.6877477,-0.12392679,0.12089352,0.70500356,1
20840000,0,0.34906584,1.5955746,0,0.68768364,-0.12429958,0.121257186,0.70493793,1
20864000,0,0.34906584,1.5955746,0,0.68768364,-0.12429958,0.121257186,0.70493793,1
20888000,0,0.34906584,1.5955746,0,0.68768364,-0.12429958,0.121257186,0.70493793,1
20912000,0,0.34906584,1.5955746,0,0.68768364,-0.12429958,0.121257186,0.70493793,1
20936000,-0.38746595,0.34906584,1.5284693,0,0.67451054,-0.2547874,-0.008185707,0.6928576,1
20960000,-0.37547326,0.34906584,1.5282512,0,0.6761019,-0.2507387,-0.004003599,0.6928206,1
20984000,-0.37927905,0.34906584,1.5278136,0,0.6757751,-0.25202593,-0.005266808,0.6926638,1
21008000,-0.382974,0.34906584,1.527374,0,0.6754606,-0.25327542,-0.006490819,0.69250447,1
21032000,-0.39587823,0.34906584,1.5203991,0,0.67622316,-0.25766492,-0.010060236,0.69009405,1
21056000,-0.39890325,0.34906584,1.5199426,0,0.6759901,-0.25868994,-0.011044957,0.6899238,1
21080000,-0.40126008,0.34906584,1.5197049,0,0.67576677,-0.25948778,-0.011827141,0.68983006,1
21104000,-0.40356332,0.34906584,1.5192457,0,0.6756258,-0.26026872,-0.012561813,0.6896608,1
21128000,-0.41526842,0.34906584,1.5119789,0,0.6765921,-0.26427692,-0.01563771,0.68712175,1
21152000,-0.41679245,0.34906584,1.511729,0,0.6764764,-0.26479444,-0.016128212,0.6870251,1
21176000,-0.418249,0.34906584,1.5112572,0,0.6764455,-0.26529098,-0.016565956,0.6868535,1
21200000,-0.41911358,0.34906584,1.5110079,0,0.6764162,-0.26558545,-0.016829804,0.68676203,1
21224000,-0.42945746,0.34906584,1.5036837,0,0.67754376,-0.2691531,-0.019395895,0.6841892,1
21248000,-0.4298019,0.34906584,1.5034245,0,0.677586,-0.26927233,-0.019478835,0.684098,1
21272000,-0.43016753,0.34906584,1.502945,0,0.6777008,-0.26940086,-0.019539282,0.683932,1
21296000,-0.43019202,0.34906584,1.5024642,0,0.6778619,-0.26941386,-0.019482918,0.6837688,1
21320000,-0.43633232,0.34906584,1.4953192,0,0.67946976,-0.2715691,-0.020612046,0.68128276,1
21344000,-0.43633232,0.34906584,1.4948364,0,0.6796342,-0.27157408,-0.020546503,0.6811187,1
21368000,-0.43633232,0.34906584,1.494579,0,0.67972195,-0.2715767,-0.020511523,0.6810312,1
21392000,-0.43633232,0.34906584,1.4940969,0,0.67988604,-0.27158165,-0.020446055,0.6808673,1
21416000,-0.43633232,0.34906584,1.4869195,0,0.68232507,-0.27165326,-0.019471325,0.67842305,1
21440000,-0.43633232,0.34906584,1.4864309,0,0.68249077,-0.271658,-0.01940494,0.67825633,1
21464000,-0.43633232,0.34906584,1.4861672,0,0.68258023,-0.27166057,-0.019369133,0.67816633,1
21488000,-0.43633232,0.34906584,1.4856783,0,0.68274593,-0.2716653,-0.019302733,0.6779995,1
21512000,-0.43633232,0.34906584,1.4782436,0,0.68526167,-0.2717352,-0.01829271,0.67545676,1
21536000,-0.43633232,0.34906584,1.4779781,0,0.6853513,-0.27173764,-0.01825665,0.6753658,1
21560000,-0.43633232,0.34906584,1.4774894,0,0.6855163,-0.27174208,-0.01819022,0.6751983,1
21584000,-0.43633232,0.34906584,1.4772266,0,0.68560505,-0.27174446,-0.018154547,0.67510825,1
21608000,-0.43633232,0.34906584,1.4697683,0,0.6881178,-0.27181026,-0.017141044,0.67254686,1
21632000,-0.44977435,0.34142753,1.4695033,0,0.6874015,-0.27408153,-0.024443641,0.67213166,0.3985542
21656000,-0.44766432,0.33379298,1.4689897,0,0.6888867,-0.2710088,-0.026482873,0.67177963,0.42083305
21680000,-0.4446132,0.3261612,1.4685307,0,0.6904635,-0.26760593,-0.028214008,0.6714546,0.44181982
21704000,-0.45074022,0.31852576,1.4607174,0,0.6932645,-0.26748776,-0.03204439,0.6684368,0.46236837
21728000,-0.44756472,0.3108858,1.4598929,0,0.69495714,-0.26404536,-0.03370323,0.66796607,0.4817168
21752000,-0.4439985,0.30324057,1.4592922,0,0.696607,-0.26045504,-0.035265766,0.6675764,0.4998204
21776000,-0.44055983,0.29558963,1.4584587,0,0.69829786,-0.25690466,-0.036845498,0.66710013,0.5166198
21800000,-0.4366247,0.28792182,1.4578592,0,0.6999549,-0.2531643,-0.038298793,0.6667114,0.5335076
21824000,-0.44224796,0.28023735,1.4497916,0,0.70287406,-0.25292003,-0.042000696,0.6635026,0.54901147
21848000,-0.43817985,0.27253655,1.4491738,0,0.704529,-0.2491213,-0.043437056,0.6630918,0.5631698
21872000,-0.43433192,0.26481992,1.4483354,0,0.7062087,-0.24539274,-0.044927873,0.66259575,0.5760264
21896000,-0.43026093,0.25708017,1.4477514,0,0.7078113,-0.24156538,-0.046387605,0.66219157,0.58864635
21920000,-0.42648363,0.24931824,1.4469601,0,0.7094265,-0.23783281,-0.047930658,0.6617041,0.6000029
21944000,-0.43204433,0.24153525,1.4390403,0,0.71227217,-0.2375902,-0.05172486,0.65844035,0.6101739
21968000,-0.42862937,0.23373236,1.4382889,0,0.7138069,-0.23397312,-0.05342444,0.65793777,0.61924005
21992000,-0.42502087,0.22591086,1.4378164,0,0.7152528,-0.2302674,-0.05510234,0.6575363,0.6272659
22016000,-0.4215485,0.2180663,1.4373839,0,0.7166504,-0.22659558,-0.056840062,0.65714216,0.63502675
22040000,-0.41851398,0.21020032,1.436745,0,0.7180475,-0.223074,-0.058708236,0.6566576,0.6418135
22064000,-0.42473695,0.20231456,1.4288967,0,0.7207619,-0.22309646,-0.062818855,0.6532871,0.6477119
22088000,-0.42183512,0.19670148,1.4283154,0,0.72186416,-0.2203241,-0.06390816,0.6529052,0.6527938
22112000,-0.41873536,0.19797237,1.4280062,0,0.7221734,-0.21960998,-0.062386274,0.65295094,0.6576509
22136000,-0.41604412,0.19909842,1.4274842,0,0.72252166,-0.21900421,-0.0610286,0.6528975,0.6617862
22160000,-0.413179,0.20009343,1.4272406,0,0.722811,-0.21828574,-0.05969376,0.6529413,0.6652558
22184000,-0.4106676,0.20097484,1.4267778,0,0.7231445,-0.21766564,-0.05849302,0.6528877,0.66810393
22208000,-0.4174711,0.2016645,1.4190713,0,0.7248374,-0.22056988,-0.05960568,0.6499284,0.6710496
22232000,-0.41496456,0.20227675,1.4186428,0,0.7251887,-0.21986315,-0.058513716,0.64987504,0.67341876
22256000,-0.41194487,0.20281787,1.4184691,0,0.72552013,-0.21894032,-0.05730988,0.64992404,0.6752943
22280000,-0.40921673,0.20329502,1.4180449,0,0.72590655,-0.21811002,-0.056197464,0.64986885,0.6767383
22304000,-0.4060425,0.20366459,1.4178706,0,0.7262703,-0.2170768,-0.05500795,0.6499101,0.6781677
22328000,-0.4028204,0.20399271,1.4177058,0,0.72663903,-0.21601248,-0.053819485,0.6499522,0.6791869
22352000,-0.3998124,0.20427981,1.4172999,0,0.7270657,-0.21501896,-0.052690104,0.649897,0.6798421
22376000,-0.40617186,0.20453027,1.4096597,0,0.7288292,-0.21761441,-0.053831115,0.6469577,0.6801728
22400000,-0.40303653,0.20476195,1.4092535,0,0.7292771,-0.21655366,-0.05268532,0.64690316,0.68008935
22424000,-0.3994956,0.2049719,1.4090792,0,0.7296943,-0.21533129,-0.05144178,0.64694077,0.6797386
22448000,-0.39610392,0.20515844,1.4086628,0,0.7301742,-0.21416149,-0.05022949,0.64688295,0.67914796
22472000,-0.3924287,0.20532522,1.4084812,0,0.73060834,-0.21287522,-0.048958294,0.6469147,0.67835665
22496000,-0.38903213,0.20548072,1.4080526,0,0.7310918,-0.21169233,-0.047755376,0.6468466,0.6773318
22520000,-0.3851925,0.2056208,1.407861,0,0.7315448,-0.21033604,-0.04644032,0.6468727,0.67613333
22544000,-0.38167238,0.20574753,1.4074335,0,0.7320396,-0.20909694,-0.045209035,0.64680195,0.6747891
22568000,-0.38783607,0.20586084,1.3997989,0,0.7338434,-0.21156538,-0.046352,0.64386743,0.6733123
22592000,-0.3842857,0.20596631,1.3993684,0,0.734346,-0.21030444,-0.04512363,0.6437949,0.67174494
22616000,-0.38037622,0.20603058,1.3991755,0,0.73481137,-0.20889252,-0.043820538,0.64381367,0.67029625
22640000,-0.37681147,0.2060961,1.3987451,0,0.73531467,-0.2076118,-0.04260336,0.643735,0.66873515
22664000,-0.37283573,0.20615785,1.3985581,0,0.73578,-0.2061725,-0.041280873,0.643752,0.6671049
22688000,-0.36919218,0.20621568,1.3981247,0,0.7362883,-0.20485821,-0.040041663,0.6436687,0.6654161
22712000,-0.3652767,0.20624062,1.3979317,0,0.73674756,-0.20342776,-0.038752317,0.6436756,0.66389084
22736000,-0.3616081,0.20626642,1.397483,0,0.7372615,-0.20209238,-0.037516408,0.6435812,0.6623275
22760000,-0.3575819,0.20628987,1.3972855,0,0.7377281,-0.20061858,-0.036192007,0.6435834,0.660712
22784000,-0.35395324,0.20631565,1.3968453,0,0.73823005,-0.1992954,-0.03497059,0.64348644,0.6590697
22808000,-0.34986773,0.20632875,1.396649,0,0.7386975,-0.1977943,-0.033631623,0.6434844,0.6574545
22832000,-0.3563928,0.20635091,1.3887713,0,0.74057466,-0.20034924,-0.03493353,0.6404601,0.65581024
22856000,-0.35233566,0.20637538,1.3885655,0,0.74104303,-0.19885747,-0.033604443,0.64045423,0.65415275
22880000,-0.34855735,0.20640074,1.3881102,0,0.7415609,-0.1974723,-0.032339804,0.6403486,0.65249604
22904000,-0.34445444,0.20641541,1.3879035,0,0.7420292,-0.19595833,-0.031000227,0.64033735,0.65089434
22928000,-0.34065878,0.20643814,1.3874465,0,0.74254394,-0.19456351,-0.02973178,0.6402262,0.6492866
22952000,-0.3366083,0.20646022,1.3872232,0,0.74300593,-0.19306922,-0.028405108,0.6402028,0.64768666
22976000,-0.33282873,0.20648348,1.3867748,0,0.74351084,-0.19167799,-0.02714333,0.6400894,0.64608294
23000000,-0.32875785,0.20655236,1.3865571,0,0.7439629,-0.1901882,-0.025793366,0.6400644,0.6441336
23024000,-0.32496098,0.20662677,1.3860909,0,0.744465,-0.18880406,-0.024505682,0.6399408,0.64219964
23048000,-0.320837,0.20670094,1.3858669,0,0.7449177,-0.18729395,-0.023136713,0.63990873,0.6402725
23072000,-0.31709903,0.20677708,1.3853972,0,0.74541,-0.18592995,-0.021867856,0.63977796,0.6383631
23096000,-0.3129837,0.20680849,1.3851564,0,0.7458652,-0.18440787,-0.020517118,0.63973254,0.63679266
23120000,-0.30926302,0.20684832,1.3846768,0,0.7463569,-0.18303688,-0.019267812,0.6395918,0.63523525
23144000,-0.30519387,0.20688638,1.3844343,0,0.746802,-0.18153188,-0.01792989,0.6395401,0.6336791
23168000,-0.3015048,0.20692554,1.3839618,0,0.7472833,-0.18017006,-0.016692609,0.63939655,0.63211477
23192000,-0.297523,0.20696306,1.383718,0,0.7477151,-0.17869537,-0.01538343,0.63933825,0.6305765
23216000,-0.29387885,0.20699315,1.3832343,0,0.7481915,-0.17734538,-0.014164038,0.63918495,0.6290749
23240000,-0.28996068,0.20702921,1.3829856,0,0.74861395,-0.175892,-0.012876093,0.63911927,0.62758476
23264000,-0.2863339,0.2070648,1.382496,0,0.74908507,-0.17454799,-0.01166071,0.638959,0.6261011
23288000,-0.28246707,0.20710208,1.382236,0,0.7495011,-0.17311221,-0.010388508,0.63888365,0.6246634
23312000,-0.27893317,0.2071198,1.3817339,0,0.74996465,-0.17179541,-0.009209678,0.6387132,0.6233932
23336000,-0.27508342,0.2071407,1.3814627,0,0.75037885,-0.17035902,-0.007949084,0.63862836,0.6221247
23360000,-0.271652,0.20716146,1.3809619,0,0.75082815,-0.16907947,-0.006803066,0.6384535,0.62085754
23384000,-0.26792294,0.20718054,1.3807113,0,0.7512206,-0.16768582,-0.005584292,0.63837135,0.6195915
23408000,-0.26459777,0.20718637,1.3802121,0,0.75165725,-0.16643955,-0.004479155,0.63819224,0.61842424
23432000,-0.2609788,0.20719874,1.3799531,0,0.7520388,-0.1650834,-0.003298208,0.6381022,0.61726284
23456000,-0.25769404,0.20721418,1.379447,0,0.7524691,-0.16385338,-0.002202801,0.63791656,0.6161189
23480000,-0.25406575,0.20722882,1.3791817,0,0.75284857,-0.16249268,-0.001018338,0.6378198,0.61497194
23504000,-0.25085735,0.20723443,1.37867,0,0.753271,-0.16128647,4.83E-05,0.6376281,0.6139397
23528000,-0.24745908,0.20724252,1.3783969,0,0.7536304,-0.16000867,0.001156658,0.6375243,0.612908
23552000,-0.24402665,0.2072575,1.3781223,0,0.7539902,-0.15871936,0.00227835,0.63741803,0.6118908
23576000,-0.24098207,0.20726967,1.3776121,0,0.75439256,-0.15757431,0.003293566,0.6372215,0.61086553
23600000,-0.23762074,0.20725393,1.3773367,0,0.75474524,-0.15630074,0.004379958,0.63711095,0.6100543
23624000,-0.23469438,0.20724614,1.376822,0,0.7551377,-0.15519246,0.005349115,0.63690954,0.6092266
23648000,-0.2313833,0.20724267,1.3765485,0,0.75548095,-0.15394014,0.00642325,0.6367964,0.6084099
23672000,-0.22854297,0.2072399,1.3760352,0,0.7558625,-0.15286434,0.007365756,0.6365926,0.6075686
23696000,-0.22529548,0.20719518,1.3757616,0,0.7562001,-0.15162183,0.008402921,0.6364759,0.6070573
23720000,-0.21117581,0.2071566,1.3827035,0,0.755041,-0.14631133,0.012373447,0.63902503,0.60650986
23744000,-0.20810728,0.20712891,1.3824347,0,0.7553525,-0.14514232,0.013362728,0.63890356,0.6059474
23768000,-0.20548955,0.20709531,1.3819257,0,0.7557068,-0.14413945,0.014222719,0.63869303,0.6053443
23792000,-0.20263776,0.20707056,1.3816571,0,0.7559991,-0.14305201,0.015143104,0.63857037,0.60474694
23816000,-0.20017496,0.20709413,1.3811426,0,0.7563373,-0.1421242,0.015975066,0.63835686,0.60377246
23840000,-0.19741444,0.20712562,1.3808746,0,0.75661594,-0.14108765,0.01688717,0.63823295,0.6027952
23864000,-0.19504286,0.20715764,1.3803586,0,0.7569452,-0.14019579,0.017692458,0.6380174,0.60182744
23888000,-0.19235961,0.2071935,1.3800796,0,0.7572191,-0.1391887,0.018581644,0.63788766,0.6008748
23912000,-0.1901388,0.2072067,1.3795618,0,0.7575373,-0.13834691,0.019330855,0.63767046,0.6000762
23936000,-0.18764988,0.20722741,1.3792864,0,0.7577952,-0.13740775,0.020151272,0.6375416,0.59925735
23960000,-0.18557717,0.20725223,1.3787633,0,0.75810224,-0.1366246,0.020857278,0.6373223,0.59844875
23984000,-0.1831359,0.20728166,1.3784995,0,0.75835043,-0.13570544,0.02166443,0.63719636,0.59762174
24008000,-0.18117242,0.20728558,1.3779954,0,0.75864375,-0.13495648,0.02232552,0.6369836,0.5969162
24032000,-0.16725455,0.20730206,1.3851935,0,0.7572665,-0.12977453,0.026297122,0.6395424,0.59623694
24056000,-0.16548443,0.20731983,1.3846732,0,0.75754625,-0.12910281,0.026903559,0.6393218,0.59555227
24080000,-0.16331932,0.20734143,1.384391,0,0.75777435,-0.12828553,0.027622052,0.63918525,0.5948794
24104000,-0.16156219,0.20734908,1.3838696,0,0.7580529,-0.12761477,0.028219804,0.6389632,0.5942875
24128000,-0.1595213,0.20736481,1.3835858,0,0.7582723,-0.12684196,0.028895866,0.6388265,0.5936775
24152000,-0.15789661,0.20738593,1.3830655,0,0.7585399,-0.1262249,0.029455755,0.63860536,0.59304935
24176000,-0.15596393,0.20741384,1.3827817,0,0.75875026,-0.1254963,0.030101396,0.63846886,0.5924207
24200000,-0.1544109,0.20740575,1.3822607,0,0.7590143,-0.12489658,0.030626595,0.6382476,0.5919849
24224000,-0.15268451,0.20741332,1.3819838,0,0.7592098,-0.124239415,0.03119763,0.6381158,0.5915284
24248000,-0.15128784,0.20741983,1.3814605,0,0.75946283,-0.12370294,0.03167811,0.63789517,0.5910491
24272000,-0.14955373,0.2074354,1.381177,0,0.7596593,-0.1230447,0.032254625,0.6377597,0.5905613
24296000,-0.1362293,0.20745318,1.3883879,0,0.7581575,-0.11811745,0.03608397,0.6402682,0.58999425
24320000,-0.13498427,0.20748389,1.3878617,0,0.7583974,-0.11764552,0.036525283,0.6400458,0.589426
24344000,-0.13344958,0.20751083,1.387587,0,0.7585738,-0.11706692,0.037042823,0.6399133,0.58882743
24368000,-0.13229467,0.20754789,1.3870647,0,0.75880605,-0.11663073,0.03745701,0.6396933,0.5882172
24392000,-0.13090968,0.20758104,1.3867848,0,0.75897413,-0.11611037,0.037928957,0.63956076,0.5875699
24416000,-0.1300033,0.20759992,1.3862619,0,0.75919276,-0.11576234,0.038256317,0.639345,0.5870795
24440000,-0.12875198,0.20762108,1.3859813,0,0.7593534,-0.11528854,0.038680617,0.6392141,0.58655447
24464000,-0.12791483,0.20764583,1.3854549,0,0.75956845,-0.114968225,0.03898794,0.6389978,0.5860117
24488000,-0.12667458,0.20767389,1.3851764,0,0.7597267,-0.1145005,0.039410904,0.63886744,0.58544445
24512000,-0.11420055,0.20769343,1.392153,0,0.75819266,-0.10991676,0.043019082,0.64125764,0.58492833
24536000,-0.113119334,0.2077194,1.3918669,0,0.75834227,-0.10950886,0.043391343,0.6411257,0.58438694
24560000,-0.1124893,0.20774981,1.3913403,0,0.7585437,-0.1092681,0.043633733,0.6409118,0.5838293
24584000,-0.11155288,0.20778464,1.3910595,0,0.75868285,-0.10891776,0.043962445,0.64078444,0.5832584
24608000,-0.11097174,0.20782922,1.3905373,0,0.7588791,-0.10869986,0.0441941,0.6405729,0.58259624
24632000,-0.11019401,0.20787878,1.3902588,0,0.7590077,-0.10841422,0.044477273,0.6404494,0.58191043
24656000,-0.109435804,0.20793176,1.3899816,0,0.7591345,-0.108137,0.04475536,0.6403266,0.5812088
24680000,-0.10914094,0.20798795,1.3894649,0,0.75931257,-0.10803122,0.04489919,0.6401232,0.5804893
24704000,-0.09664447,0.2079882,1.3967075,0,0.75765073,-0.10346125,0.048523687,0.642578,0.5801924
24728000,-0.09647341,0.20799541,1.3961788,0,0.757829,-0.103385895,0.048608728,0.6423735,0.5798712
24752000,-0.09586269,0.20801422,1.3958988,0,0.75794953,-0.103153616,0.048826516,0.64225227,0.57954764
24776000,-0.09569606,0.208035,1.3953795,0,0.75812364,-0.10308437,0.04891473,0.642051,0.579192
24800000,-0.09518861,0.20805272,1.395108,0,0.75823605,-0.10289097,0.04909838,0.6419354,0.5788464
24824000,-0.09519277,0.20807636,1.3945825,0,0.75840306,-0.102887124,0.049133115,0.6417359,0.57848924
24848000,-0.09485371,0.20810415,1.3943076,0,0.7585072,-0.1027606,0.04926666,0.64162284,0.57810044
24872000,-0.09490206,0.20813589,1.3937842,0,0.75867087,-0.1027761,0.049290184,0.6414251,0.5776933
24896000,-0.08277527,0.20818298,1.4010276,0,0.7569507,-0.09838107,0.052840512,0.64385927,0.57717013
24920000,-0.08294538,0.20823748,1.4005079,0,0.7571067,-0.09844911,0.05283212,0.6436661,0.5766064
24944000,-0.08270583,0.20829521,1.4002259,0,0.7572062,-0.098369345,0.052945096,0.6435519,0.5760306
24968000,-0.08254797,0.20835555,1.3999499,0,0.75729954,-0.09832148,0.05303247,0.6434422,0.5754359
24992000,-0.08287113,0.20841706,1.3994216,0,0.7574504,-0.09844943,0.052977968,0.64324963,0.57482743
25016000,-0.08284027,0.20842715,1.399144,0,0.7575405,-0.09843361,0.053005405,0.6431434,0.57461214
25040000,-0.08326046,0.20844503,1.3986204,0,0.75768733,-0.0985846,0.052902915,0.64295596,0.57436246
25064000,-0.07139626,0.20846705,1.4058832,0,0.75591904,-0.0943006,0.056382373,0.6453796,0.57407945
25088000,-0.0719134,0.20849183,1.4053679,0,0.75605965,-0.094489485,0.056249276,0.6451989,0.57376415
25112000,-0.07202246,0.20850834,1.4050959,0,0.7561413,-0.09452835,0.056233227,0.6450988,0.57349885
25136000,-0.0726271,0.20853268,1.4045808,0,0.75627756,-0.09475028,0.056071855,0.6449205,0.5731935
25160000,-0.072807245,0.2085624,1.404314,0,0.75635344,-0.09482042,0.056037717,0.6448241,0.5728499
25184000,-0.07301791,0.20859562,1.4040412,0,0.75642985,-0.09490307,0.05599541,0.64472616,0.572487
25208000,-0.0737446,0.20865767,1.4035248,0,0.7565586,-0.09518333,0.05580934,0.64454997,0.5718759
25232000,-0.07416955,0.20872559,1.4032443,0,0.75662524,-0.09535795,0.05571162,0.6444544,0.57125103
25256000,-0.063036494,0.20879738,1.4102645,0,0.75487506,-0.09137533,0.059005074,0.64678633,0.57062405
25280000,-0.063420735,0.20887254,1.4099902,0,0.7549425,-0.091536395,0.05892189,0.6466925,0.569992
25304000,-0.064215876,0.2089104,1.4094703,0,0.7550721,-0.09183341,0.058703028,0.6465188,0.5696423
25328000,-0.06467496,0.20895639,1.4091971,0,0.7551371,-0.092013486,0.058584653,0.64642817,0.5692515
25352000,-0.065619335,0.20900653,1.4086746,0,0.75525993,-0.09237088,0.058322586,0.64625734,0.56885177
25376000,-0.066201515,0.2090622,1.4084008,0,0.75531864,-0.092600614,0.058168292,0.6461697,0.56843776
25400000,-0.06702795,0.20911157,1.4078878,0,0.7554435,-0.09291367,0.05794387,0.6459989,0.5680659
25424000,-0.05571003,0.2091671,1.4151783,0,0.75359595,-0.088879004,0.061296117,0.64841074,0.56765175
25448000,-0.05626226,0.20922534,1.4149115,0,0.753655,-0.089097686,0.061151024,0.64832574,0.56720936
25472000,-0.057410367,0.20928632,1.4143982,0,0.75376713,-0.08953433,0.060824916,0.64816594,0.5667527
25496000,-0.058081985,0.20932592,1.4141347,0,0.7538205,-0.089792214,0.060634084,0.6480862,0.56645614
25520000,-0.059162594,0.20937325,1.4136238,0,0.75393504,-0.09019931,0.060324885,0.64792514,0.5661202
25544000,-0.059874695,0.20942444,1.4133532,0,0.75398797,-0.090476066,0.06012583,0.6478433,0.5657606
25568000,-0.061049458,0.20948109,1.4128463,0,0.7540961,-0.09092199,0.05978981,0.6476862,0.5653692
25592000,-0.061881747,0.2095427,1.4125742,0,0.7541432,-0.0912475,0.059556037,0.6476071,0.56497073
25616000,-0.051301036,0.20959307,1.4196231,0,0.75232697,-0.08749425,0.062692374,0.6499373,0.5646237
25640000,-0.052197825,0.20965005,1.4193609,0,0.7523701,-0.087841794,0.062433995,0.6498653,0.5642456
25664000,-0.053109426,0.2097108,1.4190953,0,0.7524134,-0.08819607,0.062172458,0.6497923,0.5638445
25688000,-0.054321833,0.20977658,1.4185859,0,0.75252205,-0.088657655,0.061825987,0.6496367,0.5634203
25712000,-0.055204727,0.20985231,1.4183152,0,0.7525671,-0.08900595,0.06157988,0.6495602,0.56293905
25736000,-0.056574006,0.20993268,1.4177974,0,0.7526703,-0.08953125,0.061188735,0.6494056,0.56244904
25760000,-0.057505637,0.2100152,1.4175334,0,0.7527101,-0.089900404,0.0609293,0.64933264,0.56193274
25784000,-0.04683867,0.2100998,1.424583,0,0.7508826,-0.08613842,0.0641204,0.65164715,0.56141454
25808000,-0.047760077,0.21021955,1.4243165,0,0.75092405,-0.08651463,0.06387686,0.65157354,0.56060463
25832000,-0.049079403,0.21034522,1.4238033,0,0.751028,-0.087034374,0.06351675,0.6514197,0.55977356
25856000,-0.05001973,0.21047205,1.4235383,0,0.7510672,-0.08742014,0.0632699,0.6513468,0.55893606
25880000,-0.051023867,0.210602,1.4232796,0,0.75110126,-0.08783113,0.06300326,0.65127814,0.55808735
25904000,-0.05240524,0.2106667,1.4227666,0,0.75120425,-0.08835476,0.062600486,0.6511272,0.55777633
25928000,-0.053518135,0.21073547,1.4224994,0,0.7512387,-0.08878669,0.062275976,0.65106004,0.55744666
25952000,-0.055008564,0.21080694,1.4219772,0,0.75133884,-0.08935346,0.061841093,0.65090835,0.55711454
25976000,-0.044301055,0.21088077,1.4292829,0,0.7494215,-0.08559175,0.06504063,0.6533079,0.5567569
26000000,-0.04592165,0.21095069,1.4287694,0,0.74951637,-0.086205125,0.06455969,0.6531662,0.5564199
26024000,-0.04706802,0.21102801,1.4285008,0,0.7495508,-0.086651206,0.06422603,0.65310043,0.5560545
26048000,-0.048264768,0.21110928,1.4282343,0,0.749582,-0.087117575,0.06387742,0.65303683,0.5556642
26072000,-0.049743216,0.21119331,1.4277189,0,0.74968165,-0.08768258,0.0634489,0.6528885,0.5552658
26096000,-0.050877165,0.21125129,1.4274538,0,0.74971557,-0.08811806,0.06311223,0.65282357,0.5550697
26120000,-0.052430343,0.21131755,1.4269351,0,0.749813,-0.08870551,0.0626532,0.6526763,0.55485636
26144000,-0.053579144,0.21138696,1.4266608,0,0.7498481,-0.08915014,0.062316667,0.6526076,0.55462825
26168000,-0.04325823,0.21146007,1.4337325,0,0.7479837,-0.085534945,0.06540908,0.65492433,0.554375
26192000,-0.044445813,0.21153328,1.4334669,0,0.74801624,-0.08599428,0.06505909,0.6548618,0.5540873
26216000,-0.04599734,0.21163829,1.4329522,0,0.748113,-0.0865921,0.06461278,0.65471685,0.5535995
26240000,-0.047218245,0.2117429,1.43268,0,0.74814403,-0.08707408,0.06426424,0.6546516,0.5530811
26264000,-0.048396885,0.21185566,1.4324157,0,0.7481737,-0.08754321,0.06393236,0.6545877,0.5525586
26288000,-0.050022423,0.21196526,1.4319048,0,0.74826425,-0.088170715,0.06346403,0.65444547,0.5520136
26312000,-0.05133376,0.21207108,1.4316362,0,0.74828905,-0.08868724,0.0630866,0.6543838,0.55156887
26336000,-0.053017158,0.21218011,1.4311205,0,0.74837756,-0.08933636,0.062599815,0.654241,0.55111444
26360000,-0.054250535,0.21228993,1.4308484,0,0.748406,-0.08982509,0.06224987,0.654175,0.55065596
26384000,-0.04402528,0.2124006,1.437929,0,0.7465307,-0.086265415,0.06533019,0.65649223,0.5501814
26408000,-0.045366973,0.21251172,1.4376667,0,0.74655354,-0.08679396,0.06494281,0.6564351,0.54968715
26432000,-0.046668574,0.21263057,1.4374022,0,0.74657804,-0.08731006,0.06457168,0.65637547,0.5491723
26456000,-0.0483959,0.21275297,1.4368879,0,0.7466653,-0.08797827,0.064073294,0.65623575,0.5486621
26480000,-0.04973789,0.21287714,1.4366148,0,0.74668974,-0.08851107,0.06369161,0.65617347,0.54815894
26504000,-0.051396403,0.21296357,1.436103,0,0.74677974,-0.08914225,0.06320268,0.65603274,0.5479474
26528000,-0.052633494,0.21305504,1.43584,0,0.7468063,-0.0896257,0.062842995,0.65597135,0.5476962
26552000,-0.054320063,0.21314983,1.4353293,0,0.74689335,-0.0902704,0.06234842,0.65583104,0.5474265
26576000,-0.043744374,0.2132479,1.4426686,0,0.74494517,-0.08659274,0.065534934,0.6582276,0.5471491
26600000,-0.045059986,0.21335126,1.4424081,0,0.74496883,-0.087108105,0.065151945,0.6581708,0.54680914
26624000,-0.046701144,0.21346162,1.4418993,0,0.74505925,-0.08773904,0.06467545,0.6580316,0.5464365
26648000,-0.047909312,0.21357548,1.4416375,0,0.7450868,-0.088217944,0.06433208,0.6579701,0.5460485
26672000,-0.049560275,0.21369295,1.4411277,0,0.74517584,-0.088855095,0.06385553,0.6578299,0.5456554
26696000,-0.05088755,0.21380562,1.4408696,0,0.7451961,-0.08937824,0.063472666,0.65777314,0.5452938
26720000,-0.052457534,0.2139239,1.4403566,0,0.7452886,-0.089985676,0.06302367,0.6576286,0.54491794
26744000,-0.05374146,0.21404417,1.440094,0,0.7453112,-0.09049518,0.06265841,0.6575681,0.544527
26768000,-0.054983728,0.21416676,1.4398263,0,0.74533683,-0.0909898,0.06230806,0.657504,0.5441333
26792000,-0.05661869,0.2142918,1.4393152,0,0.74542403,-0.09162409,0.061840795,0.65736127,0.54372954
26816000,-0.045983527,0.21441185,1.446668,0,0.7434745,-0.08793794,0.0650576,0.6597576,0.5433457
26840000,-0.047652494,0.21453832,1.446162,0,0.7435617,-0.08858348,0.06457665,0.6596202,0.54291695
26864000,-0.048928924,0.21466734,1.4459004,0,0.74358505,-0.08909192,0.064215496,0.65956074,0.5424758
26888000,-0.050616972,0.21479799,1.4453868,0,0.7436726,-0.08974594,0.06373064,0.65942025,0.5420399
26912000,-0.051832505,0.21492957,1.445124,0,0.74369824,-0.09023269,0.06339087,0.6593578,0.54157317
26936000,-0.053034637,0.21506733,1.4448588,0,0.74372447,-0.09071645,0.06305806,0.65929365,0.5410984
26960000,-0.054656595,0.21520735,1.444345,0,0.7438131,-0.09134934,0.06259917,0.6591499,0.5406234
26984000,-0.05591744,0.21534951,1.444078,0,0.7438364,-0.091856465,0.062249027,0.6590864,0.5401558
27008000,-0.018218327,0.20693113,1.6368723,0,0.6789943,-0.081591606,0.063960865,0.7267865,0.59987897
27032000,0.019480787,0.1985119,1.6368723,0,0.68067276,-0.06571887,0.07478953,0.7257907,0.599647
27056000,0.0571799,0.19280687,1.6368723,0,0.6819217,-0.050800376,0.0865229,0.7245109,0.5992138
27080000,0.09487902,0.19291446,1.6368723,0,0.68275636,-0.037977405,0.10019979,0.72274584,0.5985938
27104000,0.13257813,0.19303033,1.638356,0,0.68281496,-0.025228478,0.11382498,0.7212289,0.59781235
27128000,0.17027725,0.19315596,1.6515553,0,0.6784093,-0.013240643,0.12735635,0.7234403,0.59690595
27152000,0.20797637,0.19328785,1.6585566,0,0.6760113,-0.000993401,0.14101061,0.7232729,0.59592575
27176000,0.24567549,0.19342622,1.6715205,0,0.67122746,0.010694824,0.15473628,0.7248421,0.5949045
27200000,0.2833746,0.19359657,1.6783832,0,0.6684294,0.02270341,0.16850525,0.7240806,0.5936433
27224000,0.30924842,0.19377655,1.6910756,0,0.66349,0.030152217,0.17811131,0.7260497,0.59237003
27248000,0.31745625,0.19395949,1.6977327,0,0.6609478,0.032203503,0.18125622,0.7275006,0.59114
27272000,0.33341518,0.19414528,1.7101254,0,0.6561641,0.03624688,0.1873428,0.7300942,0.5899442
27296000,0.34984052,0.19434153,1.7231708,0,0.65108526,0.040298477,0.19366124,0.73277515,0.58870745
27320000,0.35696104,0.1945474,1.7295687,0,0.64859986,0.041910313,0.19646826,0.7341403,0.58751935
27344000,0.37119794,0.19475468,1.741447,0,0.64393014,0.045248836,0.20202585,0.7365406,0.5864109
27368000,0.37751472,0.19496273,1.7476509,0,0.64150673,0.04656908,0.20456064,0.7378723,0.5853627
27392000,0.39072198,0.19517127,1.759263,0,0.63690734,0.04950779,0.20978357,0.7401951,0.5843871
27416000,0.39634752,0.19538446,1.7652806,0,0.6345471,0.050579756,0.21208262,0.7414935,0.5834448
27440000,0.40860716,0.19559588,1.7766303,0,0.6300247,0.053156994,0.21699277,0.74374545,0.58257717
27464000,0.4134525,0.1958035,1.7824533,0,0.62773776,0.05396597,0.2190142,0.7450273,0.5817695
27488000,0.42479685,0.19600855,1.7935532,0,0.6232947,0.056206636,0.223613,0.74722266,0.5810281
27512000,0.42900252,0.19618559,1.7992047,0,0.62107193,0.056812122,0.22539753,0.7484905,0.5805206
27536000,0.4329201,0.19636567,1.8048468,0,0.61885655,0.05731847,0.22707877,0.7497776,0.58005375
27560000,0.4430865,0.19654399,1.8156701,0,0.614507,0.0591437,0.23126267,0.75193137,0.57965577
27584000,0.44649217,0.19671987,1.8211675,0,0.6123474,0.059482023,0.23275813,0.75320387,0.57931405
27608000,0.46322516,0.19695838,1.8377883,0,0.605579,0.06252082,0.23964815,0.75626314,0.57851833
27632000,0.46613804,0.19719756,1.8432229,0,0.603446,0.06265443,0.24098857,0.75753003,0.5777688
27656000,0.4748804,0.19743316,1.8536905,0,0.59921426,0.06391936,0.24470218,0.7595904,0.57709104
27680000,0.47721002,0.19766507,1.8589739,0,0.59714663,0.06387684,0.24582154,0.76085967,0.5764794
27704000,0.48535234,0.19784956,1.8693161,0,0.59295684,0.06494632,0.24930778,0.7629087,0.5762407
27728000,0.487299,0.19803372,1.8745067,0,0.5909246,0.064801306,0.25027034,0.7641816,0.5760602
27752000,0.49493372,0.19821404,1.8846912,0,0.5867915,0.065694794,0.2535732,0.76619875,0.5759372
27776000,0.49652982,0.19839242,1.8898368,0,0.58477885,0.06543789,0.25440264,0.7674835,0.5758666
27800000,0.49804196,0.19861983,1.8949581,0,0.5827789,0.06513622,0.25521243,0.76876056,0.57545745
27824000,0.505047,0.19884834,1.9050286,0,0.5786902,0.06578622,0.25829995,0.77076006,0.5750905
27848000,0.5061535,0.19907272,1.9100995,0,0.57671446,0.065360315,0.25895324,0.77205676,0.5747571
27872000,0.5127297,0.19929363,1.9200538,0,0.5726677,0.06586524,0.2618806,0.77403617,0.5744859
27896000,0.51353824,0.19948891,1.9250848,0,0.57070726,0.065358475,0.26241064,0.7753465,0.5744079
27920000,0.51965064,0.19968547,1.9349456,0,0.5666945,0.06571685,0.2651582,0.7773222,0.5743644
27944000,0.5201067,0.1998787,1.9398949,0,0.5647694,0.0651112,0.26554802,0.77864,0.574367
27968000,0.52581525,0.20006861,1.949676,0,0.5607855,0.06533573,0.26814172,0.7806093,0.5743965
27992000,0.52600884,0.2002559,1.9546067,0,0.55886805,0.064652614,0.26842594,0.7819425,0.5744543
28016000,0.5313553,0.20046137,1.9643002,0,0.5549171,0.064750955,0.27088526,0.78389764,0.57438445
28040000,0.5312983,0.20066987,1.9691591,0,0.55303,0.063992,0.27107248,0.7852278,0.5743366
28064000,0.5362779,0.20087615,1.9787607,0,0.54911333,0.06397303,0.2733894,0.7871723,0.57431895
28088000,0.5360036,0.2010812,1.9835982,0,0.5472336,0.06315272,0.27348673,0.7885125,0.5743204
28112000,0.5355574,0.20127438,1.98842,0,0.54536116,0.06229244,0.2735104,0.7898689,0.5744064
28136000,0.54011047,0.20146883,1.997927,0,0.5414768,0.062144622,0.27565497,0.7918051,0.57451636
28160000,0.5394201,0.20166148,2.0026996,0,0.5396233,0.061221197,0.27557635,0.79316854,0.5746349
28184000,0.5437491,0.20185271,2.0121448,0,0.53575724,0.06100004,0.27763093,0.79508764,0.5747729
28208000,0.5429522,0.2020522,2.016883,0,0.5339134,0.06004709,0.277506,0.7964428,0.5748491
28232000,0.5470313,0.20225236,2.026277,0,0.5300634,0.05974137,0.2794623,0.79835117,0.57494
28256000,0.5402836,0.20245102,2.0256598,0,0.53052586,0.05795589,0.27679747,0.7991036,0.5750564
28280000,0.5441798,0.20264886,2.0350049,0,0.5266923,0.05760596,0.2786738,0.8010105,0.5751905
28304000,0.5430013,0.20283666,2.0396993,0,0.5248607,0.056564428,0.2783804,0.8023877,0.5753861
28328000,0.54681146,0.20302877,2.0490103,0,0.5210304,0.05618052,0.28021902,0.8042688,0.57556504
28352000,0.54557365,0.20322089,2.053668,0,0.5192075,0.055126347,0.27989593,0.8056321,0.5757704
28376000,0.54914635,0.20341332,2.0629084,0,0.51540023,0.054672934,0.28163564,0.8074991,0.57599235
28400000,0.54782206,0.20360774,2.0675542,0,0.5135763,0.05359716,0.28127164,0.80885893,0.5761869
28424000,0.54635894,0.20380832,2.072179,0,0.5117613,0.05248817,0.28084877,0.81022793,0.5763725
28448000,0.549733,0.20400962,2.0813274,0,0.50798124,0.051975444,0.28250265,0.8120628,0.57659
28472000,0.5426106,0.20421162,2.0807333,0,0.5084228,0.050164267,0.27964061,0.81289047,0.57680684
28496000,0.5458452,0.20442101,2.089859,0,0.5046478,0.049615808,0.28123254,0.8147252,0.5769638
28520000,0.5441526,0.2046353,2.0944276,0,0.50284624,0.04845736,0.28070337,0.8160902,0.5771173
28544000,0.547353,0.20484917,2.1035175,0,0.49907556,0.047889344,0.28227812,0.8178932,0.57727087
28568000,0.5454956,0.20506287,2.108048,0,0.49728492,0.046697542,0.28167313,0.8192602,0.5774331
28592000,0.54855865,0.20527714,2.117089,0,0.49352616,0.04608877,0.28318685,0.8210437,0.57760304
28616000,0.54117006,0.20550214,2.1164942,0,0.49395823,0.044253036,0.28018877,0.82191324,0.5776874
28640000,0.5441208,0.20573081,2.1255028,0,0.4902083,0.043616533,0.28165138,0.8236905,0.57777774
28664000,0.5421761,0.20595902,2.1300056,0,0.48841524,0.042410277,0.280997,0.825041,0.57788295
28688000,0.54011905,0.20618825,2.1344862,0,0.48662955,0.04118243,0.2802917,0.82639706,0.57800853
28711999,0.5429402,0.20643431,2.1434264,0,0.4828968,0.040505126,0.28169492,0.8281413,0.57808733
28735999,0.5353114,0.20666902,2.142823,0,0.4833195,0.03864657,0.27857345,0.8290389,0.57812715
28760000,0.53813285,0.20690376,2.1517541,0,0.47958106,0.037978172,0.27996615,0.8307699,0.5781692
28784000,0.5361004,0.20715536,2.1562295,0,0.47778183,0.036758184,0.27925903,0.8320985,0.57822454
28808000,0.5388878,0.20733395,2.1651182,0,0.47404578,0.03610062,0.28061998,0.8338045,0.5787705
28832000,0.5367796,0.20751673,2.1695564,0,0.47224846,0.034901373,0.2798579,0.8351304,0.5793179
28856000,0.52908164,0.20770803,2.168942,0,0.4726537,0.033086054,0.27667192,0.83603615,0.57987785
28880000,0.53172976,0.20789053,2.1777892,0,0.4689251,0.032403983,0.27796343,0.83773243,0.58039117
28903999,0.5294148,0.20812176,2.1822069,0,0.46713132,0.031149372,0.2771117,0.8390632,0.58066756
28927999,0.5320314,0.2083339,2.191023,0,0.4634084,0.030441992,0.27839053,0.8407287,0.5808839
28952000,0.5241322,0.20856051,2.1904016,0,0.46380734,0.028598793,0.27510604,0.84165406,0.58112466
28976000,0.5267464,0.20880109,2.1991875,0,0.46009156,0.02788695,0.27638108,0.843298,0.5814034
29000000,0.5244693,0.20900878,2.203582,0,0.45828742,0.026667632,0.27552283,0.8445997,0.58186966
29024000,0.5165073,0.20922475,2.202966,0,0.45867,0.024832897,0.272195,0.8455266,0.58231145
29048000,0.5192003,0.20944564,2.2117424,0,0.4549432,0.024154574,0.27348727,0.8471411,0.58274055
29072000,0.5169137,0.20967034,2.2161343,0,0.4531289,0.022937916,0.27261534,0.8484273,0.58315694
29095999,0.5138934,0.20994233,2.21989,0,0.45159286,0.021625258,0.27143002,0.8496599,0.58330846
29120000,0.51162386,0.21018353,2.2242749,0,0.44977438,0.0204143,0.2705598,0.8509311,0.5833863
29144000,0.50924873,0.21045843,2.2286386,0,0.44796464,0.01917164,0.26964685,0.8522034,0.5835388
29168000,0.50625116,0.21072844,2.2323916,0,0.44641638,0.017878272,0.2684574,0.85341865,0.5836656
29192000,0.5038984,0.21100165,2.236761,0,0.44459522,0.016648844,0.26754484,0.8546799,0.583794
29216000,0.50658184,0.21127394,2.2454634,0,0.44087556,0.015956387,0.26881737,0.8562192,0.5839416
29240000,0.49861288,0.2115537,2.2448616,0,0.44121832,0.014156424,0.26545453,0.8571231,0.58406824
29263999,0.49635032,0.21185121,2.2492075,0,0.43939608,0.012951516,0.26457217,0.85835016,0.5842542
29287999,0.49910465,0.21212333,2.2578895,0,0.43567342,0.012282804,0.2658632,0.85985726,0.5843871
29312000,0.49097103,0.21237943,2.2572775,0,0.4360055,0.010478154,0.2624108,0.8607729,0.584747
29336000,0.49378958,0.21265945,2.265956,0,0.43227747,0.009824783,0.2637232,0.86225855,0.5851024
29360000,0.4856426,0.21293521,2.2653403,0,0.43260345,0.008021914,0.2602594,0.8631657,0.5854428
29384000,0.48329216,0.21321322,2.2696638,0,0.43076888,0.006829917,0.25931388,0.8643771,0.5857886
29408000,0.48605,0.21351913,2.2783155,0,0.42704406,0.006161213,0.2605934,0.86584437,0.58586884
29432000,0.47777522,0.21383916,2.277696,0,0.42736167,0.004331872,0.25706854,0.86675197,0.58597076
29455999,0.47532392,0.2141575,2.282001,0,0.42552623,0.003115505,0.25607407,0.8679538,0.5860847
29479999,0.47213635,0.21446659,2.2857032,0,0.4239486,0.001828313,0.25475296,0.8691175,0.5861675
29504000,0.469573,0.21473849,2.2899976,0,0.42210552,0.00061921,0.25369224,0.87032574,0.58657897
29528000,0.46102715,0.21503446,2.2893744,0,0.42240006,-0.00123845,0.25002733,0.8712422,0.58699167
29552000,0.4637537,0.21532485,2.2979932,0,0.41866842,-0.001874819,0.25126392,0.8726853,0.5873759
29576000,0.46128228,0.21561676,2.3022933,0,0.4168119,-0.00306055,0.2502339,0.87386584,0.58775747
29600000,0.45809436,0.21593137,2.3059843,0,0.41521806,-0.004324913,0.24889165,0.8750018,0.5879423
29624000,0.45564795,0.21625093,2.310281,0,0.41335708,-0.005508363,0.24786913,0.8761658,0.5881258
29647999,0.44714746,0.21658154,2.3096576,0,0.41362965,-0.007337235,0.24420638,0.87705183,0.5883388
29671999,0.44999945,0.21689652,2.318259,0,0.4098908,-0.00794436,0.2454831,0.8784443,0.58851254
29696000,0.4413909,0.2172329,2.3176293,0,0.41015613,-0.009783559,0.24176449,0.8793327,0.5885653
29720000,0.43889508,0.21758083,2.3219154,0,0.4082848,-0.010967582,0.24070781,0.8804789,0.58862007
29744000,0.43015745,0.21792793,2.3212864,0,0.40853655,-0.01283288,0.2369264,0.881362,0.5886569
29768000,0.43297243,0.21827613,2.3298793,0,0.40479204,-0.013437904,0.23817483,0.8827432,0.58869135
29792000,0.42419356,0.2186244,2.3292499,0,0.40503344,-0.015297875,0.23436575,0.88362134,0.5887158
29816000,0.42166558,0.21893522,2.3335352,0,0.40314212,-0.016449846,0.23327039,0.8847547,0.5890752
29839999,0.41831404,0.21925777,2.337208,0,0.4015117,-0.01769676,0.23181358,0.88585424,0.589432
29863999,0.41573858,0.21956465,2.3414876,0,0.39961404,-0.018846132,0.23068808,0.8869817,0.5897353
29888000,0.4067866,0.21987364,2.3408563,0,0.39982808,-0.020702884,0.22677764,0.88785183,0.59001863
29912000,0.40334672,0.22019523,2.3445282,0,0.39818323,-0.021949723,0.2252681,0.8889447,0.5903629
29936000,0.40064803,0.22052021,2.3488142,0,0.39626953,-0.023114502,0.22407754,0.8900705,0.59068334
29960000,0.3915022,0.22083414,2.3481815,0,0.39646304,-0.024999179,0.2200689,0.8909331,0.5909542
29984000,0.38882536,0.22115661,2.3524678,0,0.39454013,-0.026145302,0.2188783,0.89204633,0.59122133
30008000,0.38530746,0.22147651,2.3561447,0,0.39287367,-0.027384154,0.2173158,0.89312613,0.5915174
30031999,0.38266173,0.22180727,2.36043,0,0.390944,-0.028517425,0.21613203,0.894224,0.59181106
30056000,0.37341148,0.22211374,2.3597987,0,0.39111027,-0.030397914,0.2120575,0.8950644,0.59205085
30080000,0.3640699,0.22244583,2.359167,0,0.39126766,-0.03231003,0.20794353,0.8958935,0.59231234
30104000,0.36723652,0.22277348,2.36777,0,0.3874833,-0.032740235,0.20928082,0.8972103,0.592602
30128000,0.35787603,0.22309223,2.3671396,0,0.38762847,-0.034634255,0.2051462,0.89803106,0.5928442
30152000,0.3553143,0.22341873,2.3714316,0,0.38567498,-0.03571762,0.2039769,0.89909536,0.59309137
30176000,0.3460775,0.22374694,2.3708038,0,0.3858076,-0.037585758,0.1998916,0.8998795,0.59332174
30200000,0.34274587,0.22406298,2.3744905,0,0.38410276,-0.03873866,0.19837658,0.90089464,0.59364873
30224000,0.34026757,0.22438301,2.378791,0,0.3821343,-0.039785236,0.19723085,0.9019371,0.59394467
30248000,0.33104268,0.22470553,2.3781655,0,0.38224697,-0.041634776,0.19313772,0.90269136,0.5942084
30272000,0.32851303,0.22502948,2.3824644,0,0.38027006,-0.042679396,0.1919609,0.9037279,0.5944902
30296000,0.31922856,0.22535163,2.3818383,0,0.38036802,-0.044533264,0.18783337,0.9044642,0.5947432
30320000,0.315889,0.22568107,2.3855357,0,0.378637,-0.04566402,0.18629599,0.90545166,0.5949553
30344000,0.3134431,0.22601196,2.389845,0,0.3766457,-0.046678033,0.18514559,0.90646577,0.59513617
30368000,0.30400053,0.22634329,2.3892188,0,0.37672156,-0.04855152,0.18093616,0.9071856,0.5953027
30392000,0.29452628,0.22667496,2.388594,0,0.3767867,-0.05043294,0.1767098,0.9078887,0.5954267
30416000,0.2920094,0.2269964,2.392909,0,0.3747778,-0.05143375,0.17551221,0.90889585,0.59560084
30440000,0.28869098,0.22731991,2.396614,0,0.37302196,-0.052526865,0.17396261,0.90985304,0.59573954
30464000,0.27922937,0.2276416,2.3959863,0,0.3730692,-0.05438602,0.16972864,0.9105238,0.59587246
30488000,0.27686456,0.22796294,2.4003093,0,0.37104926,-0.05533978,0.16858794,0.91150314,0.5959897
30512000,0.26733178,0.22828011,2.3996837,0,0.37107968,-0.05720274,0.16431366,0.91215605,0.5961112
30536000,0.25778958,0.22859651,2.3990579,0,0.37110054,-0.05906857,0.16003266,0.91278964,0.59620416
30560000,0.25552174,0.22891068,2.4033887,0,0.3690676,-0.059978675,0.15892205,0.913748,0.596263
30584000,0.24607131,0.22922386,2.4027643,0,0.36907697,-0.061818417,0.1546756,0.91435015,0.5963023
30608000,0.24297738,0.22953968,2.406488,0,0.3672888,-0.06282064,0.15319844,0.9152502,0.59625226
30632000,0.23355693,0.22985744,2.405863,0,0.36728564,-0.06465046,0.14896028,0.9158234,0.59617656
30656000,0.23151454,0.23017454,2.4102075,0,0.36523935,-0.06549373,0.14793734,0.91674715,0.5960822
30680000,0.22223279,0.23048978,2.4095848,0,0.36522686,-0.067289345,0.14375599,0.9172872,0.59597385
30704000,0.21295914,0.23079288,2.408962,0,0.3652055,-0.069079086,0.1395745,0.91780823,0.59591216
30728000,0.21112154,0.23110144,2.413316,0,0.36315146,-0.069859535,0.13863225,0.9187066,0.5958352
30752000,0.20198216,0.23140943,2.4126945,0,0.36312225,-0.07161933,0.1345074,0.9191957,0.59574944
30776000,0.19277973,0.23171814,2.4120722,0,0.36308247,-0.07339202,0.13035221,0.9196701,0.5956507
30800000,0.18364921,0.23201461,2.4114494,0,0.36303666,-0.07514704,0.12622657,0.9201218,0.5956335
30824000,0.18867116,0.23231348,2.4201863,0,0.35920966,-0.074934855,0.12826169,0.9213588,0.59558487
30848000,0.17964858,0.23261026,2.4195673,0,0.3591596,-0.07665406,0.12417796,0.9217963,0.59551066
30872000,0.17071892,0.23290628,2.4189475,0,0.3591053,-0.07835719,0.12013575,0.9222099,0.59542775
30896000,0.16178492,0.23316415,2.418327,0,0.35904226,-0.080044344,0.11608386,0.9226082,0.5957193
30920000,0.16048901,0.233426,2.4227064,0,0.35697356,-0.080651425,0.11535443,0.9234493,0.59596086
30944000,0.15164077,0.23368755,2.4220874,0,0.35690302,-0.082317114,0.111337826,0.9238225,0.5961677
30968000,0.14285627,0.23394868,2.4214678,0,0.35682768,-0.08397211,0.10734964,0.92417467,0.59635425
30992000,0.13402528,0.23420848,2.4208474,0,0.35674295,-0.085635625,0.10333888,0.9245118,0.5965216
31016000,0.13287017,0.23446052,2.4252381,0,0.35466543,-0.08618444,0.10265908,0.9253355,0.596666
31040000,0.12420047,0.23471506,2.4246192,0,0.3545771,-0.08780897,0.09871747,0.9256454,0.59675986
31064000,0.115439825,0.23496905,2.4239998,0,0.3544775,-0.08945016,0.09473299,0.9259428,0.5968369
31088000,0.106809825,0.23522243,2.4233794,0,0.3543766,-0.09106865,0.09080831,0.9262168,0.5968653
31112000,0.09825743,0.23547795,2.4227583,0,0.35427222,-0.092675105,0.086919434,0.9264704,0.5967933
31136000,0.09745364,0.23573647,2.4271648,0,0.35219336,-0.09312831,0.08638652,0.92726713,0.59668297
31160000,0.0889839,0.23599279,2.4265451,0,0.3520832,-0.09471275,0.08253208,0.9274995,0.5965395
31184000,0.080717616,0.23624533,2.4259253,0,0.35197583,-0.09626032,0.07877101,0.92770797,0.59639144
31208000,0.072463855,0.23646346,2.4253042,0,0.35186294,-0.0977903,0.07500966,0.9279025,0.59654653
31232000,0.06432232,0.23668376,2.4246821,0,0.35174933,-0.099302195,0.07130059,0.9280774,0.59665644
31256000,0.06405508,0.23690183,2.4291053,0,0.34968144,-0.099607944,0.07099404,0.9288493,0.5967398
31280000,0.05612527,0.23711808,2.4284854,0,0.34957007,-0.10107344,0.06737912,0.92900217,0.59678316
31304000,0.04834648,0.23732528,2.4278643,0,0.3494609,-0.10250894,0.06383281,0.9291363,0.59683955
31328000,0.040645316,0.23753761,2.4272423,0,0.34935027,-0.1039339,0.060323544,0.9292541,0.59686154
31352000,0.03305769,0.23774932,2.4266188,0,0.3492404,-0.10533932,0.05686709,0.9293551,0.5968433
31376000,0.03342506,0.23796025,2.431057,0,0.34719393,-0.10549972,0.05684027,0.9301051,0.59679115
31400000,0.026073493,0.23817378,2.430436,0,0.3470895,-0.10685806,0.05349093,0.9301876,0.5966796
31424000,0.01881732,0.23838972,2.4298131,0,0.3469857,-0.10820153,0.050186682,0.9302552,0.59653604
31448000,0.011747577,0.2386038,2.42919,0,0.3468871,-0.10951242,0.046969134,0.93030655,0.5963669
31472000,0.004713276,0.23881644,2.4285657,0,0.346786,-0.11081708,0.043768194,0.93034583,0.5961776
31496000,-0.00227064,0.23899086,2.4279413,0,0.34668365,-0.11209585,0.040584434,0.9303751,0.5963921
31520000,-0.001298075,0.23917216,2.4323957,0,0.34466138,-0.11210276,0.040818725,0.9311151,0.5965482
31544000,-0.008037287,0.23935467,2.4317718,0,0.3445681,-0.11333668,0.037747875,0.9311298,0.59667516
31568000,-0.021489715,0.23953538,2.4266915,0,0.34615794,-0.115655385,0.031809248,0.9304766,0.5967641
31592000,-0.028033905,0.23971573,2.426064,0,0.34606466,-0.11686219,0.028832603,0.9304575,0.5968148
31616000,-0.034383394,0.2399072,2.425436,0,0.34597853,-0.118041076,0.025949031,0.93042564,0.5966413
31640000,-0.040729795,0.24010052,2.4248075,0,0.34588873,-0.11922087,0.023067787,0.93038446,0.59642947
31664000,-0.03909968,0.24029194,2.4292755,0,0.3439008,-0.119080804,0.023593666,0.9311259,0.596196
31688000,-0.045181986,0.24048238,2.4286487,0,0.34382287,-0.12020807,0.020832734,0.9310757,0.5959367
31712000,-0.05113727,0.24064554,2.4280212,0,0.3437502,-0.12130143,0.018126784,0.93101734,0.5959681
31736000,-0.0570638,0.24080905,2.427393,0,0.34367603,-0.1223906,0.0154349,0.93095064,0.5959636
31760000,-0.06279384,0.24097048,2.426764,0,0.343611,-0.12344562,0.012834754,0.9308747,0.59593785
31784000,-0.06851012,0.24112976,2.4261339,0,0.3435442,-0.1244979,0.010241307,0.93079144,0.595883
31808000,-0.08078125,0.24129154,2.4210196,0,0.34514657,-0.12666634,0.004882608,0.9299492,0.5956684
31832000,-0.07844212,0.24145794,2.4255052,0,0.3432014,-0.1263528,0.005716335,0.9307068,0.59541625
31856000,-0.08364203,0.24162401,2.424873,0,0.3431591,-0.12732062,0.003366008,0.93060195,0.59514505
31880000,-0.088702165,0.2417886,2.4242404,0,0.34312338,-0.12826435,0.001081131,0.9304909,0.59486026
31904000,-0.09368337,0.24193062,2.4236066,0,0.3430916,-0.12918472,-0.001170322,0.9303752,0.5947895
31928000,-0.09856427,0.2420745,2.4229722,0,0.3430641,-0.13008933,-0.003374126,0.9302539,0.59468776
31952000,-0.103301585,0.24221687,2.422337,0,0.34304398,-0.13096924,-0.005510744,0.9301277,0.59455055
31976000,-0.10792874,0.24235934,2.4217012,0,0.34302914,-0.13183089,-0.00759545,0.9299967,0.5943796
32000000,-0.11141143,0.24249697,2.421701,0,0.34279266,-0.13249171,-0.009190414,0.9299756,0.59421563
32024000,-0.11573086,0.24263707,2.4210641,0,0.34279504,-0.13330007,-0.011131525,0.929838,0.59401834
32048000,-0.11995398,0.24277626,2.4204268,0,0.34280226,-0.13409212,-0.013027396,0.9296968,0.5938011
32072000,-0.12407043,0.24291323,2.4197886,0,0.34281537,-0.13486546,-0.01487343,0.9295525,0.5935688
32096000,-0.12797627,0.24304394,2.41915,0,0.34284133,-0.13560039,-0.016622122,0.92940634,0.5933499
32120000,-0.1318055,0.24317884,2.4185107,0,0.3428712,-0.13632473,-0.018333841,0.92925715,0.5931084
32144000,-0.14214769,0.24331327,2.4133537,0,0.34454903,-0.1382171,-0.022758465,0.9282586,0.5928546
32168000,-0.1381844,0.24344665,2.4178696,0,0.34271818,-0.13754803,-0.021205526,0.92907214,0.59258056
32192000,-0.14169228,0.24357952,2.4172294,0,0.34276655,-0.13821755,-0.022766974,0.92891806,0.5922948
32216000,-0.14513612,0.24371189,2.416588,0,0.34281856,-0.13887642,-0.024298172,0.9287617,0.5919698
32240000,-0.14845236,0.24384835,2.4159465,0,0.3428781,-0.13951586,-0.025768846,0.9286043,0.59163505
32264000,-0.15162662,0.24398485,2.4153042,0,0.34294668,-0.14013155,-0.027173072,0.9284462,0.5912916
32288000,-0.16139248,0.24412282,2.4101326,0,0.34464943,-0.14194945,-0.03131444,0.92740846,0.5909407
32312000,-0.16435605,0.24423525,2.409487,0,0.3447314,-0.14252226,-0.03262221,0.9272451,0.59089565
32336000,-0.16724485,0.2443511,2.408842,0,0.3448171,-0.14308426,-0.033894297,0.92708105,0.59081274
32360000,-0.16997153,0.24446793,2.4081964,0,0.34491384,-0.14361928,-0.035090566,0.9269178,0.59072405
32384000,-0.16510257,0.24458541,2.412728,0,0.3431541,-0.14275849,-0.033136066,0.9277754,0.59060943
32408000,-0.1677464,0.24469118,2.4120843,0,0.34325728,-0.14327171,-0.034297213,0.92761594,0.59056073
32432000,-0.17677352,0.24480535,2.4069014,0,0.34500226,-0.14497125,-0.038087435,0.92655605,0.5904727
32456000,-0.17922479,0.24492174,2.4062543,0,0.3451167,-0.14546013,-0.039154712,0.92639226,0.59037083
32480000,-0.1814988,0.2450385,2.4056056,0,0.3452441,-0.14591907,-0.04013933,0.9262305,0.59027123
32504000,-0.18364844,0.24513124,2.4049582,0,0.3453808,-0.14634594,-0.0410705,0.9260713,0.5904535
32528000,-0.1857567,0.24523586,2.4043095,0,0.34552,-0.14677158,-0.041979894,0.9259113,0.5906071
32552000,-0.19422884,0.2453269,2.3991148,0,0.34729227,-0.14839433,-0.045499757,0.9248226,0.5907251
32576000,-0.18868978,0.2454252,2.4036598,0,0.34559268,-0.14737906,-0.043255154,0.92572904,0.59081894
32600000,-0.19047052,0.24554658,2.4030137,0,0.3457523,-0.1477566,-0.044009354,0.9255736,0.59063643
32624000,-0.19217747,0.2456675,2.4023678,0,0.34591693,-0.14812154,-0.044729248,0.9254193,0.59042406
32648000,-0.19378914,0.24578953,2.4017215,0,0.34608838,-0.14847086,-0.04540453,0.92526627,0.5901921
32672000,-0.20187154,0.24590737,2.3965228,0,0.34788087,-0.15004942,-0.048731763,0.9241696,0.58993495
32696000,-0.2033432,0.24602555,2.3958728,0,0.34806246,-0.15037547,-0.04934099,0.9240158,0.58988804
32720000,-0.20480192,0.24614233,2.395221,0,0.34824568,-0.15069899,-0.049944133,0.9238617,0.58982
32744000,-0.20617732,0.2462593,2.3945718,0,0.3484337,-0.15100834,-0.050508708,0.9237095,0.58972967
32768000,-0.20745313,0.24637774,2.3939235,0,0.34862834,-0.15130126,-0.05102687,0.92355967,0.5896355
32792000,-0.20124966,0.24649824,2.3984778,0,0.34698337,-0.1501643,-0.048481636,0.92450136,0.58953035
32816000,-0.20894074,0.24661635,2.3932726,0,0.34879947,-0.15168642,-0.051620007,0.923399,0.58942246
32840000,-0.2100345,0.24674031,2.3926237,0,0.34900725,-0.15195069,-0.052052584,0.9232527,0.58928853
32864000,-0.21101864,0.24686614,2.3919737,0,0.3492235,-0.15219694,-0.052433953,0.92310876,0.5891513
32888000,-0.21192473,0.24699421,2.3913252,0,0.34944466,-0.15243077,-0.05277882,0.92296684,0.58899724
32912000,-0.21278463,0.24712315,2.390676,0,0.34966943,-0.15265712,-0.053102005,0.92282563,0.5887895
32936000,-0.22013049,0.24725796,2.3854628,0,0.3515003,-0.15414858,-0.056064263,0.9217064,0.58856726
32960000,-0.22080047,0.24739315,2.3848147,0,0.35173732,-0.1543462,-0.05629755,0.9215686,0.5883361
32984000,-0.21401975,0.24752818,2.3893762,0,0.3501457,-0.15309276,-0.05349665,0.92255014,0.5881002
33008000,-0.21461186,0.24764998,2.3887284,0,0.35039037,-0.1532694,-0.053697318,0.9224162,0.5880307
33032000,-0.21515347,0.24777937,2.3880773,0,0.35063982,-0.15344086,-0.0538729,0.92228264,0.587957
33056000,-0.22211114,0.24791141,2.3828619,0,0.35249752,-0.15486825,-0.056652576,0.92116874,0.58786774
33080000,-0.22250272,0.24804585,2.3822093,0,0.35275775,-0.15501699,-0.056756947,0.9210376,0.5877694
33104000,-0.22279145,0.24817665,2.3815572,0,0.35302597,-0.15514603,-0.056814592,0.92090964,0.5876789
33128000,-0.22311556,0.24831201,2.3809035,0,0.35329175,-0.15528348,-0.056887455,0.92078,0.587569
33152000,-0.22332653,0.24844801,2.3802526,0,0.35356495,-0.1554012,-0.056908254,0.920654,0.5874443
33176000,-0.22983079,0.24858294,2.3750348,0,0.35544765,-0.15676726,-0.059467636,0.919535,0.58730406
33200000,-0.22257549,0.24871235,2.3796031,0,0.35390264,-0.15540707,-0.056461938,0.9205507,0.58719534
