timestamp,control[0],control[1],control[2],control[3],control[4],output[2],output[3],output[4],output[5],output[6],output[7],indicated_airspeed_m_s,true_airspeed_m_s,indicated_airspeed_m_s.1,equivalent_airspeed_m_s,true_airspeed_m_s.1,equivalent_ground_minus_wind_m_s,true_ground_minus_wind_m_s,differential_pressure_raw_pa,differential_pressure_filtered_pa,temperature,gyro_bias[0],gyro_bias[1],gyro_bias[2],accel_bias[0],accel_bias[1],accel_bias[2],instance_count,seq_reached,seq_current,seq_total,item_changed_index,item_do_jump_remaining,valid,warning,finished,failure,stay_in_failsafe,flight_termination,item_do_jump_changed,execution_mode,nav_roll,nav_pitch,nav_bearing,target_bearing,xtrack_error,wp_dist,acceptance_radius,rollspeed_integ,pitchspeed_integ,yawspeed_integ,additional_integ1,x,y,z,temperature.1,pressure,temperature.2,gyro_rad[0],gyro_rad[1],gyro_rad[2],accelerometer_m_s2[0],accelerometer_m_s2[1],accelerometer_m_s2[2],x.1,y.1,z.1,temperature.3,altitude_sp,altitude_filtered,height_rate_setpoint,height_rate,airspeed_sp,airspeed_filtered,airspeed_derivative_sp,airspeed_derivative,throttle_integ,pitch_integ,baro_alt_meter,baro_temp_celcius,baro_pressure_pa,rho,xyz[0],xyz[1],xyz[2],xyz[0].1,xyz[1].1,xyz[2].1,roll_body,pitch_body,yaw_body,q_d[0],q_d[1],q_d[2],q_d[3],thrust_body[0],lat,lon,alt,vel_m_s,vel_n_m_s,vel_e_m_s,vel_d_m_s,cog_rad,ground_contact,maybe_landed,landed,ref_lat,ref_lon,x.2,y.2,z.2,vx,vy,vz,ax,ay,az,yaw,dist_bottom,roll,pitch,yaw.1,thrust_body[0].1,timestamp.1,isTakeoff,isClimbing,isDescending,isCruise,isLand
58538061.0,-0.048535463,-0.050390922000000005,0.088812923,0.0,0.0,1540.0,1500.0,1000.0,1523.292859,1475.707141,1478.0,13.3274344,13.65679024,13.62479116,13.55058659,13.88524586,13.00452818,13.3256925,120.5439031,120.5439031,11.74354018,-0.001409914,-0.005747314,0.000192717,-0.182858613,0.174601465,-0.009705769,2.0,1.320864173,2.320864173,11.0,0.0,0.0,1.0,0.0,0.0,0.0,0.0,0.0,0.0,0.0,0.025611436,-0.340499019,-0.610622346,-0.598096541,0.615864635,182.8927262,38.84859941,-0.02155907,0.045333351,0.040075948,0.0,-1.568949538,1.42859045,-6.993337417,3344830000000000.0,954.1768244,11.72761714,-0.158627089,-0.274098173,0.312411098,-1.43217279,1.271616293,-5.133133635,-0.132836419,-0.117321913,0.211053765,3344830000000000.0,94.01608266,104.123682,-3.477386039,-3.2112461110000003,15.37055328,13.42600436,0.038890972,-0.0117769,-0.1,71.97011417,503.9297912,11.72665604,95416.82132,1.133709664,0.262327998,0.51425624,-0.260478642,-0.128252946,-0.090511623,0.194421676,0.000572845,-0.34452248,-0.613669373,0.939196776,-0.051503858,-0.163487173,-0.29752549300000003,0.0,398679015.1,327338039.1,504818.6545,13.506489300000002,10.1473248,-8.878935119,2.375411015,5.564201209,0.0,0.0,0.0,39.8714138,32.7364372,-389.7332259,-225.4745084,-104.5764311,10.21047643,-8.7837102,2.752190364,1.388560585,2.019853023,3.519410322,-0.5997377770000001,104.7025626,-0.12771914,-0.093098452,0.03803143,0.0,58538061.0,0.0,0.0,1.0,0.0,0.0
58558575.0,-0.04602107456312625,-0.04947443583967936,0.0875563364268537,0.0,0.0,1537.7815763246492,1500.0,1000.0,1523.117965248497,1475.882034751503,1487.3847563406814,13.342955123847696,13.672688754989979,13.624439585691382,13.549620114488977,13.884218213867735,13.010639939038075,13.33191951755511,121.07680688517033,121.07680688517033,11.74421959014028,-0.0014102119999999999,-0.00574769978757515,0.00019259338076152305,-0.18287782414629258,0.174582213244489,-0.009672380458917836,2.0,1.3224171889519039,2.3224171889519036,11.0,0.0,0.0,1.0,0.0,0.0,0.0,0.0,0.0,0.0,0.0,0.02166920415230461,-0.34091696728456916,-0.6101286895911824,-0.5980016420340681,0.5970332673126252,182.58520936993986,38.863664719378754,-0.021555880981963926,0.045229338250501,0.03980961482965932,0.0,-1.5642438946492985,1.4043988864408818,-7.072572564142284,3344830000000000.0,954.185440541483,11.728074274388778,-0.15943812018637277,-0.2608607998016032,0.30974341394388777,-1.4377215081963928,1.3131069148156311,-5.171845187645291,-0.1329861750480962,-0.1105365855771543,0.2038640903947896,3344830000000000.0,93.95513434436873,104.05356528737475,-3.403655368699399,-3.269730086070141,15.370510114789578,13.44931113707415,0.03842397195991984,0.032515204885771545,-0.1,71.69664799044088,503.8408696124249,11.727108850701404,95417.85016052105,1.1337218712505008,0.19721286004408817,0.646795941262525,-0.20826089567134268,-0.1269322535951904,-0.07674389400601203,0.18726090918637275,0.0007785963827655311,-0.3468322923326653,-0.6099403383547094,0.9395659042404809,-0.05144264676953908,-0.1647002891963928,-0.2956968001743487,0.0,398679036.061523,327338015.6302605,504759.46990841685,13.49868718224449,10.176304189218436,-8.83212238201002,2.4668071796452904,5.568227991629258,0.0,0.0,0.0,39.8714138,32.7364372,-389.51034214488976,-225.66573464168334,-104.51787368196392,10.240947855651303,-8.7382959047495,2.830704820537074,1.4012633294769539,1.9994871953847695,3.3638886403727457,-0.5948164658537074,104.64400428617235,-0.12990533428857717,-0.10682509700601202,0.035831986356713426,0.0,58558575.2244489,0.0,0.0,1.0,0.0,0.0
58579089.0,-0.04442626226052104,-0.04768155448496994,0.08634236045691383,0.0,0.0,1535.8410286853707,1500.0,1000.0,1523.0,1476.0,1495.1309152024048,13.388212097715432,13.719032648316633,13.624088009438879,13.548653637034068,13.883190565791583,13.016751698076153,13.338146535110221,121.60971068977955,121.60971068977955,11.744899000280562,-0.0014105101943887774,-0.005748085769539078,0.00019246956713426855,-0.18289703548697395,0.17456296168336674,-0.009638991917835672,2.0,1.3239702049038076,2.323970204903808,11.0,0.0,0.0,1.0,0.0,0.0,0.0,0.0,0.0,0.0,0.0,0.017726972304609217,-0.3413349153747495,-0.6096350331823648,-0.5979067428737476,0.5782018998196392,182.27769255931864,38.8787300307014,-0.021551177286573145,0.04513292202004008,0.03954421764128256,0.0,-1.5609128474348697,1.3850041524969943,-7.158151282877755,3344830000000000.0,954.1938620803608,11.728534213807615,-0.1590275135450902,-0.24748558824248498,0.3071438203887776,-1.4455441666793587,1.367099941276553,-5.240500109026052,-0.13322071453907816,-0.10260336326452905,0.1967619274789579,3344830000000000.0,93.89418602873747,103.98344855531062,-3.3299246983987976,-3.328214060945892,15.37046694763527,13.472617914148296,0.03795697211422846,0.07680730977154307,-0.1,71.42318181282565,503.7652832116233,11.727568795470942,95418.71350426854,1.133732125476954,0.18227436825450904,0.7233038738056112,-0.26162567998998,-0.1276988536492986,-0.06125664018036072,0.18137831156713427,-0.00018964090180360752,-0.3478982674448898,-0.607327389014028,0.9398409160440881,-0.0518411883246493,-0.16512677290981964,-0.2945208963547094,0.0,398679057.0230461,327337992.14108217,504700.28531683364,13.490885066432867,10.205283578436875,-8.78530964521443,2.558203344290581,5.572254774064128,0.0,0.0,0.0,39.8714138,32.7364372,-389.2803331468938,-225.86048542404808,-104.45539973827655,10.273379719338678,-8.692291574633266,2.9070576281863727,1.4237970474749497,1.9811205249398798,3.2296153285410822,-0.5899636555631262,104.58153010761524,-0.12864624525450902,-0.11712329781162324,0.034689677094188374,0.0,58579089.448897794,0.0,0.0,1.0,0.0,0.0
58599604.0,-0.044736963390781564,-0.04407263772745491,0.08521668068537074,0.0,0.0,1534.4762860280562,1500.0,1000.0,1523.0,1476.0,1499.4816298036071,13.495087486573148,13.82846438747495,13.623736429158317,13.547687155551102,13.882162913687374,13.022863457114228,13.344373552665331,122.14261453466933,122.14261453466933,11.745578410420842,-0.0014108087915831664,-0.005748472154308616,0.0001923453507014028,-0.18291624723046093,0.1745437105250501,-0.009605603376753508,2.0,1.3255232208557113,2.3255232208557115,11.0,0.0,0.0,1.0,0.0,0.0,0.0,0.0,0.0,0.0,0.0,0.013784740456913826,-0.34175286306212427,-0.6091413767735471,-0.5978118433106212,0.5593705327294589,181.97017578897794,38.8937953460521,-0.02154333492985972,0.045052247030060125,0.03928075996192385,0.0,-1.5604301901523046,1.375549240745491,-7.256874928316632,3344830000000000.0,954.2018803705412,11.728999965711424,-0.15608547181763527,-0.23382475286372748,0.30468532158316636,-1.458078804519038,1.4470000124148297,-5.371202629539079,-0.13363093930861725,-0.09229151339679358,0.1898411032184369,3344830000000000.0,93.8332377131062,103.91333178296594,-3.2561940280981965,-3.3866980354188376,15.370423776452906,13.495924691222445,0.037489972671342686,0.12109941465731464,-0.1,71.14971563923848,503.7173295174349,11.728043523206411,95419.2339114028,1.133738332715431,0.27131016388176354,0.6837047392084168,-0.53377488348497,-0.1327906679739479,-0.04220624727054108,0.1781442913507014,-0.0035905763527054116,-0.34638680666733473,-0.6070271525210421,0.9399209030661322,-0.05319241348697395,-0.16392322436472945,-0.2946976790320641,0.0,398679077.98456913,327337968.6116232,504641.1007252505,13.483082954649298,10.234262967655312,-8.738496908821643,2.649599508935872,5.576281556096193,0.0,0.0,0.0,39.8714138,32.7364372,-389.0355594703407,-226.06253963607213,-104.38481010741482,10.309873934008017,-8.6450645949499,2.978931142779559,1.4667021642124247,1.9668964379098195,3.1393721438116233,-0.5852527903446894,104.51094161142285,-0.12024796088176352,-0.12031719671743486,0.035737924641282566,0.0,58599603.67334669,0.0,0.0,1.0,0.0,0.0
58620118.0,-0.04635672909018036,-0.043247765983967935,0.08372461422444889,0.0,0.0,1532.8336673346694,1500.0,1000.0,1523.3887775551102,1475.6112224448898,1506.4428857715432,13.535869905731463,13.870208706312626,13.623384848877755,13.546720677955912,13.881135265470942,13.028975212264529,13.350600570220442,122.67551834068135,122.67551834068135,11.746257820561123,-0.001411107388777555,-0.005748858539078156,0.00019222152304609218,-0.18293545858517035,0.1745244589779559,-0.009572214835671342,2.0,1.3270762368076152,2.327076236807615,11.0,0.0,0.0,1.0,0.0,0.0,0.0,0.0,0.0,0.0,0.0,0.009966699711422845,-0.3414451881563126,-0.6088636268136273,-0.597763197002004,0.5491010605571143,181.6599925488978,38.92239104561122,-0.02153847993987976,0.04498333139478958,0.039002872803607216,0.0,-1.5661121029178355,1.387606389498998,-7.384047218172344,3344830000000000.0,954.2090259717436,11.729478282905811,-0.1510239381022044,-0.22146192366533066,0.2997725412184369,-1.460790909004008,1.4394218830841683,-5.501279211190382,-0.13442138658316632,-0.07683176506012022,0.18331273823647296,3344830000000000.0,93.77228940136273,103.843215049499,-3.1824633577975954,-3.4451820102805613,15.370380609158316,13.51923147218437,0.037022973228456914,0.1653915191543086,-0.1,70.87624946176354,503.66473479118235,11.728528849018035,95419.82685276553,1.1337453750480961,0.2525204617054108,0.828351368975952,-0.5229554451603207,-0.13234082175751502,-0.022931252901803603,0.17037049268537074,-0.008285282641282567,-0.3447399560501002,-0.6079493061402805,0.9397893803246493,-0.05522931512625251,-0.1624280382244489,-0.2955497889278557,0.0,398679098.9460922,327337945.0821643,504581.9161336673,13.47528084286573,10.263242360761524,-8.69168417204008,2.74099567396994,5.5803083381282566,0.0,0.0,0.0,39.8714138,32.7364372,-388.7905106947896,-226.2647298813627,-104.31406928096192,10.34644383200401,-8.597814836012025,3.0507212051042085,1.5099868145410822,1.952749530222445,3.0499492711703406,-0.58054456997996,104.44020191963928,-0.12283187577154309,-0.12611908388777554,0.03240850503807615,0.0,58620117.89779559,0.0,0.0,1.0,0.0,0.0
58640632.0,-0.048678261362725454,-0.04391537197995992,0.08203613428056113,0.0,0.0,1531.0420841683367,1500.0,1000.0,1523.9859719438878,1475.0140280561122,1514.803607214429,13.541221042164329,13.875666985390783,13.623033268597194,13.54575420244489,13.880107619338677,13.035086965330661,13.356827587775552,123.20842212585168,123.20842212585168,11.746937230701402,-0.0014114059859719438,-0.005749244923847696,0.00019209790380761524,-0.182954669731463,0.1745052072224449,-0.009538826294589178,2.0,1.3286292527595192,2.328629252759519,11.0,0.0,0.0,1.0,0.0,0.0,0.0,0.0,0.0,0.0,0.0,0.006215235639278557,-0.3407485196953908,-0.608701620517034,-0.597739346252505,0.5434214701963929,181.34837986112223,38.95824014701403,-0.021535226424849698,0.04492071974348698,0.03871725025450902,0.0,-1.5750987336472946,1.4111957768737475,-7.5264703277154315,3344830000000000.0,954.2157037396794,11.729963336132265,-0.1448261818777555,-0.2097949328316633,0.2935440635230461,-1.45823732550501,1.3849482236052104,-5.631020237987977,-0.13541566447895792,-0.0586123185751503,0.1769947637955912,3344830000000000.0,93.7113410917034,103.77309833687374,-3.108732687496994,-3.5036659853507017,15.370337443947896,13.542538255230461,0.03655597378557114,0.20968362344288577,-0.1,70.60278328220441,503.60965208897795,11.729019856272544,95420.45867845691,1.1337528650601203,0.1759273998817635,1.0717689239699397,-0.36044147720040076,-0.1289201884468938,-0.0035358536272545107,0.16016299835671344,-0.013673556801603207,-0.3430205253126252,-0.6095267616753507,0.9395444709058116,-0.057633795907815644,-0.1607765102805611,-0.29676392990981965,0.0,398679119.9076152,327337921.5527054,504522.73154208413,13.467478731082165,10.292221755951903,-8.644871435050101,2.832391839212425,5.584335120160321,0.0,0.0,0.0,39.8714138,32.7364372,-388.545314443487,-226.46699305170338,-104.24324740120241,10.38305430250501,-8.55055286551503,3.1224665301302608,1.5534749261763527,1.938643997028056,2.960966153462926,-0.5758377674749499,104.3693811745491,-0.13130315521442884,-0.13331906785971945,0.026732294797595188,0.0,58640632.12224449,0.0,0.0,1.0,0.0,0.0
58661146.0,-0.047167857815631264,-0.03388400374549097,0.07944571937274549,0.0,0.0,1529.250501002004,1500.0,1000.0,1523.5698868376753,1475.4301131623247,1519.0821643286574,13.538157531623247,13.872479555330662,13.622681688316632,13.544787726933869,13.87907996737475,13.041198724228456,13.36305460533066,123.74132591102203,123.74132591102203,11.74761663501002,-0.0014117045831663327,-0.005749631308617235,0.00019197428456913828,-0.18297388146092186,0.1744859560501002,-0.009505438336673347,2.0,1.3301822687114229,2.3301822687114226,11.0,0.0,0.0,1.0,0.0,0.0,0.0,0.0,0.0,0.0,0.0,0.002602856737474947,-0.3392392876773547,-0.6087813908997995,-0.597767290004008,0.5473296242044089,181.03378124509018,39.00924079032064,-0.021529434386773547,0.04488718418236473,0.03842204161723447,0.0,-1.5840853649599198,1.434785164248497,-7.668893437258517,3344830000000000.0,954.2223814492986,11.730448389358719,-0.14220966118236472,-0.19918301585771542,0.28493017251903807,-1.472021930008016,1.3887082483967936,-5.7910186586773555,-0.13640994295791584,-0.04039287267334668,0.17067678877154308,3344830000000000.0,93.6351370341483,103.69658370641282,-3.148785905036072,-3.5442059731863726,15.370269488336673,13.568013326513025,0.03604511381963928,0.246154180745491,-0.1,70.33462798677354,503.5359234014028,11.72951145252505,95421.29180150302,1.1337627413887776,-0.06808878375951921,0.362299298663326,-0.11140310996593167,-0.1316213407975952,-0.004146504326653307,0.15857520628056113,-0.015124116350701405,-0.3417332808937875,-0.6075914582384769,0.9398968147855711,-0.05797297212825652,-0.16001350447494989,-0.29600215056713425,0.0,398679140.98577154,327337898.6647295,504458.26002284564,13.464002243907816,10.326007298977956,-8.600461896192385,2.913694893973948,5.5884793530581165,0.0,0.0,0.0,39.8714138,32.7364372,-388.3053502438878,-226.6625218755511,-104.1720421478958,10.4192252696994,-8.505366392743486,3.18973253239479,1.5828618443707416,1.9225116937374749,2.8678876265531064,-0.5713934265591182,104.29817705591182,-0.1298484240741483,-0.13278847237875752,0.024276836983967938,0.0,58661146.34669339,0.0,0.0,1.0,0.0,0.0
58681661.0,-0.04630095262925852,-0.021389773533066123,0.07597727538877755,0.0,0.0,1528.0,1500.0,1000.0,1523.3954766893787,1475.6045233106213,1520.0160320641282,13.522815634148298,13.856713730440882,13.622330108036072,13.543821249619239,13.878052317074149,13.047310483266532,13.36928162288577,124.27422971422845,124.27422971422845,11.748296040981964,-0.0014120031803607216,-0.005750017693386774,0.00019185048496993989,-0.18299309320440882,0.17446670471142284,-0.00947205021242485,2.0,1.3317352846633266,2.3317352846633264,11.0,0.0,0.0,1.0,0.0,0.0,0.0,0.0,0.0,0.0,0.0,-0.0010061854909819666,-0.3377105092765531,-0.6088669770360722,-0.5977964796713426,0.5514684114188377,180.71911078456915,39.06060590370741,-0.021524561004008014,0.04486175239478958,0.03811715563326653,0.0,-1.5943127162665331,1.4619025754308619,-7.820569189426854,3344830000000000.0,954.2305603719439,11.730940455010021,-0.14011579570340682,-0.1879871673046092,0.27741827106012024,-1.479079570705411,1.3978073003967937,-5.9459755790340685,-0.13680458012825653,-0.026658792136272542,0.16523630309218434,3344830000000000.0,93.55657748501002,103.61908122224449,-3.2064073993567135,-3.5819754025050097,15.370197704328657,13.593823182985972,0.03552748189579158,0.28141708800400805,-0.1,70.06729269066132,503.4662787941884,11.730010721062124,95422.0901126453,1.1337722225951903,-0.1877514655551101,-0.25494269654308643,0.029067461929859643,-0.1328222043006012,-0.007716032759519044,0.15733650504208418,-0.018021490655310626,-0.34069180489378753,-0.6069943363066133,0.9399855336192384,-0.059134225158316636,-0.1591112103306613,-0.29597702275951904,0.0,398679162.08476955,327337876.0266533,504391.5936352705,13.462321571482965,10.361788151603205,-8.55705006165531,2.9908077239659323,5.5926723462244485,0.0,0.0,0.0,39.8714138,32.7364372,-388.0684986567134,-226.8540442258517,-104.10060878677355,10.4551347648497,-8.461414682146293,3.254333680098197,1.6038596301623247,1.9051736174488978,2.772372644184369,-0.567105230755511,104.22674482945892,-0.13059813326052105,-0.1323095141543086,0.02100137864328657,0.0,58681660.571142286,0.0,0.0,1.0,0.0,0.0
58702175.0,-0.04713427529058117,-0.0037983916092184274,0.07052975058717435,0.0,0.0,1528.0,1500.0,1000.0,1523.8359362164329,1475.1640637835671,1513.4468937875752,13.479564821883768,13.812358484789579,13.62197852775551,13.542854768136273,13.877024670941884,13.053422242304608,13.375508640440883,124.80713355911824,124.80713355911824,11.748975451122245,-0.0014123017775551103,-0.005750404078156313,0.00019172626853707414,-0.18301230494789578,0.17444745295591182,-0.009438661671342686,2.0,1.3332883006152305,2.3332883006152305,11.0,0.0,0.0,1.0,0.0,0.0,0.0,0.0,0.0,0.0,0.0,-0.0046152485611222465,-0.33618173045891786,-0.608952562755511,-0.5978256693386773,0.5556071990501001,180.40444028236476,39.11197101709419,-0.021521951861723447,0.04485343287975952,0.03779043715230461,0.0,-1.6074075093046092,1.4971736416352706,-7.993628826773547,3344830000000000.0,954.2422087679358,11.731448727154309,-0.13903075023246492,-0.17538313249098197,0.2725858039258517,-1.4696821496633268,1.4160080093106213,-6.087598910324649,-0.1358133795751503,-0.023290889298597194,0.16182379281963927,3344830000000000.0,93.47342225715431,103.53965138256514,-3.298305461693387,-3.6143393365771543,15.370118450661323,13.620286221983969,0.03499663759519038,0.3143238108617235,-0.1,69.80155725218437,503.407109550501,11.730527688356712,95422.79677873748,1.1337806579659317,-0.010711710348697306,-0.6060618307635273,-0.08618441908016039,-0.13021540062925852,-0.017011645296593193,0.1564253900480962,-0.02448152689178357,-0.34019430016432867,-0.6096851879218437,0.9394317821362725,-0.06231020703807615,-0.15783760909218436,-0.29776422729659324,0.0,398679183.22545093,327337853.93046093,504320.1485831663,13.464550748837675,10.401913194689378,-8.515810429891783,3.058797592675351,5.596971500256513,0.0,0.0,0.0,39.8714138,32.7364372,-387.8385497933868,-227.03668155811621,-104.02866955631262,10.49046440268537,-8.420201259452906,3.3130250751122245,1.6062531368997996,1.885161541513026,2.671454421639279,-0.5631633124348697,104.15480673366734,-0.13699437301202405,-0.13237966717635272,0.015651754306613225,0.0,58702174.79559118,0.0,0.0,1.0,0.0,0.0
58722689.0,-0.04491278581362726,0.008573154759519041,0.06786980218236473,0.0,0.0,1528.374749498998,1500.0,1000.0,1522.5936584428857,1476.4063415571143,1509.5010020040081,13.48841202224449,13.821393084488978,13.62162694747495,13.5418882904008,13.875997021062124,13.05953399759519,13.381735657995993,125.34003736653307,125.34003736653307,11.749654861262526,-0.001412600374749499,-0.005750790462925852,0.0001916024268537074,-0.18303151631663325,0.1744282012004008,-0.009405273130260522,2.0,1.3348413165671342,2.3348413165671342,11.0,0.0,0.0,1.0,0.0,0.0,0.0,0.0,0.0,0.0,0.0,-0.008224301887775553,-0.33465295201603207,-0.6090381488496994,-0.5978548590060121,0.5597459863066132,180.08976981763527,39.163336130480964,-0.02151680941282565,0.04485578173346694,0.0374597478256513,0.0,-1.6217301795691383,1.5359362121963929,-8.175845329096193,3344830000000000.0,954.2553428583166,11.731963935911825,-0.13410458423046093,-0.16453783192785573,0.2629876665250501,-1.4825906657354713,1.4182680208957916,-6.237476887054108,-0.1342287452024048,-0.024361922757515034,0.15927968806212425,3344830000000000.0,93.3902670292986,103.46022158036072,-3.3902035240300603,-3.646703270274549,15.370039196993988,13.646749260981965,0.03446579291983968,0.3472305333446894,-0.1,69.53582181745492,503.31377881703406,11.731046799218436,95423.86377022044,1.133793356486974,-0.1810899107635272,-0.47885426833066114,-0.2360462960661323,-0.13264607266132264,-0.031864096244488986,0.15403663103406814,-0.026923069911823645,-0.33817453261523045,-0.6087397548336674,0.9396624675470941,-0.06308742599398798,-0.1565547099438878,-0.29754892753106216,0.0,398679204.40360725,327337831.8717435,504248.7035310621,13.466779922444891,10.44203823777555,-8.474570798503006,3.1267874613847697,5.601270654288577,0.0,0.0,0.0,39.8714138,32.7364372,-387.6086009675351,-227.21931889038078,-103.95673036332664,10.525794036773547,-8.378987836759519,3.371716469751503,1.6086466440120242,1.8651494652024048,2.570536198719439,-0.5592213941142284,104.08286867535071,-0.13504006967735468,-0.13104129872344691,0.013055424657314628,0.0,58722688.64529058,0.0,0.0,1.0,0.0,0.0
58743202.0,-0.04087801212625251,0.017846296066132267,0.06686451142484968,0.0,0.0,1528.9719438877755,1500.0,1000.0,1520.3525366032063,1478.6474633967937,1507.112224448898,13.528183711382766,13.862118982765532,13.62127536719439,13.54092181488978,13.874969368957917,13.065645750661323,13.387962675551101,125.87294115170342,125.87294115170342,11.750334271402805,-0.0014128989719438877,-0.005751176847695391,0.00019147880761523047,-0.18305072746292583,0.1744089494448898,-0.009371884589178358,2.0,1.336394332519038,2.3363943325190384,11.0,0.0,0.0,1.0,0.0,0.0,0.0,0.0,0.0,0.0,0.0,-0.011833349430861725,-0.33312417379559117,-0.6091237351663327,-0.5978840486733467,0.5638847733406813,179.77509937515026,39.21470124386774,-0.021510163236472944,0.04486446314829659,0.03712670147294589,0.0,-1.636781696743487,1.576771279995992,-8.363497189773547,3344830000000000.0,954.2693588314629,11.732483262124248,-0.12689839481162324,-0.15473648591983968,0.2505607088056112,-1.5087396043727457,1.4110659073286573,-6.3922546800601205,-0.13229185866933868,-0.028067832841683366,0.15725105395791583,3344830000000000.0,93.30711180144289,103.3807918004008,-3.4821015863667335,-3.679067203749499,15.369959943326654,13.673212299979959,0.03393494802204409,0.38013725560521044,-0.1,69.27008638494989,503.2001704078156,11.73156718246493,95425.14464468938,1.1338085855410822,-0.5576894645150302,-0.067720164034068,-0.40645207440681363,-0.13806690406813626,-0.050014991382765536,0.15077076781563128,-0.026979304124248496,-0.33525117590581166,-0.6056358853707414,0.9403587812745491,-0.0624407803266533,-0.15526629171543085,-0.29614497547895796,0.0,398679225.604008,327337809.8352705,504177.2584789579,13.469009093827657,10.482163280861723,-8.433331167336673,3.1947773300941886,5.605569808320642,0.0,0.0,0.0,39.8714138,32.7364372,-387.3786521639279,-227.4019562226453,-103.88479119258517,10.561123668637274,-8.33777441406613,3.430407864168337,1.6110401513466934,1.8451373886693387,2.4696179755771546,-0.5552794757935872,104.01093063927857,-0.12812902686372743,-0.1288668560260521,0.012093403619238476,0.0,58743202.27254509,0.0,0.0,1.0,0.0,0.0
58765993.0,-0.04562238189378758,0.03305117975350702,0.06217751068737475,0.0,0.0,1527.8617234468938,1500.0,1000.0,1521.8139449599198,1477.1860550400802,1502.4468937875752,13.538140391863728,13.872213301242486,13.620923786913828,13.539955333687374,13.87394172254509,13.071757509418838,13.394189693106213,126.40584493687376,126.40584493687376,11.751013681543085,-0.0014131975691382766,-0.005751562663326653,0.0001913551883767535,-0.1830699391783567,0.17438969825851702,-0.009338496048096192,2.0,1.3379473490400802,2.33794734904008,11.0,0.0,0.0,1.0,0.0,0.0,0.0,0.0,0.0,0.0,0.0,-0.015442397543086173,-0.33159539500601204,-0.6092093209138276,-0.5979132383406813,0.5680235603747494,179.46042893266528,39.26606635725451,-0.021500782350701405,0.04489715195390782,0.03678637299599198,0.0,-1.6507133996412826,1.6124702715390782,-8.540761211476953,3344830000000000.0,954.2831198306613,11.733009332625251,-0.13307800471142284,-0.14600686655711426,0.24630652096192385,-1.5561224893907817,1.4403652301222447,-6.548731298460922,-0.13065771898196393,-0.03237180708617234,0.15535087208617235,3344830000000000.0,93.2239565678958,103.30136196352706,-3.5739996487034067,-3.711431137793587,15.369880695350702,13.699675338977956,0.0334041031242485,0.41304397843486973,-0.1,69.00435095244488,503.1058939753507,11.732115003867735,95426.21608765531,1.1338212751002004,-0.41986379133266527,-0.47601625620240495,-0.19161952416232458,-0.13617873879358716,-0.06368754971142285,0.15178657681362726,-0.032322198905811624,-0.3291297771523046,-0.6074130282925851,0.9404207169739479,-0.06419511732865732,-0.1515338167254509,-0.29749560203206415,0.0,398679246.747495,327337787.74188375,504105.81342685374,13.471238270901804,10.522288329639279,-8.392091535601203,3.2627671993727456,5.609868962352706,0.0,0.0,0.0,39.8714138,32.7364372,-387.13255981002004,-227.59209599258517,-103.80459433767535,10.601031221142284,-8.296031308038074,3.4799913717555113,1.6658172304569139,1.8180528413547095,2.2989045379178354,-0.551339941024048,103.9307333254509,-0.12602057999398797,-0.11891824570541082,0.012832392328657315,0.0,58765993.022044085,0.0,0.0,1.0,0.0,0.0
58788231.0,-0.04899235918837675,0.04270136612224448,0.05842245006212426,0.0,0.0,1526.8336673346694,1500.0,1000.0,1523.1663326653306,1475.8336673346694,1498.1683366733466,13.538970215771544,13.87297737721443,13.620572206633266,13.538988853867735,13.872914076412826,13.077869268456913,13.400416710661323,126.93874873867736,126.93874873867736,11.751693090020039,-0.0014134961663326653,-0.005751948617234469,0.00019123140280561123,-0.1830891509218437,0.17437044693386772,-0.009305107507014028,2.0,1.3395003654228457,2.3395003654228455,11.0,0.0,0.0,1.0,0.0,0.0,0.0,0.0,0.0,0.0,0.0,-0.01905144568336674,-0.33006661618837674,-0.6092949066332665,-0.597942428008016,0.5721623475751503,179.14575849018033,39.31743147064128,-0.021491611296593188,0.044935807617234466,0.03643903273346693,0.0,-1.6578511191162326,1.6170083752144289,-8.655001580364729,3344830000000000.0,954.2953338585171,11.73357631244489,-0.13790099861322644,-0.137857521501002,0.24211311492384768,-1.5817109201042083,1.4625862745931866,-6.697940059196393,-0.130860364745491,-0.040304277264529086,0.154230018997996,3344830000000000.0,93.14080133573147,103.22193214048097,-3.6658977110400803,-3.743795071865731,15.369801445991984,13.72613837963928,0.03287325839278557,0.44595070129258524,-0.1,68.73861551993987,503.00159668016033,11.732664071402805,95427.4037856914,1.1338353747234469,-0.2651553259458916,-0.8045364510861724,-0.02711648403406816,-0.13555904090981963,-0.07863889747494993,0.1525716985531062,-0.037204903272545095,-0.3237079802164329,-0.6087854229078157,0.9404980750861723,-0.06580455376352706,-0.14821119080961923,-0.29860393437474947,0.0,398679267.9048096,327337765.66232467,504034.36835811625,13.473467448256512,10.562413377034067,-8.350851903837675,3.330757068513026,5.61416811638477,0.0,0.0,0.0,39.8714138,32.7364372,-386.88385251683366,-227.78345098677354,-103.72305991563127,10.64168029993988,-8.254202404046092,3.5280995878717434,1.7290793758496994,1.7898226984208416,2.1168857040040074,-0.5474007923807614,103.8491981995992,-0.1253660423787575,-0.10679927005410819,0.014189346947895797,0.0,58788230.69338677,0.0,0.0,1.0,0.0,0.0
58808745.0,-0.04768112037074148,0.037205431549098195,0.05755158298396794,0.0,0.0,1526.2364729458918,1500.0,1000.0,1523.7635270541082,1475.2364729458918,1495.1823647294589,13.519965376252506,13.85348421781563,13.620220626352705,13.538022378356713,13.871886430280561,13.083981027494989,13.406643728216434,127.47165258356713,127.47165258356713,11.752372494188377,-0.001413794763527054,-0.005752335002004008,0.00019110718637274548,-0.18310836266533065,0.1743511951783567,-0.009271718965931864,2.0,1.3410533813747494,2.3410533813747496,11.0,0.0,0.0,1.0,0.0,0.0,0.0,0.0,0.0,0.0,0.0,-0.0226604938236473,-0.3285378373707415,-0.6093804923527054,-0.5979716176753508,0.5763011352064128,178.83108804769537,39.368796584028054,-0.021483332987975952,0.04498685400200401,0.036074459294589176,0.0,-1.6475329592925851,1.5414843618156313,-8.607314372228457,3344830000000000.0,954.3035732300601,11.734248400981965,-0.13750058216432867,-0.13107444370941884,0.23703354308416832,-1.548132391779559,1.4618110099759518,-6.8281055120460925,-0.13578228980761525,-0.05755949428657317,0.15511150658116232,3344830000000000.0,93.05764610787575,103.14250236052105,-3.7577957733767535,-3.776159005937876,15.36972219232465,13.75260142460922,0.032342414092184364,0.47885742415030064,-0.1,68.47288008743487,502.868873153507,11.733212863186372,95428.919369499,1.1338534512004008,-0.13240327669138258,-0.8217720210100201,-0.0421776411202405,-0.1391584461523046,-0.09747462826452909,0.1522125135991984,-0.040220473961923846,-0.32050677523446897,-0.608486097733467,0.9406963890100201,-0.06673205457715431,-0.14626231321042082,-0.29873289432264527,0.0,398679289.1052104,327337743.6258517,503962.92324629263,13.475696625611223,10.60253842012024,-8.30961227207415,3.398746937222445,5.618467270416834,0.0,0.0,0.0,39.8714138,32.7364372,-386.63043301823643,-227.97699583567135,-103.63911516693386,10.68366562743487,-8.212218889633267,3.5735492871943886,1.8076318485871745,1.7595281599559118,1.914494228837675,-0.5434623395791582,103.76525231623246,-0.12786439316032064,-0.0900509773086172,0.016929848110220445,0.0,58808744.91783567,0.0,0.0,1.0,0.0,0.0
58830702.0,-0.045935923557114226,0.027577120462925837,0.05800235706813627,0.0,0.0,1526.3607214428857,1500.0,1000.0,1522.5571142284568,1476.4428857715432,1493.6392785571143,13.585336820901805,13.920378469238477,13.619869049679359,13.537055902845692,13.870858780541083,13.090092782925852,13.412870745771544,128.00455639238476,128.00455639238476,11.753051901963927,-0.0014140933607214427,-0.005752721386773547,0.00019098333066132263,-0.18312757404809618,0.17433194378356714,-0.0092383304248497,2.0,1.3426063973266533,2.3426063973266533,11.0,0.0,0.0,1.0,0.0,0.0,0.0,0.0,0.0,0.0,0.0,-0.02626954160320642,-0.32700905891382764,-0.6094660784328657,-0.5980008073426855,0.580439922476954,178.5164175691383,39.42016169741483,-0.021474265420841684,0.04503674283166333,0.03572984601603207,0.0,-1.6372147998296593,1.4659603484168335,-8.559627163731463,3344830000000000.0,954.3118125655311,11.734920485911823,-0.13439901248897795,-0.12821945794188377,0.22892254182565128,-1.554559244737475,1.4498530159398797,-6.917248437160321,-0.1407042148697395,-0.07481471094789581,0.15599299416432866,3344830000000000.0,92.96859925276553,103.05876639619238,-3.833173923408818,-3.811833948026052,15.369650852885771,13.780289923286574,0.03178721784769539,0.5118333644028057,-0.1,68.2007920401002,502.74300073707417,11.733762012084169,95430.37227074149,1.1338707250721443,-0.19423528266733492,-0.6830464242805608,0.11694899890781602,-0.14140755740681363,-0.11174643741082166,0.15500104816432866,-0.04547914224649299,-0.31951789758717436,-0.6102252123186372,0.9403315622925852,-0.06918525991983969,-0.1449462690781563,-0.29994754825851705,0.0,398679310.3777555,327337721.5533066,503890.7577376754,13.4783760698998,10.642776037154308,-8.268203783717436,3.4648794393186373,5.622775268256513,0.0,0.0,0.0,39.8714138,32.7364372,-386.37788296653304,-228.16950638797596,-103.55532964068136,10.725586746513025,-8.170547331813628,3.6180951058757516,1.880360456675351,1.7282957111102202,1.7214029099839676,-0.5395585578797595,103.68146576352704,-0.1279004334008016,-0.07910079694789578,0.019002147068136275,0.0,58830702.028056115,0.0,0.0,1.0,0.0,0.0
58853605.0,-0.043906243168336676,0.015239806995991985,0.059319540358717435,0.0,0.0,1526.9579158316633,1500.0,1000.0,1520.1683366733466,1478.8316633266534,1493.0420841683367,13.706021607394788,14.04390446775551,13.619517475370742,13.53608942733467,13.869831128436873,13.096204535991985,13.419097763326654,128.5374601775551,128.5374601775551,11.753731312104208,-0.0014143919579158314,-0.005753107771543087,0.0001908597114228457,-0.18314678519438876,0.1743126926252505,-0.009204941883767536,2.0,1.3441594132785573,2.344159413278557,11.0,0.0,0.0,1.0,0.0,0.0,0.0,0.0,0.0,0.0,0.0,-0.029878589146292586,-0.32548028069338675,-0.609551664749499,-0.5980299970100201,0.5845787095110221,178.2017470669339,39.471526810801606,-0.021464680450901805,0.04508587281963928,0.035398317731462924,0.0,-1.6268966406032066,1.3904363350180362,-8.511939954997997,3344830000000000.0,954.3200518773547,11.735592568476953,-0.12952668680961926,-0.1279395547234469,0.21882427017034067,-1.5872118476472947,1.430564121507014,-6.979498816314629,-0.1456261399318637,-0.0920699273727455,0.156874481747495,3344830000000000.0,92.87569010867735,102.97220748877756,-3.8977223531523046,-3.8496794398136274,15.369584701663328,13.8087817749499,0.031216057551102204,0.544854680503006,-0.1,67.92453950082164,502.621619604008,11.73431139509018,95431.78408008016,1.1338874727915833,-0.38362794707214426,-0.4420796183006013,0.3902654170440881,-0.14277147593587172,-0.12302634236873747,0.159853087747495,-0.05220828562124248,-0.31997932341482965,-0.6133006374128257,0.9395975655991985,-0.07263864934268537,-0.14404508244088177,-0.3018739349198397,0.0,398679331.6975952,327337699.4571142,503818.1199689379,13.481350689178358,10.683087452665331,-8.226684600482967,3.5297943344128258,5.627089063703407,0.0,0.0,0.0,39.8714138,32.7364372,-386.1259028855712,-228.36133890140283,-103.47164849358717,10.767465773406814,-8.129080278871744,3.6620483805811626,1.9492711979378758,1.6964484099038075,1.534408360268537,-0.535677505014028,103.59778366092183,-0.12632229228657316,-0.0719516013727455,0.020636402358717436,0.0,58853605.03006012,0.0,0.0,1.0,0.0,0.0
58880949.0,-0.04647033744088177,0.00563822490981963,0.05749449671142284,0.0,0.0,1525.3346693386773,1500.0,1000.0,1522.2204408817636,1476.7795591182364,1491.8897795591183,13.671921763727454,14.00888459244489,13.619165895511022,13.535122946272546,13.868803481883768,13.102316294609219,13.425324780881763,129.07036396272545,129.07036396272545,11.754410722244488,-0.00141469,-0.005753494156312626,0.0001907355370741483,-0.18316599689579158,0.17429344091182364,-0.009171553342685372,2.0,1.345712429230461,2.345712429230461,11.0,0.0,0.0,1.0,0.0,0.0,0.0,0.0,0.0,0.0,0.0,-0.033487637244488985,-0.32395150191783567,-0.609637250511022,-0.5980591866773547,0.5887174971002004,177.8870766202405,39.52289192418838,-0.021455824340681363,0.045129326250501006,0.03506328670140281,0.0,-1.6129408474328657,1.3550810153226454,-8.430520653266534,3344830000000000.0,954.3291586044088,11.736221813186372,-0.130927186002004,-0.13138978346492988,0.20976377707214428,-1.5653165197655312,1.4331952679138276,-7.075224036513026,-0.1474503040501002,-0.10594575434468939,0.15713874172144288,3344830000000000.0,92.76866374008016,102.87533030360721,-3.922686589723447,-3.895458605174349,15.369537513006012,13.840210015350701,0.030586547953907813,0.5780418535450902,-0.1,67.63306515651303,502.6194129747495,11.734877436953907,95431.79916549099,1.133887660462926,0.023829611535070627,-0.3733184548717434,0.34573550011222437,-0.14066726009619238,-0.13178739750901805,0.16106501981563126,-0.054171759458917834,-0.32136911502004006,-0.6120605668196393,0.9395996128617234,-0.07367494731262525,-0.1444481416993988,-0.3014167465731463,0.0,398679354.2386774,327337677.5274549,503733.32950521045,13.49192073727455,10.725297816973947,-8.182317036795592,3.563378074254509,5.631552042801603,0.0,0.0,0.0,39.8714138,32.7364372,-385.8871187737475,-228.53747228717435,-103.39038418537073,10.808370193286573,-8.092348052987976,3.6922826912745492,1.9297882460460922,1.6503656534829658,1.4885701067715431,-0.5323226816492986,103.51652039559117,-0.12199146339478957,-0.06842496183767535,0.021181766208416834,0.0,58880948.91382766,0.0,0.0,1.0,0.0,0.0
58908020.0,-0.04842956757715431,-0.0020409539318637345,0.05572841851903807,0.0,0.0,1523.8476953907816,1500.0,1000.0,1523.7272593026053,1475.2727406973947,1491.1523046092184,13.652254685891783,13.988683278977957,13.61881431523046,13.534156466312625,13.867775834228457,13.108428053647295,13.431551798436873,129.60326776312624,129.60326776312624,11.755090132384769,-0.0014149881523046093,-0.005753880541082165,0.00019061147294589177,-0.18318520848697395,0.17427418930861724,-0.009138164801603206,2.0,1.3472654451823647,2.347265445182365,11.0,0.0,0.0,1.0,0.0,0.0,0.0,0.0,0.0,0.0,0.0,-0.037096685384769554,-0.32242272325250504,-0.6097228363827656,-0.5980883763446894,0.5928562845791583,177.5724061777555,39.57425703757515,-0.0214465650501002,0.04516999942084168,0.0347303034749499,0.0,-1.5973039097855712,1.3382897916953909,-8.333511951699398,3344830000000000.0,954.3386661927856,11.736831257795592,-0.13245031796192386,-0.12907895697595184,0.20224898543286574,-1.551447638014028,1.441380820018036,-7.159300237258517,-0.14784282760921844,-0.1182597848176353,0.15711774783366733,3344830000000000.0,92.66056711258517,102.77767088156313,-3.9446498585811622,-3.9418392403727456,15.369491760420841,13.871860871583166,0.029952614763527053,0.6112416004268538,-0.1,67.34043681102204,502.61046445811627,11.735444511783568,95431.89350204408,1.133888776727455,0.3101008683607209,-0.21319084118436757,0.1591201943567121,-0.13942373293386776,-0.13983821781362726,0.1618390242004008,-0.056440604176352716,-0.3206542758256513,-0.6110919691082165,0.9397162275671344,-0.07456621285170341,-0.14380340116232462,-0.3011290165971944,0.0,398679376.85711426,327337655.59519035,503647.6177180361,13.503066613627256,10.767652144909821,-8.137733530907816,3.5945865281102205,5.636026332004008,0.0,0.0,0.0,39.8714138,32.7364372,-385.6493350631263,-228.7124155016032,-103.30930310320642,10.849200725991983,-8.055974785264528,3.721476936256513,1.903603967236473,1.603203674825651,1.45343323297996,-0.5290077530921844,103.43544049258517,-0.11842570071342685,-0.06095395648296588,0.0217981220240481,0.0,58908020.25250501,0.0,0.0,1.0,0.0,0.0
58933312.0,-0.04760465878757515,-0.004710523927855714,0.054830432843687375,0.0,0.0,1523.250501002004,1500.0,1000.0,1522.6578286733466,1476.3421713266534,1491.749498997996,13.709023787414829,14.046878008917837,13.6184627349499,13.533189990801604,13.86674818212425,13.11453981268537,13.437778815991983,130.13617160801604,130.13617160801604,11.75576954252505,-0.0014152867494989982,-0.0057542669258517035,0.00019048785370741483,-0.18320441963326656,0.1742549381503006,-0.009104776260521042,2.0,1.3488184611342686,2.3488184611342686,11.0,0.0,0.0,1.0,0.0,0.0,0.0,0.0,0.0,0.0,0.0,-0.0407057335250501,-0.32089394503206414,-0.6098084226993988,-0.598117566012024,0.5969950716132265,177.25773573527053,39.625622150961924,-0.021435966641282563,0.04520380838677355,0.03440407767935871,0.0,-1.5775618206553108,1.366829846501002,-8.198435820152305,3344830000000000.0,954.3491526276554,11.737392351783567,-0.13294253931262526,-0.10911374109218436,0.19901945134068136,-1.573104156779559,1.4609368544308619,-7.201935980509018,-0.14473945799799598,-0.12676009686573148,0.15640019847094186,3344830000000000.0,92.55247048509018,102.68001150400802,-3.966613127438878,-3.988219875571142,15.369446003386773,13.903511732264528,0.02931868157314629,0.6444413468637274,-0.1,67.04780846108217,502.5554311438878,11.73601091482966,95432.52864216432,1.133896272711423,0.11020709661723427,0.25195820504008054,-0.37214641703406864,-0.14146234675350702,-0.14637220821442887,0.16213992656513027,-0.06065681865731463,-0.3135861111683367,-0.6118720315851703,0.9400045016593187,-0.07556909990180362,-0.1398091548777555,-0.3018641300440882,0.0,398679399.4310621,327337633.6184369,503561.9059308617,13.514212494428858,10.810006472845693,-8.093150025020039,3.6257949824108215,5.640500621651302,0.0,0.0,0.0,39.8714138,32.7364372,-385.41155130801604,-228.88735876052104,-103.22822202104209,10.890031258697395,-8.019601517985972,3.7506711816833667,1.8774196884268537,1.5560416961683368,1.418296358743487,-0.52569282497996,103.35436054509019,-0.11770432393186372,-0.04115902998196391,0.022862985907815634,0.0,58933312.032064125,0.0,0.0,1.0,0.0,0.0
58955830.0,-0.04560349248897795,-0.00840396651503007,0.05447166493987976,0.0,0.0,1521.9599198396793,1500.0,1000.0,1523.523472729459,1475.476527270541,1492.3466933867735,13.72434867264529,14.06255923002004,13.618111154669338,13.532223515290582,13.865720533486973,13.120651571723446,13.444005833547093,130.66907541823647,130.66907541823647,11.756448949198397,-0.001415585346693387,-0.005754652963927856,0.00019036423446893789,-0.1832236311262525,0.1742356866452906,-0.009071387719438877,2.0,1.3503714770861723,2.3503714770861723,11.0,0.0,0.0,1.0,0.0,0.0,0.0,0.0,0.0,0.0,0.0,-0.04431478131863728,-0.31936516646492985,-0.6098940086693387,-0.5981467556793587,0.6011338586472946,176.94306529278558,39.676987264348696,-0.02142698001002004,0.04523938514228457,0.034085721476953906,0.0,-1.5578197318717435,1.3953699013066132,-8.06335968860521,3344830000000000.0,954.359639062525,11.737953445771543,-0.13312090988777556,-0.09117828324448894,0.19289635530460922,-1.5991971301883767,1.4594588214809618,-7.275108576420842,-0.14163608873346692,-0.13526040891382768,0.15568264876152305,3344830000000000.0,92.4443738575952,102.5823521264529,-3.9885763959498997,-4.034600510769539,15.36940024981964,13.935162589478958,0.02868474838276553,0.6776410936472946,-0.1,66.75518011460922,502.44202489078157,11.736583963987977,95433.82579330662,1.1339116743446893,-0.07007330491182402,0.5257484805170344,-0.2892918767815619,-0.1432318693006012,-0.14481548508016032,0.16563174251102206,-0.06406360150100202,-0.3089133336332665,-0.6119584184929859,0.9402320416573147,-0.07649362141883768,-0.13708988981763526,-0.3021844380280561,0.0,398679422.03967935,327337611.64168334,503476.1941436874,13.525358371763527,10.852360804248498,-8.048566519132264,3.657003436711423,5.644974910951904,0.0,0.0,0.0,39.8714138,32.7364372,-385.167231342485,-229.0651854683367,-103.14441478476954,10.931218961863728,-7.9835388338977955,3.7816715335891784,1.8464029791222445,1.5159733765751502,1.412657575482966,-0.5223263099318637,103.27055378476955,-0.11554888913226452,-0.029372488430861713,0.023664941795591185,0.0,58955830.26452906,0.0,0.0,1.0,0.0,0.0
58976344.0,-0.04275242914629259,-0.01283720143687375,0.05450250525250501,0.0,0.0,1520.1683366733466,1500.0,1000.0,1525.7872921362725,1473.2127078637275,1492.943887775551,13.70972831488978,14.047522597915831,13.617759574388778,13.53125703977956,13.864692887354709,13.126763330761523,13.450232851102205,131.20197920340684,131.20197920340684,11.757128353366733,-0.0014158839438877756,-0.005755038751503006,0.00019024061523046094,-0.1832428428697395,0.17421643488977956,-0.009037999178356713,2.0,1.3519244930380763,2.351924493038076,11.0,0.0,0.0,1.0,0.0,0.0,0.0,0.0,0.0,0.0,0.0,-0.04792382886172345,-0.3178363876472946,-0.6099795943887776,-0.5981759453466934,0.6052726456813627,176.6283948503006,39.72835237773547,-0.02141915795791583,0.04527623920240481,0.03377305139679358,0.0,-1.5380776433386771,1.4239099561122244,-7.9282835570581165,3344830000000000.0,954.3701254973948,11.73851453975952,-0.13307250967134268,-0.07470941357314628,0.18468253532064127,-1.6284956344088175,1.4427827629799599,-7.370345372232465,-0.1385327197194389,-0.14376072096192385,0.15496509880160322,3344830000000000.0,92.33627723010021,102.4846927488978,-4.0105396642104205,-4.080981145967936,15.369354498757513,13.966813444188377,0.02805081519238477,0.7108408406813628,-0.1,66.46255177064128,502.2864416587175,11.737161815250502,95435.60127611223,1.1339327881523045,-0.2361821961703408,0.661273748228457,0.2372918192825656,-0.14480696173747495,-0.13741287066332664,0.17142913185370742,-0.06688553489579159,-0.3059713271402806,-0.611543594729459,0.9404156986392785,-0.07736152044088176,-0.13529185396593185,-0.30220503108216434,0.0,398679444.6733467,327337589.66492987,503390.48235651304,13.536504246593186,10.894715138156313,-8.003983013244488,3.688211891012024,5.649449200002004,0.0,0.0,0.0,39.8714138,32.7364372,-384.9181886815631,-229.245095592986,-103.05863778396794,10.972664736172344,-7.947700559629259,3.8139768757254506,1.8118946292865732,1.4810305331843687,1.4283324417715433,-0.5189225210861723,103.18477678396793,-0.11235728524448897,-0.02337235219038076,0.024276935258517034,0.0,58976344.488977954,0.0,0.0,1.0,0.0,0.0
58999023.0,-0.04558411424048097,-0.013954849885771545,0.052138445565130254,0.0,0.0,1520.0,1500.0,1000.0,1523.9406623847694,1475.0593376152306,1493.4360911222445,13.761075309438878,14.100033986853708,13.639796188496994,13.553393555250501,13.887311310961923,13.150286626873747,13.47427435503006,131.73488298857717,131.73488298857717,11.757807762945891,-0.0014162085130260522,-0.005755403977955912,0.00019052226653306614,-0.18328633351102205,0.17420136569939879,-0.009017679394789578,2.0,1.35347750898998,2.3534775089899798,11.0,0.0,0.0,1.0,0.0,0.0,0.0,0.0,0.0,0.0,0.0,-0.051532876945891794,-0.31630760882965936,-0.6100651801082164,-0.598205135014028,0.609411433256513,176.3137243537074,39.77971749112224,-0.021409244623246493,0.04530303075751503,0.03348140993386774,0.0,-1.5513660886733467,1.4453844680320642,-7.8241297284969935,3344830000000000.0,954.3831762288577,11.73909530749499,-0.13198493626853705,-0.05204976097595186,0.17800588539679357,-1.636936844240481,1.4033582640781563,-7.519960868745492,-0.1378773698236473,-0.14462937695791583,0.15733568980360724,3344830000000000.0,92.2281806026052,102.38703331723447,-4.032502933012024,-4.127361781166333,15.36930874769539,13.998464298897797,0.027416882002004008,0.7440405871743488,-0.1,66.16992342126251,502.2254492202405,11.737756445470941,95436.31103266533,1.133941301238477,0.21475337902404912,0.20179893215230355,-0.13461195908216522,-0.14192221311222444,-0.13145175215831661,0.17072434981362725,-0.06945537973346694,-0.30742542223046093,-0.6109576916072145,0.9402898360621242,-0.07874205531462926,-0.13561266178156312,-0.30209491654108217,0.0,398679467.30701405,327337567.7422846,503304.7705693387,13.547650121422846,10.937069466653307,-7.9593995073567125,3.719420345312625,5.653923489052104,0.0,0.0,0.0,39.8714138,32.7364372,-384.65728544549097,-229.43023798216436,-102.96791388537073,11.014758629519038,-7.912425869509018,3.8495595698456913,1.7686173752825651,1.4589598072284569,1.497534391426854,-0.5154251223206413,103.09405164088176,-0.1107253550240481,-0.0170495475531062,0.02478838158717435,0.0,58999023.042084165,0.0,0.0,1.0,0.0,0.0
59021784.0,-0.048146613024048095,-0.014771557272545092,0.04973921071142284,0.0,0.0,1519.8617234468938,1500.0,1000.0,1522.0289314028055,1476.9710685971945,1494.5241748096194,13.825926427254508,14.166395930100201,13.665728893126253,13.579550553206413,13.914044725551102,13.176839957114229,13.501416014669338,132.26778678757515,132.26778678757515,11.758487173086172,-0.0014165377114228458,-0.005755765412825652,0.00019087456913827655,-0.1833340491262525,0.1741870242324649,-0.00899963415230461,2.0,1.355030524941884,2.355030524941884,11.0,0.0,0.0,1.0,0.0,0.0,0.0,0.0,0.0,0.0,0.0,-0.05514192508617235,-0.3147788301503006,-0.6101507659659319,-0.5982343246813627,0.6135502207494989,175.99905386533067,39.83108260450902,-0.021400164210420843,0.045320448046092185,0.033194877084168344,0.0,-1.5704026515911824,1.4656294033346695,-7.725357133791583,3344830000000000.0,954.3966732,11.739679498236473,-0.13158910473547092,-0.031199894300601203,0.1710564866713427,-1.6407278524448898,1.3824460860541083,-7.7094584745090184,-0.13764803514228457,-0.1441699388997996,0.16024369246893788,3344830000000000.0,92.12035052252504,102.28939402685371,-4.053755295837675,-4.1737364762805615,15.36926254723447,14.030213205511023,0.026780978923847697,0.7771396106192385,-0.1,65.87805042082164,502.1609978707415,11.738351452324649,95437.05604751503,1.1339501960781564,0.449467103849699,-0.08404821055911804,-0.4070460669699397,-0.13944797921242486,-0.1245397073527054,0.16980362431863727,-0.07202397529058116,-0.3093573991803607,-0.6103807506132265,0.9401239145791583,-0.08019216474549098,-0.13615894028657316,-0.3019859044529058,0.0,398679489.94068134,327337545.8114228,503219.05878216436,13.55879599763527,10.979423795971943,-7.914816001468937,3.75062879947495,5.658397778102205,0.0,0.0,0.0,39.8714138,32.7364372,-384.3951522238477,-229.61592297655312,-102.8766769751503,11.056919735210421,-7.877209625014028,3.885482137366733,1.7244307534388779,1.43822396752505,1.5722872980140281,-0.511918015997996,103.00281335711422,-0.10957414301803607,-0.012515724080160322,0.02455072510821643,0.0,59021784.03406814,0.0,0.0,1.0,0.0,0.0
59044074.0,-0.047859859388777556,-0.015730634739478958,0.04804750233466934,0.0,0.0,1519.2645290581163,1500.0,1000.0,1521.3158580120241,1477.6841419879759,1497.6260257555111,13.912891193947896,14.255477243286572,13.696886620541083,13.61109939517034,13.946296728076153,13.207456853346693,13.53271527715431,132.80069063246495,132.80069063246495,11.759166583226452,-0.0014168733346693388,-0.005756121340681363,0.00019132186773547095,-0.18338743054108217,0.1741736584248497,-0.008984639795591182,2.0,1.3565835408937876,2.3565835408937876,11.0,0.0,0.0,1.0,0.0,0.0,0.0,0.0,0.0,0.0,0.0,-0.05875097322645291,-0.3132500519298597,-0.6102363522825651,-0.5982635143486974,0.6176890077835672,175.68438342284566,39.88244771789579,-0.021394567901803607,0.045310216911823645,0.032918061360721444,0.0,-1.5971479813907816,1.4842253605771543,-7.633801279963927,3344830000000000.0,954.4107686000002,11.740268278156313,-0.1338467127234469,-0.018487137859719418,0.16267282102004008,-1.6362641641923847,1.4308028183747497,-8.012602595895792,-0.13799002746693387,-0.14192940171342686,0.16387241458116233,3344830000000000.0,92.01340507082165,102.1918216008016,-4.0726482748757515,-4.220091457202405,15.369214855290581,14.062287530761525,0.026138538102204407,0.809904350511022,-0.1,65.5886843049499,502.0525110603207,11.738941934248496,95438.28487649298,1.1339646947635271,-0.24579695592986106,0.4111319994609227,-0.04011831701402735,-0.1398711487675351,-0.11397556136873746,0.1704041086513026,-0.07467518753106213,-0.31136235691583164,-0.6098924349138276,0.9399315731963928,-0.08169674405210421,-0.1367242647995992,-0.30192553765531066,0.0,398679512.5743487,327337523.83466935,503133.34699498996,13.569941878436873,11.02177812987976,-7.8702324955811624,3.781837253178357,5.662872067152305,0.0,0.0,0.0,39.8714138,32.7364372,-384.13301900220443,-229.8016079709419,-102.78544006492986,11.099080840901804,-7.84199338006012,3.921404704428858,1.6802441315951904,1.4174881278216431,1.6470402050601205,-0.5084109101342685,102.9115750733467,-0.10948155579158317,-0.01403029862925852,0.021861521749498992,0.0,59044073.71743487,0.0,0.0,1.0,0.0,0.0
59068377.0,-0.04943739021042085,-0.015796028751503002,0.04544384384969939,0.0,0.0,1519.0,1500.0,1000.0,1521.6653306613227,1477.3346693386773,1501.269164777555,13.946845943126252,14.290205529098197,13.728044344629259,13.642648240460922,13.978548733927855,13.238073746252505,13.564014536312627,133.3335944440882,133.3335944440882,11.75984599004008,-0.001417208625250501,-0.005756477268537075,0.00019176916633266533,-0.18344081195591183,0.17416029261723448,-0.008969645106212426,2.0,1.3581365568456916,2.358136556845692,11.0,0.0,0.0,1.0,0.0,0.0,0.0,0.0,0.0,0.0,0.0,-0.06236002136673347,-0.3117212733767535,-0.610321938266533,-0.5982927040160321,0.6218277948176353,175.36971298036067,39.933812831282566,-0.02138811963727455,0.04528965552104208,0.03265225353306613,0.0,-1.620740821490982,1.5013819990180362,-7.553831456348696,3280056733466933.5,954.424688751904,11.740860005490982,-0.13640732526853708,-0.013435320008016036,0.15811288819038075,-1.5954898272224447,1.4739603921062125,-8.25845506509419,-0.1382551980521042,-0.13880993278356712,0.16703013913827655,3280056733466933.5,91.91397275583167,102.09481680160322,-4.071503061913828,-4.266279005002004,15.369154532044087,14.097125656212425,0.02544056878356713,0.8398300226753507,-0.1,65.32060905633267,501.97666114729464,11.739544322264528,95439.14573436874,1.1339749100501002,-0.36881749275550996,0.582747984839679,0.13730865093386782,-0.13959811665130262,-0.10252797170140276,0.1690959486032064,-0.07836943831663327,-0.3108613743266533,-0.610401500773547,0.9397391103907816,-0.08339516046092185,-0.13590637551703405,-0.30241638167535073,0.0,398679535.20801604,327337502.58977956,503046.1034503006,13.581988793266532,11.062780951002004,-7.8333078118657316,3.818902453679359,5.666835224571143,0.0,0.0,0.0,39.8714138,32.7364372,-383.86889580981966,-229.9856917472946,-102.6919403983968,11.13949420278557,-7.80812633553507,3.963122985843688,1.652250811747495,1.4006316778456913,1.7513631728076158,-0.5048232842905812,102.81807529739478,-0.11194301196392786,-0.014860393635270542,0.01945526988176352,0.0,59068377.0240481,0.0,0.0,1.0,0.0,0.0
59094282.0,-0.05249736409418838,-0.01515078290781563,0.04211502021843687,0.0,0.0,1519.0,1500.0,1000.0,1522.8597194388778,1476.1402805611222,1505.3427256432865,13.938648148256513,14.28171333531062,13.759202066072145,13.674197088396793,14.01080074242485,13.268690636513025,13.595313792825651,133.86649822925853,133.86649822925853,11.760525394208416,-0.001417543651302605,-0.005756833196392785,0.00019221646492985974,-0.1834941933707415,0.17414692680961924,-0.00895465015230461,2.0,1.3596895727975953,2.3596895727975955,11.0,0.0,0.0,1.0,0.0,0.0,0.0,0.0,0.0,0.0,0.0,-0.06596906950701402,-0.31019249455911824,-0.610407523985972,-0.5983218936833667,0.6259665818517035,175.0550425378757,39.98517794466934,-0.021380993913827657,0.04526087970941884,0.03239519897194389,0.0,-1.6418268625531063,1.5173941188937876,-7.483074620613227,3163777014028056.0,954.4384695498999,11.741454076553106,-0.1392088811963928,-0.01447533284168337,0.15659351398997995,-1.5258419623567134,1.5129836951523046,-8.45875031688978,-0.1384592814709419,-0.1349915542745491,0.1698133355190381,3163777014028056.0,91.82051474232466,101.99826336833668,-4.054423864951904,-4.312333413210421,15.369084164629259,14.13416150230461,0.0246984442745491,0.8674981229118237,-0.1,65.06946389492987,501.92676346593186,11.740156177775551,95439.71398871743,1.133981719260521,-0.03680101132865676,0.4970719361663325,0.16404825005611226,-0.13877147838677356,-0.09037788464729457,0.16627007133667335,-0.082893093246493,-0.30836771629859716,-0.6117036652224449,0.9395465510320641,-0.08524771239679359,-0.13398858128857713,-0.30334553791182367,0.0,398679557.8416834,327337481.9268537,502957.6418815631,13.594752192985972,11.10270907521042,-7.802473275901804,3.8606248263326655,5.67039193996994,0.0,0.0,0.0,39.8714138,32.7364372,-383.6031902310621,-230.16850226593186,-102.59664143166333,11.17851779248497,-7.775332149182363,4.009449907587175,1.6371340934869738,1.386860043797595,1.8791996827995996,-0.5011716305110221,102.7227772264529,-0.11643539421242485,-0.015146203703406814,0.017274015585170336,0.0,59094281.5250501,0.0,0.0,1.0,0.0,0.0
59115429.0,-0.049733184004008,-0.013211611849699392,0.04127179114028056,0.0,0.0,1518.9097504168337,1500.0,1000.0,1522.2021966152304,1476.7978033847696,1506.7890292985971,13.92729384741483,14.27003784012024,13.790359792785571,13.705745936332665,14.043052745651304,13.299307526773546,13.626613054609217,134.39940206713428,134.39940206713428,11.761204803647294,-0.0014178786773547095,-0.005757189651302605,0.0001926632364729459,-0.18354757531262528,0.17413356100200403,-0.008939655198396793,2.0,1.361242588749499,2.361242588749499,11.0,0.0,0.0,1.0,0.0,0.0,0.0,0.0,0.0,0.0,0.0,-0.06934372350901803,-0.3087092168496994,-0.6105847248857715,-0.598376440977956,0.6342278443426854,174.73631688837673,40.04860967725451,-0.021375615901803608,0.04524309771943888,0.03215832478557114,0.0,-1.6352966755791583,1.5207976139919839,-7.513812953420842,2480081382765529.0,954.4507151446894,11.742073931102205,-0.13905283030460922,-0.0244690757915832,0.15500293214428856,-1.55997798848497,1.5105390608637275,-8.556503850935872,-0.1379904000681363,-0.12347361780761519,0.1684705304509018,2480081382765529.0,91.72705672881764,101.90170993507014,-4.037344667462926,-4.358387821945892,15.369013791943889,14.171197348396793,0.02395632029258517,0.8951662236753508,-0.1,64.81831873352706,501.7547917783567,11.740775928557113,95441.67990096193,1.1340050426573145,0.13202111610020084,0.6132497414949903,0.046590436865731055,-0.1343403560781563,-0.07665678422244485,0.16451139378356713,-0.08758646118036073,-0.2986260096472945,-0.6132643897675351,0.9398653163787575,-0.08613111565731464,-0.12861242929458916,-0.30440145487775555,0.0,398679580.4753507,327337461.68557113,502868.2626062124,13.608055406793587,11.141827507274549,-7.776227137024048,3.9058559726392788,5.67364243640481,0.0,0.0,0.0,39.8714138,32.7364372,-383.3368513967936,-230.3508031759519,-102.50062224549099,11.216985129278557,-7.742967370677354,4.05762142383968,1.6271711954328656,1.374323097771543,2.016447416941884,-0.49749434977955914,102.62675935771543,-0.11535952623046092,-0.003425948873747456,0.014902595949899792,0.0,59115428.83567134,0.0,0.0,1.0,0.0,0.0
59136440.0,-0.0466854892264529,-0.01047986621442885,0.04074217110420841,0.0,0.0,1518.8500415671344,1500.0,1000.0,1521.321957985972,1477.678042014028,1507.8243316312626,13.925346886773546,14.267989049579159,13.8215175202004,13.737294784268537,14.075304749418839,13.329924418276553,13.657912315851704,134.9323058995992,134.9323058995992,11.761884213787575,-0.0014182138276553108,-0.005757546052104208,0.0001931100621242485,-0.18360095720040084,0.1741201953186373,-0.008924660244488977,2.0,1.3627956048256513,2.362795604825651,11.0,0.0,0.0,1.0,0.0,0.0,0.0,0.0,0.0,0.0,0.0,-0.0725980119739479,-0.30724930484569135,-0.6108089716112225,-0.5984440098877756,0.6446060711523046,174.41550881623246,40.118237830480965,-0.021370089404809618,0.04522704244088177,0.0319289059759519,0.0,-1.6250913250541081,1.5225231553466934,-7.558058247945892,1720874501002003.0,954.462756422445,11.742697216913827,-0.13921885003206413,-0.03720143074549101,0.15315767691783566,-1.5992270918637275,1.4986099829358717,-8.622688697825652,-0.13743196073346695,-0.11093102521442884,0.16657863773747494,1720874501002003.0,91.63359871406813,101.80515648937875,-4.020265469903808,-4.4044422306272555,15.368943418557114,14.208233194488978,0.023214196380761522,0.9228343243847695,-0.1,64.56717357212425,501.60047637394797,11.741400923426854,95443.44695731462,1.1340260052064128,0.2995671640480965,0.7393896002965932,-0.06762424091783573,-0.13101486025851705,-0.0623620780541082,0.1627714500801603,-0.09179845762124249,-0.28793033876953905,-0.6144336675671342,0.9403286146232465,-0.08662294121242486,-0.12287433243687373,-0.30523332007615234,0.0,398679603.109018,327337441.5004008,502778.7612026052,13.621430458977956,11.180838185631263,-7.750591621332665,3.9515540661342685,5.676852181266534,0.0,0.0,0.0,39.8714138,32.7364372,-383.07112632945893,-230.53231855831663,-102.40461286112225,11.255236594208418,-7.710866992024049,4.106149940793587,1.6188212229198395,1.3608602539759518,2.149120382476954,-0.4938138008817635,102.53075123507014,-0.11414799789378757,0.008507948084168345,0.012561946214428856,0.0,59136440.05410822,0.0,0.0,1.0,0.0,0.0
