timestamp,gyro_rad[0],gyro_rad[1],gyro_rad[2],accelerometer_m_s2[0],accelerometer_m_s2[1],accelerometer_m_s2[2]
13000000,-0.002837121,-0.010165151,-0.005074026,-0.16613898,0.09887949,-9.86392
13003999,-0.003153412,-0.004578509,0.001230893,-0.14990899,0.09326654,-9.807757
13008000,-0.004101894,-0.005527475,0.004845536,-0.15097328,0.12857257,-9.931711
13012000,-0.001981652,-0.00656583,-0.003057035,-0.1722404,0.22733973,-9.991962
13015999,-0.001860229,-0.006269119,-0.001521527,-0.18890795,0.167675,-9.955172
13020000,-0.008410401,-0.007246258,0.000514667,-0.15210679,0.06574683,-9.892887
13028000,-0.004098061,-0.002824318,0.004610238,-0.18577743,0.18893479,-9.900038
13032000,-0.005922776,-0.003928076,0.000660074,-0.23838948,0.17743017,-9.9826765
13035999,-0.003984021,-0.013624455,0.00355301,-0.14813828,0.25854036,-9.900606
13040000,-0.002291291,-0.010032571,-0.000714241,-0.10251245,0.20623854,-9.8265915
13044000,-0.003207528,-0.000822836,-0.002316691,-0.111531,0.18950185,-9.846419
13052000,-0.001702832,-0.006184775,-0.003562104,-0.20468482,0.19214688,-9.977047
13060000,-0.001345848,0.001133437,-0.000250283,-0.1751215,0.15068533,-9.916301
13064000,-0.002294394,0.005577391,0.000895976,-0.115323775,0.15089288,-9.950268
13067999,-0.006340064,0.002509018,-0.000920933,-0.112517565,0.16833279,-9.969863
13072000,-0.000311432,-0.003676551,0.000205893,-0.079802595,0.23661058,-9.930004
13076000,-0.00245931,-0.003508201,0.005022205,-0.17308828,0.23315085,-9.906475
13084000,0.002637622,-0.012819408,0.003860463,-0.15329368,0.21118017,-9.888028
13092000,0.003062775,6.24E-05,-0.005333222,-0.15876266,0.26593825,-9.9216175
13096000,1.89E-05,-0.007593358,-0.00960981,-0.13311459,0.1969404,-9.926241
13099999,-0.001568435,-0.010833876,-0.001194466,-0.17848794,0.16445419,-9.90889
13104000,0.002241399,-0.006197013,0.002448219,-0.14387476,0.20872647,-9.929503
13108000,0.003045837,-0.006896575,0.002700058,-0.15786324,0.16547026,-9.922072
13112000,-0.001687169,-0.011568637,-0.00104083,-0.20364003,0.11295488,-9.880752
13116000,-0.004124894,-0.010171522,-0.002007165,-0.20043795,0.12119513,-9.898617
13124000,-0.005292283,-0.006129846,0.005924668,-0.11684178,0.21481356,-9.849529
13128000,-0.003576171,-0.00475458,0.004044257,-0.095447,0.19737966,-9.830211
13131999,0.002876777,-0.004441977,0.001907002,-0.17268392,0.14178458,-9.836448
13136000,0.000509417,-0.012727644,0.00084682,-0.19182514,0.16648412,-9.903611
13144000,0.001781617,-0.002014002,-0.001309048,-0.15718046,0.20862257,-9.908945
13148000,-0.001433597,-0.001736673,-0.004256912,-0.1487893,0.23852931,-9.947573
13152000,-0.004987666,-0.007213024,-0.004103411,-0.23120677,0.20328295,-9.970195
13156000,-0.001789811,-0.011153206,-0.000768759,-0.18478695,0.1395006,-9.967789
13160000,0.005106777,-0.010777984,0.00074315,-0.07724281,0.19709167,-9.89329
13168000,0.000347923,-0.008468276,-0.001695892,-0.18453364,0.22489718,-9.933698
13172000,-0.0021357,-0.007750514,0.001928972,-0.13253301,0.17247173,-9.954541
13176000,-0.002361726,-0.010118702,0.002948633,-0.11906663,0.15095025,-9.932918
13180000,-0.002857459,-0.007964277,-0.000130226,-0.14935616,0.18406376,-9.889431
13183999,0.003774279,-0.006082521,-0.001431521,-0.17516094,0.1810518,-9.860105
13188000,0.006832381,-0.001222943,-0.001177424,-0.18573186,0.1533761,-9.901824
13192000,0.002485471,-0.001556981,-0.003068803,-0.18002813,0.17779808,-9.985744
13195999,-0.003319281,-0.003313147,-0.002916558,-0.22839765,0.19235694,-9.942604
13200000,-0.008307473,-0.008214695,-0.000872215,-0.20349348,0.19996461,-9.880426
13204000,-0.003381214,-0.007015113,0.001417128,-0.15886675,0.24829791,-9.948595
13212000,0.002369306,-0.006509543,0.000141122,-0.167936,0.17823349,-9.893008
13220000,-0.004476549,-0.008720057,-0.000604355,-0.1792634,0.11147791,-10.006022
13224000,-0.008142554,-0.006165135,-0.003515246,-0.14150585,0.10491352,-9.969537
13227999,-0.002257688,-0.004262198,0.003382522,-0.07757508,0.12975812,-9.924974
13232000,-0.002652852,-0.008084082,0.002175065,-0.09531573,0.19069088,-9.940583
13236000,-0.009875783,-0.011666528,-0.000310363,-0.20258711,0.24944477,-9.919124
13240000,-0.005764236,-0.010515401,0.004224482,-0.19455881,0.22907098,-9.910753
13244000,-0.001590965,-0.005866604,0.000242808,-0.18737993,0.14317836,-9.904592
13247999,-0.005273652,-0.006127046,-0.000787356,-0.21872933,0.10831164,-9.847238
13252000,-0.002509208,-0.010605511,0.002069975,-0.24639429,0.09849913,-9.858729
13256000,-0.002091265,-0.013440312,-0.000971576,-0.16593292,0.09922697,-9.901531
13259999,-0.00719005,-0.012734604,-0.002000619,-0.10667671,0.16757157,-9.932293
13268000,-0.004186461,-0.009110613,0.001464899,-0.15581264,0.24920641,-9.924893
13272000,0.000376118,-0.006626213,-0.000413214,-0.15871425,0.25827304,-9.992746
13279999,-0.000401186,-0.006330715,0.003384163,7.897743,0.14596401,-9.933982
13284000,-0.000113066,-0.007691344,0.00585645,18.387678,0.12477904,-9.8590355
13288000,-0.004548735,-0.001943657,-0.004959267,27.499908,0.18642361,-9.845754
13291999,-0.003071962,-0.001067831,-0.010030381,34.841587,0.14990412,-9.910909
13296000,-0.000286252,-0.003551769,-0.00338076,40.469982,0.14466928,-9.899253
13300000,-0.004601172,-0.008466895,-0.001168869,44.71264,0.2254857,-9.892135
13304000,-0.004501254,-0.006493547,-0.000138533,47.73249,0.24182995,-9.902405
13311999,-0.00244177,-0.004956347,0.002846465,51.02372,0.14891224,-9.813936
13316000,-0.001683639,-0.006334246,0.003300679,51.82768,0.18452111,-9.859154
13320000,0.000387831,-0.007452632,-0.004652597,52.320957,0.22342147,-9.842692
13328000,-0.004444446,-0.013912088,0.000528424,52.4666,0.21955144,-9.780909
13332000,-0.002279574,-0.01717314,-0.002437872,52.122604,0.2178272,-9.839657
13340000,-0.002850262,-0.001672503,-0.006433053,51.495842,0.15702483,-9.85952
13343999,0.000652899,-0.005080725,-0.001334311,51.178688,0.15423179,-9.874166
13348000,-0.005900977,-0.00614604,0.003847061,50.682476,0.095246494,-9.873577
13352000,-0.006590418,-0.008561201,0.000924603,50.035206,0.07993336,-9.804666
13355999,-0.00171915,-0.003984663,0.001028209,49.49067,0.15743944,-9.771984
13360000,-0.002336552,-0.00253078,0.003330779,49.106087,0.14881705,-9.800989
13368000,-0.00575753,-0.002943059,-0.001217869,48.20918,0.15553683,-9.832336
13372000,-0.005225532,-0.002465649,0.004688975,47.668022,0.13020398,-9.78278
13375999,0.000465158,-0.001466615,0.006726532,47.106487,0.16529928,-9.752945
13384000,-0.005314588,-0.005279794,-0.001760133,46.26975,0.19255002,-9.905805
13388000,-0.00300077,-0.012982219,0.000411798,45.86959,0.18285234,-9.824354
13396000,0.000269323,-0.004889323,0.002209603,44.79271,0.2131824,-9.829035
13404000,-0.000388998,-0.008339456,-0.002510067,44.181114,0.15472892,-9.784611
13412000,-0.007001083,-0.005635551,0.001445035,43.31721,0.21353664,-9.847127
13416000,-0.006019549,-0.008015084,0.002580531,42.747074,0.26081324,-9.871868
13420000,-0.003313519,-0.007636729,0.008569755,42.33499,0.2020628,-9.815055
13424000,0.002839064,-0.000479358,0.003391075,42.096878,0.15519997,-9.850723
13432000,-0.005673278,-0.005619697,-0.00256716,41.22145,0.22053008,-9.886969
13436000,-0.006026502,-0.00788071,-0.003182259,40.679955,0.19590463,-9.886814
13440000,-0.011478885,-0.008862383,0.000122617,40.28031,0.21337979,-9.843238
13444000,-0.013090802,-0.007477304,0.002627222,40.0852,0.17941783,-9.846231
13448000,-0.001995488,-0.009423832,0.000557377,39.741356,0.12536432,-9.886481
13452000,0.002066112,-0.006622085,-0.000567224,39.206394,0.15059066,-9.884729
13456000,-0.0020654,-0.004188456,0.001617029,38.752213,0.1508726,-9.885729
13460000,-0.002624199,-0.009361287,0.001631653,38.323116,0.21551003,-9.828568
13464000,0.003285982,-0.006518968,0.002743848,37.993805,0.20537418,-9.787931
13468000,0.003086428,-0.002784179,0.004749257,37.75084,0.15340917,-9.84203
13472000,0.000190416,-0.004300387,0.004926622,37.358135,0.2006723,-9.800168
13476000,0.003053243,-0.005151085,0.005876696,36.82708,0.21763207,-9.797794
13480000,-0.002063037,-0.004617568,0.006190342,36.383904,0.26763013,-9.900346
13484000,-0.012536547,-0.00682978,0.001995269,36.09901,0.24062411,-9.948512
13492000,-0.00139469,-0.009532714,0.001253283,35.442764,0.23446952,-9.904297
13496000,-0.004126398,-0.006065252,-0.000642625,34.975136,0.24443687,-9.843195
13500000,-0.002329235,-0.000865356,0.000638731,34.447426,0.20986135,-9.860095
13504000,-0.003550078,-0.002764938,-0.00027732,34.248386,0.19638614,-9.887385
13508000,0.000331473,-0.007117958,0.001806015,34.060223,0.24248208,-9.871575
13512000,0.003299714,-0.005696408,-0.001132568,33.76074,0.14996943,-9.912421
13516000,-0.00226512,-0.003142619,-0.000173994,33.27313,0.07707286,-9.920442
13524000,-0.001334986,-0.000279835,0.004672207,32.681812,0.16636507,-9.842075
13528000,-0.003009846,-0.002947755,0.00801756,32.403423,0.20678574,-9.854339
13536000,-0.001420953,-0.012506301,-0.001661685,31.785507,0.23558617,-9.750335
13540000,-0.001503076,-0.011618242,0.002436433,31.498592,0.18439914,-9.8610735
13548000,-0.004145119,-0.006950982,-0.002038835,31.0092,0.24529646,-9.964708
13552000,-0.006291733,-0.010894015,0.000556383,30.801237,0.20499258,-9.942748
13556000,-0.005941156,-0.008231419,-0.002103922,30.466476,0.14916931,-9.855982
13564000,-3.33E-07,-0.005331063,0.002621231,29.76338,0.15324809,-9.93755
13568000,-0.00092758,-0.003583689,0.000659914,29.675585,0.2184377,-9.878058
13576000,-0.002737052,-0.004486817,-0.004650082,29.073692,0.07828232,-9.840984
13580000,-0.003574095,-0.005781362,-0.001968536,28.73361,0.17106727,-9.846487
13584000,-0.003410269,-0.005317991,-2.13E-06,28.43382,0.18796091,-9.826092
13588000,-0.002158662,-0.006124745,0.004802772,28.293211,0.15440434,-9.841209
13596000,-0.004456153,-0.002356602,-0.002719912,27.867178,0.12470822,-9.937768
13600000,0.001272971,-0.013119952,-0.002451573,27.500349,0.14590879,-9.966318
13604000,0.004363395,-0.014157458,-0.001104622,27.226557,0.16320181,-9.913243
13608000,-0.004446499,-0.004383215,0.001829253,27.092546,0.20002915,-9.827508
13612000,-0.004916297,0.006411066,0.004329443,26.853361,0.2410889,-9.814484
13616000,0.000677538,-0.001856859,0.00613052,26.552086,0.14724535,-9.850192
13620000,0.003053009,-0.011096641,0.005807074,26.247572,0.1580287,-9.888532
13624000,-0.001850492,-0.006218651,0.001172835,25.975061,0.23133399,-9.900799
13628000,-0.0039894,-0.002976415,-0.001808729,25.817993,0.17979275,-9.849477
13632000,0.001302914,-0.009307339,-0.003408887,25.602652,0.17514335,-9.812299
13640000,0.002614789,-0.009148809,-0.001649492,25.02848,0.044993434,-9.885764
13644000,-0.002013917,-0.001186478,0.003277538,24.823343,0.06573119,-9.894183
13652000,-0.004505826,-0.006673789,0.009062224,24.364372,0.21747464,-9.916222
13656000,-0.003201391,-0.009250164,0.006786072,24.184145,0.24988887,-9.958951
13660000,-0.002999829,-0.007391781,0.006322322,23.908575,0.20154472,-9.945249
13664000,0.000911501,-0.001118897,0.010719262,23.646961,0.13152581,-9.949213
13672000,-0.003173611,-0.006789294,0.00965606,23.226583,0.18230152,-9.855066
13676000,-0.002860489,-0.003878446,0.009658361,23.089588,0.111744486,-9.883204
13680000,0.000432335,-0.006266378,0.017032921,22.904829,0.03972985,-9.882844
13688000,-0.001706751,0.001237048,0.021010134,22.447002,0.1307482,-9.950065
13692000,0.000927447,-0.006901602,0.019243553,22.411829,0.087985605,-9.923309
13696000,-4.65E-05,-0.009929621,0.020675775,22.287888,0.08107241,-9.8705015
13700000,-0.001752075,-0.008351382,0.025088783,22.287888,0.08107241,-9.8705015
13704000,-0.002516282,-0.006844512,0.025009176,21.740873,-0.012541375,-9.899468
13712000,-0.002165315,-0.002720151,0.027492542,21.519619,0.09428439,-9.931218
13716000,0.002006052,-0.003144908,0.03439926,21.371254,0.045851666,-9.951436
13720000,0.006290366,-0.004660462,0.038733598,21.57352,-0.47205794,-10.033949
13724000,0.012489236,-0.005796999,0.05527305,21.768951,-0.8768653,-10.113523
13728000,0.014297904,-0.005796887,0.07881935,21.505793,-0.7948707,-10.149836
13732000,0.011453786,-0.011541244,0.09684363,21.408646,-0.7609478,-10.219157
13736000,0.018605016,-0.012667404,0.109429196,21.303976,-0.7604643,-10.240149
13740000,0.02804239,-0.006747518,0.12553644,21.019924,-0.7749052,-10.300848
13744000,0.03148233,-0.007789323,0.1470062,20.756214,-0.72724026,-10.315753
13752000,0.046172176,-0.007303086,0.17472975,20.330307,-0.65215296,-10.279518
13760000,0.05764804,-0.015808247,0.20054445,19.93304,-0.5444255,-10.469483
13768000,0.07432134,-0.020991148,0.22092152,19.636019,-0.4893379,-10.449507
13772000,0.0819722,-0.02657872,0.2345508,19.514807,-0.46206477,-10.332391
13776000,0.087157875,-0.026075102,0.25053632,19.426594,-0.4181844,-10.288684
13780000,0.08975105,-0.032455545,0.25783572,19.17953,-0.4079626,-10.416907
13784000,0.090928115,-0.029321946,0.2641535,18.950777,-0.4111967,-10.441827
13792000,0.10704582,-0.03673091,0.288845,18.6813,-0.2919312,-10.391073
13796000,0.11206695,-0.03913812,0.29153728,18.672256,-0.22119506,-10.359563
13800000,0.12238415,-0.036718424,0.29362348,18.39425,-0.27479446,-10.420854
13804000,0.13413183,-0.030020991,0.29369414,18.131506,-0.22238755,-10.318479
13808000,0.1446084,-0.029325495,0.2987616,18.057415,-0.16582578,-10.192348
13812000,0.15156375,-0.028211208,0.2992847,17.89172,-0.13027377,-10.23176
13816000,0.15359557,-0.02338802,0.30541143,17.661459,-0.1351549,-10.253585
13820000,0.15646924,-0.021975659,0.30639428,17.562284,-0.2152109,-10.261038
13828000,0.17618567,-0.0341039,0.3074958,17.265312,-0.000329066,-10.234445
13832000,0.18738583,-0.023700822,0.30560076,17.133465,0.052320514,-10.248253
13836000,0.19192268,-0.021120299,0.3010701,17.052467,0.08139264,-10.299301
13840000,0.1999347,-0.019660775,0.28901446,17.016079,0.12136439,-10.326851
13848000,0.21289213,-0.006186625,0.27736548,16.762497,0.11614147,-10.261366
13856000,0.23114616,-0.005412085,0.264171,16.49252,0.180237,-10.300548
13860000,0.23797032,-0.004394512,0.26128164,16.433466,0.28821063,-10.313549
13864000,0.245006,0.001607552,0.25390467,16.258547,0.30976775,-10.364037
13868000,0.25447482,0.002989678,0.24079522,16.048058,0.1881211,-10.372405
13872000,0.25991565,-0.002319729,0.23455882,15.864462,0.1704645,-10.285951
13880000,0.27350336,0.001625768,0.21352585,15.736803,0.33944115,-10.337696
13884000,0.28159663,0.001242277,0.20315482,15.47419,0.32197985,-10.43058
13888000,0.28722143,0.00248406,0.18968558,15.277934,0.37134954,-10.383571
13892000,0.29021192,-0.00343339,0.17878368,15.149296,0.43119904,-10.296569
13896000,0.30092874,-0.009462354,0.16842088,15.059281,0.56234145,-10.320838
13900000,0.3121667,-0.007623248,0.15422803,14.987189,0.713599,-10.264435
13904000,0.3132417,-0.006146842,0.13901457,14.774736,0.6726488,-10.1869
13908000,0.3159818,-0.003989768,0.12633947,14.597677,0.600238,-10.176537
13912000,0.3200448,-0.002516619,0.11501147,14.492753,0.58364826,-10.260103
13916000,0.3249683,-0.003888538,0.10467896,14.390279,0.65050626,-10.2548
13920000,0.33326232,-0.009087438,0.09364521,14.274729,0.7801416,-10.187886
13924000,0.33788717,-0.015850293,0.0835888,14.125627,0.8697885,-10.254188
13928000,0.33431882,-0.013102089,0.07362045,13.937999,0.8652125,-10.206271
13932000,0.3357862,-0.014265456,0.06028681,13.800707,0.8362205,-10.174347
13936000,0.34435114,-0.017077183,0.05013284,13.706962,0.86635756,-10.239071
13940000,0.34436023,-0.01250267,0.04041478,13.623868,0.95761126,-10.219712
13944000,0.34883496,-0.010295403,0.03160563,13.453531,1.0192873,-10.243709
13952000,0.35480568,-0.018586662,-0.006884987,13.205247,0.8772863,-10.391284
13956000,0.35991302,-0.015280695,-0.01417943,13.131435,0.92434645,-10.420812
13960000,0.36738652,-0.019609923,-0.018976191,12.9104185,0.94239837,-10.365355
13964000,0.36467004,-0.025873959,-0.030008884,12.733715,0.87243015,-10.293326
13968000,0.3630542,-0.029770976,-0.038492825,12.54729,0.8282309,-10.220945
13972000,0.35908136,-0.031067451,-0.05193364,12.379823,0.797735,-10.224875
13976000,0.3621383,-0.028329557,-0.0619669,12.284028,0.8144583,-10.339282
13980000,0.36126083,-0.031598885,-0.064623654,12.147703,0.84540844,-10.378245
13988000,0.36277035,-0.04158179,-0.09253233,11.879922,0.7465231,-10.271013
13992000,0.3573329,-0.038093373,-0.09901455,11.762175,0.74043053,-10.220995
13996000,0.35407233,-0.03833006,-0.11369115,11.562925,0.7473638,-10.188268
14000000,0.35552976,-0.03691781,-0.12353655,11.392566,0.79001844,-10.2295
14004000,0.35199258,-0.03967936,-0.13007466,11.320373,0.78189623,-10.215345
14008000,0.3521431,-0.047254603,-0.13896623,11.320373,0.78189623,-10.215345
14016000,0.35505417,-0.04426164,-0.15262252,10.930763,0.7536119,-10.035931
14020000,0.35892415,-0.04268838,-0.15571553,10.823531,0.76599646,-10.089149
14028000,0.3600528,-0.04151348,-0.16949977,10.527798,0.6173036,-10.119325
14036000,0.35390738,-0.033710964,-0.18259092,10.395341,0.6077855,-9.845244
14044000,0.3553939,-0.04447629,-0.18649821,10.032107,0.6682546,-9.891064
14048000,0.34831062,-0.040459406,-0.18979372,10.00933,0.62689936,-9.919729
14052000,0.34483823,-0.04986122,-0.19888633,9.874027,0.59164196,-9.887435
14056000,0.34596333,-0.04933628,-0.19742148,9.723565,0.5740111,-9.7813
14060000,0.34853655,-0.045027494,-0.19908662,9.679712,0.57748574,-9.785213
14064000,0.34483415,-0.046773847,-0.20138666,9.61825,0.4740297,-9.770508
14072000,0.3383752,-0.053542495,-0.21205314,9.291612,0.44410354,-9.842224
14076000,0.33970276,-0.05470047,-0.20771529,9.14539,0.37648475,-9.76466
14080000,0.33628413,-0.048713285,-0.21010791,9.126191,0.34011632,-9.702721
14084000,0.32624814,-0.049645424,-0.21594483,9.012493,0.33258846,-9.765413
14088000,0.32587773,-0.047317933,-0.21533677,8.895188,0.2897236,-9.764381
14092000,0.3301246,-0.050825555,-0.21350646,8.860909,0.27900875,-9.709355
14096000,0.3244532,-0.05765123,-0.21395841,8.737842,0.23327838,-9.721189
14100000,0.32053405,-0.053235188,-0.21625951,8.531273,0.22165622,-9.67579
14108000,0.3268944,-0.041644834,-0.22245084,8.342877,0.20017582,-9.552637
14116000,0.31382275,-0.04372691,-0.21859662,8.261759,0.12584996,-9.607093
14120000,0.30852452,-0.045499492,-0.2150161,8.192842,0.099937715,-9.550137
14124000,0.30401435,-0.046476454,-0.21388498,8.110867,0.1084846,-9.567997
14132000,0.3048402,-0.036824055,-0.20796716,7.787235,0.18341288,-9.591479
14136000,0.3056239,-0.035370205,-0.20742899,7.7726483,0.12672926,-9.575372
14140000,0.2987531,-0.03624014,-0.20453382,7.7726483,0.12672926,-9.575372
14148000,0.29199418,-0.028493976,-0.1951915,7.353695,-0.084615745,-9.688374
14152000,0.29918665,-0.032782152,-0.19831364,7.2684255,-0.14874455,-9.607473
14156000,0.29481012,-0.02799454,-0.19477095,7.3009944,-0.20777448,-9.572879
14164000,0.28321466,-0.014799581,-0.183863,7.144119,-0.20921654,-9.6515255
14168000,0.27688846,-0.010418368,-0.17116678,6.9922585,-0.22862354,-9.777671
14172000,0.283749,-0.002326352,-0.16622913,6.9498286,-0.17693801,-9.758279
14176000,0.28380296,-0.003472339,-0.16202019,6.8225293,-0.21176429,-9.688155
14180000,0.2745018,0.004323759,-0.14895016,6.6884613,-0.15650652,-9.643768
14188000,0.26830375,0.010998525,-0.14396852,6.6147056,-0.21253438,-9.679146
14192000,0.27464864,0.017941067,-0.13645142,6.4992113,-0.18846846,-9.731942
14196000,0.26986828,0.018707585,-0.13115034,6.509066,-0.14711396,-9.764788
14200000,0.26395032,0.018279346,-0.12411698,6.4546275,-0.17579062,-9.818131
14208000,0.26154438,0.03625675,-0.108133346,6.256121,-0.31937918,-9.818712
14212000,0.26183832,0.031795215,-0.10695034,6.1420355,-0.29865274,-9.904768
14216000,0.26000035,0.033201754,-0.092238076,6.122323,-0.23869967,-9.895428
14220000,0.25396132,0.0362038,-0.0795749,6.0532765,-0.23052531,-9.886007
14224000,0.25036937,0.039280757,-0.0814203,5.9334593,-0.1940686,-9.961149
14228000,0.25255147,0.04583393,-0.07987643,5.9484463,-0.22052093,-10.034439
14232000,0.24959198,0.04788729,-0.07114459,5.9565973,-0.26818478,-10.134016
14236000,0.24487047,0.055575173,-0.0639912,5.8552938,-0.28230637,-10.231139
14244000,0.23917748,0.05995901,-0.04750477,5.5842123,-0.27756006,-10.308667
14252000,0.23858978,0.044887587,0.010412932,4.4171586,-1.4127847,-11.215521
14256000,0.23339461,0.05309437,0.023288716,5.4072876,-0.2389521,-10.326795
14260000,0.2286013,0.05480754,0.02180436,5.3860793,-0.3300858,-10.436391
14264000,0.23084883,0.059692886,0.021456199,5.2925553,-0.30995306,-10.559976
14272000,0.2224058,0.06666894,0.037204627,5.1843567,-0.31376043,-10.62247
14276000,0.21922402,0.07462816,0.04527244,5.057284,-0.38512483,-10.679275
14280000,0.22160257,0.077320784,0.05334823,4.9519553,-0.3605483,-10.69398
14284000,0.22365826,0.08344122,0.055037517,4.8944435,-0.30030566,-10.759535
14288000,0.21847369,0.09534915,0.061644293,4.881549,-0.311658,-10.85022
14292000,0.21683301,0.104224965,0.066373676,4.8487473,-0.26749974,-10.972077
14296000,0.22170787,0.11097491,0.07031901,4.792449,-0.16281952,-11.079609
14304000,0.20883529,0.11257211,0.08658064,4.6997056,-0.2799751,-11.195808
14308000,0.21054287,0.122667946,0.08718692,4.615004,-0.2833862,-11.2799425
14312000,0.21181,0.12547795,0.09075631,4.55159,-0.3548975,-11.349781
14316000,0.20403706,0.13291016,0.09507503,4.549183,-0.28755185,-11.448929
14320000,0.20254071,0.14200716,0.10204112,4.3592944,-0.21957663,-11.515549
14324000,0.20467333,0.15267928,0.108388074,4.283683,-0.27855724,-11.577513
14328000,0.19646814,0.15914041,0.11803613,4.3067703,-0.2653137,-11.692897
14336000,0.20051163,0.16131248,0.120623045,4.1787634,-0.282503,-11.926919
14344000,0.19526757,0.16594471,0.13367698,4.0615788,-0.18105179,-12.0547
14348000,0.19015227,0.17332527,0.13492386,4.030372,-0.30527797,-12.154616
14356000,0.19210677,0.182457,0.14003207,3.8917243,-0.16663371,-12.464031
14360000,0.1907487,0.18704791,0.14097604,3.833626,-0.25081426,-12.519908
14364000,0.18704888,0.19392231,0.14223555,3.7808363,-0.24008897,-12.593
14368000,0.18943441,0.19560447,0.13757236,3.8394248,-0.17604364,-12.652681
14372000,0.18684009,0.19993454,0.13778463,3.841821,-0.20575368,-12.800001
14380000,0.18125716,0.20213501,0.14706253,3.5385869,-0.16287409,-13.0500765
14388000,0.17683518,0.20963396,0.15097119,3.5096114,-0.17070669,-13.1096945
14392000,0.17353033,0.21866536,0.15860504,3.490307,-0.18638861,-13.249572
14396000,0.18160121,0.21961458,0.16030723,3.4579995,-0.18548505,-13.344226
14404000,0.17171602,0.21754225,0.15028308,3.3077033,-0.13628781,-13.52204
14408000,0.16888262,0.22481778,0.15431212,3.311166,-0.13563144,-13.579381
14412000,0.16945755,0.22341818,0.15267295,3.2498348,-0.17255281,-13.699149
14416000,0.17004469,0.22516787,0.14690238,3.2066116,-0.067248896,-13.841605
14420000,0.16730535,0.2275698,0.14464672,3.2228856,-0.003049395,-13.866339
14424000,0.16997136,0.22700365,0.14790818,3.2103314,-0.06865486,-13.919845
14432000,0.15680465,0.24002892,0.14795575,3.07167,-0.106273726,-14.091478
14440000,0.1539895,0.23205239,0.1409285,2.8680904,-0.06808994,-14.1738205
14444000,0.15626907,0.2384557,0.14151613,2.8069668,-0.06439805,-14.191863
14452000,0.1490484,0.23454374,0.13884218,2.8337784,-0.0376477,-14.397023
14456000,0.15033309,0.23709771,0.13714957,2.8089235,-0.040063046,-14.495754
14464000,0.15045665,0.24354136,0.13893196,2.76727,-0.042242546,-14.527552
14472000,0.14665078,0.2388491,0.12917568,2.7079973,-0.04569574,-14.670002
14480000,0.13642013,0.23802996,0.121908225,2.585905,-0.029969703,-14.803032
14484000,0.1344716,0.23338917,0.12391015,2.5588846,-0.018195024,-14.931455
14488000,0.13100913,0.2384484,0.11973433,2.5095794,-0.014196312,-14.895808
14492000,0.1333984,0.24282354,0.116750434,2.5479174,0.001989358,-14.818648
14496000,0.13516256,0.23654121,0.11476356,2.470193,0.07372159,-14.907096
14500000,0.13295078,0.23628348,0.10813279,2.376015,0.043326847,-14.98298
14508000,0.12959465,0.23440024,0.112431236,2.4313488,-0.029444922,-14.972384
14512000,0.12908757,0.23722866,0.106881514,2.3556442,-0.026392542,-14.974278
14516000,0.124989554,0.2335518,0.10199329,2.2815466,0.01811464,-15.00589
14520000,0.12234638,0.22582732,0.09598215,2.2766294,-0.035327513,-14.973601
14524000,0.12521721,0.2215516,0.08736495,2.26727,-0.08398346,-15.036126
14528000,0.12244609,0.22979479,0.0778433,2.2830312,-0.026292544,-15.138624
14532000,0.11998288,0.22914019,0.07881098,2.311864,-0.051581793,-15.073386
14536000,0.117542624,0.21845202,0.081546865,2.276013,-0.06294628,-14.966198
14544000,0.10729552,0.21085484,0.07652983,2.1342916,0.003511256,-15.070763
14548000,0.10911415,0.21841739,0.076447755,2.1123402,-0.024638556,-15.078223
14552000,0.11252252,0.21624304,0.076857395,2.1120124,-0.021037942,-15.096593
14556000,0.10739151,0.20635805,0.06953503,2.1162686,-0.056535687,-15.035289
14560000,0.111706905,0.20848073,0.058825176,2.0811334,-0.063662305,-14.934358
14568000,0.10316089,0.21142109,0.054619994,2.0676646,-0.009844093,-15.092368
14572000,0.10590988,0.2107547,0.05322929,2.0454366,-0.026516952,-15.081759
14580000,0.1006655,0.20270541,0.054218657,1.9886044,-0.009715735,-15.0254965
14584000,0.09937879,0.20305982,0.047173087,2.0224798,0.017711986,-14.88966
14588000,0.09926581,0.19892634,0.04721311,1.9930078,0.02391038,-14.927329
14596000,0.09370703,0.19549721,0.040012192,1.9233862,-0.055711,-14.912075
14600000,0.09451158,0.19349548,0.03535652,1.8217642,-0.059355583,-14.932634
14604000,0.09293052,0.1922819,0.03399248,1.792507,-0.04845367,-14.889862
14612000,0.09799138,0.19068989,0.03604823,1.8470083,-0.06959393,-14.733485
14616000,0.091851324,0.18996757,0.03169866,1.8757461,-0.07146334,-14.689867
14624000,0.08533806,0.19159284,0.030726431,1.867618,-0.079642184,-14.709976
14632000,0.09384623,0.18895777,0.03168496,1.7976552,-0.08737506,-14.531927
14636000,0.09197868,0.18718868,0.02976655,1.769424,-0.027825024,-14.572282
14644000,0.088604815,0.18113129,0.017226242,1.7770956,-0.085317545,-14.5074625
14652000,0.081344046,0.17645611,0.021536404,1.6985464,-0.12347816,-14.498726
14656000,0.0830927,0.17342724,0.020698125,1.6733413,-0.18511099,-14.503035
14660000,0.08072761,0.17659104,0.019987857,1.7388774,-0.17847882,-14.42715
14664000,0.083185524,0.17644583,0.019099677,1.7492541,-0.2652126,-14.381574
14668000,0.08150984,0.17323935,0.017567843,1.7565911,-0.20423505,-14.364223
14672000,0.07755233,0.17208013,0.011030031,1.7363194,-0.05698184,-14.35858
14676000,0.08040014,0.16266921,0.009383854,1.6495799,-0.10561942,-14.370236
14684000,0.076031215,0.1754875,0.014137127,1.613715,-0.24758016,-14.248261
14688000,0.07116351,0.17346397,0.016140101,1.5612609,-0.26195166,-14.175401
14692000,0.06699419,0.16974397,0.013631057,1.5448499,-0.21156709,-14.179688
14696000,0.06928117,0.16560915,0.009998702,1.5546342,-0.18166016,-14.199713
14704000,0.06976748,0.16874881,0.009959629,1.5303376,-0.15945789,-14.091398
14708000,0.073062405,0.17375503,0.008147434,1.4851968,-0.2524693,-14.135887
14712000,0.07161678,0.1718994,0.013892082,1.51615,-0.192877,-14.135977
14716000,0.06974948,0.1720811,0.01593545,1.5003368,-0.16445372,-14.101222
14724000,0.066462226,0.16934147,0.016355589,1.5354909,-0.31258652,-14.087731
14728000,0.061929554,0.16569154,0.020632122,1.5039147,-0.27221712,-14.0729885
14736000,0.058009636,0.15908681,0.021460056,1.4714642,-0.24779087,-13.992647
14740000,0.052822523,0.16444856,0.028981421,1.4516251,-0.25721055,-14.003833
14744000,0.05048352,0.17239696,0.02632802,1.4529018,-0.29580817,-13.954344
14748000,0.051639803,0.16866659,0.021981789,1.3937342,-0.32243505,-13.893941
14752000,0.058033556,0.1667577,0.022201302,1.4275291,-0.29431674,-13.831795
14756000,0.06463839,0.16905554,0.019441938,1.4277066,-0.27835467,-13.824199
14760000,0.062196437,0.16482416,0.026035197,1.3889884,-0.2824744,-13.890078
14764000,0.059869405,0.16310275,0.0299894,1.3875924,-0.27664015,-13.906524
14768000,0.06337915,0.16352935,0.027125953,1.3467869,-0.27680054,-13.909468
14772000,0.064751185,0.16075309,0.03027323,1.3963844,-0.34653857,-13.791028
14776000,0.05814927,0.16330783,0.034901667,1.4809841,-0.3760902,-13.728593
14780000,0.05521569,0.1669782,0.03597771,1.4174404,-0.33111832,-13.708899
14784000,0.06026478,0.1666211,0.03400187,1.3505737,-0.3263738,-13.72558
14792000,0.05543641,0.1653054,0.042455107,1.3743095,-0.31468382,-13.722096
14796000,0.057255693,0.1642149,0.042501926,1.3258288,-0.30953872,-13.741092
14804000,0.056395713,0.16867457,0.04570921,1.2882998,-0.41225156,-13.654645
14812000,0.058373045,0.16329147,0.045095634,1.3463851,-0.42956513,-13.726594
14816000,0.054608922,0.16835792,0.048513424,1.333009,-0.4348657,-13.737056
14820000,0.050752256,0.16421439,0.04891184,1.3082956,-0.41868567,-13.753359
14824000,0.05767236,0.15878871,0.04706872,1.285467,-0.3487071,-13.770793
14828000,0.060563616,0.16421345,0.049916502,1.294682,-0.25812805,-13.722413
14836000,0.055355713,0.16412112,0.05096154,1.2997993,-0.41743615,-13.675157
14840000,0.048228048,0.17160775,0.0502086,1.3051062,-0.36401013,-13.681378
14844000,0.047432553,0.17152208,0.051270217,1.2117388,-0.36521298,-13.653759
14852000,0.05418249,0.17265484,0.05595546,1.2246196,-0.34232685,-13.745175
14856000,0.048407346,0.1692445,0.06032031,1.2450932,-0.4128696,-13.780137
14860000,0.045350794,0.16776194,0.062815525,1.2152115,-0.40625864,-13.800818
14864000,0.04613542,0.16751517,0.06539938,1.2165378,-0.34636354,-13.791899
14868000,0.04791848,0.17153691,0.06480149,1.2925833,-0.33367085,-13.691384
14872000,0.050289232,0.17351419,0.062219642,1.245851,-0.29073772,-13.66804
14876000,0.04877652,0.17656837,0.06591979,1.1767824,-0.3602597,-13.698655
14880000,0.048863802,0.17764875,0.07208068,1.2092485,-0.36233345,-13.770327
14888000,0.04370914,0.17682636,0.06562357,1.2324252,-0.31590903,-13.706067
14892000,0.042303424,0.17345873,0.0671623,1.1876584,-0.3024069,-13.800452
14896000,0.042517185,0.1724264,0.07513047,1.15853,-0.273459,-13.782441
14900000,0.040337462,0.17403974,0.07777933,1.1013393,-0.29859033,-13.714286
14908000,0.038848232,0.17343171,0.07536442,1.2345115,-0.3461577,-13.733233
14912000,0.033615757,0.17802925,0.08146807,1.1531203,-0.36676407,-13.737944
14920000,0.038022317,0.17827578,0.07860803,1.0945295,-0.3786713,-13.731163
14924000,0.03886537,0.17340125,0.08323896,1.1197422,-0.2996551,-13.699375
14928000,0.035900343,0.1711747,0.08426498,1.1328385,-0.29401326,-13.667232
14932000,0.03787681,0.17301153,0.08736362,1.0290828,-0.33014435,-13.735046
14936000,0.039759398,0.17535537,0.08747108,1.0706755,-0.30363527,-13.745804
14940000,0.041929297,0.17690314,0.088701405,1.1071382,-0.31890783,-13.748986
14944000,0.045565646,0.1748123,0.0912742,1.1204956,-0.32074684,-13.752589
14952000,0.03668411,0.17059207,0.08361351,1.0682476,-0.35114822,-13.7574625
14956000,0.031470314,0.17630927,0.08651508,1.0975858,-0.38421544,-13.743734
14960000,0.032546986,0.17751089,0.08475657,1.0489161,-0.29052785,-13.771831
14964000,0.038723867,0.18050314,0.08047193,0.9994578,-0.31223086,-13.857513
14972000,0.039402813,0.17598775,0.087606564,1.0406731,-0.35829508,-13.86163
14976000,0.02975657,0.17196973,0.095064834,1.0105767,-0.3855867,-13.807296
14980000,0.025771258,0.1780748,0.088223055,0.9937071,-0.365868,-13.830117
14984000,0.029213848,0.18511416,0.08040115,1.0196729,-0.3110523,-13.83725
14992000,0.032996733,0.17949344,0.08063031,1.1077868,-0.33199984,-13.917535
14996000,0.031010771,0.18208066,0.0793124,1.1116848,-0.3643993,-13.8422365
15000000,0.033235833,0.1859603,0.08015459,1.043828,-0.3706939,-13.842327
15004000,0.03376078,0.18508974,0.08476961,0.98510724,-0.33537173,-13.854837
15008000,0.03392418,0.18774536,0.084110744,0.984913,-0.3369745,-13.845895
15012000,0.031812824,0.19162408,0.085369706,1.014938,-0.34633532,-13.864499
15020000,0.027513873,0.19199185,0.08877376,1.0181797,-0.34181532,-13.933281
15028000,0.031821925,0.18269111,0.08434053,1.0327164,-0.32455826,-13.948706
15032000,0.028043006,0.18546657,0.084700875,1.0053966,-0.30626428,-13.97556
15036000,0.028799048,0.19011411,0.0900382,1.0310272,-0.34433964,-13.908357
15040000,0.030303568,0.18956341,0.08938842,1.0513821,-0.32362756,-13.942934
15048000,0.021845667,0.18581644,0.09112961,1.0079322,-0.2666344,-13.948576
15056000,0.028651074,0.18292484,0.07986287,1.016305,-0.3043336,-13.970033
15060000,0.03438531,0.18191661,0.086929105,0.9278949,-0.3530376,-13.956878
15064000,0.031681605,0.18915062,0.08502402,0.9658052,-0.41601408,-13.90685
15068000,0.022646295,0.1927936,0.07747833,1.0044043,-0.3879584,-13.944393
15072000,0.021841004,0.18876456,0.0817951,1.0560678,-0.28373718,-14.0311
15076000,0.020672522,0.18863937,0.08317222,1.0969286,-0.23667689,-14.016062
15084000,0.026595332,0.1906046,0.074904904,1.0209435,-0.3525461,-13.995549
15088000,0.024883194,0.18348877,0.073814996,1.0305095,-0.37915546,-14.004514
15092000,0.027338821,0.18691167,0.071444616,1.0277637,-0.38755956,-13.980508
15096000,0.029373566,0.19163625,0.07549972,0.9991608,-0.39723578,-13.938659
15100000,0.02637668,0.18907598,0.07860803,1.0094271,-0.32739106,-13.95446
15104000,0.020869497,0.19176532,0.0762399,0.959776,-0.2621233,-13.976102
15108000,0.020871965,0.18979317,0.0691968,0.9608878,-0.33678862,-13.942705
15116000,0.024149677,0.18957765,0.07159727,1.034413,-0.40373072,-13.956249
15120000,0.01976535,0.18850447,0.07153168,1.0013474,-0.4192746,-13.970461
15124000,0.014379071,0.19072862,0.06946713,0.9698368,-0.39844206,-14.033316
15128000,0.017011669,0.189927,0.06674423,1.0137918,-0.4768647,-14.042457
15132000,0.022445124,0.18603557,0.06045802,1.0796303,-0.48909387,-13.967854
15136000,0.019791653,0.1851969,0.05774312,1.1019733,-0.4187492,-13.927366
15144000,0.015526529,0.19066215,0.06583988,1.0257351,-0.3074467,-14.015157
15148000,0.01691803,0.18738309,0.06500244,1.0128813,-0.30211952,-13.956557
15152000,0.015505584,0.18813431,0.06653435,1.0469829,-0.36920753,-13.996193
15156000,0.014397284,0.18460211,0.06159232,1.0732262,-0.42480037,-14.016946
15160000,0.018413031,0.18433446,0.06233373,1.0157624,-0.4117816,-13.939071
15164000,0.019441718,0.19026445,0.061369542,0.9540899,-0.35573885,-13.947528
15168000,0.017001852,0.19125062,0.057221916,0.9485485,-0.2699723,-13.97837
15172000,0.022524532,0.18934266,0.058437,1.0533243,-0.27753708,-13.970668
15176000,0.02161206,0.18939644,0.057698548,1.0953958,-0.39165553,-14.042636
15180000,0.019933505,0.18947023,0.055004727,1.0378001,-0.4590936,-14.059342
15188000,0.008293705,0.18616232,0.063729584,0.9592696,-0.36788884,-13.961471
15192000,0.005462481,0.18461078,0.058452908,1.036439,-0.3860373,-13.96382
15196000,0.012294516,0.18801405,0.056138813,1.0993539,-0.37550935,-14.007388
15200000,0.01811448,0.19053183,0.052958075,1.0765882,-0.34932375,-14.03201
15204000,0.012431313,0.18876201,0.053081892,1.042651,-0.36732748,-14.019343
15208000,0.011607427,0.18870132,0.058441304,1.0118545,-0.42389473,-13.988705
15212000,0.014658717,0.18294734,0.055611186,1.0121666,-0.39918065,-13.951381
15220000,0.013729801,0.18536079,0.06042209,1.0153388,-0.43170682,-13.930178
15224000,0.012149661,0.17994776,0.058952004,1.0358938,-0.45107865,-13.919252
15228000,0.006871811,0.17920466,0.054491743,1.1197317,-0.35861325,-13.887073
15232000,0.013723145,0.18032591,0.05537268,1.0840487,-0.3924481,-13.867658
15236000,0.01551184,0.18182898,0.05833271,1.1090467,-0.3913581,-13.865239
15240000,0.009968801,0.18383974,0.05492965,1.1825893,-0.3956051,-13.858786
15244000,0.008074151,0.18540582,0.05539132,1.1141341,-0.479945,-13.875083
15248000,0.008910098,0.18239155,0.05623859,1.0407168,-0.44876364,-13.900028
15252000,0.012317727,0.18016757,0.048470393,1.0042459,-0.40702614,-13.911168
15256000,0.006763247,0.18493228,0.048470505,1.0168564,-0.39093155,-13.898631
15260000,0.007893414,0.18800989,0.048127208,1.0473018,-0.4102622,-13.852042
15264000,0.013175401,0.18733722,0.04841232,1.0702562,-0.5117078,-13.830269
15268000,0.010085545,0.18526018,0.053396963,1.0707117,-0.518646,-13.868943
15272000,0.010832597,0.18492728,0.050664704,1.0686094,-0.4800862,-13.881955
15276000,0.012174729,0.18425125,0.049563903,1.0570766,-0.48275736,-13.897796
15280000,0.009012219,0.18104541,0.052232344,1.0391352,-0.45592523,-13.845176
15288000,0.009793464,0.18459164,0.053510208,1.0965632,-0.50935215,-13.803387
15296000,0.00257911,0.18808764,0.045454565,1.033067,-0.4608968,-13.805952
15300000,0.00256701,0.18346179,0.043628376,1.0104215,-0.4780691,-13.852395
15304000,0.010706939,0.18045373,0.04713359,1.0276235,-0.47732937,-13.839099
15308000,0.016409121,0.18166637,0.050265413,1.0936984,-0.45417553,-13.814286
15316000,0.009175193,0.18288273,0.053996854,1.0707619,-0.3889431,-13.807119
15320000,0.006989563,0.18093427,0.05779082,1.1195763,-0.48828968,-13.808208
15324000,0.004060905,0.17569828,0.055175733,1.1222466,-0.4648055,-13.856916
15328000,0.003966405,0.17878066,0.048417553,1.1518543,-0.40944844,-13.870048
15336000,0.01118643,0.18392214,0.0546977,1.1301705,-0.4983464,-13.824094
15340000,0.009971677,0.18483512,0.052121706,1.1108646,-0.44611618,-13.817807
15348000,0.003007168,0.18195654,0.05877429,1.1118054,-0.5110445,-13.703631
15356000,0.002718091,0.18325187,0.053345192,1.2034906,-0.5027766,-13.763637
15364000,0.006652806,0.18227205,0.067551725,1.184278,-0.41836616,-13.787692
15368000,0.00579467,0.17872609,0.056225717,1.1915416,-0.4580422,-13.730477
15376000,0.00013478,0.17279747,0.06010831,1.2189187,-0.52855825,-13.735126
15380000,0.001701893,0.17491856,0.059470885,1.1480925,-0.54857564,-13.7135935
15388000,0.008576728,0.18205649,0.04963231,1.145947,-0.55934876,-13.727255
15392000,0.008726083,0.18103656,0.053911097,1.2126594,-0.5528756,-13.761991
15400000,-0.000841227,0.18582782,0.054734737,1.1976682,-0.58132315,-13.7100115
15408000,0.003656537,0.18664795,0.053692352,1.1715341,-0.6011962,-13.817563
15416000,5.22E-05,0.17736568,0.060082316,1.1027217,-0.5029489,-13.687888
15424000,0.006102833,0.17788951,0.05207238,1.1189117,-0.52584195,-13.767762
15428000,0.004060374,0.1838962,0.05514127,1.1582794,-0.5028772,-13.805406
15436000,0.00438909,0.18651815,0.06210273,1.1535493,-0.4972142,-13.742427
15440000,0.001699722,0.18683098,0.064513564,1.179613,-0.5262653,-13.740879
15444000,-0.003295151,0.18446344,0.060629122,1.1775163,-0.51952964,-13.739957
15452000,0.005687279,0.18864058,0.06358828,1.1557834,-0.52772766,-13.725367
15456000,-0.004809709,0.19028078,0.058917522,1.2240508,-0.49667555,-13.689737
15460000,-0.001433727,0.19345829,0.06268749,1.1588353,-0.5287591,-13.718741
15468000,-0.009826258,0.19079402,0.06651707,1.1129757,-0.55558705,-13.7013
15476000,-0.003493884,0.19031093,0.05899797,1.2294545,-0.5029516,-13.788693
15480000,-0.006672863,0.18929146,0.060290795,1.2025352,-0.5849687,-13.811442
15484000,-0.003381511,0.18784302,0.061854817,1.2064757,-0.61762494,-13.743276
15488000,0.000807773,0.1895167,0.061785836,1.2352092,-0.660789,-13.716297
15492000,-0.002270405,0.19009711,0.058125116,1.2053901,-0.53447086,-13.782445
15496000,0.003642125,0.19543472,0.05528474,1.1906748,-0.5074366,-13.785067
15500000,0.004346264,0.19153358,0.056716435,1.1883028,-0.5819522,-13.78029
15504000,0.000488271,0.18587807,0.06359626,1.2066768,-0.50076425,-13.769094
15508000,0.003180924,0.19181234,0.06920554,1.2662048,-0.49610615,-13.71303
15512000,0.00237869,0.18973365,0.06878903,1.2952248,-0.52322954,-13.706292
15516000,-0.002157667,0.18629156,0.0676765,1.2803657,-0.53653985,-13.791828
15520000,-5.68E-05,0.18680081,0.0657232,1.2827541,-0.55447876,-13.803811
15528000,-0.007019744,0.1874827,0.06363701,1.2404085,-0.5036351,-13.77891
15532000,-0.005104495,0.19309005,0.06491654,1.2701435,-0.52160907,-13.77355
15540000,-0.001992379,0.18934052,0.06422719,1.2398686,-0.51763856,-13.924258
15544000,0.002168309,0.18506889,0.06483918,1.204676,-0.54649806,-13.836261
15548000,-0.002741183,0.1865437,0.07008872,1.2501417,-0.55353194,-13.790255
15552000,-0.005981193,0.1923281,0.06708486,1.3096088,-0.564605,-13.780051
15560000,-0.003840527,0.19365796,0.06531414,1.2591593,-0.55616194,-13.870797
15564000,0.000864539,0.19491689,0.06686042,1.2320626,-0.55464315,-13.904939
15568000,0.000335825,0.19039373,0.06554401,1.2635818,-0.5555469,-13.940947
15572000,-0.00647751,0.18795885,0.06192846,1.3480175,-0.5510081,-13.889014
15576000,-0.003877583,0.18873999,0.06437223,1.3980713,-0.5405825,-13.817153
15580000,-0.00322507,0.19438572,0.07095352,1.3833183,-0.51755154,-13.815377
15584000,-0.003474924,0.19890094,0.06913541,1.3791862,-0.5682055,-13.840169
15592000,-0.004267186,0.19022761,0.07075157,1.3011155,-0.64351207,-13.787194
15596000,-0.006085277,0.19654903,0.06935763,1.3312162,-0.54986966,-13.772505
15600000,-0.011422225,0.19985697,0.06669849,1.4116317,-0.487187,-13.843133
15608000,-0.005708884,0.20060475,0.061250187,1.3194408,-0.5259523,-13.863242
15612000,-0.004681426,0.20109196,0.06301864,1.4252195,-0.55536985,-13.795994
15616000,-0.011437708,0.20232435,0.068951644,1.4807358,-0.5548077,-13.837951
15620000,-0.010236788,0.20515616,0.06483841,1.4251977,-0.53083086,-13.900742
15624000,-0.006959736,0.19967015,0.059871763,1.4045972,-0.5113473,-13.867394
15632000,-0.006234064,0.19105732,0.06612201,1.4609836,-0.63545305,-13.9536705
15640000,-0.00874658,0.19533801,0.07072768,1.3858451,-0.57871836,-13.978786
15644000,-0.005853608,0.20139033,0.06513216,1.3702219,-0.5566705,-13.964234
15648000,-0.005653374,0.20086345,0.06672254,1.3693197,-0.47567153,-13.995362
15652000,-0.008895789,0.1985302,0.0665604,1.3763484,-0.44198772,-14.001336
15656000,-0.010540355,0.20258142,0.06662812,1.4389173,-0.45969704,-13.954227
15660000,-0.009888007,0.20181581,0.06318101,1.5107898,-0.57191914,-13.873977
15664000,-0.003278079,0.19717947,0.05949824,1.5108935,-0.5737356,-13.840149
15672000,-0.005890406,0.20434391,0.062768124,1.4273419,-0.5887428,-13.937709
15676000,-0.009093083,0.19929598,0.06285106,1.4724325,-0.6178598,-13.931476
15684000,-0.007097334,0.20587714,0.06937266,1.5207287,-0.63488054,-13.922473
15688000,-0.006281553,0.20493141,0.06640212,1.4870257,-0.6467901,-13.976622
15696000,-0.020962743,0.19868593,0.06257475,1.4434234,-0.64114827,-13.941052
15700000,-0.015516227,0.20563436,0.06572585,1.4828382,-0.5380162,-13.89128
15704000,-0.010362838,0.20243935,0.06028756,1.4744102,-0.5659077,-13.905578
15708000,-0.008182454,0.20197786,0.056359883,1.4812456,-0.61626023,-13.98397
15712000,-0.011464613,0.20723557,0.0593044,1.5086585,-0.5831236,-14.0084505
15716000,-0.013942536,0.20700236,0.053496648,1.5501038,-0.58171195,-13.943593
15720000,-0.010651253,0.20786986,0.052802213,1.5499693,-0.6422269,-13.957806
15728000,-0.0140611,0.2075616,0.053343963,1.4352932,-0.611786,-13.971977
15736000,-0.007897788,0.20934337,0.050677124,1.6196834,-0.62528944,-13.986545
15740000,-0.00882328,0.20924342,0.05213844,1.5607489,-0.57493174,-13.966321
15744000,-0.013703257,0.21080449,0.056671456,1.558887,-0.5737223,-13.963808
15748000,-0.011916671,0.21200307,0.059262242,1.5635619,-0.6162924,-13.998243
15756000,-0.012876837,0.208658,0.06010593,1.5232655,-0.55036837,-13.984847
15764000,-0.014070951,0.21246222,0.05526177,1.5761547,-0.5495121,-13.944001
15768000,-0.010989167,0.20513049,0.056245618,1.6156679,-0.5542821,-14.012283
15776000,-0.010969908,0.20679262,0.058385428,1.5195228,-0.5732629,-14.055974
15784000,-0.013750455,0.20939885,0.063271396,1.6002656,-0.559668,-14.008
15788000,-0.010960357,0.20766506,0.060614634,1.6242889,-0.5468961,-13.949898
15792000,-0.009407927,0.20220101,0.0533395,1.5916688,-0.64442027,-13.950324
15796000,-0.016790899,0.20356001,0.05640174,1.6019069,-0.66386044,-13.995871
15804000,-0.010868072,0.21056391,0.052966658,1.6355604,-0.60899764,-14.020486
15808000,-0.001921776,0.21309178,0.054692082,1.5708565,-0.57600296,-14.007581
15812000,-0.004721593,0.20958997,0.052400563,1.5528312,-0.6099319,-14.01856
15816000,-0.014324968,0.21016361,0.0533855,1.5952247,-0.65526235,-14.034196
15824000,-0.01253579,0.20450476,0.04583979,1.6826622,-0.6287151,-14.030297
15828000,-0.015354959,0.20564981,0.04808275,1.6565447,-0.6255206,-14.055629
15836000,-0.002885195,0.2034204,0.051466513,1.6364014,-0.6624998,-14.079049
15840000,-0.013459015,0.20226039,0.0511957,1.6685783,-0.64670503,-14.062577
15848000,-0.017481893,0.19999565,0.051874153,1.7107121,-0.66376257,-14.14865
15852000,-0.013973274,0.20067734,0.04987567,1.7611948,-0.63644737,-14.1291065
15856000,-0.014931773,0.19703434,0.051872913,1.7876893,-0.577823,-14.083194
15860000,-0.017691335,0.19812602,0.059256006,1.7729878,-0.6524904,-14.056433
15868000,-0.024922376,0.1929316,0.05638343,1.7814039,-0.6460009,-14.072633
15872000,-0.020432588,0.199269,0.051671073,1.7854334,-0.6553649,-14.000157
15876000,-0.01687257,0.19328709,0.05152935,1.7746048,-0.69813967,-13.9788885
15880000,-0.012535993,0.19242004,0.05215063,1.781698,-0.7573052,-13.961804
15884000,-0.016163869,0.19317405,0.04704554,1.8113184,-0.6985506,-14.00461
15892000,-0.010915402,0.1839774,0.05287861,1.7761427,-0.6114934,-13.993119
15900000,-0.011488401,0.17825253,0.050936237,1.784898,-0.6652087,-13.909819
15904000,-0.018481165,0.1784206,0.05626774,1.8043929,-0.70716697,-13.91154
15908000,-0.015171983,0.17354728,0.056607474,1.8669846,-0.7087498,-13.863252
15916000,-0.015023928,0.17375818,0.05714763,1.773025,-0.65249574,-13.802717
15924000,-0.017212547,0.16249894,0.058464654,1.8176224,-0.6649672,-13.769563
15928000,-0.029247163,0.1609377,0.06114146,1.8970729,-0.66301394,-13.6807995
15936000,-0.1112377,0.15915444,0.06196962,1.8308412,-0.6900071,-13.686673
15940000,-0.14803714,0.15369576,0.058300227,1.8088876,-0.6529724,-13.672064
15944000,-0.1743116,0.16001442,0.054111313,1.8947998,-0.7297152,-13.641141
15952000,-0.23823814,0.15961055,0.04625166,1.9072248,-0.71333736,-13.55407
15960000,-0.28910184,0.15543558,0.043845456,1.8613641,-0.6867441,-13.515958
15964000,-0.3159433,0.14995322,0.046145175,2.009708,-0.7142724,-13.461547
15968000,-0.34291306,0.15518111,0.0496593,1.9959835,-0.7012253,-13.491429
15976000,-0.38562343,0.1516598,0.045636106,1.8650001,-0.72660434,-13.4954405
15980000,-0.40068272,0.14488485,0.042866696,1.8459674,-0.69279045,-13.453396
15988000,-0.43041122,0.14576513,0.042567745,1.9226862,-0.60097575,-13.472442
15992000,-0.44703108,0.14180525,0.043508988,1.9336878,-0.6080591,-13.505109
15996000,-0.45449832,0.14220145,0.040543657,1.8704854,-0.6089276,-13.491349
16004000,-0.47868806,0.14266935,0.039313115,1.9743865,-0.63609314,-13.270434
16008000,-0.49544895,0.1441787,0.038496856,1.9651558,-0.67608476,-13.236364
16012000,-0.5077504,0.14461954,0.03486369,2.0042052,-0.6369112,-13.292487
16016000,-0.5129773,0.140079,0.033026148,1.9964253,-0.66540915,-13.302184
16020000,-0.52308047,0.1374436,0.031857703,1.9769429,-0.637704,-13.265008
16028000,-0.54214334,0.13644242,0.02238004,2.0436502,-0.6445133,-13.2016115
16032000,-0.54113394,0.13186349,0.028748086,2.0360312,-0.57794344,-13.138486
16040000,-0.5566761,0.13962181,0.022173367,2.064622,-0.6340437,-13.181975
16044000,-0.557202,0.13995987,0.018468052,2.0557082,-0.64191514,-13.022724
16048000,-0.55703855,0.12701108,0.021744117,2.054489,-0.6286958,-13.029695
16052000,-0.569665,0.11818566,0.027891494,2.0537164,-0.65980315,-13.028188
16056000,-0.5755005,0.12202846,0.027491862,2.039952,-0.7088538,-12.989058
16064000,-0.5766842,0.11802236,0.020316117,2.0589545,-0.7156244,-12.991969
16068000,-0.5804592,0.11224318,0.016023627,2.1345105,-0.7537271,-12.907068
16072000,-0.5824102,0.11001757,0.013643663,2.103724,-0.8118803,-12.858972
16076000,-0.5818606,0.11328551,0.00891217,2.0875216,-0.7317297,-12.860981
16080000,-0.58962554,0.11034501,0.004470906,2.0697486,-0.6623142,-12.923055
16084000,-0.5913387,0.10845692,0.010190651,2.0456762,-0.7083111,-12.876858
16088000,-0.5926038,0.108157545,0.00982342,2.1554084,-0.76190007,-12.738764
16092000,-0.5942947,0.10278391,0.008947654,2.190659,-0.7621303,-12.698541
16100000,-0.60330516,0.09991846,0.007218386,2.2570786,-0.7913164,-12.667885
16104000,-0.5981996,0.099159814,0.013235021,2.286059,-0.8317342,-12.651641
16112000,-0.59775573,0.09616848,0.001556935,2.1229072,-0.8399493,-12.630952
16116000,-0.59695035,0.0958578,0.002704814,2.1506298,-0.85061496,-12.572678
16120000,-0.59764713,0.0975605,-0.001918852,2.2038035,-0.79150397,-12.554841
16128000,-0.5983704,0.09083351,-0.004335263,2.1896098,-0.8266559,-12.429482
16136000,-0.58887696,0.0878123,-0.009720372,2.319031,-0.7837709,-12.430837
16140000,-0.59693545,0.08838502,-0.008915361,2.3301592,-0.8032584,-12.408975
16148000,-0.586933,0.07989726,-0.006725876,2.3119967,-0.72594744,-12.334284
16152000,-0.58759993,0.082523696,-0.007926826,2.284018,-0.7119788,-12.3081455
16156000,-0.5904664,0.08351479,-0.006005786,2.3214402,-0.813562,-12.278543
16160000,-0.5854856,0.078387596,-0.009514623,2.3351388,-0.82572037,-12.257741
16164000,-0.5748193,0.07565344,-0.013282096,2.2485783,-0.77611476,-12.154983
16168000,-0.5754392,0.07609933,-0.015167774,2.2588007,-0.7782719,-12.100525
16172000,-0.5767929,0.07604658,-0.012145828,2.3321922,-0.78931653,-12.16501
16180000,-0.5805763,0.07065422,-0.007817789,2.2963867,-0.79541224,-12.099839
16184000,-0.57461137,0.07325974,-0.009320132,2.2481837,-0.8463198,-12.022737
16188000,-0.573339,0.07241813,0.000119074,2.2793584,-0.8483345,-11.904264
16192000,-0.5741213,0.070574075,-0.002347868,2.3826382,-0.75730467,-11.86583
16196000,-0.5724343,0.065457635,-0.015368213,2.3997216,-0.7854327,-11.878315
16200000,-0.5657446,0.062110383,-0.011688121,2.3514757,-0.8201181,-11.8128
16204000,-0.5627686,0.058988884,-0.004954993,2.3273883,-0.7876879,-11.737037
16208000,-0.56429523,0.06350344,-0.005103578,2.3414714,-0.81894386,-11.771111
16212000,-0.56405544,0.0631236,-0.011708356,2.3616076,-0.87217236,-11.796837
16216000,-0.56133175,0.059163418,-0.017049033,2.3564007,-0.85036725,-11.745207
16220000,-0.5538272,0.059258983,-0.012458606,2.329254,-0.8768099,-11.700694
16224000,-0.5488865,0.058140226,-0.013741047,2.3640118,-0.87256676,-11.7100315
16228000,-0.54621106,0.060082644,-0.023732156,2.461395,-0.84583175,-11.691232
16232000,-0.5412188,0.057332266,-0.0208527,2.466548,-0.86583734,-11.605029
16240000,-0.5342378,0.05246437,-0.016349712,2.432699,-0.9210309,-11.494842
16244000,-0.53443986,0.045391254,-0.022559432,2.3852994,-0.87159383,-11.459386
16248000,-0.53369933,0.046663668,-0.017467104,2.433262,-0.83673424,-11.528459
16252000,-0.5341432,0.048577964,-0.02060651,2.4898987,-0.86502576,-11.510199
16256000,-0.52532154,0.048824683,-0.027323982,2.5063746,-0.86280113,-11.460325
16260000,-0.51953185,0.04747325,-0.025676025,2.5272226,-0.9017396,-11.509108
16264000,-0.5152072,0.043668896,-0.025205204,2.5205362,-0.97199833,-11.520697
16268000,-0.5134831,0.04478854,-0.023876445,2.5246296,-0.945947,-11.419692
16272000,-0.5158283,0.04852686,-0.022591291,2.4854949,-0.8589887,-11.346947
16280000,-0.50640965,0.04275667,-0.025680983,2.5272357,-0.89448243,-11.315536
16288000,-0.4933063,0.046744216,-0.01915497,2.5770102,-0.9518177,-11.329295
16292000,-0.4944104,0.044409264,-0.02521177,2.6141658,-0.9166834,-11.311554
16296000,-0.4962554,0.041824427,-0.025472607,2.6075711,-0.9226875,-11.270408
16300000,-0.4901,0.04116671,-0.027255341,2.5265434,-0.96288496,-11.199041
16304000,-0.49186695,0.045976758,-0.027106844,2.5080523,-0.92627084,-11.222217
16312000,-0.48546708,0.044220988,-0.026857043,2.5015354,-0.94265413,-11.158799
16316000,-0.4801787,0.04801312,-0.023632608,2.5833006,-0.97660166,-11.152374
16324000,-0.46943274,0.048997454,-0.022112269,2.5802307,-0.90310156,-11.072215
16332000,-0.4504318,0.04752067,-0.023464605,2.5495276,-0.91808504,-11.058856
16336000,-0.45561716,0.047183435,-0.027735256,2.5425148,-0.97205997,-11.090656
16344000,-0.45521733,0.047888372,-0.026096057,2.7133415,-0.8670327,-11.045231
16352000,-0.44117844,0.035983935,-0.019677224,2.6152585,-0.8701528,-11.05902
16356000,-0.4385164,0.038778972,-0.021092804,2.6282225,-0.91825676,-11.041287
16360000,-0.44308123,0.04123002,-0.026254144,2.7186308,-0.958548,-10.956054
16364000,-0.43985432,0.039079234,-0.028742217,2.6720042,-0.9799174,-10.925526
16368000,-0.43019295,0.03742705,-0.029949022,2.6404555,-1.0054998,-10.949069
16376000,-0.43082985,0.038298305,-0.028728921,2.7195458,-0.9810264,-10.986273
16384000,-0.41828272,0.03543554,-0.03157919,2.6741683,-0.9491949,-10.960173
16388000,-0.42066783,0.03626214,-0.031292837,2.6539652,-0.9803181,-10.965218
16392000,-0.42127338,0.044502195,-0.033894762,2.721171,-0.9413881,-10.901577
16400000,-0.40382406,0.04068696,-0.036177825,2.69387,-0.9563803,-10.852185
16404000,-0.40204337,0.037674125,-0.0344887,2.7449908,-0.9760679,-10.931955
16412000,-0.39850968,0.03650206,-0.034995485,2.682841,-0.95367867,-10.9193125
16416000,-0.39167765,0.038640503,-0.0367505,2.6711147,-1.0142467,-10.874736
16420000,-0.38360274,0.040010456,-0.038428657,2.7108319,-0.9698826,-10.75797
16428000,-0.37742096,0.03670192,-0.041559525,2.6909344,-0.95793283,-10.84315
16432000,-0.380133,0.038315903,-0.03664517,2.6492167,-1.0149584,-10.913052
16436000,-0.37807158,0.035632502,-0.03148114,2.6450047,-0.97757363,-10.827299
16444000,-0.37536207,0.034319982,-0.03545103,2.742204,-0.93989235,-10.8399515
16448000,-0.37075144,0.040593654,-0.03882918,2.738185,-0.9342252,-10.751725
16456000,-0.36805043,0.037675586,-0.04525783,2.6732724,-0.8915591,-10.762176
16460000,-0.36695042,0.03410402,-0.04734557,2.7371564,-0.9257678,-10.74812
16464000,-0.36462307,0.040707413,-0.047616,2.8052485,-0.94516116,-10.689929
16468000,-0.3642414,0.045514498,-0.045465913,2.7426267,-0.94089603,-10.712152
16472000,-0.35924748,0.045306664,-0.04261562,2.7192788,-0.9404506,-10.799371
16476000,-0.3534712,0.046692166,-0.04626789,2.762434,-0.9508971,-10.785494
16480000,-0.34864303,0.04286714,-0.042293105,2.8020782,-0.9704736,-10.717879
16484000,-0.3412572,0.038310606,-0.042140514,2.779899,-0.9545907,-10.693264
16488000,-0.34205315,0.046030443,-0.049522236,2.7230747,-0.9077303,-10.673586
16492000,-0.34025416,0.049020518,-0.044945136,2.7063425,-0.96229094,-10.683393
16496000,-0.3307975,0.044366032,-0.040554427,2.7885485,-0.99911815,-10.691029
16504000,-0.32790908,0.034021292,-0.04331939,2.8623614,-0.91650945,-10.637924
16508000,-0.32690513,0.03274396,-0.042494543,2.89413,-0.95963156,-10.722507
16512000,-0.32960132,0.03795256,-0.038983125,2.8591409,-0.99111205,-10.763289
16516000,-0.3245262,0.043073684,-0.04816754,2.7950277,-0.99223006,-10.766855
16520000,-0.32107034,0.037962172,-0.054832004,2.8483474,-1.0269475,-10.791396
16528000,-0.32223725,0.040063627,-0.054017566,2.8682818,-1.0342181,-10.682685
16532000,-0.32543576,0.037950672,-0.054797113,2.8564215,-1.0007966,-10.661184
16540000,-0.31340298,0.03576644,-0.052604172,2.8829205,-0.93336064,-10.599031
16544000,-0.310207,0.033971842,-0.058803514,2.8750057,-0.9245193,-10.620703
16552000,-0.3074972,0.034753606,-0.05533548,2.8970387,-1.0061809,-10.615295
16560000,-0.28908643,0.037795614,-0.062292807,2.8826473,-1.000293,-10.640918
16564000,-0.29333934,0.043307286,-0.05859644,2.8871539,-1.004137,-10.647598
16568000,-0.29346558,0.038939282,-0.062670745,2.8773153,-0.9861532,-10.630093
16572000,-0.2895836,0.032894883,-0.06814223,2.7985616,-0.99283916,-10.614622
16576000,-0.28997883,0.033025898,-0.059669513,2.863816,-0.9967523,-10.574379
16580000,-0.28511083,0.038779423,-0.057202242,2.910045,-0.92301106,-10.5682745
16584000,-0.28160924,0.044728924,-0.06848116,2.898487,-0.8920704,-10.570263
16588000,-0.2809249,0.041159924,-0.07336702,2.8754413,-0.95092386,-10.539035
16596000,-0.28347546,0.04387657,-0.065650776,2.8735626,-0.92613685,-10.518078
16600000,-0.27955157,0.038231157,-0.05868087,2.8494132,-0.95775795,-10.567712
16604000,-0.27104315,0.0358897,-0.058804363,2.8893895,-0.9669146,-10.586383
16608000,-0.26737252,0.033115167,-0.07002079,2.932804,-0.99089503,-10.531205
16616000,-0.25861046,0.040728886,-0.073606275,2.873513,-1.0102546,-10.590772
16620000,-0.25501123,0.044495698,-0.07532215,2.892615,-0.9830778,-10.577535
16624000,-0.25725195,0.03890911,-0.0702548,2.8601825,-0.9723466,-10.493628
16632000,-0.27023986,0.04544143,-0.059840348,1.5768675,-0.9000949,-10.627166
16636000,-0.27836287,0.042399004,-0.065056786,0.94191796,-0.84815556,-10.821989
16644000,-0.29611847,0.04528164,-0.06342601,0.030383438,-0.68801516,-10.834328
16648000,-0.30442634,0.04993184,-0.0610637,-0.29859105,-0.6782584,-10.855223
16656000,-0.3226013,0.049247645,-0.060526617,-0.6785076,-0.59109145,-10.874924
16664000,-0.35104918,0.05942389,-0.051356133,-0.8332652,-0.6716882,-10.91931
16668000,-0.36441314,0.060835615,-0.057119135,-0.9241515,-0.6028215,-10.907666
16672000,-0.37980443,0.06543911,-0.04868592,-1.0292866,-0.5953021,-11.015019
16680000,-0.3905509,0.07658892,-0.042454753,-1.2188705,-0.62520075,-10.949444
16684000,-0.4024645,0.0776889,-0.03739543,-1.2736213,-0.5714959,-10.964851
16688000,-0.40764964,0.07864619,-0.032406364,-1.2411481,-0.50752765,-10.980011
16692000,-0.40987027,0.08162099,-0.026700212,-1.2519189,-0.51011026,-10.984329
16696000,-0.4220544,0.08819828,-0.025218207,-1.2478737,-0.5023351,-11.0514765
16700000,-0.4277626,0.09420468,-0.026744476,-1.2392288,-0.5124809,-11.119519
16708000,-0.4415792,0.089641385,-0.027899962,-1.229976,-0.5460703,-11.167457
16712000,-0.44510856,0.094187565,-0.025251297,-1.1685704,-0.48620424,-11.135334
16716000,-0.44817904,0.10178215,-0.023108741,-1.2185807,-0.4503534,-11.178711
16720000,-0.4538475,0.10172557,-0.014699708,-1.1607187,-0.4898588,-11.224271
16724000,-0.45561036,0.10975093,-0.010946488,-1.0429057,-0.44522476,-11.242664
16732000,-0.46329692,0.10205469,-0.018812004,-1.0454389,-0.527077,-11.266221
16736000,-0.45698497,0.10337377,-0.018785812,-1.0169923,-0.49047402,-11.2907915
16740000,-0.45950717,0.10319251,-0.012675658,-1.0589838,-0.4695353,-11.3061285
16744000,-0.46492425,0.10145398,-0.012744959,-1.0125518,-0.43207276,-11.299831
16752000,-0.47145033,0.10035296,-0.010036659,-0.9715658,-0.43109572,-11.304059
16756000,-0.46537197,0.09590303,-0.006781055,-0.9297153,-0.40529186,-11.302507
16760000,-0.46009737,0.094034284,-0.002301141,-0.9187188,-0.38859436,-11.3483305
16768000,-0.4668583,0.09113718,-0.011470142,-0.9851861,-0.48881155,-11.370555
16772000,-0.46501392,0.09313145,-0.010040897,-0.8422334,-0.42028204,-11.421955
16780000,-0.46313646,0.09906595,-0.010513354,-0.6546476,-0.43215936,-11.501252
16784000,-0.4559759,0.08959428,-0.010072454,-0.5971448,-0.41483387,-11.425972
16788000,-0.455721,0.0848184,-0.009884634,-0.6269191,-0.40412432,-11.359652
16792000,-0.44976118,0.08969799,-0.013833758,-0.6898829,-0.38972968,-11.3876095
16800000,-0.43495288,0.080670886,-0.016019922,-0.5097649,-0.44081956,-11.421689
16804000,-0.4367267,0.076483294,-0.011762044,-0.50125754,-0.45602667,-11.421581
16808000,-0.43379936,0.07334744,-0.010868359,-0.50476396,-0.4119525,-11.430576
16812000,-0.43604895,0.0686622,-0.015327493,-0.45342827,-0.40318003,-11.404477
16820000,-0.42688194,0.06352722,-0.013557659,-0.39342624,-0.4033976,-11.324518
16824000,-0.4217037,0.05816358,-0.019770887,-0.3075154,-0.38147616,-11.235325
16828000,-0.41990426,0.047620777,-0.024139203,-0.3563327,-0.4432417,-11.190869
16836000,-0.4159265,0.051767744,-0.021328047,-0.40181372,-0.49787903,-11.178006
16840000,-0.4179586,0.04710129,-0.02707187,-0.32317278,-0.45428765,-11.131661
16844000,-0.40685442,0.041841824,-0.02808832,-0.16610698,-0.37772784,-11.019752
16852000,-0.40457314,0.02955141,-0.027609829,-0.13175355,-0.3410726,-11.020521
16856000,-0.3982293,0.026406588,-0.031039676,-0.08686496,-0.41930073,-10.957334
16860000,-0.39593104,0.029981116,-0.0334753,-0.11012966,-0.37505925,-10.852263
16868000,-0.386322,0.013202444,-0.043584008,0.016209126,-0.37518916,-10.784515
16872000,-0.37966168,0.005574192,-0.047130615,0.06219686,-0.40141532,-10.745757
16876000,-0.37879005,0.005565248,-0.050333288,0.16686709,-0.39658082,-10.663907
16884000,-0.3704774,-0.003640965,-0.051496565,0.18954882,-0.3517556,-10.590271
16892000,-0.36627936,0.001492313,-0.060496084,0.27934852,-0.3530069,-10.485142
16896000,-0.35935605,-0.006968692,-0.060057744,0.37166035,-0.38636422,-10.38805
