timestamp,roll_body,pitch_body,yaw_body,yaw_sp_move_rate,q_d[0],q_d[1],q_d[2],q_d[3],thrust_body[0]
13584000,0,0,1.6081135,0,0.69379085,0,0,0.7201766,1
13608000,0,0,1.6081135,0,0.69379085,0,0,0.7201766,1
13632000,0,0,1.6081135,0,0.69379085,0,0,0.7201766,1
13656000,0,0,1.6081135,0,0.69379085,0,0,0.7201766,1
13680000,0,0,1.6081135,0,0.69379085,0,0,0.7201766,1
13704000,0,-0.29822454,1.6081135,0,0.6860921,0.10698966,-0.10306979,0.712185,1
13728000,0,-0.2843363,1.6081135,0,0.6867913,0.10204162,-0.09830303,0.71291083,1
13752000,0,-0.27123028,1.6081135,0,0.6874207,0.09736775,-0.0938004,0.7135642,1
13776000,0,-0.2587819,1.6081135,0,0.68799126,0.092924535,-0.089519985,0.7141564,1
13800000,0,-0.24701348,1.6081135,0,0.68850607,0.0887207,-0.08547017,0.7146908,1
13824000,0,-0.23581772,1.6081135,0,0.6889737,0.08471858,-0.08161467,0.7151762,1
13848000,0,-0.22510843,1.6081135,0,0.68940085,0.08088787,-0.07792431,0.7156196,1
13872000,0,-0.21481515,1.6081135,0,0.6897928,0.07720378,-0.0743752,0.7160265,1
13896000,0,-0.20495094,1.6081135,0,0.6901512,0.07367133,-0.070972174,0.7163985,1
13920000,0,-0.19545455,1.6081135,0,0.6904804,0.07026892,-0.06769442,0.71674025,1
13944000,0,-0.186275,1.6081135,0,0.69078386,0.066978514,-0.06452457,0.7170552,1
13968000,0,-0.17736931,1.6081135,0,0.6910643,0.06378492,-0.061447978,0.7173464,1
13992000,0,-0.16875196,1.6081135,0,0.6913226,0.060693525,-0.058469843,0.71761453,1
14016000,0,-0.16038427,1.6081135,0,0.6915613,0.05769062,-0.055576958,0.7178622,1
14040000,0,-0.15223327,1.6081135,0,0.691782,0.0547645,-0.05275805,0.7180913,1
14064000,0,-0.14427058,1.6081135,0,0.69198656,0.051905107,-0.050003417,0.7183037,1
14088000,0,-0.13647157,1.6081135,0,0.6921763,0.049103692,-0.047304638,0.7185006,1
14112000,0,-0.12883984,1.6081135,0,0.69235176,0.046361633,-0.04466304,0.71868277,1
14136000,0,-0.12135378,1.6081135,0,0.69251406,0.043671265,-0.042071246,0.71885127,1
14160000,0,-0.11399443,1.6081135,0,0.6926642,0.041025836,-0.039522737,0.7190071,1
14184000,0,-0.106745,1.6081135,0,0.6928029,0.038419377,-0.037011772,0.7191511,1
14208000,0,-0.09960539,1.6081135,0,0.69293064,0.035851907,-0.034538373,0.71928364,1
14232000,0,-0.092561066,1.6081135,0,0.693048,0.03331826,-0.032097552,0.7194055,1
14256000,0,-0.08559878,1.6081135,0,0.6931555,0.03081371,-0.029684762,0.71951705,1
14280000,0,-0.07870693,1.6081135,0,0.6932537,0.02833413,-0.027296027,0.719619,1
14304000,0,-0.0718859,1.6081135,0,0.69334275,0.025879698,-0.024931522,0.7197114,1
14328000,0,-0.06512545,1.6081135,0,0.69342303,0.023446767,-0.022587728,0.7197948,1
14352000,0,-0.058416314,1.6081135,0,0.6934949,0.02103204,-0.02026147,0.7198694,1
14376000,0,-0.051750094,1.6081135,0,0.69355863,0.018632524,-0.017949868,0.7199355,1
14400000,0,-0.045127016,1.6081135,0,0.69361424,0.01624833,-0.015653027,0.71999323,1
14424000,0,-0.03853964,1.6081135,0,0.69366205,0.013876814,-0.013368398,0.7200429,1
14448000,0,-0.031981144,1.6081135,0,0.69370216,0.011515545,-0.01109364,0.7200845,1
14472000,0,-0.025445318,1.6081135,0,0.6937347,0.009162313,-0.008826626,0.7201183,1
14496000,0,-0.018931735,1.6081135,0,0.69375974,0.006816994,-0.006567234,0.7201443,1
14520000,0,-0.01243492,1.6081135,0,0.69377744,0.00447764,-0.004313589,0.7201627,1
14544000,0,-0.005949869,1.6081135,0,0.6937878,0.002142475,-0.002063979,0.7201734,1
14568000,0,0.00052801,1.6081135,0,0.6937908,-0.00019013,0.000183164,0.7201765,1
14592000,0,0.006999613,1.6081135,0,0.6937866,-0.002520473,0.002428129,0.72017217,1
14616000,0,0.013468936,1.6081135,0,0.6937751,-0.004849969,0.004672277,0.72016025,1
14640000,0,0.01993962,1.6081135,0,0.69375634,-0.007179905,0.006916849,0.72014076,1
14664000,0,0.026415,1.6081135,0,0.69373035,-0.009511456,0.009162976,0.72011375,1
14688000,0,0.032898128,1.6081135,0,0.693697,-0.011845697,0.011411696,0.7200791,1
14712000,0,0.03938924,1.6081135,0,0.69365627,-0.014182687,0.013663064,0.7200369,1
14736000,0,0.045890957,1.6081135,0,0.6936082,-0.016523346,0.015917966,0.71998703,1
14760000,0,0.05240567,1.6081135,0,0.6935527,-0.018868508,0.018177208,0.7199294,1
14784000,0,0.058935545,1.6081135,0,0.6934896,-0.021218928,0.020441512,0.7198639,1
14808000,0,0.06548167,1.6081135,0,0.69341904,-0.02357497,0.022711234,0.71979064,1
14832000,0,0.07204584,1.6081135,0,0.6933408,-0.025937254,0.024986967,0.7197094,1
14856000,0,0.07862967,1.6081135,0,0.69325477,-0.028306331,0.02726925,0.7196201,1
14880000,0,0.085234605,1.6081135,0,0.6931609,-0.030682692,0.029558545,0.7195227,1
14904000,0,0.091860354,1.6081135,0,0.6930592,-0.03306621,0.031854734,0.7194171,1
14928000,0,0.09850808,1.6081135,0,0.6929495,-0.03545727,0.03415819,0.7193032,1
14952000,0,0.1051788,1.6081135,0,0.6928317,-0.0378562,0.036469232,0.71918094,1
14976000,0,0.11187341,1.6081135,0,0.69270575,-0.040263303,0.03878814,0.7190502,1
15000000,0,0.11859191,1.6081135,0,0.6925715,-0.04267854,0.04111489,0.7189109,1
15024000,0,0.12533493,1.6081135,0,0.69242895,-0.04510211,0.043449663,0.7187629,1
15048000,0,0.13210298,1.6081135,0,0.69227797,-0.047534153,0.045792606,0.7186061,1
15072000,0,0.13889647,1.6081135,0,0.69211847,-0.049974795,0.048143826,0.7184406,1
15096000,0,0.14571647,1.6081135,0,0.6919502,-0.052424386,0.05050367,0.71826595,1
15120000,0,0.15256317,1.6081135,0,0.6917733,-0.05488295,0.05287216,0.71808225,1
15144000,0,0.15943658,1.6081135,0,0.6915875,-0.057350457,0.05524926,0.7178894,1
15168000,0,0.16633669,1.6081135,0,0.6913928,-0.059826866,0.05763494,0.7176873,1
15192000,0,0.17326327,1.6081135,0,0.69118905,-0.06231206,0.060029082,0.71747583,1
15216000,0,0.18021612,1.6081135,0,0.69097614,-0.06480593,0.06243158,0.7172548,1
15240000,0,0.18719494,1.6081135,0,0.69075406,-0.06730833,0.0648423,0.7170243,1
15264000,0,0.19419938,1.6081135,0,0.69052273,-0.069819085,0.06726106,0.7167842,1
15288000,0,0.20122902,1.6081135,0,0.6902821,-0.07233802,0.06968771,0.7165344,1
15312000,0,0.20828418,1.6081135,0,0.69003195,-0.0748652,0.0721223,0.71627474,1
15336000,0,0.21536428,1.6081135,0,0.6897723,-0.07740037,0.07456458,0.7160052,1
15360000,0,0.22246867,1.6081135,0,0.68950313,-0.07994327,0.07701432,0.7157258,1
15384000,0,0.2295967,1.6081135,0,0.68922424,-0.08249362,0.07947122,0.71543634,1
15408000,0,0.23675038,1.6081135,0,0.6889356,-0.08505208,0.08193595,0.71513665,1
15432000,0,0.24392891,1.6081135,0,0.6886371,-0.08761834,0.084408194,0.71482676,1
15456000,0,0.25113145,1.6081135,0,0.6883286,-0.09019205,0.086887605,0.7145066,1
15480000,0,0.2583571,1.6081135,0,0.6880102,-0.09277285,0.08937385,0.7141761,1
15504000,0,0.26560494,1.6081135,0,0.68768185,-0.095360346,0.091866545,0.71383524,1
15528000,0,0.27287403,1.6081135,0,0.6873434,-0.09795417,0.09436534,0.7134839,1
15552000,0,0.2801634,1.6081135,0,0.68699485,-0.100553945,0.09686986,0.7131221,1
15576000,0,0.2874721,1.6081135,0,0.6866363,-0.103159264,0.09937973,0.71274996,1
15600000,0,0.29480067,1.6081135,0,0.68626755,-0.10577028,0.10189509,0.7123672,1
15624000,0,0.30214804,1.6081135,0,0.6858886,-0.10838658,0.104415536,0.7119738,1
15648000,0,0.3095132,1.6081135,0,0.6854994,-0.11100774,0.10694066,0.7115698,1
15672000,0,0.31689513,1.6081135,0,0.6851,-0.11363335,0.10947007,0.71115524,1
15696000,0,0.3242945,1.6081135,0,0.68469036,-0.11626362,0.112003975,0.71072996,1
15720000,0,0.33171028,1.6081135,0,0.6842703,-0.11889812,0.11454195,0.71029395,1
15744000,0,0.33914134,1.6081135,0,0.68384004,-0.12153642,0.11708359,0.70984733,1
15768000,0,0.34658664,1.6081135,0,0.68339944,-0.12417808,0.11962846,0.7093899,1
15792000,0,0.34906584,1.6081135,0,0.6832506,-0.12505735,0.120475516,0.7092355,1
15816000,0,0.34906584,1.6081135,0,0.6832506,-0.12505735,0.120475516,0.7092355,1
15840000,0,0.34906584,1.6081135,0,0.6832506,-0.12505735,0.120475516,0.7092355,1
15864000,0,0.34906584,1.6081135,0,0.6832506,-0.12505735,0.120475516,0.7092355,1
15888000,0,0.34906584,1.6081135,0,0.6832506,-0.12505735,0.120475516,0.7092355,1
15912000,-0.40367493,0.34906584,1.5282254,0,0.67250806,-0.26024723,-0.013768896,0.69268656,1
15936000,-0.39282322,0.34906584,1.5210726,0,0.67638344,-0.25662863,-0.009092525,0.6903364,1
15960000,-0.39658442,0.34906584,1.5206186,0,0.6760564,-0.25790253,-0.010332197,0.6901646,1
15984000,-0.3998081,0.34906584,1.5203832,0,0.675721,-0.25899324,-0.011414178,0.69006765,1
16008000,-0.40321818,0.34906584,1.519926,0,0.67543614,-0.26014787,-0.012531266,0.68989277,1
16032000,-0.4156475,0.34906584,1.5129212,0,0.6762182,-0.2643977,-0.01589252,0.6874374,1
16056000,-0.41861796,0.34906584,1.5124505,0,0.6759866,-0.26540574,-0.01685103,0.68725395,1
16080000,-0.42110717,0.34906584,1.511978,0,0.675818,-0.26625103,-0.017643489,0.6870729,1
16104000,-0.42292595,0.34906584,1.5117283,0,0.6756614,-0.2668678,-0.018234976,0.68697214,1
16128000,-0.43408677,0.34906584,1.5044392,0,0.6766605,-0.2707127,-0.02108179,0.6843981,1
16152000,-0.43526116,0.34906584,1.5041792,0,0.6765903,-0.2711128,-0.021448396,0.6842976,1
16176000,-0.43633232,0.34906584,1.5036954,0,0.6766106,-0.27148038,-0.02174922,0.6841224,1
16200000,-0.43633232,0.34906584,1.5034354,0,0.6766996,-0.27148324,-0.021713927,0.68403447,1
16224000,-0.43633232,0.34906584,1.496094,0,0.6792058,-0.2715611,-0.02071724,0.6815459,1
16248000,-0.43633232,0.34906584,1.4956058,0,0.67937213,-0.27156615,-0.020650953,0.68138003,1
16272000,-0.43633232,0.34906584,1.495345,0,0.67946094,-0.27156883,-0.020615548,0.68129146,1
16296000,-0.43633232,0.34906584,1.4948609,0,0.67962587,-0.2715738,-0.020549811,0.681127,1
16320000,-0.43633232,0.34906584,1.4877104,0,0.6820568,-0.27164555,-0.019578725,0.6786928,1
16344000,-0.43633232,0.34906584,1.4872203,0,0.682223,-0.27165034,-0.019512177,0.6785257,1
16368000,-0.43633232,0.34906584,1.4869566,0,0.6823125,-0.2716529,-0.019476354,0.67843574,1
16392000,-0.43633232,0.34906584,1.4864684,0,0.6824781,-0.27165765,-0.019410044,0.67826915,1
16416000,-0.43633232,0.34906584,1.4790614,0,0.68498534,-0.27172768,-0.018403828,0.6757369,1
16440000,-0.43633232,0.34906584,1.4787905,0,0.68507683,-0.27173018,-0.018367022,0.6756441,1
16464000,-0.43633232,0.34906584,1.478301,0,0.68524224,-0.27173465,-0.018300518,0.67547643,1
16488000,-0.43633232,0.34906584,1.4711008,0,0.68766963,-0.2717988,-0.017322123,0.67300516,1
16512000,-0.43633232,0.34906584,1.4706087,0,0.68783516,-0.27180302,-0.017255247,0.67283595,1
16536000,-0.43633232,0.34906584,1.4703422,0,0.6879248,-0.27180535,-0.017219022,0.6727443,1
16560000,-0.43633232,0.34906584,1.469851,0,0.68809,-0.27180955,-0.017152265,0.6725753,1
16584000,-0.43633232,0.34906584,1.4626261,0,0.69051516,-0.27186975,-0.016170278,0.6700852,1
16608000,-0.46701866,0.34144482,1.4621276,0,0.6874836,-0.28011304,-0.029198699,0.66936564,0.39653173
16632000,-0.46488413,0.33382773,1.4616051,0,0.688998,-0.27705783,-0.031230181,0.6689884,0.41880268
16656000,-0.4619917,0.3262135,1.4611199,0,0.6905873,-0.2737357,-0.033013947,0.66863143,0.4397959
16680000,-0.46816644,0.31860098,1.4532936,0,0.6933728,-0.27367967,-0.036823817,0.6655656,0.45963722
16704000,-0.46484464,0.3109818,1.4526638,0,0.69504595,-0.2702101,-0.03846112,0.66514534,0.47928184
16728000,-0.46165147,0.30335534,1.4517953,0,0.69676226,-0.26678097,-0.040114477,0.6646361,0.49764836
16752000,-0.45797378,0.2957211,1.4511573,0,0.69844717,-0.26316923,-0.04164329,0.66421336,0.51473093
16776000,-0.45443156,0.2880788,1.4502817,0,0.70017296,-0.2596002,-0.04319182,0.6637018,0.53052455
16800000,-0.45961177,0.28041878,1.4424254,0,0.70306647,-0.25924245,-0.046737634,0.66053504,0.54624766
16824000,-0.45583513,0.27274138,1.4415343,0,0.7048033,-0.25558013,-0.04823684,0.6600033,0.5606164
16848000,-0.45166507,0.26504704,1.4408929,0,0.7064872,-0.25176054,-0.049647644,0.6595662,0.5737028
16872000,-0.44806406,0.2573364,1.4400494,0,0.70814544,-0.24813479,-0.05122979,0.65904075,0.58553606
16896000,-0.45342115,0.24960127,1.4321173,0,0.7110114,-0.24786788,-0.054895185,0.6557522,0.5972975
16920000,-0.44991425,0.24184276,1.4313089,0,0.7126231,-0.2442601,-0.05654742,0.65521574,0.6078609
16944000,-0.44621527,0.23406208,1.4307729,0,0.7141497,-0.24056277,-0.05818095,0.6547783,0.61731267
16968000,-0.44294304,0.22626056,1.4300375,0,0.7156711,-0.2370108,-0.059940517,0.65425366,0.62569004
16992000,-0.4394377,0.21843082,1.429585,0,0.71710944,-0.233352,-0.06167016,0.65383303,0.6341572
17016000,-0.4456585,0.21057452,1.4214619,0,0.71990293,-0.23342365,-0.06569363,0.6503365,0.6416437
17040000,-0.442329,0.20269343,1.4210726,0,0.7212784,-0.2298108,-0.06752252,0.64991164,0.6482151
17064000,-0.43919837,0.19639303,1.4207346,0,0.7224245,-0.22674957,-0.06883035,0.6495766,0.6539312
17088000,-0.43649736,0.19767475,1.420185,0,0.722772,-0.22618793,-0.067409925,0.6495349,0.65885174
17112000,-0.4335327,0.19875194,1.419912,0,0.7230806,-0.22545785,-0.06601188,0.64958894,0.66340667
17136000,-0.4309486,0.19971173,1.4194255,0,0.72342736,-0.22483546,-0.06475741,0.6495447,0.66725534
17160000,-0.43741104,0.20056047,1.4117167,0,0.7251036,-0.22768822,-0.06566013,0.64658463,0.67047405
17184000,-0.43485066,0.20131186,1.4112736,0,0.7254575,-0.22700465,-0.064498976,0.64654493,0.6731255
17208000,-0.43191797,0.20195502,1.4110918,0,0.7257797,-0.22614376,-0.0632879,0.6466045,0.6754165
17232000,-0.42912388,0.20253125,1.410677,0,0.7261679,-0.22531939,-0.062120564,0.6465697,0.6772127
17256000,-0.42604584,0.20304342,1.4105152,0,0.7265119,-0.22436371,-0.0609141,0.64663047,0.6785517
17280000,-0.4232324,0.20349951,1.4101162,0,0.72690773,-0.22349355,-0.05978781,0.6465921,0.67947745
17304000,-0.429515,0.20386957,1.4024875,0,0.72862303,-0.22612298,-0.06081701,0.6436445,0.6802987
17328000,-0.42646885,0.20420305,1.4020876,0,0.72905993,-0.22512674,-0.05966542,0.6436067,0.68077016
17352000,-0.42299742,0.20449974,1.4019303,0,0.72946894,-0.22395618,-0.058418274,0.6436661,0.6809172
17376000,-0.41973132,0.20476773,1.401526,0,0.7299357,-0.22285813,-0.057220556,0.64362574,0.6807855
17400000,-0.41607922,0.20499848,1.401353,0,0.730373,-0.22160023,-0.0559386,0.64367664,0.68047106
17424000,-0.4123647,0.20521003,1.4011853,0,0.7308153,-0.22031264,-0.0546444,0.64372766,0.67990106
17448000,-0.4088298,0.2054014,1.4007679,0,0.73131806,-0.21909033,-0.05338829,0.6436792,0.67911893
17472000,-0.40493074,0.20557313,1.400588,0,0.73178405,-0.21772143,-0.05204864,0.64372385,0.67816114
17496000,-0.41100824,0.20573609,1.3927222,0,0.73362756,-0.22020441,-0.053077094,0.6406898,0.67700243
17520000,-0.407081,0.20588645,1.3925403,0,0.73410136,-0.21881391,-0.051741846,0.6407327,0.67569685
17544000,-0.40341255,0.20602609,1.3921216,0,0.73462135,-0.21752015,-0.05046782,0.64067894,0.674258
17568000,-0.39935222,0.2061557,1.3919358,0,0.73510766,-0.21607237,-0.04909765,0.6407174,0.6727133
17592000,-0.39557242,0.20626909,1.3914964,0,0.73564404,-0.21472776,-0.04779633,0.6406523,0.67112684
17616000,-0.39143327,0.2063794,1.3912951,0,0.7361402,-0.21324316,-0.046406873,0.64068043,0.66946626
17640000,-0.38758305,0.20648728,1.3908527,0,0.7366802,-0.2118685,-0.045085445,0.64061,0.66775715
17664000,-0.3833792,0.20658872,1.3906485,0,0.7371793,-0.21035501,-0.04367867,0.64063215,0.6659972
17688000,-0.37956655,0.20668514,1.3902119,0,0.7377092,-0.20898804,-0.042374976,0.6405571,0.6641792
17712000,-0.38538644,0.20673354,1.3825918,0,0.7395279,-0.21131557,-0.043415524,0.63762003,0.66266614
17736000,-0.38162565,0.20678301,1.3821453,0,0.74006134,-0.20994902,-0.04215067,0.63753736,0.6611164
17760000,-0.37743875,0.20683093,1.3819436,0,0.74055886,-0.20841797,-0.04077658,0.63755137,0.65952086
17784000,-0.3735813,0.20687924,1.3814924,0,0.7410986,-0.20701283,-0.039481647,0.6374635,0.6578975
17808000,-0.36935025,0.20696464,1.3812807,0,0.7415941,-0.20547457,-0.038078547,0.6374704,0.65595603
17832000,-0.36540362,0.20705545,1.3808247,0,0.7421346,-0.20404679,-0.036739245,0.6373785,0.6540171
17856000,-0.361092,0.20714617,1.3806057,0,0.7426338,-0.2024779,-0.035308182,0.6373783,0.65207744
17880000,-0.3571457,0.20723365,1.3801454,0,0.74317026,-0.20104665,-0.033970684,0.6372788,0.65015155
17904000,-0.3528737,0.20727257,1.3799343,0,0.7436616,-0.19947408,-0.032573402,0.6372727,0.6485585
17928000,-0.34892496,0.20731604,1.3794708,0,0.74419755,-0.19802591,-0.031252548,0.6371649,0.64697516
17952000,-0.34458664,0.20735967,1.379248,0,0.7446922,-0.19642779,-0.02983176,0.6371497,0.6453799
17976000,-0.3405717,0.20740475,1.3787785,0,0.7452304,-0.19495289,-0.028489567,0.6370348,0.64378536
18000000,-0.33615437,0.20744532,1.3785517,0,0.7457277,-0.19332191,-0.027045019,0.6370129,0.64222115
18024000,-0.3321386,0.20749386,1.3780704,0,0.74626327,-0.19184521,-0.025701106,0.63688785,0.6406614
18048000,-0.32772002,0.20754687,1.3778331,0,0.74675596,-0.19021511,-0.024251051,0.63685614,0.6391071
18072000,-0.32365444,0.20759848,1.3773422,0,0.7472927,-0.1887181,-0.022890247,0.63672215,0.63757485
18096000,-0.31935394,0.20763431,1.3771029,0,0.7477698,-0.18712431,-0.021484934,0.63668144,0.63615406
18120000,-0.31536257,0.20767218,1.3766173,0,0.7482929,-0.18564813,-0.020154655,0.6365425,0.6347331
18144000,-0.31101415,0.20771201,1.3763719,0,0.74876934,-0.18403521,-0.01873272,0.6364939,0.6333134
18168000,-0.3070761,0.2077522,1.3758838,0,0.74928206,-0.18257707,-0.01741939,0.6363479,0.6318923
18192000,-0.30281836,0.20777622,1.3756317,0,0.74974716,-0.1809909,-0.016032599,0.63628954,0.63060015
18216000,-0.29894912,0.20780471,1.3751246,0,0.7502548,-0.17955257,-0.014745101,0.6361299,0.62932867
18240000,-0.29474604,0.20783585,1.3748608,0,0.7507117,-0.17798677,-0.013372757,0.63606113,0.6280619
18264000,-0.29098132,0.20786327,1.3743627,0,0.75120145,-0.1765848,-0.012120903,0.6358988,0.62678874
18288000,-0.28690204,0.20789482,1.3741038,0,0.75163966,-0.1750633,-0.010789059,0.63582563,0.62552506
18312000,-0.28328788,0.20794494,1.3736019,0,0.7521101,-0.17372254,-0.009577148,0.63565654,0.6240998
18336000,-0.27926725,0.20800336,1.373338,0,0.7525368,-0.1722292,-0.008254021,0.6355764,0.622684
18360000,-0.27565026,0.20806417,1.372823,0,0.7530056,-0.17088842,-0.007037126,0.6353976,0.6213029
18384000,-0.27170944,0.20812304,1.3725494,0,0.7534229,-0.16942322,-0.005739242,0.6353083,0.61995953
18408000,-0.26811793,0.20814028,1.3720235,0,0.7538916,-0.16807647,-0.004547529,0.6351196,0.61895365
18432000,-0.26429832,0.20816334,1.3717442,0,0.75429803,-0.16664392,-0.003302395,0.6350223,0.6179445
18456000,-0.26082444,0.20818785,1.3712239,0,0.75474954,-0.16534162,-0.002146937,0.6348312,0.61694676
18480000,-0.2570857,0.20821114,1.3709418,0,0.755145,-0.1639377,-0.000928089,0.634728,0.6159412
18504000,-0.2538352,0.20821178,1.3704259,0,0.75557405,-0.16271034,0.000145726,0.6345338,0.6151076
18528000,-0.25030494,0.20821571,1.370147,0,0.7559482,-0.16137743,0.001289778,0.6344272,0.61427325
18552000,-0.24709983,0.20822196,1.3696194,0,0.7563727,-0.16016707,0.00235115,0.6342249,0.61344475
18576000,-0.24356915,0.20823203,1.3693429,0,0.75674117,-0.15883419,0.003496617,0.63411534,0.6126117
18600000,-0.24045542,0.2082538,1.3688207,0,0.7571514,-0.15766136,0.004533425,0.6339117,0.61169976
18624000,-0.23699586,0.20827895,1.368539,0,0.7575103,-0.15635836,0.005661689,0.6337965,0.61076576
18648000,-0.23402694,0.20831187,1.3680117,0,0.7579062,-0.15524207,0.006656192,0.6335881,0.6098461
18672000,-0.23071761,0.20834109,1.3677288,0,0.75824934,-0.15399566,0.007737622,0.6334692,0.6089302
18696000,-0.22780868,0.20835197,1.3672189,0,0.7586332,-0.15289378,0.008702166,0.633264,0.6081409
18720000,-0.22467275,0.20836666,1.3669469,0,0.758957,-0.15170729,0.009721413,0.63314664,0.6073323
18744000,-0.2219971,0.20838736,1.3664308,0,0.7593212,-0.15069544,0.010615341,0.6329373,0.60651404
18768000,-0.21893524,0.20840757,1.3661464,0,0.7596394,-0.14953735,0.011613384,0.6328125,0.6056943
18792000,-0.20492834,0.20842099,1.3730841,0,0.75846773,-0.14427258,0.015549772,0.6353505,0.6049788
18816000,-0.20196602,0.20843285,1.3728027,0,0.7587691,-0.14315036,0.016515523,0.63522017,0.6042414
18840000,-0.19908787,0.20845251,1.3725133,0,0.7590649,-0.14206186,0.017457776,0.63508594,0.60352296
18864000,-0.19659068,0.20847112,1.37198,0,0.75940967,-0.14111486,0.018295553,0.63486135,0.60279363
18888000,-0.19386534,0.20849702,1.3716983,0,0.7596888,-0.14008522,0.019190378,0.6347289,0.6020502
18912000,-0.19156358,0.20847882,1.3711786,0,0.76001567,-0.1392,0.019949991,0.63450885,0.60160404
18936000,-0.18898718,0.20847209,1.3708981,0,0.7602838,-0.13821584,0.02078414,0.634376,0.60112715
18960000,-0.18691297,0.2084705,1.3703785,0,0.7605916,-0.13742122,0.02147713,0.6341564,0.6006303
18984000,-0.18445224,0.20847553,1.3700991,0,0.7608484,-0.13648374,0.022278372,0.6340233,0.60012156
19008000,-0.18239328,0.20849103,1.369575,0,0.7611535,-0.13569918,0.022972625,0.6338006,0.59947807
19032000,-0.17996903,0.20851812,1.369292,0,0.7614052,-0.13478148,0.023770384,0.6336647,0.59882885
19056000,-0.17807694,0.20854473,1.3687696,0,0.7616961,-0.13406298,0.024415161,0.633443,0.59814847
19080000,-0.16427891,0.20857392,1.3759744,0,0.76031476,-0.12891683,0.028331745,0.63600254,0.59745294
19104000,-0.16250853,0.20856231,1.3754507,0,0.76059586,-0.12823257,0.02892381,0.6357781,0.5970699
19128000,-0.16037914,0.2085575,1.3751873,0,0.760816,-0.1274173,0.029615644,0.6356467,0.59664226
19152000,-0.15870686,0.20855732,1.3746601,0,0.7610898,-0.1267731,0.030180458,0.6354212,0.5962047
19176000,-0.15665899,0.2085648,1.3743858,0,0.7613058,-0.12599182,0.030851241,0.6352855,0.59574616
19200000,-0.15509878,0.20858161,1.3738589,0,0.76157016,-0.12539485,0.031386346,0.6350606,0.5951352
19224000,-0.15321243,0.20861155,1.3735793,0,0.7617749,-0.12468134,0.03201429,0.63492405,0.59450954
19248000,-0.15169542,0.20863928,1.3730576,0,0.7620331,-0.12410365,0.032538954,0.6347008,0.5938546
19272000,-0.14989874,0.20867741,1.3727794,0,0.76223016,-0.123426296,0.033141,0.63456506,0.593199
19296000,-0.136963,0.20872237,1.3797524,0,0.7607934,-0.11863694,0.036848523,0.6369936,0.59242046
19320000,-0.13536954,0.20877571,1.3794758,0,0.7609725,-0.1180423,0.03739288,0.6368584,0.5916189
19344000,-0.13418788,0.20882621,1.3789614,0,0.7612029,-0.11759876,0.037818834,0.6366401,0.5907909
19368000,-0.13275774,0.20888501,1.3786823,0,0.76137185,-0.11706747,0.03831305,0.63650614,0.58998317
19392000,-0.13135518,0.20891455,1.3784097,0,0.76153874,-0.11653747,0.038786657,0.6363751,0.5893451
19416000,-0.13038765,0.20895205,1.3778843,0,0.76176,-0.116170496,0.03913948,0.6361559,0.5886892
19440000,-0.12907578,0.20899281,1.3776032,0,0.76192296,-0.115678,0.039588697,0.6360226,0.5880238
19464000,-0.12819083,0.20903675,1.3770714,0,0.76214045,-0.115343995,0.039917726,0.63580203,0.5873644
19488000,-0.1270479,0.20908363,1.3767836,0,0.7622949,-0.1149173,0.04031566,0.63566905,0.5867047
19512000,-0.11456587,0.20910808,1.3837627,0,0.7607739,-0.11031914,0.043906786,0.6380634,0.58622164
19536000,-0.11357857,0.20913887,1.3834848,0,0.76091516,-0.1099471,0.044248875,0.6379356,0.5857127
19560000,-0.11293446,0.209172,1.3829626,0,0.7611152,-0.10970085,0.04449569,0.63772225,0.58518434
19584000,-0.11198344,0.20920826,1.3826898,0,0.76125205,-0.1093442,0.044827778,0.6375967,0.58462113
19608000,-0.11143348,0.20920914,1.3821675,0,0.7614486,-0.109123394,0.04503195,0.63738555,0.58432627
19632000,-0.110654175,0.20921803,1.3818907,0,0.76157874,-0.1088232,0.045298774,0.6372624,0.58400416
19656000,-0.11029509,0.20923209,1.3813652,0,0.76176476,-0.10867895,0.045447152,0.63705397,0.583664
19680000,-0.10948347,0.20924684,1.3810908,0,0.7618954,-0.10836817,0.045726214,0.63693076,0.58329356
19704000,-0.097423315,0.20926352,1.3880801,0,0.7603046,-0.103949785,0.049209543,0.6393041,0.58295757
19728000,-0.096858315,0.20928384,1.3878033,0,0.7604213,-0.10373457,0.049412295,0.63918465,0.58258045
19752000,-0.096391216,0.20930777,1.3875203,0,0.76053464,-0.10355751,0.049585417,0.63906515,0.5821898
19776000,-0.096293956,0.20933624,1.3869973,0,0.7607051,-0.103516534,0.049654465,0.6388634,0.58176935
19800000,-0.0958735,0.20936523,1.3867154,0,0.7608153,-0.103358746,0.04981447,0.6387453,0.58136255
19824000,-0.095916815,0.20939939,1.3861892,0,0.7609793,-0.10337289,0.049840935,0.6385457,0.5809283
19848000,-0.09555994,0.20943701,1.38591,0,0.76108474,-0.10324198,0.049983725,0.63843,0.5804676
19872000,-0.083775885,0.20947742,1.3929031,0,0.7594418,-0.09895602,0.053414308,0.6407831,0.57999396
19896000,-0.083536,0.20950605,1.3926239,0,0.7595415,-0.09886653,0.05351591,0.64067006,0.5795984
19920000,-0.08377069,0.2095402,1.3921019,0,0.7596953,-0.09895253,0.053479627,0.6404775,0.5791605
19944000,-0.0836894,0.2095782,1.391826,0,0.75978565,-0.098926306,0.053533845,0.64036983,0.5786967
19968000,-0.08400542,0.20962113,1.3913007,0,0.75993586,-0.099045925,0.05347511,0.6401779,0.57822174
19992000,-0.08396822,0.20962846,1.391027,0,0.7600249,-0.099026784,0.05350337,0.6400728,0.5780024
20016000,-0.08434206,0.20964617,1.3905077,0,0.7601716,-0.0991606,0.05341626,0.6398852,0.57772434
20040000,-0.07253187,0.20966929,1.3977629,0,0.75841767,-0.09488422,0.05685892,0.64231354,0.5774156
20064000,-0.07265441,0.20969774,1.397482,0,0.7585006,-0.09493175,0.056843746,0.64221,0.5770988
20088000,-0.07318005,0.20973086,1.3969603,0,0.7586414,-0.095126845,0.056712423,0.64202636,0.5767626
20112000,-0.07326596,0.20978133,1.3966839,0,0.7587234,-0.09516765,0.056717254,0.64192295,0.5762772
20136000,-0.07389335,0.20983396,1.3961613,0,0.7588585,-0.09540762,0.05656092,0.6417414,0.5757567
20160000,-0.074157745,0.20989051,1.3958815,0,0.75893265,-0.095518,0.05651105,0.6416416,0.57522124
20184000,-0.07499355,0.20994997,1.3953655,0,0.7590552,-0.09583953,0.056290332,0.6414682,0.57466006
20208000,-0.06351199,0.21001066,1.4026302,0,0.757256,-0.09171703,0.05966235,0.64388806,0.574076
20232000,-0.06435623,0.21007794,1.4021099,0,0.7573813,-0.0920427,0.059440106,0.6437147,0.5734683
20256000,-0.06480968,0.21014793,1.4018327,0,0.75744605,-0.09222855,0.0593336,0.6436217,0.5728494
20280000,-0.06534854,0.21022138,1.4015563,0,0.75750643,-0.092447884,0.05920095,0.6435314,0.57221925
20304000,-0.06621312,0.21026707,1.4010416,0,0.75762975,-0.09277475,0.05896403,0.6433611,0.5717997
20328000,-0.06675309,0.21031834,1.4007672,0,0.7576903,-0.092987575,0.05882263,0.64327186,0.57135135
20352000,-0.06777029,0.21037227,1.4002428,0,0.75780874,-0.093374774,0.05854049,0.6431019,0.57089025
20376000,-0.06844692,0.21042934,1.3999699,0,0.757862,-0.093641385,0.058357444,0.6430171,0.57041806
20400000,-0.057572886,0.21048324,1.406997,0,0.7560944,-0.089753546,0.06155823,0.64534956,0.5699762
20424000,-0.05828758,0.21054508,1.4067229,0,0.7561477,-0.09003513,0.06136345,0.64526653,0.569514
20448000,-0.059481323,0.21060984,1.4062023,0,0.75625855,-0.090491295,0.06102647,0.6451047,0.5690348
20472000,-0.06025112,0.21067746,1.4059236,0,0.75631016,-0.09079554,0.06081652,0.6450212,0.56854737
20496000,-0.061356574,0.2107635,1.4054072,0,0.75642216,-0.09122548,0.060516264,0.6448576,0.56791145
20520000,-0.062163614,0.21085593,1.4051331,0,0.7564689,-0.09155202,0.06030374,0.6447762,0.56727064
20544000,-0.06297976,0.2109519,1.4048613,0,0.7565144,-0.09188323,0.06008961,0.6446958,0.5666164
20568000,-0.052336734,0.21104953,1.4118952,0,0.75471705,-0.08811039,0.063247144,0.64702296,0.5659417
20592000,-0.053228453,0.2111398,1.4116205,0,0.7547621,-0.08846723,0.06300504,0.6469452,0.5653448
20616000,-0.05451894,0.2112355,1.4110955,0,0.75487,-0.08896852,0.06264722,0.6467853,0.56473863
20640000,-0.055416632,0.21133272,1.4108244,0,0.7549129,-0.08933011,0.0624059,0.6467088,0.5641264
20664000,-0.05670754,0.21143228,1.4103022,0,0.755019,-0.08983312,0.062049706,0.64654946,0.5635111
20688000,-0.05769207,0.2115352,1.4100277,0,0.7550583,-0.09022933,0.06178285,0.6464739,0.56290174
20712000,-0.059038408,0.2115876,1.409505,0,0.7551637,-0.09073837,0.061391257,0.64631677,0.5627001
20736000,-0.048205458,0.2116483,1.4167888,0,0.7532836,-0.08690206,0.06459807,0.6487209,0.56245756
20760000,-0.049239524,0.21171299,1.416513,0,0.753325,-0.087303504,0.064299166,0.6486487,0.5621985
20784000,-0.050720725,0.2117809,1.4159889,0,0.7534268,-0.08786655,0.06386748,0.64849705,0.56193286
20808000,-0.051886138,0.2118716,1.4157169,0,0.7534593,-0.088326134,0.06353593,0.64842945,0.56145626
20832000,-0.05336906,0.21197017,1.415195,0,0.7535579,-0.08890006,0.063115634,0.64827746,0.5609635
20856000,-0.0544438,0.21207178,1.4149269,0,0.75359195,-0.08932927,0.06281771,0.6482078,0.56045467
20880000,-0.055855364,0.21217526,1.4144025,0,0.75369364,-0.089878075,0.06242296,0.6480519,0.5599319
20904000,-0.056995854,0.21225117,1.4141319,0,0.7537262,-0.09032387,0.06209438,0.6479836,0.5596279
20928000,-0.046654295,0.21233177,1.4211808,0,0.7518919,-0.0866815,0.06516953,0.65030587,0.55929434
20952000,-0.047881484,0.2124125,1.4209058,0,0.75192416,-0.087160036,0.06481297,0.65024024,0.5589404
20976000,-0.04908572,0.21249478,1.4206346,0,0.7519557,-0.08763061,0.064464375,0.6501751,0.55856985
21000000,-0.050598834,0.21257213,1.4201134,0,0.7520549,-0.08820779,0.064024664,0.65002584,0.5582346
21024000,-0.05181431,0.21265432,1.4198407,0,0.7520858,-0.08868268,0.06367276,0.64996,0.5578726
21048000,-0.053386383,0.21274008,1.4193244,0,0.75217944,-0.089285195,0.0632173,0.6498136,0.557487
21072000,-0.054664098,0.21282838,1.4190557,0,0.75220525,-0.08978577,0.06284759,0.64975065,0.5570909
21096000,-0.056223087,0.212908,1.4185396,0,0.7522988,-0.090381674,0.06239451,0.6496035,0.5567319
21120000,-0.045569662,0.21299915,1.4258454,0,0.7503885,-0.08664265,0.06557226,0.6520049,0.55635893
21144000,-0.046805117,0.21308596,1.4255775,0,0.750418,-0.087125584,0.06521387,0.6519426,0.55595183
21168000,-0.048466567,0.21318266,1.4250618,0,0.7505087,-0.08776358,0.06473132,0.6518005,0.5555385
21192000,-0.0497502,0.21327583,1.4247947,0,0.75053483,-0.08826685,0.064359896,0.6517393,0.5550858
21216000,-0.05149807,0.21338007,1.424281,0,0.75061977,-0.08894009,0.06385244,0.6516,0.5546016
21240000,-0.052809663,0.21348828,1.4240141,0,0.7506429,-0.08945888,0.06347786,0.65153885,0.5541019
21264000,-0.054615233,0.21359962,1.4234957,0,0.75072527,-0.09015623,0.06295499,0.6513986,0.55360514
21288000,-0.055942547,0.21371388,1.4232334,0,0.750745,-0.090683185,0.06257768,0.651339,0.55308205
21312000,-0.04574018,0.21380615,1.4303042,0,0.7488872,-0.08711476,0.06562667,0.6536606,0.55274796
21336000,-0.047018446,0.2139046,1.4300382,0,0.7489135,-0.08761669,0.065257564,0.6536002,0.5523903
21360000,-0.048332177,0.21400411,1.4297717,0,0.74893814,-0.08813229,0.06487738,0.6535406,0.5520109
21384000,-0.050077204,0.21410695,1.4292585,0,0.7490237,-0.0888026,0.06436862,0.6534021,0.5516203
21408000,-0.051389128,0.2141844,1.4289964,0,0.7490471,-0.089310676,0.06398084,0.6533441,0.5514457
21432000,-0.05315487,0.21426919,1.4284797,0,0.74913263,-0.08998308,0.06345916,0.6532047,0.55125064
21456000,-0.05442262,0.21435758,1.4282157,0,0.7491573,-0.09047827,0.06309031,0.6531437,0.5510283
21480000,-0.056150377,0.21444981,1.4276987,0,0.749243,-0.09113915,0.06258434,0.653002,0.5507867
21504000,-0.04559361,0.2145708,1.4350278,0,0.7473112,-0.087463915,0.065755725,0.6554023,0.5502885
21528000,-0.046924565,0.21469647,1.4347627,0,0.7473336,-0.0879935,0.065378375,0.6553436,0.5497753
21552000,-0.04867822,0.21482562,1.4342518,0,0.7474174,-0.08867425,0.06487485,0.6552064,0.5492586
21576000,-0.050047427,0.21495727,1.4339883,0,0.7474364,-0.089220285,0.06448747,0.6551488,0.5487243
21600000,-0.051855408,0.2150818,1.4334745,0,0.74751765,-0.08992003,0.06396506,0.65501165,0.5482361
21624000,-0.05318389,0.21521334,1.4332076,0,0.7475387,-0.09045086,0.06359144,0.6549509,0.5477305
21648000,-0.054961875,0.2153482,1.4326959,0,0.74761885,-0.0911431,0.06308315,0.6548125,0.54722154
21672000,-0.056344427,0.21548522,1.4324291,0,0.74763626,-0.091696076,0.0626942,0.65475285,0.54670674
21696000,-0.0577359,0.21561867,1.4321656,0,0.74765193,-0.09225139,0.062300958,0.65469456,0.5462028
21720000,-0.04754748,0.21575934,1.4392524,0,0.74578196,-0.08871946,0.06537418,0.6570117,0.5456952
21744000,-0.048904832,0.21590385,1.4389845,0,0.7458026,-0.08926408,0.06499435,0.6569522,0.5451977
21768000,-0.050700318,0.21605152,1.4384674,0,0.7458848,-0.08996512,0.06448315,0.6568136,0.5446983
21792000,-0.05207306,0.21618037,1.4381998,0,0.7459044,-0.09051052,0.064092726,0.65675455,0.54436487
21816000,-0.05380184,0.21631557,1.4376827,0,0.74598897,-0.09118291,0.063599244,0.6566135,0.54401714
21840000,-0.05514539,0.21645354,1.4374179,0,0.7460076,-0.091720626,0.063222006,0.65655375,0.54365766
21864000,-0.056496646,0.21659273,1.4371536,0,0.7460254,-0.09226172,0.0628428,0.6564944,0.5432806
21888000,-0.058174282,0.21673359,1.4366418,0,0.7461086,-0.092917405,0.0623687,0.65635246,0.54289275
21912000,-0.05956156,0.21685232,1.4363716,0,0.74612665,-0.09346523,0.06197059,0.65629184,0.5427142
21936000,-0.061237518,0.2169747,1.4358563,0,0.7462109,-0.094114445,0.061490774,0.6561483,0.54251385
21960000,-0.050732438,0.21710017,1.4432061,0,0.7442737,-0.09047274,0.064651385,0.6585526,0.54229367
21984000,-0.08843155,0.20869772,1.305156,0,0.7866313,-0.0981156,0.055981413,0.6070014,0.6022148
22008000,-0.12613067,0.20029436,1.2998761,0,0.78674453,-0.11030423,0.04149108,0.60592455,0.6020474
22032000,-0.16382979,0.19460514,1.2940755,0,0.7866443,-0.12334339,0.028160859,0.6043046,0.60164815
22056000,-0.2015289,0.19471553,1.2828605,0,0.78755087,-0.13808459,0.017584179,0.6003226,0.6010307
22080000,-0.23922803,0.19484021,1.276994,0,0.7865572,-0.15292126,0.006764285,0.5982451,0.6002806
22104000,-0.27692714,0.19497664,1.2658688,0,0.7868401,-0.16778103,-0.003525123,0.5939022,0.59936655
22128000,-0.31462625,0.19512321,1.2600666,0,0.7852446,-0.18266538,-0.014130011,0.5914597,0.5983797
22152000,-0.34483454,0.19527395,1.2491179,0,0.78560734,-0.19467008,-0.021935739,0.5868931,0.59735644
22176000,-0.35339174,0.19542988,1.2433985,0,0.786428,-0.19814208,-0.023817353,0.584554,0.59632874
22200000,-0.36112094,0.1955862,1.2382319,0,0.7871494,-0.2012898,-0.025493316,0.5824331,0.59531873
22224000,-0.36947006,0.19575,1.2325414,0,0.7879408,-0.20469777,-0.027276091,0.5800897,0.59431946
22248000,-0.37757677,0.19591847,1.2268907,0,0.7887245,-0.20801891,-0.028971456,0.57775635,0.59334266
22272000,-0.3919268,0.19609067,1.2162075,0,0.790269,-0.21389313,-0.031904355,0.5733295,0.5923946
22296000,-0.39935535,0.19631271,1.2107038,0,0.7910223,-0.2169796,-0.033346564,0.5710443,0.5911429
22320000,-0.41286302,0.19654112,1.2002456,0,0.79249066,-0.22256947,-0.035946384,0.56668276,0.5899457
22344000,-0.41981044,0.19677192,1.1947956,0,0.79323095,-0.22548473,-0.03720633,0.5644085,0.58879757
22368000,-0.4325947,0.19700333,1.184477,0,0.7946506,-0.23081878,-0.0395286,0.56008095,0.58771956
22392000,-0.43890768,0.19726078,1.1791683,0,0.79537576,-0.23350193,-0.040571384,0.5578604,0.5864947
22416000,-0.4509695,0.1975217,1.1690087,0,0.7967489,-0.23858203,-0.04261685,0.55358255,0.58533186
22440000,-0.4500564,0.19777922,1.1692529,0,0.7967641,-0.23827964,-0.04228747,0.5537162,0.584255
22464000,-0.45547548,0.19803518,1.1640935,0,0.7975148,-0.24061562,-0.04306203,0.5515613,0.5832485
22488000,-0.46661758,0.19828904,1.1541134,0,0.79887694,-0.2453466,-0.044806153,0.5473508,0.58231884
22512000,-0.47161505,0.1985651,1.1490582,0,0.7996134,-0.24752784,-0.045434527,0.54523754,0.581256
22536000,-0.48201746,0.19884013,1.1392071,0,0.80096114,-0.25198707,-0.046915866,0.54107547,0.5802606
22560000,-0.48647717,0.19911025,1.1342175,0,0.8017159,-0.25395906,-0.047377244,0.5389912,0.57934165
22584000,-0.49635065,0.19937636,1.1244769,0,0.8030387,-0.25822014,-0.048670508,0.5348667,0.5785004
22608000,-0.5003513,0.19961639,1.119582,0,0.8038015,-0.26000583,-0.04900465,0.5328215,0.5778963
22632000,-0.5094817,0.19985676,1.1099714,0,0.8051304,-0.26397517,-0.050069004,0.5287488,0.57736444
22656000,-0.51311284,0.20009273,1.1051265,0,0.8059027,-0.2656164,-0.050287522,0.52672565,0.57688975
22680000,-0.51599574,0.20032659,1.100772,0,0.80663854,-0.2669446,-0.050368316,0.5249169,0.5764786
22704000,-0.51923573,0.200586,1.0959516,0,0.80743974,-0.26843578,-0.0504637,0.52291167,0.57591164
22728000,-0.52242845,0.20084421,1.0911314,0,0.80824006,-0.26990882,-0.050540373,0.52090585,0.5753888
22752000,-0.5305172,0.20109777,1.0816864,0,0.8095643,-0.2734808,-0.051249973,0.51690173,0.57494557
22776000,-0.53325635,0.20134899,1.0769395,0,0.81038606,-0.27477083,-0.051200777,0.5149311,0.5745549
22800000,-0.54094845,0.20158912,1.0675583,0,0.8117025,-0.27818778,-0.05177608,0.51095,0.57428384
22824000,-0.54337716,0.20183127,1.062846,0,0.812539,-0.2793519,-0.051636904,0.50899553,0.57405406
22848000,-0.5506135,0.20207098,1.0535142,0,0.8138618,-0.28259125,-0.05205962,0.5050356,0.5738744
22872000,-0.54725945,0.20230865,1.0539762,0,0.8141918,-0.28126863,-0.051177554,0.5053321,0.5737484
22896000,-0.5541286,0.20253162,1.0447059,0,0.8155292,-0.28435612,-0.051501594,0.5013994,0.5737445
22920000,-0.5559743,0.20275748,1.0400629,0,0.8164033,-0.28527942,-0.051206976,0.499479,0.57376015
22944000,-0.5625125,0.20298076,1.0308361,0,0.8177364,-0.2882374,-0.05141619,0.495563,0.5738186
22968000,-0.56407523,0.20320176,1.0262492,0,0.8186209,-0.28904343,-0.05104719,0.4936678,0.57392734
22992000,-0.56554204,0.20343514,1.0216498,0,0.81951594,-0.28981277,-0.05064416,0.49176955,0.57394356
23016000,-0.5716273,0.20366943,1.0125041,0,0.820844,-0.2925916,-0.050703585,0.48788777,0.57398236
23040000,-0.56758857,0.20389985,1.0130092,0,0.82128453,-0.29097134,-0.04969392,0.48821923,0.57406074
23064000,-0.5733899,0.2041277,1.0038927,0,0.8226281,-0.29363173,-0.04967528,0.48435092,0.57414776
23088000,-0.57441,0.20435368,0.99934876,0,0.82355154,-0.29421273,-0.04915794,0.48247832,0.5742574
23112000,-0.5799178,0.20454907,0.9902766,0,0.82489604,-0.2967473,-0.04905778,0.47862408,0.5745972
23136000,-0.58068085,0.20474611,0.98576385,0,0.8258387,-0.29721424,-0.04848589,0.4767632,0.57494575
23160000,-0.58595574,0.20494263,0.97671723,0,0.82717776,-0.2996546,-0.048304416,0.47291726,0.57530004
23184000,-0.58156806,0.20513868,0.97719824,0,0.8276977,-0.29786912,-0.0472546,0.47324136,0.5756451
23208000,-0.5821189,0.20533581,0.9726957,0,0.8286573,-0.2982443,-0.046629302,0.47138432,0.5759756
23232000,-0.5871258,0.20553508,0.9636846,0,0.830001,-0.30057156,-0.04637023,0.46755204,0.57629603
23256000,-0.58751893,0.20573239,0.9591949,0,0.83096766,-0.30087903,-0.04570225,0.46569937,0.57661843
23280000,-0.5922628,0.20592932,0.95021856,0,0.8323113,-0.3030964,-0.045362353,0.46187967,0.57694566
23304000,-0.58752775,0.20614554,0.9507139,0,0.8328883,-0.3011583,-0.044250302,0.46221486,0.5771183
23328000,-0.5921042,0.2063647,0.94176126,0,0.8342332,-0.3033075,-0.043856367,0.45840603,0.5772814
23352000,-0.59208655,0.20658246,0.9373137,0,0.8352294,-0.3034408,-0.043083854,0.4565735,0.57745
23376000,-0.5964706,0.20679924,0.92839134,0,0.8365666,-0.30550772,-0.04262864,0.4527738,0.5776233
23400000,-0.5964055,0.20699903,0.9239439,0,0.8375595,-0.30561414,-0.041848138,0.45093554,0.5779166
23424000,-0.5914038,0.20720163,0.9244455,0,0.83818597,-0.30354857,-0.040708773,0.4512708,0.5782027
23448000,-0.5956286,0.20740494,0.915552,0,0.8395188,-0.30554068,-0.04021579,0.44747722,0.57849556
23472000,-0.5953038,0.20760825,0.911126,0,0.84053445,-0.3055322,-0.039378993,0.44564682,0.5787866
23496000,-0.5992726,0.20780945,0.90225863,0,0.841872,-0.3074139,-0.03881345,0.44186175,0.57907563
23520000,-0.5939626,0.20801298,0.90276825,0,0.8425505,-0.30520752,-0.037629522,0.44220018,0.5793599
23544000,-0.5979045,0.20821717,0.8939119,0,0.8438748,-0.3070742,-0.037052885,0.43841514,0.5796409
23568000,-0.59738326,0.20842157,0.8895063,0,0.8448965,-0.3069738,-0.036173567,0.4365873,0.5799094
23592000,-0.59682083,0.20861372,0.88510054,0,0.8459219,-0.30685133,-0.035291202,0.43475628,0.5802598
23616000,-0.5957441,0.20881018,0.88117284,0,0.8469181,-0.30650124,-0.03436961,0.43313456,0.5806031
23640000,-0.5950769,0.20900722,0.8767759,0,0.8479493,-0.30633023,-0.033465736,0.43130463,0.58093774
23664000,-0.59870386,0.20920575,0.867948,0,0.84926647,-0.30805254,-0.032801718,0.42752093,0.5812687
23688000,-0.5931188,0.20940563,0.8684558,0,0.8499935,-0.30570891,-0.031597823,0.42784888,0.5815921
23712000,-0.59661615,0.2096002,0.8596362,0,0.8513152,-0.30737033,-0.030905671,0.4240647,0.5819237
23736000,-0.59570986,0.20979959,0.855244,0,0.8523625,-0.30708772,-0.029951736,0.42223012,0.5822178
23760000,-0.59481496,0.20999986,0.8508569,0,0.85340273,-0.3068073,-0.029001966,0.42039487,0.58249915
23784000,-0.5934223,0.21020103,0.84693825,0,0.8544171,-0.30630523,-0.028020732,0.41876417,0.5827626
23808000,-0.59250855,0.21040557,0.8425537,0,0.85545146,-0.30601197,-0.027068622,0.41692537,0.58299106
23832000,-0.59589756,0.2106153,0.8337649,0,0.8567333,-0.30761757,-0.026331216,0.41314173,0.5831985
23856000,-0.5900965,0.21082528,0.83426684,0,0.8574963,-0.30516255,-0.02511675,0.41345507,0.58339876
23880000,-0.5890062,0.21103552,0.82989144,0,0.85854304,-0.30478615,-0.024131864,0.41161487,0.58361095
23904000,-0.59224117,0.2112468,0.8211131,0,0.8598252,-0.30631745,-0.02336011,0.4078291,0.5837868
23928000,-0.58626056,0.21146107,0.8216164,0,0.86061245,-0.30377713,-0.0221221,0.40813765,0.583938
23952000,-0.5894696,0.211676,0.8128396,0,0.86188424,-0.30529198,-0.021342337,0.40434736,0.5840848
23976000,-0.588279,0.21189158,0.8084679,0,0.8629254,-0.30486155,-0.02033975,0.402499,0.5842352
24000000,-0.5821849,0.21207772,0.8089624,0,0.8637317,-0.3022583,-0.01910533,0.40279335,0.58460915
24024000,-0.58541757,0.21226871,0.8001732,0,0.864984,-0.3037706,-0.01833687,0.39898592,0.5849397
24048000,-0.5792397,0.21246079,0.8006703,0,0.8657994,-0.30112603,-0.017093755,0.39927718,0.5852862
24072000,-0.57799107,0.21265496,0.7962973,0,0.8668384,-0.30065474,-0.016100787,0.3974149,0.5856186
24096000,-0.5811132,0.21284191,0.78751916,0,0.8680849,-0.30210957,-0.01531212,0.39360386,0.58599275
24120000,-0.5748809,0.2130332,0.78801614,0,0.8689049,-0.29943186,-0.014074609,0.39388674,0.58633614
24144000,-0.57802856,0.21322553,0.77923673,0,0.87013376,-0.30089274,-0.013288051,0.39006963,0.58666205
24168000,-0.5717037,0.21342076,0.7797297,0,0.8709651,-0.2981692,-0.012040652,0.39034593,0.58696073
24192000,-0.57032037,0.21360505,0.7753526,0,0.87200487,-0.29762247,-0.01103697,0.3884669,0.58732074
24216000,-0.573404,0.21379893,0.76656973,0,0.87322295,-0.2990466,-0.010236047,0.38463992,0.5876448
24240000,-0.56706244,0.21399413,0.76706153,0,0.8740529,-0.29630625,-0.009001747,0.38490686,0.58793557
24264000,-0.5656235,0.21419086,0.76267904,0,0.8750875,-0.295728,-0.007988647,0.38301814,0.58820367
24288000,-0.5636177,0.21438825,0.75876695,0,0.87611175,-0.2948967,-0.006939106,0.38133454,0.58844537
24312000,-0.5621008,0.2145786,0.75438327,0,0.87715006,-0.29427686,-0.005919397,0.3794388,0.5887137
24336000,-0.5605761,0.21477257,0.74999803,0,0.8781849,-0.29365098,-0.00489907,0.3775397,0.5889514
24360000,-0.5585323,0.21496762,0.74607795,0,0.87920386,-0.29279298,-0.003851593,0.37584317,0.589165
24384000,-0.55696166,0.2151623,0.7416859,0,0.88023776,-0.29214057,-0.00282719,0.37393507,0.5893526
24408000,-0.5503192,0.21533431,0.7421717,0,0.8810955,-0.2892426,-0.001577906,0.37417483,0.58970094
24432000,-0.5534797,0.21551093,0.73336315,0,0.8822597,-0.2906692,-0.000809357,0.3703088,0.590007
24456000,-0.54682446,0.2156879,0.73384506,0,0.8831157,-0.28775984,0.000433542,0.37054113,0.5902749
24480000,-0.5452692,0.21586587,0.72944343,0,0.8841355,-0.2870987,0.001433998,0.3686147,0.5905178
24504000,-0.5432203,0.21605058,0.7255083,0,0.88513494,-0.28621757,0.002458356,0.36689177,0.5906504
24528000,-0.54166776,0.216239,0.7211005,0,0.8861453,-0.28555292,0.003457852,0.36495763,0.5907571
24552000,-0.5348556,0.21642767,0.72157884,0,0.88700753,-0.28256357,0.0047189,0.36517563,0.5908398
24576000,-0.5380602,0.21661821,0.71274596,0,0.88813967,-0.2839927,0.005474441,0.36128387,0.59091234
24600000,-0.5312908,0.21681102,0.71322066,0,0.88899183,-0.2810163,0.006718159,0.36149436,0.59089404
24624000,-0.5297981,0.21702,0.7088009,0,0.88997835,-0.2803686,0.007702552,0.35954505,0.59087366
24648000,-0.5229747,0.2172232,0.70927423,0,0.89082557,-0.27736396,0.008956008,0.3597483,0.5908238
24672000,-0.52633667,0.21742149,0.7004244,0,0.8919228,-0.2788514,0.009675466,0.3558401,0.5907326
24696000,-0.51951367,0.21759054,0.700895,0,0.89276934,-0.2758352,0.010901548,0.35603234,0.5910152
24720000,-0.5180299,0.21776007,0.6964652,0,0.8937443,-0.27517292,0.011852503,0.35406265,0.5912386
24744000,-0.51601094,0.21793246,0.69250345,0,0.8947053,-0.27427173,0.012831919,0.3522964,0.5914489
24768000,-0.5144285,0.2181081,0.68806595,0,0.8956854,-0.27356017,0.013797902,0.35031748,0.59164464
24792000,-0.5074181,0.2182813,0.6885328,0,0.896541,-0.27044833,0.015041858,0.35049352,0.5918039
24816000,-0.5058262,0.2184628,0.6840909,0,0.8975156,-0.26972687,0.016002968,0.34850696,0.59191436
24840000,-0.50374717,0.2186462,0.68011737,0,0.8984694,-0.26878783,0.016983286,0.34672388,0.5920164
24864000,-0.49662846,0.21883099,0.68058056,0,0.89932334,-0.26561975,0.018240534,0.34688756,0.5920791
24888000,-0.49504933,0.21901631,0.6761281,0,0.900286,-0.26489502,0.019189186,0.34488764,0.59211975
24912000,-0.4877814,0.21919827,0.6765884,0,0.901147,-0.2616532,0.02046574,0.34504047,0.5921669
24936000,-0.4912214,0.21938384,0.6676807,0,0.90220696,-0.26313865,0.02112963,0.34107813,0.59216243
24960000,-0.483893,0.21956861,0.66813594,0,0.9030709,-0.25986308,0.02240514,0.34122157,0.59212077
24984000,-0.48222974,0.21975434,0.66366625,0,0.90403044,-0.2590875,0.023353457,0.33920088,0.5920521
25008000,-0.47480655,0.21988666,0.6641176,0,0.9048976,-0.25575507,0.024615541,0.33932838,0.59242594
25032000,-0.46747783,0.2200227,0.6645724,0,0.9057396,-0.25246322,0.025864117,0.33945432,0.59275556
25056000,-0.47110713,0.22016086,0.6556288,0,0.9067769,-0.25401077,0.02644793,0.33546188,0.5930357
25080000,-0.4636891,0.22030051,0.65608007,0,0.9076249,-0.2506721,0.02769994,0.33557898,0.5932679
25104000,-0.46217594,0.2204525,0.651589,0,0.9085523,-0.24994367,0.028585367,0.33353233,0.5933064
25128000,-0.4547799,0.22060812,0.6520391,0,0.9093818,-0.24661113,0.029835075,0.33364287,0.59329647
25152000,-0.4473773,0.22076479,0.65249026,0,0.91019964,-0.24327308,0.031087443,0.33374918,0.59324837
25176000,-0.4512516,0.22092292,0.64351493,0,0.9112019,-0.24491909,0.03161347,0.32973686,0.59316254
25200000,-0.44380796,0.22106437,0.64396346,0,0.9120211,-0.24155353,0.032851897,0.32983372,0.59318316
25224000,-0.4364513,0.22121099,0.64441234,0,0.9128169,-0.23822567,0.034079477,0.32992798,0.5931574
25248000,-0.43512416,0.22135839,0.6398985,0,0.9137045,-0.23756275,0.034903057,0.32785645,0.5931063
25272000,-0.42770895,0.22150719,0.64034444,0,0.9144933,-0.23420258,0.03613528,0.3279411,0.59304684
25296000,-0.42636552,0.2216495,0.6358269,0,0.9153768,-0.23352554,0.036949262,0.32586172,0.5930253
25320000,-0.42448264,0.22179523,0.63178146,0,0.9162412,-0.23260823,0.03779438,0.3239862,0.5929631
25344000,-0.417071,0.22194177,0.6322299,0,0.9170121,-0.2292405,0.039011583,0.3240614,0.5928695
25368000,-0.41587466,0.22208974,0.6277002,0,0.9178683,-0.22862317,0.039792225,0.32197192,0.5927496
25392000,-0.4085344,0.22222649,0.6281457,0,0.91861814,-0.22528115,0.04098722,0.32203916,0.5927029
25416000,-0.401049,0.2223726,0.62859607,0,0.9193703,-0.22187142,0.042210434,0.32210183,0.5926075
25440000,-0.39992392,0.22251998,0.62406933,0,0.92020947,-0.22127815,0.04296132,0.3200074,0.59246194
25464000,-0.39248374,0.2226693,0.6245211,0,0.9209419,-0.21788417,0.044172034,0.32006472,0.5922799
25488000,-0.39087784,0.22281864,0.62046343,0,0.92175174,-0.21707474,0.044939283,0.31817093,0.59207404
25512000,-0.38990912,0.22295389,0.615925,0,0.9225654,-0.21654397,0.045648113,0.3160666,0.59196174
25536000,-0.382536,0.22309467,0.616378,0,0.92327446,-0.2131714,0.046830624,0.31611562,0.5918059
25560000,-0.37507153,0.22323738,0.6168258,0,0.9239814,-0.20975454,0.04802998,0.3161558,0.59162515
25584000,-0.36769503,0.22338247,0.61728156,0,0.9246652,-0.20637657,0.049216673,0.31619734,0.5914023
25608000,-0.3667746,0.22351651,0.6127297,0,0.92546654,-0.20585656,0.049893618,0.3140785,0.5912795
25632000,-0.35944355,0.22365636,0.61318344,0,0.9261326,-0.20249376,0.051064212,0.31411314,0.59110403
25656000,-0.3520688,0.22379659,0.6136413,0,0.92679006,-0.19910876,0.05224234,0.31414425,0.59088504
25680000,-0.3513371,0.22393814,0.60908896,0,0.9275644,-0.19866945,0.052876055,0.31202397,0.5906445
25704000,-0.3438495,0.22406961,0.6095444,0,0.9282204,-0.19522586,0.05406116,0.31204373,0.5904622
25728000,-0.33636516,0.22420812,0.60999423,0,0.9288635,-0.1917825,0.05525047,0.31205684,0.5902584
25752000,-0.33500248,0.22434813,0.6059111,0,0.9296182,-0.19105516,0.055919066,0.31013063,0.59004194
25776000,-0.33429426,0.22448868,0.6013473,0,0.93038017,-0.19061676,0.056530114,0.30799735,0.58977723
25800000,-0.32678992,0.22461691,0.6017927,0,0.9310104,-0.18715484,0.05770408,0.3079982,0.5896048
25824000,-0.3193161,0.22474913,0.6022393,0,0.9316245,-0.18370569,0.0588759,0.3079963,0.5893884
25848000,-0.31185448,0.22488016,0.6026854,0,0.9322247,-0.18026008,0.060046114,0.3079899,0.58914006
25872000,-0.3112423,0.22501153,0.5981088,0,0.9329723,-0.17985454,0.06061403,0.30584493,0.5888564
25896000,-0.3038366,0.2251645,0.59856224,0,0.933551,-0.17643358,0.06177828,0.30583853,0.58829474
25920000,-0.29641354,0.2253212,0.5990082,0,0.9341195,-0.17300296,0.06294837,0.30582383,0.58771294
25944000,-0.2891189,0.22547694,0.5994537,0,0.93466467,-0.16963044,0.06409913,0.3058085,0.58711463
25968000,-0.2887276,0.2256311,0.59485394,0,0.93538713,-0.16932061,0.06462134,0.30365345,0.58651936
25992000,-0.28143033,0.22573575,0.5952934,0,0.93592435,-0.16593535,0.06574182,0.3036266,0.5863576
26016000,-0.27419522,0.22584642,0.59573025,0,0.9364441,-0.16257825,0.06685659,0.30359674,0.58615977
26040000,-0.2669617,0.22595723,0.59616977,0,0.93695116,-0.15922046,0.0679716,0.303564,0.58593196
26064000,-0.2668304,0.22606944,0.59156793,0,0.9376494,-0.15901741,0.06841065,0.30140814,0.58566904
26088000,-0.25957474,0.22618213,0.5920062,0,0.93814594,-0.15564536,0.0695229,0.30136865,0.58539367
26112000,-0.2523983,0.22628683,0.59245104,0,0.9386239,-0.15230814,0.07061953,0.30133057,0.58512944
26136000,-0.24528286,0.2263981,0.5928896,0,0.93908596,-0.14899883,0.07171115,0.30128804,0.58485174
26160000,-0.23815836,0.2265096,0.59332645,0,0.93953705,-0.14568388,0.07280496,0.30124035,0.584558
26184000,-0.23835768,0.2266214,0.5887152,0,0.94020665,-0.14562462,0.07316386,0.29908508,0.5842351
26208000,-0.23137124,0.22670619,0.5891615,0,0.94063705,-0.14236757,0.074216604,0.2990409,0.58414257
26232000,-0.22444397,0.22679754,0.5896104,0,0.94105095,-0.13913813,0.07526403,0.29899663,0.58402014
26256000,-0.21756555,0.22689055,0.5900565,0,0.9414508,-0.13593067,0.07630569,0.2989493,0.58387727
26280000,-0.21804921,0.2269851,0.5854472,0,0.94209784,-0.1359952,0.07659186,0.29680067,0.58370256
26304000,-0.20469682,0.22709484,0.5904836,0,0.94222814,-0.12991521,0.07829684,0.29865992,0.5833409
26328000,-0.19807392,0.22720991,0.5909429,0,0.94257677,-0.12682852,0.079310894,0.29861903,0.5829707
26352000,-0.19147244,0.2273274,0.59139967,0,0.9429142,-0.12375128,0.08032364,0.29857436,0.5825781
26376000,-0.18486677,0.22744448,0.5918552,0,0.9432419,-0.12067114,0.08133743,0.29852548,0.58217806
26400000,-0.17833036,0.22752999,0.59231114,0,0.9435575,-0.11761849,0.08232641,0.2984754,0.58204496
26424000,-0.17932855,0.22762331,0.5877029,0,0.9441777,-0.11791266,0.08249365,0.29634413,0.58185685
26448000,-0.17295143,0.22771984,0.588169,0,0.94447345,-0.11493434,0.08345722,0.2963021,0.581638
26472000,-0.16664113,0.22781938,0.58863103,0,0.9447563,-0.11198716,0.084413104,0.29625788,0.581405
26496000,-0.16033392,0.22791742,0.5890866,0,0.94503087,-0.10904031,0.085368715,0.2962076,0.5811821
26520000,-0.15403204,0.22801921,0.5895542,0,0.9452939,-0.10609643,0.0863252,0.2961602,0.58090866
26544000,-0.15530539,0.22812143,0.5849446,0,0.9458998,-0.10651362,0.086430915,0.29403788,0.5806047
26568000,-0.14919603,0.22822425,0.5854128,0,0.94614524,-0.103658415,0.087353334,0.29399592,0.58027345
26592000,-0.1363012,0.22833811,0.5904719,0,0.94604135,-0.09779756,0.08905407,0.2958225,0.5798091
26616000,-0.13038413,0.22845651,0.59094477,0,0.94624895,-0.095036164,0.0899627,0.29578313,0.5793111
26640000,-0.12440233,0.22857606,0.5914191,0,0.9464513,-0.092244014,0.0908819,0.29573876,0.5787983
26664000,-0.11847993,0.22869621,0.5918937,0,0.9466426,-0.089479744,0.091793135,0.29569435,0.57826805
26688000,-0.1126637,0.22881792,0.59236676,0,0.94682133,-0.08676559,0.092689976,0.2956514,0.577729
26712000,-0.11463592,0.22892371,0.5877609,0,0.9474071,-0.08750106,0.09265041,0.2935627,0.57731175
26736000,-0.10890323,0.2290374,0.58823395,0,0.94757766,-0.08482322,0.09352551,0.29352114,0.5768722
26760000,-0.096453525,0.22915216,0.59330195,0,0.94733477,-0.07918079,0.09520505,0.2953355,0.5764253
26784000,-0.09097172,0.2292673,0.5937715,0,0.9474719,-0.07662292,0.09605091,0.29529646,0.5759857
26808000,-0.08553564,0.2293497,0.5942502,0,0.9476011,-0.07408233,0.096874624,0.29526144,0.5759034
26832000,-0.0802047,0.22943583,0.5947273,0,0.9477196,-0.0715919,0.09768515,0.29522842,0.5757971
26856000,-0.0826615,0.22952285,0.5901244,0,0.9483028,-0.07254421,0.097530976,0.29316676,0.5756554
26880000,-0.07755376,0.22961189,0.5906078,0,0.9484088,-0.070158556,0.098304756,0.29314613,0.5754913
26904000,-0.072514296,0.22972105,0.59108806,0,0.9485057,-0.06780794,0.09907873,0.29312533,0.57507443
26928000,-0.060571574,0.22983563,0.5961636,0,0.9481415,-0.06241509,0.10072371,0.29493532,0.5746335
26952000,-0.05563684,0.22995155,0.5966455,0,0.94821477,-0.060116675,0.101491705,0.29491398,0.5741899
26976000,-0.05080473,0.23006952,0.5971247,0,0.9482797,-0.057867114,0.102246106,0.29489452,0.5737563
27000000,-0.04610002,0.230186,0.5976054,0,0.94833547,-0.055677883,0.10298147,0.29488045,0.57329696
27024000,-0.041364763,0.23030843,0.59808785,0,0.9483866,-0.0534752,0.1037246,0.2948637,0.572824
27048000,-0.044511307,0.23043205,0.59349054,0,0.9489697,-0.0547475,0.103445396,0.29284516,0.572339
27072000,-0.033091065,0.23055695,0.59857357,0,0.9485138,-0.049613073,0.10504949,0.2946602,0.57185274
27096000,-0.028642109,0.23067811,0.59905714,0,0.94854367,-0.04754622,0.10575072,0.29465392,0.57138205
27120000,-0.024243414,0.23080581,0.5995371,0,0.94856805,-0.045504104,0.10644822,0.29464683,0.57091594
27144000,-0.020108286,0.23093526,0.60002196,0,0.94858146,-0.04358767,0.107108064,0.29465455,0.57044965
27168000,-0.015943004,0.23106566,0.6005098,0,0.94859093,-0.041657392,0.10777322,0.2946605,0.5699873
27192000,-0.004902452,0.23117512,0.6055945,0,0.9480497,-0.03671451,0.10935714,0.29647055,0.5697756
27216000,-0.000937928,0.23128733,0.6060803,0,0.94804245,-0.034878485,0.10998933,0.29648155,0.56956303
27240000,-0.004775854,0.23140082,0.6014863,0,0.9486465,-0.03646293,0.10955803,0.294512,0.5693409
27264000,-0.001001198,0.23151478,0.6019722,0,0.9486358,-0.034715984,0.11015931,0.29453325,0.5691251
27288000,0.00281176,0.23163082,0.6024627,0,0.9486217,-0.032951623,0.11076758,0.29455328,0.5688991
27312000,0.013482943,0.23175883,0.6075512,0,0.9480261,-0.028194515,0.11232696,0.2963685,0.5684511
27336000,0.016990857,0.23189716,0.6080457,0,0.9479934,-0.026580205,0.11290556,0.29640248,0.5679841
27360000,0.020486344,0.23203728,0.6085362,0,0.9479582,-0.024972059,0.11348367,0.29643404,0.56752944
27384000,0.023851318,0.23217791,0.6090298,0,0.9479182,-0.023426263,0.11404309,0.29647344,0.56707525
27408000,0.03405367,0.23228975,0.6141111,0,0.9472646,-0.018900894,0.115559235,0.2982926,0.5669631
27432000,0.037279554,0.23240666,0.61460626,0,0.947214,-0.017419394,0.11609122,0.29833728,0.5668348
27456000,0.032744937,0.2325247,0.61002153,0,0.9478477,-0.019320056,0.11551491,0.29642466,0.5667044
27480000,0.03583222,0.23264903,0.61051095,0,0.94779736,-0.017903954,0.11602682,0.29647473,0.5665639
27504000,0.038838204,0.23277383,0.61099726,0,0.9477446,-0.016526496,0.11652734,0.29652718,0.56619793
27528000,0.04876118,0.23291011,0.6160746,0,0.94705355,-0.012144303,0.11803113,0.29834664,0.56583726
27552000,0.0514895,0.23304713,0.6165687,0,0.94698846,-0.010902451,0.118500076,0.29841518,0.56546843
27576000,0.054160632,0.23319183,0.6170579,0,0.9469218,-0.009688795,0.11896455,0.2984839,0.56512296
27600000,0.056818135,0.23332393,0.6175505,0,0.9468535,-0.008480093,0.11942137,0.2985547,0.5648366
27624000,0.0663009,0.23345381,0.6226298,0,0.9461168,-0.004317466,0.120886356,0.30038455,0.5645314
27648000,0.068722256,0.23359886,0.62312907,0,0.9460391,-0.003224637,0.12131758,0.3004692,0.5642385
27672000,0.063483946,0.23373969,0.6185467,0,0.94670695,-0.005447798,0.12060944,0.298613,0.56394756
27696000,0.0657377,0.23387158,0.6190336,0,0.94663304,-0.004430592,0.121007055,0.29870296,0.5637481
27720000,0.07487938,0.23400977,0.6241094,0,0.94587684,-0.000435561,0.12243563,0.30054334,0.56353664
27744000,0.07697044,0.23414917,0.6245966,0,0.94579667,0.000501934,0.122815646,0.30064052,0.56333745
27768000,0.079101615,0.23428963,0.62508345,0,0.9457155,0.001458041,0.123202525,0.30073458,0.5631486
27792000,0.08106337,0.23442136,0.6255719,0,0.9456336,0.002335101,0.12356011,0.30083966,0.56302375
27816000,0.08989592,0.23456201,0.6306448,0,0.9448425,0.006172463,0.12496983,0.30268303,0.5628945
27840000,0.09171469,0.23470509,0.63113767,0,0.944755,0.00697843,0.12531412,0.30279642,0.56276715
27864000,0.09343151,0.23484904,0.63162917,0,0.9446672,0.007736009,0.12564364,0.3029151,0.5626321
27888000,0.0951938,0.23499317,0.63211524,0,0.9445795,0.00851519,0.1259804,0.30302802,0.56250095
27912000,0.096093245,0.23511744,0.63211703,0,0.9445693,0.008920383,0.12617515,0.30296707,0.562618
27936000,0.097674616,0.23524661,0.6326065,0,0.94448155,0.009616025,0.1264778,0.30309302,0.5627219
27960000,0.099105224,0.23537819,0.63309544,0,0.944394,0.010239963,0.12675896,0.3032279,0.5628252
27984000,0.10046491,0.23551083,0.6335861,0,0.94430614,0.010829989,0.12703015,0.3033678,0.5629124
28008000,0.10854872,0.23565339,0.6386576,0,0.9434769,0.014298789,0.12835898,0.30523902,0.5628234
28032000,0.109740265,0.23580272,0.63915205,0,0.94338566,0.014805391,0.12861462,0.30538905,0.56272936
28056000,0.11092265,0.23595513,0.63964427,0,0.94329447,0.015307184,0.1288705,0.3055384,0.56264186
28080000,0.112019874,0.23610947,0.6401355,0,0.9432035,0.015768435,0.12911443,0.3056924,0.56255114
28104000,0.120010704,0.236262,0.6452038,0,0.9423496,0.01918196,0.13045539,0.307556,0.5624496
28128000,0.12096406,0.23642178,0.6456978,0,0.942257,0.019573238,0.13068174,0.30771896,0.56233054
28152000,0.11429959,0.23658338,0.6411281,0,0.9430109,0.016703747,0.12969358,0.30599156,0.562226
28176000,0.1151011,0.23674624,0.6416232,0,0.94292074,0.017023552,0.12989686,0.30616552,0.56211865
28200000,0.122715615,0.23689432,0.6466902,0,0.94206494,0.020257425,0.1311828,0.30804944,0.56217724
28224000,0.123479836,0.23704822,0.64718497,0,0.9419737,0.02056013,0.1313777,0.30822495,0.56222486
28248000,0.12407829,0.23720348,0.64768153,0,0.94188386,0.020784326,0.13154787,0.3084121,0.5622653
28272000,0.13149329,0.23736,0.6527439,0,0.9410108,0.02391484,0.13282466,0.3102973,0.56230795
28296000,0.13200681,0.23749894,0.6532336,0,0.9409223,0.02410131,0.13297527,0.31048667,0.5625552
28320000,0.13241094,0.23764263,0.6537242,0,0.9408347,0.024235416,0.1331112,0.31068337,0.562781
28344000,0.13285886,0.23778957,0.6542182,0,0.94074583,0.024389293,0.13325554,0.31087857,0.56298494
28368000,0.14006504,0.2379388,0.65927577,0,0.9398572,0.027414307,0.13451433,0.31276634,0.563185
28392000,0.14031726,0.23811215,0.6597677,0,0.93976897,0.027471256,0.13464153,0.31297147,0.563056
28416000,0.13307783,0.23829092,0.65521115,0,0.9405659,0.024344318,0.13353623,0.31130573,0.5629047
28440000,0.13321279,0.23847136,0.65570474,0,0.9404791,0.024345368,0.13364765,0.31151977,0.5627531
28464000,0.14012475,0.23865353,0.6607573,0,0.93959236,0.027225077,0.13487782,0.31342122,0.5626217
28488000,0.14023645,0.23883672,0.6612472,0,0.9395059,0.027214337,0.13498756,0.31363428,0.5624874
