timestamp,control[0],control[1],control[2],control[3],control[4]
18000000,0.029987697,0.023146236,-0.004639516,0.15,0
18004000,0.029235493,0.023170331,-0.004524224,0.15,0
18012000,0.028078556,0.022782747,-0.00476672,0.15,0
18020000,0.028935773,0.02287672,-0.005312533,0.15,0
18024000,0.02894663,0.022951003,-0.005259628,0.15,0
18028000,0.028726615,0.022747548,-0.005233991,0.15,0
18032000,0.029145027,0.022581013,-0.005304571,0.15,0
18036000,0.02963631,0.022700515,-0.005366291,0.15,0
18040000,0.030214982,0.022932371,-0.005326246,0.15,0
18044000,0.031148048,0.023137316,-0.005122214,0.15,0
18048000,0.031425796,0.023215864,-0.004892246,0.15,0
18052000,0.031541735,0.023169886,-0.004761894,0.15,0
18056000,0.031717308,0.023118949,-0.004767546,0.15,0
18060000,0.031037739,0.023047324,-0.005095035,0.15,0
18068000,0.030112658,0.023207037,-0.006031569,0.15,0
18072000,0.03087375,0.02357117,-0.005897512,0.15,0
18080000,0.032227047,0.023907185,-0.005308532,0.15,0
18084000,0.032232046,0.023937088,-0.005307783,0.15,0
18088000,0.031155888,0.023612415,-0.005419227,0.15,0
18092000,0.030135669,0.023278503,-0.005439522,0.15,0
18096000,0.029299382,0.023124361,-0.005389077,0.15,0
18100000,0.029336486,0.02314303,-0.005387826,0.15,0
18104000,0.03137378,0.023090728,-0.005377072,0.15,0
18108000,0.031671695,0.022878483,-0.005487385,0.15,0
18116000,0.029479863,0.022878394,-0.005527786,0.15,0
18124000,0.029803328,0.02300025,-0.00516629,0.15,0
18128000,0.030510506,0.022967724,-0.004878218,0.15,0
18132000,0.030915009,0.022948138,-0.004821749,0.15,0
18136000,0.029750664,0.02301611,-0.005046452,0.15,0
18140000,0.028213643,0.023149699,-0.005357352,0.15,0
18144000,0.02768125,0.023309397,-0.00565445,0.15,0
18148000,0.028072856,0.023480922,-0.005767115,0.15,0
18152000,0.028571958,0.023566568,-0.005545974,0.15,0
18156000,0.028703453,0.023448657,-0.005157977,0.15,0
18160000,0.029122837,0.02319305,-0.004899754,0.15,0
18164000,0.029630493,0.022942204,-0.004822686,0.15,0
18168000,0.029962225,0.022752218,-0.004767588,0.15,0
18172000,0.0307004,0.022731498,-0.004717271,0.15,0
18176000,0.03129845,0.022902865,-0.004748665,0.15,0
18180000,0.031304643,0.022932753,-0.004747889,0.15,0
18184000,0.031237677,0.023470208,-0.005100913,0.15,0
18188000,0.031172954,0.023589425,-0.005256641,0.15,0
18192000,0.03104984,0.02368197,-0.005266897,0.15,0
18196000,0.031278584,0.023797594,-0.005280216,0.15,0
18204000,0.031566128,0.023945425,-0.005359352,0.15,0
18212000,0.030039199,0.023718068,-0.005231019,0.15,0
18216000,0.02881347,0.023684511,-0.005333184,0.15,0
18220000,0.028803498,0.023675855,-0.005333601,0.15,0
18224000,0.028881537,0.023282316,-0.005799792,0.15,0
18228000,0.030716324,0.0230997,-0.005632258,0.15,0
18232000,0.031451963,0.023113484,-0.005420757,0.15,0
18236000,0.030653797,0.023283685,-0.005328469,0.15,0
18240000,0.029670287,0.023479939,-0.005358598,0.15,0
18244000,0.028591495,0.023568803,-0.005441723,0.15,0
18248000,0.02795733,0.023606898,-0.005468634,0.15,0
18252000,0.028303333,0.02366837,-0.005475748,0.15,0
18260000,0.029914644,0.023538671,-0.005508884,0.15,0
18264000,0.03078718,0.023496183,-0.005398334,0.15,0
18272000,0.030475555,0.023272645,-0.005031691,0.15,0
18276000,0.030469542,0.023260899,-0.005032081,0.15,0
18280000,0.029314747,0.023070628,-0.004978396,0.15,0
18284000,0.029289985,0.023125583,-0.005013071,0.15,0
18288000,0.029432986,0.023104616,-0.004840129,0.15,0
18292000,0.029479932,0.022870727,-0.004772964,0.15,0
18300000,0.019637516,0.022782067,0.002481025,0,0
18304000,0.019266922,0.023013141,0.001567525,0,0
18308000,0.019256216,0.023043098,0.001566691,0,0
18316000,0.019591233,0.02377235,0.000100406,0,0
18320000,0.02018546,0.02371366,-0.000149673,0,0
18324000,0.020573733,0.023612646,-0.000667789,1,0
18328000,0.02085969,0.02358063,-0.00052125,1,0
18332000,0.020864103,0.023574172,-0.000421114,1,0
18336000,0.02138685,0.023419522,0.001165518,1,0
18340000,0.021398379,0.023404613,0.001336583,1,0
18344000,0.021549614,0.023039872,0.003747723,1,0
18352000,0.020828856,0.023346784,0.003952062,1,0
18356000,0.021041676,0.023607615,0.002760655,1,0
18360000,0.021083025,0.023582812,0.002847439,1,0
18364000,0.022317281,0.02349083,0.00255639,1,0
18372000,0.022339415,0.02350401,0.00472768,1,0
18380000,0.021101097,0.02369988,0.004022206,1,0
18388000,0.020256884,0.024037357,0.001238931,1,0
18396000,0.020934861,0.02359034,0.000639024,1,0
18400000,0.020237738,0.022816306,0.001899898,1,0
18404000,0.019069029,0.022746129,0.002959328,1,0
18408000,0.018208427,0.022853427,0.002795475,1,0
18412000,0.018131554,0.023054618,0.001147353,1,0
18416000,0.019121844,0.02323391,0.000142776,1,0
18420000,0.020295858,0.02330465,0.001054489,1,0
18424000,0.021711715,0.023278723,0.002628884,1,0
18432000,0.023646608,0.023379585,0.003286898,1,0
18436000,0.021952953,0.023543177,0.002245221,1,0
18440000,0.019294905,0.023513606,0.002053324,1,0
18444000,0.01804344,0.023747167,0.001734096,1,0
18448000,0.017610334,0.024044884,0.0010485,1,0
18452000,0.017426435,0.023986433,0.000588308,1,0
18456000,0.018239168,0.023614256,0.000527162,1,0
18460000,0.019968865,0.023330528,0.000762986,1,0
18464000,0.02125552,0.023198176,0.000923659,1,0
18468000,0.02123915,0.023171045,0.000713824,1,0
18476000,0.020712128,0.022942834,-0.000263442,1,0
18480000,0.021034315,0.023178149,0.001362736,1,0
18484000,0.021335298,0.023442084,0.003216506,1,0
18488000,0.021493211,0.023480855,0.003871479,1,0
18492000,0.021162163,0.023473669,0.003771095,1,0
18500000,0.020733345,0.023523746,0.00285144,1,0
18504000,0.020178605,0.02367938,0.00198454,1,0
18508000,0.01988345,0.023493757,0.001284596,1,0
18512000,0.019945277,0.02319534,0.001148435,1,0
18516000,0.020990519,0.023098757,0.001612418,1,0
18520000,0.02256452,0.02319961,0.002034434,1,0
18524000,0.02365087,0.023372665,0.002615078,1,0
18528000,0.024066625,0.023535205,0.002585549,1,0
18532000,0.023773987,0.02350908,0.002365074,1,0
18536000,0.023069993,0.023338277,0.00224353,1,0
18540000,0.022330474,0.023254417,0.003003374,1,0
18544000,0.021244252,0.023265792,0.003341949,1,0
18548000,0.020046603,0.02345236,0.003066993,1,0
18552000,0.019335896,0.023777664,0.002412905,1,0
18556000,0.019516299,0.023916226,0.002060805,1,0
18560000,0.020242818,0.023689646,0.001726644,1,0
18564000,0.020589944,0.0233365,0.001684738,1,0
18568000,0.020825682,0.023223964,0.001866459,1,0
18572000,0.020803468,0.023202406,0.002156655,1,0
18576000,0.020441012,0.022989627,0.002063031,1,0
18580000,0.020432986,0.0229785,0.002112676,1,0
18588000,0.019748926,0.023073412,0.001992043,1,0
18592000,0.019600006,0.02364229,0.001614343,1,0
18596000,0.020047888,0.02373178,0.001680428,1,0
18600000,0.020327047,0.023592489,0.001716779,1,0
18604000,0.020256577,0.023395868,0.001687704,1,0
18612000,0.020537842,0.023256294,0.001814122,1,0
18616000,0.021271043,0.02327573,0.002021984,1,0
18620000,0.02126963,0.023298215,0.002136926,1,0
18624000,0.021048617,0.023433223,0.002403844,1,0
18628000,0.020353727,0.023143407,0.00180947,1,0
18632000,0.020699782,0.02318356,0.001416811,1,0
18636000,0.0216323,0.023639552,0.001545802,1,0
18640000,0.021786882,0.023834031,0.001815059,1,0
18644000,0.021271687,0.023579126,0.002166269,1,0
18648000,0.021039061,0.023281718,0.002237436,1,0
18652000,0.020636957,0.023073155,0.002254292,1,0
18656000,0.020053094,0.023044359,0.002133261,1,0
18660000,0.020063171,0.023070123,0.002121816,1,0
18664000,0.020788986,0.023616785,0.001657832,1,0
18668000,0.020931246,0.023780243,0.001672989,1,0
18672000,0.020725965,0.02362658,0.001511451,1,0
18680000,0.020778289,0.023293423,0.001244691,1,0
18684000,0.021062857,0.023143904,0.001574772,1,0
18688000,0.021826532,0.02319465,0.00198122,1,0
18692000,0.02184912,0.02315705,0.002057754,1,0
18696000,0.014939669,0.017745944,0.002247836,1,0
18700000,0.014922578,0.01771943,0.002296721,1,0
18704000,0.012787837,0.017691039,0.001913018,1,0
18708000,0.012784828,0.017674023,0.001946543,1,0
18712000,0.013143141,0.017751075,0.001828714,1,0
18716000,0.014101174,0.017829025,0.002127505,1,0
18720000,0.014175844,0.017882125,0.002119125,1,0
18724000,0.013907063,0.017872,0.001949447,1,0
18732000,0.013631328,0.017849255,0.001853691,1,0
18736000,0.013179853,0.017802158,0.001757581,1,0
18740000,0.013172146,0.017697783,0.001612538,1,0
18748000,0.014180439,0.017582977,0.001303821,1,0
18752000,0.014137949,0.01753449,0.00111663,1,0
18756000,0.013660594,0.017385961,0.000341347,1,0
18760000,0.013673813,0.0173772,0.000267729,1,0
18764000,0.013986832,0.017560761,-4.74E-05,1,0
18768000,0.014133778,0.017500944,-7.31E-05,1,0
18772000,0.014411611,0.017350255,-0.000264731,1,0
18776000,0.014364768,0.01722452,-0.000625049,1,0
18780000,0.014365444,0.017168475,-0.000763382,1,0
18784000,0.013549995,0.016959852,-0.001288501,1,0
18788000,0.013392678,0.017021036,-0.00146648,1,0
18792000,0.013824365,0.017157994,-0.001554795,1,0
18796000,0.010467541,0.014022302,-0.001771824,1,0
18804000,0.009994147,-0.22774918,-0.002480253,1,0
18808000,0.009886159,-0.22789663,-0.002660002,1,0
18812000,0.01002602,-0.22806814,-0.003131319,1,0
18820000,0.010115288,-0.22834505,-0.004205105,1,0
18828000,0.007482089,-0.21692802,-0.008125397,1,0
18832000,0.006452419,-0.21711792,-0.00946633,1,0
18836000,0.005162898,-0.21737148,-0.010990171,1,0
18840000,0.003639601,-0.21754707,-0.012531853,1,0
18844000,0.002057817,-0.21761256,-0.014488565,1,0
18848000,0.000521321,-0.21772075,-0.016213993,1,0
18852000,-0.001151287,-0.2070008,-0.017964847,1,0
18856000,-0.003157459,-0.20709002,-0.019258803,1,0
18860000,-0.005353891,-0.20716923,-0.020956151,1,0
18864000,-0.007396536,-0.20726149,-0.022473935,1,0
18868000,-0.009116903,-0.20731892,-0.024407148,1,0
18876000,-0.012093521,-0.19726166,-0.027679702,1,0
18880000,-0.013492153,-0.19745138,-0.028859414,1,0
18884000,-0.014889941,-0.19758059,-0.03038656,1,0
18888000,-0.016449302,-0.19752793,-0.031474173,1,0
18892000,-0.018784698,-0.19738828,-0.033047512,1,0
18896000,-0.016785838,-0.17419182,-0.03418185,1,0
18900000,-0.017077377,-0.16566934,-0.03545953,1,0
18904000,-0.020445814,-0.16591273,-0.036758997,1,0
18908000,-0.022181038,-0.16594167,-0.03816903,1,0
18916000,-0.023896059,-0.16606477,-0.040094495,1,0
18920000,-0.026183115,-0.16628453,-0.040579643,1,0
18924000,-0.028041143,-0.15822287,-0.04180233,1,0
18928000,-0.030156534,-0.15839455,-0.042334873,1,0
18932000,-0.032157585,-0.15857466,-0.04317276,1,0
18936000,-0.03387479,-0.15869589,-0.043388605,1,0
18944000,-0.03760776,-0.15890537,-0.04394932,1,0
18948000,-0.039348878,-0.15111335,-0.04466156,1,0
18952000,-0.039846525,-0.15122096,-0.04512433,1,0
18956000,-0.042476285,-0.15146327,-0.045436207,1,0
18960000,-0.044543494,-0.1516872,-0.045263425,1,0
18964000,-0.04669884,-0.1517821,-0.045443915,1,0
18968000,-0.048776697,-0.15184245,-0.045141995,1,0
18972000,-0.050590754,-0.14431198,-0.045327086,1,0
18976000,-0.052015238,-0.1443003,-0.045000736,1,0
18980000,-0.052618552,-0.14437662,-0.045601815,1,0
18984000,-0.054933462,-0.14433739,-0.044773795,1,0
18988000,-0.056802325,-0.14453648,-0.044669785,1,0
18992000,-0.058439985,-0.14469862,-0.044004053,1,0
18996000,-0.05060586,-0.12531523,-0.043754943,1,0
19000000,-0.051879745,-0.1252891,-0.04314542,1,0
19004000,-0.052476667,-0.12535845,-0.043414854,1,0
19008000,-0.054583434,-0.1253081,-0.042302117,1,0
19016000,-0.05701936,-0.12516655,-0.04126457,1,0
19020000,-0.05763027,-0.11877593,-0.04132386,1,0
19028000,-0.05962219,-0.11899843,-0.03936229,1,0
19032000,-0.060767666,-0.119047046,-0.038694255,1,0
19040000,-0.06253846,-0.11906677,-0.037969172,1,0
19044000,-0.06411606,-0.11272649,-0.037182525,1,0
19048000,-0.06496423,-0.11271785,-0.03628481,1,0
19052000,-0.06574425,-0.11269293,-0.03551057,1,0
19056000,-0.06649323,-0.11266034,-0.034539863,1,0
19060000,-0.06717592,-0.11263526,-0.033920348,1,0
19064000,-0.06769696,-0.112637095,-0.033045113,1,0
19068000,-0.068092175,-0.10666042,-0.03229125,1,0
19072000,-0.06856494,-0.10678772,-0.03127012,1,0
19080000,-0.070232466,-0.10670718,-0.029510956,1,0
19084000,-0.07088041,-0.106743224,-0.028987309,1,0
19088000,-0.071535826,-0.106728084,-0.02765831,1,0
19092000,-0.071661085,-0.100903735,-0.026769485,1,0
19096000,-0.063884065,-0.094728686,-0.025730535,1,0
19100000,-0.06376459,-0.09467142,-0.024802577,1,0
19104000,-0.064091824,-0.09461325,-0.023685444,1,0
19108000,-0.064844884,-0.09461882,-0.022689141,1,0
19112000,-0.06558279,-0.09467248,-0.021618072,1,0
19116000,-0.06611494,-0.08936795,-0.020721423,1,0
19120000,-0.06662651,-0.0894213,-0.019703947,1,0
19124000,-0.06723157,-0.089438826,-0.018745229,1,0
19128000,-0.06781769,-0.08945099,-0.017754693,1,0
19132000,-0.068340324,-0.08950166,-0.016883042,1,0
19140000,-0.069126956,-0.08440688,-0.015103127,1,0
19144000,-0.069123864,-0.084474675,-0.014151831,1,0
19148000,-0.069030225,-0.084569216,-0.013217038,1,0
19152000,-0.06918443,-0.0846514,-0.012284951,1,0
19156000,-0.06973296,-0.08468202,-0.011509244,1,0
19160000,-0.06997013,-0.08460121,-0.01062173,1,0
19164000,-0.07019044,-0.07943617,-0.00980618,1,0
19168000,-0.07039393,-0.07944579,-0.008929824,1,0
19172000,-0.07072174,-0.07951263,-0.007989034,1,0
19176000,-0.07094753,-0.07962856,-0.006938698,1,0
19180000,-0.071148604,-0.07970971,-0.006023462,1,0
19188000,-0.07204784,-0.074768856,-0.004505179,1,0
19192000,-0.07203521,-0.0748103,-0.003979034,1,0
19196000,-0.07166162,-0.07472745,-0.003299841,1,0
19200000,-0.07182195,-0.07490206,-0.002543717,1,0
19204000,-0.072319925,-0.07496393,-0.001770212,1,0
19212000,-0.07270123,-0.07022061,-0.000245099,1,0
19216000,-0.072945066,-0.07037415,0.0003231,1,0
19220000,-0.0736245,-0.070564464,0.000931165,1,0
19224000,-0.07419585,-0.07070031,0.001493543,1,0
19232000,-0.07439596,-0.07093702,0.002459628,1,0
19236000,-0.07486657,-0.06626438,0.003128788,1,0
19240000,-0.07408639,-0.06680597,0.003672683,1,0
19244000,-0.07395207,-0.06711839,0.004235893,1,0
19248000,-0.074094735,-0.06732877,0.004749377,1,0
19252000,-0.07456255,-0.06748672,0.005326823,1,0
19260000,-0.075488634,-0.06312058,0.006335845,1,0
19264000,-0.07517698,-0.063484825,0.006401929,1,0
19272000,-0.075677484,-0.06395614,0.007085366,1,0
19276000,-0.07496388,-0.06439923,0.00704216,1,0
19284000,-0.07543294,-0.060325876,0.007596623,1,0
19288000,-0.07555091,-0.060748596,0.00756827,1,0
19292000,-0.07597083,-0.060989596,0.007963995,1,0
19300000,-0.07652199,-0.0617266,0.008155435,1,0
19308000,-0.07670712,-0.057874978,0.008216811,1,0
19312000,-0.076690264,-0.05827438,0.008220609,1,0
19316000,-0.076763794,-0.058726575,0.008219278,1,0
19320000,-0.07715772,-0.0590202,0.00839239,1,0
19324000,-0.0772801,-0.05950156,0.008041783,1,0
19328000,-0.07769501,-0.059811123,0.007929517,1,0
19332000,-0.077713504,-0.05558796,0.007812188,1,0
19336000,-0.077513315,-0.05590302,0.007669714,1,0
19340000,-0.0775582,-0.056226276,0.007573673,1,0
19348000,-0.07811045,-0.05723439,0.007322046,1,0
19352000,-0.07843036,-0.057847243,0.007196084,1,0
19356000,-0.078556836,-0.05385495,0.006985988,1,0
19364000,-0.078837946,-0.054752134,0.006632958,1,0
19368000,-0.078121245,-0.055505406,0.006085448,1,0
19372000,-0.07805587,-0.05603897,0.005731353,1,0
19380000,-0.0784828,-0.05250997,0.005252977,1,0
19384000,-0.079043634,-0.05310334,0.00480704,1,0
19388000,-0.07938108,-0.053526457,0.004608041,1,0
19392000,-0.0791902,-0.054058596,0.003893932,1,0
19396000,-0.07894316,-0.05452974,0.003392056,1,0
19404000,-0.079311535,-0.0510929,0.002640215,1,0
19408000,-0.07955315,-0.051881712,0.001945936,1,0
19412000,-0.079710886,-0.052528232,0.001433526,1,0
19416000,-0.07988013,-0.053136624,0.000920661,1,0
19420000,-0.080195256,-0.05363041,0.00055655,1,0
19424000,-0.07985666,-0.054299787,-0.000170894,1,0
19428000,-0.07965426,-0.050520122,-0.000754516,1,0
19436000,-0.07940909,-0.051631916,-0.001784538,1,0
19440000,-0.079783686,-0.05214974,-0.002300576,1,0
19444000,-0.08021034,-0.05270999,-0.002832931,1,0
19448000,-0.0805183,-0.053234465,-0.003286121,1,0
19452000,-0.08086188,-0.04957056,-0.0040201,1,0
19456000,-0.08087102,-0.050118897,-0.004697296,1,0
19464000,-0.08111152,-0.051241707,-0.005816486,1,0
19468000,-0.080925375,-0.051903237,-0.006485079,1,0
19472000,-0.0811658,-0.052449364,-0.007150176,1,0
19476000,-0.08125983,-0.048733063,-0.007796813,1,0
19480000,-0.08119614,-0.04934987,-0.00839135,1,0
19484000,-0.081473716,-0.04989171,-0.008943216,1,0
19492000,-0.08141996,-0.05111943,-0.00999705,1,0
19496000,-0.08145453,-0.051683288,-0.010556495,1,0
19500000,-0.08124463,-0.048008755,-0.011114053,1,0
19504000,-0.08101691,-0.048668172,-0.011635974,1,0
19508000,-0.08105543,-0.049369585,-0.012203062,1,0
19512000,-0.08147367,-0.050020296,-0.012751945,1,0
19516000,-0.08200486,-0.05058179,-0.01330395,1,0
19520000,-0.08234736,-0.051097743,-0.013808476,1,0
19524000,-0.0825621,-0.04735975,-0.014350908,1,0
19532000,-0.08285618,-0.048479468,-0.015496971,1,0
19536000,-0.08197728,-0.049101796,-0.016156971,1,0
19540000,-0.081767716,-0.049717814,-0.01671521,1,0
19548000,-0.08174378,-0.04668905,-0.01774664,1,0
19552000,-0.081838846,-0.047306404,-0.01825276,1,0
19556000,-0.08192968,-0.047950838,-0.018712405,1,0
19560000,-0.082071096,-0.048595984,-0.019104436,1,0
19564000,-0.08239067,-0.049213976,-0.019530248,1,0
19568000,-0.082713485,-0.049858604,-0.01996113,1,0
19572000,-0.08272105,-0.04627681,-0.020452674,1,0
19576000,-0.08254749,-0.046865337,-0.020938998,1,0
19584000,-0.082906745,-0.048107095,-0.021789063,1,0
19588000,-0.08311883,-0.04865947,-0.022212543,1,0
19592000,-0.083092846,-0.04913696,-0.022561511,1,0
19596000,-0.08294973,-0.04545173,-0.02292069,1,0
19600000,-0.08278229,-0.046060003,-0.023273945,1,0
19604000,-0.08277628,-0.046692163,-0.023636207,1,0
19608000,-0.08287794,-0.047282703,-0.023930993,1,0
19612000,-0.08289363,-0.047813363,-0.02420916,1,0
19616000,-0.08298575,-0.04826832,-0.024487302,1,0
19620000,-0.0831681,-0.0445105,-0.02480128,1,0
19624000,-0.083317,-0.045010813,-0.025111578,1,0
19628000,-0.08345737,-0.04559027,-0.025453243,1,0
19632000,-0.08350892,-0.04623453,-0.025786696,1,0
19636000,-0.08340823,-0.04685514,-0.026169721,1,0
19640000,-0.083260156,-0.047466144,-0.026508052,1,0
19648000,-0.08338641,-0.044405323,-0.027136263,1,0
19652000,-0.08337778,-0.04479917,-0.027261162,1,0
19656000,-0.0834369,-0.045305125,-0.027422007,1,0
19660000,-0.08334832,-0.045888893,-0.027573003,1,0
19664000,-0.08317074,-0.046513375,-0.027780756,1,0
19668000,-0.08295634,-0.04288082,-0.028047021,1,0
19672000,-0.08283824,-0.04335017,-0.028280398,1,0
19676000,-0.08293932,-0.043829724,-0.028474033,1,0
19680000,-0.08305297,-0.044380188,-0.028632153,1,0
19684000,-0.08307959,-0.044993352,-0.028820947,1,0
19688000,-0.08313558,-0.045604315,-0.02898404,1,0
19692000,-0.08312412,-0.042021997,-0.02911367,1,0
19700000,-0.082965106,-0.04312731,-0.029390503,1,0
19704000,-0.083079346,-0.043617256,-0.029581431,1,0
19708000,-0.083227806,-0.044180065,-0.02981872,1,0
19712000,-0.08295695,-0.04470322,-0.02996269,1,0
19716000,-0.08297022,-0.041047834,-0.030034065,1,0
19720000,-0.08316072,-0.041492518,-0.030121785,1,0
19724000,-0.083275944,-0.041893758,-0.030350843,1,0
19728000,-0.08332921,-0.04233405,-0.030538697,1,0
19732000,-0.083476365,-0.042865373,-0.030722424,1,0
19740000,-0.083703876,-0.039616853,-0.030931154,1,0
19744000,-0.08339264,-0.040028937,-0.03097346,1,0
19748000,-0.08352605,-0.04053474,-0.031147875,1,0
19752000,-0.08316866,-0.040945858,-0.03119387,1,0
19756000,-0.08335532,-0.04140364,-0.031238891,1,0
19760000,-0.08356771,-0.04189021,-0.031362865,1,0
19764000,-0.08353722,-0.038174815,-0.031643007,1,0
19768000,-0.08343328,-0.038674556,-0.031906992,1,0
19772000,-0.08356658,-0.039186962,-0.032057174,1,0
19776000,-0.08350174,-0.039783064,-0.032063596,1,0
19780000,-0.08341783,-0.040341116,-0.03207402,1,0
19788000,-0.08379736,-0.037171807,-0.032195225,1,0
19792000,-0.08429528,-0.03757298,-0.03210153,1,0
19800000,-0.083755605,-0.03850425,-0.03218087,1,0
19804000,-0.08330609,-0.039051026,-0.032408994,1,0
19808000,-0.083018824,-0.039622143,-0.032728575,1,0
19812000,-0.08313408,-0.035965376,-0.03302031,1,0
19820000,-0.08384051,-0.036780026,-0.033310045,1,0
19824000,-0.08401328,-0.03722227,-0.03343898,1,0
19828000,-0.084030986,-0.037695516,-0.033539735,1,0
19832000,-0.08387657,-0.038189933,-0.033718877,1,0
19836000,-0.08374137,-0.03450065,-0.033997446,1,0
19840000,-0.08389257,-0.03504019,-0.03424856,1,0
19844000,-0.0840415,-0.035586677,-0.03442123,1,0
19848000,-0.08393378,-0.036072996,-0.03453489,1,0
19852000,-0.08385118,-0.036452804,-0.034677908,1,0
19856000,-0.08389843,-0.036800437,-0.03489729,1,0
19860000,-0.083867714,-0.03297261,-0.035166193,1,0
19864000,-0.08376146,-0.033430927,-0.035401605,1,0
19868000,-0.083772965,-0.033951588,-0.03556677,1,0
19872000,-0.083881654,-0.03448945,-0.035708506,1,0
19880000,-0.0842546,-0.035549015,-0.036103312,1,0
19884000,-0.084364586,-0.031805314,-0.036292695,1,0
19888000,-0.08477897,-0.03226233,-0.036567908,1,0
19892000,-0.08484399,-0.03269296,-0.03687559,1,0
19896000,-0.08474315,-0.033147734,-0.03723081,1,0
19900000,-0.08456787,-0.03361667,-0.037564572,1,0
19904000,-0.08428976,-0.034082066,-0.03780449,1,0
19908000,-0.08389183,-0.030330457,-0.03802156,1,0
19916000,-0.08364212,-0.031288184,-0.038609672,1,0
19920000,-0.084002025,-0.031749703,-0.038892586,1,0
19924000,-0.08458184,-0.032193366,-0.03917645,1,0
19928000,-0.08498614,-0.032671187,-0.039483726,1,0
19932000,-0.085076764,-0.028912582,-0.03973307,1,0
19936000,-0.08474677,-0.029503226,-0.0399794,1,0
19940000,-0.084839635,-0.02996296,-0.04023938,1,0
19944000,-0.0846026,-0.030356243,-0.04052888,1,0
19948000,-0.08469669,-0.03082535,-0.0407744,1,0
19952000,-0.08470793,-0.03128617,-0.041050166,1,0
19960000,-0.08521667,-0.027957883,-0.04186915,1,0
19964000,-0.08537474,-0.028388822,-0.042219643,1,0
19968000,-0.08533837,-0.02883669,-0.04259143,1,0
19972000,-0.085244775,-0.029291105,-0.04293409,1,0
19980000,-0.085042395,-0.02594116,-0.043591492,1,0
19984000,-0.08464681,-0.026419885,-0.04412828,1,0
19988000,-0.08490636,-0.026855651,-0.044561926,1,0
19992000,-0.085095495,-0.027328912,-0.044954102,1,0
19996000,-0.085025266,-0.027844366,-0.04528378,1,0
20004000,-0.08485926,-0.024524607,-0.04599016,1,0
20008000,-0.085001014,-0.025023285,-0.046383508,1,0
20016000,-0.085616305,-0.026025835,-0.047202174,1,0
20020000,-0.08594821,-0.02655051,-0.04723661,1,0
20024000,-0.08603765,-0.027084012,-0.047224674,1,0
20028000,-0.08604585,-0.023225006,-0.04720415,1,0
20032000,-0.08592237,-0.023589604,-0.047227204,1,0
20036000,-0.085692696,-0.023977645,-0.047272213,1,0
20040000,-0.08552673,-0.02446697,-0.04733099,1,0
20044000,-0.08525623,-0.025012184,-0.047341615,1,0
20052000,-0.08504542,-0.021660501,-0.047373425,1,0
20060000,-0.08594335,-0.022696378,-0.047482558,1,0
20064000,-0.08637278,-0.023086129,-0.047556482,1,0
20068000,-0.086418,-0.023492698,-0.04758733,1,0
20072000,-0.086136974,-0.023967847,-0.047602836,1,0
20076000,-0.08601335,-0.020165514,-0.047631785,1,0
20084000,-0.08632823,-0.02120346,-0.047707073,1,0
20088000,-0.08653862,-0.021686032,-0.047776233,1,0
20092000,-0.0866227,-0.022145607,-0.047780387,1,0
20100000,-0.08632207,-0.018609188,-0.047750555,1,0
20108000,-0.08647581,-0.019627638,-0.04776414,1,0
20112000,-0.08661867,-0.020140423,-0.047779627,1,0
20116000,-0.086602174,-0.020689657,-0.04779045,1,0
20120000,-0.086688735,-0.021192743,-0.04788731,1,0
20124000,-0.08677979,-0.017294444,-0.047891483,1,0
20128000,-0.08708082,-0.017663576,-0.04794984,1,0
20132000,-0.087100506,-0.018110124,-0.04790487,1,0
20140000,-0.08661217,-0.0190546,-0.047862586,1,0
20144000,-0.08628438,-0.019505462,-0.04785934,1,0
20148000,-0.08620447,-0.015612837,-0.047831926,1,0
20152000,-0.08632793,-0.016120484,-0.047806308,1,0
20156000,-0.08664005,-0.016643006,-0.04777113,1,0
20160000,-0.086989984,-0.017161092,-0.04775078,1,0
20164000,-0.08709805,-0.01763767,-0.047711562,1,0
20172000,-0.08708039,-0.014174813,-0.047749862,1,0
20180000,-0.08664754,-0.015195034,-0.047912993,1,0
20184000,-0.086621225,-0.015663508,-0.047872894,1,0
20188000,-0.086712494,-0.01605462,-0.047801137,1,0
20192000,-0.08671075,-0.016449459,-0.047729306,1,0
20196000,-0.08666545,-0.012507425,-0.047672354,1,0
20200000,-0.086919025,-0.013039824,-0.04769227,1,0
20204000,-0.087235704,-0.013564933,-0.047679864,1,0
20208000,-0.087170765,-0.014019783,-0.04766004,1,0
20212000,-0.087033555,-0.014418609,-0.047627226,1,0
20220000,-0.08723471,-0.010914132,-0.04763322,1,0
20228000,-0.08697551,-0.012086755,-0.047590442,1,0
20236000,-0.08732279,-0.013017213,-0.047646552,1,0
20240000,-0.08761162,-0.013488155,-0.04769221,1,0
20244000,-0.08779852,-0.009595136,-0.047736123,1,0
20248000,-0.087739654,-0.010192249,-0.04776662,1,0
20252000,-0.087805405,-0.010702804,-0.047770724,1,0
20256000,-0.08761027,-0.011311497,-0.047691967,1,0
20260000,-0.087780125,-0.011750801,-0.04761944,1,0
20264000,-0.087887384,-0.012153341,-0.047565617,1,0
20268000,-0.08795043,-0.008179509,-0.04756968,1,0
20272000,-0.08796077,-0.008582421,-0.04749248,1,0
20276000,-0.088004924,-0.009070278,-0.047341496,1,0
20280000,-0.08798004,-0.009659346,-0.04731688,1,0
20284000,-0.0880343,-0.010162993,-0.047320887,1,0
20292000,-0.08755774,-0.006742413,-0.047553085,1,0
20300000,-0.08750607,-0.00775559,-0.047631554,1,0
20304000,-0.08753033,-0.00823971,-0.047610596,1,0
20308000,-0.088019826,-0.008569239,-0.047466725,1,0
20312000,-0.08816576,-0.008981004,-0.047479812,1,0
20320000,-0.088172354,-0.005376659,-0.047577083,1,0
20324000,-0.08818314,-0.005799741,-0.04758583,1,0
20328000,-0.08838353,-0.006224279,-0.047574207,1,0
20332000,-0.088392526,-0.006687912,-0.047504,1,0
20336000,-0.08810535,-0.007197472,-0.04743439,1,0
20340000,-0.087815545,-0.003231188,-0.047317106,1,0
20344000,-0.08777377,-0.00376751,-0.047279075,1,0
20348000,-0.08816404,-0.004289326,-0.047334477,1,0
20352000,-0.0885889,-0.00477889,-0.047468983,1,0
20356000,-0.08873178,-0.005231984,-0.047508724,1,0
20364000,-0.08874347,-0.001681552,-0.047538906,1,0
20368000,-0.08852402,-0.002301522,-0.04764054,1,0
20372000,-0.08867211,-0.002817578,-0.047655262,1,0
20376000,-0.088810325,-0.003269483,-0.047685653,1,0
20384000,-0.08830719,-0.004185094,-0.0476449,1,0
20388000,-0.08789434,-0.000113057,-0.04762207,1,0
20396000,-0.087998606,-0.001010468,-0.04761559,1,0
20400000,-0.08825511,-0.001489966,-0.0476214,1,0
20404000,-0.08833898,-0.002008677,-0.047622584,1,0
20408000,-0.08828566,-0.002525438,-0.047682423,1,0
20412000,-0.08822824,0.001524735,-0.047720306,1,0
20416000,-0.088191584,0.001038857,-0.047758944,1,0
20420000,-0.08819025,0.000546953,-0.04770718,1,0
20424000,-0.08816897,5.44E-05,-0.04770924,1,0
20428000,-0.08810723,-0.000452032,-0.047797542,1,0
20432000,-0.088137455,-0.000954829,-0.047964945,1,0
20436000,-0.08817414,0.003159484,-0.048035774,1,0
20444000,-0.08809204,0.002371142,-0.048041537,1,0
20448000,-0.08819265,0.00197123,-0.04805413,1,0
20452000,-0.08837036,0.001507914,-0.048049144,1,0
20456000,-0.08856794,0.000997275,-0.048065983,1,0
20460000,-0.08861605,0.005117741,-0.048070095,1,0
20464000,-0.088942,0.004631151,-0.048083544,1,0
20468000,-0.0891623,0.004104355,-0.04810082,1,0
20472000,-0.089050256,0.00355928,-0.048150398,1,0
20476000,-0.088745296,0.003049595,-0.048189618,1,0
20480000,-0.08866738,0.002611723,-0.048260763,1,0
20484000,-0.08882901,0.006803697,-0.048299525,1,0
20488000,-0.08888377,0.006353922,-0.048367165,1,0
20492000,-0.088777475,0.005897112,-0.04836773,1,0
20496000,-0.08866436,0.005451201,-0.048389457,1,0
20500000,-0.088684656,0.004962215,-0.0483281,1,0
20508000,-0.08910972,0.008511622,-0.048286855,1,0
20512000,-0.08914545,0.007981954,-0.04831496,1,0
20516000,-0.08906512,0.007457407,-0.04832361,1,0
20520000,-0.0888991,0.00699744,-0.048391048,1,0
20524000,-0.08894375,0.006526956,-0.0483952,1,0
20528000,-0.08896539,0.006113794,-0.048459105,1,0
20532000,-0.08923356,0.010168115,-0.0484624,1,0
20536000,-0.08937014,0.009585265,-0.048499633,1,0
20540000,-0.08931517,0.009110263,-0.04854872,1,0
20544000,-0.089273505,0.008643836,-0.048687216,1,0
20548000,-0.08940249,0.00813587,-0.048823178,1,0
20552000,-0.089569084,0.007637231,-0.048963867,1,0
20556000,-0.08961237,0.011785649,-0.048968133,1,0
20560000,-0.08923102,0.011250023,-0.04896741,1,0
20564000,-0.08912982,0.010732222,-0.04890751,1,0
20568000,-0.08949194,0.010251209,-0.048918128,1,0
20572000,-0.08954274,0.009747919,-0.04892238,1,0
20576000,-0.0898666,0.00919389,-0.048989132,1,0
20580000,-0.08992259,0.013370786,-0.048993394,1,0
20584000,-0.09019907,0.012996379,-0.0490606,1,0
20588000,-0.09026221,0.012521794,-0.049064875,1,0
20592000,-0.09065473,0.012125235,-0.049207956,1,0
20596000,-0.090495124,0.0116622,-0.049155705,1,0
20600000,-0.09013168,0.011238411,-0.04918588,1,0
20604000,-0.08967241,0.01547005,-0.049281836,1,0
20608000,-0.08950101,0.014989406,-0.049464494,1,0
20612000,-0.08965189,0.01450357,-0.049516596,1,0
20616000,-0.08985297,0.014016502,-0.04944834,1,0
20620000,-0.09004419,0.013494544,-0.04930275,1,0
20624000,-0.09020935,0.012988044,-0.049199186,1,0
20628000,-0.09032968,0.017226974,-0.049072877,1,0
20632000,-0.0904601,0.01681283,-0.049114875,1,0
20636000,-0.090669736,0.016318513,-0.04924495,1,0
20644000,-0.09084095,0.015286228,-0.049630914,1,0
20648000,-0.090773314,0.014794519,-0.049704377,1,0
20652000,-0.0908157,0.019015208,-0.04970876,1,0
20660000,-0.090247914,0.018158158,-0.04943663,1,0
20668000,-0.089897595,0.017024128,-0.049655035,1,0
20672000,-0.089850314,0.01651387,-0.049798094,1,0
20676000,-0.09015308,0.020740468,-0.0497732,1,0
20680000,-0.09041973,0.020256292,-0.049715724,1,0
20684000,-0.090488285,0.019735307,-0.049682148,1,0
20688000,-0.09056207,0.019183546,-0.049769744,1,0
20692000,-0.09064717,0.01863588,-0.049829938,1,0
20700000,-0.09067094,0.022331607,-0.049869657,1,0
20704000,-0.090838075,0.021799795,-0.04990146,1,0
20708000,-0.09126747,0.021262022,-0.049921058,1,0
20712000,-0.091578275,0.02076964,-0.05001849,1,0
20716000,-0.09167564,0.020286778,-0.050069746,1,0
20720000,-0.09163081,0.019755896,-0.05010783,1,0
20724000,-0.09132571,0.023933217,-0.05007994,1,0
20732000,-0.090854704,0.02296408,-0.05014082,1,0
20736000,-0.09031404,0.022555262,-0.050176565,1,0
20740000,-0.09036178,0.022055773,-0.050181016,1,0
20748000,-0.09073885,0.025776327,-0.050169673,1,0
20752000,-0.09086922,0.02528525,-0.050195605,1,0
20756000,-0.09090443,0.024804909,-0.050200053,1,0
20760000,-0.09028727,0.024397291,-0.050415102,1,0
20764000,-0.09026205,0.023925276,-0.050394148,1,0
20768000,-0.090497345,0.023432458,-0.05034012,1,0
20772000,-0.09055593,0.027690165,-0.050344594,1,0
20776000,-0.091452815,0.027110873,-0.050343215,1,0
20780000,-0.091627724,0.026498491,-0.050343305,1,0
20784000,-0.09165454,0.025922986,-0.050337367,1,0
20788000,-0.09149624,0.025380965,-0.050288327,1,0
20792000,-0.09137099,0.024804918,-0.050331727,1,0
20796000,-0.09148908,0.029010594,-0.050375614,1,0
20804000,-0.09162503,0.027916016,-0.050494093,1,0
20808000,-0.0917294,0.027381195,-0.050495967,1,0
20812000,-0.09177733,0.02686504,-0.05050046,1,0
20816000,-0.09173938,0.026405469,-0.050507516,1,0
20820000,-0.0916081,0.03069561,-0.050467923,1,0
20824000,-0.091567636,0.030208856,-0.050407574,1,0
20828000,-0.09171008,0.02969383,-0.05029212,1,0
20832000,-0.09194767,0.029155731,-0.050332613,1,0
20836000,-0.092049494,0.028605225,-0.050414965,1,0
20844000,-0.09202854,0.028218163,-0.050590426,1,0
20852000,-0.09249037,0.027140098,-0.05080747,1,0
20860000,-0.09315244,0.026104948,-0.05077699,1,0
20864000,-0.09297034,0.025579799,-0.050828695,1,0
20868000,-0.09248195,0.025089268,-0.05079872,1,0
20876000,-0.09219151,0.024113324,-0.050869368,1,0
20880000,-0.09257655,0.023671081,-0.0509995,1,0
20884000,-0.09294546,0.023199636,-0.050955497,1,0
20888000,-0.09314535,0.022698766,-0.05093843,1,0
20892000,-0.093025126,0.022248907,-0.050877385,1,0
20900000,-0.09287158,0.021343956,-0.05091479,1,0
20904000,-0.09277786,0.020934323,-0.050872196,1,0
20908000,-0.09269281,0.020476809,-0.050855674,1,0
20912000,-0.092749044,0.020019159,-0.050978582,1,0
20920000,-0.09305498,0.019181237,-0.05112419,1,0
20924000,-0.09287444,0.018721243,-0.051159576,1,0
20928000,-0.09249412,0.018237587,-0.051213406,1,0
20932000,-0.09252811,0.017766144,-0.051218003,1,0
20936000,-0.09194739,0.017348034,-0.05106958,1,0
20940000,-0.25104296,0.023575734,0.010154562,1,0
20944000,-0.25127673,0.023150483,0.010263331,1,0
20948000,-0.25169617,0.02277521,0.010301993,1,0
20952000,-0.2515852,0.022389982,0.0102615,1,0
20956000,-0.25006363,0.021958677,0.010220019,1,0
20960000,-0.24707155,0.021529472,0.010205871,1,0
20964000,-0.24226838,0.021074757,0.010235106,1,0
20968000,-0.23366015,0.02068374,0.010186644,1,0
20972000,-0.23342371,0.020218154,0.010199627,1,0
20976000,-0.22437865,0.019855563,0.010331309,1,0
20980000,-0.2204626,0.019461015,0.010401277,1,0
20984000,-0.2170572,0.019035332,0.010429425,1,0
20988000,-0.21526286,0.018588431,0.010418246,1,0
20996000,-0.20850495,0.017687164,0.010488519,1,0
21000000,-0.2053094,0.01722279,0.010498637,1,0
21004000,-0.20233937,0.016750406,0.010485323,1,0
21012000,-0.19847926,0.015895734,0.010618167,1,0
21016000,-0.19589444,0.015469724,0.010605235,1,0
21020000,-0.19331133,0.014991293,0.010490503,1,0
21024000,-0.1908669,0.014533805,0.010387399,1,0
21028000,-0.19016266,0.014073156,0.010332672,1,0
21032000,-0.18667027,0.013787087,0.010329346,1,0
21036000,-0.19096313,0.013320506,0.010267164,1,0
21040000,-0.18759847,0.013011972,0.010421311,1,0
21044000,-0.18563609,0.012596982,0.010423806,1,0
21048000,-0.18379404,0.012155624,0.010401928,1,0
21052000,-0.18197726,0.011730434,0.0103522,1,0
21056000,-0.1801965,0.011338344,0.010277791,1,0
21060000,-0.180536,0.010906315,0.010198029,1,0
21064000,-0.17790934,0.010695545,0.010199772,1,0
21068000,-0.17617716,0.010347119,0.010157408,1,0
21072000,-0.17437895,0.009959456,0.010097517,1,0
21076000,-0.17348966,0.009514939,0.010010583,1,0
21080000,-0.17120454,0.008998046,0.01001928,1,0
21084000,-0.17098626,0.008499162,0.009998561,1,0
21088000,-0.16995871,0.0080844,0.009924901,1,0
21092000,-0.16879776,0.007772276,0.009845555,1,0
21096000,-0.16764386,0.007481251,0.00980247,1,0
21100000,-0.16672474,0.007058023,0.009705702,1,0
21104000,-0.16511624,0.00671164,0.009605111,1,0
21108000,-0.16473368,0.006376298,0.009581512,1,0
21116000,-0.16229077,0.005719353,0.009465094,1,0
21120000,-0.16132592,0.005330753,0.00935146,1,0
21124000,-0.16039382,0.004972212,0.009290315,1,0
21128000,-0.15954025,0.004682336,0.009234613,1,0
21132000,-0.16343617,0.004415788,0.009141553,1,0
21136000,-0.16284236,0.004130723,0.009054881,1,0
21140000,-0.16210864,0.003848564,0.008985372,1,0
21148000,-0.15962453,0.00323469,0.00880147,1,0
21152000,-0.15840414,0.002931982,0.008693741,1,0
21156000,-0.15823007,0.002670396,0.00861704,1,0
21164000,-0.15660234,0.002051113,0.008409767,1,0
21168000,-0.15548164,0.001812358,0.008248931,1,0
21172000,-0.15431169,0.001624836,0.008136462,1,0
21180000,-0.15316774,0.001180928,0.007959448,1,0
21188000,-0.1521658,0.000727914,0.007806856,1,0
21192000,-0.15170594,0.000502819,0.007601401,1,0
21196000,-0.15117265,0.000306476,0.00749535,1,0
21200000,-0.150599,9.56E-05,0.007422028,1,0
21204000,-0.15030205,-0.00016018,0.007392318,1,0
21212000,-0.14864603,-0.000661865,0.007241739,1,0
21220000,-0.14690919,-0.001237692,0.007022975,1,0
21228000,-0.14988415,-0.001568867,0.006801859,1,0
21232000,-0.14897433,-0.001780162,0.006677134,1,0
21236000,-0.1483047,-0.001828926,0.006595363,1,0
21240000,-0.14770244,-0.001887195,0.006493021,1,0
21244000,-0.14686029,-0.002188223,0.006413766,1,0
21248000,-0.14619958,-0.00248689,0.006334024,1,0
21252000,-0.14604044,-0.002672831,0.006204789,1,0
21256000,-0.14580116,-0.002827957,0.006023157,1,0
21260000,-0.14527078,-0.003026867,0.00584083,1,0
21264000,-0.14457302,-0.00319067,0.005682327,1,0
21268000,-0.14388862,-0.003371413,0.005562085,1,0
21272000,-0.14326987,-0.003629029,0.005498262,1,0
21276000,-0.14290349,-0.003858936,0.0054373,1,0
21280000,-0.14233069,-0.003992545,0.005316626,1,0
21284000,-0.14162827,-0.004071381,0.005164273,1,0
21288000,-0.1408952,-0.004149835,0.005009838,1,0
21292000,-0.14027883,-0.004268642,0.004872651,1,0
21300000,-0.13916214,-0.004617746,0.004660392,1,0
21304000,-0.1395692,-0.004798368,0.004588317,1,0
21308000,-0.13923183,-0.004922746,0.004468216,1,0
21312000,-0.13860884,-0.005003304,0.0043588,1,0
21316000,-0.13778917,-0.005167261,0.004238157,1,0
21324000,-0.13961054,-0.005529254,0.003978808,1,0
21328000,-0.13914967,-0.00571423,0.003892107,1,0
21332000,-0.13878465,-0.005851615,0.003819876,1,0
21336000,-0.13829587,-0.005980872,0.003722601,1,0
21340000,-0.13750887,-0.006120338,0.003604892,1,0
21344000,-0.1372816,-0.006175952,0.003453575,1,0
21348000,-0.13676439,-0.006345386,0.003333261,1,0
21352000,-0.13616896,-0.006559695,0.00324775,1,0
21356000,-0.13574602,-0.006745891,0.003184193,1,0
21360000,-0.13552499,-0.00690786,0.003108979,1,0
21364000,-0.13521555,-0.007038271,0.003008787,1,0
21368000,-0.13467634,-0.007153619,0.002888611,1,0
21372000,-0.13392515,-0.007296469,0.002774489,1,0
21376000,-0.1337943,-0.007411721,0.002571139,1,0
21380000,-0.13303553,-0.007555335,0.002454345,1,0
21384000,-0.13271195,-0.007709612,0.002466459,1,0
21388000,-0.13205615,-0.00781682,0.002404753,1,0
21392000,-0.1316141,-0.00789536,0.002295904,1,0
21396000,-0.13087127,-0.008036526,0.002184054,1,0
21400000,-0.13094516,-0.008199559,0.002196049,1,0
21404000,-0.13070923,-0.00838202,0.002127247,1,0
21408000,-0.1305368,-0.008568459,0.002013675,1,0
21412000,-0.12982005,-0.008711586,0.001902718,1,0
21416000,-0.12974484,-0.008867607,0.001626999,1,0
21420000,-0.12903985,-0.008999247,0.001515955,1,0
21424000,-0.12917472,-0.009068705,0.001439269,1,0
21428000,-0.12887242,-0.009197898,0.001380925,1,0
21432000,-0.12818514,-0.009333154,0.001272377,1,0
21440000,-0.12767331,-0.00964415,0.001082881,1,0
21444000,-0.12730291,-0.009790187,0.0010375,1,0
21448000,-0.12742345,-0.009845854,0.000934931,1,0
21452000,-0.12674446,-0.00997407,0.000826789,1,0
21460000,-0.1262768,-0.010231055,0.000656654,1,0
21464000,-0.12593704,-0.010366263,0.000604403,1,0
21468000,-0.12527901,-0.01049116,0.000499183,1,0
21472000,-0.12524684,-0.010605083,0.000479653,1,0
21476000,-0.12491376,-0.010697092,0.000392719,1,0
21480000,-0.12444599,-0.010797734,0.000320712,1,0
21484000,-0.124122284,-0.010919892,0.000249732,1,0
21488000,-0.123966135,-0.011058742,0.000163334,1,0
21492000,-0.123758756,-0.011141806,7.34E-05,1,0
21496000,-0.12341838,-0.01114477,-2.56E-05,1,0
21500000,-0.12279157,-0.011243902,-0.000126271,1,0
21504000,-0.12281723,-0.011257558,-0.000230999,1,0
21508000,-0.12287888,-0.011436597,-0.000322696,1,0
21512000,-0.12284174,-0.011674317,-0.000379112,1,0
21516000,-0.12254126,-0.011867336,-0.000422151,1,0
21520000,-0.12209242,-0.011997946,-0.000494809,1,0
21524000,-0.121485874,-0.012127331,-0.000593577,1,0
21528000,-0.12097104,-0.012295542,-0.000696369,1,0
21532000,-0.12051202,-0.012379089,-0.000816093,1,0
21536000,-0.12024352,-0.012412477,-0.000893916,1,0
21540000,-0.12005315,-0.012446295,-0.00092202,1,0
21544000,-0.119913474,-0.012484031,-0.000948862,1,0
21548000,-0.119875975,-0.012541559,-0.000999696,1,0
21552000,-0.11968472,-0.012618443,-0.001061951,1,0
21556000,-0.11927111,-0.012706606,-0.001148074,1,0
21560000,-0.11896709,-0.012808781,-0.001263829,1,0
21564000,-0.11893681,-0.012932509,-0.001376757,1,0
21568000,-0.118930586,-0.013070558,-0.001467315,1,0
21572000,-0.11864191,-0.013171875,-0.001525855,1,0
21576000,-0.11821286,-0.013245894,-0.001578849,1,0
21580000,-0.1178849,-0.013333414,-0.001645166,1,0
21588000,-0.117745675,-0.01354716,-0.001736457,1,0
21592000,-0.117672965,-0.013577943,-0.001813415,1,0
21596000,-0.11762479,-0.013569598,-0.001852997,1,0
21600000,-0.11743593,-0.013592859,-0.001894679,1,0
21604000,-0.11711073,-0.013658878,-0.001958952,1,0
21612000,-0.116354235,-0.013823025,-0.002077127,1,0
21616000,-0.116285086,-0.014020866,-0.00206661,1,0
21620000,-0.11614223,-0.014156565,-0.002172369,1,0
21624000,-0.11590979,-0.01423054,-0.002261733,1,0
21628000,-0.11541299,-0.014310911,-0.002342682,1,0
21636000,-0.12025344,-0.019396948,-0.002710057,0.3985542,0
21640000,-0.12061791,-0.019392392,-0.002868485,0.3985542,0
21644000,-0.120360434,-0.019395156,-0.002921401,0.3985542,0
21648000,-0.11994007,-0.019405741,-0.002957176,0.3985542,0
21652000,-0.11946189,-0.019441703,-0.002972787,0.3985542,0
21656000,-0.11876607,-0.019529609,-0.002965356,0.3985542,0
21660000,-0.11702373,-0.024690656,-0.003307251,0.42083305,0
21668000,-0.114611536,-0.02512553,-0.003638522,0.42083305,0
21672000,-0.11284802,-0.025307719,-0.003799344,0.42083305,0
21676000,-0.11082641,-0.025435407,-0.003980133,0.42083305,0
21680000,-0.10891526,-0.025565125,-0.004160035,0.42083305,0
21684000,-0.10611126,-0.03075454,-0.004591694,0.44181982,0
21688000,-0.104586266,-0.031015458,-0.004722757,0.44181982,0
21692000,-0.102781124,-0.031291075,-0.004892517,0.44181982,0
21696000,-0.10083517,-0.0315825,-0.005183345,0.44181982,0
21700000,-0.10017364,-0.031738427,-0.005318589,0.44181982,0
21704000,-0.09723318,-0.03212726,-0.005607042,0.44181982,0
21708000,-0.097874835,-0.037422165,-0.00615361,0.46236837,0
21716000,-0.095477365,-0.037907775,-0.006588397,0.46236837,0
21720000,-0.092766576,-0.038347237,-0.006960539,0.46236837,0
21724000,-0.09202727,-0.03857235,-0.007127134,0.46236837,0
21728000,-0.08959574,-0.039043915,-0.007409027,0.46236837,0
21732000,-0.08682439,-0.04433962,-0.008028817,0.4817168,0
21736000,-0.08534366,-0.044660702,-0.008284004,0.4817168,0
21740000,-0.08402856,-0.044913735,-0.00851659,0.4817168,0
21744000,-0.082981326,-0.045103386,-0.008788092,0.4817168,0
21748000,-0.081915244,-0.04535006,-0.009077119,0.4817168,0
21752000,-0.080731936,-0.045634665,-0.009316462,0.4817168,0
21756000,-0.07841134,-0.050832953,-0.00990084,0.4998204,0
21760000,-0.07767267,-0.05101645,-0.01010393,0.4998204,0
21764000,-0.07663261,-0.051261086,-0.01030275,0.4998204,0
21768000,-0.075315885,-0.05160101,-0.010493599,0.4998204,0
21772000,-0.07408762,-0.051949047,-0.010696815,0.4998204,0
21776000,-0.0731819,-0.05218771,-0.010911837,0.4998204,0
21780000,-0.07138722,-0.05730892,-0.011514609,0.5166198,0
21788000,-0.070433736,-0.057699934,-0.011933953,0.5166198,0
21792000,-0.07013779,-0.05798071,-0.012304642,0.5166198,0
21796000,-0.06934589,-0.058168404,-0.012769162,0.5166198,0
21800000,-0.06852383,-0.058336366,-0.012974795,0.5166198,0
21804000,-0.06613183,-0.063444525,-0.013635442,0.5335076,0
21808000,-0.06541902,-0.06354918,-0.013857728,0.5335076,0
21812000,-0.06475325,-0.06366115,-0.014039397,0.5335076,0
21816000,-0.06414165,-0.06380057,-0.014227174,0.5335076,0
21820000,-0.06376931,-0.06393746,-0.014472285,0.5335076,0
21824000,-0.06372194,-0.064035386,-0.014731762,0.5335076,0
21828000,-0.06590715,-0.0690699,-0.015423085,0.54901147,0
21832000,-0.06566509,-0.06911083,-0.015564035,0.54901147,0
21836000,-0.064936765,-0.069254085,-0.015774587,0.54901147,0
21840000,-0.06511634,-0.06919637,-0.015842898,0.54901147,0
21844000,-0.06472517,-0.06923696,-0.016043428,0.54901147,0
21848000,-0.06416699,-0.06926744,-0.016202554,0.54901147,0
21852000,-0.06204571,-0.0742189,-0.016845452,0.5631698,0
21856000,-0.06141652,-0.07413581,-0.017014239,0.5631698,0
21860000,-0.06070143,-0.07421088,-0.017221998,0.5631698,0
21864000,-0.060545206,-0.07403573,-0.017352799,0.5631698,0
21868000,-0.060475174,-0.073932454,-0.01755521,0.5631698,0
21872000,-0.060376126,-0.07380966,-0.017737292,0.5631698,0
21876000,-0.058746632,-0.07869381,-0.018410731,0.5760264,0
21884000,-0.05802124,-0.07857819,-0.018740758,0.5760264,0
21888000,-0.05842186,-0.07829445,-0.018890671,0.5760264,0
21892000,-0.058119416,-0.07814487,-0.019005723,0.5760264,0
21896000,-0.057658672,-0.07792896,-0.019317903,0.5760264,0
21900000,-0.055788506,-0.082745634,-0.020007037,0.58864635,0
21908000,-0.05539057,-0.08243396,-0.020156972,0.58864635,0
21912000,-0.055324815,-0.08229032,-0.020240635,0.58864635,0
21916000,-0.05538353,-0.08211934,-0.020355184,0.58864635,0
21920000,-0.055355325,-0.08189662,-0.020484075,0.58864635,0
21924000,-0.05390025,-0.08664863,-0.021199927,0.6000029,0
21928000,-0.054044377,-0.08640742,-0.021315116,0.6000029,0
21932000,-0.0540374,-0.08618446,-0.021450087,0.6000029,0
21936000,-0.053881295,-0.0859688,-0.021582004,0.6000029,0
21940000,-0.05371763,-0.08569955,-0.02167465,0.6000029,0
21944000,-0.053660214,-0.08536562,-0.021750355,0.6000029,0
21948000,-0.055956878,-0.09005405,-0.022415543,0.6101739,0
21952000,-0.056084137,-0.08976698,-0.022439033,0.6101739,0
21956000,-0.055942606,-0.089414,-0.022468166,0.6101739,0
21960000,-0.05560451,-0.08899973,-0.022526,0.6101739,0
21964000,-0.055386063,-0.08863124,-0.022603054,0.6101739,0
21968000,-0.055414196,-0.08832232,-0.02266712,0.6101739,0
21972000,-0.054304656,-0.0930371,-0.023400147,0.61924005,0
21976000,-0.05461531,-0.09272079,-0.023516078,0.61924005,0
21980000,-0.054792143,-0.092371866,-0.023623697,0.61924005,0
21984000,-0.054692864,-0.09201276,-0.023695461,0.61924005,0
21988000,-0.054362323,-0.091634825,-0.023739757,0.61924005,0
21992000,-0.05392284,-0.09125219,-0.023771284,0.61924005,0
21996000,-0.052019663,-0.09583354,-0.024614438,0.6272659,0
22000000,-0.051784936,-0.09547389,-0.024627525,0.6272659,0
22004000,-0.051724996,-0.09510991,-0.024695423,0.6272659,0
22008000,-0.051753633,-0.09471023,-0.024758706,0.6272659,0
22012000,-0.051753793,-0.09425841,-0.024784327,0.6272659,0
22016000,-0.05174591,-0.093785934,-0.024812752,0.6272659,0
22020000,-0.05036475,-0.098403096,-0.025550216,0.63502675,0
22028000,-0.050107673,-0.097658284,-0.025629237,0.63502675,0
22032000,-0.05025034,-0.09723913,-0.025676714,0.63502675,0
22036000,-0.050475106,-0.096778385,-0.025769379,0.63502675,0
22040000,-0.05048865,-0.0962545,-0.025811702,0.63502675,0
22044000,-0.049085557,-0.10079408,-0.026536755,0.6418135,0
22048000,-0.04879885,-0.100374416,-0.026598535,0.6418135,0
22052000,-0.04866365,-0.0999678,-0.026648149,0.6418135,0
22056000,-0.048909955,-0.09953651,-0.02667166,0.6418135,0
22060000,-0.04938858,-0.09904176,-0.026705846,0.6418135,0
22064000,-0.049581338,-0.098504886,-0.026768385,0.6418135,0
22068000,-0.051877752,-0.10304534,-0.027563766,0.6477119,0
22072000,-0.051860973,-0.10261426,-0.027574949,0.6477119,0
22076000,-0.052097872,-0.102164656,-0.027558848,0.6477119,0
22080000,-0.052351348,-0.101644546,-0.02754941,0.6477119,0
22084000,-0.05239355,-0.101120666,-0.027546247,0.6477119,0
22088000,-0.052134316,-0.10062288,-0.02757203,0.6477119,0
22092000,-0.050687812,-0.103667594,-0.028128948,0.6527938,0
22096000,-0.050534077,-0.10307483,-0.028291633,0.6527938,0
22100000,-0.050498374,-0.1026067,-0.028309794,0.6527938,0
22104000,-0.05038643,-0.102150746,-0.028324116,0.6527938,0
22108000,-0.050353415,-0.10167469,-0.0283604,0.6527938,0
22112000,-0.05019696,-0.101219386,-0.028441591,0.6527938,0
22116000,-0.048606507,-0.09994257,-0.028400205,0.6576509,0
22124000,-0.04797332,-0.09891051,-0.028504856,0.6576509,0
22128000,-0.04862291,-0.098218516,-0.028568191,0.6576509,0
22132000,-0.0487117,-0.09766999,-0.028576931,0.6576509,0
22136000,-0.04855935,-0.09713714,-0.028550249,0.6576509,0
22140000,-0.04746671,-0.09592049,-0.02842613,0.6617862,0
22144000,-0.04757922,-0.095498934,-0.028422704,0.6617862,0
22148000,-0.047271952,-0.09500945,-0.02846348,0.6617862,0
22152000,-0.04794432,-0.094577566,-0.028439201,0.6617862,0
22156000,-0.04805265,-0.09408893,-0.028492726,0.6617862,0
22160000,-0.048162203,-0.0936248,-0.028532818,0.6617862,0
22164000,-0.047141753,-0.09250066,-0.02844724,0.6652558,0
22172000,-0.046932496,-0.09151667,-0.028444182,0.6652558,0
22176000,-0.046843812,-0.091089904,-0.028497124,0.6652558,0
22180000,-0.046712376,-0.090683386,-0.028575959,0.6652558,0
22184000,-0.04656653,-0.09028209,-0.028575774,0.6652558,0
22188000,-0.045516513,-0.0893124,-0.02843982,0.66810393,0
22196000,-0.045333907,-0.08844912,-0.0284485,0.66810393,0
22200000,-0.04578402,-0.08797319,-0.028769,0.66810393,0
22204000,-0.04559878,-0.08758476,-0.028849903,0.66810393,0
22208000,-0.045457162,-0.08724744,-0.028925821,0.66810393,0
22212000,-0.047875382,-0.08639181,-0.028879546,0.6710496,0
22216000,-0.04816979,-0.08608841,-0.029132597,0.6710496,0
22220000,-0.048544053,-0.08569163,-0.029155716,0.6710496,0
22224000,-0.049139168,-0.08529897,-0.029076057,0.6710496,0
22228000,-0.049191304,-0.08489716,-0.02899734,0.6710496,0
22232000,-0.048717387,-0.08449952,-0.029025597,0.6710496,0
22236000,-0.04738255,-0.083717264,-0.029066466,0.67341876,0
22240000,-0.047314737,-0.08336071,-0.02911658,0.67341876,0
22244000,-0.047436155,-0.08307411,-0.029115055,0.67341876,0
22248000,-0.04762347,-0.082775995,-0.02911229,0.67341876,0
22252000,-0.047705725,-0.08243018,-0.029146051,0.67341876,0
22256000,-0.047757387,-0.08205795,-0.029223444,0.67341876,0
22260000,-0.046569012,-0.08134742,-0.029268343,0.6752943,0
22264000,-0.04635523,-0.08105941,-0.029353676,0.6752943,0
22268000,-0.04611591,-0.080845095,-0.029378153,0.6752943,0
22276000,-0.046141725,-0.08022562,-0.029363584,0.6752943,0
22280000,-0.04622171,-0.07989953,-0.02942545,0.6752943,0
22284000,-0.045061186,-0.07938808,-0.029460076,0.6767383,0
22288000,-0.045176886,-0.07918546,-0.02949296,0.6767383,0
22292000,-0.045594268,-0.07892881,-0.029502004,0.6767383,0
22296000,-0.045782775,-0.07858735,-0.02964294,0.6767383,0
22300000,-0.045705523,-0.07829443,-0.029641308,0.6767383,0
22304000,-0.045725733,-0.077999726,-0.02968388,0.6767383,0
22308000,-0.044730686,-0.07747984,-0.029698161,0.6781677,0
22312000,-0.04495672,-0.07720653,-0.029718798,0.6781677,0
22316000,-0.044986963,-0.07696227,-0.02975841,0.6781677,0
22320000,-0.04497382,-0.07674497,-0.029870555,0.6781677,0
22324000,-0.0450161,-0.07649221,-0.029994864,0.6781677,0
22328000,-0.04491447,-0.076198235,-0.030059975,0.6781677,0
22332000,-0.04344476,-0.075711064,-0.03005182,0.6791869,0
22336000,-0.043224398,-0.075495385,-0.03007004,0.6791869,0
22340000,-0.043151487,-0.07536236,-0.030095126,0.6791869,0
22344000,-0.043496296,-0.075207144,-0.030131556,0.6791869,0
22348000,-0.044004638,-0.075007364,-0.0301756,0.6791869,0
22352000,-0.04425419,-0.07480814,-0.030216817,0.6791869,0
22356000,-0.04307675,-0.0744208,-0.030208934,0.6798421,0
22360000,-0.042940155,-0.07422199,-0.030234762,0.6798421,0
22364000,-0.042801518,-0.07400591,-0.030282542,0.6798421,0
22368000,-0.042681083,-0.07375418,-0.030344227,0.6798421,0
22372000,-0.04261679,-0.07350631,-0.030379202,0.6798421,0
22376000,-0.04278452,-0.073264524,-0.030393401,0.6798421,0
22380000,-0.045170024,-0.072886534,-0.030374805,0.6801728,0
22388000,-0.046223328,-0.072576895,-0.030438684,0.6801728,0
22396000,-0.04593753,-0.07229249,-0.030460864,0.6801728,0
22400000,-0.045744915,-0.07217552,-0.030425392,0.6801728,0
22404000,-0.044392433,-0.07187599,-0.0304435,0.68008935,0
22408000,-0.04439636,-0.07171358,-0.030527666,0.68008935,0
22412000,-0.04441622,-0.07152566,-0.030612245,0.68008935,0
22416000,-0.044432916,-0.071322694,-0.030695776,0.68008935,0
22420000,-0.04458375,-0.07113885,-0.03075536,0.68008935,0
22424000,-0.04485129,-0.07096536,-0.030739907,0.68008935,0
22428000,-0.043672267,-0.07061126,-0.030631721,0.6797386,0
22432000,-0.04374145,-0.070353575,-0.0305294,0.6797386,0
22436000,-0.04365021,-0.070164785,-0.030539546,0.6797386,0
22440000,-0.043526463,-0.070013106,-0.030548807,0.6797386,0
22444000,-0.04366923,-0.06989393,-0.030652963,0.6797386,0
22448000,-0.043934517,-0.06982363,-0.030713487,0.6797386,0
22452000,-0.042604826,-0.069660954,-0.030734066,0.67914796,0
22456000,-0.042537447,-0.06959,-0.030795418,0.67914796,0
22460000,-0.042474564,-0.069438726,-0.030803435,0.67914796,0
22464000,-0.042867012,-0.069292895,-0.03094738,0.67914796,0
22468000,-0.042786192,-0.0691332,-0.03098509,0.67914796,0
22472000,-0.042540856,-0.06902175,-0.031040993,0.67914796,0
22476000,-0.04113125,-0.06884138,-0.031082094,0.67835665,0
22480000,-0.041413337,-0.06874303,-0.031124514,0.67835665,0
22484000,-0.041535668,-0.0685715,-0.031137768,0.67835665,0
22488000,-0.041439258,-0.068342976,-0.031108432,0.67835665,0
22492000,-0.041457795,-0.06814307,-0.031102844,0.67835665,0
22496000,-0.04177007,-0.06802142,-0.03113497,0.67835665,0
22500000,-0.040832758,-0.06781985,-0.031102423,0.6773318,0
22504000,-0.041209415,-0.067669556,-0.03109054,0.6773318,0
22508000,-0.041585308,-0.06748213,-0.03109486,0.6773318,0
22512000,-0.041659612,-0.06727786,-0.031135526,0.6773318,0
22516000,-0.041400596,-0.067111075,-0.031187225,0.6773318,0
22520000,-0.041234277,-0.066990994,-0.031193823,0.6773318,0
22528000,-0.040193748,-0.0667178,-0.03113591,0.67613333,0
22532000,-0.040393837,-0.06664588,-0.031113043,0.67613333,0
22540000,-0.04036684,-0.066502094,-0.031086482,0.67613333,0
22544000,-0.040187303,-0.066349745,-0.031044405,0.67613333,0
22548000,-0.038789902,-0.06607538,-0.03100058,0.6747891,0
22552000,-0.03897715,-0.065909356,-0.031018503,0.6747891,0
22556000,-0.03929303,-0.06576714,-0.031059898,0.6747891,0
22560000,-0.03955165,-0.065608695,-0.031076403,0.6747891,0
22564000,-0.03967463,-0.0654574,-0.03105333,0.6747891,0
22568000,-0.03973288,-0.06535351,-0.031005152,0.6747891,0
22572000,-0.042052224,-0.06516969,-0.030990265,0.6733123,0
22576000,-0.041805044,-0.06503548,-0.031078963,0.6733123,0
22580000,-0.04177282,-0.06491549,-0.031170402,0.6733123,0
22584000,-0.042040713,-0.06476358,-0.031212358,0.6733123,0
22588000,-0.042032007,-0.064614646,-0.031207036,0.6733123,0
22596000,-0.04109543,-0.06411285,-0.031116614,0.67174494,0
22600000,-0.04129495,-0.06397532,-0.031092793,0.67174494,0
22604000,-0.041179046,-0.06390268,-0.03108979,0.67174494,0
22608000,-0.04104651,-0.06376487,-0.031096634,0.67174494,0
22612000,-0.040848024,-0.06362043,-0.031088317,0.67174494,0
22616000,-0.040729754,-0.063502766,-0.031002117,0.67174494,0
22620000,-0.0394478,-0.063372985,-0.030909628,0.67029625,0
22624000,-0.03994958,-0.06334576,-0.030892652,0.67029625,0
22628000,-0.04029177,-0.063297436,-0.030894943,0.67029625,0
22632000,-0.04032238,-0.06313526,-0.030908696,0.67029625,0
22636000,-0.040293165,-0.06293541,-0.030961394,0.67029625,0
22644000,-0.038755745,-0.062610865,-0.031017696,0.66873515,0
22648000,-0.038569108,-0.06253174,-0.030956827,0.66873515,0
22652000,-0.038838785,-0.062448513,-0.03084128,0.66873515,0
22656000,-0.039032485,-0.062379926,-0.030744854,0.66873515,0
22660000,-0.039178867,-0.062256873,-0.030707635,0.66873515,0
22668000,-0.037955157,-0.061933063,-0.030675963,0.6671049,0
22672000,-0.03787767,-0.06184775,-0.030690365,0.6671049,0
22676000,-0.037706554,-0.06176892,-0.03070589,0.6671049,0
22684000,-0.037377946,-0.061443444,-0.030695966,0.6671049,0
22688000,-0.03739091,-0.061280392,-0.03064877,0.6671049,0
22692000,-0.036266956,-0.061153248,-0.030573942,0.6654161,0
22696000,-0.03656146,-0.06103394,-0.030605922,0.6654161,0
22700000,-0.03684081,-0.0609345,-0.030568477,0.6654161,0
22704000,-0.037180595,-0.060813084,-0.030534238,0.6654161,0
22712000,-0.037481353,-0.06054753,-0.03045535,0.6654161,0
22716000,-0.03606836,-0.060377635,-0.03035784,0.66389084,0
22720000,-0.03581547,-0.06026332,-0.030371219,0.66389084,0
22724000,-0.03555176,-0.060143016,-0.030401617,0.66389084,0
22728000,-0.03539618,-0.05999776,-0.030416697,0.66389084,0
22732000,-0.035417743,-0.059840567,-0.030386338,0.66389084,0
22736000,-0.03555359,-0.059694454,-0.030363562,0.66389084,0
22740000,-0.034222573,-0.059526656,-0.030345334,0.6623275,0
22744000,-0.03434889,-0.05941103,-0.030286904,0.6623275,0
22748000,-0.03465914,-0.05938133,-0.030226875,0.6623275,0
22752000,-0.035206232,-0.059379466,-0.03017205,0.6623275,0
22756000,-0.035753157,-0.059293218,-0.030129079,0.6623275,0
22760000,-0.035881374,-0.059075218,-0.030130163,0.6623275,0
22764000,-0.03433205,-0.058928102,-0.030107321,0.660712,0
22768000,-0.0340311,-0.058631975,-0.030125838,0.660712,0
22772000,-0.033916727,-0.058523446,-0.03006664,0.660712,0
22776000,-0.03381516,-0.058516443,-0.030026566,0.660712,0
22780000,-0.033665076,-0.058483794,-0.030026397,0.660712,0
22784000,-0.033568196,-0.058355134,-0.030002458,0.660712,0
22788000,-0.032375205,-0.05822609,-0.029951563,0.6590697,0
22792000,-0.032803737,-0.0581707,-0.029873367,0.6590697,0
22796000,-0.033257693,-0.05809868,-0.02979129,0.6590697,0
22800000,-0.033626538,-0.057998087,-0.029737666,0.6590697,0
22804000,-0.033810742,-0.05784735,-0.029760186,0.6590697,0
22808000,-0.033949874,-0.057647094,-0.029787935,0.6590697,0
22812000,-0.032472108,-0.05743579,-0.029777367,0.6574545,0
22816000,-0.032599676,-0.057286695,-0.029723532,0.6574545,0
22820000,-0.03263812,-0.057168886,-0.029700212,0.6574545,0
22824000,-0.032834433,-0.05712895,-0.029619042,0.6574545,0
22828000,-0.032874946,-0.05703178,-0.029597517,0.6574545,0
22832000,-0.033066157,-0.057122983,-0.029541308,0.6574545,0
22836000,-0.035550267,-0.05702257,-0.029528026,0.65581024,0
22840000,-0.035360254,-0.056869358,-0.029570265,0.65581024,0
22844000,-0.03540848,-0.056773048,-0.029546902,0.65581024,0
22848000,-0.03582748,-0.0566433,-0.02954768,0.65581024,0
22852000,-0.03624951,-0.056495294,-0.029478833,0.65581024,0
22856000,-0.03652618,-0.056370497,-0.029473718,0.65581024,0
22860000,-0.03508696,-0.056255184,-0.029496403,0.65415275,0
22864000,-0.035047263,-0.056154497,-0.029469268,0.65415275,0
22868000,-0.03500782,-0.05606611,-0.029378174,0.65415275,0
22872000,-0.0350801,-0.05598422,-0.029297506,0.65415275,0
22880000,-0.035039898,-0.055772122,-0.029243046,0.65415275,0
22884000,-0.03324076,-0.055671748,-0.029262772,0.65249604,0
22888000,-0.033534244,-0.055530224,-0.029276915,0.65249604,0
22896000,-0.034028817,-0.05531162,-0.029286914,0.65249604,0
22900000,-0.033866834,-0.055269673,-0.029272618,0.65249604,0
22904000,-0.033532713,-0.055197038,-0.029273506,0.65249604,0
22908000,-0.031973332,-0.055083916,-0.029248405,0.65089434,0
22916000,-0.03194442,-0.054888718,-0.029137328,0.65089434,0
22920000,-0.032283947,-0.05485083,-0.029129064,0.65089434,0
22924000,-0.03248456,-0.05477547,-0.02912532,0.65089434,0
22928000,-0.032607682,-0.054655485,-0.029112361,0.65089434,0
22932000,-0.031131376,-0.054499604,-0.029159931,0.6492866,0
22936000,-0.031399045,-0.054343633,-0.029229432,0.6492866,0
22940000,-0.031902313,-0.054235283,-0.029233914,0.6492866,0
22944000,-0.03210541,-0.05420754,-0.029202841,0.6492866,0
22948000,-0.03195054,-0.054200158,-0.029169733,0.6492866,0
22952000,-0.03181901,-0.05413107,-0.029142207,0.6492866,0
22956000,-0.030198105,-0.05398134,-0.02911127,0.64768666,0
22960000,-0.0300721,-0.053850003,-0.029070178,0.64768666,0
22964000,-0.03001615,-0.053788997,-0.029033449,0.64768666,0
22968000,-0.030261554,-0.053775605,-0.028995901,0.64768666,0
22972000,-0.03078613,-0.053728394,-0.028968388,0.64768666,0
22976000,-0.03141906,-0.05362027,-0.028972473,0.64768666,0
22980000,-0.030355927,-0.053473853,-0.028976832,0.64608294,0
22984000,-0.03045186,-0.05339889,-0.02896851,0.64608294,0
22988000,-0.030516747,-0.05332324,-0.028944628,0.64608294,0
22996000,-0.030185264,-0.053182572,-0.028967908,0.64608294,0
23000000,-0.02985781,-0.053120203,-0.028954715,0.64608294,0
23004000,-0.028170004,-0.05300127,-0.028929748,0.6441336,0
23008000,-0.028262299,-0.052965447,-0.028880388,0.6441336,0
23012000,-0.028461514,-0.05294202,-0.028829841,0.6441336,0
23016000,-0.028616952,-0.0529215,-0.028796788,0.6441336,0
23020000,-0.028952096,-0.05291408,-0.028765585,0.6441336,0
23024000,-0.029509658,-0.05288423,-0.028712142,0.6441336,0
23028000,-0.02811458,-0.052773096,-0.028674942,0.64219964,0
23032000,-0.029228669,-0.052691568,-0.028616918,0.64219964,0
23036000,-0.029508105,-0.052623108,-0.028645584,0.64219964,0
23040000,-0.029586997,-0.052559674,-0.028620271,0.64219964,0
23044000,-0.029108014,-0.05248636,-0.028725162,0.64219964,0
23052000,-0.027569752,-0.05233811,-0.028668098,0.6402725,0
23056000,-0.027989354,-0.052346088,-0.028516693,0.6402725,0
23060000,-0.028325053,-0.05236265,-0.028478611,0.6402725,0
23064000,-0.028511934,-0.052316923,-0.028542643,0.6402725,0
23068000,-0.028690744,-0.052215103,-0.028652055,0.6402725,0
23072000,-0.028793655,-0.052087523,-0.028704861,0.6402725,0
23076000,-0.027273044,-0.05193357,-0.028642572,0.6383631,0
23080000,-0.027388005,-0.051851086,-0.028576585,0.6383631,0
23084000,-0.027789304,-0.051797193,-0.028538737,0.6383631,0
23088000,-0.028094875,-0.051778395,-0.02848617,0.6383631,0
23092000,-0.028096274,-0.051785983,-0.028456017,0.6383631,0
23096000,-0.027980454,-0.05175978,-0.028600842,0.6383631,0
