timestamp,roll,pitch,yaw,thrust_body[0]
18044000,0.03823575,0.032982934,-0.007231569,0.15
18048000,0.03823606,0.032995068,-0.007231331,0.15
18052000,0.03827191,0.03300692,-0.00723028,0.15
18056000,0.03828363,0.033024315,-0.007229678,0.15
18060000,0.038270157,0.033024926,-0.007229976,0.15
18068000,0.038292915,0.033104196,-0.007227937,0.15
18072000,0.03832855,0.033193804,-0.007225401,0.15
18080000,0.038372964,0.033292655,-0.007222478,0.15
18084000,0.03837925,0.033334613,-0.007221527,0.15
18088000,0.038388345,0.0333252,-0.007221497,0.15
18092000,0.03835877,0.033318248,-0.007222318,0.15
18096000,0.038363088,0.03333761,-0.007221845,0.15
18100000,0.038409755,0.033363797,-0.007220259,0.15
18104000,0.038432386,0.03332446,-0.007220487,0.15
18108000,0.038434193,0.03330093,-0.007220897,0.15
18116000,0.038402453,0.03330717,-0.007221515,0.15
18124000,0.03841308,0.033294696,-0.007221508,0.15
18128000,0.03844575,0.03329153,-0.007220811,0.15
18132000,0.038436808,0.033285562,-0.007221132,0.15
18136000,0.038388494,0.033303782,-0.007221904,0.15
18140000,0.038362905,0.033321206,-0.007222164,0.15
18144000,0.038351238,0.03335339,-0.007221818,0.15
18148000,0.038349256,0.033391636,-0.007221133,0.15
18152000,0.038333036,0.033415537,-0.007221053,0.15
18156000,0.038316622,0.033405095,-0.007221635,0.15
18164000,0.038322918,0.03336219,-0.00722231,0.15
18168000,0.03833263,0.03333422,-0.007222619,0.15
18172000,0.038362697,0.03333548,-0.007221895,0.15
18176000,0.038372602,0.033353817,-0.007221314,0.15
18180000,0.038380384,0.033395745,-0.007220329,0.15
18184000,0.038401544,0.033427123,-0.007219235,0.15
18188000,0.038408004,0.033451524,-0.007218615,0.15
18192000,0.03842331,0.03350011,-0.007217327,0.15
18196000,0.03844994,0.033547565,-0.007215792,0.15
18204000,0.038485724,0.03362972,-0.007213372,0.15
18212000,0.038453475,0.033686828,-0.007213031,0.15
18216000,0.03842427,0.033693746,-0.007213584,0.15
18220000,0.038411725,0.033681605,-0.007214113,0.15
18224000,0.03844639,0.03365843,-0.007213744,0.15
18228000,0.038485046,0.033644192,-0.00721311,0.15
18236000,0.038453758,0.033678815,-0.007213179,0.15
18240000,0.038443603,0.033703104,-0.00721295,0.15
18244000,0.038403444,0.033709012,-0.007213781,0.15
18248000,0.0383969,0.03373346,-0.007213465,0.15
18252000,0.03839474,0.03375961,-0.007213015,0.15
18260000,0.038415764,0.033760156,-0.007212509,0.15
18264000,0.03843205,0.033779718,-0.00721175,0.15
18272000,0.038412392,0.03373945,-0.007212986,0.15
18276000,0.03840483,0.033722974,-0.00721348,0.15
18280000,0.038402937,0.03371783,-0.007213624,0.15
18284000,0.038394764,0.03371459,-0.007213878,0.15
18288000,0.03839538,0.03368488,-0.007214434,0.15
18292000,0.038382348,0.033616513,-0.00721605,0.15
18300000,0.026903493,0.033597976,-0.00721697,0
18304000,0.02688321,0.03360104,-0.00721697,0
18312000,0.02685368,0.033680514,-0.00721697,0
18316000,0.026854048,0.03369942,-0.00721697,0
18320000,0.026856346,0.0337042,-0.00721697,0
18324000,0.026852587,0.033719398,-0.00721697,1
18328000,0.026860766,0.033740778,-0.00721697,1
18332000,0.026866317,0.03373172,-0.00721697,1
18336000,0.026876336,0.033740148,-0.00721697,1
18340000,0.026890835,0.03371923,-0.00721697,1
18344000,0.026882533,0.03366268,-0.00721697,1
18352000,0.026878525,0.033751626,-0.00721697,1
18356000,0.026903626,0.03374543,-0.00721697,1
18360000,0.026955629,0.033710632,-0.00721697,1
18364000,0.026984487,0.03373621,-0.00721697,1
18372000,0.026970837,0.033767287,-0.00721697,1
18380000,0.026953831,0.033860702,-0.00721697,1
18388000,0.026962496,0.03390606,-0.00721697,1
18396000,0.026958968,0.033803567,-0.00721697,1
18400000,0.026920747,0.03377016,-0.00721697,1
18404000,0.02689039,0.033743892,-0.00721697,1
18412000,0.026845993,0.033734545,-0.00721697,1
18416000,0.026856728,0.033734407,-0.00721697,1
18420000,0.026859611,0.033725087,-0.00721697,1
18424000,0.026905969,0.03371353,-0.00721697,1
18432000,0.026958995,0.033766627,-0.00721697,1
18436000,0.02689938,0.03375337,-0.00721697,1
18440000,0.026865538,0.03377267,-0.00721697,1
18444000,0.02684447,0.03384781,-0.00721697,1
18448000,0.026804473,0.03389448,-0.00721697,1
18452000,0.026771523,0.03387558,-0.00721697,1
18456000,0.026783397,0.033840753,-0.00721697,1
18460000,0.026805153,0.033839002,-0.00721697,1
18464000,0.02680946,0.03381899,-0.00721697,1
18468000,0.026788872,0.03378093,-0.00721697,1
18476000,0.026799776,0.03373814,-0.00721697,1
18480000,0.026802463,0.033775654,-0.00721697,1
18484000,0.026814925,0.033784438,-0.00721697,1
18488000,0.026816877,0.03377038,-0.00721697,1
18492000,0.026806146,0.03378696,-0.00721697,1
18500000,0.026797237,0.033827692,-0.00721697,1
18504000,0.02678449,0.033840705,-0.00721697,1
18508000,0.026772106,0.03379387,-0.00721697,1
18512000,0.026774036,0.03376765,-0.00721697,1
18516000,0.026814971,0.033769846,-0.00721697,1
18520000,0.026852742,0.03377991,-0.00721697,1
18524000,0.026886709,0.033796165,-0.00721697,1
18528000,0.02691764,0.033814706,-0.00721697,1
18532000,0.02693195,0.033791337,-0.00721697,1
18536000,0.026944961,0.033772916,-0.00721697,1
18540000,0.02694887,0.033776447,-0.00721697,1
18544000,0.026924951,0.033774253,-0.00721697,1
18548000,0.02690516,0.03381916,-0.00721697,1
18552000,0.026887195,0.033871256,-0.00721697,1
18556000,0.026895732,0.03387899,-0.00721697,1
18560000,0.026897985,0.033841494,-0.00721697,1
18564000,0.026887842,0.033813935,-0.00721697,1
18568000,0.026897734,0.033829406,-0.00721697,1
18572000,0.026880626,0.03380297,-0.00721697,1
18576000,0.026874257,0.033737462,-0.00721697,1
18580000,0.026864164,0.033721857,-0.00721697,1
18588000,0.026826708,0.033782378,-0.00721697,1
18592000,0.026825318,0.033800744,-0.00721697,1
18596000,0.026822472,0.033817515,-0.00721697,1
18600000,0.026815671,0.033789635,-0.00721697,1
18604000,0.026801739,0.033786304,-0.00721697,1
18612000,0.026812488,0.033767205,-0.00721697,1
18616000,0.026828956,0.033782218,-0.00721697,1
18620000,0.026827183,0.033813763,-0.00721697,1
18624000,0.026805194,0.033770856,-0.00721697,1
18628000,0.026802776,0.03371989,-0.00721697,1
18632000,0.026831398,0.033775847,-0.00721697,1
18636000,0.026850201,0.03384902,-0.00721697,1
18640000,0.026839346,0.033831473,-0.00721697,1
18644000,0.026836012,0.03379229,-0.00721697,1
18648000,0.026845695,0.03377746,-0.00721697,1
18652000,0.026822008,0.03374467,-0.00721697,1
18656000,0.02681374,0.03374913,-0.00721697,1
18660000,0.026826413,0.033785276,-0.00721697,1
18664000,0.026834125,0.03382319,-0.00721697,1
18668000,0.026822662,0.0338325,-0.00721697,1
18672000,0.026821764,0.033800296,-0.00721697,1
18680000,0.026853187,0.03369569,-0.00721697,1
18684000,0.026880754,0.033656497,-0.00721697,1
18688000,0.026926316,0.033622313,-0.00721697,1
18692000,0.026954722,0.033569567,-0.00721697,1
18696000,0.02693503,0.033520065,-0.00721697,1
18700000,0.026903663,0.033471294,-0.00721697,1
18704000,0.026882209,0.033433173,-0.00721697,1
18708000,0.026876688,0.03340187,-0.00721697,1
18712000,0.02691948,0.03337207,-0.00721697,1
18716000,0.026932081,0.033369835,-0.00721697,1
18720000,0.026913038,0.033342797,-0.00721697,1
18724000,0.026923774,0.033317186,-0.00721697,1
18732000,0.026888316,0.03326634,-0.00721697,1
18736000,0.02690895,0.033214644,-0.00721697,1
18740000,0.026936227,0.033176705,-0.00721697,1
18748000,0.02694133,0.033090908,-0.00721697,1
18752000,0.026935386,0.03301934,-0.00721697,1
18756000,0.026942123,0.032978833,-0.00721697,1
18760000,0.026966387,0.032962713,-0.00721697,1
18764000,0.026963076,0.032941073,-0.00721697,1
18768000,0.026992101,0.032859053,-0.00721697,1
18772000,0.027009228,0.03279793,-0.00721697,1
18776000,0.027012108,0.032728083,-0.00721697,1
18780000,0.027013348,0.032624982,-0.00721697,1
18784000,0.0269937,0.03256436,-0.00721697,1
18788000,0.027016707,0.032527342,-0.00721697,1
18792000,0.027038826,0.032498356,-0.00721697,1
18796000,0.02702961,0.03247347,-0.00721697,1
18804000,0.027012102,-0.51772976,-0.00721697,1
18808000,0.027009824,-0.5177699,-0.00721697,1
18812000,0.027026668,-0.51783717,-0.00721697,1
18820000,0.026957372,-0.5179027,-0.00721697,1
18828000,0.026787242,-0.49180707,-0.00721697,1
18832000,0.026656967,-0.49189124,-0.00721697,1
18836000,0.026482007,-0.49199396,-0.00721697,1
18840000,0.026269041,-0.49205095,-0.00721697,1
18844000,0.02602373,-0.4920987,-0.00721697,1
18848000,0.025744239,-0.49219543,-0.00721697,1
18852000,0.025403226,-0.46753252,-0.00721697,1
18856000,0.025001297,-0.46757948,-0.00721697,1
18860000,0.02455307,-0.46765086,-0.00721697,1
18864000,0.024077646,-0.46770933,-0.00721697,1
18868000,0.023572084,-0.4677449,-0.00721697,1
18876000,0.022479128,-0.44439477,-0.00721697,1
18880000,0.021892339,-0.44449648,-0.00721697,1
18884000,0.021279654,-0.444571,-0.00721697,1
18888000,0.020610072,-0.4445593,-0.00721697,1
18892000,0.019827241,-0.44455338,-0.00721697,1
18900000,0.018195529,-0.42240644,-0.00721697,1
18904000,0.017286668,-0.4224415,-0.00721697,1
18908000,0.016358571,-0.4224269,-0.00721697,1
18916000,0.01442954,-0.4225317,-0.00721697,1
18920000,0.013380943,-0.42260304,-0.00721697,1
18924000,0.01225779,-0.40140498,-0.00721697,1
18928000,0.011088652,-0.4014999,-0.00721697,1
18932000,0.009886682,-0.40159696,-0.00721697,1
18936000,0.008655244,-0.40166098,-0.00721697,1
18944000,0.005980015,-0.40183347,-0.00721697,1
18948000,0.004630253,-0.38152182,-0.00721697,1
18952000,0.003223738,-0.38162473,-0.00721697,1
18956000,0.001738451,-0.38178477,-0.00721697,1
18960000,0.000201506,-0.38190258,-0.00721697,1
18964000,-0.00138151,-0.38197285,-0.00721697,1
18968000,-0.00300734,-0.38207614,-0.00721697,1
18972000,-0.004650137,-0.36253908,-0.00721697,1
18976000,-0.006306471,-0.36256063,-0.00721697,1
18980000,-0.008009029,-0.36259067,-0.00721697,1
18984000,-0.009776416,-0.3626739,-0.00721697,1
18988000,-0.011576326,-0.362788,-0.00721697,1
18992000,-0.013371733,-0.3628441,-0.00721697,1
18996000,-0.015205302,-0.3438762,-0.00721697,1
19000000,-0.017087242,-0.34390262,-0.00721697,1
19004000,-0.018996885,-0.3439411,-0.00721697,1
19008000,-0.020917963,-0.34390277,-0.00721697,1
19016000,-0.024846885,-0.34379816,-0.00721697,1
19020000,-0.02679722,-0.3255037,-0.00721697,1
19028000,-0.0307951,-0.32551387,-0.00721697,1
19036000,-0.034866896,-0.32543308,-0.00721697,1
19040000,-0.036944464,-0.32536715,-0.00721697,1
19044000,-0.03900767,-0.30761102,-0.00721697,1
19048000,-0.041082114,-0.30755442,-0.00721697,1
19052000,-0.043165337,-0.30746278,-0.00721697,1
19056000,-0.04525056,-0.30737644,-0.00721697,1
19060000,-0.047331043,-0.3072802,-0.00721697,1
19064000,-0.049391545,-0.30720142,-0.00721697,1
19068000,-0.051448736,-0.28998464,-0.00721697,1
19072000,-0.05351723,-0.28996786,-0.00721697,1
19080000,-0.0577145,-0.28973436,-0.00721697,1
19084000,-0.05977651,-0.28971004,-0.00721697,1
19088000,-0.061821017,-0.2896867,-0.00721697,1
19092000,-0.06381695,-0.27291903,-0.00721697,1
19096000,-0.06577795,-0.27285466,-0.00721697,1
19100000,-0.06774611,-0.2727593,-0.00721697,1
19104000,-0.06975209,-0.2726865,-0.00721697,1
19108000,-0.071767285,-0.27264374,-0.00721697,1
19112000,-0.07375193,-0.2726071,-0.00721697,1
19116000,-0.075732894,-0.25628126,-0.00721697,1
19120000,-0.07772754,-0.25625324,-0.00721697,1
19124000,-0.07972979,-0.25620118,-0.00721697,1
19128000,-0.08171645,-0.25617072,-0.00721697,1
19132000,-0.08370597,-0.25616652,-0.00721697,1
19140000,-0.08762816,-0.24027215,-0.00721697,1
19144000,-0.08952699,-0.24029261,-0.00721697,1
19148000,-0.091423005,-0.24034242,-0.00721697,1
19152000,-0.093332835,-0.24037123,-0.00721697,1
19156000,-0.09523246,-0.24035788,-0.00721697,1
19160000,-0.09711,-0.24031594,-0.00721697,1
19164000,-0.098955125,-0.22475812,-0.00721697,1
19168000,-0.10081394,-0.22475621,-0.00721697,1
19172000,-0.10266357,-0.22478637,-0.00721697,1
19176000,-0.10447109,-0.2248439,-0.00721697,1
19180000,-0.10629439,-0.22485788,-0.00721697,1
19188000,-0.109913714,-0.20964839,-0.00721697,1
19192000,-0.111667365,-0.20970942,-0.00721697,1
19196000,-0.113421105,-0.20983821,-0.00721697,1
19200000,-0.11517394,-0.2099432,-0.00721697,1
19204000,-0.11689916,-0.21003717,-0.00721697,1
19212000,-0.120333456,-0.19528605,-0.00721697,1
19216000,-0.12206957,-0.19547263,-0.00721697,1
19220000,-0.12381993,-0.19563828,-0.00721697,1
19224000,-0.12553,-0.19578815,-0.00721697,1
19232000,-0.12886973,-0.19616784,-0.00721697,1
19236000,-0.13049442,-0.18184063,-0.00721697,1
19240000,-0.13208617,-0.18219742,-0.00721697,1
19244000,-0.13367856,-0.18254104,-0.00721697,1
19248000,-0.13527755,-0.18286896,-0.00721697,1
19252000,-0.13689731,-0.18321685,-0.00721697,1
19260000,-0.14000055,-0.16960914,-0.00721697,1
19264000,-0.14155509,-0.17004369,-0.00721697,1
19272000,-0.1445298,-0.17097786,-0.00721697,1
19276000,-0.14600006,-0.17153749,-0.00721697,1
19284000,-0.14891091,-0.15843745,-0.00721697,1
19288000,-0.15035737,-0.15906258,-0.00721697,1
19292000,-0.15180127,-0.15969534,-0.00721697,1
19300000,-0.15464582,-0.16098489,-0.00721697,1
19308000,-0.15741251,-0.14840592,-0.00721697,1
19312000,-0.15877756,-0.1491478,-0.00721697,1
19316000,-0.16013356,-0.14997368,-0.00721697,1
19320000,-0.16148335,-0.15075924,-0.00721697,1
19324000,-0.16285603,-0.15152061,-0.00721697,1
19328000,-0.16420299,-0.15230905,-0.00721697,1
19332000,-0.16547617,-0.1392612,-0.00721697,1
19336000,-0.16676699,-0.14004521,-0.00721697,1
19340000,-0.16806793,-0.14084546,-0.00721697,1
19348000,-0.17064786,-0.14273576,-0.00721697,1
19352000,-0.17191961,-0.14372194,-0.00721697,1
19356000,-0.17316309,-0.13098606,-0.00721697,1
19364000,-0.17557265,-0.1331448,-0.00721697,1
19368000,-0.17675681,-0.13426124,-0.00721697,1
19372000,-0.17792673,-0.13536891,-0.00721697,1
19380000,-0.18030287,-0.12411256,-0.00721697,1
19384000,-0.18150009,-0.1252983,-0.00721697,1
19388000,-0.18264593,-0.12646008,-0.00721697,1
19392000,-0.18375096,-0.12761943,-0.00721697,1
19396000,-0.18486719,-0.1288087,-0.00721697,1
19404000,-0.18712962,-0.117888525,-0.00721697,1
19408000,-0.18823323,-0.1192181,-0.00721697,1
19412000,-0.18933144,-0.12053643,-0.00721697,1
19416000,-0.19043426,-0.12188349,-0.00721697,1
19420000,-0.19149975,-0.12324898,-0.00721697,1
19424000,-0.19254248,-0.124613404,-0.00721697,1
19428000,-0.19356504,-0.11272229,-0.00721697,1
19436000,-0.19559725,-0.115498796,-0.00721697,1
19440000,-0.19664259,-0.116901375,-0.00721697,1
19444000,-0.19766696,-0.11833301,-0.00721697,1
19448000,-0.19870794,-0.119786896,-0.00721697,1
19452000,-0.1997195,-0.1080181,-0.00721697,1
19456000,-0.20070516,-0.10944296,-0.00721697,1
19464000,-0.20267187,-0.11242456,-0.00721697,1
19468000,-0.20366727,-0.11387944,-0.00721697,1
19472000,-0.20464884,-0.11534549,-0.00721697,1
19476000,-0.20559531,-0.10374982,-0.00721697,1
19480000,-0.20653436,-0.10526763,-0.00721697,1
19484000,-0.20746535,-0.10677229,-0.00721697,1
19492000,-0.20933433,-0.10984694,-0.00721697,1
19496000,-0.21021564,-0.11138612,-0.00721697,1
19500000,-0.21107346,-0.09993828,-0.00721697,1
19504000,-0.21193025,-0.10155474,-0.00721697,1
19508000,-0.21281299,-0.10319952,-0.00721697,1
19516000,-0.2146181,-0.106380336,-0.00721697,1
19520000,-0.21549731,-0.10795499,-0.00721697,1
19524000,-0.21638542,-0.09656519,-0.00721697,1
19532000,-0.21804401,-0.09973387,-0.00721697,1
19536000,-0.21884987,-0.10134135,-0.00721697,1
19540000,-0.21965343,-0.102944374,-0.00721697,1
19548000,-0.22123256,-0.093263045,-0.00721697,1
19552000,-0.22201532,-0.094894804,-0.00721697,1
19556000,-0.22278489,-0.09656189,-0.00721697,1
19560000,-0.2235674,-0.09822238,-0.00721697,1
19564000,-0.22436954,-0.099878006,-0.00721697,1
19568000,-0.22514838,-0.101582184,-0.00721697,1
19572000,-0.2258829,-0.09039425,-0.00721697,1
19576000,-0.22662398,-0.092049666,-0.00721697,1
19584000,-0.22816367,-0.09545787,-0.00721697,1
19588000,-0.22889888,-0.097079605,-0.00721697,1
19592000,-0.22961614,-0.09869415,-0.00721697,1
19596000,-0.23032126,-0.08752529,-0.00721697,1
19600000,-0.23101203,-0.08920356,-0.00721697,1
19604000,-0.23172389,-0.09087464,-0.00721697,1
19608000,-0.23240918,-0.092518725,-0.00721697,1
19612000,-0.23307994,-0.09413946,-0.00721697,1
19620000,-0.23445174,-0.08447627,-0.00721697,1
19624000,-0.23512708,-0.08606496,-0.00721697,1
19628000,-0.23580182,-0.08767953,-0.00721697,1
19632000,-0.23645222,-0.08931931,-0.00721697,1
19636000,-0.23708531,-0.09091895,-0.00721697,1
19644000,-0.23833571,-0.08139199,-0.00721697,1
19648000,-0.23896053,-0.082943395,-0.00721697,1
19652000,-0.23957989,-0.08451364,-0.00721697,1
19656000,-0.24017565,-0.08609524,-0.00721697,1
19660000,-0.24075119,-0.0877228,-0.00721697,1
19664000,-0.24131523,-0.089338504,-0.00721697,1
19668000,-0.24185918,-0.0781366,-0.00721697,1
19672000,-0.2424134,-0.07966968,-0.00721697,1
19676000,-0.24297594,-0.08123287,-0.00721697,1
19680000,-0.2435092,-0.082823165,-0.00721697,1
19684000,-0.2440439,-0.08443244,-0.00721697,1
19688000,-0.24457896,-0.086026244,-0.00721697,1
19692000,-0.2450762,-0.07489784,-0.00721697,1
19700000,-0.24607114,-0.07806722,-0.00721697,1
19704000,-0.24656683,-0.079631574,-0.00721697,1
19708000,-0.24703565,-0.08121174,-0.00721697,1
19712000,-0.24749368,-0.08280787,-0.00721697,1
19716000,-0.24797823,-0.071607664,-0.00721697,1
19720000,-0.2484573,-0.07310283,-0.00721697,1
19724000,-0.2489172,-0.07456736,-0.00721697,1
19728000,-0.24938281,-0.076062776,-0.00721697,1
19732000,-0.24984744,-0.07755465,-0.00721697,1
19740000,-0.2507423,-0.06767967,-0.00721697,1
19744000,-0.2511671,-0.06914381,-0.00721697,1
19748000,-0.251582,-0.07056432,-0.00721697,1
19752000,-0.25200447,-0.07195521,-0.00721697,1
19756000,-0.2524493,-0.07338972,-0.00721697,1
19760000,-0.2528671,-0.074795604,-0.00721697,1
19764000,-0.25326356,-0.06341599,-0.00721697,1
19772000,-0.25408456,-0.066281915,-0.00721697,1
19776000,-0.25446063,-0.067729436,-0.00721697,1
19780000,-0.25484163,-0.06919016,-0.00721697,1
19788000,-0.25571257,-0.059266586,-0.00721697,1
19792000,-0.2560757,-0.060681887,-0.00721697,1
19800000,-0.25678682,-0.063520215,-0.00721697,1
19804000,-0.25709906,-0.06495791,-0.00721697,1
19808000,-0.2574469,-0.06640092,-0.00721697,1
19812000,-0.25781062,-0.05503383,-0.00721697,1
19820000,-0.25854298,-0.057757024,-0.00721697,1
19824000,-0.25889486,-0.059140366,-0.00721697,1
19828000,-0.2592371,-0.060520403,-0.00721697,1
19832000,-0.2595561,-0.06190028,-0.00721697,1
19836000,-0.2598988,-0.050473753,-0.00721697,1
19844000,-0.26058638,-0.053296264,-0.00721697,1
19848000,-0.26089063,-0.054663755,-0.00721697,1
19852000,-0.2612211,-0.055967208,-0.00721697,1
19856000,-0.261544,-0.05727179,-0.00721697,1
19860000,-0.26184294,-0.045741856,-0.00721697,1
19868000,-0.26245478,-0.04843867,-0.00721697,1
19872000,-0.26276007,-0.049796857,-0.00721697,1
19880000,-0.26341096,-0.052530874,-0.00721697,1
19884000,-0.26374322,-0.04101866,-0.00721697,1
19888000,-0.26407227,-0.042340655,-0.00721697,1
19892000,-0.26439232,-0.043668233,-0.00721697,1
19896000,-0.2646954,-0.04499727,-0.00721697,1
19900000,-0.26499245,-0.04632334,-0.00721697,1
19904000,-0.26524878,-0.04764792,-0.00721697,1
19908000,-0.26549166,-0.03609264,-0.00721697,1
19916000,-0.26602823,-0.038735945,-0.00721697,1
19920000,-0.2663336,-0.04005932,-0.00721697,1
19924000,-0.26666483,-0.04135824,-0.00721697,1
19928000,-0.2669574,-0.042699873,-0.00721697,1
19932000,-0.26721898,-0.031147664,-0.00721697,1
19936000,-0.2674995,-0.032491285,-0.00721697,1
19940000,-0.26776987,-0.033791855,-0.00721697,1
19944000,-0.2680492,-0.035095777,-0.00721697,1
19948000,-0.26832452,-0.036424816,-0.00721697,1
19952000,-0.2685865,-0.037774727,-0.00721697,1
19960000,-0.26920855,-0.027395431,-0.00721697,1
19964000,-0.2694783,-0.028701933,-0.00721697,1
19968000,-0.26976535,-0.029996673,-0.00721697,1
19972000,-0.27003,-0.03129331,-0.00721697,1
19980000,-0.27050608,-0.020886756,-0.00721697,1
19984000,-0.2707825,-0.02216574,-0.00721697,1
19988000,-0.27106208,-0.023438003,-0.00721697,1
19992000,-0.2713163,-0.024755422,-0.00721697,1
19996000,-0.27154678,-0.026083216,-0.00721697,1
20004000,-0.27204657,-0.01564142,-0.00721697,1
20008000,-0.27230304,-0.01698579,-0.00721697,1
20016000,-0.2728856,-0.01963839,-0.00721697,1
20020000,-0.2731604,-0.02102042,-0.00721697,1
20024000,-0.27343085,-0.022384021,-0.00721697,1
20028000,-0.2737073,-0.010582503,-0.00721697,1
20032000,-0.2739493,-0.011863631,-0.00721697,1
20036000,-0.27419415,-0.013165069,-0.00721697,1
20040000,-0.27443555,-0.014521597,-0.00721697,1
20044000,-0.27462807,-0.01587633,-0.00721697,1
20052000,-0.2750939,-0.00538666,-0.00721697,1
20060000,-0.27564594,-0.008081973,-0.00721697,1
20064000,-0.27591836,-0.009364129,-0.00721697,1
20068000,-0.27615023,-0.010689152,-0.00721697,1
20072000,-0.27637145,-0.012032875,-0.00721697,1
20076000,-0.27664068,-0.000199544,-0.00721697,1
20084000,-0.2771816,-0.002932671,-0.00721697,1
20088000,-0.27742323,-0.004232802,-0.00721697,1
20092000,-0.27766225,-0.005541309,-0.00721697,1
20100000,-0.27808255,0.005016407,-0.00721697,1
20108000,-0.27861485,0.002342956,-0.00721697,1
20112000,-0.27883416,0.000964588,-0.00721697,1
20116000,-0.27907813,-0.000423329,-0.00721697,1
20120000,-0.27933705,-0.001758062,-0.00721697,1
20124000,-0.27960202,0.010208732,-0.00721697,1
20128000,-0.27984807,0.008875169,-0.00721697,1
20132000,-0.28008536,0.007526562,-0.00721697,1
20140000,-0.28048304,0.004851844,-0.00721697,1
20144000,-0.28068104,0.003519018,-0.00721697,1
20148000,-0.2808861,0.015486971,-0.00721697,1
20152000,-0.28109804,0.01411881,-0.00721697,1
20156000,-0.28133628,0.012735257,-0.00721697,1
20160000,-0.2815625,0.011352441,-0.00721697,1
20164000,-0.2817615,0.009993571,-0.00721697,1
20172000,-0.28217223,0.020645088,-0.00721697,1
20180000,-0.28254193,0.017862976,-0.00721697,1
20184000,-0.2827344,0.016512727,-0.00721697,1
20188000,-0.28292534,0.015191951,-0.00721697,1
20192000,-0.28308326,0.013841525,-0.00721697,1
20196000,-0.28326592,0.025896119,-0.00721697,1
20200000,-0.28349498,0.024500242,-0.00721697,1
20204000,-0.28368354,0.023124004,-0.00721697,1
20208000,-0.28383094,0.02178316,-0.00721697,1
20212000,-0.2840199,0.020459255,-0.00721697,1
20220000,-0.2843899,0.031171747,-0.00721697,1
20228000,-0.28470486,0.028328849,-0.00721697,1
20236000,-0.28508916,0.02559013,-0.00721697,1
20240000,-0.28529078,0.024173245,-0.00721697,1
20244000,-0.2854825,0.03626334,-0.00721697,1
20248000,-0.28564128,0.03479046,-0.00721697,1
20252000,-0.28581473,0.03331236,-0.00721697,1
20256000,-0.28600293,0.03188648,-0.00721697,1
20260000,-0.28618938,0.03046724,-0.00721697,1
20264000,-0.28635553,0.029067665,-0.00721697,1
20268000,-0.28651914,0.041252293,-0.00721697,1
20272000,-0.28669074,0.039830707,-0.00721697,1
20276000,-0.28686583,0.038369242,-0.00721697,1
20280000,-0.2870069,0.036891464,-0.00721697,1
20284000,-0.28713858,0.03543271,-0.00721697,1
20292000,-0.28743762,0.046205115,-0.00721697,1
20300000,-0.28771183,0.043296497,-0.00721697,1
20304000,-0.2878789,0.041902225,-0.00721697,1
20308000,-0.28803352,0.040514734,-0.00721697,1
20312000,-0.28819504,0.039127726,-0.00721697,1
20320000,-0.28849274,0.050059482,-0.00721697,1
20324000,-0.28865978,0.048715204,-0.00721697,1
20328000,-0.28883377,0.04735833,-0.00721697,1
20332000,-0.2889489,0.045979623,-0.00721697,1
20336000,-0.28905535,0.04457734,-0.00721697,1
20340000,-0.28915876,0.05688394,-0.00721697,1
20344000,-0.28929833,0.055470105,-0.00721697,1
20348000,-0.2894903,0.05405966,-0.00721697,1
20352000,-0.28963938,0.052666113,-0.00721697,1
20356000,-0.28978273,0.05127702,-0.00721697,1
20364000,-0.29005337,0.062184975,-0.00721697,1
20368000,-0.29021254,0.06073291,-0.00721697,1
20372000,-0.2903691,0.059317607,-0.00721697,1
20376000,-0.29051936,0.05791574,-0.00721697,1
20384000,-0.29070222,0.05507614,-0.00721697,1
20392000,-0.29090643,0.06609786,-0.00721697,1
20396000,-0.29102898,0.06471152,-0.00721697,1
20400000,-0.29114407,0.06328732,-0.00721697,1
20404000,-0.2912427,0.06186325,-0.00721697,1
20408000,-0.2913452,0.060446266,-0.00721697,1
20412000,-0.2914476,0.07290086,-0.00721697,1
20416000,-0.29154387,0.07148537,-0.00721697,1
20420000,-0.2916386,0.070047855,-0.00721697,1
20424000,-0.29172805,0.06862846,-0.00721697,1
20428000,-0.29182547,0.067198664,-0.00721697,1
20432000,-0.29193836,0.06578254,-0.00721697,1
20436000,-0.29202387,0.078313835,-0.00721697,1
20444000,-0.2922009,0.07559456,-0.00721697,1
20448000,-0.2923009,0.07423371,-0.00721697,1
20452000,-0.29241422,0.072847225,-0.00721697,1
20456000,-0.29252318,0.07144945,-0.00721697,1
20460000,-0.29263422,0.08405704,-0.00721697,1
20464000,-0.29277813,0.08267269,-0.00721697,1
20468000,-0.29290178,0.08124342,-0.00721697,1
20472000,-0.29298213,0.0798275,-0.00721697,1
20476000,-0.29307514,0.078427985,-0.00721697,1
20484000,-0.29332063,0.089713134,-0.00721697,1
20492000,-0.29349938,0.08695492,-0.00721697,1
20496000,-0.2935862,0.08558966,-0.00721697,1
20500000,-0.29368794,0.0841761,-0.00721697,1
20508000,-0.2939188,0.0954021,-0.00721697,1
20512000,-0.29401764,0.09397175,-0.00721697,1
20516000,-0.29411295,0.09254254,-0.00721697,1
20520000,-0.29419357,0.09116564,-0.00721697,1
20524000,-0.2942923,0.089782454,-0.00721697,1
20528000,-0.29441747,0.08835266,-0.00721697,1
20532000,-0.2945362,0.10096754,-0.00721697,1
20536000,-0.29464114,0.09951508,-0.00721697,1
20540000,-0.29473838,0.09813161,-0.00721697,1
20544000,-0.2948638,0.096688695,-0.00721697,1
20548000,-0.29500553,0.095250115,-0.00721697,1
20552000,-0.29513526,0.09382691,-0.00721697,1
20556000,-0.29522836,0.10651444,-0.00721697,1
20560000,-0.29529795,0.105052166,-0.00721697,1
20564000,-0.29542866,0.10359537,-0.00721697,1
20568000,-0.29558563,0.102163106,-0.00721697,1
20572000,-0.29570654,0.10067765,-0.00721697,1
20576000,-0.29581553,0.09919878,-0.00721697,1
20580000,-0.29595485,0.111972444,-0.00721697,1
20584000,-0.29613334,0.1105763,-0.00721697,1
20588000,-0.29629833,0.1091737,-0.00721697,1
20592000,-0.29642707,0.10773805,-0.00721697,1
20596000,-0.2965449,0.10634306,-0.00721697,1
20600000,-0.29663634,0.10497598,-0.00721697,1
20604000,-0.29672682,0.11781665,-0.00721697,1
20608000,-0.29686153,0.11642133,-0.00721697,1
20612000,-0.29697844,0.11503125,-0.00721697,1
20616000,-0.29708606,0.11361493,-0.00721697,1
20620000,-0.2972068,0.11217199,-0.00721697,1
20628000,-0.2974288,0.123621725,-0.00721697,1
20632000,-0.29756457,0.122240685,-0.00721697,1
20636000,-0.29772225,0.12079767,-0.00721697,1
20644000,-0.2980058,0.11799151,-0.00721697,1
20648000,-0.2981285,0.11655048,-0.00721697,1
20652000,-0.29821774,0.12944728,-0.00721697,1
20660000,-0.29841724,0.12663797,-0.00721697,1
20668000,-0.2985817,0.12373012,-0.00721697,1
20672000,-0.29869467,0.122310296,-0.00721697,1
20676000,-0.298818,0.13519284,-0.00721697,1
20680000,-0.29890996,0.13373818,-0.00721697,1
20684000,-0.2990185,0.13226505,-0.00721697,1
20688000,-0.2991411,0.13078175,-0.00721697,1
20692000,-0.2992567,0.12929945,-0.00721697,1
20700000,-0.29946744,0.14070393,-0.00721697,1
20704000,-0.29962113,0.13918936,-0.00721697,1
20708000,-0.29979074,0.13768809,-0.00721697,1
20712000,-0.2999333,0.13622048,-0.00721697,1
20716000,-0.30009323,0.13473348,-0.00721697,1
20720000,-0.3002302,0.13321123,-0.00721697,1
20724000,-0.30032945,0.14610305,-0.00721697,1
20732000,-0.30049905,0.14319748,-0.00721697,1
20736000,-0.3006075,0.14169884,-0.00721697,1
20740000,-0.3007184,0.14020933,-0.00721697,1
20748000,-0.30094096,0.1516813,-0.00721697,1
20752000,-0.30102128,0.15020749,-0.00721697,1
20756000,-0.3010857,0.14877276,-0.00721697,1
20760000,-0.30117252,0.14733508,-0.00721697,1
20764000,-0.30125016,0.14585674,-0.00721697,1
20768000,-0.30136344,0.14439234,-0.00721697,1
20772000,-0.30151412,0.15739195,-0.00721697,1
20776000,-0.3016363,0.15586579,-0.00721697,1
20780000,-0.3017593,0.15431964,-0.00721697,1
20784000,-0.30186912,0.15279509,-0.00721697,1
20788000,-0.3019579,0.15125562,-0.00721697,1
20792000,-0.30208007,0.14967331,-0.00721697,1
20796000,-0.3022181,0.16263889,-0.00721697,1
20804000,-0.30244154,0.15947838,-0.00721697,1
20808000,-0.30257723,0.15793425,-0.00721697,1
20812000,-0.30268744,0.15639193,-0.00721697,1
20820000,-0.30287603,0.16783722,-0.00721697,1
20824000,-0.3029644,0.16627775,-0.00721697,1
20828000,-0.30308336,0.16471636,-0.00721697,1
20836000,-0.30331242,0.16159193,-0.00721697,1
20844000,-0.30353865,0.16053653,-0.00721697,1
20852000,-0.30384186,0.15741436,-0.00721697,1
20860000,-0.30416006,0.1542803,-0.00721697,1
20864000,-0.3042534,0.15271837,-0.00721697,1
20868000,-0.30433366,0.151183,-0.00721697,1
20876000,-0.30459452,0.14812854,-0.00721697,1
20880000,-0.30473796,0.14662394,-0.00721697,1
20884000,-0.30487835,0.14510421,-0.00721697,1
20888000,-0.3050054,0.14357284,-0.00721697,1
20892000,-0.30509156,0.14211312,-0.00721697,1
20900000,-0.3053228,0.13916822,-0.00721697,1
20904000,-0.30540317,0.13770752,-0.00721697,1
20908000,-0.30550495,0.13625683,-0.00721697,1
20912000,-0.30562785,0.13481793,-0.00721697,1
20920000,-0.3058765,0.13201322,-0.00721697,1
20924000,-0.30596638,0.13058913,-0.00721697,1
20928000,-0.3060273,0.12917174,-0.00721697,1
20932000,-0.30608708,0.12776908,-0.00721697,1
20936000,-0.30613554,0.12637348,-0.00721697,1
20940000,-0.88744783,0.14529058,0.05758803,1
20944000,-0.8876022,0.14392294,0.05787003,1
20948000,-0.8877769,0.14259711,0.058148228,1
20952000,-0.8878281,0.14125177,0.0584068,1
20956000,-0.88766414,0.13987604,0.05863005,1
20960000,-0.8872999,0.13851781,0.05881148,1
20964000,-0.86957496,0.13715704,0.058949005,1
20968000,-0.86875623,0.13574867,0.05905089,1
20972000,-0.86772865,0.13435479,0.05910854,1
20976000,-0.866539,0.1329679,0.059131995,1
20980000,-0.865219,0.13157162,0.059130117,1
20984000,-0.8637632,0.13015926,0.05910281,1
20988000,-0.86757016,0.12874308,0.059040092,1
20996000,-0.8638513,0.12586668,0.05882541,1
21000000,-0.8618498,0.12443685,0.05873423,1
21004000,-0.8596992,0.12297749,0.058566086,1
21012000,-0.8603784,0.120099664,0.058154635,1
21016000,-0.8579289,0.11865366,0.057915643,1
21020000,-0.8554117,0.1171932,0.057662338,1
21024000,-0.85279775,0.115769096,0.057380207,1
21028000,-0.850134,0.11439096,0.05707711,1
21032000,-0.8473997,0.1129825,0.056761518,1
21036000,-0.86299235,0.11158456,0.056419127,1
21040000,-0.86010134,0.11020917,0.05605969,1
21044000,-0.85716987,0.10881337,0.055691876,1
21048000,-0.85417545,0.10742394,0.055306673,1
21052000,-0.85113144,0.106059775,0.054903857,1
21056000,-0.8480411,0.104717635,0.054484647,1
21060000,-0.8492073,0.103423744,0.05404128,1
21064000,-0.8460195,0.102129675,0.053587858,1
21068000,-0.8427703,0.100834,0.053118646,1
21072000,-0.839477,0.09953937,0.052636694,1
21076000,-0.8361636,0.09820417,0.05215292,1
21080000,-0.8328263,0.09684534,0.05166383,1
21084000,-0.8328833,0.0955109,0.05117306,1
21088000,-0.8295255,0.09423124,0.050660975,1
21092000,-0.82613844,0.092995934,0.05013319,1
21096000,-0.82282174,0.09178121,0.049803257,1
21100000,-0.81940705,0.09051262,0.049264394,1
21104000,-0.8159601,0.08926557,0.04871235,1
21108000,-0.81578296,0.088078104,0.048144683,1
21116000,-0.8088321,0.08568551,0.046998005,1
21120000,-0.80535984,0.08449543,0.046419345,1
21124000,-0.80187446,0.083339006,0.045830376,1
21128000,-0.79842484,0.08224077,0.045238584,1
21132000,-0.81171024,0.08114759,0.044645913,1
21136000,-0.8082803,0.080062225,0.04405053,1
21140000,-0.80481863,0.07900993,0.04344159,1
21148000,-0.7978025,0.07689671,0.042196017,1
21152000,-0.79431593,0.075891525,0.04156761,1
21156000,-0.7930388,0.07490276,0.040941417,1
21164000,-0.78605944,0.072912246,0.039666884,1
21168000,-0.7825379,0.07197393,0.039012786,1
21172000,-0.77901673,0.071092434,0.038350493,1
21180000,-0.7741835,0.0693474,0.037044045,1
21188000,-0.7672679,0.067634165,0.03572453,1
21192000,-0.7638612,0.066818304,0.035068456,1
21196000,-0.7605001,0.06604724,0.034565907,1
21200000,-0.75709206,0.06524196,0.033900928,1
21204000,-0.75491714,0.0644249,0.033234246,1
21212000,-0.7480995,0.06286182,0.0318888,1
21220000,-0.7413009,0.06125462,0.030541997,1
21228000,-0.74935067,0.059845526,0.029187081,1
21232000,-0.7459826,0.0592114,0.02850076,1
21236000,-0.7426334,0.058567815,0.02781746,1
21240000,-0.739271,0.0578825,0.027132297,1
21244000,-0.73590744,0.05716022,0.026447386,1
21248000,-0.7326009,0.05648237,0.025769992,1
21252000,-0.7298425,0.055877395,0.025098447,1
21256000,-0.72658867,0.055238202,0.024426568,1
21260000,-0.7233193,0.054587316,0.023750205,1
21264000,-0.720076,0.054005407,0.023073833,1
21268000,-0.716836,0.053369954,0.022399483,1
21272000,-0.713611,0.052703153,0.021728307,1
21276000,-0.7109366,0.052101012,0.021058127,1
21280000,-0.7077311,0.05154862,0.020381857,1
21284000,-0.70453423,0.051014565,0.019705065,1
21288000,-0.70134693,0.050492957,0.019028323,1
21292000,-0.69819206,0.049962316,0.018357703,1
21300000,-0.6920323,0.04889384,0.017057903,1
21308000,-0.68590343,0.047910683,0.015741652,1
21312000,-0.6828069,0.04746431,0.015072759,1
21316000,-0.67977077,0.046969093,0.014417716,1
21324000,-0.68255633,0.04597535,0.013122694,1
21328000,-0.6795867,0.045498442,0.012477727,1
21332000,-0.6766435,0.04504903,0.011836549,1
21336000,-0.67367905,0.04458491,0.011189813,1
21340000,-0.6707605,0.044165973,0.010550861,1
21344000,-0.6678544,0.043742076,0.009913648,1
21348000,-0.66493577,0.043258697,0.009273772,1
21352000,-0.6620281,0.04278915,0.008634697,1
21356000,-0.65916985,0.042339254,0.008004999,1
21364000,-0.653489,0.04145569,0.006749508,1
21368000,-0.65064484,0.04102489,0.006118911,1
21372000,-0.6478576,0.04059707,0.00549983,1
21376000,-0.6450803,0.040169936,0.004881778,1
21380000,-0.64226556,0.039739735,0.004254147,1
21384000,-0.63945913,0.03931298,0.003627119,1
21388000,-0.636674,0.038931556,0.003003348,1
21392000,-0.6339404,0.03855021,0.002390115,1
21396000,-0.63118476,0.038127266,0.001782897,1
21400000,-0.6284431,0.03770823,0.001161552,1
21404000,-0.6257651,0.03728522,0.000553498,1
21408000,-0.62308395,0.036851835,-5.65E-05,1
21412000,-0.6204228,0.036425397,-0.000663071,1
21416000,-0.6177837,0.036032267,-0.001265761,1
21420000,-0.6151655,0.03564158,-0.001864788,1
21424000,-0.61255646,0.035242844,-0.002462868,1
21428000,-0.60996276,0.034843806,-0.003058539,1
21432000,-0.60740864,0.03444152,-0.003646327,1
21440000,-0.602281,0.03362976,-0.004829798,1
21444000,-0.5997732,0.03325721,-0.005409949,1
21448000,-0.5973146,0.032903433,-0.005979605,1
21452000,-0.59479016,0.032523375,-0.006565761,1
21460000,-0.5898498,0.0317655,-0.007716269,1
21464000,-0.5873733,0.03138515,-0.008294588,1
21468000,-0.5849254,0.031016022,-0.00886717,1
21472000,-0.58251154,0.030664893,-0.00943252,1
21476000,-0.5800748,0.03031862,-0.010004018,1
21480000,-0.57764715,0.029968943,-0.010574491,1
21484000,-0.5752743,0.02961165,-0.011133448,1
21488000,-0.5729116,0.02925131,-0.011691103,1
21492000,-0.5705532,0.028951988,-0.012247077,1
21496000,-0.5681975,0.028691232,-0.012814995,1
21500000,-0.5658632,0.028399633,-0.013367319,1
21504000,-0.5635887,0.028084863,-0.013907258,1
21508000,-0.5613428,0.02772833,-0.014442766,1
21512000,-0.5590676,0.027346678,-0.014986918,1
21516000,-0.5568065,0.027008899,-0.015527259,1
21520000,-0.5545514,0.026668314,-0.016067246,1
21524000,-0.55229,0.026288185,-0.016611109,1
21528000,-0.5500448,0.025926882,-0.017151516,1
21532000,-0.54783744,0.02562007,-0.01768183,1
21536000,-0.5456473,0.02532534,-0.018208444,1
21540000,-0.54345673,0.025035592,-0.018735789,1
21544000,-0.5413065,0.024766285,-0.019253548,1
21548000,-0.5391816,0.024488902,-0.019766435,1
21552000,-0.53702813,0.02422074,-0.020286417,1
21556000,-0.534896,0.023950899,-0.020802187,1
21560000,-0.53281415,0.023673642,-0.021307189,1
21564000,-0.5307679,0.023381256,-0.021805221,1
21568000,-0.52871233,0.023083389,-0.022306548,1
21572000,-0.52663094,0.022822833,-0.022812871,1
21576000,-0.5245848,0.022555364,-0.023311924,1
21580000,-0.5225554,0.022275727,-0.023808358,1
21588000,-0.5185766,0.02172273,-0.024784097,1
21592000,-0.5166167,0.021510279,-0.025262468,1
21596000,-0.5146996,0.02130066,-0.025659978,1
21600000,-0.5127409,0.021076914,-0.026138602,1
21604000,-0.51080704,0.020852868,-0.026611947,1
21612000,-0.5069455,0.02039034,-0.02755992,1
21616000,-0.5050485,0.02011043,-0.028029779,1
21620000,-0.50318545,0.019870045,-0.028489765,1
21624000,-0.5012772,0.019645339,-0.02896018,1
21628000,-0.499414,0.019414768,-0.029420815,1
21636000,-0.51498514,0.003763953,-0.03156093,0.3985542
21640000,-0.51318645,0.003578988,-0.032022282,0.3985542
21644000,-0.5113527,0.003424029,-0.032490876,0.3985542
21648000,-0.5095452,0.003257097,-0.032954186,0.3985542
21652000,-0.50770485,0.003096807,-0.03342576,0.3985542
21656000,-0.50582516,0.002904587,-0.033909902,0.3985542
21660000,-0.5009296,-0.012551578,-0.0357474,0.42083305
21668000,-0.4970079,-0.013096316,-0.036809538,0.42083305
21672000,-0.49492207,-0.013361123,-0.037373807,0.42083305
21676000,-0.49278864,-0.01362369,-0.03795118,0.42083305
21680000,-0.49061784,-0.013916935,-0.038541537,0.42083305
21684000,-0.48405385,-0.029460724,-0.040615316,0.44181982
21688000,-0.48177597,-0.029832514,-0.04126414,0.44181982
21692000,-0.47941178,-0.030228138,-0.04193959,0.44181982
21696000,-0.47689486,-0.030642828,-0.04299791,0.44181982
21700000,-0.47445062,-0.031069424,-0.043705627,0.44181982
21704000,-0.4719355,-0.03155401,-0.044439264,0.44181982
21708000,-0.4781634,-0.047266584,-0.04679035,0.46236837
21716000,-0.4729451,-0.048326597,-0.048376832,0.46236837
21720000,-0.47027543,-0.048951913,-0.049198788,0.46236837
21724000,-0.46755975,-0.0495705,-0.050035603,0.46236837
21732000,-0.45752254,-0.06602753,-0.05350516,0.4817168
21736000,-0.45471948,-0.06668864,-0.05440533,0.4817168
21740000,-0.45192975,-0.06729877,-0.05529902,0.4817168
21744000,-0.4491565,-0.06791065,-0.056190267,0.4817168
21748000,-0.44631806,-0.06858528,-0.05710964,0.4817168
21752000,-0.44346997,-0.069233365,-0.05803183,0.4817168
21756000,-0.43557796,-0.08499815,-0.060864028,0.4998204
21760000,-0.43274716,-0.08560106,-0.061808705,0.4998204
21764000,-0.42984718,-0.086247265,-0.06278194,0.4998204
21768000,-0.4269305,-0.086935915,-0.06376752,0.4998204
21772000,-0.42402837,-0.08760368,-0.06474901,0.4998204
21776000,-0.42115375,-0.0882037,-0.065717116,0.4998204
21780000,-0.4134127,-0.10394233,-0.06876583,0.5166198
21788000,-0.40777346,-0.105180115,-0.07073851,0.5166198
21792000,-0.4049593,-0.10582676,-0.07172996,0.5166198
21796000,-0.40172794,-0.10624127,-0.073834874,0.5166198
21800000,-0.39887834,-0.106797345,-0.074844375,0.5166198
21804000,-0.3904451,-0.12249876,-0.07810216,0.5335076
21812000,-0.38480726,-0.12348254,-0.080151595,0.5335076
21816000,-0.3820144,-0.12396816,-0.08116982,0.5335076
21820000,-0.37928572,-0.12443123,-0.08216528,0.5335076
21824000,-0.37660342,-0.124854416,-0.08314179,0.5335076
21828000,-0.3819461,-0.14040874,-0.086541355,0.54901147
21832000,-0.37924567,-0.1407571,-0.08754456,0.54901147
21836000,-0.3765939,-0.14108793,-0.08852986,0.54901147
21840000,-0.37397924,-0.1413803,-0.0894986,0.54901147
21844000,-0.3713288,-0.14166614,-0.09048073,0.54901147
21848000,-0.36869213,-0.1418963,-0.09145206,0.54901147
21852000,-0.36026534,-0.15724571,-0.0949894,0.5631698
21856000,-0.35763058,-0.15736765,-0.09597383,0.5631698
21860000,-0.35502887,-0.1574934,-0.096947715,0.5631698
21864000,-0.3524915,-0.15756817,-0.097891994,0.5631698
21868000,-0.34997475,-0.15757918,-0.09882076,0.5631698
21872000,-0.34746468,-0.15756783,-0.099744685,0.5631698
21876000,-0.33948693,-0.17272115,-0.103387564,0.5760264
21884000,-0.33463928,-0.17251074,-0.10519582,0.5760264
21888000,-0.3322297,-0.17235164,-0.106087446,0.5760264
21892000,-0.3298195,-0.17215578,-0.10697426,0.5760264
21896000,-0.32703155,-0.17173053,-0.10891078,0.5760264
21904000,-0.31650043,-0.18636926,-0.113536656,0.58864635
21908000,-0.31416363,-0.18605629,-0.11440934,0.58864635
21912000,-0.31187993,-0.18571922,-0.11525746,0.58864635
21916000,-0.3096226,-0.18534666,-0.11608975,0.58864635
21920000,-0.3073712,-0.18491898,-0.11691107,0.58864635
21924000,-0.29979083,-0.19970036,-0.12072188,0.6000029
21928000,-0.29762527,-0.19922552,-0.12152301,0.6000029
21932000,-0.29546678,-0.19873823,-0.12231894,0.6000029
21936000,-0.29332688,-0.19821988,-0.123102084,0.6000029
21940000,-0.29122078,-0.19762412,-0.12385887,0.6000029
21944000,-0.28916112,-0.19698384,-0.1245892,0.6000029
21948000,-0.29506892,-0.21159044,-0.12845941,0.6101739
21956000,-0.29099947,-0.21013044,-0.12990797,0.6101739
21960000,-0.28898954,-0.2093176,-0.13060719,0.6101739
21964000,-0.28701168,-0.20852676,-0.13129567,0.6101739
21968000,-0.28507212,-0.20771414,-0.13196373,0.6101739
21972000,-0.278308,-0.22214814,-0.13587981,0.61924005
21976000,-0.27645406,-0.22128554,-0.13652083,0.61924005
21980000,-0.2746034,-0.22039105,-0.13715403,0.61924005
21984000,-0.27274162,-0.21947336,-0.13778685,0.61924005
21988000,-0.270885,-0.21851212,-0.13840893,0.61924005
21992000,-0.2690242,-0.21753505,-0.1390288,0.61924005
21996000,-0.26166952,-0.23160633,-0.14394249,0.6272659
22000000,-0.25985295,-0.2305884,-0.14455722,0.6272659
22004000,-0.25806537,-0.22955981,-0.14515619,0.6272659
22008000,-0.25628906,-0.228476,-0.14573938,0.6272659
22012000,-0.25452343,-0.22734532,-0.14630836,0.6272659
22016000,-0.25279623,-0.22619939,-0.14685652,0.6272659
22020000,-0.24610679,-0.24038632,-0.15091506,0.63502675
22028000,-0.24269395,-0.23805672,-0.15201403,0.63502675
22032000,-0.24107133,-0.23688999,-0.15252386,0.63502675
22036000,-0.23946153,-0.23566055,-0.15301533,0.63502675
22040000,-0.23782471,-0.234368,-0.15350579,0.63502675
22044000,-0.23187009,-0.24842632,-0.15760571,0.6418135
22048000,-0.23026693,-0.24717242,-0.1581015,0.6418135
22052000,-0.22869763,-0.24588892,-0.15857506,0.6418135
22056000,-0.22720492,-0.24459144,-0.15901,0.6418135
22060000,-0.22573988,-0.24324587,-0.15942207,0.6418135
22064000,-0.22424811,-0.24187918,-0.15984058,0.6418135
22068000,-0.23166154,-0.25586587,-0.1639666,0.6477119
22072000,-0.23023309,-0.2545146,-0.16437113,0.6477119
22076000,-0.22884694,-0.25312454,-0.16474745,0.6477119
22080000,-0.22746709,-0.25168562,-0.16511008,0.6477119
22084000,-0.22607845,-0.25026074,-0.16547763,0.6477119
22088000,-0.22467902,-0.2488234,-0.16584602,0.6477119
22092000,-0.21916926,-0.25822377,-0.16888703,0.6527938
22096000,-0.21756135,-0.25655842,-0.16998217,0.6527938
22100000,-0.21620804,-0.25510263,-0.17033398,0.6527938
22104000,-0.21487844,-0.25361386,-0.17066681,0.6527938
22108000,-0.21358736,-0.2521314,-0.17098126,0.6527938
22112000,-0.21226035,-0.25067425,-0.17131549,0.6527938
22116000,-0.20651075,-0.2467131,-0.17101309,0.6576509
22124000,-0.20400888,-0.2436185,-0.17156357,0.6576509
22128000,-0.20280933,-0.24207242,-0.17181285,0.6576509
22132000,-0.2015567,-0.24050373,-0.1720803,0.6576509
22136000,-0.20034236,-0.23892178,-0.17232582,0.6576509
22140000,-0.19532493,-0.23518854,-0.1719923,0.6617862
22144000,-0.19416422,-0.23368414,-0.17222342,0.6617862
22148000,-0.19303301,-0.23214409,-0.17243242,0.6617862
22152000,-0.19192682,-0.23057976,-0.17262365,0.6617862
22156000,-0.19083169,-0.2290733,-0.17281976,0.6617862
22160000,-0.18976314,-0.22755137,-0.17299919,0.6617862
22164000,-0.18461242,-0.22408286,-0.17266077,0.6652558
22172000,-0.18248963,-0.22102499,-0.17299974,0.6652558
22176000,-0.18146731,-0.21955281,-0.1731608,0.6652558
22180000,-0.1804245,-0.21807733,-0.173329,0.6652558
22184000,-0.17938831,-0.21660402,-0.17349319,0.6652558
22188000,-0.17478296,-0.2134341,-0.17319268,0.66810393
22196000,-0.17285967,-0.210583,-0.17346463,0.66810393
22200000,-0.17151272,-0.20886594,-0.1746893,0.66810393
22204000,-0.17053641,-0.207493,-0.17484263,0.66810393
22208000,-0.16961011,-0.20615678,-0.17497995,0.66810393
22212000,-0.17843018,-0.20350513,-0.17474517,0.6710496
22216000,-0.17754011,-0.2021838,-0.17486627,0.6710496
22220000,-0.17672408,-0.20085925,-0.17495266,0.6710496
22224000,-0.17590272,-0.19954653,-0.17504282,0.6710496
22228000,-0.17500162,-0.19821303,-0.17516291,0.6710496
22232000,-0.17414002,-0.19692074,-0.175273,0.6710496
22236000,-0.16973245,-0.19445089,-0.17504175,0.67341876
22240000,-0.16890295,-0.19319063,-0.17514157,0.67341876
22244000,-0.16809805,-0.19198158,-0.17524043,0.67341876
22248000,-0.16730611,-0.1907495,-0.17532775,0.67341876
22252000,-0.16652122,-0.18953004,-0.17541367,0.67341876
22256000,-0.16577351,-0.18832421,-0.17548522,0.67341876
22260000,-0.16069883,-0.18609476,-0.17527463,0.6752943
22264000,-0.15991096,-0.18497223,-0.17537928,0.6752943
22268000,-0.15913843,-0.18387161,-0.17548111,0.6752943
22276000,-0.15768383,-0.18158853,-0.17562509,0.6752943
22284000,-0.15231831,-0.17860323,-0.17555913,0.6767383
22288000,-0.1516505,-0.17756933,-0.17562535,0.6767383
22292000,-0.15101546,-0.1765534,-0.1756806,0.6767383
22296000,-0.15009019,-0.17534074,-0.17647742,0.6767383
22300000,-0.1494198,-0.17432451,-0.17654812,0.6767383
22304000,-0.1488162,-0.17334726,-0.1765976,0.6767383
22308000,-0.1436847,-0.17166018,-0.17644092,0.6781677
22312000,-0.14308535,-0.17069347,-0.1764894,0.6781677
22316000,-0.14248271,-0.1697632,-0.17654668,0.6781677
22320000,-0.14192936,-0.16887254,-0.17659079,0.6781677
22324000,-0.14137194,-0.16794811,-0.17662871,0.6781677
22328000,-0.14078939,-0.16701502,-0.17667508,0.6781677
22332000,-0.13561511,-0.16548109,-0.17654106,0.6791869
22336000,-0.13502868,-0.16462108,-0.17660394,0.6791869
22340000,-0.13448215,-0.1638204,-0.1766623,0.6791869
22344000,-0.13400704,-0.16299587,-0.17668414,0.6791869
22348000,-0.13352723,-0.16219372,-0.17671259,0.6791869
22352000,-0.13303187,-0.16140884,-0.17675117,0.6791869
22356000,-0.12824458,-0.16006699,-0.17662588,0.6798421
22360000,-0.12775074,-0.15930516,-0.17666799,0.6798421
22364000,-0.12728073,-0.15853004,-0.17669654,0.6798421
22372000,-0.12634033,-0.15697789,-0.17675222,0.6798421
22376000,-0.12592426,-0.15620959,-0.1767581,0.6798421
22380000,-0.13461831,-0.1550074,-0.1766229,0.6801728
22388000,-0.13381483,-0.15357527,-0.17664401,0.6801728
22396000,-0.13298854,-0.15223038,-0.17669335,0.6801728
22400000,-0.13264161,-0.15162624,-0.17649063,0.6801728
22404000,-0.12777142,-0.15054001,-0.17638119,0.68008935
22408000,-0.12738685,-0.14990762,-0.1764014,0.68008935
22412000,-0.12700424,-0.14926201,-0.17641753,0.68008935
22416000,-0.12663892,-0.14862962,-0.17642908,0.68008935
22420000,-0.12630206,-0.14801654,-0.17643268,0.68008935
22424000,-0.12596281,-0.1473856,-0.17643301,0.68008935
22428000,-0.12056466,-0.14630105,-0.17630264,0.6797386
22436000,-0.11986551,-0.14498852,-0.17629912,0.6797386
22440000,-0.11954483,-0.14438221,-0.1762962,0.6797386
22444000,-0.11926584,-0.14380042,-0.17628106,0.6797386
22448000,-0.118960075,-0.14325848,-0.1762862,0.6797386
22452000,-0.11378218,-0.14237285,-0.17619944,0.67914796
22460000,-0.11325112,-0.1413415,-0.17618681,0.67914796
22464000,-0.112982765,-0.14080764,-0.17617726,0.67914796
22468000,-0.1126807,-0.14029917,-0.17618763,0.67914796
22472000,-0.11239587,-0.139825,-0.17619848,0.67914796
22476000,-0.10691497,-0.13905403,-0.17609625,0.67835665
22480000,-0.10668529,-0.13858107,-0.1760838,0.67835665
22484000,-0.10642608,-0.13806213,-0.17607312,0.67835665
22488000,-0.10616639,-0.13751815,-0.17605665,0.67835665
22492000,-0.105961256,-0.13702717,-0.17602937,0.67835665
22496000,-0.10577898,-0.13657117,-0.17600049,0.67835665
22500000,-0.10077648,-0.13580918,-0.17576095,0.6773318
22504000,-0.1006304,-0.1353115,-0.17570694,0.6773318
22508000,-0.10049662,-0.13480008,-0.17564446,0.6773318
22512000,-0.10032417,-0.13428417,-0.17559704,0.6773318
22516000,-0.10013924,-0.13379177,-0.1755602,0.6773318
22520000,-0.09998583,-0.13330594,-0.17551161,0.6773318
22528000,-0.09424544,-0.13210794,-0.17532179,0.67613333
22532000,-0.09411574,-0.13166636,-0.17527327,0.67613333
22540000,-0.09380849,-0.13079213,-0.17519808,0.67613333
22544000,-0.093661144,-0.13030386,-0.17514582,0.67613333
22548000,-0.08850756,-0.12957932,-0.17501259,0.6747891
22552000,-0.08841248,-0.12913164,-0.17494784,0.6747891
22556000,-0.08832787,-0.12867504,-0.1748766,0.6747891
22564000,-0.08814107,-0.12772124,-0.17473176,0.6747891
22568000,-0.08804724,-0.12727699,-0.17466703,0.6747891
22572000,-0.09674346,-0.12659469,-0.17453825,0.6733123
22576000,-0.09664069,-0.12615186,-0.17447743,0.6733123
22580000,-0.09657926,-0.12572391,-0.17440291,0.6733123
22588000,-0.09648024,-0.12475374,-0.17421705,0.6733123
22596000,-0.09131831,-0.12356475,-0.17396238,0.67174494
22600000,-0.0911334,-0.123022325,-0.1742632,0.67174494
22604000,-0.091066286,-0.12255198,-0.17418092,0.67174494
22608000,-0.09100723,-0.12206664,-0.17409179,0.67174494
22612000,-0.09090637,-0.121598385,-0.17402384,0.67174494
22616000,-0.0908266,-0.121123746,-0.17394565,0.67174494
22620000,-0.0852182,-0.12056686,-0.17381652,0.67029625
22624000,-0.08520193,-0.12019394,-0.17373583,0.67029625
22628000,-0.085158005,-0.11976774,-0.17365403,0.67029625
22632000,-0.08512135,-0.11929408,-0.17355807,0.67029625
22636000,-0.0851109,-0.118858404,-0.1734602,0.67029625
22644000,-0.07990007,-0.1178755,-0.17326981,0.66873515
22648000,-0.07988646,-0.11744881,-0.17317525,0.66873515
22652000,-0.07985304,-0.11702268,-0.17308891,0.66873515
22656000,-0.07981828,-0.11661767,-0.17300804,0.66873515
22660000,-0.079809785,-0.11617014,-0.1729064,0.66873515
22668000,-0.07410999,-0.11520868,-0.1726807,0.6671049
22672000,-0.07408033,-0.11480308,-0.1725975,0.6671049
22676000,-0.0740425,-0.1144035,-0.17251904,0.6671049
22684000,-0.07396655,-0.11349036,-0.17233533,0.6671049
22688000,-0.07394405,-0.11306492,-0.17224438,0.6671049
22692000,-0.06874746,-0.11254899,-0.17211199,0.6654161
22696000,-0.06859874,-0.111997664,-0.1724669,0.6654161
22700000,-0.06862281,-0.11157705,-0.17235807,0.6654161
22704000,-0.06865759,-0.11115692,-0.17224498,0.6654161
22712000,-0.06871492,-0.11027471,-0.17201392,0.6654161
22716000,-0.063123286,-0.10980366,-0.17189904,0.66389084
22720000,-0.06311707,-0.10938084,-0.17180203,0.66389084
22724000,-0.06311477,-0.10895051,-0.17170164,0.66389084
22728000,-0.06311399,-0.10850324,-0.17159662,0.66389084
22732000,-0.06312602,-0.10805151,-0.17148528,0.66389084
22736000,-0.06314623,-0.10761751,-0.17137478,0.66389084
22740000,-0.057913195,-0.10710846,-0.1712483,0.6623275
22744000,-0.057933368,-0.10668124,-0.17113939,0.6623275
22748000,-0.057987336,-0.10631697,-0.17103155,0.6623275
22752000,-0.058074336,-0.10594867,-0.17090932,0.6623275
22756000,-0.058169115,-0.10553159,-0.17077246,0.6623275
22760000,-0.0582232,-0.10505815,-0.17063886,0.6623275
22764000,-0.05254187,-0.104565784,-0.17049123,0.660712
22768000,-0.052605227,-0.10411795,-0.17035988,0.660712
22772000,-0.05264366,-0.10369715,-0.17024505,0.660712
22776000,-0.0526898,-0.10334197,-0.17014256,0.660712
22780000,-0.05271142,-0.10292935,-0.17003651,0.660712
22784000,-0.052759085,-0.102486834,-0.16991282,0.660712
22788000,-0.047657385,-0.102063514,-0.1697764,0.6590697
22792000,-0.04773086,-0.10169384,-0.16965947,0.6590697
22796000,-0.04779107,-0.10126802,-0.16965966,0.6590697
22800000,-0.04789332,-0.10088396,-0.16952774,0.6590697
22804000,-0.048003923,-0.10048333,-0.16938856,0.6590697
22808000,-0.048131566,-0.10005145,-0.16923517,0.6590697
22812000,-0.042412717,-0.0995951,-0.16907841,0.6574545
22816000,-0.04253988,-0.09918281,-0.16892985,0.6574545
22820000,-0.042659126,-0.09878335,-0.16878761,0.6574545
22824000,-0.042791788,-0.09840201,-0.16864425,0.6574545
22828000,-0.04291827,-0.09806462,-0.16851376,0.6574545
22832000,-0.04303009,-0.097727165,-0.16838922,0.6574545
22836000,-0.052464105,-0.0972928,-0.16823874,0.65581024
22840000,-0.052567314,-0.096919715,-0.16810931,0.65581024
22848000,-0.052891303,-0.096204735,-0.16781063,0.65581024
22852000,-0.053051837,-0.09581187,-0.16765362,0.65581024
22856000,-0.053234253,-0.095469266,-0.1674997,0.65581024
22860000,-0.047602735,-0.09506369,-0.16733517,0.65415275
22864000,-0.047743876,-0.09468725,-0.16718997,0.65415275
22868000,-0.04790059,-0.09432196,-0.16704118,0.65415275
22872000,-0.048065,-0.09396469,-0.16689126,0.65415275
22880000,-0.048303302,-0.09323311,-0.16662371,0.65415275
22884000,-0.043070633,-0.09283241,-0.1664603,0.65249604
22888000,-0.043262977,-0.092445984,-0.16629256,0.65249604
22896000,-0.043539774,-0.09171139,-0.16616406,0.65249604
22900000,-0.043662384,-0.09139092,-0.1660398,0.65249604
22904000,-0.043780446,-0.09103537,-0.16590911,0.65249604
22908000,-0.038063116,-0.09064934,-0.16575915,0.65089434
22916000,-0.038360815,-0.08998418,-0.16548423,0.65089434
22920000,-0.038514197,-0.089687526,-0.16535348,0.65089434
22924000,-0.03868281,-0.08935043,-0.1652072,0.65089434
22928000,-0.038836252,-0.089008525,-0.16506585,0.65089434
22932000,-0.03358864,-0.088634044,-0.16490564,0.6492866
22936000,-0.033828594,-0.08829355,-0.16473037,0.6492866
22940000,-0.034050513,-0.087984234,-0.16456968,0.6492866
22944000,-0.034220852,-0.08770248,-0.16443595,0.6492866
22948000,-0.03438623,-0.08741158,-0.16430213,0.6492866
22952000,-0.03458208,-0.08709043,-0.16414915,0.6492866
22960000,-0.029124789,-0.086378336,-0.16384909,0.64768666
22964000,-0.029304434,-0.086098164,-0.16371231,0.64768666
22968000,-0.029511102,-0.08582576,-0.16356671,0.64768666
22972000,-0.029761385,-0.085534096,-0.16339941,0.64768666
22976000,-0.03003145,-0.08523469,-0.16322255,0.64768666
22980000,-0.024872638,-0.08488369,-0.16304249,0.64608294
22984000,-0.025102321,-0.08462253,-0.1628907,0.64608294
22988000,-0.025317773,-0.084352896,-0.16274256,0.64608294
22996000,-0.02576628,-0.083763465,-0.1624279,0.64608294
23000000,-0.026173454,-0.083694644,-0.16156894,0.64608294
23004000,-0.020561568,-0.08327527,-0.16138253,0.6441336
23008000,-0.020785626,-0.08302719,-0.16123663,0.6441336
23012000,-0.021001223,-0.08276902,-0.1610917,0.6441336
23016000,-0.021216843,-0.08253352,-0.16095218,0.6441336
23020000,-0.021485645,-0.0823188,-0.16079672,0.6441336
23028000,-0.016649038,-0.08170541,-0.16041456,0.64219964
23032000,-0.016980413,-0.081484586,-0.16023344,0.64219964
23036000,-0.017266877,-0.08127113,-0.16007169,0.64219964
23040000,-0.017533198,-0.081037715,-0.15991326,0.64219964
23044000,-0.017817974,-0.080826424,-0.15975282,0.64219964
23052000,-0.012511898,-0.08024122,-0.15937926,0.6402725
23056000,-0.012826026,-0.08006823,-0.15921654,0.6402725
23060000,-0.013137363,-0.079898104,-0.15905562,0.6402725
23064000,-0.013464175,-0.079702556,-0.15888286,0.6402725
23068000,-0.013814699,-0.07950702,-0.15870097,0.6402725
23072000,-0.014127974,-0.07927853,-0.158526,0.6402725
23076000,-0.009085216,-0.078905866,-0.1583149,0.6383631
23080000,-0.009448163,-0.07869056,-0.15812388,0.6383631
23084000,-0.009813961,-0.07849407,-0.15793622,0.6383631
23088000,-0.010142166,-0.07829817,-0.15776339,0.6383631
23092000,-0.010456193,-0.078126684,-0.1576018,0.6383631
23096000,-0.010629065,-0.077819645,-0.1580172,0.6383631
23100000,-0.005102694,-0.077606246,-0.15782696,0.63679266
23104000,-0.005438238,-0.077419505,-0.15765339,0.63679266
23108000,-0.005787931,-0.077169284,-0.15745978,0.63679266
23112000,-0.006141596,-0.07694565,-0.15727088,0.63679266
23116000,-0.006486185,-0.07675259,-0.15709262,0.63679266
23120000,-0.006829202,-0.07660137,-0.15692465,0.63679266
23124000,-0.001861244,-0.07643962,-0.156748,0.63523525
23132000,-0.002605427,-0.076203614,-0.15640517,0.63523525
23136000,-0.002935138,-0.07605066,-0.1562423,0.63523525
23140000,-0.003296554,-0.07583962,-0.1560539,0.63523525
23144000,-0.003677361,-0.07563819,-0.15586029,0.63523525
23148000,0.001780219,-0.07540421,-0.15566468,0.6336791
23152000,0.001415767,-0.07527293,-0.15549365,0.6336791
23156000,0.001029357,-0.075165555,-0.15531963,0.6336791
23160000,0.000648696,-0.0750334,-0.15514228,0.6336791
23164000,0.000254404,-0.07488152,-0.15495524,0.6336791
23168000,-0.000137195,-0.074766144,-0.15477766,0.6336791
23172000,0.00478054,-0.07460195,-0.15459959,0.63211477
23176000,0.004403636,-0.074521735,-0.15443586,0.63211477
23180000,0.004002497,-0.074422635,-0.15425852,0.63211477
23184000,0.003570961,-0.07431922,-0.15406851,0.63211477
23188000,0.003150765,-0.074217714,-0.15388346,0.63211477
23192000,0.002740741,-0.07413954,-0.15370765,0.63211477
23196000,0.008007083,-0.07400406,-0.15355223,0.6305765
23200000,0.007604269,-0.07392487,-0.15337908,0.6305765
23204000,0.007181013,-0.073865026,-0.15320253,0.6305765
23208000,0.006735724,-0.07382849,-0.15302278,0.6305765
23212000,0.006276181,-0.07375853,-0.15283011,0.6305765
23216000,0.00581474,-0.07366681,-0.15263186,0.6305765
23220000,0.010539701,-0.073524535,-0.15241137,0.6290749
23224000,0.010018788,-0.073412865,-0.15218596,0.6290749
23228000,0.009534624,-0.073286384,-0.15197147,0.6290749
23232000,0.009070193,-0.073183,-0.15176985,0.6290749
23236000,0.008613585,-0.07308177,-0.15157181,0.6290749
23240000,0.008149177,-0.073003516,-0.15137598,0.6290749
23244000,0.013265552,-0.07288415,-0.1511606,0.62758476
23248000,0.012772819,-0.07280475,-0.15095387,0.62758476
23252000,0.012238711,-0.0726905,-0.15072358,0.62758476
23256000,0.011721242,-0.07256965,-0.1504983,0.62758476
23260000,0.011251446,-0.07246463,-0.15029497,0.62758476
23268000,0.015486565,-0.07225447,-0.14988202,0.6261011
23276000,0.014517602,-0.07206781,-0.14946994,0.6261011
23280000,0.014066566,-0.071968466,-0.14927548,0.6261011
23284000,0.013617065,-0.07188572,-0.1490854,0.6261011
23288000,0.013101798,-0.07176334,-0.14886148,0.6261011
23292000,0.018122375,-0.07158728,-0.1486262,0.6246634
23296000,0.017701559,-0.07146874,-0.14870337,0.6246634
23300000,0.017161729,-0.071422696,-0.14848693,0.6246634
23304000,0.016632266,-0.07129337,-0.14825624,0.6246634
23312000,0.015672075,-0.07104698,-0.14783557,0.6246634
23316000,0.020203229,-0.07095839,-0.14761685,0.6233932
23320000,0.019677294,-0.07087501,-0.14739801,0.6233932
23324000,0.019158421,-0.07077226,-0.14717776,0.6233932
23328000,0.018596487,-0.070712075,-0.1469505,0.6233932
23332000,0.018002484,-0.07071735,-0.1467254,0.6233932
23336000,0.017441142,-0.070694,-0.14650655,0.6233932
23340000,0.022411754,-0.07058843,-0.14627992,0.6221247
23344000,0.021883871,-0.07053642,-0.14606777,0.6221247
23348000,0.021353506,-0.07045174,-0.14584766,0.6221247
23352000,0.020813959,-0.07033002,-0.14561614,0.6221247
23356000,0.020251561,-0.0702391,-0.14538275,0.6221247
23360000,0.019679945,-0.07016042,-0.1451486,0.6221247
23364000,0.0240225,-0.070041336,-0.14490822,0.62085754
23368000,0.023469768,-0.06997512,-0.14468417,0.62085754
23372000,0.022930047,-0.06990063,-0.14446338,0.62085754
23376000,0.02238847,-0.06982322,-0.14424133,0.62085754
23380000,0.021842333,-0.06975624,-0.1440199,0.62085754
23388000,0.026074039,-0.0695548,-0.14355962,0.6195915
23396000,0.025008053,-0.06947001,-0.14313796,0.6195915
23400000,0.024503915,-0.069359764,-0.143058,0.6195915
23404000,0.023930106,-0.0692905,-0.14282604,0.6195915
23412000,0.027646298,-0.06906645,-0.14238659,0.61842424
23416000,0.027129237,-0.069000125,-0.14217702,0.61842424
23420000,0.026563408,-0.06892732,-0.14194776,0.61842424
23428000,0.025431653,-0.068860985,-0.14150627,0.61842424
23436000,0.029505735,-0.068796486,-0.1410777,0.61726284
23444000,0.028394904,-0.06867615,-0.14063342,0.61726284
23448000,0.027817445,-0.06862691,-0.14040539,0.61726284
23452000,0.02725015,-0.068585366,-0.1401829,0.61726284
23456000,0.026690964,-0.06852013,-0.13995859,0.61726284
23460000,0.030815411,-0.068437934,-0.13972586,0.6161189
23468000,0.029670626,-0.06830731,-0.1392678,0.6161189
23472000,0.029096484,-0.068229064,-0.13903558,0.6161189
23476000,0.028537653,-0.06811209,-0.13880114,0.6161189
23484000,0.03239661,-0.068112075,-0.13774209,0.61497194
23488000,0.03186562,-0.068028785,-0.13768657,0.61497194
23492000,0.031340644,-0.06795826,-0.13763443,0.61497194
23500000,0.030312471,-0.067797996,-0.13761626,0.61497194
23508000,0.03341634,-0.06794334,-0.13609281,0.6139397
23516000,0.032291338,-0.06779704,-0.13598296,0.6139397
23520000,0.031771213,-0.067702875,-0.13592641,0.6139397
23524000,0.03126385,-0.06760098,-0.13586912,0.6139397
23528000,0.030719265,-0.0675103,-0.13581182,0.6139397
23532000,0.034573,-0.06779148,-0.13417548,0.612908
23536000,0.03400096,-0.06768251,-0.13411242,0.612908
23544000,0.032874543,-0.06752317,-0.1340007,0.612908
23548000,0.032288946,-0.06746818,-0.13394886,0.612908
23552000,0.0317107,-0.06746016,-0.13390791,0.612908
23556000,0.035628326,-0.06778405,-0.132268,0.6118908
23560000,0.035079714,-0.06770095,-0.13221265,0.6118908
23564000,0.034502786,-0.0676309,-0.13215832,0.6118908
23572000,0.03330072,-0.067456275,-0.13203919,0.6118908
23576000,0.032722972,-0.067378365,-0.13198337,0.6118908
23580000,0.036137056,-0.067629784,-0.13051924,0.61086553
