timestamp,control[0],control[1],control[2],control[3],control[4]
7500000,0.023378626,0.027724773,0.000216812,0,0.49
7504000,0.023828872,0.0278382,0.000306015,0,0.48000002
7512000,0.024267182,0.027326358,0.000261614,0,0.46000004
7516000,0.027739704,0.027413044,-0.002497854,0.15,0.45000005
7520000,0.027096855,0.027598748,-0.002678642,0.15,0.44000006
7524000,0.02677124,0.027682588,-0.002779857,0.15,0.43000007
7528000,0.026743451,0.027814573,-0.002517527,0.15,0.42000008
7532000,0.02666845,0.028031489,-0.002284841,0.15,0.4100001
7536000,0.026982812,0.028057141,-0.002361072,0.15,0.4000001
7540000,0.027679263,0.027737824,-0.002504954,0.15,0.3900001
7548000,0.02802583,0.02735185,-0.002491879,0.15,0.37000012
7556000,0.029066209,0.02760021,-0.002154828,0.15,0.35000014
7560000,0.030061651,0.027627457,-0.002135526,0.15,0.34000015
7564000,0.029521095,0.027531164,-0.002004586,0.15,0.33000016
7568000,0.02857605,0.027259722,-0.00190524,0.15,0.32000017
7572000,0.027501097,0.027107602,-0.001687717,0.15,0.31000018
7576000,0.027040081,0.027115049,-0.001783543,0.15,0.3000002
7580000,0.027044779,0.027059335,-0.001784773,0.15,0.2900002
7584000,0.028094217,0.027045095,-0.002485941,0.15,0.2800002
7588000,0.028461179,0.027196147,-0.002311524,0.15,0.27000022
7592000,0.028651966,0.027121456,-0.002154524,0.15,0.26000023
7596000,0.028661342,0.026895031,-0.002009317,0.15,0.25000024
7600000,0.02890977,0.026745323,-0.002091241,0.15,0.24000023
7604000,0.029055879,0.026674017,-0.002325994,0.15,0.23000023
7608000,0.029438958,0.026717147,-0.002388284,0.15,0.22000022
7612000,0.02988458,0.026925659,-0.002266776,0.15,0.21000022
7620000,0.029516,0.027135408,-0.00167594,0.15,0.1900002
7624000,0.029869882,0.026912209,-0.001615498,0.15,0.1800002
7628000,0.029431852,0.026654655,-0.001825709,0.15,0.1700002
7636000,0.028590407,0.026480522,-0.00166696,0.15,0.15000018
7640000,0.028064495,0.026619729,-0.001459706,0.15,0.14000018
7644000,0.027541734,0.026757456,-0.001434118,0.15,0.13000017
7648000,0.027194932,0.026824972,-0.001465527,0.15,0.120000176
7652000,0.027300434,0.026843082,-0.001524256,0.15,0.11000018
7656000,0.02706406,0.026903838,-0.001602564,0.15,0.10000018
7660000,0.025810728,0.026927024,-0.001469804,0.15,0.09000018
7664000,0.025624987,0.02699068,-0.00148865,0.15,0.080000184
7668000,0.026501905,0.027169753,-0.001368157,0.15,0.07000019
7672000,0.027629526,0.02723975,-0.001224199,0.15,0.06000019
7680000,0.026689898,0.026913954,-0.001471072,0.15,0.040000193
7684000,0.025398063,0.026825396,-0.00139356,0.15,0.030000193
7692000,0.026341382,0.026072714,-0.001605081,0.15,0.010000194
7696000,0.026316676,0.0254801,-0.001565747,0.15,1.94E-07
7700000,0.02631531,0.025165418,-0.001372632,0.15,0
7704000,0.026465833,0.025211062,-0.001191858,0.15,0
7708000,0.02734174,0.025440985,-0.001327646,0.15,0
7712000,0.027967108,0.0256875,-0.0014642,0.15,0
7716000,0.02804448,0.025914086,-0.001607531,0.15,0
7720000,0.027733361,0.026108792,-0.001627115,0.15,0
7724000,0.027083857,0.026171995,-0.001460281,0.15,0
7728000,0.027099889,0.02615985,-0.001288458,0.15,0
7732000,0.027996415,0.02608479,-0.00110412,0.15,0
7736000,0.029342128,0.025894469,-0.001235046,0.15,0
7740000,0.029761849,0.025831312,-0.001271867,0.15,0
7744000,0.029741887,0.025910502,-0.00125999,0.15,0
7748000,0.029908992,0.025962729,-0.001319845,0.15,0
7752000,0.029423574,0.026054595,-0.001528216,0.15,0
7756000,0.028502755,0.026109552,-0.001843599,0.15,0
7760000,0.028109496,0.02602404,-0.001978934,0.15,0
7764000,0.028420033,0.025881147,-0.001922667,0.15,0
7768000,0.02867884,0.025766566,-0.00173366,0.15,0
7772000,0.028342262,0.025736256,-0.001618934,0.15,0
7776000,0.028116686,0.025908919,-0.001606647,0.15,0
7780000,0.028430838,0.02610796,-0.001590502,0.15,0
7784000,0.028709462,0.026034793,-0.001451487,0.15,0
7788000,0.028850945,0.025960784,-0.001224314,0.15,0
7792000,0.028937457,0.02596989,-0.0008654,0.15,0
7796000,0.028778363,0.025814133,-0.000565364,0.15,0
7800000,0.027874447,0.02562042,-0.000648835,0.15,0
7804000,0.0258197,0.025519742,-0.000630431,0.15,0
7808000,0.024365973,0.025421482,-0.000756364,0.15,0
7812000,0.023551831,0.025296964,-0.000818041,0.15,0
7816000,0.023874342,0.025325105,-0.001054134,0.15,0
7820000,0.02534378,0.025495578,-0.00123522,0.15,0
7824000,0.026427437,0.025529472,-0.00120335,0.15,0
7828000,0.026186354,0.025327142,-0.000932703,0.15,0
7832000,0.02620209,0.02516605,-0.000926604,0.15,0
7836000,0.026734382,0.0251903,-0.000887356,0.15,0
7840000,0.02737186,0.02530761,-0.000799947,0.15,0
7844000,0.027341563,0.025370024,-0.000738368,0.15,0
7848000,0.026933912,0.025249733,-0.000752179,0.15,0
7852000,0.026606914,0.024956668,-0.0005147,0.15,0
7856000,0.026394973,0.0245348,-0.000405399,0.15,0
7860000,0.026398443,0.024475768,-0.000406749,0.15,0
7864000,0.026375579,0.024157248,-0.000481342,0.15,0
7868000,0.026736537,0.02416852,-0.000360353,0.15,0
7872000,0.027109582,0.024102286,-0.000161691,0.15,0
7876000,0.027113706,0.024154168,9.65E-05,0.15,0
7880000,0.027182406,0.024503412,0.00013822,0.15,0
7884000,0.027156577,0.024865886,-2.54E-05,0.15,0
7892000,0.02564021,0.024868023,-0.000304602,0.15,0
7896000,0.02513967,0.024814852,-0.000289585,0.15,0
7900000,0.024576023,0.02476115,0.000132826,0.15,0
7908000,0.024709549,0.02471476,0.000268619,0.15,0
7912000,0.025519291,0.024668807,-6.29E-05,0.15,0
7916000,0.02556524,0.0244863,-0.000167094,0.15,0
7920000,0.02560786,0.024326466,-0.000108483,0.15,0
7924000,0.026026266,0.024323856,-0.000230362,0.15,0
7928000,0.025914516,0.024493476,-0.000262843,0.15,0
7932000,0.025895944,0.024485094,-0.000263498,0.15,0
7936000,0.024821341,0.024557013,-0.00040893,0.15,0
7940000,0.025350774,0.024213046,-0.000454745,0.15,0
7948000,0.02741706,0.023817202,-0.000333501,0.15,0
7952000,0.026559733,0.0236236,-0.000426322,0.15,0
7956000,0.025038857,0.023447165,-0.00052771,0.15,0
7960000,0.024458382,0.023523657,-0.000456587,0.15,0
7964000,0.024738746,0.023819122,-0.000259612,0.15,0
7968000,0.024333566,0.02416585,-0.000184981,0.15,0
7972000,0.023144785,0.024458852,-0.000155297,0.15,0
7976000,0.022801474,0.024435598,-0.000189506,0.15,0
7980000,0.0236133,0.024102684,-0.000461325,0.15,0
7984000,0.024451049,0.02363667,-0.000692296,0.15,0
7988000,0.025127532,0.02326226,-0.000809461,0.15,0
7996000,0.026397482,0.02344834,-0.000804661,0.15,0
8000000,0.026287394,0.023536915,-0.000482283,0.15,0
8004000,0.026131982,0.023751855,-0.000244305,0.15,0
8008000,0.026376612,0.023959542,-0.000255774,0.15,0
8012000,0.026776008,0.023815095,-0.000374625,0.15,0
8020000,0.026606962,0.023411812,-0.00058637,0.15,0
8024000,0.026535632,0.023448303,-0.000548502,0.15,0
8028000,0.02671563,0.023709673,-0.000569827,0.15,0
8032000,0.026686145,0.023728464,-0.000570064,0.15,0
8036000,0.024497326,0.024223844,-0.000602872,0.15,0
8040000,0.023362763,0.02400184,-0.000443781,0.15,0
8044000,0.023758395,0.023605041,-0.000294585,0.15,0
8052000,0.026373893,0.023147829,-0.000109417,0.15,0
8056000,0.026078265,0.02306562,-0.000261623,0.15,0
8060000,0.025420377,0.023185516,-0.000593839,0.15,0
8068000,0.02477794,0.023737324,-0.000500973,0.15,0
8072000,0.023839768,0.024427084,-0.000585752,0.15,0
8076000,0.024266286,0.024052218,-0.000504203,0.15,0
8080000,0.025151433,0.023821635,-0.000303426,0.15,0
8084000,0.025881968,0.02382111,-3.38E-05,0.15,0
8092000,0.026795754,0.023475515,-0.000262699,0.15,0
8096000,0.02647977,0.023210177,-0.000681005,0.15,0
8100000,0.025684731,0.023316866,-0.000881311,0.15,0
8104000,0.024933344,0.023689022,-0.000767984,0.15,0
8108000,0.025277685,0.023898043,-0.000647725,0.15,0
8112000,0.025720436,0.0237598,-0.000656942,0.15,0
8116000,0.025914773,0.023767997,-0.000803782,0.15,0
8120000,0.025208812,0.0237723,-0.000593436,0.15,0
8124000,0.025482927,0.023801481,-0.00061023,0.15,0
8128000,0.025843479,0.023574984,-0.000758224,0.15,0
8132000,0.025967339,0.023458363,-0.00082823,0.15,0
8136000,0.026040075,0.023549013,-0.000615575,0.15,0
8140000,0.02684552,0.023664227,-0.000466395,0.15,0
8144000,0.02773438,0.023656126,-0.000455463,0.15,0
8148000,0.027723448,0.023507254,-0.000349737,0.15,0
8152000,0.026925713,0.023290366,-0.000289378,0.15,0
8156000,0.025839038,0.023095226,-0.000362567,0.15,0
8160000,0.025544262,0.023063026,-0.0003948,0.15,0
8164000,0.02548402,0.02303352,-0.000352175,0.15,0
8168000,0.026245974,0.023002326,-0.000504734,0.15,0
8172000,0.026230682,0.022907926,-0.000508467,0.15,0
8176000,0.026138717,0.022987423,-0.000520539,0.15,0
8180000,0.025821596,0.023202578,-0.000604569,0.15,0
8184000,0.025194796,0.02342932,-0.000642348,0.15,0
8188000,0.024143886,0.023667797,-0.000366307,0.15,0
8192000,0.024091147,0.023760606,-0.000180628,0.15,0
8196000,0.024569713,0.023717975,2.85E-05,0.15,0
8200000,0.024970725,0.02387793,0.000129184,0.15,0
8204000,0.025819482,0.023960413,7.47E-05,0.15,0
8208000,0.026888335,0.023697568,-7.38E-06,0.15,0
8212000,0.027411804,0.023394909,-0.000251425,0.15,0
8216000,0.026843403,0.023306688,-0.000261857,0.15,0
8220000,0.026422175,0.023398327,-0.000176895,0.15,0
8224000,0.026237011,0.023357159,-0.000136519,0.15,0
8232000,0.025940415,0.022799678,-0.000228561,0.15,0
8236000,0.025786674,0.022852935,1.72E-05,0.15,0
8240000,0.025125392,0.023003986,-0.000131803,0.15,0
8244000,0.023865717,0.022825684,-0.000419387,0.15,0
8252000,0.023041237,0.022762904,-0.000448363,0.15,0
8256000,0.02375486,0.023370145,-0.000163504,0.15,0
8260000,0.022864208,0.023347653,-0.000627581,0,0
8264000,0.023030978,0.023237709,-0.001424896,0,0
8268000,0.023165097,0.023254305,-0.001483905,0,0
8272000,0.02329541,0.023300635,-0.001761055,0,0
8276000,0.02408395,0.023328561,-0.002175387,0,0
8284000,0.025113098,0.02338226,-0.00135357,1,0
8288000,0.024218036,0.023052787,-0.000335589,1,0
8292000,0.023292156,0.02268793,-7.60E-06,1,0
8296000,0.022259833,0.02237917,-0.00075644,1,0
8300000,0.021240566,0.022182839,-0.001726433,1,0
8304000,0.021818647,0.02228511,-0.001545579,1,0
8308000,0.023574693,0.022646101,-0.000867443,1,0
8316000,0.024541479,0.02313298,-0.00071572,1,0
8324000,0.022966608,0.022918515,0.000477765,1,0
8328000,0.022297034,0.022661252,0.00038851,1,0
8332000,0.022661213,0.022596888,-0.000423476,1,0
8336000,0.023714876,0.022636682,-0.001052316,1,0
8340000,0.02396573,0.022748156,-0.000980153,1,0
8344000,0.023359982,0.0228142,1.46E-05,1,0
8348000,0.023345565,0.022832125,0.00136834,1,0
8352000,0.023636093,0.022820355,0.002138446,1,0
8356000,0.023639997,0.022607898,0.002252586,1,0
8360000,0.024486847,0.022354137,0.002838411,1,0
8364000,0.026017167,0.022315666,0.00345312,1,0
8368000,0.026418274,0.022380982,0.003333368,1,0
8372000,0.02599142,0.022246415,0.003157359,1,0
8376000,0.025804674,0.022130536,0.002221308,1,0
8380000,0.025433723,0.022270903,0.00050043,1,0
8384000,0.025272936,0.02237348,-0.000288424,1,0
8388000,0.02548539,0.022480002,0.000293809,1,0
8396000,0.025734024,0.022750326,0.000835723,1,0
8400000,0.025185904,0.02261575,0.000726049,1,0
8404000,0.023968829,0.022389261,0.001894066,1,0
8408000,0.023452187,0.022160644,0.00336892,1,0
8412000,0.024243193,0.022200484,0.003646034,1,0
8416000,0.02506502,0.022367118,0.003072115,1,0
8420000,0.025184754,0.022288574,0.002695671,1,0
8424000,0.024886793,0.022072937,0.002554124,1,0
8428000,0.025120903,0.022000587,0.002548481,1,0
8436000,0.02590034,0.022237236,0.002852516,1,0
8440000,0.024461495,0.022838403,0.003466463,1,0
8444000,0.023159618,0.022682222,0.00422025,1,0
8448000,0.021768294,0.022155732,0.00452691,1,0
8452000,0.021419493,0.021578882,0.00479963,1,0
8456000,0.02200814,0.021151245,0.004191231,1,0
8460000,0.021750078,0.020956118,0.00406089,1,0
8464000,0.02120722,0.021048417,0.003817716,1,0
8468000,0.021759367,0.021306539,0.004098039,1,0
8472000,0.023326447,0.02152174,0.003958692,1,0
8476000,0.024758644,0.021475695,0.004026261,1,0
8480000,0.025362821,0.021225499,0.003349267,1,0
8484000,0.025253104,0.02120888,0.002728406,1,0
8492000,0.024543555,0.02165219,0.002398328,1,0
8496000,0.024445442,0.021464441,0.002411376,1,0
8500000,0.024328971,0.021342933,0.002352196,1,0
8504000,0.02453089,0.021417275,0.002058095,1,0
8508000,0.024807343,0.021589391,0.002345528,1,0
8512000,0.024678601,0.021813132,0.002575098,1,0
8516000,0.0244367,0.021863583,0.002471267,1,0
8520000,0.024593228,0.021940414,0.00209937,1,0
8524000,0.024700107,0.022023655,0.002210561,1,0
8528000,0.024125228,0.021901535,0.002376308,1,0
8532000,0.023325456,0.021786511,0.002722471,1,0
8536000,0.022534683,0.021687442,0.003023208,1,0
8540000,0.02252723,0.021651087,0.003088574,1,0
8544000,0.022443024,0.021218438,0.00317293,1,0
8548000,0.02260956,0.021059148,0.00309259,1,0
8552000,0.022807619,0.021063173,0.002898726,1,0
8556000,0.02332036,0.021101844,0.003091562,1,0
8560000,0.023509799,0.021101158,0.003010537,1,0
8564000,0.023524128,0.02104839,0.00312493,1,0
8568000,0.023189591,0.021228038,0.003208377,1,0
8572000,0.023833258,0.021384604,0.003470737,1,0
8576000,0.024478251,0.021250557,0.003345824,1,0
8580000,0.024555787,0.02100496,0.003282599,1,0
8584000,0.024144856,0.020945134,0.003000787,1,0
8588000,0.023842517,0.021107098,0.002802305,1,0
8592000,0.0222413,0.0200595,0.002719706,1,0
8596000,0.022850053,0.020128528,0.002778335,1,0
8600000,0.022738656,0.019973978,0.002376729,1,0
8604000,0.022437258,0.019909214,0.002020623,1,0
8608000,0.02230747,0.019859156,0.002048761,1,0
8612000,0.022199571,0.019807197,0.002340917,1,0
8616000,0.021987844,0.019736353,0.002213014,1,0
8620000,0.021462832,0.019492006,0.001734076,1,0
8624000,0.020526407,0.019289058,0.001421042,1,0
8628000,0.019869268,0.019311516,0.001259445,1,0
8632000,0.02028153,0.019344512,0.000856122,1,0
8636000,0.021188388,0.019276395,0.00049482,1,0
8640000,0.021137211,0.019213524,0.000267082,1,0
8644000,0.020535829,0.019148957,-8.41E-06,1,0
8648000,0.020813322,0.019146342,-0.000494904,1,0
8652000,0.021421686,0.019304961,-0.001267128,1,0
8660000,0.021684853,0.019325266,-0.002381903,1,0
8664000,0.022636868,0.019133303,-0.003957922,1,0
8668000,0.022666905,0.019046219,-0.004308238,1,0
8672000,0.023041522,0.01842099,-0.005495173,1,0
8676000,0.022787454,0.018146874,-0.00654408,1,0
8680000,0.023129463,0.01806719,-0.007398064,1,0
8684000,0.023376023,0.018085986,-0.00834938,1,0
8688000,0.0234103,0.018025173,-0.008708869,1,0
8692000,0.014777764,0.013372212,-0.010481201,1,0
8700000,0.014029933,0.013562388,-0.012494829,1,0
8704000,0.013501319,0.01349813,-0.013128219,1,0
8708000,0.013204101,0.013434942,-0.014138605,1,0
8712000,0.013153284,0.013372727,-0.015049357,1,0
8716000,0.013011915,0.013342851,-0.016343951,1,0
8720000,0.012572957,0.013403052,-0.01720599,1,0
8724000,0.012543643,0.013372388,-0.01803343,1,0
8728000,0.010692241,0.013381599,-0.019215649,1,0
8736000,0.009559031,0.013036501,-0.020365108,1,0
8740000,0.008497931,-0.28379834,-0.02101023,1,0
8744000,0.007297015,-0.28384346,-0.021189347,1,0
8748000,0.006168315,-0.28381845,-0.021790061,1,0
8752000,0.004740585,-0.283875,-0.02213525,1,0
8756000,0.004612033,-0.28397334,-0.022920495,1,0
8760000,0.000464262,-0.28354806,-0.023824833,1,0
8764000,-0.002317108,-0.26994094,-0.025240155,1,0
8768000,-0.005205518,-0.26954472,-0.02631222,1,0
8772000,-0.007958612,-0.26910552,-0.027461883,1,0
8776000,-0.010667075,-0.26853132,-0.027971558,1,0
8780000,-0.013417838,-0.26789433,-0.028975368,1,0
8784000,-0.016414795,-0.26735708,-0.02943781,1,0
8788000,-0.01942584,-0.25438237,-0.030311882,1,0
8792000,-0.015607267,-0.21551037,-0.030602425,1,0
8796000,-0.017316047,-0.2150305,-0.0315212,1,0
8800000,-0.019232268,-0.21443486,-0.032134727,1,0
8804000,-0.019549148,-0.21422875,-0.03295591,1,0
8808000,-0.023157088,-0.21331231,-0.033667937,1,0
8812000,-0.02515187,-0.20281295,-0.0344597,1,0
8816000,-0.027204039,-0.20229934,-0.03474611,1,0
8820000,-0.029220302,-0.20183611,-0.03559412,1,0
8828000,-0.033107273,-0.20103548,-0.036847662,1,0
8832000,-0.03513377,-0.20076977,-0.03710661,1,0
8836000,-0.035601474,-0.19101717,-0.037859917,1,0
8840000,-0.038821112,-0.1905886,-0.03775889,1,0
8844000,-0.040071033,-0.19014119,-0.03832711,1,0
8848000,-0.04141894,-0.18971914,-0.038549013,1,0
8852000,-0.041928664,-0.18940555,-0.03925625,1,0
8856000,-0.044419874,-0.18912706,-0.039255235,1,0
8860000,-0.045463115,-0.17984858,-0.03962034,1,0
8864000,-0.045986757,-0.17951329,-0.03974784,1,0
8868000,-0.04750987,-0.17914352,-0.039714914,1,0
8872000,-0.048876915,-0.17880367,-0.039591677,1,0
8876000,-0.049423844,-0.17846295,-0.040133864,1,0
8880000,-0.0510436,-0.17816168,-0.03980629,1,0
8884000,-0.051863685,-0.16932264,-0.040094294,1,0
8888000,-0.05284768,-0.16906397,-0.03987056,1,0
8892000,-0.043624923,-0.15147187,-0.040272765,1,0
8896000,-0.045035932,-0.15136124,-0.039454356,1,0
8900000,-0.046093132,-0.15115495,-0.03941582,1,0
8908000,-0.04762753,-0.14347388,-0.03919532,1,0
8912000,-0.048874166,-0.14367802,-0.03836187,1,0
8916000,-0.049606994,-0.14374983,-0.03833323,1,0
8920000,-0.05019862,-0.1438817,-0.03787986,1,0
8928000,-0.05190975,-0.14405459,-0.03726745,1,0
8932000,-0.052780196,-0.13714662,-0.03698875,1,0
8936000,-0.053364772,-0.13728638,-0.03625267,1,0
8940000,-0.053888258,-0.1373804,-0.035815798,1,0
8944000,-0.05438118,-0.13748604,-0.035209574,1,0
8948000,-0.054862965,-0.13760741,-0.03483204,1,0
8956000,-0.05608637,-0.13101532,-0.03387207,1,0
8960000,-0.05727004,-0.13142516,-0.03270452,1,0
8964000,-0.057784002,-0.13152109,-0.032179616,1,0
8968000,-0.058223486,-0.13166657,-0.031343482,1,0
8972000,-0.058750648,-0.1317531,-0.030935278,1,0
8976000,-0.059258264,-0.13231772,-0.029278712,1,0
8980000,-0.059951495,-0.12615114,-0.028331544,1,0
8984000,-0.060482744,-0.12642051,-0.027158216,1,0
8988000,-0.06064341,-0.1265555,-0.026200544,1,0
8996000,-0.055073876,-0.11906863,-0.02448376,1,0
9000000,-0.055929434,-0.1194165,-0.022929901,1,0
9004000,-0.05662079,-0.11380206,-0.021904279,1,0
9008000,-0.057405345,-0.11421729,-0.020731928,1,0
9012000,-0.057891905,-0.114404194,-0.020012757,1,0
9020000,-0.058384847,-0.114966094,-0.017514788,1,0
9028000,-0.05924696,-0.10949745,-0.014506962,1,0
9032000,-0.059904404,-0.109756365,-0.013311111,1,0
9036000,-0.060373317,-0.110000886,-0.01219875,1,0
9040000,-0.0610138,-0.11030436,-0.010909124,1,0
9044000,-0.06178174,-0.11063623,-0.009626665,1,0
9048000,-0.06243203,-0.11094883,-0.008358278,1,0
9052000,-0.0629327,-0.105643146,-0.007188292,1,0
9056000,-0.06322631,-0.10597296,-0.006005707,1,0
9060000,-0.06373453,-0.1061909,-0.00499918,1,0
9068000,-0.065161735,-0.10642669,-0.002005256,1,0
9072000,-0.06576414,-0.10661295,-0.000653703,1,0
9076000,-0.0662692,-0.10133773,0.000426088,1,0
9080000,-0.066279374,-0.101560116,0.001894545,1,0
9084000,-0.066575095,-0.101730704,0.003124882,1,0
9092000,-0.06747989,-0.10206734,0.005425699,1,0
9096000,-0.06352523,-0.098331496,0.006828149,1,0
9100000,-0.063676715,-0.093394786,0.008115175,1,0
9104000,-0.064066395,-0.09361571,0.009196337,1,0
9108000,-0.06458299,-0.093782626,0.010264806,1,0
9112000,-0.06489737,-0.09385992,0.011230765,1,0
9116000,-0.06522463,-0.093869835,0.012245546,1,0
9120000,-0.06562231,-0.093852416,0.013217935,1,0
9124000,-0.06591723,-0.088812426,0.014269761,1,0
9128000,-0.06620453,-0.08889625,0.015196363,1,0
9132000,-0.06667341,-0.08903319,0.016257886,1,0
9136000,-0.06713175,-0.08911046,0.017163612,1,0
9140000,-0.06765741,-0.08915293,0.018100437,1,0
9148000,-0.06833433,-0.08441603,0.019502811,1,0
9152000,-0.0684786,-0.08458157,0.02026917,1,0
9156000,-0.06859442,-0.084674254,0.021214152,1,0
9160000,-0.06871242,-0.08470905,0.022018883,1,0
9164000,-0.06896649,-0.08476228,0.022835918,1,0
9168000,-0.06916413,-0.08485116,0.02349222,1,0
9172000,-0.06934314,-0.08016372,0.024207588,1,0
9176000,-0.069791526,-0.08034328,0.02472296,1,0
9180000,-0.0702182,-0.08046783,0.025608812,1,0
9184000,-0.070340596,-0.08068582,0.0259444,1,0
9188000,-0.070377536,-0.080906965,0.02665565,1,0
9196000,-0.070515394,-0.07661833,0.027736854,1,0
9200000,-0.070604935,-0.07678602,0.028073177,1,0
9208000,-0.07176207,-0.077043615,0.028688163,1,0
9212000,-0.072172746,-0.077192694,0.029349212,1,0
9216000,-0.07222388,-0.07739837,0.02940999,1,0
9220000,-0.07219369,-0.07290014,0.02981351,1,0
9224000,-0.07242542,-0.073107935,0.030128263,1,0
9228000,-0.07277685,-0.07332821,0.030447954,1,0
9232000,-0.073010065,-0.073571905,0.030520078,1,0
9236000,-0.07298613,-0.07381816,0.030588884,1,0
9240000,-0.072841324,-0.074094005,0.030481085,1,0
9244000,-0.072922155,-0.06979344,0.03048443,1,0
9248000,-0.073244564,-0.07008275,0.030455356,1,0
9252000,-0.07354813,-0.070336364,0.030527998,1,0
9260000,-0.07379354,-0.07078519,0.03043273,1,0
9264000,-0.07399152,-0.071028136,0.030258304,1,0
9268000,-0.07423739,-0.06677268,0.03011858,1,0
9272000,-0.074572675,-0.06712808,0.029820167,1,0
9276000,-0.074914396,-0.06748763,0.02964222,1,0
9280000,-0.0752218,-0.06782125,0.029447079,1,0
9284000,-0.07557419,-0.06811152,0.029310666,1,0
9288000,-0.07584343,-0.0684041,0.029068451,1,0
9292000,-0.075996384,-0.06428794,0.028857965,1,0
9296000,-0.07636098,-0.06456852,0.028761152,1,0
9300000,-0.07619741,-0.065253735,0.028113551,1,0
9304000,-0.07622449,-0.065665096,0.027582584,1,0
9308000,-0.07657356,-0.06594909,0.0274607,1,0
9312000,-0.07603714,-0.06640753,0.02666561,1,0
9316000,-0.075911604,-0.062383696,0.02632783,1,0
9320000,-0.07613538,-0.06283003,0.02590794,1,0
9324000,-0.076651484,-0.06328024,0.025509244,1,0
9328000,-0.07699049,-0.06361322,0.025203966,1,0
9332000,-0.077092096,-0.06417205,0.024372958,1,0
9336000,-0.07705738,-0.06463926,0.023638237,1,0
9340000,-0.076968916,-0.060763553,0.022926284,1,0
9348000,-0.07677268,-0.061859377,0.02174406,1,0
9352000,-0.07690024,-0.062374845,0.021199353,1,0
9356000,-0.07714434,-0.06284769,0.0206555,1,0
9360000,-0.07739248,-0.06335477,0.020029476,1,0
9364000,-0.07756658,-0.0595588,0.01933628,1,0
9372000,-0.07730726,-0.060721282,0.01803613,1,0
9376000,-0.07746868,-0.061234143,0.017425422,1,0
9380000,-0.07790284,-0.061688647,0.016786952,1,0
9384000,-0.07822496,-0.06215045,0.0160146,1,0
9388000,-0.07852141,-0.05827145,0.015457619,1,0
9396000,-0.078634016,-0.05954493,0.014061093,1,0
9400000,-0.078995764,-0.06022301,0.013442216,1,0
9408000,-0.07948125,-0.061391473,0.012152048,1,0
9412000,-0.078890264,-0.057829197,0.011433664,1,0
9420000,-0.078291684,-0.059009247,0.009996546,1,0
9424000,-0.07809419,-0.05964447,0.009319803,1,0
9428000,-0.07836314,-0.060258858,0.008702721,1,0
9432000,-0.078922346,-0.060890105,0.008084689,1,0
9436000,-0.07943092,-0.05721493,0.00749794,1,0
9440000,-0.079633184,-0.057753626,0.006981553,1,0
9444000,-0.07964267,-0.058283173,0.006513429,1,0
9448000,-0.079603724,-0.05877825,0.005947101,1,0
9452000,-0.07955941,-0.059273362,0.005295129,1,0
9456000,-0.0796167,-0.05987978,0.004670627,1,0
9460000,-0.079875566,-0.056201782,0.004063093,1,0
9464000,-0.07964729,-0.057022512,0.003480039,1,0
9468000,-0.07959366,-0.05770535,0.002907573,1,0
9476000,-0.079626724,-0.05890681,0.001918418,1,0
9480000,-0.080097415,-0.05941951,0.001377993,1,0
9484000,-0.08049199,-0.055722315,0.000775818,1,0
9488000,-0.080655664,-0.056295432,0.00021787,1,0
9492000,-0.08063738,-0.05690737,-0.000125582,1,0
9496000,-0.08059189,-0.05759552,-0.000378176,1,0
9500000,-0.08061301,-0.058303505,-0.000727713,1,0
9504000,-0.08065177,-0.058945365,-0.001122339,1,0
9508000,-0.080607034,-0.055304907,-0.001504217,1,0
9512000,-0.08046166,-0.05583387,-0.001830351,1,0
9516000,-0.0806936,-0.056417525,-0.002304899,1,0
9520000,-0.08037268,-0.05688127,-0.002550315,1,0
9524000,-0.08051165,-0.057437215,-0.00297125,1,0
9528000,-0.08068855,-0.058042422,-0.003345657,1,0
9532000,-0.080913715,-0.054436885,-0.003782416,1,0
9536000,-0.08064385,-0.05499492,-0.003940883,1,0
9540000,-0.08085847,-0.055543453,-0.004380696,1,0
9544000,-0.08028798,-0.05586393,-0.0046721,1,0
9548000,-0.08031309,-0.056376524,-0.004908993,1,0
9556000,-0.08049227,-0.05330883,-0.005268749,1,0
9560000,-0.0802405,-0.053885132,-0.00558148,1,0
9564000,-0.0801385,-0.054474752,-0.005858726,1,0
9568000,-0.08029298,-0.055015206,-0.006026059,1,0
9572000,-0.08048884,-0.055563204,-0.006329067,1,0
9576000,-0.080546334,-0.05594877,-0.006162929,1,0
9580000,-0.080800116,-0.05224058,-0.006190819,1,0
9584000,-0.080755614,-0.052709058,-0.006297276,1,0
9588000,-0.080434896,-0.05320832,-0.00649517,1,0
9596000,-0.0805066,-0.054372657,-0.0069235,1,0
9600000,-0.080696285,-0.054980196,-0.007002295,1,0
9604000,-0.08073352,-0.05140146,-0.007047631,1,0
9608000,-0.080666535,-0.05187086,-0.007034051,1,0
9612000,-0.080609925,-0.052206427,-0.007006915,1,0
9616000,-0.08056684,-0.05261556,-0.007024002,1,0
9620000,-0.080422595,-0.053163685,-0.007045146,1,0
9624000,-0.080280505,-0.053708814,-0.007014022,1,0
9628000,-0.08028278,-0.050042458,-0.006986587,1,0
9632000,-0.08036527,-0.050503675,-0.007045152,1,0
9636000,-0.08038751,-0.050953653,-0.007181647,1,0
9640000,-0.08031112,-0.05139021,-0.007263367,1,0
9644000,-0.08012318,-0.051840186,-0.007260804,1,0
9648000,-0.07985834,-0.052309103,-0.007255677,1,0
9652000,-0.07976958,-0.048560463,-0.007277065,1,0
9656000,-0.07993297,-0.048929866,-0.0072328,1,0
9660000,-0.0800742,-0.04942183,-0.00729891,1,0
9664000,-0.08018767,-0.049872335,-0.007250886,1,0
9668000,-0.079852894,-0.050533194,-0.007229342,1,0
9672000,-0.08006673,-0.0510194,-0.007260589,1,0
9676000,-0.08032103,-0.04727138,-0.007258084,1,0
9684000,-0.08043017,-0.048185937,-0.007336015,1,0
9692000,-0.08050625,-0.048969217,-0.007462359,1,0
9696000,-0.08046641,-0.049278878,-0.007504187,1,0
9700000,-0.08022447,-0.04550814,-0.007565166,1,0
9704000,-0.07985483,-0.045941956,-0.007593821,1,0
9708000,-0.07997649,-0.046395883,-0.007636025,1,0
9712000,-0.07953437,-0.046815705,-0.007570649,1,0
9716000,-0.07948272,-0.047153868,-0.007568252,1,0
9720000,-0.07964602,-0.04752341,-0.007574029,1,0
9724000,-0.080063276,-0.04386536,-0.007615127,1,0
9728000,-0.08037082,-0.044372264,-0.007702258,1,0
9732000,-0.08049969,-0.044787213,-0.007806184,1,0
9736000,-0.08055304,-0.045201637,-0.00792476,1,0
9740000,-0.080469534,-0.045642592,-0.007992252,1,0
9744000,-0.08039161,-0.046035636,-0.008020174,1,0
9748000,-0.080390826,-0.042278685,-0.008136779,1,0
9752000,-0.080301695,-0.042771056,-0.008271505,1,0
9756000,-0.08023741,-0.043243054,-0.008347153,1,0
9760000,-0.08036128,-0.043625526,-0.008388866,1,0
9764000,-0.08054979,-0.043923944,-0.00843117,1,0
9768000,-0.08069071,-0.04419059,-0.008520199,1,0
9772000,-0.08075469,-0.040379815,-0.00864034,1,0
9776000,-0.08087382,-0.04081423,-0.008701336,1,0
9780000,-0.08118972,-0.041406788,-0.008776547,1,0
9784000,-0.08158852,-0.04187119,-0.00899557,1,0
9788000,-0.08181213,-0.04225327,-0.009349877,1,0
9792000,-0.08173768,-0.042604573,-0.009648232,1,0
9796000,-0.08141625,-0.038770184,-0.009825434,1,0
9800000,-0.08118805,-0.03916894,-0.010008227,1,0
9804000,-0.08120982,-0.03961832,-0.010254363,1,0
9808000,-0.08134412,-0.039988108,-0.010497691,1,0
9812000,-0.08137645,-0.040282838,-0.010691082,1,0
9816000,-0.08123654,-0.040606044,-0.010842981,1,0
9820000,-0.08110392,-0.036784068,-0.011057106,1,0
9824000,-0.08117919,-0.03714811,-0.011351105,1,0
9828000,-0.081425875,-0.037536226,-0.011676827,1,0
9832000,-0.081647284,-0.038023684,-0.011976616,1,0
9836000,-0.08172616,-0.038583603,-0.012234434,1,0
9840000,-0.0816458,-0.03910846,-0.012475211,1,0
9844000,-0.08175503,-0.03531355,-0.012692235,1,0
9848000,-0.08170783,-0.035726737,-0.012964324,1,0
9856000,-0.0817858,-0.036468986,-0.013505981,1,0
9860000,-0.08176661,-0.036837142,-0.013866039,1,0
9864000,-0.082098015,-0.037186116,-0.014234979,1,0
9868000,-0.08240663,-0.033337846,-0.014643794,1,0
9876000,-0.08215829,-0.034206692,-0.015310163,1,0
9880000,-0.08194938,-0.034591578,-0.01563037,1,0
9884000,-0.081879936,-0.034968812,-0.01599356,1,0
9888000,-0.0819479,-0.035370745,-0.016373632,1,0
9892000,-0.08211726,-0.031574693,-0.01674274,1,0
9896000,-0.08209039,-0.032001972,-0.0170473,1,0
9900000,-0.082186215,-0.0323971,-0.017345373,1,0
9904000,-0.08204138,-0.032832395,-0.01768025,1,0
9908000,-0.082489505,-0.03324123,-0.018098094,1,0
9912000,-0.08282749,-0.033665948,-0.01852953,1,0
9916000,-0.08286768,-0.029885367,-0.018971615,1,0
9920000,-0.082657695,-0.030320972,-0.0194007,1,0
9924000,-0.08250634,-0.030733911,-0.01983457,1,0
9932000,-0.08265937,-0.03165498,-0.020655766,1,0
9936000,-0.082718894,-0.032108143,-0.021054588,1,0
9940000,-0.082683675,-0.028260024,-0.021417594,1,0
9944000,-0.0826673,-0.028615136,-0.021762911,1,0
9948000,-0.08261822,-0.028961267,-0.022135288,1,0
9952000,-0.08266804,-0.029331168,-0.022557106,1,0
9956000,-0.082944825,-0.029713776,-0.023030128,1,0
9960000,-0.08329411,-0.03010521,-0.023556363,1,0
9964000,-0.083410785,-0.026260756,-0.024064023,1,0
9968000,-0.08322865,-0.026689075,-0.024482671,1,0
9972000,-0.0830616,-0.027152892,-0.02477764,1,0
9976000,-0.08310897,-0.02764722,-0.025068339,1,0
9980000,-0.08321044,-0.028067797,-0.025469221,1,0
9984000,-0.08347552,-0.028559763,-0.025898065,1,0
9988000,-0.083625995,-0.024641171,-0.02637126,1,0
9992000,-0.08375025,-0.025027359,-0.026793703,1,0
9996000,-0.083734915,-0.025455955,-0.027205242,1,0
10000000,-0.083519556,-0.025905678,-0.02762058,1,0
10004000,-0.083376475,-0.026357114,-0.027943535,1,0
10008000,-0.08348776,-0.02676698,-0.028205182,1,0
10012000,-0.08362167,-0.022872277,-0.028525043,1,0
10016000,-0.08351033,-0.023273004,-0.02899076,1,0
10020000,-0.08332241,-0.02369883,-0.029521562,1,0
10024000,-0.08340092,-0.024139656,-0.030016555,1,0
10028000,-0.08371695,-0.024550537,-0.030419156,1,0
10032000,-0.0840106,-0.024952862,-0.030747514,1,0
10036000,-0.08411073,-0.02107321,-0.0311472,1,0
10040000,-0.084401086,-0.021522874,-0.031464513,1,0
10044000,-0.084507756,-0.021973807,-0.031863198,1,0
10048000,-0.08453446,-0.022408685,-0.032248847,1,0
10052000,-0.08452816,-0.022865497,-0.032625392,1,0
10060000,-0.08427703,-0.019651646,-0.033628087,1,0
10064000,-0.08416368,-0.020190097,-0.034130342,1,0
10068000,-0.083986774,-0.02065863,-0.034409124,1,0
10072000,-0.08389489,-0.021059625,-0.034529872,1,0
10076000,-0.08412375,-0.021422839,-0.03473108,1,0
10080000,-0.08453554,-0.021801192,-0.03509507,1,0
10084000,-0.08484848,-0.017841887,-0.035501186,1,0
10088000,-0.084990196,-0.018224584,-0.035897452,1,0
10092000,-0.08499488,-0.018655447,-0.03626702,1,0
10096000,-0.084827974,-0.01906871,-0.036601506,1,0
10100000,-0.08444016,-0.019488094,-0.0368219,1,0
10104000,-0.08410617,-0.019898653,-0.037028596,1,0
10112000,-0.084565744,-0.016346246,-0.037765943,1,0
10116000,-0.08471874,-0.016825382,-0.038158335,1,0
10120000,-0.08473045,-0.01732497,-0.0385627,1,0
10124000,-0.0846073,-0.017805645,-0.038890958,1,0
10132000,-0.084529616,-0.014350363,-0.039462678,1,0
10136000,-0.084162764,-0.014747061,-0.039692085,1,0
10140000,-0.08431585,-0.015193133,-0.040038787,1,0
10144000,-0.08463719,-0.015680064,-0.04041071,1,0
10148000,-0.084878184,-0.016086858,-0.040741947,1,0
10152000,-0.084952,-0.01640047,-0.040996537,1,0
10156000,-0.08481842,-0.012357686,-0.04116984,1,0
10160000,-0.0845983,-0.012748739,-0.041360438,1,0
10164000,-0.08452138,-0.013170542,-0.041593343,1,0
10168000,-0.084721,-0.013603861,-0.041903418,1,0
10172000,-0.085037835,-0.014033772,-0.042193048,1,0
10180000,-0.08522784,-0.010514606,-0.04276392,1,0
10184000,-0.08510978,-0.011018643,-0.043054476,1,0
10188000,-0.08532399,-0.011410632,-0.043310978,1,0
10192000,-0.08551644,-0.011777172,-0.04355134,1,0
10196000,-0.08560048,-0.0121263,-0.043752395,1,0
10200000,-0.08553293,-0.012513284,-0.044016033,1,0
10204000,-0.08527084,-0.008560031,-0.04430612,1,0
10212000,-0.085044086,-0.00941067,-0.044842944,1,0
10220000,-0.08529476,-0.01018679,-0.045264877,1,0
10224000,-0.085186474,-0.010636775,-0.045501262,1,0
10228000,-0.084962755,-0.006706201,-0.045735687,1,0
10236000,-0.08505798,-0.00759163,-0.045751564,1,0
10240000,-0.08547861,-0.007963921,-0.04569342,1,0
10244000,-0.08572323,-0.008319801,-0.045739368,1,0
10248000,-0.08586677,-0.008668167,-0.045838058,1,0
10252000,-0.08594773,-0.004605167,-0.04587161,1,0
10256000,-0.085995786,-0.005033314,-0.045855932,1,0
10260000,-0.08607222,-0.005517477,-0.04581506,1,0
10264000,-0.08616673,-0.00599649,-0.04581394,1,0
10268000,-0.08623907,-0.006413705,-0.045817748,1,0
10276000,-0.086504966,-0.002765923,-0.0457364,1,0
10280000,-0.08618751,-0.003142265,-0.04568194,1,0
10284000,-0.08591785,-0.003501967,-0.045721147,1,0
10288000,-0.0859399,-0.003839769,-0.045810707,1,0
10292000,-0.086106375,-0.004223557,-0.04585769,1,0
10296000,-0.08616785,-0.004655595,-0.045832947,1,0
10300000,-0.08623009,-0.000587691,-0.04574539,1,0
10304000,-0.08649268,-0.000981495,-0.045748405,1,0
10308000,-0.08655083,-0.00138346,-0.045752183,1,0
10312000,-0.086349785,-0.001727711,-0.045843534,1,0
10316000,-0.085948825,-0.002052045,-0.04583987,1,0
10320000,-0.08567347,-0.00239809,-0.045828365,1,0
10324000,-0.0858054,0.001690907,-0.04580305,1,0
10328000,-0.08601374,0.001193224,-0.045794487,1,0
10332000,-0.086174615,0.000678845,-0.045726996,1,0
10340000,-0.086403765,-0.000149354,-0.045722224,1,0
10344000,-0.08629197,-0.000483437,-0.045852356,1,0
10348000,-0.08625541,0.003659954,-0.04598903,1,0
10352000,-0.08635113,0.003242683,-0.046068765,1,0
10356000,-0.08648495,0.002851006,-0.046065837,1,0
10360000,-0.08641679,0.002467398,-0.046073243,1,0
10364000,-0.08614156,0.00202224,-0.04605767,1,0
10368000,-0.086035624,0.001549125,-0.04606189,1,0
10372000,-0.086204216,0.005692942,-0.046073426,1,0
10376000,-0.0863551,0.005391935,-0.046198137,1,0
10380000,-0.08638792,0.005034167,-0.04633251,1,0
10384000,-0.08625077,0.004605791,-0.046422064,1,0
10388000,-0.08597386,0.004178636,-0.046430033,1,0
10392000,-0.08578348,0.003764087,-0.04645514,1,0
10396000,-0.08580252,0.007889872,-0.046498224,1,0
10400000,-0.08612278,0.007477677,-0.04660847,1,0
10404000,-0.08658953,0.007092966,-0.04663415,1,0
10408000,-0.086820796,0.006737737,-0.046605047,1,0
10412000,-0.08687994,0.006339792,-0.046608977,1,0
10416000,-0.08656592,0.00589223,-0.046668842,1,0
10420000,-0.086595796,0.010048974,-0.04669085,1,0
10428000,-0.08671893,0.009336589,-0.04670997,1,0
10432000,-0.086447425,0.008999543,-0.046713352,1,0
10436000,-0.08650856,0.008614639,-0.046717294,1,0
10440000,-0.08650383,0.008219762,-0.04671494,1,0
10444000,-0.086614564,0.012353782,-0.046647508,1,0
10448000,-0.0867295,0.011947734,-0.0466223,1,0
10452000,-0.08678606,0.01156408,-0.046626218,1,0
10456000,-0.086809285,0.011197653,-0.04671972,1,0
10460000,-0.08682262,0.010765823,-0.04674857,1,0
10464000,-0.08684936,0.010314478,-0.046803012,1,0
10468000,-0.086781465,0.014484353,-0.04686237,1,0
10472000,-0.08654297,0.01409879,-0.046928026,1,0
10476000,-0.08631886,0.013709843,-0.04692068,1,0
10480000,-0.08640003,0.013293115,-0.04693699,1,0
10484000,-0.08686581,0.012809662,-0.046975188,1,0
10488000,-0.087296486,0.012314713,-0.04708415,1,0
10492000,-0.087385476,0.016482288,-0.047183126,1,0
10496000,-0.087382585,0.016107632,-0.047256567,1,0
10500000,-0.08746047,0.015775999,-0.047244847,1,0
10504000,-0.0875469,0.015434371,-0.047246292,1,0
10508000,-0.08758118,0.01503518,-0.047250062,1,0
10512000,-0.08761457,0.014632566,-0.047254547,1,0
10516000,-0.087729394,0.018857157,-0.047214784,1,0
10520000,-0.08791463,0.018433148,-0.047249638,1,0
10524000,-0.08803577,0.017999064,-0.047284022,1,0
10528000,-0.0880629,0.017561024,-0.047339484,1,0
10536000,-0.08849059,0.01671925,-0.047388345,1,0
10540000,-0.08846613,0.02097632,-0.04741483,1,0
10544000,-0.08836373,0.020565381,-0.047493182,1,0
10548000,-0.08830952,0.020124825,-0.047549047,1,0
10552000,-0.088094465,0.019669294,-0.04758254,1,0
10556000,-0.087906145,0.019196155,-0.04752817,1,0
10564000,-0.08800033,0.02297181,-0.047504455,1,0
10568000,-0.08758001,0.02264861,-0.047571067,1,0
10572000,-0.08744339,0.022298018,-0.04766362,1,0
10580000,-0.08777032,0.021514602,-0.04771208,1,0
10584000,-0.0880658,0.021085184,-0.047752477,1,0
10588000,-0.088012226,0.025298435,-0.04777336,1,0
10592000,-0.08778104,0.024862563,-0.04777127,1,0
10596000,-0.08772871,0.024476336,-0.04769661,1,0
10600000,-0.08790666,0.02411894,-0.047681373,1,0
10604000,-0.08827419,0.02371713,-0.0476636,1,0
10608000,-0.088730335,0.023257954,-0.04763467,1,0
10612000,-0.0891283,0.027419249,-0.047611244,1,0
10616000,-0.089403674,0.026923448,-0.04768057,1,0
10620000,-0.08955077,0.026514232,-0.047732394,1,0
10628000,-0.08953741,0.02580379,-0.04787379,1,0
10632000,-0.08938347,0.025339277,-0.04794632,1,0
10636000,-0.08915387,0.029553005,-0.04793483,1,0
10640000,-0.08896903,0.029134601,-0.047893062,1,0
10644000,-0.08880816,0.028701661,-0.047806848,1,0
10648000,-0.08862753,0.028242754,-0.04779709,1,0
10652000,-0.088682674,0.027771367,-0.04783824,1,0
10656000,-0.089043856,0.02732651,-0.04793598,1,0
10660000,-0.089419365,0.03158559,-0.04801289,1,0
10664000,-0.08957223,0.031168368,-0.048100553,1,0
10668000,-0.08934699,0.030754903,-0.048074827,1,0
10672000,-0.08890727,0.030279769,-0.04801856,1,0
10676000,-0.08876955,0.029752279,-0.04795655,1,0
10680000,-0.08893031,0.029352367,-0.047980268,1,0
10684000,-0.08928741,0.0337751,-0.047974978,1,0
10688000,-0.089871265,0.033440858,-0.04798664,1,0
10692000,-0.09025823,0.03301882,-0.047988854,1,0
10696000,-0.09027758,0.03257244,-0.04805259,1,0
10700000,-0.09011578,0.03211984,-0.048078924,1,0
10704000,-0.08993042,0.03168352,-0.048085473,1,0
10708000,-0.089990735,0.03595322,-0.04808962,1,0
10712000,-0.08990545,0.03550092,-0.048086964,1,0
10716000,-0.08990836,0.03509251,-0.048107143,1,0
10720000,-0.08974012,0.034701787,-0.04810783,1,0
10724000,-0.08934419,0.034309965,-0.048041575,1,0
10728000,-0.08891332,0.033919428,-0.04801746,1,0
10732000,-0.088700384,0.03819534,-0.047958322,1,0
10736000,-0.08882009,0.03771677,-0.047939256,1,0
10740000,-0.089304164,0.037251413,-0.047962964,1,0
10744000,-0.089849085,0.036784194,-0.048080184,1,0
10748000,-0.09009093,0.036263958,-0.04813075,1,0
10752000,-0.09018479,0.035758413,-0.04813373,1,0
10756000,-0.09035165,0.040057242,-0.048058636,1,0
10764000,-0.090014294,0.039368335,-0.04800918,1,0
10768000,-0.08974672,0.038933553,-0.048070073,1,0
10772000,-0.08980352,0.038476944,-0.04804881,1,0
10776000,-0.08988507,0.03803021,-0.04806588,1,0
10780000,-0.08986269,0.042257488,-0.048097923,1,0
10788000,-0.090438075,0.041415997,-0.04820667,1,0
10792000,-0.090693325,0.041035563,-0.048218288,1,0
10796000,-0.09072761,0.04061179,-0.04814277,1,0
10800000,-0.090599574,0.040167175,-0.048069462,1,0
10804000,-0.09043284,0.0444736,-0.048042685,1,0
10808000,-0.09023638,0.04401068,-0.04816319,1,0
10812000,-0.09005554,0.043524653,-0.048251137,1,0
10816000,-0.0898835,0.04309762,-0.048299573,1,0
10820000,-0.089653976,0.04265637,-0.04827082,1,0
10824000,-0.08972043,0.042187937,-0.048310407,1,0
10828000,-0.090175085,0.04647781,-0.04833475,1,0
10832000,-0.09055564,0.04604765,-0.048341032,1,0
10836000,-0.09071272,0.04563845,-0.048314646,1,0
10840000,-0.09077668,0.045257684,-0.048381068,1,0
10844000,-0.090793245,0.044862323,-0.048444368,1,0
10848000,-0.09069015,0.0444088,-0.048507817,1,0
10852000,-0.09056211,0.048680194,-0.048448108,1,0
10856000,-0.090428986,0.048265375,-0.048416413,1,0
10860000,-0.09029939,0.047894843,-0.048409745,1,0
10864000,-0.09043792,0.04750918,-0.048426904,1,0
10868000,-0.0907261,0.047135644,-0.04837591,1,0
10872000,-0.090960175,0.04676491,-0.048375264,1,0
10876000,-0.091196075,0.048424073,-0.0483588,1,0
10880000,-0.09137285,0.047931403,-0.048428766,1,0
10884000,-0.091324024,0.047382824,-0.048483215,1,0
10888000,-0.09118547,0.04689776,-0.048560865,1,0
10892000,-0.09105561,0.046513453,-0.04860349,1,0
10896000,-0.09083605,0.04611364,-0.04864315,1,0
10900000,-0.09066354,0.04565252,-0.048611946,1,0
10908000,-0.0903483,0.044824816,-0.048626438,1,0
10912000,-0.09007545,0.044453844,-0.04863157,1,0
10916000,-0.08989897,0.044049054,-0.048611846,1,0
10920000,-0.08983186,0.04361125,-0.0486414,1,0
10924000,-0.09000025,0.043152012,-0.04857211,1,0
10928000,-0.09051939,0.042724013,-0.048560493,1,0
10932000,-0.0910231,0.042294353,-0.048637934,1,0
10936000,-0.091149874,0.04182303,-0.04884731,1,0
10940000,-0.09119468,0.0414071,-0.048851535,1,0
10944000,-0.09108021,0.041079182,-0.049082827,1,0
10948000,-0.09077048,0.04079853,-0.049042523,1,0
10952000,-0.090495296,0.040460914,-0.04901915,1,0
10956000,-0.09049899,0.040087476,-0.04896189,1,0
10960000,-0.09070817,0.039732054,-0.048980325,1,0
10964000,-0.09095679,0.039349057,-0.048990794,1,0
10968000,-0.09111806,0.038992234,-0.04905936,1,0
10972000,-0.091319054,0.0386839,-0.049098328,1,0
10976000,-0.09168848,0.038374484,-0.049153015,1,0
10980000,-0.091999985,0.038068697,-0.04912911,1,0
10984000,-0.091986924,0.037780583,-0.049142204,1,0
10988000,-0.09176219,0.037536234,-0.04913482,1,0
10996000,0.073016964,0.043136075,0.008004835,1,0
11000000,0.07324586,0.042872272,0.008008994,1,0
11004000,0.07343334,0.042598084,0.008003321,1,0
11008000,0.073072284,0.042302087,0.008033642,1,0
11012000,0.07295754,0.042001393,0.008084378,1,0
11016000,0.067770354,0.04179068,0.008137032,1,0
11020000,0.06316552,0.041579165,0.008173357,1,0
11024000,0.05824189,0.041360512,0.00821129,1,0
11028000,0.053400658,0.04115958,0.008292377,1,0
11032000,0.04853729,0.040985756,0.008388116,1,0
11036000,0.043873504,0.040792625,0.008439796,1,0
11040000,0.03959984,0.040596027,0.008444413,1,0
11044000,0.03903998,0.04037408,0.008537116,1,0
11048000,0.03187573,0.040108975,0.00850547,1,0
11052000,0.031233136,0.0398859,0.008607642,1,0
11056000,0.02489892,0.039611705,0.008667572,1,0
11060000,0.021772698,0.039459236,0.008768057,1,0
11064000,0.018872956,0.039262585,0.008855017,1,0
11068000,0.016097955,0.03908255,0.008898402,1,0
11072000,0.013390346,0.038985282,0.008937458,1,0
11076000,0.010690162,0.03889652,0.009005743,1,0
11084000,0.007261426,0.038611572,0.009192782,1,0
11092000,0.00143776,0.038488608,0.009234075,1,0
11100000,-0.002835843,0.038427293,0.009352211,1,0
11108000,-0.006501563,0.038145512,0.00951096,1,0
11116000,-0.009716276,0.037860166,0.00965899,1,0
11120000,-0.011403966,0.03777109,0.009758946,1,0
11124000,-0.012995404,0.037715323,0.009839975,1,0
11128000,-0.014638138,0.037659608,0.00994319,1,0
11132000,-0.016438343,0.037647624,0.01007282,1,0
11136000,-0.018223498,0.03763441,0.010182099,1,0
11140000,-0.019824535,0.03754297,0.010262012,1,0
11144000,-0.02128299,0.037361592,0.010303596,1,0
11148000,-0.022448383,0.037222214,0.010324675,1,0
11152000,-0.023308929,0.037198566,0.01038197,1,0
11156000,-0.024136823,0.03720028,0.010486176,1,0
11160000,-0.024954315,0.037228562,0.010612937,1,0
11164000,-0.02597751,0.037191004,0.01074509,1,0
11168000,-0.026926469,0.037260324,0.010883767,1,0
11176000,-0.029486556,0.03731235,0.01099602,1,0
11180000,-0.0308328,0.03733127,0.010986543,1,0
11184000,-0.03199388,0.037291396,0.011054525,1,0
11188000,-0.033037893,0.037185747,0.011218032,1,0
11192000,-0.033934288,0.037085447,0.011457542,1,0
11196000,-0.034961402,0.03706274,0.011591947,1,0
11200000,-0.03509426,0.03692093,0.011624305,1,0
11204000,-0.03579249,0.036889672,0.011705934,1,0
11208000,-0.036729004,0.03692278,0.011813208,1,0
11212000,-0.037760057,0.036919367,0.011946466,1,0
11216000,-0.038727082,0.036942165,0.011912551,1,0
11224000,-0.039825886,0.036699407,0.012158077,1,0
11228000,-0.040392004,0.036652744,0.012301022,1,0
11236000,-0.041895945,0.036711585,0.012496827,1,0
11240000,-0.042442437,0.036750045,0.012642813,1,0
11244000,-0.043121558,0.036789726,0.012810757,1,0
11248000,-0.044012018,0.036801778,0.012971625,1,0
11252000,-0.044756293,0.036824785,0.013089476,1,0
11256000,-0.045147665,0.03683899,0.013169244,1,0
11260000,-0.046125364,0.036840167,0.013300674,1,0
11268000,-0.046953395,0.03680881,0.013467001,1,0
11272000,-0.0475619,0.03683655,0.013569789,1,0
11276000,-0.048522517,0.03685562,0.013697209,1,0
11280000,-0.048766613,0.03691054,0.013836967,1,0
11284000,-0.04972697,0.036925018,0.013966616,1,0
11288000,-0.05006365,0.036915887,0.014159674,1,0
11292000,-0.050512232,0.036991842,0.014401621,1,0
11296000,-0.050791368,0.03703729,0.014549051,1,0
11300000,-0.05110381,0.037039265,0.014667179,1,0
11304000,-0.05136387,0.037010796,0.014758232,1,0
11308000,-0.051788,0.03701225,0.014841858,1,0
11312000,-0.052388664,0.037045177,0.014932463,1,0
11316000,-0.05282423,0.03707405,0.015050104,1,0
11320000,-0.053194575,0.03708478,0.015173532,1,0
11324000,-0.05362947,0.03705952,0.015303014,1,0
11328000,-0.054099184,0.03702964,0.015453097,1,0
11332000,-0.05469393,0.03704682,0.01560756,1,0
11340000,-0.055883627,0.037160687,0.015784692,1,0
11344000,-0.05627572,0.03715399,0.015885668,1,0
11348000,-0.057132,0.037161645,0.016010914,1,0
11352000,-0.056887988,0.03703929,0.01616897,1,0
11360000,-0.057442807,0.037074864,0.016535385,1,0
11364000,-0.057805974,0.037113093,0.01666002,1,0
11368000,-0.05814108,0.037094768,0.016762847,1,0
11372000,-0.058593668,0.037013717,0.016830042,1,0
11376000,-0.05917917,0.0369057,0.016913187,1,0
11380000,-0.059752718,0.036908377,0.017055985,1,0
11384000,-0.060055144,0.03702139,0.017221756,1,0
11388000,-0.060110006,0.037106756,0.01741574,1,0
11392000,-0.060359947,0.037177138,0.017607592,1,0
11396000,-0.061020397,0.0372378,0.017762823,1,0
11400000,-0.061895758,0.037281305,0.01794086,1,0
11404000,-0.062570326,0.03729313,0.018069085,1,0
11408000,-0.062839516,0.03727442,0.01813918,1,0
11412000,-0.062732995,0.03724008,0.018222202,1,0
11416000,-0.06243258,0.037242256,0.018314559,1,0
11420000,-0.062384777,0.037305363,0.018380247,1,0
11424000,-0.062793456,0.037373334,0.018455345,1,0
11428000,-0.063292176,0.03745899,0.018584037,1,0
11432000,-0.06372519,0.03752985,0.018763322,1,0
11436000,-0.06411203,0.037517056,0.01892779,1,0
11440000,-0.06432147,0.037459496,0.01904188,1,0
11444000,-0.06452311,0.03740543,0.019190012,1,0
11448000,-0.06484275,0.037371382,0.019399282,1,0
11452000,-0.065238506,0.037402168,0.01958876,1,0
11456000,-0.06569609,0.0375202,0.019710595,1,0
11460000,-0.066386774,0.037552603,0.019821873,1,0
11464000,-0.06641203,0.037791464,0.019917555,1,0
11468000,-0.06646035,0.037867397,0.02001407,1,0
11472000,-0.06643942,0.037883855,0.020066988,1,0
11476000,-0.066518374,0.03778194,0.020011542,1,0
11480000,-0.06666749,0.03768372,0.019980643,1,0
11484000,-0.0668682,0.03762137,0.019944688,1,0
11488000,-0.06720969,0.037560616,0.019899195,1,0
11492000,-0.067772,0.03763568,0.019983225,1,0
11500000,-0.06884276,0.037546698,0.019935414,1,0
11504000,-0.068901524,0.037450906,0.019947367,1,0
11508000,-0.06927024,0.037373528,0.019959018,1,0
11512000,-0.069739446,0.03730298,0.019947661,1,0
11516000,-0.0701136,0.03724718,0.019944437,1,0
11520000,-0.07010942,0.037210748,0.01994687,1,0
11524000,-0.070136204,0.037215374,0.019920278,1,0
11528000,-0.07051075,0.03722599,0.019865064,1,0
11532000,-0.071029805,0.03718712,0.019797165,1,0
11536000,-0.07134845,0.037125617,0.019765899,1,0
11540000,-0.0712523,0.037114628,0.01974899,1,0
11544000,-0.07101302,0.037149407,0.019709121,1,0
11548000,-0.07096199,0.03717073,0.01970616,1,0
11552000,-0.07103312,0.037196383,0.019729722,1,0
11556000,-0.07116902,0.03724628,0.019717246,1,0
11560000,-0.071344696,0.03729573,0.019652553,1,0
11564000,-0.07158029,0.037269402,0.019574504,1,0
11572000,-0.07193562,0.037053443,0.019531474,1,0
11576000,-0.0721125,0.0370139,0.019537732,1,0
11580000,-0.072473034,0.03698136,0.019559199,1,0
11584000,-0.07282629,0.036940657,0.019526225,1,0
11588000,-0.07312556,0.036915455,0.0194331,1,0
11596000,-0.07423761,0.036837444,0.019349074,1,0
11600000,-0.07465346,0.036793076,0.019314248,1,0
11604000,-0.074833855,0.03680675,0.019315574,1,0
11608000,-0.07492277,0.036830947,0.019300617,1,0
11612000,-0.07490493,0.036787964,0.019244172,1,0
11616000,-0.074787185,0.036696363,0.019161496,1,0
11620000,-0.074794516,0.036644835,0.019074995,1,0
11628000,-0.07539465,0.03676898,0.019000396,1,0
11636000,-0.07579537,0.036766753,0.018906135,1,0
11640000,-0.076068774,0.036671534,0.018850256,1,0
11644000,-0.07625088,0.036632515,0.018858168,1,0
11648000,-0.07621457,0.03665762,0.018903945,1,0
11652000,-0.076639086,0.036654394,0.018880224,1,0
11656000,-0.07585417,0.036767185,0.018863104,1,0
11660000,-0.07603197,0.036806703,0.01873983,1,0
11664000,-0.0766276,0.036832154,0.018634584,1,0
11668000,-0.07730302,0.036790974,0.018576708,1,0
11672000,-0.07776793,0.03673644,0.018536998,1,0
11676000,-0.07795366,0.03671176,0.018526163,1,0
11680000,-0.077966176,0.036713503,0.01849933,1,0
11684000,-0.07800802,0.03675752,0.018415604,1,0
11692000,-0.078513,0.036834594,0.01818478,1,0
11696000,-0.078778595,0.036913186,0.018136498,1,0
11700000,-0.07880208,0.03692456,0.018131217,1,0
11704000,-0.07881262,0.036932603,0.018106475,1,0
11708000,-0.07902418,0.03699313,0.018011162,1,0
11716000,-0.07957827,0.037028752,0.017805703,1,0
11720000,-0.07961528,0.037018105,0.017800529,1,0
11724000,-0.07960672,0.036966573,0.017856471,1,0
11732000,-0.080218956,0.036958896,0.017881798,1,0
11740000,-0.08093298,0.037214875,0.017715257,1,0
11744000,-0.08105746,0.037199195,0.017685529,1,0
11748000,-0.08143853,0.037208676,0.017656978,1,0
11752000,-0.081355266,0.037048694,0.017577425,1,0
11756000,-0.08171816,0.037073806,0.017544486,1,0
11760000,-0.0811656,0.037038293,0.017347416,1,0
11764000,-0.08135563,0.03698365,0.017243939,1,0
11768000,-0.08172296,0.036930524,0.017225664,1,0
11772000,-0.081929706,0.036938936,0.01728293,1,0
11776000,-0.08211344,0.036994837,0.017357264,1,0
11780000,-0.082223535,0.037058674,0.01734821,1,0
11784000,-0.08221952,0.037133284,0.017218968,1,0
11788000,0.084544085,0.04019422,0.026131997,0.40835232,0
11792000,0.08431259,0.04030989,0.026148604,0.40835232,0
11796000,0.08384526,0.04070843,0.026482746,0.40835232,0
11800000,0.08301202,0.040801115,0.026563061,0.40835232,0
11804000,0.082574934,0.040934555,0.026626943,0.40835232,0
11812000,0.077439666,0.036902793,0.028265694,0.4323142,0
11816000,0.0705186,0.037074707,0.02829436,0.4323142,0
11820000,0.066632874,0.037171096,0.028284661,0.4323142,0
11828000,0.059539545,0.037275106,0.028321909,0.4323142,0
11836000,0.054014836,0.033216253,0.029826347,0.45510513,0
11844000,0.049466614,0.033305872,0.02978678,0.45510513,0
11848000,0.047551017,0.033378385,0.029868104,0.45510513,0
11852000,0.045709603,0.033509158,0.029937202,0.45510513,0
11856000,0.044053387,0.033640474,0.029974233,0.45510513,0
11860000,0.04263626,0.029524853,0.031558864,0.47678584,0
11864000,0.04117492,0.029600665,0.031656966,0.47678584,0
11868000,0.03959143,0.02967599,0.0317876,0.47678584,0
11872000,0.038267404,0.029766887,0.031850234,0.47678584,0
11876000,0.037272952,0.029873777,0.031845566,0.47678584,0
11880000,0.036304887,0.030014379,0.031809907,0.47678584,0
11884000,0.035246085,0.026028093,0.033346727,0.49725854,0
11892000,0.03319285,0.026494496,0.033534683,0.49725854,0
11896000,0.031638183,0.02693888,0.033779886,0.49725854,0
11900000,0.030581102,0.027145717,0.033800628,0.49725854,0
11908000,0.028268209,0.02348055,0.035512976,0.51688707,0
11912000,0.027076975,0.023743471,0.035597347,0.51688707,0
11916000,0.025858682,0.023957267,0.035677794,0.51688707,0
11920000,0.02472324,0.024144443,0.03576832,0.51688707,0
11924000,0.023795014,0.024365498,0.035846025,0.51688707,0
11932000,0.02209502,0.020736553,0.037688695,0.53522605,0
11936000,0.021352302,0.021037241,0.037810102,0.53522605,0
11940000,0.020534776,0.02138651,0.0379045,0.53522605,0
11944000,0.019732146,0.021762649,0.037985165,0.53522605,0
11948000,0.019088035,0.022131912,0.03805048,0.53522605,0
11952000,0.018462487,0.022466742,0.03809593,0.53522605,0
11956000,0.017612461,0.018732205,0.03983041,0.55226254,0
11960000,0.016674705,0.019155135,0.039914932,0.55226254,0
11964000,0.015799657,0.019632483,0.040037476,0.55226254,0
11972000,0.013875929,0.020492118,0.040351998,0.55226254,0
11976000,0.013309543,0.020856878,0.040528256,0.55226254,0
11980000,0.012762824,0.01721008,0.042404138,0.5680224,0
11988000,0.011129317,0.018075332,0.042664357,0.5680224,0
11992000,0.009792192,0.019642975,0.043575205,0.5680224,0
11996000,0.008847445,0.020180399,0.04365793,0.5680224,0
12004000,0.006920485,0.01718696,0.04576189,0.5839213,0
12008000,0.006211132,0.017687311,0.045927085,0.5839213,0
12012000,0.005687711,0.018233143,0.045998752,0.5839213,0
12020000,0.00422404,0.01938358,0.046196327,0.5839213,0
12024000,0.003691339,0.019962963,0.046389513,0.5839213,0
12028000,0.003134873,0.016530618,0.04833363,0.59855336,0
12032000,0.002524848,0.017052319,0.048429243,0.59855336,0
12040000,0.00126695,0.0181844,0.0486219,0.59855336,0
12044000,0.000908046,0.018789683,0.04881873,0.59855336,0
12048000,0.000682963,0.019406412,0.049059615,0.59855336,0
12052000,0.00037868,0.016001003,0.051074125,0.6119811,0
12056000,-8.07E-05,0.016563013,0.051204167,0.6119811,0
12060000,-0.000678686,0.017181741,0.051297974,0.6119811,0
12064000,-0.001434525,0.017795635,0.051416483,0.6119811,0
12068000,-0.002266931,0.018335188,0.051528197,0.6119811,0
12072000,-0.003108667,0.018957755,0.051658206,0.6119811,0
12076000,-0.003684889,0.015570741,0.05366214,0.62424684,0
12080000,-0.004114029,0.016152143,0.05388054,0.62424684,0
12084000,-0.004591938,0.016773198,0.05405391,0.62424684,0
12088000,-0.005133511,0.017381456,0.054213937,0.62424684,0
12092000,-0.006049209,0.018719899,0.0548779,0.62424684,0
12096000,-0.006755875,0.019389743,0.054968644,0.62424684,0
12100000,-0.007429226,0.01610975,0.056936763,0.6361553,0
12104000,-0.007914818,0.016747773,0.057051077,0.6361553,0
12108000,-0.008680125,0.017308753,0.057155453,0.6361553,0
12112000,-0.0086192,0.017989691,0.057447538,0.6361553,0
12116000,-0.00917197,0.018587172,0.057660867,0.6361553,0
12120000,-0.009625486,0.0191511,0.057868358,0.6361553,0
12124000,-0.00988123,0.015835838,0.059912696,0.64697254,0
12128000,-0.010179303,0.016471095,0.05998964,0.64697254,0
12132000,-0.0105629,0.017094579,0.060085595,0.64697254,0
12136000,-0.01088553,0.01770274,0.0602049,0.64697254,0
12140000,-0.011600322,0.018270304,0.060300827,0.64697254,0
12144000,-0.011769109,0.018916385,0.060528293,0.64697254,0
12148000,-0.012520928,0.01560575,0.06268558,0.65674216,0
12156000,-0.013981065,0.016775122,0.06299885,0.65674216,0
12160000,-0.014427571,0.01746455,0.0631022,0.65674216,0
12164000,-0.014626259,0.018079834,0.06312996,0.65674216,0
12172000,-0.015424649,0.015418885,0.06529389,0.66557884,0
12180000,-0.016557554,0.016695958,0.06567996,0.66557884,0
12184000,-0.01677439,0.017359082,0.065739244,0.66557884,0
12188000,-0.01688055,0.017999051,0.06581987,0.66557884,0
12192000,-0.017498441,0.019279249,0.066482246,0.66557884,0
12196000,-0.01805168,0.015961615,0.0686495,0.67419666,0
12200000,-0.018487005,0.016499639,0.068818405,0.67419666,0
12204000,-0.018752426,0.017121853,0.06895377,0.67419666,0
12208000,-0.019235197,0.017786194,0.06904481,0.67419666,0
12212000,-0.01993784,0.018383441,0.06910425,0.67419666,0
12216000,-0.020518392,0.018933283,0.069185816,0.67419666,0
12220000,-0.020892438,0.0156986,0.0713041,0.6819662,0
12224000,-0.021109385,0.016305093,0.07148746,0.6819662,0
12228000,-0.021181166,0.016853668,0.07170678,0.6819662,0
12232000,-0.02128179,0.017363636,0.07187658,0.6819662,0
12236000,-0.021551827,0.017951755,0.07198812,0.6819662,0
12244000,-0.022292137,0.017009616,0.073227406,0.6889498,0
12248000,-0.022611948,0.01759989,0.07329353,0.6889498,0
12252000,-0.02319638,0.018167317,0.07338126,0.6889498,0
12256000,-0.023155548,0.018798312,0.07350981,0.6889498,0
12260000,-0.023756089,0.01937048,0.07360332,0.6889498,0
12264000,-0.0244664,0.01984712,0.073675506,0.6889498,0
12268000,-0.024944156,0.021210719,0.073315084,0.69525224,0
12272000,-0.025222648,0.021853542,0.07339102,0.69525224,0
12276000,-0.025798427,0.022425832,0.07347235,0.69525224,0
12280000,-0.026035361,0.023130445,0.07361129,0.69525224,0
12284000,-0.026562877,0.023748133,0.073660105,0.69525224,0
12288000,-0.02698274,0.02433855,0.07366453,0.69525224,0
12292000,-0.027512161,0.026208071,0.073709935,0.7009086,0
12296000,-0.027538689,0.026697408,0.073776774,0.7009086,0
12300000,-0.027471673,0.027152706,0.07383858,0.7009086,0
12308000,-0.028276166,0.028142812,0.07398665,0.7009086,0
12312000,-0.028495904,0.028571477,0.07414851,0.7009086,0
12316000,-0.02881259,0.02970341,0.07398264,0.706444,0
12320000,-0.029152654,0.03029364,0.074089386,0.706444,0
12324000,-0.029455937,0.0308683,0.07410937,0.706444,0
12332000,-0.030265445,0.031895593,0.074160516,0.706444,0
12336000,-0.030730054,0.032239474,0.074024364,0.706444,0
12340000,-0.031234685,0.033260144,0.07372469,0.7113837,0
12344000,-0.03132131,0.033742085,0.073781654,0.7113837,0
12348000,-0.03130185,0.034278046,0.07386678,0.7113837,0
12352000,-0.031565227,0.03485295,0.07392859,0.7113837,0
12356000,-0.032020412,0.0354243,0.0739598,0.7113837,0
12360000,-0.032573506,0.03593237,0.07401012,0.7113837,0
12364000,-0.033208728,0.036868796,0.073781185,0.71578217,0
12368000,-0.033759616,0.03730647,0.073813036,0.71578217,0
12372000,-0.034196872,0.03779883,0.07384302,0.71578217,0
12380000,-0.03485581,0.03876411,0.07390123,0.71578217,0
12384000,-0.034819677,0.03924235,0.07382035,0.71578217,0
12388000,-0.034914963,0.040149894,0.07352335,0.71973383,0
12396000,-0.03569435,0.04137727,0.07379741,0.71973383,0
12400000,-0.0358316,0.04190407,0.07389304,0.71973383,0
12404000,-0.035948608,0.04238756,0.07396892,0.71973383,0
12408000,-0.03618539,0.042807996,0.07400547,0.71973383,0
12412000,-0.036432568,0.043601237,0.07374302,0.72343516,0
12416000,-0.036849,0.044044293,0.07367158,0.72343516,0
12420000,-0.03736532,0.044560343,0.073646665,0.72343516,0
12424000,-0.037686292,0.04504741,0.073712245,0.72343516,0
12428000,-0.037947707,0.04546654,0.07378228,0.72343516,0
12432000,-0.038177222,0.04585789,0.073796205,0.72343516,0
12436000,-0.038428888,0.046671376,0.07357071,0.7267149,0
12440000,-0.039006814,0.047162406,0.0736133,0.7267149,0
12444000,-0.03974428,0.047646537,0.07369336,0.7267149,0
12448000,-0.04025154,0.048117477,0.07374078,0.7267149,0
12452000,-0.040450882,0.04860873,0.0737101,0.7267149,0
12456000,-0.040466223,0.04907175,0.0736574,0.7267149,0
12460000,-0.040536173,0.04984688,0.07345759,0.72964084,0
12464000,-0.040731307,0.050293807,0.07351812,0.72964084,0
12468000,-0.041023888,0.050760917,0.073555626,0.72964084,0
12472000,-0.041441083,0.051215816,0.07357038,0.72964084,0
12476000,-0.041793313,0.051643535,0.07356073,0.72964084,0
12480000,-0.041912727,0.052068505,0.073538676,0.72964084,0
12484000,-0.042028815,0.052858584,0.073341675,0.7322188,0
12488000,-0.042371083,0.053309098,0.07336922,0.7322188,0
12492000,-0.04270886,0.05382188,0.07344645,0.7322188,0
12496000,-0.04294256,0.054259922,0.07344698,0.7322188,0
12500000,-0.043242436,0.054687094,0.07339482,0.7322188,0
12504000,-0.043508887,0.05511013,0.073335364,0.7322188,0
12508000,-0.043692484,0.055829767,0.0731443,0.7345571,0
12511999,-0.04382244,0.056257643,0.07317473,0.7345571,0
12516000,-0.04414427,0.056731045,0.07318391,0.7345571,0
12520000,-0.044542167,0.05717256,0.0732093,0.7345571,0
12523999,-0.044746928,0.057543837,0.07329101,0.7345571,0
12528000,-0.044934105,0.057926036,0.07336804,0.7345571,0
12532000,-0.045195192,0.05867236,0.073219545,0.736606,0
12536000,-0.045564137,0.059193384,0.07320434,0.736606,0
12540000,-0.04600891,0.059684567,0.07323832,0.736606,0
12543999,-0.046073534,0.06006615,0.073115945,0.736606,0
12548000,-0.045993973,0.06041195,0.073115334,0.736606,0
12555999,-0.046448313,0.06158552,0.07296043,0.73841083,0
12560000,-0.04674518,0.0620507,0.072890505,0.73841083,0
12564000,-0.047096215,0.06247381,0.07294311,0.73841083,0
12568000,-0.047361035,0.06290012,0.073009,0.73841083,0
12572000,-0.0477959,0.06339039,0.07303633,0.73841083,0
12575999,-0.04830785,0.06384082,0.07301799,0.73841083,0
12580000,-0.04873035,0.06455968,0.07288435,0.7400079,0
12584000,-0.048608754,0.06484271,0.072862096,0.7400079,0
12587999,-0.048618566,0.06516346,0.07286139,0.7400079,0
12592000,-0.04887763,0.06588954,0.07307273,0.7400079,0
12596000,-0.04929652,0.066361785,0.07309875,0.7400079,0
12600000,-0.04959318,0.06682605,0.07305387,0.7400079,0
12604000,-0.049966767,0.0675453,0.07293424,0.7415957,0
12607999,-0.050313696,0.06797748,0.072967194,0.7415957,0
12612000,-0.050579756,0.06838053,0.07301183,0.7415957,0
12616000,-0.05075965,0.06879002,0.07309267,0.7415957,0
12619999,-0.050920032,0.06920958,0.07317042,0.7415957,0
12624000,-0.051306415,0.069612436,0.073204994,0.7415957,0
12628000,-0.051754333,0.07018252,0.07306577,0.74302745,0
12632000,-0.051816955,0.07053516,0.073046274,0.74302745,0
12636000,-0.052201867,0.070974335,0.073069215,0.74302745,0
12644000,-0.05217105,0.07173154,0.07308195,0.74302745,0
12648000,-0.052639313,0.07206762,0.07314238,0.74302745,0
