timestamp,gyro_rad[0],gyro_rad[1],gyro_rad[2],accelerometer_m_s2[0],accelerometer_m_s2[1],accelerometer_m_s2[2]
7500000,-0.001038678,-0.012786375,-0.001475778,-0.14188766,0.19667032,-9.858751
7504000,-0.001311606,-0.003995386,0.001837842,-0.118997194,0.24652831,-9.925516
7512000,0.00173987,-0.00500016,0.000458889,-0.08882478,0.2413148,-9.947867
7516000,0.002868949,-0.010677893,0.002324892,-0.082445234,0.26934582,-9.965811
7520000,0.003716241,-0.009061866,0.007417199,-0.13716936,0.1834496,-9.8925905
7524000,0.001304739,-0.00687512,-0.000619002,-0.16106713,0.08104358,-9.863023
7528000,0.00278105,-0.012988069,-0.00699734,-0.11489877,0.05136865,-9.872525
7532000,0.003026014,-0.012823377,0.002281226,-0.06323523,0.16568278,-9.9165945
7536000,-0.001271073,-0.007302473,0.003317515,-0.06360115,0.29078847,-9.978598
7540000,-0.000430118,-0.001062622,-0.000342003,-0.10111481,0.25668314,-9.958452
7548000,0.002641333,-0.009277078,6.21E-06,-0.047663327,0.20055339,-9.9617195
7556000,-0.008068337,-0.008923604,-0.004723833,-0.13091822,0.1570694,-9.994186
7560000,-0.002775885,-0.008241721,0.001929236,-0.106586315,0.119633645,-10.002758
7564000,0.000436368,-0.006646972,-0.001273475,-0.06720916,0.11931363,-9.929667
7572000,0.002669434,-0.009225079,-0.005059079,-0.14544839,0.19281858,-9.934388
7580000,-0.002536895,-0.003037855,0.00647016,-0.13409376,0.14048442,-9.898719
7584000,-0.002305471,-0.010893392,0.000953565,-0.113489985,0.1307847,-9.912711
7588000,-0.003441771,-0.009133259,-0.001172674,-0.047947135,0.18740927,-9.927804
7592000,-0.000542135,-0.002382518,-0.001200537,-0.07091165,0.2369625,-9.944404
7596000,-0.003604655,-0.004142889,-0.000907986,-0.108015545,0.16871534,-9.971491
7600000,-0.003915119,-0.005370347,0.006990906,-0.12752564,0.18131,-9.937109
7604000,-0.002588336,-0.004889373,0.004104173,-0.08327088,0.20304148,-9.886113
7608000,-0.007245003,-0.00813596,0.000326427,-0.10697728,0.22221737,-9.907139
7612000,-0.003767066,-0.011479154,-0.00166526,-0.105720155,0.21715885,-9.945163
7620000,-0.007252018,-0.005382337,-0.004365282,-0.15272303,0.14163873,-9.904356
7624000,-0.004840445,-0.004208562,6.67E-05,-0.11735977,0.12997168,-9.836543
7628000,0.001534598,-0.004030046,0.003659816,-0.12440633,0.14548513,-9.927953
7632000,-0.005422501,-0.004652333,-0.002724424,-0.10390646,0.15959921,-9.985437
7636000,-0.000727729,-0.008222403,-0.008325891,-0.048555046,0.18367678,-9.966356
7640000,0.000810234,-0.008669617,-0.002570938,-0.10143621,0.20080414,-10.037173
7644000,-0.000145635,-0.008667166,-0.002294881,-0.13288715,0.21824306,-9.9768915
7648000,0.000893454,-0.008150905,-0.003270491,-0.11736487,0.22832958,-9.846944
7656000,0.005522607,-0.011051179,-0.001793042,-0.11378571,0.06323072,-9.900921
7664000,-0.001863604,-0.012703465,-0.002412072,-0.015628103,0.2256408,-9.9702215
7668000,-0.003103037,-0.0142614,-0.006790727,-0.011696279,0.25361422,-9.944013
7676000,0.002942132,-0.007103002,0.000387098,-0.0784503,0.22022714,-9.945277
7680000,0.006861215,-0.009038067,0.001433496,-0.14791237,0.1745791,-9.946595
7684000,-0.000775309,-0.009276166,0.0024397,-0.14791237,0.1745791,-9.946595
7692000,0.002230944,0.004902654,0.002290402,-0.19298495,0.12904981,-9.9040365
7696000,0.000376866,0.005176697,-0.001295832,-0.124879025,0.18291727,-9.912565
7704000,-0.00117099,-0.002720518,-0.001536527,-0.15774705,0.19899388,-9.947522
7708000,-0.005628006,-0.003778268,0.001506002,-0.05937418,0.20874035,-9.891238
7712000,-0.001414094,-0.005040355,0.001729129,-0.06612626,0.20307666,-9.89197
7720000,0.00033552,-0.008050399,-0.001802095,-0.14396256,0.14136894,-9.977359
7724000,0.001261934,-0.005519116,-0.004504289,-0.13240014,0.17091249,-10.000705
7728000,-0.005395575,-0.00744132,-0.001814534,-0.085457586,0.18102713,-9.950362
7736000,-0.007223401,-0.002326044,0.000107138,-0.0616428,0.15629245,-9.932738
7740000,-0.003973728,-0.008429843,-0.001521161,-0.11359524,0.18067922,-9.986792
7744000,-0.007338211,-0.007077707,-4.21E-06,-0.18210492,0.20778446,-9.962962
7748000,-0.007671222,-0.007194385,0.002532271,-0.115080066,0.20598295,-9.938897
7752000,-0.00041702,-0.010143871,0.006999651,-0.09015175,0.20905726,-9.966273
7756000,-0.002323303,-0.007633315,0.006061054,-0.10880819,0.17225713,-9.972801
7760000,-0.005014929,-0.005742568,0.004826799,-0.081095435,0.18774286,-9.964127
7764000,-0.006102534,-0.006015488,0.001259132,-0.070156574,0.15371045,-9.951696
7772000,-0.000800222,-0.007736188,0.003751871,0.07875594,0.16191874,-9.898314
7776000,-0.005014134,-0.013135979,0.002377361,0.000198782,0.25763315,-9.916364
7780000,-0.004899479,-0.009853004,-7.24E-05,-0.06170773,0.31250054,-9.945095
7784000,-0.004333649,-0.004415494,-0.002166533,-0.021769745,0.21846777,-9.888113
7788000,-0.004397811,-0.01132308,-0.005238127,0.01109099,0.16817035,-9.905868
7792000,-0.004767919,-0.008567445,-0.011060184,0.012252409,0.1562772,-9.969225
7796000,-0.002316897,-0.003480937,-0.006544742,-0.030719878,0.16219698,-9.952556
7800000,0.002955491,-0.0063033,0.001164935,-0.058018167,0.1908614,-9.904182
7804000,0.005972483,-0.006228953,-0.00120631,-0.07380201,0.17936873,-9.809374
7808000,0.005115062,-0.003890741,-0.005502285,-0.10482278,0.16310328,-9.870025
7816000,-0.0014988,-0.008876821,0.005168365,-0.13488448,0.19088368,-9.958905
7820000,-0.00442046,-0.009171006,-0.000621935,-0.19038196,0.23240837,-9.926472
7824000,0.000967576,-0.004402912,-0.001064455,-0.17525648,0.22005676,-10.004786
7828000,0.000839369,-0.001723641,0.001615669,-0.139815,0.18855493,-10.058741
7836000,-0.005103743,-0.007636898,-0.000777087,-0.08467883,0.18371855,-9.924855
7840000,-0.003751625,-0.008165942,-0.002063124,-0.10131927,0.22935069,-9.933998
7844000,-1.67E-05,-0.006261922,-0.000284164,-0.123530015,0.16893356,-9.895133
7848000,-0.001897932,-0.002586679,4.08E-05,-0.104371585,0.13376698,-9.889686
7852000,-0.003798754,-7.44E-05,-0.003997509,-0.15314132,0.1676864,-9.934651
7856000,0.001298845,0.004160488,-0.003110105,-0.17974323,0.19476213,-9.953841
7864000,-0.003856113,-0.001992735,-0.001804496,-0.12518497,0.13113883,-9.879713
7868000,-0.002683975,0.000706319,-0.008202103,-0.13717124,0.123968706,-9.929307
7876000,-0.002527936,-0.004592611,-0.006185026,-0.014241934,0.21837176,-9.83765
7880000,-0.00459508,-0.010965974,-0.00452507,-0.075775936,0.2147087,-9.997641
7884000,-0.002421719,-0.007812651,0.001810043,-0.1495288,0.21624492,-10.023864
7892000,0.000236941,-0.006375459,-0.002437512,0.003625304,0.1488199,-9.934048
7900000,-0.000217149,-0.005839204,-0.007325214,-0.11171502,0.19719453,-10.004109
7908000,-0.002463835,-0.007084348,0.001368434,-0.09668349,0.07161558,-9.988525
7916000,5.29E-05,-0.002035408,-0.003287055,-0.08331594,0.22667152,-9.88192
7920000,-0.003148678,-0.003769607,-0.002293745,-0.16811174,0.15252528,-9.858584
7924000,-0.002397096,-0.006306169,0.001241441,-0.101191536,0.19220951,-9.865819
7928000,0.000426798,-0.009242636,-0.001719384,-0.05593914,0.23428118,-9.89197
7932000,0.002382176,-0.007360711,0.001390898,-0.081297554,0.18094847,-9.944231
7936000,-0.000824203,-0.000314717,0.002498407,-0.09784438,0.10552273,-9.933292
7944000,-0.009451606,-0.002794801,0.003189276,-0.06973371,0.1885537,-9.962117
7948000,-0.002367569,8.25E-05,0.002995727,-0.107216135,0.18895781,-9.941072
7952000,0.004219704,0.002569513,0.003734696,-0.06741385,0.149271,-9.909757
7960000,-0.002576987,-0.005859188,-0.002953507,-0.10785847,0.2473014,-9.965627
7964000,-0.002068555,-0.007900859,0.000476172,-0.13902171,0.24569044,-9.919359
7972000,0.006273017,-0.010579257,-0.002734703,-0.09091323,0.15154064,-9.914763
7976000,-0.001260528,-0.002940981,0.005296949,-0.069828786,0.11234764,-9.928623
7980000,-0.001757957,-0.001025123,0.007570002,-0.056849495,0.09560404,-9.945897
7984000,-0.000472245,0.002435842,0.004131692,-0.14242756,0.14113155,-9.9862995
7988000,-0.003132685,0.000177347,0.006865036,-0.13311093,0.17845741,-9.959788
7996000,-0.002095046,-0.003248217,-0.001602558,-0.11268105,0.12452455,-9.951786
8000000,-0.001532599,-0.003974247,-0.002977396,-0.09572766,0.14111724,-9.975234
8004000,-0.002687392,-0.01104674,-0.001421782,-0.121052854,0.14754926,-9.952277
8008000,-0.005379137,-0.007049174,0.003450105,-0.1350684,0.17434606,-9.861164
8012000,-0.003916354,0.000319573,-0.000262241,-0.20113173,0.186278,-9.905189
8016000,-0.0013815,-0.003170977,-4.94E-06,-0.1473122,0.21973212,-9.896804
8020000,-0.001835361,-0.005076867,-0.001080234,-0.09011405,0.1986721,-9.843292
8024000,-0.004398783,-0.006472535,-0.000296767,-0.13367027,0.10397482,-9.895622
8028000,-0.00319657,-0.012667289,0.001488805,-0.07399418,0.13020799,-9.915765
8032000,0.004195709,-0.013228593,0.000428338,-0.012447567,0.14461358,-9.883192
8036000,0.007220318,-0.006916728,-0.001295086,-0.016268477,0.15799798,-9.922056
8040000,0.001705002,-0.00316166,-0.005664406,0.050732784,0.2546045,-9.983945
8048000,-0.006069707,-0.003113284,-0.005406667,-0.09937004,0.20255327,-9.892654
8052000,-0.001760362,-0.003617266,-0.00245706,-0.058184564,0.17388672,-9.934399
8056000,0.004797075,-0.001615972,0.000707405,-0.045555316,0.17265943,-9.912411
8060000,-0.002045559,-0.009446735,0.005922466,-0.01930773,0.24825957,-9.831427
8064000,-0.001371377,-0.017983986,0.003367241,-0.00271139,0.28185153,-9.881401
8068000,0.004682008,-0.01696044,0.000867539,-0.06259858,0.20296158,-9.9528265
8076000,-0.004443208,-0.003385183,-0.000433967,-0.12953025,0.16985446,-9.903349
8080000,-0.002535653,-0.012014318,-0.002997811,-0.19047736,0.1988949,-9.912896
8084000,-0.004412239,-0.009288738,-0.005297502,-0.10480917,0.1414842,-9.886766
8092000,-0.001956968,-0.001027137,0.007184143,-0.11608628,0.112717085,-9.955499
8100000,0.002723757,-0.012569544,0.000774604,-0.0766344,0.17254126,-9.897537
8104000,-0.001161241,-0.012636965,-0.000524908,-0.13938265,0.22450894,-9.922042
8108000,-0.006027071,-0.007753164,0.003688742,-0.07482455,0.1830628,-9.928137
8116000,0.001984674,-0.009635942,-0.002136697,-0.09576444,0.15385686,-9.864371
8120000,-0.002289737,-0.013676554,0.000466749,-0.044318948,0.12850885,-9.981199
8124000,-0.002904685,-0.004372912,0.004070457,-0.102486506,0.17207615,-10.032418
8128000,-0.002128285,-0.003512243,0.004533262,-0.15999198,0.22510572,-9.95512
8132000,-0.001431411,-0.008898694,0.000765215,-0.09316738,0.21561815,-9.944553
8140000,-0.0088254,-0.00849093,0.002135665,-0.037137743,0.2344416,-9.883789
8144000,-0.005308039,-0.006055106,-0.000955489,-0.084725894,0.18282183,-9.911171
8148000,-0.001882033,-0.004063028,-0.005896078,-0.048227586,0.1672215,-9.925052
8152000,-5.06E-05,-0.003051919,0.000982154,-0.047866356,0.18007082,-9.920385
8160000,-0.005364987,-0.006856654,-0.001907413,-0.10988472,0.2636608,-9.912486
8164000,-0.003740786,-0.004803853,0.00139727,-0.07267756,0.19674802,-9.90768
8168000,-0.001289265,-0.000969873,-2.65E-05,-0.036484748,0.11778329,-9.877319
8172000,-0.002881979,-0.00499782,-0.001602048,-0.035768524,0.11807273,-9.833759
8176000,-0.001465351,-0.007778212,0.001937156,-0.05863471,0.12433705,-9.896044
8180000,-0.000375089,-0.009893724,0.001970442,-0.12107532,0.1664302,-9.962491
8184000,0.002211539,-0.010007784,-4.18E-05,-0.1362258,0.16315764,-9.971409
8188000,0.002519547,-0.013438655,-0.002501801,-0.12376762,0.13506679,-9.959193
8192000,-0.003019551,-0.008169857,-0.004352181,-0.117112555,0.15317284,-9.958259
8196000,-0.000592238,-0.010078503,-0.005217533,-0.1286836,0.19462542,-9.934822
8200000,-0.001984867,-0.017581692,-0.002357265,-0.103972055,0.16318703,-9.899358
8204000,-0.007241002,-0.008182419,-0.001357452,-0.0815125,0.11114128,-9.896391
8208000,-0.006195335,-0.003953767,-0.002680639,-0.07447153,0.13342449,-9.90112
8212000,-0.002007775,-0.006611975,-0.000980156,-0.104883,0.17038465,-9.949362
8216000,-0.001082563,-0.009518263,-0.00408823,-0.1666378,0.12135611,-9.913431
8220000,-0.004413278,-0.010131753,-0.00437406,-0.13239099,0.10272617,-9.900773
8224000,-0.001598326,-0.003463696,-0.001848816,-0.06611146,0.23359533,-9.925061
8232000,-0.004560719,-0.002911965,-0.003478912,-0.11400985,0.18726508,-9.900628
8236000,-0.001711667,-0.010350112,-0.003046517,-0.123185165,0.14410527,-9.904719
8240000,0.004209163,-0.004972037,0.005390712,-0.11803547,0.120570175,-9.947638
8248000,0.00207897,-0.008581306,-0.004162288,-0.13298216,0.12994047,-9.945705
8252000,-0.001231758,-0.014571572,-0.002255972,-0.15410554,0.19877213,-9.930019
8256000,0.000399937,-0.007931677,0.000536056,-0.10348287,0.18575808,-9.962849
8260000,0.002800679,-0.004561333,0.003270476,-0.032171052,0.20126444,-9.990755
8264000,-0.000505655,-0.008164652,0.000177151,-0.10350322,0.19208999,-10.016412
8268000,0.000863747,-0.009950762,0.00053704,-0.11463631,0.22962935,-9.999721
8276000,-0.006711448,-0.008998644,0.002670987,-0.20605308,0.21914287,-9.870519
8284000,0.000803931,-0.004314158,-0.003050549,-0.07940228,0.15062685,-9.965955
8288000,0.002402917,-0.000541461,-0.002508467,-0.08787688,0.18345605,-9.951418
8296000,0.006829357,0.001079103,0.004708935,-0.06048414,0.2473621,-9.920606
8300000,0.00486858,-0.000774296,0.002917394,-0.08342928,0.16561313,-9.864814
8308000,-0.004563003,-0.010014935,3.40E-05,-0.031156152,0.23850529,-9.932856
8316000,0.000951383,-0.007878853,-0.001331763,8.731433,0.15721457,-9.871292
8320000,0.001363546,-0.006811522,-0.002100072,19.302881,0.19993122,-9.764087
8324000,0.00360448,-0.001161212,-0.002693599,28.437761,0.20016395,-9.59882
8328000,0.001684359,-0.004200995,0.002884401,35.79628,0.16523449,-9.480112
8332000,-0.00407801,-0.006559158,0.003157897,41.448566,0.17717943,-9.492478
8336000,-0.003538776,-0.005497487,0.001775804,45.732162,0.20218076,-9.425492
8344000,0.001894138,-0.005117334,-0.004578247,50.710136,0.255279,-9.366938
8352000,0.000536501,-0.005512028,-0.002135902,52.66589,0.1775626,-9.251736
8356000,-0.000997299,0.000565531,-0.001942399,53.32015,0.18826903,-9.241351
8364000,-0.008816964,-0.006355779,-0.003636316,53.439976,0.16863418,-9.328935
8372000,-0.005311351,0.001898281,-0.003937193,52.81049,0.18493833,-9.33211
8380000,-0.001713398,-0.008259723,0.005842091,52.211624,0.19227,-9.261422
8384000,-0.006314375,-0.003033556,0.00010146,51.714993,0.13282531,-9.367391
8392000,-0.005304648,-0.010323831,0.000992735,50.42134,0.18026266,-9.387067
8396000,-0.004054966,-0.004975004,0.004576546,50.0315,0.16884193,-9.3709755
8400000,0.000574844,-0.004626057,-0.000555126,49.71575,0.15182228,-9.350407
8408000,-0.004502127,-0.002436647,-0.004177455,48.602135,0.19234666,-9.372876
8416000,-0.003145093,-0.006307276,0.00036487,47.544792,0.18210836,-9.397661
8420000,-0.001993788,-0.00027431,-0.001542653,47.232174,0.16215524,-9.409322
8424000,-0.001709622,-0.002126428,-0.000149076,46.73631,0.26370987,-9.392892
8428000,-0.007971572,-0.005539262,-0.000934505,46.174072,0.24460116,-9.4131565
8436000,0.00180218,-0.012436707,-0.000546581,45.359573,0.15987054,-9.412237
8440000,0.001596687,-0.009373728,-0.004159034,44.961914,0.23901333,-9.368627
8444000,0.003313061,-0.00119083,-0.003776404,44.57795,0.23779662,-9.418872
8448000,0.007353135,0.003381834,-0.004751964,43.982365,0.14488186,-9.424384
8452000,-0.002545091,0.003586822,-0.002223155,43.49454,0.14188609,-9.464296
8456000,0.002006435,0.004200892,-0.001290606,43.137447,0.19664767,-9.447111
8464000,0.003094645,-0.002389634,-0.002973172,42.560017,0.22400564,-9.408852
8472000,-0.006090752,-0.002831401,-0.002114862,41.577713,0.17762962,-9.493308
8476000,-0.004131482,0.002673357,-0.002760137,41.0981,0.13644412,-9.463464
8480000,-0.003208472,0.002873052,0.003455959,40.900936,0.18296598,-9.451751
8488000,-0.001822164,-0.008112593,-0.000695136,40.053093,0.17303802,-9.467792
8492000,-0.003234757,-0.001714381,0.001711123,39.58814,0.13765503,-9.470846
8496000,-0.002013306,0.002482734,-0.000968227,39.119263,0.13564116,-9.44317
8500000,-0.001958032,-0.005755689,0.004236044,38.82796,0.19584176,-9.45241
8504000,-0.004984324,-0.004937992,0.001757642,38.539448,0.17515288,-9.459169
8508000,-0.002497378,-0.007851132,-0.003640824,38.123287,0.12995335,-9.451933
8512000,-0.001334886,-0.008842438,-6.62E-05,37.650703,0.17321543,-9.546685
8520000,-0.005068015,-0.011657042,0.002024381,37.13368,0.19161016,-9.606977
8528000,0.001767863,-0.003547245,-0.000743624,36.284706,0.25075388,-9.486129
8536000,0.00383575,-0.003568325,-0.005318448,35.441185,0.25954863,-9.549166
8540000,-0.000177697,-0.000768479,-0.002282751,35.196323,0.25198594,-9.569044
8544000,-8.91E-05,0.000126524,-0.003129795,34.964092,0.26435825,-9.610724
8552000,-0.001358393,-0.003549896,-0.002680755,34.170494,0.2301046,-9.60653
8560000,0.001190832,-0.002087508,0.000900914,33.529636,0.20028684,-9.571645
8564000,0.001973624,-0.003933883,-0.002473732,33.330925,0.19651753,-9.5564
8568000,-0.001799944,-0.00908007,-0.007640594,33.08148,0.26107642,-9.572715
8576000,-0.001834675,0.000253311,-0.00064942,32.298195,0.15246555,-9.576069
8580000,1.84E-05,-0.003327509,-0.000886613,32.098625,0.15820709,-9.608099
8584000,0.001139102,-0.006693237,0.003117811,31.87593,0.20202333,-9.601411
8588000,-0.001193972,-0.009922392,0.002711269,31.596895,0.18543908,-9.557764
8596000,-0.001712121,-0.004482107,0.002798639,30.986683,0.106878884,-9.551345
8600000,0.000468331,-0.005506251,0.0125024,30.756102,0.049322274,-9.585827
8604000,-0.001723858,-0.010029275,0.006967053,30.566198,0.095421925,-9.577419
8608000,-0.001064067,-0.005391771,0.000492863,30.29698,0.1471461,-9.460524
8612000,-0.000563796,-0.008154931,0.002322319,29.99858,0.020382712,-9.5322695
8616000,0.000854323,-0.005075395,0.012236284,29.623617,-0.021919662,-9.603682
8620000,0.003790094,0.000286111,0.01629955,29.361837,-0.020410595,-9.567051
8624000,0.006894846,-0.005008156,0.007418501,29.258623,0.001424542,-9.604777
8628000,0.003025602,-0.007755098,0.014874559,29.025064,0.014878758,-9.518075
8632000,-0.001952657,-0.003759013,0.020984113,28.684261,-0.03204908,-9.550614
8636000,-0.000397228,-0.003340498,0.017395355,28.386446,-0.013938438,-9.614431
8640000,0.007673033,-0.005077495,0.019129723,28.17424,-0.032756116,-9.575376
8644000,0.002876031,-0.003387077,0.023406938,27.993307,-0.109587245,-9.6217165
8648000,-0.002622583,-0.007018237,0.03129054,27.8207,-0.057313893,-9.596651
8656000,0.000857348,-0.00459192,0.041864265,27.245932,-0.1391599,-9.610543
8660000,-0.001054685,-0.004526573,0.051496573,26.910173,-0.17847694,-9.6029
8664000,-0.006679753,-0.005526561,0.057182238,26.806889,-0.13631442,-9.614265
8668000,-0.001203597,0.002975943,0.056472782,26.681581,-0.1667599,-9.619094
8672000,0.001796262,0.003630156,0.06421631,26.424593,-0.22577883,-9.612313
8676000,-0.003903372,-0.000157932,0.076869845,26.18589,-0.27164108,-9.631072
8680000,-0.004247399,-0.000359904,0.07503431,25.8817,-0.33747697,-9.674648
8684000,-0.001637291,-0.001414284,0.081064984,25.683165,-0.26323602,-9.642883
8692000,-0.001842195,-0.005825396,0.09690919,25.274946,-0.24710487,-9.615436
8700000,0.004336227,-0.004857784,0.10656476,24.718739,-0.23504451,-9.676135
8704000,0.005299058,-0.003161441,0.104731135,24.52891,-0.16554374,-9.655712
8708000,0.003439508,-0.00690337,0.11696899,24.39442,-0.16973658,-9.787909
8712000,0.004043963,-0.003730521,0.12571578,24.162691,-0.13247056,-9.836235
8716000,0.00757842,-0.00744951,0.12724291,23.911959,-0.13023041,-9.804281
8724000,0.018393457,-0.006911,0.13967429,23.551432,-0.012797501,-9.912704
8728000,0.016549518,-0.004503453,0.13832384,23.31168,0.021098638,-9.986022
8732000,0.015700115,-0.001464359,0.13307983,23.146414,0.0381136,-9.916417
8736000,0.02463085,-0.000263398,0.13520075,22.921473,0.06780368,-9.89378
8740000,0.029874945,-0.003603949,0.13235216,22.72883,0.053753637,-9.949979
8744000,0.03209869,-0.01178682,0.13117485,22.550735,0.11207883,-9.977975
8748000,0.0361126,-0.008903291,0.12997334,22.420588,0.17568201,-9.999437
8752000,0.047070857,-0.007767521,0.13758643,22.53218,-0.032511063,-10.420331
8760000,0.066154696,-0.027637415,0.148067,22.253733,-0.24722393,-10.732758
8764000,0.07870967,-0.032471888,0.16282323,21.948763,-0.23148681,-10.809081
8768000,0.08572684,-0.04169114,0.16695562,21.80655,-0.16623376,-10.844276
8772000,0.09778048,-0.051585298,0.16611825,21.623056,-0.122492746,-10.813152
8776000,0.10730905,-0.06500908,0.17338467,21.423733,-0.08461463,-10.783236
8780000,0.119346105,-0.07179052,0.17903218,21.215788,-0.082803026,-10.775866
8784000,0.13187209,-0.07355229,0.17855902,20.994215,-0.11500781,-10.824124
8792000,0.14298786,-0.08762059,0.17857525,20.648993,-0.20304288,-10.76745
8800000,0.16605128,-0.11009006,0.19484143,20.052729,-0.117375776,-10.720305
8804000,0.17147276,-0.11429744,0.19296624,19.791298,-0.12498431,-10.652769
8808000,0.1817876,-0.119606875,0.19005102,19.720133,-0.12441691,-10.539049
8816000,0.20024054,-0.13097441,0.1938018,19.274256,-0.085481286,-10.483218
8820000,0.20659512,-0.13215883,0.19412544,19.004648,-0.15682766,-10.458952
8828000,0.22419387,-0.1333106,0.19522579,18.647072,-0.09069484,-10.328527
8832000,0.23322916,-0.13086624,0.19202621,18.551456,-0.13427122,-10.3564205
8840000,0.23924074,-0.14322792,0.18306144,17.930107,-0.17478645,-10.274957
8844000,0.24463591,-0.14226212,0.18655202,17.79845,-0.15546112,-10.269565
8848000,0.2541978,-0.14395648,0.18931559,17.671406,-0.12782921,-10.207951
8852000,0.25910544,-0.13879754,0.18212546,17.423962,-0.11167225,-10.154767
8856000,0.25964764,-0.13822356,0.17435445,17.140465,-0.1363544,-10.205834
8860000,0.25882444,-0.14109752,0.17004465,16.92981,-0.19468792,-10.199129
8864000,0.26473194,-0.14338571,0.16318195,16.799736,-0.22076643,-10.071911
8868000,0.27152184,-0.14062011,0.16257797,16.578215,-0.22325209,-10.087248
8876000,0.27480233,-0.14405516,0.15352564,16.25227,-0.2042465,-9.921203
8880000,0.27400523,-0.13447344,0.15122019,16.069077,-0.1942081,-9.904988
8884000,0.27907228,-0.1367772,0.14460519,15.880481,-0.13780123,-9.95272
8888000,0.2825761,-0.13704509,0.13851681,15.58479,-0.13281597,-10.009109
8892000,0.2851644,-0.12924804,0.12642516,15.443346,-0.23855609,-10.010546
8896000,0.2892004,-0.13096696,0.1211793,15.413571,-0.21320392,-9.881171
8900000,0.29329067,-0.1295688,0.11638042,15.24326,-0.21811102,-9.773152
8908000,0.29631612,-0.11244635,0.10032549,14.736381,-0.2606802,-9.755194
8912000,0.2987953,-0.10818248,0.09747578,14.527965,-0.23897123,-9.746358
8916000,0.29720727,-0.09575815,0.09128208,14.433757,-0.19816378,-9.771588
8920000,0.2979561,-0.08932925,0.08192132,14.301815,-0.19756861,-9.810587
8928000,0.30791935,-0.07998582,0.07200041,13.886467,-0.34303197,-9.757446
8932000,0.30356592,-0.06838495,0.058822308,13.796339,-0.26527524,-9.687614
8936000,0.30333343,-0.06875745,0.049339082,13.660584,-0.22366452,-9.680528
8940000,0.30549914,-0.06428424,0.044370763,13.413882,-0.26739302,-9.724195
8944000,0.30303863,-0.057092827,0.04446489,13.2185545,-0.36219868,-9.746897
8952000,0.30909044,-0.04076931,0.013416923,13.056792,-0.3504511,-9.754482
8956000,0.31230414,-0.03690231,0.017106235,12.941855,-0.2987645,-9.732204
8964000,0.3054548,-0.035359457,-0.002902602,12.5752125,-0.3779825,-9.695115
8968000,0.30918068,-0.027792804,-0.012127411,12.398436,-0.37903917,-9.682091
8972000,0.30838367,-0.020049017,-0.02774993,12.338863,-0.3915413,-9.700561
8976000,0.31060252,-0.008539309,-0.03252529,12.316676,-0.39822665,-9.767958
8980000,0.31379354,-0.006180874,-0.04163672,12.166845,-0.37040764,-9.788473
8984000,0.30544785,-0.012984251,-0.053864226,11.969643,-0.38610557,-9.801846
8988000,0.30240613,-0.011818193,-0.058461174,11.825846,-0.2961148,-9.862123
8992000,0.31165656,-0.002410905,-0.069008596,11.747329,-0.224051,-9.737482
8996000,0.3124402,0.000407882,-0.078539744,11.643186,-0.22271624,-9.737165
9000000,0.3085338,0.003384731,-0.08476929,11.570298,-0.17990898,-9.848743
9004000,0.31599408,0.015699605,-0.094558775,11.434172,-0.19057411,-9.742309
9008000,0.31499568,0.020981817,-0.101152174,11.218675,-0.2129587,-9.793865
9012000,0.30456492,0.016961854,-0.112358876,11.2061825,-0.16311705,-9.954343
9020000,0.30671284,0.011695867,-0.13314836,11.129666,-0.038859457,-9.793819
9024000,0.31049013,0.014948889,-0.13922435,11.002543,-0.08641776,-9.897437
9028000,0.31313655,0.02129732,-0.147657,10.905316,-0.07330057,-9.9473715
9032000,0.30715334,0.019495314,-0.14784937,10.888245,-0.005456014,-9.919382
9036000,0.3087266,0.019909082,-0.15807496,10.765727,0.084712714,-9.878237
9040000,0.3160028,0.029221967,-0.17042975,10.670907,0.14025198,-9.9023075
9044000,0.31376058,0.028512992,-0.17391205,10.566058,0.09916803,-9.959876
9052000,0.31152385,0.03535413,-0.18108764,10.402119,0.22094065,-10.008788
9056000,0.307083,0.035893474,-0.18695706,10.357258,0.230577,-9.984642
9060000,0.31277466,0.025626484,-0.19636148,10.341747,0.24294756,-9.967624
9064000,0.31967533,0.021863537,-0.20709927,10.209985,0.23417561,-9.964924
9068000,0.31614456,0.027831327,-0.2111891,10.212691,0.24745777,-9.928205
9072000,0.31246763,0.025507975,-0.21573329,10.067402,0.36655235,-9.90029
9080000,0.30927998,0.025857545,-0.22189033,9.809487,0.3762778,-10.0244665
9088000,0.30905333,0.019474959,-0.22842029,9.691118,0.376544,-10.02709
9092000,0.31030393,0.019116499,-0.23374052,9.525457,0.3368937,-9.972145
9096000,0.30234984,0.019813545,-0.24074286,9.462349,0.33915758,-9.944253
9100000,0.30202457,0.022759397,-0.23807679,9.386772,0.28384086,-10.025918
9104000,0.30991906,0.020683503,-0.23336491,9.33715,0.26588362,-10.088083
9108000,0.3031254,0.015560793,-0.23527728,9.296668,0.3391705,-10.040546
9116000,0.30396518,0.003702363,-0.23147963,8.982228,0.2998532,-10.09812
9120000,0.3007245,-0.001026311,-0.23401071,8.884657,0.30942392,-10.099564
9124000,0.2973219,-0.002656615,-0.230493,8.797084,0.2985085,-10.146576
9128000,0.29905093,0.002629011,-0.2284835,8.744655,0.23203622,-10.119456
9136000,0.3000152,-0.008523197,-0.2300611,8.5052185,0.13033706,-10.097771
9140000,0.3005239,-0.007701829,-0.21888581,8.379932,0.16530783,-10.075105
9148000,0.29252705,-0.002775868,-0.21258786,8.172639,0.016290847,-10.078581
9152000,0.29259193,-0.002841892,-0.21439928,8.132799,0.061128482,-10.160172
9160000,0.287634,-0.01148349,-0.20724358,7.934276,0.067914866,-10.178629
9164000,0.28840116,-0.009519362,-0.20225741,7.869227,0.018465767,-10.1600275
9168000,0.2804264,-0.009351542,-0.19948174,7.6899486,-0.026593838,-10.079645
9172000,0.2840506,-0.002070403,-0.19389254,7.6168885,-0.029115144,-10.111052
9176000,0.28813633,-0.004826426,-0.18436807,7.574813,-0.07089611,-10.187822
9180000,0.28026456,-0.005555281,-0.1801994,7.4228516,-0.14265418,-10.129549
9184000,0.27621365,0.000367147,-0.17983203,7.3628736,-0.15332943,-10.117086
9192000,0.27405682,0.007463221,-0.16514513,7.2658153,-0.12672096,-10.111717
9196000,0.26840433,0.004739837,-0.15841305,7.207315,-0.18587363,-10.126482
9200000,0.2705992,0.004704558,-0.14715225,7.069122,-0.16731231,-10.121802
9204000,0.27883705,0.004178042,-0.13703468,6.9265227,-0.1666955,-10.203382
9208000,0.27541322,0.004557025,-0.1373663,6.8121996,-0.15440194,-10.215693
9212000,0.26863992,0.009980899,-0.13048571,6.730669,-0.16913573,-10.158485
9220000,0.26541242,0.010313009,-0.120305136,6.546611,-0.19794965,-10.100357
9224000,0.26819357,0.014471416,-0.11508358,6.517101,-0.19665541,-10.239359
9232000,0.2604488,0.020650886,-0.09115511,6.423372,-0.18209463,-10.147962
9236000,0.25236478,0.0213077,-0.08019141,6.347879,-0.22476034,-10.20619
9244000,0.25540262,0.033123158,-0.06419447,6.2128725,-0.24177724,-10.3361435
9248000,0.25464836,0.031608775,-0.059513565,6.1068225,-0.26427224,-10.385249
9252000,0.2500473,0.034338668,-0.04998628,6.0239663,-0.23966056,-10.409189
9260000,0.24767064,0.036351677,-0.03300418,5.898,-0.24790995,-10.405489
9264000,0.24618743,0.04077402,-0.02411644,5.829581,-0.28939638,-10.476653
9268000,0.24558085,0.047382697,-0.014648073,5.8231306,-0.27963638,-10.431107
9276000,0.24401562,0.054224603,-0.002562443,5.600377,-0.34988725,-10.563235
9280000,0.24493796,0.056326747,0.002720661,5.5536857,-0.32678843,-10.597458
9284000,0.2454154,0.056177486,0.012229939,5.513027,-0.34977072,-10.669835
9288000,0.24055132,0.061557665,0.016342966,5.392812,-0.32670557,-10.656834
9296000,0.2376805,0.0810355,0.034133058,5.335633,-0.3088663,-10.799982
9300000,0.23457791,0.082822666,0.04626381,5.213429,-0.29111087,-10.848165
9304000,0.23169601,0.08222304,0.05550101,5.065325,-0.3502967,-10.853696
9308000,0.2272051,0.085302606,0.06039203,5.03104,-0.40090644,-10.963504
9312000,0.22212747,0.09300765,0.06364715,5.023733,-0.38822046,-11.021093
9316000,0.22169699,0.09735105,0.067496315,4.922133,-0.34081566,-11.088478
9324000,0.2274554,0.10486904,0.080659,4.7840657,-0.32248658,-11.308917
9328000,0.22039855,0.10834079,0.09102913,4.7939434,-0.2781211,-11.341668
9336000,0.21493721,0.118118495,0.111403205,4.545202,-0.26992378,-11.480555
9340000,0.21261892,0.1279013,0.120698355,4.461231,-0.25946632,-11.5521555
9344000,0.20801523,0.12995696,0.12014963,4.4866023,-0.23145801,-11.647782
9348000,0.20760101,0.13425742,0.11878922,4.4570994,-0.16611691,-11.771069
9352000,0.20991172,0.13675731,0.12968846,4.3297276,-0.16314156,-11.855252
9356000,0.20663951,0.13685872,0.13137163,4.262066,-0.18374455,-11.8803425
9364000,0.20241389,0.15309353,0.1486244,4.253086,-0.2947084,-11.984992
9368000,0.19485296,0.15585724,0.14555414,4.1553183,-0.23668875,-12.060686
9372000,0.19583295,0.15851942,0.14568149,4.0381265,-0.12953421,-12.111318
9376000,0.20292953,0.156668,0.15220483,3.9882324,-0.14839527,-12.224474
9380000,0.2011801,0.15570743,0.16066082,3.9820042,-0.20292291,-12.3574095
9384000,0.1965196,0.16111222,0.16925251,3.9172192,-0.17693079,-12.432076
9392000,0.19446234,0.17036937,0.16228719,3.7654665,-0.059100125,-12.663615
9396000,0.19748808,0.17959598,0.16440453,3.7148807,-0.12416837,-12.748677
9400000,0.19811054,0.18302974,0.17518209,3.736807,-0.13631466,-12.852712
9408000,0.1849134,0.1902269,0.17452618,3.6355526,-0.25954762,-12.904325
9416000,0.17724323,0.19067414,0.18394898,3.4874535,-0.20188636,-13.050146
9420000,0.17089634,0.2001512,0.18395855,3.410553,-0.16975637,-13.15036
9424000,0.17667805,0.19983184,0.17924617,3.4406204,-0.11182552,-13.251017
9428000,0.18098892,0.2009506,0.18102768,3.4322484,-0.071680136,-13.334638
9432000,0.18219194,0.20686707,0.18074024,3.309621,-0.059393834,-13.390786
9440000,0.17345764,0.20108965,0.17145151,3.325197,-0.14174126,-13.524274
9444000,0.17388646,0.20290907,0.17011061,3.3010728,-0.07614368,-13.685937
9448000,0.17032892,0.19741784,0.17774406,3.1529202,-0.08792559,-13.755206
9452000,0.16942261,0.20041049,0.17735973,3.1144445,-0.063738555,-13.785433
9456000,0.16986497,0.21097317,0.17204353,3.1230376,-0.05972175,-13.835032
9460000,0.16482323,0.21324068,0.17230682,3.0607388,-0.07086595,-13.917861
9464000,0.16288206,0.21525759,0.17531618,2.979491,-0.07922255,-13.947865
9468000,0.16047616,0.21718386,0.16838339,2.9238608,-0.053371616,-14.083762
9476000,0.16571043,0.2127598,0.16645217,2.9063787,-0.08748069,-14.072307
9480000,0.1653547,0.21006995,0.16573085,2.9023206,0.038036056,-14.1241
9488000,0.15861635,0.21447803,0.16055846,2.768191,0.06698623,-14.335958
9496000,0.1557813,0.22522496,0.14354567,2.7056067,0.06050241,-14.374155
9500000,0.15384209,0.2237143,0.14572255,2.6458468,0.058318693,-14.391293
9504000,0.15199271,0.21973334,0.13935064,2.670642,0.007859875,-14.407384
9508000,0.14685328,0.21761456,0.1346138,2.582266,0.028277555,-14.514495
9512000,0.14435278,0.2159604,0.1278625,2.4945393,0.08543566,-14.60932
9516000,0.14388582,0.2152959,0.1273642,2.5165503,0.12148677,-14.648406
9520000,0.14392264,0.21334179,0.12924346,2.5055864,0.11819359,-14.595674
9528000,0.14235146,0.2178405,0.119957745,2.447978,0.10577155,-14.608366
9532000,0.1387458,0.2154966,0.11469917,2.4172745,0.12946093,-14.654209
9536000,0.13181718,0.20825702,0.11162457,2.4345067,0.07078819,-14.664568
9540000,0.13170189,0.20136549,0.116840914,2.4151447,0.11758394,-14.653265
9544000,0.13183318,0.20356973,0.110691294,2.4151447,0.11758394,-14.653265
9552000,0.13183053,0.20460877,0.093341514,2.2925756,0.041637734,-14.675336
9556000,0.12338745,0.20340979,0.09864623,2.3136635,0.029068425,-14.691921
9560000,0.11828551,0.20658956,0.096094616,2.2533984,0.044493437,-14.747407
9564000,0.12650982,0.20571417,0.08723772,2.1348317,0.06035432,-14.800426
9568000,0.12280128,0.20000935,0.07980129,2.1136029,0.09175003,-14.797029
9572000,0.118948214,0.19626953,0.0738762,2.137992,0.08473567,-14.737521
9576000,0.12514022,0.19501029,0.06563973,2.138889,0.062920466,-14.710164
9584000,0.112031244,0.19105873,0.064062595,2.0530357,0.07167438,-14.667275
9588000,0.11026434,0.19221282,0.06333233,2.062118,0.05558473,-14.66063
9596000,0.116598666,0.19686052,0.05440112,2.0489058,-0.03410505,-14.640713
9600000,0.112001,0.19683924,0.04805756,1.957715,-0.039825205,-14.661016
9604000,0.11008425,0.1961371,0.045799524,1.9393398,0.05362854,-14.601422
9608000,0.107624486,0.1833546,0.03697608,1.9063742,0.06585188,-14.670358
9612000,0.108138405,0.17556806,0.03454961,1.9108317,0.054904778,-14.729446
9616000,0.10458726,0.18723437,0.03348059,1.9581103,0.06420432,-14.6645155
9620000,0.10023652,0.18902154,0.02649827,1.8758179,-0.03186634,-14.550772
9624000,0.10114151,0.18124445,0.020679068,1.8274382,-0.039047483,-14.504083
9628000,0.101617016,0.17976181,0.019377196,1.8998113,-0.052459262,-14.553484
9636000,0.09660345,0.17605716,0.0233063,1.7812172,-0.014590646,-14.410827
9640000,0.094447814,0.17239575,0.015952304,1.76023,0.115940966,-14.365004
9644000,0.0897286,0.17341453,0.011150438,1.8178697,0.11032906,-14.257066
9648000,0.087409616,0.17206517,0.013540238,1.8873523,-0.017062703,-14.261773
9652000,0.09175293,0.16235563,0.011130161,1.8682852,-0.044932123,-14.339802
9656000,0.0921146,0.16171065,0.002214627,1.839509,-0.05471871,-14.351626
9664000,0.08251596,0.17527637,0.004602853,1.7069345,-0.19832401,-14.215412
9668000,0.08648251,0.17360051,0.003581091,1.7073153,-0.14519034,-14.209086
9672000,0.091739744,0.16015074,0.000961693,1.7700331,-0.12588674,-14.127168
9676000,0.08517893,0.1636601,-0.0026824,1.7481095,-0.075774886,-14.125865
9680000,0.080479406,0.16658925,0.000933414,1.6738647,-0.046047382,-14.138773
9684000,0.08549867,0.1580099,0.00175429,1.6656317,-0.06871953,-14.096403
9688000,0.0860511,0.15419218,0.000628336,1.6813681,-0.14520381,-13.991177
9692000,0.08263889,0.1565004,-0.000404745,1.6597229,-0.14851297,-13.925224
9696000,0.07882871,0.15204427,-0.000332106,1.652599,-0.10428557,-13.964171
9700000,0.073614314,0.1504384,0.001515031,1.6780553,-0.16279474,-13.9842825
9704000,0.070585504,0.15456603,-0.003454763,1.6617497,-0.16552688,-13.971951
9708000,0.073071666,0.15202801,-0.004387045,1.6190094,-0.15648694,-13.875908
9716000,0.06859839,0.14041904,-0.005027209,1.6541221,-0.14862373,-13.708434
9720000,0.07613981,0.14761159,-0.00612383,1.6152393,-0.18642491,-13.695912
9724000,0.07719352,0.15622005,-0.004012726,1.5954496,-0.2319562,-13.723218
9728000,0.07239616,0.14801179,-0.000665135,1.5866939,-0.2264444,-13.696525
9732000,0.07373855,0.14344938,-0.001235852,1.5124396,-0.1704797,-13.660215
9736000,0.07200137,0.14957522,0.001992753,1.5281942,-0.21542546,-13.632194
9744000,0.070834205,0.14161016,-0.001567211,1.5066336,-0.26945648,-13.620988
9748000,0.06829617,0.14829476,0.006584292,1.5127046,-0.2817421,-13.620978
9752000,0.064093396,0.15301809,0.002556657,1.4817182,-0.27663574,-13.566908
9756000,0.0672129,0.14586039,0.000289222,1.4479208,-0.3071984,-13.53893
9764000,0.06741352,0.13505822,0.001184079,1.4338431,-0.304597,-13.421388
9768000,0.06711732,0.13326612,0.005826091,1.489123,-0.24766485,-13.401437
9772000,0.06525037,0.14172657,0.004742527,1.4777515,-0.22810821,-13.455399
9776000,0.068994075,0.1471703,1.36E-05,1.4365971,-0.25414726,-13.417764
9780000,0.07411639,0.14608154,0.005338452,1.3808753,-0.3058429,-13.323392
9784000,0.07200429,0.14170222,0.018328063,1.3718488,-0.29454163,-13.303866
9788000,0.06989239,0.1392389,0.024402214,1.4152954,-0.3552288,-13.305708
9792000,0.06361616,0.13885973,0.018881636,1.4595418,-0.28867513,-13.299396
9800000,0.064241864,0.14347573,0.02565342,1.3414149,-0.2508716,-13.320438
9804000,0.06472203,0.14361,0.029281575,1.3254,-0.30863,-13.32635
9808000,0.063928,0.1326981,0.02908939,1.3402041,-0.3946736,-13.242304
9812000,0.059099417,0.13194264,0.026967622,1.3499597,-0.3858772,-13.181888
9816000,0.056712978,0.13546681,0.027367106,1.3464063,-0.28894585,-13.204211
9820000,0.057942852,0.13504331,0.035298225,1.3372573,-0.34687525,-13.223047
9824000,0.061698724,0.13257329,0.03938135,1.2990179,-0.38561466,-13.277239
9832000,0.060194783,0.14629593,0.041072857,1.324055,-0.3207858,-13.162467
9836000,0.057745334,0.14953727,0.041110408,1.2669092,-0.2919264,-13.151971
9844000,0.05779356,0.14336075,0.045136556,1.2529937,-0.39322972,-13.183086
9848000,0.060003042,0.14430018,0.043552276,1.2857324,-0.3556987,-13.144441
9856000,0.05055599,0.14289445,0.05289876,1.2702497,-0.37976393,-13.13509
9860000,0.059038293,0.14258665,0.05488435,1.2431026,-0.40138432,-13.164577
9864000,0.06300095,0.1391948,0.057502594,1.2064627,-0.39793986,-13.213097
9872000,0.052487258,0.14745663,0.060037035,1.2171452,-0.2839528,-13.152057
9876000,0.04982003,0.14414382,0.05945685,1.2213519,-0.30319393,-13.184806
9880000,0.051461816,0.140788,0.066693954,1.2019184,-0.3634922,-13.179373
9884000,0.050625186,0.14424782,0.067374766,1.1861948,-0.31000823,-13.138772
9888000,0.052453738,0.1454119,0.07007723,1.1694494,-0.30167693,-13.120526
9892000,0.052421317,0.1466336,0.069636814,1.1668037,-0.34791467,-13.124749
9900000,0.045593902,0.14673746,0.067613885,1.0735697,-0.28177822,-13.248356
9904000,0.056303497,0.14843939,0.075635254,1.1124463,-0.32175997,-13.217907
9908000,0.054463293,0.14769821,0.07627287,1.1892762,-0.3815446,-13.154487
9912000,0.052347887,0.15121584,0.07849014,1.1793679,-0.421608,-13.135442
9916000,0.046983823,0.15298662,0.08154795,1.1177495,-0.33351818,-13.180247
9924000,0.048132785,0.15184876,0.08586518,1.1644272,-0.3631592,-13.215807
9928000,0.04766039,0.15686594,0.08420219,1.1381214,-0.3728459,-13.216972
9932000,0.04885373,0.15924448,0.08668299,1.1015941,-0.34473783,-13.262198
9936000,0.043629326,0.15569039,0.08667269,1.1030605,-0.3541945,-13.220519
9940000,0.044939395,0.15308636,0.08437253,1.101724,-0.37408814,-13.196084
9944000,0.04384676,0.15204929,0.08495675,1.049335,-0.33760354,-13.224459
9948000,0.041481152,0.15125868,0.087685645,1.0365405,-0.35982984,-13.229042
9952000,0.04602511,0.1529801,0.090295464,1.0371896,-0.38050798,-13.252858
9960000,0.048553456,0.1526136,0.09894884,1.1382592,-0.37172925,-13.213547
9964000,0.041971456,0.15379651,0.09734109,1.078922,-0.3730849,-13.207773
9972000,0.042540185,0.15912417,0.08614148,1.0599694,-0.39356938,-13.245948
9976000,0.044187013,0.1620107,0.09029647,1.0355422,-0.41600823,-13.245273
9980000,0.044322096,0.16280296,0.09375323,1.0162054,-0.366262,-13.254695
9984000,0.04363933,0.15578401,0.09648465,1.0162054,-0.366262,-13.254695
9988000,0.044034883,0.1551999,0.09614761,1.0760517,-0.3483182,-13.281512
9992000,0.043842632,0.1608423,0.09214444,1.0379593,-0.35680377,-13.32408
9996000,0.038649317,0.16100796,0.09642433,0.93920684,-0.39376366,-13.324253
10000000,0.035294678,0.16231592,0.0945747,0.97650796,-0.37350672,-13.323306
10004000,0.03951267,0.16210502,0.086270474,1.0712287,-0.33259532,-13.359185
10008000,0.04149604,0.15843464,0.08512259,1.035678,-0.35341263,-13.362785
10016000,0.031184966,0.16121386,0.09776411,0.961662,-0.34555528,-13.4356575
10020000,0.0339314,0.16263318,0.097673774,0.9669482,-0.36793894,-13.470853
10024000,0.03933853,0.16315499,0.095278464,0.9562227,-0.36609283,-13.464427
10032000,0.038322095,0.16177373,0.088563114,1.0429441,-0.36539987,-13.334812
10036000,0.03931876,0.16410704,0.09221816,1.0070671,-0.39734095,-13.457263
10040000,0.040845793,0.16338657,0.091307506,0.9211497,-0.32339436,-13.504231
10048000,0.03860699,0.16306075,0.088797,0.9728558,-0.3969865,-13.416878
10052000,0.03622172,0.16932425,0.089987,1.0155507,-0.36540046,-13.447887
10060000,0.033362012,0.1776524,0.10008627,1.1035328,-0.36050588,-13.544728
10064000,0.03078413,0.17686781,0.09550732,1.0197185,-0.3192194,-13.563136
10072000,0.031013394,0.17056231,0.07450456,0.9345879,-0.27271438,-13.537139
10076000,0.036837418,0.16866334,0.083537005,1.0460025,-0.26031202,-13.562745
10080000,0.03647897,0.16999613,0.08530103,1.0658393,-0.2311548,-13.565378
10084000,0.03487433,0.16453041,0.0831415,0.94422364,-0.2500486,-13.492892
10088000,0.03399032,0.1673443,0.08131815,0.8740015,-0.3048292,-13.440155
10092000,0.0323316,0.16925149,0.08171104,0.883982,-0.36076748,-13.454824
10096000,0.027475134,0.16333386,0.07767054,0.93594015,-0.33160535,-13.502612
10100000,0.021535918,0.16740085,0.06857208,0.94534427,-0.3375193,-13.536059
10104000,0.02540884,0.16330428,0.07076443,0.8912485,-0.35273504,-13.514694
10112000,0.02889987,0.16618685,0.07611106,0.91770405,-0.3549749,-13.555663
10116000,0.026485268,0.17049202,0.075771615,0.9021781,-0.3638002,-13.503343
10120000,0.026581144,0.16976319,0.07788393,0.9169361,-0.32696894,-13.452464
10128000,0.024314264,0.17143226,0.0655147,0.9635799,-0.25867307,-13.53662
10132000,0.01865244,0.16651785,0.06968883,0.9654487,-0.25557896,-13.542242
10136000,0.021084452,0.16723694,0.071884476,1.0284342,-0.30839288,-13.488559
10144000,0.025414456,0.17295212,0.07144455,0.8987404,-0.30607817,-13.583849
10148000,0.025545496,0.16222382,0.06833483,0.96861726,-0.36486045,-13.527219
10156000,0.019117827,0.16298544,0.058273,0.87918425,-0.43306366,-13.540176
10164000,0.021897867,0.1628125,0.05958479,0.9578209,-0.36283436,-13.604385
10168000,0.025753424,0.1628196,0.060955394,0.95513344,-0.35102847,-13.572417
10172000,0.024994852,0.16202402,0.05693821,0.9723815,-0.35901347,-13.526088
10180000,0.019585079,0.16856101,0.059168123,0.9399634,-0.44132373,-13.585816
10184000,0.025178328,0.16395982,0.05661866,0.9209301,-0.39122257,-13.47531
10188000,0.025281874,0.15923078,0.054007486,0.90241057,-0.41705933,-13.474855
10192000,0.023793576,0.1605961,0.052307583,0.8682004,-0.41873053,-13.519261
10196000,0.022230454,0.15677947,0.05048444,0.9159573,-0.4245664,-13.564972
10200000,0.018699888,0.16199934,0.054535687,0.921466,-0.38958916,-13.594525
10204000,0.013722767,0.1651584,0.05377633,0.92431706,-0.36820045,-13.589906
10212000,0.020743404,0.15707767,0.047079198,0.9002418,-0.45916855,-13.474523
10220000,0.014685873,0.16131863,0.050845332,0.9547098,-0.40601766,-13.496156
10224000,0.00949569,0.16318333,0.046896648,0.9315451,-0.35768902,-13.393926
10228000,0.014255279,0.16784167,0.047604147,0.94164747,-0.39974412,-13.381672
10236000,0.017563643,0.16033415,0.0414025,0.99880075,-0.37780195,-13.445378
10240000,0.019276187,0.16180767,0.047371432,0.9537825,-0.45748678,-13.420112
10248000,0.01820473,0.15735926,0.051313013,0.935033,-0.41478094,-13.362497
10252000,0.018005678,0.15837064,0.046768673,0.9059886,-0.43097603,-13.346072
10260000,0.019280342,0.16533114,0.04711257,0.98112607,-0.50674677,-13.409193
10268000,0.019555299,0.15974894,0.04179885,0.9523482,-0.46648905,-13.346579
10276000,0.014431592,0.16109428,0.040827822,0.94608957,-0.5353333,-13.335616
10280000,0.009404497,0.1593249,0.042997997,0.94950104,-0.5786535,-13.395168
10284000,0.014225392,0.15375742,0.04587903,1.0067192,-0.5402335,-13.355475
10288000,0.016556546,0.15418345,0.047516957,0.9387772,-0.43645182,-13.329386
10292000,0.015539886,0.1577669,0.044040266,0.9844699,-0.4097062,-13.351503
10296000,0.011615726,0.15833998,0.036690306,1.023253,-0.5238037,-13.399927
10300000,0.016749797,0.15393978,0.038963273,0.9726398,-0.5558736,-13.365382
10304000,0.020204356,0.15627746,0.045709893,1.0220631,-0.55044526,-13.291927
10312000,0.008255413,0.14948167,0.042087734,0.90641814,-0.6103339,-13.226658
10316000,0.003932714,0.14930809,0.04072355,0.89759815,-0.50612247,-13.168904
10324000,0.014371261,0.15430596,0.041320182,0.9693387,-0.46639237,-13.290055
10332000,0.013092678,0.1588577,0.03300587,1.032694,-0.50829744,-13.416749
10336000,0.012087377,0.15537114,0.037236262,1.0009894,-0.5109717,-13.357936
10340000,0.006809577,0.15481682,0.041118275,1.0105658,-0.5028511,-13.256344
10348000,0.00946136,0.15645844,0.046988107,1.03719,-0.57534695,-13.304166
10352000,0.011430939,0.15670308,0.04206576,1.0605392,-0.61996555,-13.318149
10356000,0.00982597,0.15159954,0.04440764,1.003242,-0.53284216,-13.286361
10360000,0.003549067,0.15443969,0.043444104,0.9709044,-0.49253455,-13.226148
10364000,0.00185646,0.16051263,0.043704983,0.9526139,-0.53967214,-13.184242
10368000,0.008570148,0.1592531,0.041930627,0.9432619,-0.5413748,-13.194716
10372000,0.008897857,0.14978972,0.047432497,0.9434588,-0.56048167,-13.24046
10376000,0.005539311,0.14932801,0.05549554,0.9447066,-0.61290234,-13.2568865
10380000,0.005496002,0.15642697,0.053551648,1.0195422,-0.61773604,-13.229093
10384000,-7.43E-05,0.1570071,0.050388172,0.9726934,-0.54474795,-13.177542
10388000,-0.001057261,0.15469556,0.051472217,0.9739747,-0.5176532,-13.161495
10392000,0.000598883,0.15596317,0.053096883,1.0214907,-0.5426785,-13.166052
10396000,0.002916177,0.15678994,0.05838425,0.9390039,-0.5446902,-13.261407
10400000,0.009780845,0.15710796,0.06055445,0.9610289,-0.5463168,-13.27131
10404000,0.008455534,0.15399992,0.050708737,1.063055,-0.5612876,-13.206899
10412000,0.000666782,0.15932296,0.06022824,0.9861309,-0.5207975,-13.16064
10416000,0.001756085,0.16039735,0.056938067,1.0492043,-0.65903234,-13.250596
10424000,0.005740767,0.15319549,0.056249768,1.0235238,-0.5178471,-13.12555
10428000,-0.004976177,0.15679842,0.056239244,1.0472972,-0.5528198,-13.16069
10432000,-0.001137771,0.14828727,0.05436418,0.9999743,-0.60208845,-13.118104
10436000,0.002946479,0.15379018,0.057346486,0.9488439,-0.5513395,-13.1174965
10440000,-0.000284137,0.16020536,0.051912256,0.9858916,-0.61317205,-13.192988
10448000,0.000552939,0.15634674,0.053705007,0.96110076,-0.554451,-13.136748
10452000,0.000367224,0.15328263,0.05576396,1.0803498,-0.57791686,-13.208887
10456000,0.000213302,0.15474203,0.05513739,1.1034596,-0.5699611,-13.222408
10460000,-0.000207559,0.16137409,0.05340457,1.0566144,-0.64512616,-13.263906
10468000,-0.004723426,0.15708062,0.059498727,1.0303075,-0.6162909,-13.261115
10472000,-0.007654889,0.15720285,0.05695081,0.97966856,-0.63049424,-13.198148
10476000,-0.006182425,0.15835768,0.05488421,1.0034049,-0.60546815,-13.174876
10484000,0.006265137,0.16776632,0.061816446,1.0845731,-0.6415825,-13.160192
10488000,0.000229014,0.16584003,0.06590835,1.0931944,-0.6544553,-13.117617
10492000,-0.002260177,0.16184099,0.06619611,1.0620193,-0.62070346,-13.151984
10496000,0.001666209,0.16112846,0.06267065,1.1053358,-0.5963251,-13.139986
10504000,0.001093473,0.16001843,0.06355164,1.1631881,-0.60293597,-13.1512785
10508000,-0.000153322,0.16294678,0.064975195,1.139389,-0.5949391,-13.1690645
10512000,0.001420658,0.15847117,0.058275025,1.131616,-0.59881747,-13.184127
10520000,0.004048649,0.1643779,0.06489992,1.0903188,-0.596919,-13.145885
10524000,0.001210455,0.16178772,0.06313331,1.1194857,-0.6894161,-13.197317
10528000,0.001716448,0.16499971,0.064564824,1.1051489,-0.63293564,-13.194487
10536000,0.003826306,0.15954313,0.06444989,1.0853642,-0.62189895,-13.283963
10540000,-0.000634637,0.16199183,0.06664468,1.1283011,-0.66795295,-13.339763
10544000,0.002727931,0.16625291,0.06854181,1.0734509,-0.70126486,-13.291623
10548000,0.000268859,0.16574103,0.06886602,1.0183342,-0.71645564,-13.319743
10552000,-0.006506234,0.16782086,0.063003466,1.1028243,-0.69467765,-13.24289
10556000,-0.000893187,0.17019174,0.062242772,1.1331027,-0.6894919,-13.191172
10564000,-0.011259592,0.16339111,0.06499197,1.1647735,-0.5359997,-13.252436
10568000,-0.007444966,0.16235952,0.0716679,1.1010866,-0.60136795,-13.2876215
10576000,-0.005203636,0.16262846,0.06524913,1.171707,-0.69205844,-13.225728
10580000,0.000488548,0.16608605,0.067295976,1.2036304,-0.7268123,-13.193691
10584000,-0.005057784,0.16515775,0.07080917,1.2019421,-0.66647303,-13.251874
10588000,-0.010675078,0.16648647,0.06768713,1.1326895,-0.6550829,-13.286807
10592000,-0.009283391,0.1667686,0.06286935,1.1382114,-0.6441901,-13.271863
10600000,-0.003538896,0.16255349,0.065806925,1.1236981,-0.55273795,-13.231222
10604000,0.001052693,0.16696283,0.061237503,1.1242803,-0.63590086,-13.2204485
10608000,0.001910235,0.16930245,0.057180423,1.1261926,-0.663218,-13.265232
10616000,0.002674763,0.17238803,0.06412586,1.143291,-0.6121401,-13.292395
10620000,0.002317141,0.16512558,0.06564141,1.2172314,-0.60027015,-13.269343
10628000,-0.000939415,0.1710886,0.06846248,1.1691108,-0.66601616,-13.299873
10632000,-0.003354837,0.1738847,0.06815424,1.176768,-0.6599803,-13.293373
10636000,-0.006121307,0.16884649,0.06267537,1.1289506,-0.650212,-13.266931
10640000,-0.005038262,0.16944529,0.060740013,1.2110342,-0.71750337,-13.332329
10648000,-0.009892319,0.17440714,0.06412375,1.248043,-0.6147047,-13.371667
10652000,-0.0029256,0.1754871,0.066621006,1.2422945,-0.62162125,-13.270068
10656000,-0.000164296,0.17284022,0.06645186,1.2715997,-0.63836753,-13.284862
10660000,-0.002134251,0.17354982,0.070053674,1.2288415,-0.631239,-13.33361
10664000,-0.005061805,0.17385316,0.06726644,1.2517607,-0.599162,-13.382935
10668000,-0.013376047,0.17263556,0.0608485,1.1764808,-0.6121028,-13.399877
10672000,-0.01338324,0.18116078,0.060032073,1.0700114,-0.60608536,-13.321095
10676000,-0.00518043,0.18203649,0.0632763,1.1203244,-0.6315406,-13.282406
10680000,-0.007615137,0.1663504,0.063208826,1.1986332,-0.647027,-13.312673
10684000,6.53E-05,0.16273895,0.06008213,1.2363807,-0.6561882,-13.325234
10692000,-0.003308638,0.17177844,0.06296988,1.26319,-0.61112666,-13.449506
10696000,-0.004190748,0.17225677,0.06367837,1.2488843,-0.6435686,-13.336297
10700000,-0.006199627,0.17283762,0.061990123,1.2767043,-0.73088336,-13.348719
10704000,-0.006002738,0.17126678,0.057155523,1.3071799,-0.69186294,-13.451672
10708000,-0.004463228,0.17453064,0.060548864,1.2893975,-0.6620012,-13.409297
10716000,-0.007630809,0.17049609,0.059554543,1.2566626,-0.72579455,-13.365406
10720000,-0.012967549,0.17058891,0.055705193,1.2413685,-0.70498616,-13.41253
10728000,-0.018129807,0.16899323,0.055134326,1.3809576,-0.73304206,-13.402004
10732000,-0.015720189,0.17335545,0.05041321,1.3671392,-0.7136246,-13.409774
10736000,-0.011153068,0.17599401,0.05291378,1.3095386,-0.6980751,-13.383885
10740000,-0.003970268,0.17295842,0.05865539,1.3384026,-0.6669952,-13.394598
10748000,-0.010172712,0.18298922,0.054599967,1.2884761,-0.77261317,-13.382909
10752000,-0.005950023,0.17870447,0.051214457,1.3683273,-0.79821146,-13.386098
10760000,-0.012264506,0.1704113,0.049380325,1.3907068,-0.75415146,-13.408471
10764000,-0.016653895,0.1723339,0.055633087,1.3922431,-0.72768575,-13.467666
10768000,-0.010766191,0.17849307,0.050798632,1.3704661,-0.67097056,-13.508601
10772000,-0.008337881,0.1734972,0.047307692,1.3188944,-0.71360373,-13.447659
10776000,-0.014176094,0.17574567,0.05243419,1.2956525,-0.6915452,-13.421839
10780000,-0.012877719,0.18183365,0.05384274,1.282075,-0.6928746,-13.409897
10788000,-0.005345868,0.17200297,0.0506356,1.3676733,-0.63105106,-13.386891
10792000,-0.00766309,0.17357586,0.04998238,1.3364787,-0.67664254,-13.377503
10796000,-0.009656783,0.17592213,0.043317173,1.2935715,-0.7877742,-13.448478
10800000,-0.01154754,0.17484745,0.04265107,1.3023949,-0.8017781,-13.497816
10804000,-0.011744324,0.1728342,0.05190618,1.3945453,-0.72584987,-13.4820795
10808000,-0.015427144,0.18019675,0.05430934,1.4295887,-0.69545454,-13.361253
10812000,-0.015268257,0.17834134,0.050648358,1.3686918,-0.69718254,-13.315499
10816000,-0.019100815,0.17289266,0.048078083,1.4236164,-0.72613865,-13.372889
10820000,-0.021663567,0.18076622,0.048557647,1.4210136,-0.7618569,-13.379865
10824000,-0.010374195,0.17946352,0.05391506,1.3429053,-0.69271356,-13.418284
10828000,-0.008636178,0.17722598,0.049778763,1.3686295,-0.6288915,-13.457515
10832000,-0.012867235,0.17792043,0.045570552,1.3553673,-0.6493165,-13.475657
10840000,-0.011884809,0.17325336,0.05288769,1.4812912,-0.7730476,-13.4011545
10848000,-0.016711922,0.17946428,0.048981555,1.4259697,-0.74809825,-13.450032
10852000,-0.014565978,0.1777512,0.044147443,1.4636415,-0.72568136,-13.451541
10856000,-0.01910456,0.17276756,0.048897933,1.4260542,-0.7558251,-13.456327
10860000,-0.017344669,0.17196058,0.04995854,1.4373486,-0.81740016,-13.393212
10864000,-0.010432003,0.17361489,0.043111652,1.4435093,-0.80276394,-13.338706
10868000,-0.013119317,0.16878448,0.04425441,1.4787548,-0.7905237,-13.382906
10872000,-0.011431093,0.16972709,0.043986786,1.4532531,-0.8763234,-13.42084
10880000,-0.011069668,0.1790416,0.04947271,1.4983462,-0.72517115,-13.396532
10888000,-0.013412182,0.1746743,0.04902741,1.4346323,-0.7391078,-13.432771
10896000,-0.020119434,0.17790987,0.044605922,1.4717553,-0.7587242,-13.387144
10900000,-0.01791079,0.1800341,0.046762224,1.5468631,-0.74515253,-13.4050255
10908000,-0.025688564,0.17064501,0.045291677,1.529816,-0.7032036,-13.407031
10916000,-0.025405353,0.1742537,0.046421345,1.5072378,-0.77052754,-13.4581585
10920000,-0.025749315,0.17490932,0.04242057,1.539689,-0.7612716,-13.417563
10924000,-0.018564995,0.17568816,0.035677712,1.5735387,-0.78765076,-13.403954
10928000,-0.012140089,0.17199689,0.04455432,1.4970545,-0.88398224,-13.433269
10936000,-0.020999273,0.17932948,0.05618672,1.5729353,-0.6791311,-13.440219
10940000,-0.015595128,0.1705239,0.053245354,1.5817302,-0.7060669,-13.443553
10944000,-0.02175365,0.16473535,0.048231672,1.614438,-0.74645543,-13.433596
10948000,-0.026925374,0.16340314,0.048591718,1.6049258,-0.7839892,-13.432775
10956000,-0.02008696,0.16390452,0.046850994,1.5567797,-0.795677,-13.4158
10960000,-0.018085634,0.16076455,0.04856388,1.5985037,-0.791568,-13.390886
10964000,-0.018638039,0.16508348,0.048350144,1.5686235,-0.7816778,-13.412611
10968000,-0.019118767,0.15711957,0.049930558,1.5472122,-0.8061892,-13.394665
10972000,-0.013879895,0.15517457,0.05042465,1.5502946,-0.79490346,-13.320274
10976000,-0.009858431,0.15505788,0.047467794,1.5699962,-0.8304998,-13.3302555
10980000,-0.013493404,0.15133464,0.046463445,1.6025907,-0.7340759,-13.303387
10984000,-0.018736338,0.14834896,0.047543578,1.6185843,-0.7600306,-13.252706
10992000,-0.018927097,0.13948883,0.04757331,1.6031146,-0.8404501,-13.254369
10996000,-0.022148658,0.13994728,0.048906706,1.689106,-0.86823934,-13.194708
11000000,-0.023180248,0.13676785,0.053155445,1.6764534,-0.8112343,-13.18605
11008000,-0.004098626,0.13674879,0.04951844,1.7100285,-0.83397305,-13.065088
11016000,0.07207866,0.12991785,0.052458256,1.6752164,-0.8227754,-13.053773
11020000,0.1095248,0.12888394,0.055831123,1.6275058,-0.8103194,-13.058018
11024000,0.13814294,0.12864925,0.053576868,1.685506,-0.83220834,-12.985426
11032000,0.21087569,0.12248304,0.053904206,1.6458243,-0.86936665,-12.964798
11036000,0.2354614,0.12471521,0.059197344,1.6563711,-0.88946587,-12.89407
11044000,0.28793806,0.12397983,0.062197544,1.6802703,-0.91809374,-12.788434
11048000,0.3113353,0.13072258,0.060652256,1.7512151,-0.88539124,-12.749046
11052000,0.3338857,0.12880914,0.063950196,1.7358689,-0.86984646,-12.673705
11056000,0.352332,0.12070361,0.063145675,1.6823356,-0.8395171,-12.609528
11064000,0.3846038,0.12838928,0.06809422,1.6971714,-0.7726026,-12.651765
11068000,0.40025833,0.121378236,0.07208936,1.7065328,-0.7693561,-12.612352
11072000,0.41535762,0.115277626,0.07100662,1.7978803,-0.7622876,-12.575281
11076000,0.43109673,0.118693665,0.072112,1.8121392,-0.7473306,-12.509309
11080000,0.44021848,0.12015183,0.07677205,1.739261,-0.8140564,-12.497556
11084000,0.44696635,0.11570379,0.078414045,1.7589225,-0.88161296,-12.507428
11088000,0.46185052,0.113634996,0.08047764,1.8689388,-0.8206346,-12.538176
11092000,0.47349837,0.107442334,0.083517246,1.8913679,-0.7324229,-12.534475
11100000,0.4900314,0.11179607,0.088181004,1.7382087,-0.7846971,-12.307214
11108000,0.49469864,0.1107155,0.089394435,1.8690343,-0.78677547,-12.2356
11116000,0.51230067,0.11422385,0.09078891,1.8732346,-0.8277115,-12.216799
11124000,0.5190324,0.110361524,0.098402806,1.8710433,-0.8566619,-12.220982
11128000,0.5273293,0.10904519,0.09345521,1.9093517,-0.8458845,-12.199505
11132000,0.5351963,0.103425056,0.09667317,1.9665107,-0.801043,-12.060715
11136000,0.5369263,0.106573254,0.099720836,1.8932217,-0.8204849,-12.060725
11140000,0.539427,0.11283086,0.10316564,1.8568118,-0.86344224,-12.122618
11144000,0.54241806,0.118918926,0.10948041,1.9136027,-0.8133226,-12.105878
11148000,0.53616583,0.11020659,0.11036246,1.9595823,-0.74108833,-11.984311
11152000,0.53562856,0.105550945,0.10902195,1.8671982,-0.7266529,-11.972499
11156000,0.5366413,0.10916381,0.10946535,1.8119835,-0.726436,-12.031698
11160000,0.5328738,0.10200349,0.10919939,1.9282397,-0.75139,-11.978528
11164000,0.5360508,0.1031195,0.10968797,2.0149572,-0.72384065,-11.932332
11168000,0.5386241,0.10559592,0.11058517,2.023648,-0.721549,-11.961587
11176000,0.5443831,0.09871706,0.12511715,1.9523503,-0.80990356,-11.856428
11180000,0.54310226,0.101477884,0.12522517,1.9711496,-0.75277925,-11.80253
11188000,0.54254186,0.11004614,0.11698924,1.9452373,-0.7422737,-11.85281
11192000,0.535515,0.11246384,0.122588694,1.9777256,-0.6712372,-11.805122
11196000,0.531165,0.109895036,0.12680899,1.9919987,-0.6493084,-11.7898035
11204000,0.5306507,0.10996729,0.12585127,1.9753466,-0.7218339,-11.745531
11208000,0.53329957,0.10547066,0.12769502,2.0008304,-0.7169322,-11.701243
11212000,0.5310449,0.108854435,0.13641609,1.9873586,-0.6636066,-11.68391
11216000,0.5265587,0.113972194,0.1384619,1.9156144,-0.6457351,-11.744517
11224000,0.51515126,0.11936239,0.13098998,1.9363519,-0.6633879,-11.706184
11228000,0.5177352,0.11344642,0.13760884,2.014813,-0.6442228,-11.633712
11236000,0.5078583,0.11446771,0.13529803,1.9954166,-0.7034405,-11.74093
11240000,0.5050048,0.11084666,0.13268796,1.963872,-0.7017833,-11.682378
11244000,0.50859874,0.11189452,0.13333835,2.009206,-0.6352639,-11.614495
11248000,0.50720507,0.113306955,0.13311768,2.0175877,-0.6383239,-11.610731
11252000,0.497685,0.109718695,0.13849592,2.0452487,-0.6878028,-11.639032
11256000,0.4901585,0.112885736,0.13870583,2.0827072,-0.63993526,-11.675203
11260000,0.48958206,0.11628194,0.13894448,2.058378,-0.6337308,-11.6872015
11268000,0.4889573,0.113011435,0.139488,2.038835,-0.7041236,-11.611781
11272000,0.48706862,0.11162841,0.13809851,2.037262,-0.6827959,-11.521194
11276000,0.48022044,0.11116998,0.13902248,2.0119867,-0.6585528,-11.543942
11280000,0.47586328,0.11268467,0.14222497,2.1024764,-0.73091424,-11.609185
11288000,0.47285667,0.11323734,0.13331454,2.1196709,-0.70662844,-11.643523
11292000,0.46355218,0.10934361,0.1360987,2.086119,-0.71099573,-11.56387
11296000,0.46239877,0.1111832,0.13466884,2.0400336,-0.7072401,-11.509473
11300000,0.45693633,0.115807384,0.13869506,2.0630345,-0.64950013,-11.565019
11304000,0.45012683,0.11548352,0.13833447,2.1480753,-0.6688591,-11.635529
11308000,0.45401263,0.11307239,0.14078826,2.1184552,-0.6609375,-11.599481
11312000,0.4480188,0.11237283,0.13927299,2.0647206,-0.55121183,-11.597257
11316000,0.4395241,0.11425915,0.13840534,1.9973465,-0.579632,-11.631013
11320000,0.43996736,0.115606785,0.14060658,1.9780241,-0.63656366,-11.585661
11324000,0.4353121,0.11876527,0.13790381,2.0679793,-0.6133222,-11.5396185
11328000,0.4332729,0.117734544,0.13661923,2.120637,-0.6089667,-11.612618
11332000,0.43361494,0.11413079,0.13649124,2.06511,-0.59363097,-11.56568
11336000,0.43000737,0.11411377,0.14309742,2.0302565,-0.58270514,-11.401798
11340000,0.4232385,0.11466925,0.14287473,2.026905,-0.5758455,-11.460411
11344000,0.42083213,0.1207898,0.13803397,1.9480625,-0.55397767,-11.509665
11348000,0.4161232,0.12317984,0.13962767,2.029583,-0.5217336,-11.497273
11352000,0.40967605,0.12062683,0.13767578,2.0810657,-0.50299233,-11.467759
11360000,0.40485972,0.117452346,0.13690415,2.079638,-0.55853945,-11.470467
11368000,0.3956502,0.1247248,0.13762805,2.10343,-0.57133263,-11.367797
11372000,0.3964067,0.12976913,0.1444141,1.9913716,-0.60115355,-11.414611
11376000,0.3940668,0.13004544,0.13634992,2.0503566,-0.54230523,-11.431938
11380000,0.39040652,0.118867524,0.13575715,2.1026106,-0.53330624,-11.429155
11384000,0.37920082,0.115956694,0.13418199,2.0778222,-0.5794968,-11.522562
11388000,0.37572253,0.12158614,0.12934335,2.080304,-0.5870191,-11.478652
11392000,0.3791078,0.11811051,0.13452494,2.080304,-0.5870191,-11.478652
11396000,0.38255304,0.11550162,0.12788993,2.0853708,-0.633031,-11.429595
11400000,0.3802296,0.11773935,0.12670852,2.1201856,-0.6383223,-11.471823
11404000,0.37217718,0.119483,0.13474968,2.1413138,-0.59720826,-11.418235
