timestamp,roll_body,pitch_body,yaw_body,q_d[0],q_d[1],q_d[2],q_d[3],thrust_body[0]
7680000,0.002200921,0,1.6441619,0.6806978,0.000749081,0.000806158,0.7325635,0.15
7704000,0.002369577,0,1.6441619,0.68069774,0.000806483,0.000867933,0.7325634,0.15
7728000,0.002090372,0,1.5962845,0.6980378,0.00072958,0.000748416,0.7160602,0.15
7752000,0.002165711,0,1.5962845,0.69803774,0.000755874,0.00077539,0.71606016,0.15
7776000,0.002210442,0,1.5962845,0.69803774,0.000771486,0.000791405,0.71606016,0.15
7800000,0.001801511,0,1.5483379,0.715002,0.000644042,0.000629738,0.69912183,0.15
7824000,0.001512852,0,1.5002149,0.73161536,0.000553413,0.000515669,0.6817172,0.15
7848000,0.001259269,0,1.4517965,0.74790335,0.000470906,0.000417956,0.6638074,0.15
7872000,0.001069311,0,1.4029635,0.76388663,0.000408416,0.00034504,0.6453502,0.15
7896000,0.000701548,0,1.3535913,0.7795835,0.000273458,0.000219689,0.6262981,0.15
7920000,0.000859146,0,1.3535913,0.77958345,0.000334888,0.000269041,0.6262981,0.15
7944000,0.000560577,0,1.3035322,0.79501367,0.000222833,0.000170021,0.6065914,0.15
7968000,0.000614463,0,1.3035322,0.79501367,0.000244253,0.000186364,0.6065914,0.15
7992000,0.000896019,0,1.3035322,0.7950136,0.000356174,0.000271759,0.6065914,0.15
8016000,0.001139886,0,1.3035322,0.7950136,0.000453113,0.000345723,0.60659134,0.15
8040000,0.001230556,0,1.3035322,0.7950136,0.000489154,0.000373222,0.60659134,0.15
8064000,0.000686242,0,1.2526245,0.81019455,0.000277995,0.000201124,0.5861609,0.15
8088000,0.000863172,0,1.2526245,0.8101945,0.000349669,0.000252979,0.5861609,0.15
8112000,0.0010528,0,1.2526245,0.8101945,0.000426487,0.000308555,0.5861609,0.15
8136000,0.001125451,0,1.2526245,0.8101945,0.000455917,0.000329848,0.58616084,0.15
8160000,0.001069475,0,1.2526245,0.8101945,0.000433241,0.000313442,0.5861609,0.15
8184000,0.000822372,0,1.2006924,0.82514,0.000339286,0.000232291,0.5649281,0.15
8208000,0.001048219,0,1.2006924,0.82513994,0.000432464,0.000296084,0.5649281,0.15
8232000,0.000761753,0,1.1475108,0.8398685,0.000319886,0.000206736,0.5427898,0.15
8256000,0,0,1.6242759,0.68794835,0,0,0.7257596,0
8280000,0,0,1.6242759,0.68794835,0,0,0.7257596,1
8304000,0,0,1.6242759,0.68794835,0,0,0.7257596,1
8328000,0,0,1.6242759,0.68794835,0,0,0.7257596,1
8352000,0,0,1.6242759,0.68794835,0,0,0.7257596,1
8376000,0,0,1.6242759,0.68794835,0,0,0.7257596,1
8400000,0,0,1.6242759,0.68794835,0,0,0.7257596,1
8424000,0,0,1.6242759,0.68794835,0,0,0.7257596,1
8448000,0,0,1.6242759,0.68794835,0,0,0.7257596,1
8472000,0,0,1.6242759,0.68794835,0,0,0.7257596,1
8496000,0,0,1.6242759,0.68794835,0,0,0.7257596,1
8520000,0,0,1.6242759,0.68794835,0,0,0.7257596,1
8544000,0,0,1.6242759,0.68794835,0,0,0.7257596,1
8568000,0,0,1.6242759,0.68794835,0,0,0.7257596,1
8592000,0,0,1.6242759,0.68794835,0,0,0.7257596,1
8616000,0,0,1.6242759,0.68794835,0,0,0.7257596,1
8640000,0,0,1.6242759,0.68794835,0,0,0.7257596,1
8664000,0,0,1.6242759,0.68794835,0,0,0.7257596,1
8688000,0,0,1.6242759,0.68794835,0,0,0.7257596,1
8712000,0,0,1.6242759,0.68794835,0,0,0.7257596,1
8736000,0,-0.3071403,1.6242759,0.67985207,0.111017436,-0.10523355,0.71721834,1
8760000,0,-0.2933981,1.6242759,0.6805591,0.10608678,-0.10055978,0.71796423,1
8784000,0,-0.28040913,1.6242759,0.68119776,0.101421766,-0.0961378,0.71863806,1
8808000,0,-0.26820108,1.6242759,0.68177193,0.09703332,-0.091978,0.71924376,1
8832000,0,-0.25664485,1.6242759,0.682292,0.09287585,-0.088037126,0.7197924,1
8856000,0,-0.24563783,1.6242759,0.6827662,0.08891308,-0.08428081,0.7202926,1
8880000,0,-0.23509705,1.6242759,0.6832009,0.08511564,-0.080681205,0.7207513,1
8904000,0,-0.22503158,1.6242759,0.6835983,0.08148723,-0.07724183,0.7211705,1
8928000,0,-0.21537091,1.6242759,0.6839634,0.078002796,-0.073938936,0.72155565,1
8952000,0,-0.20605686,1.6242759,0.68430036,0.07464166,-0.07075291,0.72191113,1
8976000,0,-0.197041,1.6242759,0.68461233,0.07138659,-0.067667425,0.72224027,1
9000000,0,-0.18831919,1.6242759,0.6849009,0.0682363,-0.06468126,0.72254467,1
9024000,0,-0.17985144,1.6242759,0.6851686,0.06517653,-0.061780903,0.72282714,1
9048000,0,-0.17160383,1.6242759,0.6854176,0.062195186,-0.058954887,0.72308975,1
9072000,0,-0.1635473,1.6242759,0.6856495,0.059281897,-0.056193374,0.72333443,1
9096000,0,-0.15568723,1.6242759,0.68586504,0.05643871,-0.053498317,0.7235618,1
9120000,0,-0.1479981,1.6242759,0.6860657,0.05365652,-0.050861076,0.7237734,1
9144000,0,-0.1404577,1.6242759,0.68625253,0.050927382,-0.04827412,0.7239706,1
9168000,0,-0.13304657,1.6242759,0.6864267,0.048244312,-0.045730837,0.72415435,1
9192000,0,-0.1257668,1.6242759,0.68658864,0.045608163,-0.043232027,0.7243252,1
9216000,0,-0.11860128,1.6242759,0.6867391,0.04301279,-0.04077187,0.7244839,1
9240000,0,-0.11153485,1.6242759,0.68687886,0.04045277,-0.038345225,0.72463137,1
9264000,0,-0.10455401,1.6242759,0.6870085,0.03792326,-0.0359475,0.72476816,1
9288000,0,-0.09764667,1.6242759,0.6871286,0.03541993,-0.03357459,0.7248948,1
9312000,0,-0.09081689,1.6242759,0.6872392,0.032944296,-0.031227933,0.7250115,1
9336000,0,-0.08405375,1.6242759,0.6873409,0.030492429,-0.028903807,0.7251188,1
9360000,0,-0.07734736,1.6242759,0.68743396,0.0280608,-0.026598861,0.7252169,1
9384000,0,-0.07068878,1.6242759,0.6875187,0.025646191,-0.024310052,0.72530633,1
9408000,0,-0.064079,1.6242759,0.6875953,0.023248998,-0.022037752,0.72538716,1
9432000,0,-0.05751008,1.6242759,0.6876639,0.020866372,-0.019779257,0.7254596,1
9456000,0,-0.050974783,1.6242759,0.6877249,0.018495718,-0.01753211,0.7255239,1
9480000,0,-0.044466484,1.6242759,0.68777835,0.01613466,-0.015294063,0.7255803,1
9504000,0,-0.037984543,1.6242759,0.68782425,0.013782995,-0.013064916,0.72562873,1
9528000,0,-0.031523146,1.6242759,0.6878629,0.01143864,-0.0108427,0.7256695,1
9552000,0,-0.025076995,1.6242759,0.6878943,0.009099697,-0.008625613,0.7257026,1
9576000,0,-0.018641204,1.6242759,0.6879184,0.006764418,-0.006412,0.7257281,1
9600000,0,-0.012215222,1.6242759,0.68793553,0.00443263,-0.004201695,0.7257461,1
9624000,0,-0.005794793,1.6242759,0.6879455,0.002102811,-0.001993257,0.7257566,1
9648000,0,0.000623977,1.6242759,0.6879483,-0.000226429,0.000214632,0.72575957,1
9672000,0,0.00704465,1.6242759,0.68794405,-0.002556356,0.002423173,0.72575516,1
9696000,0,0.013469061,1.6242759,0.6879328,-0.004887614,0.004632974,0.7257432,1
9720000,0,0.019900221,1.6242759,0.68791425,-0.007221269,0.00684505,0.7257237,1
9744000,0,0.026340896,1.6242759,0.6878887,-0.009558303,0.009060326,0.7256967,1
9768000,0,0.032793608,1.6242759,0.6878559,-0.011899605,0.011279649,0.72566205,1
9792000,0,0.039257865,1.6242759,0.68781585,-0.014244972,0.013502824,0.7256198,1
9816000,0,0.04573583,1.6242759,0.68776846,-0.016595162,0.015730573,0.72556984,1
9840000,0,0.05222945,1.6242759,0.68771374,-0.018950857,0.01796354,0.72551215,1
9864000,0,0.05874048,1.6242759,0.68765163,-0.02131267,0.020202303,0.7254466,1
9888000,0,0.065270506,1.6242759,0.687582,-0.023681145,0.022447383,0.72537315,1
9912000,0,0.07182002,1.6242759,0.6875048,-0.026056433,0.024698922,0.7252917,1
9936000,0,0.07839029,1.6242759,0.68742,-0.02843897,0.026957331,0.72520226,1
9960000,0,0.08498245,1.6242759,0.6873274,-0.030829135,0.02922297,0.7251046,1
9984000,0,0.09159746,1.6242759,0.687227,-0.03322725,0.03149615,0.7249986,1
10008000,0,0.09823623,1.6242759,0.68711865,-0.035633612,0.03377714,0.72488433,1
10032000,0,0.104899466,1.6242759,0.6870023,-0.03804845,0.036066167,0.72476155,1
10056000,0,0.11158774,1.6242759,0.68687785,-0.040471934,0.03836339,0.7246303,1
10080000,0,0.11830151,1.6242759,0.68674517,-0.042904202,0.040668942,0.72449034,1
10104000,0,0.12504224,1.6242759,0.68660426,-0.04534575,0.042983286,0.72434163,1
10128000,0,0.13181017,1.6242759,0.68645483,-0.047796633,0.04530648,0.72418404,1
10152000,0,0.1386054,1.6242759,0.68629694,-0.05025685,0.047638524,0.72401744,1
10176000,0,0.14542794,1.6242759,0.6861304,-0.052726373,0.049979385,0.7238418,1
10200000,0,0.15227741,1.6242759,0.6859553,-0.05520502,0.0523289,0.723657,1
10224000,0,0.15915366,1.6242759,0.6857713,-0.057692714,0.054686986,0.7234629,1
10248000,0,0.16605644,1.6242759,0.68557847,-0.06018932,0.057053525,0.7232595,1
10272000,0,0.17298543,1.6242759,0.6853767,-0.06269468,0.05942836,0.7230466,1
10296000,0,0.17994031,1.6242759,0.6851659,-0.06520865,0.06181135,0.7228242,1
10320000,0,0.18692064,1.6242759,0.68494594,-0.06773102,0.06420231,0.72259223,1
10344000,0,0.19392589,1.6242759,0.68471694,-0.070261575,0.06660102,0.7223506,1
10368000,0,0.2009555,1.6242759,0.6844786,-0.072800055,0.06900725,0.7220992,1
10392000,0,0.20801039,1.6242759,0.6842309,-0.07534676,0.07142128,0.7218379,1
10416000,0,0.21508986,1.6242759,0.68397385,-0.0779014,0.07384282,0.7215667,1
10440000,0,0.22219317,1.6242759,0.68370724,-0.080463655,0.07627159,0.7212854,1
10464000,0,0.22931951,1.6242759,0.68343115,-0.083033204,0.07870727,0.7209941,1
10488000,0,0.23646806,1.6242759,0.68314546,-0.085609704,0.08114953,0.72069275,1
10512000,0,0.24363856,1.6242759,0.68285006,-0.08819301,0.08359825,0.72038114,1
10536000,0,0.2508301,1.6242759,0.68254507,-0.09078276,0.08605308,0.7200594,1
10560000,0,0.25804183,1.6242759,0.68223035,-0.093378596,0.08851367,0.7197274,1
10584000,0,0.26527274,1.6242759,0.68190587,-0.095980115,0.09097966,0.719385,1
10608000,0,0.27252144,1.6242759,0.68157166,-0.09858678,0.093450524,0.71903247,1
10632000,0,0.279787,1.6242759,0.6812277,-0.101198226,0.095925905,0.7186696,1
10656000,0,0.28706843,1.6242759,0.68087393,-0.10381401,0.09840541,0.7182964,1
10680000,0,0.29436484,1.6242759,0.6805104,-0.10643381,0.10088872,0.71791285,1
10704000,0,0.3016769,1.6242759,0.680137,-0.1090578,0.10337601,0.7175189,1
10728000,0,0.30900362,1.6242759,0.6797537,-0.111685604,0.1058669,0.7171146,1
10752000,0,0.31634402,1.6242759,0.6793606,-0.1143168,0.10836102,0.7166999,1
10776000,0,0.32369715,1.6242759,0.6789576,-0.11695101,0.11085799,0.71627474,1
10800000,0,0.33106312,1.6242759,0.6785447,-0.11958824,0.11335783,0.71583915,1
10824000,0,0.33844095,1.6242759,0.6781219,-0.12222809,0.11586014,0.7153931,1
10848000,0,0.34582967,1.6242759,0.6776893,-0.124870166,0.118364565,0.7149367,1
10872000,0,0.34906584,1.6242759,0.67749685,-0.12602684,0.11946098,0.71473366,1
10896000,0,0.34906584,1.6242759,0.67749685,-0.12602684,0.11946098,0.71473366,1
10920000,0,0.34906584,1.6242759,0.67749685,-0.12602684,0.11946098,0.71473366,1
10944000,0,0.34906584,1.6242759,0.67749685,-0.12602684,0.11946098,0.71473366,1
10968000,0,0.34906584,1.6242759,0.67749685,-0.12602684,0.11946098,0.71473366,1
10992000,0.43633232,0.34906584,-2.11727,0.43841547,0.25223643,-0.10272012,-0.8565146,1
11016000,0.43633232,0.34906584,-2.112004,0.44066912,0.252506,-0.10205562,-0.8553572,1
11040000,0.43633232,0.34906584,-2.101073,0.44533753,0.25306,-0.10067403,-0.85293597,1
11064000,0.43633232,0.34906584,-2.0984087,0.4464734,0.2531939,-0.10033682,-0.852342,1
11088000,0.43633232,0.34906584,-2.093093,0.4487372,0.2534597,-0.09966352,-0.8511523,1
11112000,0.43633232,0.34906584,-2.087764,0.4510035,0.25372434,-0.09898784,-0.84995365,1
11136000,0.43633232,0.34906584,-2.079394,0.4545565,0.25413635,-0.097925134,-0.84805876,1
11160000,0.43633232,0.34906584,-2.0740356,0.456827,0.25439784,-0.097243905,-0.8468379,1
11184000,0.43633232,0.34906584,-2.068668,0.45909822,0.25465792,-0.09656077,-0.8456088,1
11208000,0.43633232,0.34906584,-2.0659516,0.46024626,0.25478882,-0.09621483,-0.8449844,1
11232000,0.43633232,0.34906584,-2.0548558,0.464927,0.2553187,-0.09479982,-0.8424181,1
11256000,0.43633232,0.34906584,-2.052127,0.46607605,0.2554478,-0.09445136,-0.8417829,1
11280000,0.43633232,0.34906584,-2.0467193,0.46835032,0.25570223,-0.093760334,-0.84051967,1
11304000,0.43633232,0.34906584,-2.0355663,0.47303015,0.25622112,-0.09233295,-0.83789486,1
11328000,0.43633232,0.34906584,-2.0328083,0.4741852,0.2563482,-0.09197954,-0.83724177,1
11352000,0.43633232,0.34906584,-2.0273585,0.4764648,0.25659788,-0.091280684,-0.83594656,1
11376000,0.43633232,0.34906584,-2.0245883,0.4776222,0.25672406,-0.090925194,-0.83528584,1
11400000,0.43633232,0.34906584,-2.01335,0.48230827,0.25723094,-0.089481175,-0.8325888,1
11424000,0.43633232,0.34906584,-2.0078762,0.48458517,0.25747487,-0.088776834,-0.8312656,1
11448000,0.43633232,0.34906584,-2.0050912,0.48574227,0.25759825,-0.08841821,-0.83059007,1
11472000,0.43633232,0.34906584,-1.9938087,0.49042,0.25809294,-0.08696364,-0.8278367,1
11496000,0.43633232,0.34906584,-1.9910134,0.49157658,0.25821424,-0.08660282,-0.8271504,1
11520000,0.43633232,0.34906584,-1.9855086,0.49385136,0.2584516,-0.0858918,-0.8257943,1
11544000,0.43633232,0.34906584,-1.9741712,0.49852458,0.25893435,-0.08442532,-0.8229815,1
11568000,0.43633232,0.34906584,-1.9713613,0.49968034,0.2590527,-0.084061466,-0.8222803,1
11592000,0.43633232,0.34906584,-1.965827,0.50195384,0.25928432,-0.083344296,-0.8208944,1
11616000,0.43633232,0.34906584,-1.9571707,0.50550205,0.25964263,-0.08222131,-0.81871426,1
11640000,0.43633232,0.34906584,-1.9516468,0.50776136,0.25986874,-0.08150387,-0.817315,1
11664000,0.43633232,0.34906584,-1.9429778,0.51129925,0.26021957,-0.08037669,-0.8151064,1
11688000,0.43633232,0.34906584,-1.937433,0.513557,0.2604414,-0.07965497,-0.8136858,1
11712000,0.43633232,0.34906584,-1.9346383,0.5146936,0.26055247,-0.07929094,-0.8129673,1
11736000,0.43633232,0.34906584,-1.9231879,0.5193395,0.26100212,-0.07779794,-0.8100073,1
11760000,0.43633232,0.34906584,-1.9176174,0.5215936,0.26121783,-0.0770707,-0.8085577,1
11784000,0.87266463,0.34155214,-1.9148026,0.4553946,0.3656855,-0.25188357,-0.7716505,0.40835232
11808000,0.87266463,0.33403873,-1.903237,0.46145588,0.36455765,-0.25192988,-0.7685619,0.4323142
11832000,0.87266463,0.32652485,-1.8998457,0.46435797,0.36240438,-0.25347754,-0.76732254,0.45510513
11856000,0.87266463,0.3190096,-1.8874669,0.4706886,0.36139417,-0.2534086,-0.7639572,0.47678584
11880000,0.87266463,0.31149217,-1.883739,0.47369498,0.359292,-0.2549153,-0.7625881,0.49725854
11904000,0.87266463,0.30396903,-1.8711102,0.4800753,0.3583273,-0.25483665,-0.75907016,0.51688707
11928000,0.87266463,0.29643977,-1.8672968,0.48308975,0.35624245,-0.2563511,-0.75762767,0.53522605
11952000,0.87266463,0.28890416,-1.8606275,0.4871741,0.35452533,-0.25736675,-0.7554704,0.55226254
11976000,0.87266463,0.28136212,-1.8506565,0.49248666,0.3532378,-0.25781208,-0.75247115,0.5680224
12000000,0.87266463,0.2738034,-1.8439338,0.49655998,0.35153297,-0.2588491,-0.7502331,0.5839213
12024000,0.87266463,0.26622856,-1.8339012,0.50185716,0.35025823,-0.25932232,-0.7471348,0.59855336
12048000,0.87266463,0.2586381,-1.8272327,0.50587934,0.3485493,-0.2604024,-0.7448423,0.6119811
12072000,0.87266463,0.25103277,-1.8172407,0.5111206,0.3472755,-0.2609206,-0.74167097,0.62424684
12096000,0.87266463,0.24340765,-1.8106289,0.5150906,0.34556156,-0.26204464,-0.7393251,0.6361553
12120000,0.87266463,0.2357638,-1.8006891,0.5202723,0.34428492,-0.262612,-0.736084,0.64697254
12144000,0.87266463,0.22810237,-1.7971661,0.5230765,0.34216538,-0.26429915,-0.7344792,0.65674216
12168000,0.87266463,0.22042452,-1.7843146,0.5292846,0.34127927,-0.2644067,-0.730394,0.66557884
12192000,0.87266463,0.2127263,-1.7808859,0.53203017,0.33914673,-0.2661395,-0.7287613,0.67419666
12216000,0.87266463,0.20500907,-1.7680724,0.5381736,0.33826306,-0.26629788,-0.7245914,0.6819662
12240000,0.87266463,0.20060033,-1.7647891,0.54020655,0.33722475,-0.26707777,-0.72327423,0.6889498
12264000,0.87266463,0.20221797,-1.7550828,0.5434017,0.33905596,-0.2649455,-0.72080475,0.69525224
12288000,0.87266463,0.20368783,-1.7488967,0.5453483,0.34036204,-0.26344636,-0.719267,0.7009086
12312000,0.87266463,0.2049538,-1.739264,0.54856503,0.3420454,-0.26141503,-0.716759,0.706444
12336000,0.87266463,0.20611437,-1.7331781,0.55052274,0.34322166,-0.2600151,-0.7152032,0.7113837
12360000,0.87266463,0.20717719,-1.7236183,0.55373317,0.34480911,-0.2580421,-0.71267134,0.71578217
12384000,0.87266463,0.20815569,-1.7140356,0.55695593,0.34636086,-0.25608212,-0.71011007,0.71973383
12408000,0.87266463,0.2090322,-1.7079735,0.55893964,0.34742063,-0.25475702,-0.7085084,0.72343516
12432000,0.87266463,0.2098488,-1.698381,0.56217706,0.3489029,-0.25283113,-0.70590377,0.7267149
12456000,0.87266463,0.21060959,-1.6954863,0.5630543,0.34951437,-0.2520864,-0.705168,0.72964084
12480000,0.87266463,0.21132609,-1.6828165,0.5673752,0.3513344,-0.24964015,-0.7016619,0.7322188
12504000,0.87266463,0.21198912,-1.6799028,0.5682718,0.3519103,-0.24891758,-0.7009039,0.7345571
12528000,0.87266463,0.21261765,-1.6702464,0.5715311,0.35330853,-0.24701509,-0.6982183,0.736606
12552000,0.87266463,0.21321316,-1.6574035,0.5758913,0.3550762,-0.24455008,-0.6945973,0.73841083
12575999,0.87266463,0.21378745,-1.654428,0.57681644,0.3556213,-0.24383686,-0.693801,0.7400079
12600000,0.87266463,0.21428102,-1.6446346,0.58011454,0.3569664,-0.24193308,-0.6910212,0.7415957
12624000,0.87266463,0.21478097,-1.631593,0.58451515,0.3586927,-0.23943765,-0.6872781,0.74302745
12648000,0.87266463,0.21525906,-1.6285738,0.58546305,0.35920295,-0.23874018,-0.68644696,0.74427855
12671999,0.87266463,0.21573062,-1.6187015,0.5887567,0.3605234,-0.23680982,-0.6836004,0.74536574
12696000,0.87266463,0.21615033,-1.6055117,0.59317446,0.36220667,-0.23428883,-0.67974925,0.7464122
12720000,0.87266463,0.2165859,-1.602443,0.5941361,0.36269972,-0.23358914,-0.6788867,0.7473405
12744000,0.87266463,0.21700585,-1.5924007,0.59746003,0.36399654,-0.23162585,-0.67594194,0.74809873
12767999,0.87266463,0.21742727,-1.5822653,0.6008004,0.3652939,-0.22963789,-0.672953,0.748731
12792000,0.87266463,0.2178251,-1.5757917,0.6029023,0.36615586,-0.22832146,-0.6710499,0.7491969
12816000,0.87266463,0.21824169,-1.5655208,0.6062643,0.3674491,-0.22629827,-0.6679924,0.74959356
12840000,0.87266463,0.21864608,-1.555155,0.60964435,0.36873823,-0.22425447,-0.6648878,0.7498698
12863999,0.87266463,0.21906053,-1.544795,0.61300486,0.3700183,-0.22220102,-0.661769,0.7501123
12888000,0.87266463,0.21945289,-1.5381664,0.61512345,0.37086913,-0.22084014,-0.6597793,0.75024456
12912000,0.87266463,0.21984267,-1.5276515,0.6185131,0.37213996,-0.21875425,-0.656582,0.7505387
12936000,0.87266463,0.22022459,-1.5170479,0.62191653,0.3734064,-0.21664718,-0.6533387,0.750735
12959999,0.87266463,0.2206171,-1.5063562,0.6253296,0.37467352,-0.21451277,-0.6500515,0.75092894
12984000,0.87266463,0.22098713,-1.5029426,0.6263717,0.37514657,-0.21374527,-0.64902735,0.7510364
13008000,0.87266463,0.22137126,-1.4920607,0.62982476,0.37641484,-0.21156782,-0.6456559,0.75122637
13032000,0.87266463,0.22175594,-1.4776092,0.634405,0.37804377,-0.20870829,-0.64113486,0.7513533
13055999,0.87266463,0.22215344,-1.4665871,0.637858,0.3793011,-0.2064825,-0.63767755,0.7515042
13080000,0.87266463,0.22253227,-1.4555019,0.64131546,0.3805466,-0.20424373,-0.6341792,0.75158656
13104000,0.87266463,0.22292762,-1.4519982,0.6423554,0.38101506,-0.20343748,-0.6331036,0.7516925
13128000,0.87266463,0.22331958,-1.4407792,0.64582753,0.38225976,-0.2011582,-0.62953913,0.7517725
13151999,0.87266463,0.22372088,-1.4294574,0.6493104,0.38350368,-0.1988484,-0.6259235,0.7518506
13176000,0.87266463,0.22410168,-1.4180007,0.65281856,0.38474128,-0.19651228,-0.6222419,0.75188696
13200000,0.87266463,0.22449388,-1.4064237,0.65634096,0.3859795,-0.19414122,-0.6185027,0.7520591
13224000,0.87266463,0.22488025,-1.3947005,0.6598879,0.3872155,-0.19173619,-0.61469436,0.7521896
13247999,0.87266463,0.22527784,-1.3828974,0.6634353,0.38844723,-0.18930379,-0.6108408,0.75231177
13272000,0.87266463,0.22566357,-1.370991,0.6669935,0.38967013,-0.18684763,-0.6069306,0.7524017
13296000,0.87266463,0.22605495,-1.3589464,0.6705693,0.39089182,-0.18435466,-0.6029542,0.7526082
13320000,0.87266463,0.22644772,-1.3551435,0.6716472,0.3913452,-0.18346739,-0.60172975,0.75276136
13344000,0.87266463,0.22684216,-1.3429115,0.6752475,0.39256307,-0.18092558,-0.5976629,0.7528743
13368000,0.87266463,0.227238,-1.3318815,0.67846596,0.39365757,-0.17861187,-0.5939827,0.75296724
13392000,0.87266463,0.22760062,-1.3318815,0.6784042,0.3937516,-0.17847812,-0.594031,0.75333345
13416000,0.87266463,0.22796753,-1.3318815,0.6783418,0.39384672,-0.17834282,-0.5940799,0.7536403
13440000,0.87266463,0.22833662,-1.3318815,0.678279,0.39394242,-0.17820664,-0.594129,0.75390583
13464000,0.87266463,0.22871359,-1.3318815,0.67821485,0.3940401,-0.1780676,-0.5941793,0.75416446
13488000,0.87266463,0.2290945,-1.3318815,0.6781499,0.39413884,-0.17792708,-0.59422994,0.75437284
13512000,0.87266463,0.2295127,-1.3318815,0.6780786,0.39424717,-0.17777278,-0.5942856,0.7542162
13536000,0.87266463,0.22993334,-1.3318815,0.6780069,0.39435616,-0.1776176,-0.5943415,0.7540309
13560000,0.87266463,0.23035201,-1.3318815,0.6779354,0.3944646,-0.17746311,-0.5943972,0.75380695
13584000,0.87266463,0.23077269,-1.3318815,0.6778636,0.39457354,-0.17730787,-0.5944531,0.75355977
13608000,0.87266463,0.23120761,-1.3318815,0.67778933,0.39468616,-0.17714742,-0.59451085,0.7531795
13632000,0.87266463,0.23164652,-1.3318815,0.6777144,0.3947998,-0.17698544,-0.59456915,0.7527624
13656000,0.87266463,0.2320848,-1.3318815,0.67763954,0.39491326,-0.17682368,-0.59462726,0.7523507
13680000,0.87266463,0.23253538,-1.3318815,0.67756253,0.39502987,-0.17665741,-0.59468704,0.7519515
13704000,0.87266463,0.23295245,-1.3318815,0.6774911,0.3951378,-0.17650348,-0.5947423,0.751777
13728000,0.87266463,0.23338014,-1.3318815,0.67741793,0.39524847,-0.17634562,-0.5947989,0.7515752
13752000,0.87266463,0.23380743,-1.3318815,0.67734486,0.39535898,-0.1761879,-0.59485555,0.7513841
13776000,0.87266463,0.23423758,-1.3318815,0.6772712,0.39547023,-0.17602912,-0.59491247,0.7511833
13800000,0.87266463,0.2346824,-1.3318815,0.6771949,0.39558527,-0.1758649,-0.59497124,0.7507972
13824000,0.87266463,0.2351386,-1.3318815,0.67711675,0.39570323,-0.17569649,-0.59503156,0.7503885
13848000,0.87266463,0.2355906,-1.3318815,0.6770392,0.39582008,-0.1755296,-0.5950913,0.74996716
13872000,0.87266463,0.23605111,-1.3318815,0.67696023,0.3959391,-0.17535958,-0.59515214,0.7495199
13896000,0.87266463,0.23652886,-1.3318815,0.6768783,0.39606258,-0.1751832,-0.5952152,0.7489098
13920000,0.87266463,0.23701087,-1.3318815,0.6767955,0.39618713,-0.1750052,-0.5952788,0.7483081
13944000,0.87266463,0.23749165,-1.3318815,0.6767129,0.3963113,-0.17482767,-0.59534216,0.7476934
13968000,0.87266463,0.23797508,-1.3318815,0.6766298,0.39643615,-0.17464913,-0.5954059,0.7471008
13992000,0.87266463,0.2384629,-1.3318815,0.6765459,0.39656213,-0.17446898,-0.59547013,0.7464078
14016000,0.87266463,0.23895872,-1.3318815,0.67646056,0.39669016,-0.17428583,-0.5955354,0.7457245
14040000,0.87266463,0.2394526,-1.3318815,0.6763756,0.39681762,-0.17410341,-0.5956004,0.74507934
14064000,0.87266463,0.2399516,-1.3318815,0.6762897,0.39694643,-0.17391911,-0.595666,0.74446744
14088000,0.87266463,0.2404508,-1.3318815,0.67620367,0.39707524,-0.17373466,-0.5957316,0.74385166
14112000,0.87266463,0.24098529,-1.3318815,0.67611146,0.3972131,-0.17353722,-0.59580183,0.7429428
14136000,0.87266463,0.24152407,-1.3318815,0.6760186,0.3973521,-0.1733382,-0.5958726,0.74206525
14160000,0.87266463,0.2420658,-1.3318815,0.6759251,0.3974918,-0.17313805,-0.5959436,0.74123836
14184000,0.87266463,0.24259986,-1.3318815,0.67583287,0.3976295,-0.1729407,-0.5960136,0.74049103
14208000,0.87266463,0.24311596,-1.3318815,0.67574376,0.39776254,-0.17274998,-0.59608126,0.7399983
14232000,0.87266463,0.24363479,-1.3318815,0.67565405,0.39789623,-0.17255825,-0.5961492,0.73953277
14256000,0.87266463,0.24415514,-1.3318815,0.67556405,0.39803028,-0.17236593,-0.5962172,0.73914677
14280000,0.87266463,0.2446804,-1.3318815,0.6754732,0.3981656,-0.17217182,-0.596286,0.7388356
14304000,0.87266463,0.2452337,-1.3318815,0.6753774,0.3983081,-0.17196731,-0.5963583,0.73834735
14328000,0.87266463,0.2457911,-1.3318815,0.67528087,0.39845166,-0.17176127,-0.59643114,0.73792833
14352000,0.87266463,0.24635279,-1.3318815,0.67518353,0.39859626,-0.17155364,-0.59650445,0.7375751
14376000,0.87266463,0.24691178,-1.3318815,0.6750866,0.39874014,-0.17134699,-0.5965774,0.73730433
14400000,0.87266463,0.2475016,-1.3318815,0.6749843,0.39889193,-0.17112893,-0.5966543,0.73690474
14424000,0.87266463,0.24808876,-1.3318815,0.67488235,0.399043,-0.17091185,-0.59673077,0.73659015
14448000,0.87266463,0.24868414,-1.3318815,0.67477894,0.39919612,-0.17069167,-0.59680825,0.73635036
14472000,0.87266463,0.24927628,-1.3318815,0.67467606,0.3993484,-0.17047273,-0.5968853,0.73618346
14496000,0.87266463,0.24990268,-1.3318815,0.6745671,0.39950943,-0.17024106,-0.5969668,0.73585165
14520000,0.87266463,0.2505278,-1.3318815,0.6744584,0.39967012,-0.17000988,-0.597048,0.7355914
14544000,0.87266463,0.25116214,-1.3318815,0.67434794,0.3998331,-0.16977525,-0.59713036,0.7354398
14568000,0.87266463,0.25179717,-1.3318815,0.67423725,0.39999628,-0.16954039,-0.59721273,0.7353417
14592000,0.87266463,0.25245112,-1.3318815,0.67412335,0.40016425,-0.16929846,-0.59729755,0.73516315
14616000,0.87266463,0.25311127,-1.3318815,0.6740082,0.40033376,-0.16905425,-0.5973831,0.7350352
14640000,0.87266463,0.25377476,-1.3318815,0.6738924,0.40050405,-0.16880876,-0.597469,0.7350169
14664000,0.87266463,0.2544419,-1.3318815,0.67377585,0.4006753,-0.16856194,-0.5975552,0.7350805
14688000,0.87266463,0.255112,-1.3318815,0.6736587,0.40084726,-0.16831401,-0.5976418,0.7352449
14712000,0.87266463,0.25578177,-1.3318815,0.67354167,0.40101904,-0.16806611,-0.5977283,0.7355119
14736000,0.87266463,0.25645718,-1.3318815,0.6734234,0.40119225,-0.16781618,-0.5978155,0.7358502
14760000,0.87266463,0.25713566,-1.3318815,0.6733047,0.4013662,-0.16756505,-0.59790295,0.7362682
14784000,0.87266463,0.25781772,-1.3318815,0.6731851,0.40154102,-0.1673126,-0.5979908,0.73675907
14808000,0.87266463,0.25852895,-1.3318815,0.6730604,0.40172327,-0.16704932,-0.59808236,0.736984
14832000,0.87266463,0.2592491,-1.3318815,0.67293406,0.4019077,-0.1667827,-0.598175,0.7372881
14856000,0.87266463,0.25996876,-1.3318815,0.67280775,0.40209204,-0.16651626,-0.59826756,0.7377051
14880000,0.87266463,0.2606909,-1.3318815,0.67268085,0.40227693,-0.16624889,-0.59836024,0.7382056
14904000,0.87266463,0.2613982,-1.3318815,0.6725565,0.40245795,-0.165987,-0.598451,0.73894817
14928000,0.87266463,0.2621121,-1.3318815,0.67243093,0.40264064,-0.1657226,-0.5985426,0.739738
14952000,0.87266463,0.26283357,-1.3318815,0.67230386,0.40282518,-0.16545542,-0.59863496,0.74061936
14976000,0.87266463,0.26355955,-1.3318815,0.672176,0.40301085,-0.16518655,-0.5987279,0.7415687
15000000,0.87266463,0.26430959,-1.3318815,0.6720438,0.40320262,-0.1649087,-0.5988238,0.742321
15024000,0.87266463,0.26506433,-1.3318815,0.67191064,0.40339553,-0.16462912,-0.5989202,0.7431839
15048000,0.87266463,0.26582345,-1.3318815,0.6717766,0.4035895,-0.16434789,-0.59901714,0.7441082
15072000,0.87266463,0.26658797,-1.3318815,0.67164147,0.40378475,-0.16406465,-0.5991146,0.7450605
15096000,0.87266463,0.26733914,-1.3318815,0.6715087,0.40397656,-0.16378626,-0.5992103,0.7462733
15120000,0.87266463,0.2680937,-1.3318815,0.67137516,0.4041692,-0.16350666,-0.5993064,0.7475355
15144000,0.87266463,0.2688533,-1.3318815,0.6712407,0.40436304,-0.16322519,-0.5994031,0.7488593
15168000,0.87266463,0.2696188,-1.3318815,0.6711051,0.40455833,-0.16294146,-0.5995003,0.7502424
15192000,0.87266463,0.2703999,-1.3318815,0.6709665,0.40475756,-0.16265194,-0.5995995,0.7515138
15216000,0.87266463,0.27118847,-1.3318815,0.6708266,0.4049586,-0.1623596,-0.5996995,0.7527889
15240000,0.87266463,0.27198336,-1.3318815,0.67068547,0.40516123,-0.16206494,-0.5998003,0.75415117
15264000,0.87266463,0.2727841,-1.3318815,0.67054313,0.40536523,-0.16176806,-0.5999016,0.75557786
15288000,0.87266463,0.27358967,-1.3318815,0.6703999,0.40557045,-0.16146934,-0.60000354,0.7570493
15312000,0.87266463,0.2743875,-1.3318815,0.67025787,0.40577364,-0.1611735,-0.60010433,0.7585019
15336000,0.87266463,0.27519307,-1.3318815,0.67011446,0.40597868,-0.16087477,-0.6002061,0.75998235
15360000,0.87266463,0.27600345,-1.3318815,0.66997,0.40618488,-0.1605742,-0.60030824,0.7615179
15384000,0.87266463,0.27681798,-1.3318815,0.6698246,0.4063921,-0.16027206,-0.6004109,0.7630932
15408000,0.87266463,0.27763778,-1.3318815,0.6696782,0.4066006,-0.15996796,-0.6005141,0.76467705
15432000,0.87266463,0.27846226,-1.3318815,0.6695309,0.4068102,-0.1596621,-0.60061777,0.76627195
15456000,0.87266463,0.27929175,-1.3318815,0.6693827,0.40702105,-0.15935436,-0.600722,0.7679072
15480000,0.87266463,0.28012326,-1.3318815,0.66923386,0.40723228,-0.15904582,-0.6008263,0.7695651
15504000,0.87266463,0.2809583,-1.3318815,0.66908437,0.40744433,-0.15873596,-0.60093105,0.77111447
15528000,0.87266463,0.2817925,-1.3318815,0.6689349,0.40765613,-0.15842634,-0.6010356,0.7726882
15552000,0.87266463,0.28262782,-1.3318815,0.668785,0.40786815,-0.15811631,-0.6011401,0.7742538
15576000,0.87266463,0.28346676,-1.3318815,0.6686344,0.40808105,-0.15780494,-0.601245,0.77588105
15600000,0.87266463,0.28431562,-1.3318815,0.6684819,0.40829632,-0.1574898,-0.60135096,0.77742404
15624000,0.87266463,0.28516707,-1.3318815,0.6683288,0.40851223,-0.15717372,-0.60145724,0.7789798
15648000,0.87266463,0.28602013,-1.3318815,0.6681753,0.40872842,-0.15685698,-0.6015635,0.7805411
15672000,0.87266463,0.2868756,-1.3318815,0.6680213,0.4089452,-0.15653932,-0.60167,0.78211325
15696000,0.87266463,0.28772336,-1.3318815,0.6678685,0.4091599,-0.15622453,-0.60177547,0.78382933
15720000,0.87266463,0.2885599,-1.3318815,0.66771764,0.4093717,-0.15591386,-0.6018794,0.7855246
15744000,0.87266463,0.28939906,-1.3318815,0.6675661,0.40958413,-0.15560216,-0.60198355,0.7872048
15768000,0.87266463,0.2902412,-1.3318815,0.66741407,0.40979722,-0.15528935,-0.602088,0.7888758
15792000,0.87266463,0.29107782,-1.3318815,0.6672628,0.41000882,-0.15497857,-0.6021916,0.79068685
15816000,0.87266463,0.2919177,-1.3318815,0.66711086,0.4102212,-0.15466654,-0.6022955,0.7924762
15840000,0.87266463,0.29275885,-1.3318815,0.6669586,0.41043386,-0.15435402,-0.6023995,0.7942581
15864000,0.87266463,0.2936013,-1.3318815,0.6668059,0.4106467,-0.15404098,-0.6025035,0.7960365
15888000,0.87266463,0.29444274,-1.3318815,0.66665334,0.41085923,-0.1537283,-0.60260737,0.7978108
15912000,0.87266463,0.295252,-1.3318815,0.66650647,0.41106358,-0.15342754,-0.602707,0.79997784
15936000,0.87266463,0.29605934,-1.3318815,0.6663599,0.4112674,-0.15312746,-0.60280645,0.80202305
15960000,0.87266463,0.29686788,-1.3318815,0.6662129,0.41147143,-0.15282694,-0.60290587,0.8039991
15984000,0.87266463,0.2976769,-1.3318815,0.6660658,0.4116755,-0.15252621,-0.6030053,0.8059403
16008000,0.87266463,0.29849687,-1.3318815,0.66591656,0.4118823,-0.15222138,-0.60310596,0.80755156
16032000,0.87266463,0.29931587,-1.3318815,0.6657673,0.41208875,-0.15191686,-0.6032064,0.8091256
16056000,0.87266463,0.30013213,-1.3318815,0.66561854,0.41229445,-0.15161335,-0.60330635,0.81064785
16080000,0.87266463,0.30094546,-1.3318815,0.6654702,0.41249937,-0.15131092,-0.6034059,0.8121631
16104000,0.87266463,0.3017403,-1.3318815,0.6653251,0.41269952,-0.15101534,-0.60350305,0.8139063
16128000,0.87266463,0.3025115,-1.3318815,0.6651842,0.41289368,-0.15072846,-0.6035973,0.815506
16152000,0.87266463,0.30328053,-1.3318815,0.6650436,0.41308725,-0.15044245,-0.6036911,0.81701577
16176000,0.87266463,0.30404583,-1.3318815,0.6649036,0.41327977,-0.15015776,-0.6037844,0.8183801
16200000,0.87266463,0.30480826,-1.3318815,0.66476405,0.41347158,-0.14987415,-0.60387725,0.8195281
16224000,0.87266463,0.30556172,-1.3318815,0.66462606,0.41366106,-0.14959386,-0.6039689,0.82054454
16248000,0.87266463,0.30631304,-1.3318815,0.66448826,0.4138499,-0.1493143,-0.60406023,0.8214934
16272000,0.87266463,0.30704984,-1.3318815,0.66435313,0.41403505,-0.14904013,-0.60414976,0.8223176
16296000,0.87266463,0.30777103,-1.3318815,0.66422075,0.41421622,-0.14877176,-0.60423726,0.82340145
16320000,0.87266463,0.30846617,-1.3318815,0.664093,0.4143908,-0.14851308,-0.6043215,0.8243507
16344000,0.87266463,0.30914938,-1.3318815,0.6639675,0.41456234,-0.14825882,-0.6044043,0.8251493
16368000,0.87266463,0.30982232,-1.3318815,0.6638437,0.41473123,-0.14800832,-0.60448575,0.82584774
16392000,0.87266463,0.3104831,-1.3318815,0.6637221,0.41489708,-0.14776242,-0.6045656,0.8264307
16416000,0.87266463,0.31112477,-1.3318815,0.663604,0.41505805,-0.14752355,-0.60464317,0.8272217
16440000,0.87266463,0.31175804,-1.3318815,0.6634874,0.41521686,-0.14728779,-0.60471964,0.8278942
16464000,0.8689319,0.31238043,-1.3318815,0.6641467,0.4141341,-0.14592704,-0.6050681,0.8284295
16488000,0.85758024,0.31299117,-1.3318815,0.6663751,0.4105118,-0.14226255,-0.6059585,0.8288781
16512000,0.8455403,0.31358448,-1.3318815,0.6687268,0.406643,-0.13839024,-0.60687244,0.82936716
16536000,0.83291537,0.31414306,-1.3318815,0.67118007,0.40255558,-0.13434738,-0.607797,0.82952535
16560000,0.81957614,0.3146934,-1.3318815,0.673752,0.39821064,-0.13008404,-0.60874027,0.8294741
16584000,0.80556136,0.31523383,-1.3318815,0.6764305,0.3936183,-0.12561189,-0.609695,0.82921445
16608000,0.79079866,0.31575313,-1.3318815,0.6792269,0.3887485,-0.120912336,-0.61065996,0.8288986
16632000,0.7753784,0.31626236,-1.3318815,0.68211615,0.38363194,-0.11600811,-0.61162597,0.82830065
16656000,0.75923955,0.31675896,-1.3318815,0.6851048,0.37824455,-0.1108809,-0.6125911,0.8274361
16680000,0.74244666,0.3172452,-1.3318815,0.68817466,0.37260607,-0.10554893,-0.6135469,0.8262982
16704000,0.7250083,0.31771606,-1.3318815,0.69131905,0.3667156,-0.10001627,-0.6144872,0.82497025
16728000,0.7069366,0.31815603,-1.3318815,0.69453216,0.36057046,-0.09429217,-0.6154047,0.82331115
16752000,0.6883942,0.31857538,-1.3318815,0.6977774,0.35422748,-0.08842249,-0.61628807,0.82132405
16776000,0.6692576,0.31898326,-1.3318815,0.7010699,0.34764397,-0.08236559,-0.61713904,0.8191528
16800000,0.64961606,0.3193812,-1.3318815,0.7043879,0.3408494,-0.07614834,-0.617949,0.81657165
16824000,0.62953293,0.31977206,-1.3318815,0.7077148,0.3338649,-0.06978919,-0.6187111,0.813849
16848000,0.6089782,0.32015282,-1.3318815,0.71105105,0.32667756,-0.063280284,-0.61942214,0.81105727
16872000,0.58805674,0.320523,-1.3318815,0.7143744,0.31932303,-0.056654543,-0.6200744,0.80820715
16896000,0.5667369,0.32087448,-1.3318815,0.71768665,0.3117866,-0.049905658,-0.6206646,0.805636
16920000,0.54512805,0.32121733,-1.3318815,0.7209644,0.30410925,-0.043064244,-0.62118703,0.80304706
16944000,0.5234246,0.3215173,-1.3318815,0.7241801,0.29635125,-0.03620463,-0.6216336,0.80032414
16968000,0.50149226,0.32181025,-1.3318815,0.7273463,0.28847408,-0.029271908,-0.62200737,0.797566
16992000,0.47942868,0.3220985,-1.3318815,0.7304459,0.28051382,-0.022296354,-0.6223052,0.79436904
17016000,0.4571925,0.32238394,-1.3318815,0.73348224,0.2724562,-0.015265189,-0.62252593,0.79119164
17040000,0.4349093,0.32266372,-1.3318815,0.73643655,0.26434678,-0.008219436,-0.62266725,0.7880184
17064000,0.41271833,0.32293877,-1.3318815,0.73929006,0.25623804,-0.001202993,-0.62272865,0.7847812
17088000,0.39054227,0.32320875,-1.3318815,0.742053,0.24810262,0.005807146,-0.6227108,0.7815417
17112000,0.3683725,0.32346457,-1.3318815,0.74472725,0.2399357,0.012809254,-0.62261385,0.7786166
17136000,0.34641743,0.32369977,-1.3318815,0.74728924,0.23181419,0.01973503,-0.62244,0.7756022
17160000,0.32461247,0.32391924,-1.3318815,0.74974763,0.22371705,0.026605658,-0.62219083,0.7725445
17184000,0.30286264,0.32413346,-1.3318815,0.75211287,0.21561304,0.03345398,-0.62186664,0.7694787
17208000,0.28118643,0.32433757,-1.3318815,0.7543839,0.20750886,0.040271595,-0.62146854,0.7664438
17232000,0.2597748,0.32453886,-1.3318815,0.7565416,0.19948001,0.047001243,-0.621002,0.7634014
17256000,0.23860589,0.3247342,-1.3318815,0.7585912,0.19151907,0.053647883,-0.6204691,0.76041454
17280000,0.21767788,0.3249293,-1.3318815,0.76053476,0.18362859,0.060213707,-0.6198722,0.7574957
17304000,0.1970897,0.32510597,-1.3318815,0.76236826,0.17584246,0.06666049,-0.6192175,0.75454044
17328000,0.17682922,0.32528374,-1.3318815,0.7640944,0.1681636,0.0729993,-0.61850774,0.7516567
17352000,0.15711834,0.32543033,-1.3318815,0.76570183,0.16066888,0.07914858,-0.6177554,0.74876535
17376000,0.13786428,0.3255706,-1.3318815,0.7672012,0.15333214,0.08514675,-0.6169616,0.7459332
17400000,0.11913223,0.3257018,-1.3318815,0.76859295,0.14617932,0.09097262,-0.6161336,0.7433146
17424000,0.10089171,0.3258284,-1.3318815,0.76988417,0.1392017,0.09663743,-0.61527437,0.74077123
17448000,0.08326093,0.32594866,-1.3318815,0.77107215,0.13244586,0.10210435,-0.61439455,0.73830795
17472000,0.06625937,0.32606304,-1.3318815,0.7721617,0.12592104,0.10736797,-0.61350006,0.735946
17496000,0.049781427,0.32616085,-1.3318815,0.77316594,0.119584665,0.11245694,-0.6125907,0.7340366
17520000,0.033930626,0.32625517,-1.3318815,0.77408296,0.11348197,0.11734505,-0.6116761,0.7321631
17544000,0.018755088,0.32632828,-1.3318815,0.7749168,0.10762744,0.12201127,-0.6107647,0.7303188
17568000,0.004204361,0.32638997,-1.3318815,0.77567536,0.10200563,0.12647548,-0.6098578,0.728527
17592000,-0.009871,0.3264375,-1.3318815,0.7763711,0.09655869,0.13078272,-0.6089502,0.727146
17616000,-0.02329653,0.3264823,-1.3318815,0.77699906,0.09135865,0.13488483,-0.6080561,0.72578055
17640000,-0.036285367,0.32652086,-1.3318815,0.7775737,0.0863224,0.13884586,-0.60716504,0.7244241
17664000,-0.048819564,0.32655382,-1.3318815,0.77809757,0.08145769,0.14266102,-0.60628104,0.72311497
17688000,-0.060854074,0.32657942,-1.3318815,0.7785722,0.076782085,0.14631644,-0.60541004,0.7218272
17712000,-0.07240451,0.32659248,-1.3318815,0.779002,0.07228841,0.14981538,-0.6045541,0.7207657
17736000,-0.083568625,0.32660463,-1.3318815,0.7793928,0.06794261,0.15319239,-0.6037076,0.7196935
17760000,-0.0941051,0.3265891,-1.3318815,0.7797407,0.0638309,0.15636475,-0.60289323,0.7185331
17784000,-0.10422933,0.32656682,-1.3318815,0.78005487,0.05987609,0.15940605,-0.6020955,0.7173366
17808000,-0.11408403,0.32652977,-1.3318815,0.7803421,0.056020375,0.16235662,-0.6013055,0.71637416
17832000,-0.12357246,0.3264858,-1.3318815,0.7806011,0.052304085,0.16519059,-0.60053164,0.7153497
17856000,-0.13271658,0.3264317,-1.3318815,0.78083444,0.048717912,0.16791376,-0.59977424,0.71427447
17880000,-0.14144725,0.32636803,-1.3318815,0.78104234,0.045289226,0.17050597,-0.5990405,0.71316993
17904000,-0.14973347,0.32629174,-1.3318815,0.7812264,0.04202934,0.17295717,-0.598335,0.71255827
17928000,-0.1576428,0.32620612,-1.3318815,0.7813899,0.03891309,0.17528923,-0.5976531,0.71186733
17952000,-0.16493063,0.326094,-1.3318815,0.78153074,0.036030874,0.17742297,-0.5970197,0.71109205
17976000,-0.1717837,0.32596305,-1.3318815,0.7816546,0.03331223,0.17941761,-0.5964191,0.7102212
18000000,-0.17821635,0.3258147,-1.3318815,0.7817631,0.030752137,0.18127829,-0.5958514,0.7094195
18024000,-0.18423843,0.32565892,-1.3318815,0.7818576,0.028349876,0.18301213,-0.5953163,0.70852476
18048000,-0.18981834,0.32549083,-1.3318815,0.7819395,0.026116408,0.18460819,-0.594818,0.7075586
18072000,-0.19487928,0.3253115,-1.3318815,0.78200907,0.024082124,0.1860444,-0.5943645,0.7065192
18096000,-0.19962266,0.32511654,-1.3318815,0.7820705,0.02216702,0.18737924,-0.5939389,0.7060835
18120000,-0.20395748,0.32491708,-1.3318815,0.78212315,0.020410113,0.18859012,-0.5935492,0.70555145
18144000,-0.2079317,0.3247064,-1.3318815,0.7821688,0.018790647,0.18968901,-0.5931922,0.70493853
18168000,-0.21145886,0.32447004,-1.3318815,0.782208,0.01733797,0.19064489,-0.5928781,0.7041955
18192000,-0.21455038,0.32421833,-1.3318815,0.7822416,0.016050845,0.19146535,-0.59260565,0.70343673
18216000,-0.21731259,0.32395807,-1.3318815,0.78227085,0.014889799,0.19218463,-0.59236455,0.70256615
18240000,-0.21981193,0.3236869,-1.3318815,0.78229684,0.013828158,0.19282162,-0.59214884,0.7016025
18264000,-0.2220288,0.3234052,-1.3318815,0.78231984,0.012873694,0.19337079,-0.5919607,0.7005533
18288000,-0.2239535,0.3231133,-1.3318815,0.78234035,0.012030311,0.19382942,-0.5918016,0.69943655
18312000,-0.22563739,0.32280603,-1.3318815,0.78235894,0.011276364,0.19421086,-0.5916667,0.6987925
18336000,-0.22711186,0.32249448,-1.3318815,0.7823759,0.010602966,0.19452864,-0.5915525,0.69802755
18360000,-0.22830707,0.32216892,-1.3318815,0.7823911,0.010034457,0.19475845,-0.5914665,0.69715434
18384000,-0.22929052,0.3218335,-1.3318815,0.78240526,0.009545721,0.19492182,-0.59140205,0.69619435
18408000,-0.2299905,0.3214873,-1.3318815,0.782418,0.009164535,0.19499731,-0.59136623,0.69546515
18432000,-0.23053399,0.3211393,-1.3318815,0.78243005,0.008843981,0.19502583,-0.59134585,0.694638
18456000,-0.23085186,0.32078385,-1.3318815,0.7824412,0.008609377,0.1949848,-0.5913482,0.6937381
18480000,-0.2309832,0.32042113,-1.3318815,0.78245157,0.008445509,0.19488582,-0.59136933,0.6927599
18504000,-0.23105465,0.3200494,-1.3318815,0.78246194,0.008302264,0.19476575,-0.59139717,0.69201815
18528000,-0.2308983,0.31967372,-1.3318815,0.7824716,0.008246914,0.19457678,-0.5914476,0.6911644
18552000,-0.23066026,0.31929028,-1.3318815,0.7824809,0.008221127,0.19436072,-0.59150654,0.6902077
18576000,-0.23012301,0.31889036,-1.3318815,0.7824894,0.008307301,0.19404987,-0.591596,0.6891268
18600000,-0.2294944,0.3184806,-1.3318815,0.7824979,0.008426167,0.1937082,-0.5916952,0.6882983
18624000,-0.22867605,0.31806988,-1.3318815,0.78250545,0.008618973,0.19330996,-0.5918126,0.68735963
18648000,-0.22773027,0.31765455,-1.3318815,0.78251266,0.008860216,0.1928722,-0.59194237,0.6863302
18672000,-0.22669123,0.31723493,-1.3318815,0.78251934,0.009136617,0.19240507,-0.5920813,0.68521047
18696000,-0.22553751,0.31680495,-1.3318815,0.7825257,0.009454697,0.1919,-0.5922318,0.6840372
18720000,-0.22435568,0.31637505,-1.3318815,0.7825318,0.009783812,0.19138649,-0.59238464,0.6827656
18744000,-0.22304605,0.315941,-1.3318815,0.7825372,0.010161646,0.1908334,-0.59254956,0.68142575
18768000,-0.22155438,0.31549993,-1.3318815,0.7825417,0.010608546,0.19022357,-0.59273195,0.6799808
18792000,-0.22001567,0.3150519,-1.3318815,0.78254575,0.011071712,0.18959698,-0.5929188,0.6789481
18816000,-0.21845835,0.3146047,-1.3318815,0.7825494,0.011542417,0.18896498,-0.5931067,0.67781043
18840000,-0.21675137,0.314154,-1.3318815,0.78255194,0.012070619,0.18828708,-0.5933084,0.67659986
18864000,-0.2149724,0.3137,-1.3318815,0.78255373,0.012625963,0.18758631,-0.59351635,0.6753256
18888000,-0.21317269,0.3132436,-1.3318815,0.78255504,0.013188712,0.18687826,-0.59372556,0.67397654
18912000,-0.21132179,0.3127794,-1.3318815,0.78255594,0.013769068,0.1861518,-0.5939395,0.67301553
18936000,-0.20938018,0.3123183,-1.3318815,0.7825556,0.014385894,0.18539934,-0.59416074,0.6719544
18960000,-0.20749933,0.31185585,-1.3318815,0.78255516,0.014978536,0.18466413,-0.59437543,0.6708015
18984000,-0.20536643,0.31138748,-1.3318815,0.78255254,0.015667982,0.18385151,-0.5946131,0.669569
19008000,-0.20324697,0.31091514,-1.3318815,0.78254956,0.016350955,0.18304105,-0.5948487,0.6684302
19032000,-0.20117033,0.3104467,-1.3318815,0.7825461,0.017018378,0.18224452,-0.595079,0.6671998
19056000,-0.19898644,0.30997625,-1.3318815,0.7825412,0.017727144,0.181415,-0.5953181,0.6658953
19080000,-0.19674653,0.30950466,-1.3318815,0.78253514,0.01845751,0.18056805,-0.59556127,0.66451806
19104000,-0.194437,0.30902544,-1.3318815,0.78252804,0.019212753,0.17969713,-0.5958102,0.6632061
19128000,-0.1922302,0.30855107,-1.3318815,0.782521,0.019929312,0.17885832,-0.5960482,0.6617942
19152000,-0.18999389,0.30807543,-1.3318815,0.7825131,0.020657033,0.17800993,-0.59628785,0.66031647
19176000,-0.18766311,0.30759737,-1.3318815,0.7825034,0.021420963,0.1771321,-0.5965347,0.65878576
19200000,-0.1852614,0.30711392,-1.3318815,0.78249246,0.022210978,0.1762307,-0.59678715,0.6574606
19224000,-0.1828437,0.30663565,-1.3318815,0.7824803,0.023008868,0.17532617,-0.5970392,0.656079
19248000,-0.18038972,0.30615786,-1.3318815,0.78246695,0.023821086,0.1744106,-0.597293,0.6546358
19272000,-0.17797953,0.3056786,-1.3318815,0.7824533,0.024615735,0.17350718,-0.5975418,0.65313655
19296000,-0.1755623,0.30519375,-1.3318815,0.7824389,0.025411412,0.17259918,-0.5977903,0.6516682
19320000,-0.1730721,0.30471593,-1.3318815,0.78242236,0.026237793,0.17167167,-0.5980431,0.6501338
19344000,-0.17062557,0.30423987,-1.3318815,0.7824056,0.027047642,0.17075756,-0.5982907,0.6485557
19368000,-0.16829795,0.30376467,-1.3318815,0.7823896,0.027811237,0.16987899,-0.5985266,0.6469254
19392000,-0.16576147,0.30327985,-1.3318815,0.7823702,0.02865354,0.16893387,-0.5987798,0.645778
19416000,-0.1632228,0.30280185,-1.3318815,0.7823495,0.029498823,0.16799034,-0.5990311,0.64455783
19440000,-0.16075201,0.3023251,-1.3318815,0.78232896,0.030317925,0.16706724,-0.5992751,0.6433013
19464000,-0.15827106,0.30184922,-1.3318815,0.7823074,0.031141266,0.1661411,-0.5995186,0.6419773
19488000,-0.15578079,0.30137464,-1.3318815,0.7822847,0.03196865,0.16521227,-0.5997613,0.64060855
19512000,-0.15329671,0.30089533,-1.3318815,0.78226125,0.03279213,0.16428316,-0.60000247,0.63920057
19536000,-0.15079173,0.30042526,-1.3318815,0.7822364,0.033626635,0.16335094,-0.6002432,0.6377465
19560000,-0.14836392,0.29995778,-1.3318815,0.78221184,0.03443175,0.16244256,-0.6004761,0.63626075
19584000,-0.14589988,0.29949313,-1.3318815,0.7821857,0.035251893,0.16152404,-0.6007103,0.63473654
19608000,-0.14348333,0.29901814,-1.3318815,0.78215986,0.036050256,0.16061547,-0.60094005,0.63361883
19632000,-0.14098676,0.2985627,-1.3318815,0.782131,0.036885936,0.15969007,-0.60117346,0.6324556
19656000,-0.13854572,0.29810238,-1.3318815,0.7821025,0.03769837,0.15877911,-0.6014014,0.63121635
19680000,-0.13607581,0.29763794,-1.3318815,0.7820728,0.038520817,0.15785757,-0.6016305,0.6299161
19704000,-0.13372883,0.2971858,-1.3318815,0.7820441,0.039298978,0.15697743,-0.60184777,0.6285728
19728000,-0.1313713,0.29673573,-1.3318815,0.7820143,0.04008186,0.1560946,-0.6020644,0.6271761
19752000,-0.12892836,0.29628813,-1.3318815,0.7819819,0.0408989,0.15518671,-0.60228616,0.625743
19776000,-0.12662977,0.29293856,-1.3318815,0.7820626,0.04076395,0.15320393,-0.60269815,0.6196863
19800000,-0.12426076,0.28421408,-1.3318815,0.78234035,0.03899783,0.14912601,-0.6034767,0.58581066
19824000,-0.12193862,0.27548328,-1.3318815,0.7826097,0.03721136,0.14505535,-0.60423195,0.55435425
19848000,-0.1195688,0.26674646,-1.3318815,0.7828687,0.035441663,0.14096364,-0.60497093,0.52527833
19872000,-0.11722011,0.25800365,-1.3318815,0.78311855,0.03366181,0.13687178,-0.6056883,0.49852097
19896000,-0.11492642,0.24925128,-1.3318815,0.78335994,0.031857435,0.1327888,-0.60638225,0.47431636
19920000,-0.11260975,0.24048918,-1.3318815,0.7835914,0.030059047,0.12869117,-0.6070581,0.45221207
19944000,-0.11032862,0.23171714,-1.3318815,0.7838138,0.028243639,0.124596626,-0.607712,0.43208826
19968000,-0.108167514,0.22293487,-1.3318815,0.78402823,0.026378017,0.12053092,-0.60833895,0.4138221
19992000,-0.10602033,0.21413627,-1.3318815,0.78423303,0.024501864,0.11645958,-0.6089462,0.3977399
20016000,-0.10394237,0.20532124,-1.3318815,0.78442866,0.022593457,0.11239953,-0.6095305,0.38320708
20040000,-0.10190544,0.19648963,-1.3318815,0.7846148,0.02066382,0.10834232,-0.6100939,0.37008464
20064000,-0.09996093,0.18764141,-1.3318815,0.7847916,0.018692777,0.10430371,-0.6106337,0.35824928
20088000,-0.09806956,0.17877659,-1.3318815,0.7849583,0.016695727,0.100271896,-0.6111523,0.34754008
20112000,-0.09629248,0.16988137,-1.3318815,0.78511554,0.014644418,0.09626034,-0.6116478,0.33902395
20136000,-0.09460507,0.1609562,-1.3318815,0.78526264,0.012548626,0.09226185,-0.6121217,0.33137837
20160000,-0.09299266,0.15200163,-1.3318815,0.78539896,0.010414295,0.08827229,-0.61257493,0.32452708
20184000,-0.09138206,0.14301832,-1.3318815,0.7855239,0.008270379,0.08426962,-0.613011,0.3183425
20208000,-0.0898373,0.13399668,-1.3318815,0.78563756,0.006088782,0.08026983,-0.6134274,0.31356412
20232000,-0.08835429,0.12493776,-1.3318815,0.7857397,0.003871456,0.0762722,-0.6138246,0.3092572
20256000,-0.08711319,0.1158427,-1.3318815,0.78582996,0.00154797,0.07233261,-0.61419606,0.30536708
20280000,-0.08585864,0.10671273,-1.3318815,0.78590745,-0.000780951,0.06837331,-0.61455184,0.30183733
20304000,-0.08468816,0.097537555,-1.3318815,0.7859719,-0.003156776,0.064420305,-0.6148888,0.29948255
20328000,-0.083545156,0.088318795,-1.3318815,0.78602296,-0.005556731,0.06045696,-0.6152088,0.29732865
20352000,-0.08251548,0.07905814,-1.3318815,0.78606004,-0.00801401,0.056510452,-0.6155095,0.28754687
20376000,-0.081466876,0.06975744,-1.3318815,0.7860831,-0.010476034,0.052540913,-0.6157946,0.27812138
20400000,-0.080427945,0.060406733,-1.3318815,0.7860919,-0.012957057,0.048553318,-0.6160634,0.27051544
20424000,-0.079458505,0.05447055,-1.3318815,0.7860923,-0.014410166,0.045925673,-0.6162322,0.26357216
20448000,-0.07856958,0.050893713,-1.3318815,0.7860922,-0.015165878,0.044248197,-0.6163369,0.25717944
20472000,-0.077658206,0.047509257,-1.3318815,0.7860912,-0.015853286,0.042639077,-0.61643434,0.251347
20496000,-0.07684565,0.044030204,-1.3318815,0.78608763,-0.016608723,0.04102309,-0.61652863,0.24692924
20520000,-0.076132484,0.040719904,-1.3318815,0.78608215,-0.017351042,0.039503798,-0.61661446,0.24283913
20544000,-0.07537392,0.03757925,-1.3318815,0.7860762,-0.018023074,0.038036946,-0.6166948,0.23910332
20568000,-0.074589595,0.03459902,-1.3318815,0.78607005,-0.018635398,0.036624998,-0.61677,0.23564681
20592000,-0.073877685,0.031490937,-1.3318815,0.78606135,-0.019315634,0.03518504,-0.61684394,0.23332436
20616000,-0.07307971,0.028532643,-1.3318815,0.78605306,-0.019915745,0.033777226,-0.61691415,0.2311135
20640000,-0.07229971,0.02573169,-1.3318815,0.7860445,-0.020474292,0.032436628,-0.6169788,0.22906552
20664000,-0.071542,0.023068389,-1.3318815,0.7860354,-0.020999053,0.031156857,-0.6170385,0.22710758
20688000,-0.070766345,0.020545619,-1.3318815,0.7860269,-0.021473337,0.029926661,-0.61709416,0.22523326
20712000,-0.06997817,0.017855989,-1.3318815,0.7860162,-0.021994209,0.02862697,-0.61715084,0.22431746
20736000,-0.076503724,0.015318379,-1.3376392,0.7841388,-0.02525682,0.029716577,-0.6193588,0.22343542
20760000,-0.07985395,0.012906919,-1.3408701,0.7830707,-0.027269391,0.02985315,-0.620617,0.22252016
20784000,-0.09708183,0.010621532,-1.3551338,0.7783332,-0.034477487,0.03455061,-0.62595123,0.22156915
20808000,-0.10039096,0.008088432,-1.3584356,0.77720547,-0.03650129,0.03466122,-0.6272304,0.22169015
20832000,-0.10365723,0.00569067,-1.3617605,0.7760652,-0.03846496,0.03481811,-0.6285149,0.2217451
20856000,-0.10695113,0.003418089,-1.3650889,0.77491754,-0.04039914,0.0350389,-0.62979597,0.22171763
20880000,-0.12390026,0.001272656,-1.3793391,0.77000135,-0.047357135,0.03988251,-0.63503116,0.22159083
20904000,-0.1334019,-0.000976671,-1.3877602,0.76704,-0.051551305,0.042250708,-0.63812774,0.22196238
20928000,-0.13675334,-0.003090869,-1.3912501,0.7657909,-0.053436715,0.042602465,-0.6394481,0.22223982
20952000,-0.13995044,-0.005075273,-1.394706,0.7645524,-0.055220857,0.04296019,-0.6407532,0.22243637
20976000,-0.15636106,-0.006944363,-1.4088919,0.7594628,-0.061751984,0.04794115,-0.6458363,0.22249477
21000000,-0.15968882,-0.008940784,-1.4124439,0.7581563,-0.06357389,0.048370276,-0.64716125,0.22309229
21024000,-0.16306473,-0.010826046,-1.4160709,0.75681967,-0.06537443,0.048866205,-0.64850765,0.22352901
21048000,-0.16648158,-0.01257985,-1.4197645,0.75545675,-0.0671441,0.04943405,-0.64987165,0.2239139
21072000,-0.1823743,-0.014225575,-1.4339507,0.75022036,-0.07329403,0.054495987,-0.65484935,0.22414088
21096000,-0.19151944,-0.015836243,-1.4425308,0.7470069,-0.07700526,0.057215996,-0.6578581,0.22445142
21120000,-0.19487646,-0.01732017,-1.4463294,0.7455735,-0.0786363,0.057914663,-0.65922856,0.22469321
21144000,-0.19831073,-0.018699622,-1.4501572,0.7441247,-0.080257975,0.05868533,-0.66060066,0.2248174
21168000,-0.21372782,-0.01995794,-1.4642998,0.73874795,-0.08595619,0.063916616,-0.6654154,0.22490785
21192000,-0.21693888,-0.021411914,-1.4681054,0.7372836,-0.08750187,0.06461347,-0.6667696,0.22558656
21216000,-0.22023243,-0.022751933,-1.4720485,0.7357677,-0.089032605,0.065392084,-0.6681638,0.22616059
21240000,-0.22356161,-0.023987835,-1.4760466,0.73422986,-0.09053668,0.06622969,-0.6695694,0.22661206
21264000,-0.23857102,-0.02511297,-1.4902017,0.7287257,-0.09591565,0.071519576,-0.67427284,0.22700885
21288000,-0.24190378,-0.026128974,-1.4942533,0.7271513,-0.09732458,0.07246923,-0.6756679,0.22733189
21312000,-0.25047922,-0.027118763,-1.5029998,0.72371995,-0.100445546,0.075444855,-0.67856336,0.22773841
21336000,-0.2537094,-0.02801249,-1.5070407,0.7221413,-0.10176212,0.07642207,-0.67993814,0.2280817
21360000,-0.2681123,-0.02880311,-1.5211036,0.7165547,-0.10665498,0.08178236,-0.6844603,0.22837391
21384000,-0.27111495,-0.029504482,-1.525178,0.7149617,-0.107801214,0.082777455,-0.68582547,0.22861706
21408000,-0.2740893,-0.030109867,-1.5292776,0.71336174,-0.1088995,0.0838035,-0.6871921,0.22878247
21432000,-0.27708238,-0.030635396,-1.5334728,0.7117272,-0.1099689,0.08487451,-0.6885838,0.22887649
21456000,-0.29087842,-0.031071372,-1.547482,0.70609075,-0.114395514,0.09027016,-0.6929652,0.22897202
21480000,-0.29377,-0.031427845,-1.5517067,0.7044393,-0.11534639,0.09138943,-0.69434035,0.22903855
21504000,-0.29657313,-0.031955373,-1.5558909,0.7027927,-0.11632272,0.092419446,-0.6957083,0.22968227
21528000,-0.30419648,-0.032410823,-1.5646489,0.6992657,-0.11874149,0.09543073,-0.69844174,0.23023193
21552000,-0.30682442,-0.03278163,-1.568852,0.6976178,-0.11958655,0.09646965,-0.6998013,0.23078209
21576000,-0.31971517,-0.03308902,-1.582693,0.69195825,-0.123486295,0.101727456,-0.7039861,0.2312682
21600000,-0.3222109,-0.03333975,-1.5869238,0.6902973,-0.12422029,0.10278165,-0.7053331,0.23180649
21624000,-0.32474726,-0.03352361,-1.591242,0.68860334,-0.1249361,0.103882246,-0.70669997,0.23233172
21648000,-0.32724178,-0.033642642,-1.5956004,0.686898,-0.12560818,0.10499637,-0.7080745,0.23282984
21672000,-0.33963948,-0.033692352,-1.6094155,0.6812,-0.12912264,0.11026097,-0.7121351,0.23334643
21696000,-0.34188688,-0.033532605,-1.6137421,0.67952335,-0.12959081,0.11139648,-0.7134739,0.23346506
21720000,-0.34417528,-0.033323813,-1.6180992,0.67783314,-0.13004924,0.112567686,-0.7148133,0.23361035
21744000,-0.3463477,-0.033059172,-1.6224544,0.6761515,-0.13044405,0.113718584,-0.7161505,0.2338047
21768000,-0.3530016,-0.0327589,-1.6311915,0.6726014,-0.13207711,0.11678074,-0.718697,0.23398189
21792000,-0.36442256,-0.032594852,-1.6448177,0.6669405,-0.13503012,0.12186118,-0.72256976,0.23457022
21816000,-0.36626118,-0.03237306,-1.6491247,0.66527474,-0.13529919,0.12289148,-0.7238794,0.23522295
21840000,-0.368109,-0.032110732,-1.6534986,0.66358405,-0.13554862,0.12394477,-0.72520375,0.23588838
21864000,-0.36986798,-0.03181375,-1.6578825,0.66189533,-0.1357515,0.12497954,-0.72653013,0.2365288
21888000,-0.3715187,-0.031469442,-1.6622617,0.6602163,-0.13589785,0.12599169,-0.72785467,0.23721048
21912000,-0.3823233,-0.0311106,-1.6758019,0.6545615,-0.13844919,0.13098133,-0.73159057,0.23797286
21936000,-0.38383853,-0.030729348,-1.6801939,0.65287757,-0.13851692,0.13196567,-0.73290455,0.23868862
21960000,-0.3852424,-0.030308563,-1.6845973,0.6511973,-0.1385295,0.13292366,-0.7342227,0.23947854
21984000,-0.390741,-0.029858975,-1.6931747,0.64769554,-0.13957456,0.13568887,-0.73661244,0.240289
22008000,-0.39195952,-0.0291332,-1.6975605,0.6460502,-0.13940386,0.13668026,-0.73790526,0.24055992
22032000,-0.40200996,-0.028395118,-1.7109704,0.64044315,-0.14143191,0.14157788,-0.7414751,0.24085529
22056000,-0.4030608,-0.02765373,-1.7153511,0.6388027,-0.14118311,0.14251597,-0.74275666,0.24116239
22080000,-0.40403774,-0.02689305,-1.7197297,0.63716733,-0.14090034,0.14343211,-0.7440377,0.24154595
22104000,-0.40498874,-0.02600267,-1.7241414,0.6355294,-0.1405555,0.14438172,-0.74531907,0.24172536
22128000,-0.40584612,-0.025108274,-1.7285385,0.6339012,-0.14017707,0.14529571,-0.7465982,0.24195415
22152000,-0.4151289,-0.024208697,-1.7417634,0.628372,-0.14179505,0.14998685,-0.7500311,0.2422459
22176000,-0.41969225,-0.023305867,-1.7502439,0.6249379,-0.14224572,0.15258756,-0.7522871,0.2425856
22200000,-0.4201617,-0.022309043,-1.7545806,0.6233553,-0.14168674,0.15338501,-0.75354236,0.24278182
22224000,-0.42051893,-0.021320637,-1.7589061,0.6217817,-0.14109415,0.15413493,-0.75479954,0.24307229
22248000,-0.42082524,-0.020342031,-1.7632434,0.6202038,-0.14048591,0.15486144,-0.7560614,0.24341369
22272000,-0.4211012,-0.019378895,-1.7675996,0.618617,-0.13987018,0.15557101,-0.7573288,0.24377823
22296000,-0.42964083,-0.018497014,-1.7806238,0.61314934,-0.14113882,0.15999962,-0.7606102,0.24444762
22320000,-0.42974666,-0.017619954,-1.7849498,0.6115705,-0.14049174,0.16061434,-0.76187056,0.24516189
22344000,-0.43348798,-0.016748209,-1.7933006,0.6081969,-0.14062567,0.16289558,-0.76405895,0.24593297
22368000,-0.4332958,-0.015883328,-1.7975802,0.6066489,-0.13988847,0.16338606,-0.765319,0.24677207
22392000,-0.43296123,-0.01485501,-1.8018486,0.6051265,-0.13904513,0.16386844,-0.7665739,0.24724576
22416000,-0.43267348,-0.013841647,-1.8061516,0.60358334,-0.13821733,0.16436377,-0.7678331,0.24776302
22440000,-0.43224412,-0.0128444,-1.8104521,0.60204667,-0.13735174,0.16479677,-0.769101,0.24835017
22464000,-0.43179145,-0.011862604,-1.8147542,0.6005065,-0.13648364,0.16521326,-0.77036923,0.24900036
22488000,-0.43931398,-0.010894707,-1.8275195,0.59514886,-0.13729194,0.1692807,-0.7734939,0.24968795
22512000,-0.44235384,-0.009904468,-1.8357012,0.59185916,-0.13711454,0.17131399,-0.775599,0.2503458
22536000,-0.44149104,-0.008930744,-1.839935,0.5903611,-0.13611934,0.17155692,-0.77686137,0.25104845
22560000,-0.44064352,-0.00797292,-1.8441633,0.58885944,-0.13513471,0.17179726,-0.7781188,0.25182688
22584000,-0.43970314,-0.007032391,-1.848368,0.5873685,-0.13413104,0.17199133,-0.77937555,0.2526711
22608000,-0.43859723,-0.005960061,-1.8525691,0.58589816,-0.13302746,0.17215575,-0.780634,0.25315598
22632000,-0.43741915,-0.004913896,-1.8567551,0.5844327,-0.13191402,0.17227939,-0.781893,0.2537096
22656000,-0.439987,-0.003892802,-1.8648398,0.58118844,-0.13156275,0.1741151,-0.7839611,0.25431263
22680000,-0.43866804,-0.002892964,-1.8690042,0.57972926,-0.13042535,0.17416091,-0.7852205,0.25500005
22704000,-0.43716124,-0.001897731,-1.873148,0.57828623,-0.12923743,0.17412618,-0.78648764,0.25570208
22728000,-0.43569735,-0.000925228,-1.8772948,0.5768334,-0.12807101,0.17409775,-0.78775054,0.25643048
22752000,-0.44203624,2.74E-05,-1.8896765,0.5716249,-0.12842625,0.17766671,-0.79068714,0.2572203
22776000,-0.4403241,0.000961358,-1.8937887,0.57019,-0.12720282,0.17751864,-0.7919532,0.2580687
22800000,-0.44231465,0.001885639,-1.9017186,0.56700164,-0.12669526,0.17907387,-0.79397106,0.25891778
22824000,-0.4404252,0.002784981,-1.9057772,0.56558824,-0.12543966,0.17883347,-0.7952318,0.25986314
22848000,-0.43845367,0.003664331,-1.9098529,0.56416714,-0.124168575,0.17855138,-0.796503,0.2608397
22872000,-0.43642205,0.004524547,-1.913907,0.5627525,-0.12289152,0.17823407,-0.7977719,0.26190034
22896000,-0.43428066,0.005450779,-1.9179605,0.56134635,-0.121558815,0.17788683,-0.7990432,0.26275414
22920000,-0.43201995,0.006355198,-1.9219972,0.5599478,-0.120204486,0.17747994,-0.80031884,0.263646
22944000,-0.43339822,0.007239239,-1.9297876,0.5568209,-0.11954094,0.17874537,-0.8023158,0.2645931
22968000,-0.4309259,0.008102896,-1.9337778,0.55544114,-0.11815024,0.17822948,-0.8035919,0.2655696
22992000,-0.42842385,0.009024276,-1.9377646,0.5540647,-0.11673048,0.17771235,-0.8048631,0.26636243
23016000,-0.42581925,0.009920185,-1.9417363,0.5526933,-0.11529614,0.17714086,-0.8061377,0.2672158
23040000,-0.42315057,0.010793041,-1.9456832,0.5513287,-0.113857955,0.17653061,-0.8074094,0.26811165
23064000,-0.42416847,0.011643801,-1.9533824,0.54823166,-0.11311167,0.17761195,-0.8093836,0.26903558
23088000,-0.4213966,0.012472778,-1.9573193,0.54686373,-0.11166753,0.17693663,-0.8106564,0.2699765
23112000,-0.41851217,0.013572191,-1.9612336,0.545529,-0.11008734,0.17628258,-0.8119133,0.27011684
23136000,-0.41554016,0.014636526,-1.9651418,0.54419315,-0.108500615,0.17557739,-0.81317526,0.27025807
23160000,-0.41254905,0.01566919,-1.9690334,0.542857,-0.10692573,0.17484917,-0.81443286,0.27045423
23184000,-0.413226,0.01666962,-1.9766012,0.5398189,-0.10603675,0.17579749,-0.816362,0.2707171
23208000,-0.41007292,0.017621996,-1.9804504,0.5384916,-0.10445925,0.17496738,-0.81761944,0.27107906
23232000,-0.4068974,0.018545806,-1.9842931,0.5371602,-0.10289107,0.17411439,-0.8188752,0.27150765
23256000,-0.39554697,0.019441715,-1.980263,0.5394577,-0.09981454,0.16950305,-0.81871307,0.27196524
