timestamp,control[0],control[1],control[2],control[3],control[4],output[2],output[3],output[4],output[5],output[6],output[7],indicated_airspeed_m_s,true_airspeed_m_s,indicated_airspeed_m_s.1,equivalent_airspeed_m_s,true_airspeed_m_s.1,equivalent_ground_minus_wind_m_s,true_ground_minus_wind_m_s,differential_pressure_raw_pa,differential_pressure_filtered_pa,temperature,gyro_bias[0],gyro_bias[1],gyro_bias[2],accel_bias[0],accel_bias[1],accel_bias[2],instance_count,seq_reached,seq_current,seq_total,item_changed_index,item_do_jump_remaining,valid,warning,finished,failure,stay_in_failsafe,flight_termination,item_do_jump_changed,execution_mode,nav_roll,nav_pitch,nav_bearing,target_bearing,xtrack_error,wp_dist,acceptance_radius,rollspeed_integ,pitchspeed_integ,yawspeed_integ,additional_integ1,x,y,z,temperature.1,pressure,temperature.2,gyro_rad[0],gyro_rad[1],gyro_rad[2],accelerometer_m_s2[0],accelerometer_m_s2[1],accelerometer_m_s2[2],x.1,y.1,z.1,temperature.3,altitude_sp,altitude_filtered,height_rate_setpoint,height_rate,airspeed_sp,airspeed_filtered,airspeed_derivative_sp,airspeed_derivative,throttle_integ,pitch_integ,baro_alt_meter,baro_temp_celcius,baro_pressure_pa,rho,xyz[0],xyz[1],xyz[2],xyz[0].1,xyz[1].1,xyz[2].1,roll_body,pitch_body,yaw_body,q_d[0],q_d[1],q_d[2],q_d[3],thrust_body[0],lat,lon,alt,vel_m_s,vel_n_m_s,vel_e_m_s,vel_d_m_s,cog_rad,ground_contact,maybe_landed,landed,ref_lat,ref_lon,x.2,y.2,z.2,vx,vy,vz,ax,ay,az,yaw,dist_bottom,roll,pitch,yaw.1,thrust_body[0].1,timestamp.1,isTakeoff,isClimbing,isDescending,isCruise,isLand
84025681.0,-0.09003539199999999,-0.067256428,-0.042044603,0.0,0.0,1491.0,1500.0,1000.0,1546.653931,1452.346069,1444.346069,12.07321961,12.37104907,12.43330729,12.43214077,12.73864129,12.24661954,12.54854292,94.55528156,94.55528156,11.73357171,-0.001273575,-0.006063369,0.000462199,-0.236874273,0.168452982,-0.004806604,2.0,0.972394479,1.972394479,11.0,0.0,0.0,1.0,0.0,0.0,0.0,0.0,0.0,0.0,0.0,-0.075302843,-0.205909472,-0.046310574000000014,-0.026935545,0.830564345,230.3220594,36.10521225,-0.021614299,0.034183761,-0.069001374,0.0,-1.068764222,1.729680352,-8.786425662000001,9.64623084,954.2553231,11.73257513,-0.264119824,0.050463217000000005,0.4246494220000001,-1.189929938,1.62767192,-8.903480814,-0.267205501,0.035205206,0.418694027,9.64623084,90.84936643,98.20109193,-2.424279533,-4.1332049789999985,15.36632283,13.99504655,0.027425516,1.315720887,-0.100154867,77.12297171,503.1290782,11.73279031,95425.95031,1.133818081,0.095090484,1.150176567,-0.26257668300000003,-0.263986533,0.067820344,0.437904074,-0.088530341,-0.18748180600000006,-0.046184375,0.994270062,-0.046203641,-0.092469337,-0.027109251,0.0,398673321.9,327335134.4,503663.8066,12.45086417,12.11956791,-2.934512704,1.146975395,6.045117256,0.0,0.0,0.0,39.87141370000001,32.7364371,-452.0771857,-249.9335392,-103.4571874,12.29138093,-2.422062103,1.484257561,0.338485771,4.417731164,1.864615649,-0.065338914,103.697952,-0.200051231,-0.098322012,0.019240071,0.0,84025681.0,0.0,0.0,1.0,0.0,0.0
84056067.0,-0.09143834518637274,-0.05931232531462925,-0.050715859513026054,0.0,0.0,1487.3927855711422,1500.0,1000.0,1545.460714246493,1453.539285753507,1451.9552064749498,12.101337774328657,12.399826055971944,12.403728319258517,12.403176208877756,12.708944089198397,12.22791519531062,12.529359371302604,94.12601441450902,94.12601441450902,11.733694896372745,-0.001273303016032064,-0.006064645953907816,0.00045982906012024047,-0.236900376246493,0.16840391811222444,-0.004749848809619238,2.0,0.9742706056533066,1.9742706056533066,11.0,0.0,0.0,1.0,0.0,0.0,0.0,0.0,0.0,0.0,0.0,-0.0809618352244489,-0.20875104795190383,-0.04707272285771544,-0.027076468767535073,0.8607935247995993,229.93284103527054,36.18659592054109,-0.021606182046092184,0.03433715995791583,-0.06930296454108216,0.0,-1.2048490102164329,1.7132522469098195,-8.857764566368738,8.896126790140281,954.2629764547094,11.732872501543087,-0.26889461365931866,0.028445604735470944,0.4140523119398798,-1.207334801727455,1.625638184769539,-9.038266804460921,-0.26704467623046096,0.01340567076953908,0.4060952657174349,8.896126790140281,90.77264514182365,98.06091654402806,-2.1285904026593188,-4.138040770262525,15.366199030400802,14.045244784068137,0.02641907720240481,1.3155224923707414,-0.10026369882364729,76.81796007232465,502.9638258633267,11.733116380541082,95427.83881661322,1.1338405395170341,0.23383501858917838,0.7670559573006012,-0.5984799841623246,-0.26578905805010017,0.05482519313827656,0.4221554368056112,-0.09468520256312626,-0.20476531942685372,-0.04649613860721443,0.9932468063687375,-0.04943583570941884,-0.10096450878356714,-0.02794630222244489,0.0,398673356.5292585,327335125.1655311,503622.6484276553,12.444092800861725,12.138323404989979,-2.7990765881683366,1.2075627428156313,6.056049404136273,0.0,0.0,0.0,39.87141370000001,32.7364371,-451.6969258523046,-250.00528388136274,-103.41155635390781,12.299078437014028,-2.283186500274549,1.5419422829238476,0.3187893031042084,4.36636642892986,1.7231018609438877,-0.05280462013226453,103.65232124248497,-0.19928204879559117,-0.08524387212024048,0.013307384266533065,0.0,84056066.73146293,0.0,0.0,1.0,0.0,0.0
84086541.0,-0.08948121924448899,-0.0533208169759519,-0.05731626852104209,0.0,0.0,1482.8997995991983,1500.0,1000.0,1545.2478884809618,1453.7521115190382,1459.564343507014,12.099463315611223,12.397891207835672,12.374149344088176,12.37421165218437,12.67924689282565,12.209210846192384,12.510175822605209,93.69674726901803,93.69674726901803,11.733818082745492,-0.0012730607054108217,-0.00606589367735471,0.0004575755991983968,-0.2369270472725451,0.16835077878957916,-0.004690523995991984,2.0,0.9761467323066132,1.9761467323066133,11.0,0.0,0.0,1.0,0.0,0.0,0.0,0.0,0.0,0.0,0.0,-0.08662082789178356,-0.2115926243466934,-0.04783487127254509,-0.02721739209218437,0.8910227045991984,229.54362267054108,36.26797959551102,-0.02159742246492986,0.03442995221242485,-0.06958668774148297,0.0,-1.2345980110841683,1.678186593993988,-8.869592565935871,6.297863817436873,954.2737825803607,11.73317956785571,-0.271327358254509,-0.008957695364729467,0.3990526989679359,-1.1910026712965933,1.6400155835751502,-9.03204149240481,-0.26857683768336676,-0.01930257061322646,0.393328055488978,6.297863817436873,90.69592385364729,97.92074115805612,-1.832901272761523,-4.14287656152505,15.366075230801604,14.095443022565131,0.025412637961923848,1.3153240981843686,-0.10037253109018036,76.51294843907816,502.8661553709419,11.733442885110222,95428.95663555109,1.133853861743487,0.10557022130661317,-0.04270744698998008,-0.6351409143406812,-0.2667168974308617,0.02803229613026052,0.40604289055911824,-0.10062765345290582,-0.2220076821222445,-0.04668440041683367,0.9921621149519038,-0.05254907262925852,-0.10943547375951904,-0.02875111313226453,0.0,398673391.1142284,327335116.0196393,503581.28608496994,12.437619104108217,12.157142688817634,-2.6638105759038075,1.2676185214128257,6.06697227292986,0.0,0.0,0.0,39.87141370000001,32.7364371,-451.2986707142285,-250.07197528036073,-103.3607687002004,12.30633128228457,-2.1431981824789577,1.601433517751503,0.2890290696312625,4.270089291280561,1.751030836735471,-0.04103484896993988,103.60153347875752,-0.2031455908276553,-0.06386354659118236,0.007337474755511021,0.0,84086541.48296593,0.0,0.0,1.0,0.0,0.0
84116727.0,-0.0862587211002004,-0.045934802991983964,-0.06347585971142285,0.0,0.0,1478.0140280561122,1500.0,1000.0,1545.6320639358717,1453.3679360641283,1466.351836973948,12.079986718136272,12.377919936052104,12.344570367775551,12.345247096633267,12.64954969759519,12.190506495931864,12.490992273907814,93.26748012352705,93.26748012352705,11.733941269118237,-0.0012728370581162325,-0.006067122851703407,0.0004553953987975952,-0.2369540755731463,0.16829507618436873,-0.004629582993987976,2.0,0.9780228589599198,1.9780228589599198,11.0,0.0,0.0,1.0,0.0,0.0,0.0,0.0,0.0,0.0,0.0,-0.0922798206733467,-0.21443420102004007,-0.04859701957314629,-0.02735831530260521,0.9212518845631263,229.15440428937876,36.34936327326653,-0.021588936388777555,0.03445697143486974,-0.06985357788577154,0.0,-1.2012947985631262,1.6363604642024048,-8.820995882280561,2.8360875348396783,954.2858545238477,11.733495047174348,-0.2720408070320641,-0.05524877110420844,0.3816071103146293,-1.16472147803006,1.654276518501002,-8.91691174218437,-0.27103696808416833,-0.05790015041683369,0.3808125768036073,2.8360875348396783,90.61920256547094,97.78056577208417,-1.5372121429779557,-4.1477123527875746,15.365951431202404,14.145641262204409,0.02440619844288577,1.3151257041122244,-0.10048136347094189,76.20793680697395,502.81500665791583,11.733773534248497,95429.54048553106,1.1338608345290582,-0.09379972711823639,-0.9278568200040082,-0.5772498602685372,-0.2680624832144289,-0.009159827444889803,0.3893980156412825,-0.10640005480360722,-0.23920981629859722,-0.04682296815230461,0.9910144405951904,-0.055568112965931865,-0.11787997931062125,-0.029561498382765533,0.0,398673425.6713427,327335106.9294589,503539.79534388776,12.431332632805612,12.176002093226453,-2.528651551691383,1.3273399646192385,6.077889305394789,0.0,0.0,0.0,39.87141370000001,32.7364371,-450.88909728777554,-250.13548835410822,-103.3067377503006,12.313304453426854,-2.0025100122184365,1.6620609754629259,0.2529391374468938,4.145564081420842,1.885532410438878,-0.029745931454909814,103.54750218456914,-0.20730925136072142,-0.03839641582164327,0.0015750796012024022,0.0,84116726.96993987,0.0,0.0,1.0,0.0,0.0
84145742.0,-0.08591108446693387,-0.029657508322645285,-0.07255669161523046,0.0,0.0,1473.685370741483,1500.0,1000.0,1545.9497065811622,1453.0502934188378,1470.3537592985972,12.06478860751503,12.362288411402806,12.314991397034069,12.316282535511021,12.619852496793587,12.171802151242485,12.47180872521042,92.83821297803607,92.83821297803607,11.734064455490982,-0.0012726134108216431,-0.006068351468937876,0.0004532151983967936,-0.2369811044308617,0.1682393735791583,-0.004568641991983968,2.0,0.9798989856132264,1.9798989856132265,11.0,0.0,0.0,1.0,0.0,0.0,0.0,0.0,0.0,0.0,0.0,-0.0979388128977956,-0.21727577769338677,-0.04935916843086173,-0.02749923907014028,0.9514810650841684,228.76518585250503,36.430746951022044,-0.02158274785170341,0.03439023724649299,-0.07010149884769538,0.0,-1.1809716990841683,1.6113559846032062,-8.694441395707415,0.3876666414529053,954.2954951651302,11.733818376232465,-0.27191942570941885,-0.09886428180561123,0.36525663608617237,-1.1766487830400802,1.6331487353346694,-8.733251359579157,-0.27303314211222446,-0.0932031132224449,0.36950971740480965,0.3876666414529053,90.5424812772946,97.64039038611223,-1.2415230126372745,-4.1525481440501,15.365827631603207,14.195839496272544,0.023399758923847696,1.3149273094829659,-0.10059019529458918,75.9029251692986,502.7774716438878,11.734117308997996,95429.95740737475,1.1338657627054107,0.035117286509018075,-1.1588417673386775,-0.8368866116913829,-0.2726894456192385,-0.052186581593186385,0.37172438918837675,-0.11204887540480962,-0.25636331273146296,-0.04705640686973948,0.9897842397935872,-0.058521460621242485,-0.126286397747495,-0.030459528843687377,0.0,398673460.2284569,327335097.8392785,503498.304658517,12.425046167074148,12.194861497635271,-2.3934925269218437,1.3870614078256516,6.088806337859719,0.0,0.0,0.0,39.87141370000001,32.7364371,-450.47952391703404,-250.1990013721443,-103.2527068004008,12.320277624569139,-1.8618218419579158,1.7226884326172345,0.21684920526252505,4.021038871561123,2.0200339835851704,-0.018457013939879755,103.49347094609219,-0.20261191148096191,-0.01677697942885771,-0.0034044201983967955,0.0,84145741.95991984,0.0,0.0,1.0,0.0,0.0
84179615.0,-0.08650446503607213,-0.020681346587174347,-0.08016035965731463,0.0,0.0,1470.571142284569,1500.0,1000.0,1544.1783567134269,1454.8216432865731,1473.423907438878,12.08404209480962,12.381917852925852,12.28541242022044,12.287317980460921,12.59015530206413,12.153097800480962,12.452625176513026,92.40894583254509,92.40894583254509,11.73418764793587,-0.0012723897635270542,-0.006069580693386774,0.000451034997995992,-0.23700813328857714,0.16818367097394787,-0.004507700382765531,2.0,0.981775112266533,1.981775112266533,11.0,0.0,0.0,1.0,0.0,0.0,0.0,0.0,0.0,0.0,0.0,-0.10359780572945892,-0.22011735436673346,-0.05012131668136272,-0.02764016283767535,0.981710244997996,228.3759674763527,36.512130628777555,-0.021574875509018036,0.034270589178356715,-0.07035761598997996,0.0,-1.187044888478958,1.6205599256853707,-8.409352327547094,-6.64e-34,954.3001915022044,11.734157693246493,-0.27414859390781565,-0.133873922749499,0.35577928998597197,-1.1901290055551104,1.6243562394368738,-8.449082236116233,-0.274085817252505,-0.1218061588517034,0.3606728335250501,-6.64e-34,90.46858914687374,97.50597697322645,-1.1668514844048095,-4.151320043068137,15.365716601723447,14.241682521282565,0.02248067873747495,1.3130902629218437,-0.100618352002004,75.6199758603006,502.71658073406815,11.734480945731464,95430.66741947895,1.133874189044088,-0.017838213410821646,-1.4148821526452904,-0.691114795254509,-0.2717240432865731,-0.09458079075551103,0.3601181337114228,-0.1174173845731463,-0.2711950519298597,-0.04724099943687375,0.9886345015831663,-0.06130536630460923,-0.13353594336072144,-0.03130046596793587,0.0,398673494.78557116,327335088.6883767,503456.8139731463,12.418759701342685,12.21372090204409,-2.258333502759519,1.4467828516392787,6.099723370931864,0.0,0.0,0.0,39.87141370000001,32.7364371,-450.09168208276554,-250.2509546669339,-103.1970729258517,12.325377023066133,-1.7401200069178355,1.796921026965932,0.22181283658917836,3.8675522610521043,2.2550418972705413,-0.008882509286573144,103.4378362971944,-0.19891741841282565,-0.0043816493787575145,-0.008717289827655312,0.0,84179615.27254508,0.0,0.0,1.0,0.0,0.0
84216629.0,-0.08598192156513025,-0.014896872174348694,-0.08743346885170342,0.0,0.0,1466.370741482966,1500.0,1000.0,1543.0,1456.0,1479.6012024048096,12.096067197895792,12.394188989038076,12.2558334455511,12.258353426553105,12.560458108476954,12.134393451863728,12.433441631102204,91.97967869034068,91.97967869034068,11.734310838236473,-0.001272166116232465,-0.0060708100320641285,0.00044885479759519036,-0.23703516214629258,0.16812796836873745,-0.004446758987975952,2.0,0.9836512389198396,1.9836512389198397,11.0,0.0,0.0,1.0,0.0,0.0,0.0,0.0,0.0,0.0,0.0,-0.1092567983466934,-0.22295893104008016,-0.050883465146292585,-0.02778108660521042,1.0119394247975952,227.9867490787575,36.593514303246494,-0.02156672716432866,0.03414259743486974,-0.07060036709218437,0.0,-1.197728753,1.6353054995851704,-8.098591360412824,-6.64e-34,954.304411204008,11.73450701501002,-0.2766891403927856,-0.15877923201603206,0.34768609455511024,-1.178300483527054,1.6335845497775552,-8.101318044268536,-0.27492039919238476,-0.1477225804388778,0.35243857655511024,-6.64e-34,90.39717525036072,97.37661083687374,-1.2857831085971947,-4.144780199196393,15.365616755791583,14.283710544689379,0.021638122216432867,1.3098178179438877,-0.10057584005811623,75.3563523263527,502.66392792044087,11.734863377955913,95431.27969242485,1.1338814497334668,0.1334513178196397,-1.4701349812625248,-0.6174243308537075,-0.2714913434228457,-0.12938984090380765,0.3499188873386773,-0.12275942226452907,-0.2768509717054108,-0.047582404647294595,0.9880844849659318,-0.06401305662124249,-0.13623873204208417,-0.03197593451302606,0.0,398673529.67134273,327335080.08476955,503412.29918036074,12.41164090767535,12.230083309498998,-2.1237293574288576,1.5101110446973949,6.110587143228456,0.0,0.0,0.0,39.87141370000001,32.7364371,-449.71028848036076,-250.2994779222445,-103.14096342124249,12.329920431643286,-1.6240518145971943,1.8751905495631263,0.2389579185210421,3.705472197356713,2.5198721437715434,0.00018329308617235415,103.38172589398798,-0.1954417294028056,0.005566593490981974,-0.014047506052104215,0.0,84216628.52304609,0.0,0.0,1.0,0.0,0.0
84255824.0,-0.08415446945090181,-0.011520372194388777,-0.09450332721843688,0.0,0.0,1460.7680998997996,1500.0,1000.0,1543.0186009018037,1455.9813990981963,1489.200400801603,12.092662584368737,12.390713873607215,12.228383243847695,12.231513170741483,12.532936112284569,12.11780526198397,12.416424883206412,91.58213696739479,91.58213696739479,11.734453792144288,-0.0012719424689378756,-0.006072039320641282,0.00044667459719438876,-0.23706219100400802,0.16807226576352705,-0.004385817985971944,2.0,0.9855273656232465,1.9855273656232464,11.0,0.0,0.0,1.0,0.0,0.0,0.0,0.0,0.0,0.0,0.0,-0.11491579062124249,-0.22580050766332666,-0.05164561395390782,-0.02792201037274549,1.0421686046472944,227.59753064689377,36.67489797428858,-0.021558486693386773,0.03401932938877756,-0.070827030248497,0.0,-1.207491224513026,1.6477314794348694,-7.7986064596312605,-6.64e-34,954.3098080166333,11.734874494769539,-0.2788174339398798,-0.1726929156733467,0.34017137061723446,-1.1424391611723448,1.6593010366813628,-7.712163569148296,-0.2756495855851704,-0.16993684050901808,0.3445644286993988,-6.64e-34,90.32808708042084,97.2519813763527,-1.5864038450300604,-4.1332554888957915,15.36552740509018,14.322158335470942,0.02086738025250501,1.3051983066012023,-0.10046700818436874,75.11086528857716,502.62423518096193,11.73526430511022,95431.73367549099,1.1338868253446894,0.5149105341222442,-1.2708271660921842,-0.6845381497014025,-0.2732898101663327,-0.15397988438076152,0.3403474903747495,-0.12849797797595192,-0.271781607006012,-0.048516465899799605,0.9882305366292585,-0.06687128171142284,-0.1336079388557114,-0.032674607078156316,0.0,398673565.0200401,327335072.2741483,503363.4415781563,12.403326839539078,12.242859874829659,-1.9899220525691383,1.5786187542865733,6.121374429651302,0.0,0.0,0.0,39.87141370000001,32.7364371,-449.33043481903815,-250.34618325591182,-103.08406480601202,12.334265199378757,-1.5105760563707413,1.9560901768376753,0.2588895846833667,3.542874977496994,2.7886761892925853,0.009047984699398805,103.32482636092185,-0.1920076636513026,0.015298481597194404,-0.01925860077154309,0.0,84255823.80360721,0.0,0.0,1.0,0.0,0.0
84288610.0,-0.08554731594388777,-0.011292811793587173,-0.09969321996392785,0.0,0.0,1457.4287384569138,1500.0,1000.0,1543.2864538877757,1455.7135461122243,1492.0861723446894,12.102050439278557,12.400308645551101,12.229458547254508,12.233138509418836,12.534561761182363,12.129573546553106,12.428443169378758,91.60971580987976,91.60971580987976,11.734861631022044,-0.0012717188216432866,-0.006073267937875751,0.00044449439679358717,-0.23708921986172346,0.16801656315831662,-0.004324876983967936,2.0,0.987403492997996,1.987403492997996,11.0,0.0,0.0,1.0,0.0,0.0,0.0,0.0,0.0,0.0,0.0,-0.12057478356713427,-0.22864208361523047,-0.05240776209018037,-0.028062934140280563,1.0723977851683366,227.20831228216434,36.75628165204409,-0.021548359078156314,0.033933568587174355,-0.07107685942685371,0.0,-1.210591638300601,1.643385810496994,-7.576537084721442,-6.64e-34,954.3237157761523,11.7353732354509,-0.2775163210741483,-0.17520948376953907,0.33894785470541083,-1.1945270020541083,1.6545244224929858,-7.484032996883767,-0.27561671881162325,-0.16538290543887776,0.3392940243707414,-6.64e-34,90.25899891048095,97.12735191583167,-1.887024581462926,-4.12173077859519,15.365438054388777,14.360606126252506,0.020096638288577155,1.300578795258517,-0.10035817563927855,74.86537824408818,502.55591410681365,11.735671898697394,95432.51481056113,1.1338961471082165,0.16181513428256494,-0.9514293498196391,-0.26271715980160293,-0.27372408776152307,-0.16120314586372747,0.3349354285711423,-0.13912932482965934,-0.26294617029258516,-0.05473366445691384,0.9883419872905812,-0.07245676395591183,-0.12883653997795588,-0.03616212980360722,0.0,398673601.30861723,327335066.14188373,503304.8203036072,12.392325520901805,12.247574648376753,-1.8579062303647293,1.6587712176132265,6.13198975903006,0.0,0.0,0.0,39.87141370000001,32.7364371,-448.9334198931864,-250.38863382104208,-103.01938009258517,12.339207126432866,-1.398817445709419,2.0485708481002005,0.24476018492384768,3.423718195853707,2.935926215905812,0.01819954037074149,103.26014099819639,-0.1886485130300601,0.0335313813967936,-0.02359999588176353,0.0,84288609.7755511,0.0,0.0,1.0,0.0,0.0
84320791.0,-0.08572744603206413,-0.006006763745490978,-0.1052546279238477,0.0,0.0,1454.7092832104208,1500.0,1000.0,1542.6952551543086,1456.3047448456914,1493.0866841883767,12.119128594348696,12.417736456813627,12.245635243446895,12.249833532024049,12.551618166793586,12.15635373709419,12.455832600400802,91.86235327380761,91.86235327380761,11.73540970468938,-0.0012714951743486972,-0.006074497048096192,0.0004423141963927856,-0.2371162482264529,0.1679608605531062,-0.004263935488977956,2.0,0.9892796198797595,1.9892796198797595,11.0,0.0,0.0,1.0,0.0,0.0,0.0,0.0,0.0,0.0,0.0,-0.12623377602004007,-0.23148366006012025,-0.053169910719438884,-0.02820385790781563,1.1026269651963927,226.8190938681363,36.8376653297996,-0.021539494492985974,0.033943766026052105,-0.0713533448496994,0.0,-1.2136920515951903,1.6390401420521044,-7.354467709318637,-6.64e-34,954.3376235356714,11.735871976132264,-0.27500623406012026,-0.17061958661122242,0.33118702288577156,-1.1984234547675352,1.6078806872264528,-7.3373233680621235,-0.27558385203807617,-0.1608289698757515,0.33402362004208414,-6.64e-34,90.18991074054108,97.00272245531062,-2.1876453178957918,-4.110206068294589,15.365348703687376,14.399053917034069,0.0193258963246493,1.2959592839158316,-0.10024934358717434,74.61989120452905,502.44070474248497,11.736101573126252,95433.83894503006,1.1339118702945892,-0.11472933432264538,-0.610032544789579,-0.06817240000200397,-0.27372602158917836,-0.1598853558717435,0.3283828959779559,-0.14551344076553108,-0.2576869696713427,-0.05689483276152305,0.9884190546452906,-0.07570570812825651,-0.12604462718036072,-0.03746795987174349,0.0,398673637.59719443,327335060.00961924,503246.19897975953,12.38132420226453,12.252289421923848,-1.7258904086533067,1.7389236809398798,6.142605088408818,0.0,0.0,0.0,39.87141370000001,32.7364371,-448.5273197781563,-250.42883188396794,-102.9505733755511,12.344465195531061,-1.2879678927995992,2.1471825182044086,0.21259887424248497,3.3275587616773548,3.018825603885772,0.02750296086372746,103.19133387835672,-0.184636700745491,0.04440738646292586,-0.027902661521042087,0.0,84320790.85370742,0.0,0.0,1.0,0.0,0.0
84351834.0,-0.08410008221843687,0.0012521815831663336,-0.10964897124448898,0.0,0.0,1452.2611019579158,1500.0,1000.0,1542.0362028817635,1456.9637971182365,1493.114924981964,12.129921289258517,12.42872521507014,12.268810143907816,12.273512064549099,12.575825410881762,12.190090664549098,12.490345244889781,92.2192861964529,92.2192861964529,11.736022763066133,-0.0012712717414829658,-0.006075726386773547,0.000440133995991984,-0.2371432765771543,0.16790515794789573,-0.00420299397995992,2.0,0.9911557465330662,1.991155746533066,11.0,0.0,0.0,1.0,0.0,0.0,0.0,0.0,0.0,0.0,0.0,-0.13189276845891784,-0.23432523673346695,-0.05393205936272545,-0.028344781675350702,1.132856144995992,226.42987545270543,36.91904900755511,-0.021532660893787577,0.03403020341282565,-0.07164143609619239,0.0,-1.2158041301062124,1.6346312158216434,-7.200229909613227,-6.64e-34,954.3496398396794,11.73636337262525,-0.2710876618496994,-0.15913157013827656,0.32133267787975955,-1.1855635030300602,1.566843740539078,-7.236294154705411,-0.2758670456813627,-0.1532914392224449,0.3287039283827656,-6.64e-34,90.1208225706012,96.87809299264529,-2.4882660543286574,-4.098681357993988,15.365259355130261,14.437501707815631,0.0185551545751503,1.2913397725731464,-0.1001405115490982,74.37440416511022,502.3549461092184,11.736550194529057,95434.827270501,1.1339235957735472,-0.1560991964128256,-0.23415754150300597,0.006627610527054115,-0.27320110195991987,-0.1535725727014028,0.32261688231663327,-0.14980070773547094,-0.25463275731663326,-0.0571200088757515,0.9884484641663327,-0.07780992708817636,-0.12444516958116233,-0.03774347097194389,0.0,398673673.90721446,327335053.8773547,503187.57763306616,12.370322883627255,12.257004195470941,-1.5938745869559119,1.819076144266533,6.153220417787575,0.0,0.0,0.0,39.87141370000001,32.7364371,-448.1200243232465,-250.4667814002004,-102.8794344014028,12.350115314108216,-1.1789495259679357,2.2476415398757514,0.18148588031262525,3.246637211158317,3.0556824893086176,0.03680460521442886,103.12019463707415,-0.18297568962124247,0.05155839309619239,-0.032023652202404815,0.0,84351834.11422846,0.0,0.0,1.0,0.0,0.0
84380850.0,-0.07952774314028055,0.007633240741482973,-0.11087672346893787,0.0,0.0,1449.7750898537074,1500.0,1000.0,1542.1580069699398,1456.8419930300602,1492.9099940801602,12.117425552184368,12.415905968577155,12.291985039298597,12.297190592004007,12.60003265496994,12.223827592004007,12.524857889378756,92.5762191190982,92.5762191190982,11.736635816372745,-0.0012710488156312625,-0.006076955725450902,0.00043795379559118233,-0.23717030543486975,0.16784945534268533,-0.004142052977955912,2.0,0.9930318731863728,1.9930318731863728,11.0,0.0,0.0,1.0,0.0,0.0,0.0,0.0,0.0,0.0,0.0,-0.13755176140480962,-0.23716681340681364,-0.054694207498998,-0.02848570544288577,1.1630853247955912,226.04065708797594,37.00043268531062,-0.02152924558316633,0.03419176405410821,-0.07192776090581163,0.0,-1.2155793054168336,1.6300727169038076,-7.206378920274549,-6.64e-34,954.3571838236472,11.736837403887776,-0.2651634643346693,-0.1391198670521042,0.31369143186773546,-1.1858883745330662,1.5849393374929859,-7.154059669975951,-0.27689755974949903,-0.13869924034468936,0.3232676975210421,-6.64e-34,90.05173440066132,96.75346352490982,-2.7888867907615236,-4.087156647693387,15.365170011643286,14.475949498597194,0.01778441333266533,1.286720261230461,-0.10003167900400801,74.12891712062124,502.39020057014034,11.737019420981964,95434.4265955511,1.1339188544509018,0.27471828294589223,0.1991355633466939,0.04732790687975957,-0.2719041799559118,-0.14480794777154307,0.3199602381482966,-0.15378385450901802,-0.2528735931482966,-0.05721190266332665,0.9884028624829659,-0.07976769149699399,-0.12349625863927856,-0.03797336956913828,0.0,398673710.2679359,327335047.7450902,503128.9562863728,12.35932156498998,12.261718969018036,-1.461858764751503,1.8992286075931863,6.163835747166333,0.0,0.0,0.0,39.87141370000001,32.7364371,-447.71985748557114,-250.50188241022042,-102.8072974715431,12.356346019519039,-1.0732648843647294,2.345750633663327,0.17260985594388778,3.1765463690741482,3.0541839247394793,0.04593564593587175,103.04805749078156,-0.18758826068336673,0.05796291790581163,-0.0357575123226453,0.0,84380849.8256513,0.0,0.0,1.0,0.0,0.0
84412494.0,-0.07941223914028056,0.007857918032064128,-0.10814293639078155,0.0,0.0,1446.5606272164327,1500.0,1000.0,1541.275759018036,1457.724240981964,1498.1687037875752,12.156607772945891,12.45606735262525,12.315159941262525,12.320869119458917,12.624239899058116,12.257564519458917,12.559370533867735,92.93315204831664,92.93315204831664,11.737248869679359,-0.0012708252324649299,-0.006078184406813628,0.00043577359519038084,-0.23719733429258516,0.16779375273747496,-0.004081111318637275,2.0,0.9949079998396794,1.9949079998396793,11.0,0.0,0.0,1.0,0.0,0.0,0.0,0.0,0.0,0.0,0.0,-0.1432107536933868,-0.24000839008016034,-0.05545635563527054,-0.02862662921042084,1.1933145052525052,225.65143865751503,37.081816356492986,-0.021521169254509018,0.0343993820741483,-0.0722753395511022,0.0,-1.2148087551162323,1.6254792896012025,-7.249982261452907,-6.64e-34,954.3636835318638,11.737307372945892,-0.2650864018737475,-0.11868235949298592,0.3077352460881764,-1.1664863361202404,1.6335472836573146,-7.242155674641283,-0.27810259216633265,-0.122459600008016,0.31780425251903804,-6.64e-34,89.94654463136273,96.63207173268538,-2.953123353102205,-4.07294391691984,15.365081884188378,14.508515914148296,0.017131322206412825,1.2747727046933868,-0.10000754079158317,73.89418436791583,502.2526583208417,11.737525549078157,95436.01145118236,1.1339376949478959,0.3659007846052105,0.644829002016033,0.2615334927074153,-0.2657530268817635,-0.12721281678957913,0.31385184818436873,-0.157782917498998,-0.2460780744308617,-0.05740521286773547,0.9886610269238477,-0.08169263881563127,-0.12005139718837675,-0.0380570281503006,0.0,398673746.5629259,327335041.61282563,503070.33500541083,12.348320246352706,12.26643374256513,-1.329842942547094,1.9793810709198398,6.17445107654509,0.0,0.0,0.0,39.87141370000001,32.7364371,-447.3385155472946,-250.52946137454907,-102.7325253016032,12.364109944168337,-0.9763838449258515,2.4376541068016033,0.22245656157915844,3.13505694096994,2.951397422711423,0.05461616123847697,102.97328530160321,-0.1850027402825651,0.05696139202204408,-0.03968068102805612,0.0,84412494.13827655,0.0,0.0,1.0,0.0,0.0
84445910.0,-0.07877394326853708,0.007589045935871744,-0.10489997811422845,0.0,0.0,1444.62124248497,1500.0,1000.0,1540.1938004268536,1458.8061995731464,1502.0171880701405,12.165173342945891,12.464789505851703,12.338334843867736,12.344547646913828,12.648447143146292,12.291301446913828,12.593883178356712,93.29008497438878,93.29008497438878,11.737861926773547,-0.0012706015851703407,-0.0060794134028056114,0.00043359339478957925,-0.2372243631503006,0.16773805013226453,-0.004020169973947896,2.0,0.996784126492986,1.996784126492986,11.0,0.0,0.0,1.0,0.0,0.0,0.0,0.0,0.0,0.0,0.0,-0.1488697462965932,-0.242849966753507,-0.0562185041503006,-0.028767552977955912,1.2235436853947896,225.26222025851703,37.16320003082164,-0.021510237627254507,0.034603179769539076,-0.07263789951903808,0.0,-1.2225248389058117,1.628127128036072,-7.330402345569139,-6.64e-34,954.3686497318638,11.737792205831663,-0.26550404351903806,-0.09812310434268533,0.30027776874949896,-1.135644515751503,1.670875290705411,-7.36071829901002,-0.2762822969318637,-0.10747092467134266,0.31042416425050096,-6.64e-34,89.83428003204409,96.51131442963927,-3.090632694072145,-4.058204414482966,15.364993996573146,14.539929753847696,0.016501287378757515,1.2613890701843686,-0.1,73.66155913486975,502.1222180563126,11.73804509472946,95437.50806623246,1.1339554401703407,0.14996440436072056,0.7256704579078151,0.3511462595911823,-0.26454962461723447,-0.10847285103807612,0.30837779475951904,-0.1616346073507014,-0.24026356593987977,-0.05758670962725451,0.988858275252505,-0.08355313331663328,-0.11709451632064127,-0.038155698505010015,0.0,398673782.4727455,327335036.54108214,503004.3479955912,12.341922509418838,12.272463887935873,-1.2129531759178354,2.0667677213507014,6.183884153352705,0.0,0.0,0.0,39.87141370000001,32.7364371,-446.95769180541083,-250.55593931322645,-102.65685926793587,12.372172075631262,-0.8801235368376752,2.528585407935872,0.27778167769739487,3.096800569078156,2.834610073250501,0.06326840453907817,102.89761926793588,-0.18125785408016032,0.06136116511823649,-0.043605499378757524,0.0,84445910.30861723,0.0,0.0,1.0,0.0,0.0
84479896.0,-0.07724322318837676,0.008484884793587187,-0.1012417883747495,0.0,0.0,1444.200400801603,1500.0,1000.0,1539.2282167595188,1459.7717832404812,1503.73528293988,12.156546082625251,12.455842618476954,12.361509745470942,12.368226175370742,12.672654387234468,12.325038374368738,12.628395821843688,93.64701789703408,93.64701789703408,11.738474986292585,-0.0012703779378757515,-0.006080642641282565,0.00043141319438877755,-0.23725139200801604,0.16768234752705413,-0.003959228971943887,2.0,0.9986602531462926,1.9986602531462925,11.0,0.0,0.0,1.0,0.0,0.0,0.0,0.0,0.0,0.0,0.0,-0.15446887391182365,-0.2453385064529058,-0.057033436374749495,-0.02891908025250501,1.2559910063767536,224.87126378757515,37.24590859034068,-0.021497006004008015,0.034799645501002,-0.07301271478957916,0.0,-1.2394952254188378,1.6386257131462927,-7.446759406370742,-6.64e-34,954.372064547495,11.738293575971944,-0.2652188765250501,-0.07926609726853706,0.2921370677074148,-1.105911849739479,1.6877465675190382,-7.490741423118236,-0.2711651313206413,-0.09401203936072143,0.3009699677374749,-6.64e-34,89.71880106350702,96.39084539937876,-3.2159988200240486,-4.0432255791122245,15.364906218617234,14.570819933607215,0.0158817281002004,1.2473529695831664,-0.1,73.42989142885772,502.0361384430862,11.73857683741483,95438.48736743486,1.1339670146793588,-0.2620549234348699,0.47827731540280516,0.29106899834869704,-0.26713555074949896,-0.08980678642885769,0.3030919058016032,-0.1654205893547094,-0.23649146113026057,-0.057842167362725454,0.9889246202825651,-0.08540426471943888,-0.11514504575951903,-0.038358037222444887,0.0,398673818.0098197,327335032.498998,502931.20060681365,12.34,12.279772731823648,-1.1107677291242481,2.161186859627255,6.192167940507014,0.0,0.0,0.0,39.87141370000001,32.7364371,-446.5715221781563,-250.58092866993988,-102.5786114002004,12.380836856192385,-0.7828975629899798,2.618029646132265,0.33209052368937886,3.0603391331262526,2.7011207893827653,0.07198423473947897,102.81937140020041,-0.17717976923046092,0.07012866363527054,-0.04747290120240482,0.0,84479895.85971944,0.0,0.0,1.0,0.0,0.0
84508911.0,-0.07555118134468937,0.01600130170741484,-0.09569733747294588,0.0,0.0,1445.6432865731463,1500.0,1000.0,1539.5549510280562,1459.4450489719438,1503.145746507014,12.241349933527054,12.542701535511021,12.384684640861725,12.39190471004008,12.696861631322646,12.358775301823648,12.662908459118237,94.00395081967936,94.00395081967936,11.739088039599197,-0.0012701542905811623,-0.006081871258517034,0.00042923299398797595,-0.23727842086573148,0.16762664492184368,-0.0038982879699398796,2.0,1.0005363797995992,2.000536379799599,11.0,0.0,0.0,1.0,0.0,0.0,0.0,0.0,0.0,0.0,0.0,-0.1596968364769539,-0.24563821691382765,-0.05817562547294589,-0.02913634927054108,1.302190802689379,224.46953105811622,37.336831416793586,-0.02148298043286573,0.03499728910821643,-0.07341299727454909,0.0,-1.265937653234469,1.6571597597995993,-7.599898981040081,-6.64e-34,954.3738915294589,11.73881187496994,-0.2610012067054108,-0.07141294400200399,0.2891040944008016,-1.136431711863727,1.6577597160561122,-7.614133288769539,-0.26267352562925855,-0.08211893795791582,0.2893928626472945,-6.64e-34,89.60332208875752,96.27037636290581,-3.3413649465971944,-4.028246743120241,15.364818440661322,14.601710119579158,0.015262168821643286,1.233316868981964,-0.1,73.19822371663327,502.0906895533067,11.739129130801603,95437.84093296593,1.1339593803707415,-0.352870088965932,0.24926188550300565,0.09677429365931833,-0.26280420894589174,-0.07318821031663325,0.2935252715731463,-0.16963458630861722,-0.23712301006813627,-0.0586779531743487,0.9886873175170341,-0.08754093469939879,-0.11533822002805612,-0.039038878024048096,0.0,398673853.3605211,327335028.8917836,502854.9771358717,12.34,12.287630896953909,-1.0148990964188376,2.2586270777434874,6.199958005757515,0.0,0.0,0.0,39.87141370000001,32.7364371,-446.15960354088173,-250.598748453507,-102.48792812164328,12.392404348777555,-0.6810204069178355,2.7003113622845696,0.3815044454529059,3.0325231076352708,2.4871856873386773,0.08100633686372746,102.72868812164329,-0.17360003888977957,0.07162423060921844,-0.051078669859719435,0.0,84508910.8496994,0.0,0.0,1.0,0.0,0.0
84540098.0,-0.07419218872545089,0.01794460253507014,-0.09252328121042085,0.0,0.0,1447.1342995551101,1500.0,1000.0,1538.747386284569,1460.252613715431,1503.0,12.257730927815631,12.559476458256514,12.407859541683367,12.415583239278558,12.721068875410822,12.392512229278557,12.697421101823648,94.36088374775551,94.36088374775551,11.739701098336672,-0.0012699306432865732,-0.006083100418837676,0.00042705279358717436,-0.23730544918036073,0.16757094231663328,-0.0038373464248496994,2.0,1.0024125064529057,2.002412506452906,11.0,0.0,0.0,1.0,0.0,0.0,0.0,0.0,0.0,0.0,0.0,-0.16440564667735472,-0.24287639204008016,-0.05977555203607215,-0.029445572553106213,1.3676263196613228,224.0527256236473,37.43924361681363,-0.021467604206412826,0.035182183224448896,-0.07382574195791583,0.0,-1.274274236509018,1.6639146171222445,-7.751163284587174,-6.64e-34,954.3785720490982,11.739342936492985,-0.25925683440681363,-0.06072438670741481,0.2796494806553106,-1.1894301474468936,1.6557854975531063,-7.720576403847695,-0.2564703433226453,-0.07055068246292584,0.27770430486973946,0.9796221010801619,89.48784311943888,96.14990733186373,-3.4667310726272547,-4.0132679076713424,15.36473066270541,14.632600300120242,0.01464260954308617,1.2192807683807616,-0.1,72.96655600983968,501.9871667436874,11.739697586432866,95439.02848963928,1.1339735238176354,-0.38917357028256516,0.09503180731262509,0.025020562851703367,-0.26011748739478957,-0.061219620561122234,0.2859991598136272,-0.17748822731062125,-0.23803743195591182,-0.06320667770941885,0.9881828250440882,-0.0916929045971944,-0.11542291283366733,-0.04176882205611223,0.0,398673888.71122247,327335025.28456914,502778.75371923845,12.34,12.295489062084169,-0.9190304637134268,2.3560672958597193,6.207748071008016,0.0,0.0,0.0,39.87141370000001,32.7364371,-445.7476849036072,-250.61656829138278,-102.39724484308617,12.403971835931863,-0.579143250302605,2.782593078436874,0.4309183677595191,3.0047070821442885,2.2732505858376753,0.09002843898797597,102.63800484308616,-0.1713481770501002,0.06982969302805611,-0.05541883548296593,0.0,84540098.18436874,0.0,0.0,1.0,0.0,0.0
84570941.0,-0.07269993091382765,0.020203791456913832,-0.09044080253306613,0.0,0.0,1449.1232921963929,1500.0,1000.0,1537.6141864849699,1461.3858135150301,1504.443929747495,12.238953104408818,12.540190247995993,12.431034444288578,12.439261766733466,12.745276119498998,12.426249156733467,12.731933746312626,94.71781667496994,94.71781667496994,11.740314156212424,-0.001269706995991984,-0.00608432975751503,0.0004248725931863727,-0.23733247758116233,0.16751523971142285,-0.0037764049659318637,2.0,1.0042886331062124,2.0042886331062126,11.0,0.0,0.0,1.0,0.0,0.0,0.0,0.0,0.0,0.0,0.0,-0.16894396060921846,-0.23910911829258516,-0.06152580592785571,-0.029784994573146293,1.4393791028276555,223.63097011262525,37.54542907973948,-0.021452547308617235,0.03534381980961924,-0.07424045654709419,0.0,-1.2599795590901803,1.6559461672064129,-7.900083607961923,-6.64e-34,954.3868192330661,11.739889953006012,-0.2599743520901804,-0.05058476106412825,0.26721568094388776,-1.2055495495310622,1.667601925184369,-7.854311369595191,-0.2531275580561122,-0.059388465517034056,0.26587643743887773,3.1837153467394828,89.37104680777556,96.02765688721443,-3.5744107121142283,-4.003508023591182,15.364641440420842,14.664100646893788,0.014010818176352705,1.2062905979519039,-0.1,72.73316514402806,501.84132776412827,11.740282465470942,95440.70174102204,1.133993433236473,-0.4066836681422846,0.08998370745691404,0.052626943509018156,-0.25795319139478956,-0.048482184008016016,0.277207425753507,-0.18448881511022044,-0.23444663121843687,-0.0669281494529058,0.9879929556332665,-0.0953261180240481,-0.11333119098196393,-0.043849920805611224,0.0,398673924.06192386,327335021.6773547,502702.5303204409,12.34,12.303347227214429,-0.8231618310080159,2.4535075139759517,6.215538135993988,0.0,0.0,0.0,39.87141370000001,32.7364371,-445.3449158767535,-250.6314035450902,-102.30658627154308,12.416546624148296,-0.48101918126052096,2.8579639538997994,0.48310366622044093,2.9635481950901803,2.0847309806352703,0.09854817900400803,102.54734627154308,-0.17110777513426853,0.0675397003226453,-0.05963858909418838,0.0,84570941.09418838,0.0,0.0,1.0,0.0,0.0
84599957.0,-0.070788562496994,0.026170007248496996,-0.0888991476232465,0.0,0.0,1451.9451309138276,1500.0,1000.0,1536.5619678076152,1462.4380321923848,1508.3819199679358,12.198259916432866,12.498372424348698,12.454209346893787,12.462940294188376,12.769483363587174,12.459986084188376,12.766446390801605,95.07474959761524,95.07474959761524,11.740927209519038,-0.0012694833486973948,-0.006085559096192385,0.0004226923927855711,-0.23735950643887777,0.16745953710621242,-0.0037154639639278555,2.0,1.0061647597595191,2.0061647597595194,11.0,0.0,0.0,1.0,0.0,0.0,0.0,0.0,0.0,0.0,0.0,-0.173482274997996,-0.23534184454509016,-0.06327606027655311,-0.030124416136272546,1.5111318859939882,223.20921460160324,37.65161454266533,-0.0214388081503006,0.035472516563126257,-0.07465150440280562,0.0,-1.2168652311543087,1.6292284050420844,-8.046019003312626,-6.64e-34,954.3996083232465,11.740457288476954,-0.2635412241543086,-0.04300169942084168,0.25327874988176347,-1.1452176227975952,1.68734813295992,-8.044801141218437,-0.25342732911823646,-0.04874331601803606,0.2538711668176353,6.947104449665332,89.25197508352706,95.90232945234469,-3.6515409660621243,-4.002762691567134,15.364549723386773,14.696654920240482,0.013357898657314628,1.1951070341843688,-0.1,72.49679790955912,501.7120661208417,11.740886544028056,95442.17357108217,1.1340109484268537,-0.4226547276212425,0.3001908832484972,0.18234282671543095,-0.2557583406533066,-0.031778991302605204,0.2650721114448898,-0.18795132541082166,-0.22291361999599196,-0.06716042159719439,0.9884980919058116,-0.09692009990781564,-0.10754174456913827,-0.04364791391182365,0.0,398673959.41262525,327335018.0701403,502626.30692164326,12.34,12.31120539234469,-0.727293198302605,2.5509477320921845,6.223328200523046,0.0,0.0,0.0,39.87141370000001,32.7364371,-444.95795072244493,-250.64108357715435,-102.21597037575151,12.430861299098195,-0.3893777183346693,2.921397922717435,0.5400758868216433,2.899342547154309,1.9401108687314628,0.10620020265130262,102.4567303757515,-0.17358846731863728,0.06626026392985972,-0.06323376480561121,0.0,84599956.80561122,0.0,0.0,1.0,0.0,0.0
84631801.0,-0.06883652975350701,0.04878233843687376,-0.0878022309759519,0.017692996673346704,0.0,1453.4148296593187,1500.0,1000.0,1536.1584372104207,1462.8415627895793,1508.1381101903808,12.242098846152304,12.543280765490982,12.477384249498998,12.486618821643287,12.79369060767535,12.493723011643286,12.800959035290582,95.43168252733467,95.43168252733467,11.741540262825652,-0.0012692597014028056,-0.006086787727454909,0.0004205121923847696,-0.2373865352965932,0.16740383450100202,-0.0036545229619238478,2.0,1.0080408864128256,2.0080408864128256,11.0,0.0,0.0,1.0,0.0,0.0,0.0,0.0,0.0,0.0,0.0,-0.17802058938677356,-0.2315745707975952,-0.06502631391783567,-0.030463838406813628,1.5828846691603207,222.7874590198397,37.75780000559118,-0.02143002726252505,0.03554742290781563,-0.07505098248897794,0.0,-1.1776664549118236,1.6065615463727456,-8.181919355693386,-6.64e-34,954.4128423066132,11.741028281282565,-0.25598733136072144,-0.03701637661523046,0.2459830971523046,-1.2109048560781563,1.7163438554228456,-8.182182619577155,-0.2537434888597195,-0.039135849280561116,0.24164305415831663,10.009336641142285,89.12327574763528,95.76398278324649,-3.599411748490982,-4.040159412062124,15.364447451723446,14.733668531523048,0.012615581711422845,1.191567521296593,-0.1,72.24783716310621,501.6433084653307,11.74150578248497,95442.95625883767,1.1340201974749498,0.07339931717034098,0.4924686231082166,0.24509412605010023,-0.2580527026833667,-0.026163119711422843,0.25270598253306614,-0.19108477958116232,-0.220703546753507,-0.06719841499198397,0.9884703064128256,-0.09844579645290581,-0.10637845865731463,-0.04373440210420842,0.0,398673994.6925852,327335014.95811623,502547.1223551102,12.342228802384769,12.32033713761523,-0.6323797666192383,2.641383155446894,6.231062711058116,0.0,0.0,0.0,39.87141370000001,32.7364371,-444.5761515356714,-250.6490785470942,-102.12536855751503,12.44574470727455,-0.29985528964929853,2.9809299554549096,0.5986128566773548,2.8276033734168338,1.80984062349499,0.11356858761523046,102.36612855751503,-0.17017688491783567,0.07432107312825652,-0.06512772103807615,0.0,84631801.46893787,0.0,0.0,1.0,0.0,0.0
84663703.0,-0.06886622051503007,0.06980446594388778,-0.08651457099599198,0.04607394228456915,0.0,1454.428857715431,1500.0,1000.0,1535.571142284569,1463.428857715431,1510.1474875450901,12.343813928196393,12.647431505691383,12.50055914781563,12.510297353386774,12.817897851763528,12.527459939098197,12.835471675490982,95.78861545290582,95.78861545290582,11.742153320420842,-0.0012690360541082165,-0.006088016773547094,0.0004183319919839679,-0.23741356415430862,0.1673481318957916,-0.003593581531062124,2.0,1.0099170130661324,2.0099170130661324,11.0,0.0,0.0,1.0,0.0,0.0,0.0,0.0,0.0,0.0,0.0,-0.18255890377555112,-0.2278072970501002,-0.06677656754509018,-0.030803260262525053,1.6546374518977958,222.36570347955913,37.863985468517036,-0.02141948045290581,0.03562072093987976,-0.0754304578036072,0.0,-1.1611576779138275,1.6073690199158317,-8.259668247328657,-6.64e-34,954.4286544416834,11.741620472144287,-0.25138917095991986,-0.035501992042084166,0.23333793857515028,-1.2249592506793587,1.7071137571062125,-8.319521058703407,-0.2541546126232465,-0.03554158466733467,0.2281236088757515,9.008477345054107,88.99438549593187,95.62537794236472,-3.544719311509018,-4.07831249011022,15.364344966472947,14.770770571603206,0.01187149201202405,1.1881795901543086,-0.1,71.99862668695391,501.559203002004,11.742133812945891,95443.92795046093,1.1340317656913828,0.13414418554709412,0.18551667465931848,-0.21634521303607235,-0.25563257631462927,-0.023240632657314627,0.2414912063527054,-0.194170688747495,-0.22114774638476953,-0.06734047487575151,0.9882895474308617,-0.09998336658517033,-0.10652325947895791,-0.04399083236072144,0.0,398674029.84248495,327335013.0567134,502460.98578116234,12.349690302745492,12.33245896006012,-0.5397089197214429,2.715372986741483,6.238666793194389,0.0,0.0,0.0,39.87141370000001,32.7364371,-444.18297555571144,-250.65386728416834,-102.0302191967936,12.46180239981964,-0.2094687981823647,3.038311017018036,0.6250445411703407,2.756528367316633,1.699210751482966,0.12075288402404809,102.27097919679359,-0.16611144548697393,0.07864183704008015,-0.06777437745891784,0.0,84663702.65931864,0.0,0.0,1.0,0.0,0.0
84695604.0,-0.06972869803006013,0.08700379095390784,-0.08553397632665331,0.06298426533066119,0.0,1455.1503006012024,1500.0,1003.7575150300602,1534.8346963927856,1464.1653036072144,1515.3898066132265,12.455752916472946,12.762017548777555,12.52373404470942,12.533975886553106,12.842105095851704,12.561196866553107,12.869984314268537,96.1455483755511,96.1455483755511,11.742766379438878,-0.0012688124068136273,-0.006089245961923848,0.0004161517915831663,-0.23744059301202405,0.16729242929058116,-0.0035326399579158315,2.0,1.0117931398697395,2.0117931398697393,11.0,0.0,0.0,1.0,0.0,0.0,0.0,0.0,0.0,0.0,0.0,-0.18709721816432867,-0.2240400233026052,-0.0685268213226453,-0.031142681975951905,1.7263902344929862,221.943947953507,37.97017093144289,-0.021407023599198396,0.03569145023847696,-0.07578967320440881,0.0,-1.1600760207595189,1.6241368876613225,-8.297879475394788,-6.64e-34,954.4462194687375,11.742227074248497,-0.2477404883547094,-0.03722283830460922,0.21866827762324648,-1.2118541100781564,1.6887205848316635,-8.43759871921443,-0.2546303032044089,-0.036035746501002004,0.21372617561923843,5.245088241406804,88.86549524422846,95.48677310148297,-3.4900268743847693,-4.116465568016032,15.3642424797996,14.807872610180361,0.01112740231262525,1.184791659012024,-0.1,71.74941621230461,501.4654274809619,11.742767145110221,95445.01332130261,1.134044706783567,0.005300941138277324,-0.28581991265531015,-0.7839836106913818,-0.25017229639478955,-0.0222208441002004,0.2303544098797595,-0.19842583878757517,-0.2233807442905812,-0.06879498035671344,0.9879122090541083,-0.10218931266733468,-0.10745548230460922,-0.04504176004609219,0.0,398674064.90460926,327335011.959519,502370.1463102204,12.360691621382765,12.346603511563126,-0.4485551377575148,2.7782376952785572,6.246182642903808,0.0,0.0,0.0,39.87141370000001,32.7364371,-443.7789806338678,-250.655665696994,-101.93078363466934,12.478956202625252,-0.11822834119839655,3.093737755815632,0.6211883893567134,2.6862201231683365,1.6068233495591182,0.12776898158917835,102.17154363466933,-0.1616393929819639,0.08111869229058118,-0.07082185023446895,0.0,84695603.99198397,0.0,0.0,1.0,0.0,0.0
84727505.0,-0.0686160101743487,0.09465488033266535,-0.08623760029458918,0.009507058917835556,0.0,1455.8717434869739,1500.0,1021.7935871743488,1534.0412390781564,1464.9587609218436,1526.8608783567136,12.460843251543087,12.76712901490982,12.546908947314629,12.557654414008015,12.86631233993988,12.594933794008018,12.904496958757514,96.50248129819639,96.50248129819639,11.743379432745492,-0.001268588759519038,-0.006090474579158317,0.00041397159118236474,-0.2374676218697395,0.16723672668537073,-0.0034716989559118237,2.0,1.013669267244489,2.013669267244489,11.0,0.0,0.0,1.0,0.0,0.0,0.0,0.0,0.0,0.0,0.0,-0.19163553255310622,-0.2202727495551102,-0.07027707567134268,-0.031482104260521046,1.7981430176593187,221.5221923703407,38.076356394368744,-0.021392141675350702,0.03575382258316634,-0.07612316378557114,0.0,-1.1589943636052105,1.6409047548356714,-8.336090702889779,-6.64e-34,954.4637844386773,11.742833670641282,-0.2394652996573146,-0.039728689366733475,0.21051565341482964,-1.2358806976533065,1.7350845808236475,-8.479866713843688,-0.2551059937855712,-0.03652990890581163,0.19932874179158314,1.4816991377595103,88.73660499252506,95.3481682606012,-3.435334437831663,-4.154618646492986,15.364139998837675,14.844974643046093,0.010383312613226451,1.1814037278697394,-0.1,71.50020574336673,501.37780578957916,11.743398609639279,95446.0052475551,1.1340564273446894,0.31089519300200463,-0.08847524540080115,-0.3996445900100191,-0.24561264388977955,-0.022018644581162324,0.21651716130260523,-0.20723044896793588,-0.22600920168537075,-0.07495699646893789,0.9871570589138277,-0.1069007942705411,-0.10822649336673347,-0.04868603066733468,0.0,398674099.96673346,327335010.8052104,502279.30683927855,12.37169294002004,12.360748063066131,-0.357401355793587,2.8411024038156314,6.2536984920420835,0.0,0.0,0.0,39.87141370000001,32.7364371,-443.3636339164329,-250.65432648256512,-101.82685084108218,12.497260103226452,-0.0260918573507012,3.147113913330662,0.5855526054689378,2.6167164071763525,1.5335769314428858,0.13460859561723448,102.06761084108217,-0.15701442969539076,0.08676502968537077,-0.07335357295991986,0.0,84727504.75350702,0.0,0.0,1.0,0.0,0.0
84759406.0,-0.06918050518036072,0.07594450927054103,-0.08713606403807617,0.0,0.0,1456.5931863727455,1500.0,1054.0661322645292,1534.552578236473,1464.447421763527,1536.670814709419,12.475775788296593,12.782402748296594,12.57008384991984,12.581332941462925,12.890519584028056,12.628670721462926,12.939009603246493,96.85941422677355,96.85941422677355,11.743992491983969,-0.001268365112224449,-0.006091703789579158,0.00041179139078156314,-0.23749465013426857,0.1671810240801603,-0.003410757953907816,2.0,1.015545394026052,2.015545394026052,11.0,0.0,0.0,1.0,0.0,0.0,0.0,0.0,0.0,0.0,0.0,-0.19617384694188378,-0.2165054758076152,-0.0720273294268537,-0.03182152595190381,1.8698958008256514,221.10043684649298,38.18254185729459,-0.021376005755511022,0.03579679714028056,-0.07642823658717435,0.0,-1.1765124851442885,1.6668782320941886,-8.4188258398998,-6.64e-34,954.4720360266533,11.743460518416834,-0.24589442881162327,-0.03773326902204408,0.20379275606813627,-1.202685809733467,1.694764832078156,-8.533975194292585,-0.25089254253106213,-0.03579772017635271,0.18992026576753507,0.3305979834829647,88.60771474082165,95.20956341378758,-3.3806420012785567,-4.19277172496994,15.364037511943888,14.882076681843689,0.009639222913827654,1.1780157973206413,-0.1,71.250995268497,501.2246660701403,11.744060902064128,95447.75385420841,1.134077231961924,0.04928719781162244,-0.07600821032264535,-0.5197729790440886,-0.24600529798196394,-0.02347476815631263,0.20523341871342687,-0.21096832808617239,-0.21740153467134266,-0.07620086580761523,0.9874119349218438,-0.10869996568537074,-0.10381806676953906,-0.049066268358717434,0.0,398674135.0288577,327335009.71022046,502188.4673683367,12.382694258657315,12.374892614569138,-0.26624757382965913,2.9039671123527055,6.26121434118036,0.0,0.0,0.0,39.87141370000001,32.7364371,-442.95625814088174,-250.6510673018036,-101.72380723386775,12.515783660741482,0.06235648785170358,3.197694456432866,0.5751909601302605,2.556562627665331,1.474329282256513,0.14104090830661323,101.96456723386774,-0.1595906208456914,0.1112359853567135,-0.07339897398597195,0.0,84759406.10821643,0.0,0.0,1.0,0.0,0.0
84790049.0,-0.06920937942685369,0.05676792588577149,-0.08835785929058117,0.0,0.0,1456.685370741483,1500.0,1050.7174348697392,1534.685370741483,1464.314629258517,1543.8877755511023,12.485638513306613,12.792480095250502,12.593258749378759,12.605011468917835,12.914726828116233,12.662407648917835,12.97352224773547,97.21634715348698,97.21634715348698,11.744605549358718,-0.0012681414649298598,-0.006092933128256512,0.00040961119038076155,-0.23752167858517037,0.1671253214749499,-0.0033498166372745494,2.0,1.0174215206793586,2.0174215206793584,11.0,0.0,0.0,1.0,0.0,0.0,0.0,0.0,0.0,0.0,0.0,-0.20071216101603206,-0.21273820237474947,-0.07377758336873748,-0.03216094751503006,1.9416485839919844,220.67868133547094,38.28872732022044,-0.021361969118236474,0.03583209557915831,-0.07671031818036073,0.0,-1.1998726800901804,1.6957431332745494,-8.515545655541082,-6.64e-34,954.4773623350702,11.744093727034068,-0.24602949182164321,-0.03517734216432864,0.19494900515030056,-1.179253563236473,1.6819706542925854,-8.5757827569499,-0.2452062614308617,-0.03468034243887775,0.18207878981963926,-6.64e-34,88.48570242943889,95.07383226348698,-3.333479468783567,-4.222331619563127,15.36393680456914,14.917157474348699,0.008935593278557112,1.1739840205971943,-0.1,71.01399655124249,501.11818740781564,11.744730844769538,95448.97923176351,1.1340917851002004,-0.005228765949898184,-0.256295490841685,-0.4344127454448876,-0.2439098340561122,-0.023215137961923836,0.19528590519438876,-0.21339882486973952,-0.21049124013226453,-0.07630296249498998,0.9876643113787575,-0.1098147938476954,-0.1003383761022044,-0.048894809482965935,0.0,398674170.09098196,327335008.6280561,502097.6279288577,12.39369557729459,12.389037166072145,-0.17509379218036034,2.9668318208897797,6.268730190633267,0.0,0.0,0.0,39.87141370000001,32.7364371,-442.5595049749499,-250.6452494240481,-101.62194853847696,12.534599946272545,0.14588978258316665,3.244549383937876,0.5985112475511025,2.5088691717795593,1.4337372883366732,0.14693042374749501,101.86270853847695,-0.15968790619839676,0.14127287625851717,-0.07236975818236471,0.042242806993988385,84790048.75951904,0.0,0.0,1.0,0.0,0.0
84819208.0,-0.0680507782244489,0.04394208259118233,-0.0899655830741483,0.0,0.0,1455.9732652024047,1500.0,1000.0,1533.9278557114228,1465.0721442885772,1547.6392785571143,12.4885131248497,12.795373624108217,12.61643364513026,12.628689996733467,12.93893407220441,12.696144576372745,13.008034891863728,97.57328007613226,97.57328007613226,11.74521860266533,-0.0012679178176352706,-0.006094162430861723,0.00040743098997995995,-0.23754870744288575,0.16706961886973948,-0.0032888749498997997,2.0,1.0192976473326654,2.019297647332665,11.0,0.0,0.0,1.0,0.0,0.0,0.0,0.0,0.0,0.0,0.0,-0.20525047471943889,-0.20897092931262523,-0.07552783768136273,-0.032500369114228454,2.013401367158317,220.2569258208417,38.394912783146296,-0.021351016388777556,0.035864798368737474,-0.07696851205611223,0.0,-1.2208789977414827,1.723894965719439,-8.615806222775552,-6.64e-34,954.4818516,11.744735599458918,-0.23431795129659316,-0.03326988122645289,0.18294498403206416,-1.1856092248997996,1.7254329022805612,-8.596718441771543,-0.23901515861723446,-0.03283305975751501,0.17472387951102203,-6.64e-34,88.37295152567134,94.9419706565531,-3.296456238006012,-4.240320465803608,15.36383849462926,14.94951657971944,0.008286444633266532,1.1690852804128256,-0.1,70.79344143084168,501.08616173927857,11.745403179038076,95449.36247557114,1.1340962669198398,0.33581520921242447,-0.5969510783807609,0.033063746306613226,-0.23726248358316632,-0.020507250535070142,0.186171743242485,-0.21555615040881762,-0.20915046248096195,-0.07631274670340682,0.9876180225931864,-0.11086286336272545,-0.0996224223507014,-0.04893909265731463,0.0,398674205.18917835,327335007.60721445,502006.42054368736,12.405084238977956,12.403472223867736,-0.08413368491382751,3.029163924937876,6.245801826272545,0.0,0.0,0.0,39.87141370000001,32.7364371,-442.1741390466934,-250.6366267278557,-101.52132792164329,12.553774028917836,0.22410586438276567,3.2873523321462925,0.6581944849098198,2.474636330328657,1.4126981603286572,0.15223054618436874,101.76208792164329,-0.1545892020300601,0.17314311281162328,-0.07065178948496993,0.12941904563126236,84819208.0741483,0.0,0.0,1.0,0.0,0.0
84851110.0,-0.06639746271342685,0.02320799441482958,-0.09199764455711423,0.0,0.0,1455.438569250501,1500.0,1000.0,1532.4849699398796,1466.5150300601204,1540.4248496993987,12.535442421843689,12.843413106272545,12.639608547735472,12.652368531402807,12.963141316292585,12.729881503827656,13.042547529138277,97.93021299877756,97.93021299877756,11.745831655971944,-0.0012676941703406814,-0.006095391048096192,0.0004052507895791583,-0.2375757363006012,0.16701391626452908,-0.0032279339478957915,2.0,1.0211737739859719,2.021173773985972,11.0,0.0,0.0,1.0,0.0,0.0,0.0,0.0,0.0,0.0,0.0,-0.20978878910821644,-0.20520365556513023,-0.07727809130861724,-0.0328397913987976,2.08515415032465,219.83517023767536,38.50109824607215,-0.02134042416432866,0.03593372574348697,-0.07718671317835671,0.0,-1.152437652571142,1.7163632001082163,-8.676281378286573,-6.64e-34,954.4928316,11.745493388637275,-0.2302522772284569,-0.033543505755511016,0.17059294467334665,-1.2141509028957918,1.7011068278917836,-8.586177397202404,-0.23450769096192384,-0.02006639490781558,0.1646175497314629,-6.64e-34,88.2671978390982,94.81303258761523,-3.2670934981262523,-4.249567101875751,15.363741987214429,14.979819374108216,0.007678457298597191,1.1635315286693386,-0.1,70.58530984767535,500.9744105248496,11.746096759799599,95450.61858699398,1.1341112253166332,0.09205229346092092,-0.23125772599599054,0.032926412438877756,-0.23156003524649296,-0.022241801236472954,0.17362788809218432,-0.21772827858517035,-0.21224779210020042,-0.07649438077154308,0.9873235144569138,-0.11198521061723447,-0.10108940936472946,-0.04929818580360722,0.0,398674240.9727455,327335007.75150305,501908.22141743486,12.423832418537074,12.423426901222445,0.0031466168096195707,3.081376543695391,5.644433391723444,0.0,0.0,0.0,39.87141370000001,32.7364371,-441.7865059805611,-250.62737328496993,-101.41984435450902,12.57372160727455,0.30245185203807645,3.329844795072144,0.7155639031062127,2.4397084969018032,1.3792103269018035,0.1575035498717435,101.66060435450902,-0.14991646263126251,0.20310106904408828,-0.06904075918436872,0.03255655825651266,84851109.55711423,0.0,0.0,1.0,0.0,0.0
84883011.0,-0.06548653963527054,0.004680653587174326,-0.09284810967735471,0.0,0.0,1455.1348727855711,1500.0,1000.0,1532.9579158316633,1466.0420841683367,1530.3366733466933,12.548636567094189,12.856863081142285,12.662783450340681,12.676047061282565,12.987348560380761,12.763618431282566,13.077060171202405,98.28714592621243,98.28714592621243,11.746444714068137,-0.0012674705230460923,-0.006096620144288577,0.00040307011022044085,-0.23760276515831663,0.16695821365931865,-0.003166992466933868,2.0,1.0230499006392786,2.0230499006392786,11.0,0.0,0.0,1.0,0.0,0.0,0.0,0.0,0.0,0.0,0.0,-0.214327103496994,-0.20143638181763526,-0.07902834493587174,-0.033179213204408815,2.156906933490982,219.4134147024048,38.607283708998,-0.021325427921843686,0.03600705330460922,-0.07739203176953909,0.0,-1.0411697527555108,1.6917465218917835,-8.717707717002003,-6.64e-34,954.5069192705411,11.746306679458918,-0.22824983029058116,-0.023999193725450885,0.15977249682164327,-1.1935955336392785,1.6848964410601202,-8.626750292148296,-0.23080632911623247,-0.002071650559118213,0.15319387111022043,-6.64e-34,88.16144415252505,94.68409451388777,-3.2377307582464927,-4.258813737947896,15.3636454797996,15.010122173286573,0.00707047044288577,1.1579777769258517,-0.1,70.37717826450901,500.91200375811616,11.746794416492985,95451.33201993987,1.134119694791583,-0.0034811780280561352,0.1535518186733471,-0.15405806040881798,-0.2268159611042084,-0.013207231779559101,0.1620943774228457,-0.22236243628456914,-0.20333995726252502,-0.07929611675951904,0.9874507814509018,-0.11427970056312625,-0.09640864104809618,-0.05042764204609219,0.0,398674277.0915832,327335008.42264533,501806.97860941885,12.445784472124249,12.445784472124249,0.08882496331863737,3.129183776513026,4.7912486061222435,0.0,0.0,0.0,39.87141370000001,32.7364371,-441.37791108176356,-250.6122880983968,-101.31038139639278,12.60082093733467,0.3819989516753508,3.369466492016032,0.7515396055791583,2.3983547274709416,1.2306209704468936,0.16252581046893788,101.55114139639278,-0.1442791403066132,0.19946052310020038,-0.0723115567735471,0.0,84883010.56112224,0.0,0.0,1.0,0.0,0.0
