timestamp,ref_timestamp,ref_lat,ref_lon,x,y,z,vx,vy,vz,ax,ay,az,dist_bottom
17064000,764000,39.8714138,32.7364368,0.005086632,0.002754522,-0.040557988,0.010028364,0.002099646,0.014033304,-0.028869266,0.030902022,-0.03529526,0.1
17168000,764000,39.8714138,32.7364368,0.004779894,0.002651916,-0.037128292,0.010333802,0.000859063,0.015804164,-0.07825647,0.038312584,0.041797753,0.1
17264000,764000,39.8714138,32.7364368,0.0042314,0.002048005,-0.035719536,0.009763265,-0.001493647,0.016736377,-0.049053892,-0.06829833,0.10789744,0.1
17360000,764000,39.8714138,32.7364368,0.002260531,0.06573656,-0.033756323,-0.062255286,2.5437534,0.06487056,-1.4908228,51.966297,0.94468516,0.1
17464000,764000,39.8714138,32.7364368,-0.012527988,0.5879082,-0.023410462,-0.19908108,7.3106365,0.15234378,-1.1903684,40.378143,0.8528921,0.1
17560000,764000,39.8714138,32.7364368,-0.035854727,1.4596164,-0.006795803,-0.2959392,10.750844,0.21738055,-0.92453444,31.967068,0.5988534,0.1
17664000,764000,39.8714138,32.7364368,-0.06654176,2.7313294,0.017223747,-0.37249753,13.695257,0.26810953,-0.6316205,25.165903,0.33488682,0.1
17760000,764000,39.8714138,32.7364368,-0.09807728,4.1483,0.042998552,-0.39081237,15.883883,0.2930613,0.18172917,21.414259,-0.11128652,0.1
17864000,764000,39.8714138,32.7364368,-0.11811406,5.8928466,0.06732252,-0.39292255,17.844193,0.27391058,-0.9337254,17.035776,-0.1315344,0.1
17960000,764000,39.8714138,32.7364368,-0.14137188,7.6704507,0.086876355,-0.504697,19.303568,0.25882685,-1.9915682,13.652241,0.04604831,0.1
18064000,764000,39.8714138,32.7364368,-0.16853435,9.744061,0.101617895,-0.6485009,20.534536,0.25615415,-1.6158878,10.236954,0.30102673,0.1
18160000,764000,39.8714138,32.7364368,-0.20467894,11.756059,0.11652402,-0.6895944,21.361485,0.28256553,-0.49598825,7.392386,0.37080047,0.1
18264000,764000,39.8714138,32.7364368,-0.230376,14.013973,0.12854697,-0.6573797,22.027784,0.28436175,-0.45926866,5.6734276,0.18482003,0.1
18360000,764000,39.8714138,32.7364368,-0.2589913,16.152557,0.13752975,-0.7100341,22.514774,0.24920005,-1.5574788,4.551383,-0.98171544,0.1
18464000,764000,39.8714138,32.7364368,-0.2943465,18.519299,0.13020964,-0.8614919,22.888948,-0.044227336,-2.292014,2.813709,-4.158169,0.1
18560000,764000,39.8714138,32.7364368,-0.3520146,20.729588,0.08578625,-1.059048,23.096241,-0.5234996,-2.4927304,1.7288959,-5.132691,0.1
18664000,764000,39.8714138,32.7364368,-0.43484038,23.142874,-0.019608716,-1.2627048,23.226181,-1.0304979,-2.2570145,0.9371354,-4.2604094,0.18976454
18760000,764000,39.8714138,32.7364368,-0.5370679,25.378014,-0.15769744,-1.437758,23.29306,-1.4080065,-2.0160003,0.5435248,-3.5228858,0.32785326
18864000,764000,39.8714138,32.7364368,-0.6695318,27.815628,-0.346764,-1.6322477,23.323639,-1.7818376,-2.1276796,-0.018305028,-3.5533707,0.51691985
18960000,764000,39.8714138,32.7364368,-0.8172089,30.06171,-0.55655867,-1.834949,23.298218,-2.150236,-2.4108198,-0.4386515,-3.9011164,0.7267145
19064000,764000,39.8714138,32.7364368,-1.0050608,32.496277,-0.82441264,-2.0694115,23.232397,-2.572976,-2.3433528,-0.8922159,-4.0273085,0.99456847
19160000,764000,39.8714138,32.7364368,-1.2045487,34.732075,-1.1105266,-2.2856796,23.141502,-2.9611013,-2.2719371,-0.99826413,-3.838998,1.2806823
19264000,764000,39.8714138,32.7364368,-1.449138,37.148674,-1.46225,-2.5103354,23.026234,-3.3544753,-2.1430995,-1.2544236,-3.6481392,1.6324058
19360000,764000,39.8714138,32.7364368,-1.697712,39.36357,-1.8228525,-2.7100224,22.901834,-3.7024994,-2.1529078,-1.4157091,-3.5267582,1.9930084
19464000,764000,39.8714138,32.7364368,-1.994987,41.75267,-2.2511635,-2.9316058,22.753223,-4.0811343,-2.148213,-1.5442613,-3.6118698,2.4213192
19560000,764000,39.8714138,32.7364368,-2.2909963,43.93968,-2.6821182,-3.1366313,22.592878,-4.438077,-2.1435013,-1.7633795,-3.677895,2.852274
19664000,764000,39.8714138,32.7364368,-2.6387603,46.3006,-3.1878226,-3.3615422,22.404861,-4.834643,-2.0908523,-1.9689773,-3.8201172,3.3579783
19760000,764000,39.8714138,32.7364368,-2.980213,48.457855,-3.691462,-3.5637465,22.21488,-5.205406,-1.913898,-2.158748,-3.773567,3.8616178
19864000,764000,39.8714138,32.7364368,-3.3770223,50.777493,-4.2768703,-3.7834632,21.994478,-5.604711,-1.937496,-2.2876005,-3.7576358,4.4470263
19968000,764000,39.8714138,32.7364368,-3.795735,53.069035,-4.903772,-3.9973333,21.755148,-6.0078382,-1.905082,-2.32632,-3.7936053,5.073928
20064000,764000,39.8714138,32.7364368,-4.2062597,55.166424,-5.5186296,-4.196846,21.54092,-6.347395,-2.0638723,-2.276254,-3.1284082,5.6887856
20160000,764000,39.8714138,32.7364368,-4.6358337,57.239716,-6.161926,-4.4358263,21.33529,-6.6213946,-2.670747,-2.2506075,-2.4108,6.332082
20264000,764000,39.8714138,32.7364368,-5.1344895,59.465286,-6.884406,-4.7658334,21.118073,-6.8542547,-3.4049459,-2.1263914,-1.9215857,7.054562
20360000,764000,39.8714138,32.7364368,-5.627132,61.496624,-7.5709815,-5.1252055,20.909666,-7.031868,-3.8676734,-2.3320506,-1.6118464,7.7411375
20464000,764000,39.8714138,32.7364368,-6.2071633,63.67968,-8.330608,-5.5605354,20.67982,-7.1949654,-4.097483,-2.3274717,-1.3111279,8.500764
20560000,764000,39.8714138,32.7364368,-6.7827225,65.6712,-9.044241,-5.986773,20.459925,-7.314811,-4.2662544,-2.3332922,-1.0409205,9.214396
20664000,764000,39.8714138,32.7364368,-7.4548383,67.806435,-9.827896,-6.464308,20.222809,-7.412271,-4.492289,-2.4322386,-0.6672507,9.998052
20760000,764000,39.8714138,32.7364368,-8.117102,69.74699,-10.555916,-6.872232,19.781944,-7.4025984,-3.9849763,-6.2897434,0.84132695,10.726071
20864000,764000,39.8714138,32.7364368,-8.881759,71.78981,-11.337587,-7.3514395,19.137634,-7.3360124,-4.850883,-6.195891,0.65591276,11.507743
20960000,764000,39.8714138,32.7364368,-9.634421,73.61574,-12.052216,-7.8638277,18.58362,-7.2669816,-5.4248457,-5.510424,0.9006652,12.222371
21064000,764000,39.8714138,32.7364368,-10.506197,75.5385,-12.817979,-8.452584,18.072594,-7.1344204,-5.5450306,-4.5763354,1.608203,12.988134
21160000,764000,39.8714138,32.7364368,-11.363997,77.26936,-13.51168,-9.0064745,17.681879,-6.964564,-5.664947,-3.8988588,1.8684611,13.681835
21264000,764000,39.8714138,32.7364368,-12.354811,79.10699,-14.243183,-9.617264,17.313988,-6.7479377,-5.8362765,-3.5634277,2.1754792,14.413339
21360000,764000,39.8714138,32.7364368,-13.326702,80.769005,-14.8979025,-10.217088,16.96332,-6.5564466,-6.3271165,-3.883658,1.9148167,15.068058
21464000,764000,39.8714138,32.7364368,-14.4457855,82.52709,-15.588897,-10.919882,16.517088,-6.3912153,-6.8745327,-4.7788234,1.4493549,15.759052
21560000,764000,39.8714138,32.7364368,-15.545511,84.10358,-16.213493,-11.623361,16.014206,-6.2804976,-7.4264503,-5.735123,0.9943796,16.38365
21664000,764000,39.8714138,32.7364368,-16.814556,85.750084,-16.88048,-12.432914,15.35895,-6.199114,-7.891947,-6.9823604,0.6579449,17.050636
21760000,764000,39.8714138,32.7364368,-18.061676,87.20341,-17.489183,-13.2073555,14.646381,-6.152207,-8.0836,-7.9912834,0.44021288,17.65934
21864000,764000,39.8714138,32.7364368,-19.494614,88.69396,-18.14244,-14.052797,13.76032,-6.120761,-8.07639,-9.1427555,0.27939954,18.312597
21960000,764000,39.8714138,32.7364368,-20.894295,89.98391,-18.741531,-14.828699,12.844972,-6.103437,-7.9121118,-10.1205435,0.13407505,18.911688
22064000,764000,39.8714138,32.7364368,-22.494865,91.27548,-19.389902,-15.651726,11.736791,-6.0949183,-7.6430326,-11.281232,0.10171718,19.560059
22160000,764000,39.8714138,32.7364368,-24.049908,92.360756,-19.987762,-16.385006,10.608521,-6.094926,-7.3140845,-12.275136,-8.66E-05,20.157919
22264000,764000,39.8714138,32.7364368,-25.809416,93.40734,-20.633959,-17.122871,9.277561,-6.0981903,-6.678766,-13.376972,0.026392749,20.804115
22360000,764000,39.8714138,32.7364368,-27.500145,94.24723,-21.2312,-17.74247,7.95872,-6.100947,-5.955565,-14.23802,0.051699575,21.401356
22464000,764000,39.8714138,32.7364368,-29.392187,95.00867,-21.877375,-18.320919,6.4645867,-6.0914645,-4.9489274,-14.592101,0.17485115,22.047531
22560000,764000,39.8714138,32.7364368,-31.188711,95.57275,-22.472006,-18.761992,5.0603437,-6.0596685,-4.034718,-14.738829,0.54400223,22.642162
22664000,764000,39.8714138,32.7364368,-33.173283,96.029945,-23.111471,-19.130575,3.5421855,-5.990913,-2.9408188,-14.497702,0.896926,23.281628
22760000,764000,39.8714138,32.7364368,-35.033035,96.31534,-23.694286,-19.371782,2.1706924,-5.898657,-2.0022075,-14.096406,1.166772,23.864443
22864000,764000,39.8714138,32.7364368,-37.06854,96.47482,-24.31298,-19.535305,0.7257599,-5.7692795,-0.99575865,-13.691297,1.4630835,24.483137
22960000,764000,39.8714138,32.7364368,-38.96349,96.48993,-24.86905,-19.604036,-0.55464375,-5.6239457,-0.13952236,-13.077204,1.6520264,25.039206
23064000,764000,39.8714138,32.7364368,-41.016094,96.3688,-25.453125,-19.594587,-1.8792174,-5.442625,0.51258826,-12.4616375,1.8523073,25.623281
23160000,764000,39.8714138,32.7364368,-42.90925,96.13881,-25.975014,-19.518974,-3.045131,-5.2595735,1.2443763,-11.951773,1.9593946,26.14517
23264000,764000,39.8714138,32.7364368,-44.944813,95.76452,-26.52093,-19.369305,-4.2510443,-5.0505943,1.7329314,-11.318364,2.045911,26.691086
23360000,764000,39.8714138,32.7364368,-46.80908,95.31163,-27.007128,-19.173141,-5.312814,-4.852663,2.3937383,-10.884249,2.0485654,27.177284
23464000,764000,39.8714138,32.7364368,-48.799824,94.70641,-27.513351,-18.893568,-6.4245043,-4.641093,3.0234916,-10.53476,2.0875404,27.683508
23560000,764000,39.8714138,32.7364368,-50.61021,94.05204,-27.963217,-18.579828,-7.413553,-4.45277,3.7250881,-10.286228,1.9875838,28.133373
23664000,764000,39.8714138,32.7364368,-52.53095,93.2341,-28.430082,-18.17103,-8.462504,-4.2603607,4.280402,-10.037179,1.7691478,28.600239
23760000,764000,39.8714138,32.7364368,-54.26882,92.382225,-28.844326,-17.733482,-9.408668,-4.097379,5.0335383,-9.7861185,1.7139156,29.014482
23864000,764000,39.8714138,32.7364368,-56.095497,91.355354,-29.276148,-17.183784,-10.425896,-3.9438078,5.7423005,-9.773369,1.4486815,29.446304
23960000,764000,39.8714138,32.7364368,-57.731396,90.318535,-29.663986,-16.600119,-11.350989,-3.8234165,6.528739,-9.666009,1.215984,29.834143
24064000,764000,39.8714138,32.7364368,-59.43096,89.093025,-30.071922,-15.87444,-12.344367,-3.7181373,7.4880304,-9.603736,0.90800315,30.242079
24160000,764000,39.8714138,32.7364368,-60.935204,87.87383,-30.441946,-15.122381,-13.2505455,-3.6522224,8.405232,-9.491407,0.5878601,30.612103
24264000,764000,39.8714138,32.7364368,-62.472317,86.4526,-30.836006,-14.191797,-14.222624,-3.6088254,9.644007,-9.289072,0.3039818,31.006163
24360000,764000,39.8714138,32.7364368,-63.805973,85.05897,-31.201368,-13.229691,-15.099706,-3.605217,10.716252,-9.128709,-0.020480713,31.371525
24464000,764000,39.8714138,32.7364368,-65.13568,83.45226,-31.598461,-12.062573,-16.02313,-3.6299138,11.914563,-8.838014,-0.32077727,31.768618
24560000,764000,39.8714138,32.7364368,-66.25626,81.886314,-31.975937,-10.872735,-16.833961,-3.6840522,13.09216,-8.271268,-0.47042033,32.14609
24664000,764000,39.8714138,32.7364368,-67.32978,80.102165,-32.39172,-9.464569,-17.648024,-3.762057,14.113339,-7.5222883,-0.62959635,32.561874
24760000,764000,39.8714138,32.7364368,-68.19298,78.38743,-32.788406,-8.103858,-18.312712,-3.8398023,14.520404,-6.5801754,-0.50071716,32.95856
24864000,764000,39.8714138,32.7364368,-68.97519,76.460846,-33.223396,-6.612098,-18.922035,-3.8997593,14.335979,-5.355076,-0.16374326,33.39355
24960000,764000,39.8714138,32.7364368,-69.56716,74.63593,-33.635895,-5.2652073,-19.370007,-3.939752,13.949543,-4.2949295,0.02458412,33.80605
25064000,764000,39.8714138,32.7364368,-70.06071,72.61414,-34.084423,-3.8633895,-19.740973,-3.9537885,13.259164,-3.1482801,0.23697501,34.254578
25160000,764000,39.8714138,32.7364368,-70.39806,70.72411,-34.50742,-2.6561885,-19.982147,-3.9519708,12.270169,-2.258891,0.49889922,34.677574
25264000,764000,39.8714138,32.7364368,-70.63495,68.65313,-34.964306,-1.4556752,-20.161005,-3.9244258,11.214738,-1.5053302,0.6407303,35.13446
25360000,764000,39.8714138,32.7364368,-70.75008,66.727776,-35.388428,-0.4548886,-20.252527,-3.88769,10.166478,-0.8461839,0.8183503,35.558582
25464000,764000,39.8714138,32.7364368,-70.767845,64.63241,-35.840015,0.51629066,-20.29795,-3.8308399,9.001332,-0.33545142,1.0309684,36.01017
25560000,764000,39.8714138,32.7364368,-70.70375,62.69704,-36.25515,1.3035438,-20.30118,-3.779646,7.997106,0.007008435,1.014186,36.425304
25664000,764000,39.8714138,32.7364368,-70.551636,60.60068,-36.698265,2.0606887,-20.273352,-3.719148,7.0556364,0.20247348,0.91780996,36.86842
25760000,764000,39.8714138,32.7364368,-70.34864,58.6699,-37.10474,2.6748376,-20.221466,-3.6725552,6.19996,0.4339809,0.7639294,37.274895
25864000,764000,39.8714138,32.7364368,-70.06374,56.583347,-37.537518,3.257427,-20.145359,-3.6358607,5.3464975,0.72114074,0.6996467,37.707672
25960000,764000,39.8714138,32.7364368,-69.75359,54.66604,-37.93728,3.7193403,-20.061092,-3.6222103,4.7020726,0.7311441,0.3989171,38.107433
26064000,764000,39.8714138,32.7364368,-69.36991,52.59748,-38.36677,4.1529493,-19.963171,-3.614808,4.128647,0.8576379,0.3494499,38.536926
26160000,764000,39.8714138,32.7364368,-68.9781,50.693687,-38.76156,4.494934,-19.871546,-3.619555,3.3573613,0.9330337,0.21623354,38.931713
26264000,764000,39.8714138,32.7364368,-68.51725,48.63838,-39.1851,4.802047,-19.77388,-3.631189,2.8147185,0.8417101,0.078862526,39.355255
26360000,764000,39.8714138,32.7364368,-68.06584,46.748672,-39.575855,5.0352335,-19.685696,-3.6569402,2.293695,0.85068893,-0.030932015,39.74601
26464000,764000,39.8714138,32.7364368,-67.55314,44.709576,-39.999203,5.2406225,-19.592196,-3.6981661,1.9600204,0.89236915,-0.2509998,40.169357
26560000,764000,39.8714138,32.7364368,-67.063095,42.834545,-40.393337,5.38731,-19.50984,-3.7478478,1.5173043,0.877773,-0.37802845,40.56349
26664000,764000,39.8714138,32.7364368,-66.51794,40.81094,-40.824085,5.500945,-19.425446,-3.8129635,1.0466732,0.7777477,-0.42023042,40.99424
26760000,764000,39.8714138,32.7364368,-66.00493,38.949764,-41.22607,5.5698786,-19.356678,-3.8792598,0.74019593,0.622531,-0.43159813,41.396225
26864000,764000,39.8714138,32.7364368,-65.44369,36.93967,-41.66639,5.6074624,-19.290377,-3.9451098,0.31600997,0.6030465,-0.4165936,41.836544
26960000,764000,39.8714138,32.7364368,-64.92136,35.08633,-42.075966,5.6158967,-19.242392,-4.000319,0.11370182,0.47874913,-0.34675652,42.24612
27064000,764000,39.8714138,32.7364368,-64.354836,33.079792,-42.52341,5.598,-19.197134,-4.055702,-0.1329263,0.44332185,-0.38887557,42.693565
27160000,764000,39.8714138,32.7364368,-63.83315,31.231178,-42.939655,5.5608325,-19.16267,-4.10445,-0.43743968,0.3761578,-0.42859742,43.10981
27264000,764000,39.8714138,32.7364368,-63.274223,29.230177,-43.394775,5.499755,-19.130875,-4.154979,-0.5312558,0.3373972,-0.34763104,43.56493
27368000,764000,39.8714138,32.7364368,-62.72049,27.2311,-43.85286,5.4200826,-19.10762,-4.2001033,-0.75607896,0.2500948,-0.29030535,44.023014
27464000,764000,39.8714138,32.7364368,-62.217346,25.385384,-44.27826,5.3273396,-19.096046,-4.2372346,-0.92323345,0.08967728,-0.26137286,44.448414
27560000,764000,39.8714138,32.7364368,-61.722126,23.541794,-44.705086,5.2117357,-19.091545,-4.2678266,-1.2327123,0.097867675,-0.23076123,44.87524
27664000,764000,39.8714138,32.7364368,-61.20107,21.54363,-45.17227,5.0557914,-19.094519,-4.299755,-1.5057935,0.019376397,-0.15771854,45.342426
27760000,764000,39.8714138,32.7364368,-60.73364,19.697908,-45.604473,4.885727,-19.105469,-4.3270946,-1.7578067,-0.014837132,-0.16764458,45.774628
27864000,764000,39.8714138,32.7364368,-60.248215,17.690931,-46.075485,4.6694098,-19.124243,-4.3548384,-2.1138654,-0.09986967,-0.17698202,46.24564
27960000,764000,39.8714138,32.7364368,-59.818962,15.83855,-46.509804,4.4445114,-19.148783,-4.376327,-2.3887,-0.22664268,-0.11247582,46.67996
28064000,764000,39.8714138,32.7364368,-59.38165,13.823786,-46.982044,4.170817,-19.183495,-4.398786,-2.6226199,-0.2651078,-0.13322662,47.1522
28160000,764000,39.8714138,32.7364368,-59.001823,11.963725,-47.418285,3.8968065,-19.216795,-4.4160323,-2.9692812,-0.21573167,-0.15597044,47.58844
28264000,764000,39.8714138,32.7364368,-58.62246,9.940912,-47.89149,3.5729492,-19.25886,-4.434048,-3.2037737,-0.29374146,-0.1520384,48.061646
28360000,764000,39.8714138,32.7364368,-58.30052,8.074103,-48.32865,3.252684,-19.293863,-4.448154,-3.3870025,-0.24756147,-0.122861,48.498806
28464000,764000,39.8714138,32.7364368,-57.98699,6.0441046,-48.80452,2.8862345,-19.334896,-4.4637313,-3.5144272,-0.20223948,-0.10139867,48.974674
28560000,764000,39.8714138,32.7364368,-57.73027,4.1702523,-49.24286,2.529621,-19.36512,-4.475758,-3.7634487,-0.26402888,-0.048180107,49.413013
28664000,764000,39.8714138,32.7364368,-57.491673,2.1276762,-49.718826,2.130336,-19.398624,-4.486662,-3.8772047,-0.15847594,-0.05692709,49.88898
28767999,764000,39.8714138,32.7364368,-57.293636,0.08787929,-50.195618,1.718168,-19.412752,-4.4957757,-4.0104218,0.46504214,-0.001380565,50.365772
28871999,764000,39.8714138,32.7364368,-57.139675,-1.955935,-50.67271,1.2940767,-19.317804,-4.4722476,-4.0469737,1.5464981,0.60360694,50.842865
28968000,764000,39.8714138,32.7364368,-57.0352,-3.824337,-51.108517,0.9147059,-19.15227,-4.385938,-3.876474,2.0440307,1.2378114,51.27867
29072000,764000,39.8714138,32.7364368,-56.962868,-5.837646,-51.568752,0.5255024,-18.947018,-4.2289996,-3.6327412,2.2682288,1.8956352,51.738907
29176000,764000,39.8714138,32.7364368,-56.928196,-7.8216205,-52.006996,0.16487731,-18.735826,-4.006465,-3.3660798,2.136276,2.4919248,52.17715
29280000,764000,39.8714138,32.7364368,-56.930443,-9.786866,-52.41981,-0.17395186,-18.541264,-3.728278,-3.0441132,1.9278805,2.9337428,52.589966
29383999,764000,39.8714138,32.7364368,-56.965736,-11.728354,-52.799793,-0.48771518,-18.365894,-3.3958986,-2.9021766,1.6823771,3.4674008,52.969948
29487999,764000,39.8714138,32.7364368,-57.034428,-13.659489,-53.143654,-0.7922152,-18.208973,-3.0356412,-2.8574655,1.7519633,3.4543912,53.31381
29584000,764000,39.8714138,32.7364368,-57.124943,-15.4211645,-53.426785,-1.0741401,-18.057953,-2.7057908,-2.9472303,1.749509,3.348599,53.59694
29696000,764000,39.8714138,32.7364368,-57.265957,-17.461748,-53.719723,-1.4091015,-17.881882,-2.3444455,-2.9316201,1.7555449,3.1684182,53.889877
29800000,764000,39.8714138,32.7364368,-57.429623,-19.334589,-53.956345,-1.7190936,-17.717575,-2.0227308,-2.9258192,1.7003946,3.0681796,54.1265
29895999,764000,39.8714138,32.7364368,-57.609486,-21.051256,-54.146088,-2.005314,-17.573025,-1.7373905,-2.9809444,1.5047779,3.02191,54.316242
29999999,764000,39.8714138,32.7364368,-57.834827,-22.890831,-54.32124,-2.3166893,-17.419502,-1.4360404,-3.015129,1.6197162,2.9039836,54.491394
30096000,764000,39.8714138,32.7364368,-58.072487,-24.578625,-54.455517,-2.6033366,-17.286535,-1.1704397,-2.9833424,1.4726815,2.651267,54.62567
30200000,764000,39.8714138,32.7364368,-58.36044,-26.388214,-54.57061,-2.913886,-17.142769,-0.8976258,-3.0075772,1.4882003,2.5891082,54.740765
30304000,764000,39.8714138,32.7364368,-58.682312,-28.18784,-54.65786,-3.2262383,-17.003105,-0.63836956,-2.972518,1.347451,2.4192398,54.828014
30400000,764000,39.8714138,32.7364368,-59.007298,-29.830833,-54.713776,-3.5138228,-16.873167,-0.4117103,-2.9659169,1.3797458,2.3485096,54.88393
30496000,764000,39.8714138,32.7364368,-59.361313,-31.466303,-54.748264,-3.8015785,-16.749554,-0.20083405,-2.8838277,1.4359411,2.1828933,54.91842
30600000,764000,39.8714138,32.7364368,-59.7747,-33.219093,-54.763237,-4.111371,-16.611929,0.010365373,-2.956137,1.4462157,1.9096917,54.93339
30696000,764000,39.8714138,32.7364368,-60.18646,-34.83182,-54.759094,-4.3973436,-16.48983,0.19196983,-2.9750001,1.3662688,1.8637403,54.92925
30800000,764000,39.8714138,32.7364368,-60.661766,-36.557938,-54.735413,-4.7034197,-16.350769,0.36923575,-2.8572557,1.3455,1.7318771,54.905567
30896000,764000,39.8714138,32.7364368,-61.12964,-38.142307,-54.697548,-4.982903,-16.223974,0.5181806,-2.8501165,1.3696002,1.5113147,54.867702
31000000,764000,39.8714138,32.7364368,-61.665096,-39.838165,-54.64003,-5.280935,-16.08263,0.66352093,-2.7698505,1.4446418,1.2901639,54.810184
31096000,764000,39.8714138,32.7364368,-62.190083,-41.39929,-54.574593,-5.5547676,-15.95513,0.7855738,-2.695285,1.4939963,1.2384512,54.744747
31200000,764000,39.8714138,32.7364368,-62.78607,-43.069252,-54.491512,-5.842799,-15.814997,0.9013393,-2.768201,1.4461303,1.0805409,54.661667
31296000,764000,39.8714138,32.7364368,-63.36266,-44.601734,-54.404964,-6.1026387,-15.686709,0.996985,-2.7355049,1.4130894,0.9628431,54.57512
31400000,764000,39.8714138,32.7364368,-64.013725,-46.242275,-54.30137,-6.3753767,-15.546747,1.0859158,-2.5070925,1.485926,0.87447274,54.471523
31496000,764000,39.8714138,32.7364368,-64.641304,-47.749363,-54.19794,-6.6195917,-15.421738,1.1562586,-2.4730594,1.497335,0.649088,54.368095
31600000,764000,39.8714138,32.7364368,-65.34573,-49.362736,-54.078022,-6.872349,-15.286565,1.2232378,-2.366116,1.3782307,0.54589653,54.248177
31696000,764000,39.8714138,32.7364368,-66.021324,-50.844048,-53.961685,-7.1002984,-15.165645,1.2748808,-2.331385,1.3585241,0.5141757,54.13184
31800000,764000,39.8714138,32.7364368,-66.77613,-52.43099,-53.830738,-7.33686,-15.033431,1.3229315,-2.2099142,1.377684,0.41000822,54.000893
31896000,764000,39.8714138,32.7364368,-67.49558,-53.887424,-53.705875,-7.543801,-14.915771,1.3557165,-2.0917845,1.3344454,0.3278367,53.87603
32000000,764000,39.8714138,32.7364368,-68.29521,-55.44785,-53.567356,-7.7542667,-14.789482,1.3880552,-1.930683,1.237099,0.23715663,53.73751
32096000,764000,39.8714138,32.7364368,-69.053566,-56.87956,-53.437542,-7.9401593,-14.681851,1.4056634,-1.884676,1.2443303,0.1165904,53.607697
32200000,764000,39.8714138,32.7364368,-69.89353,-58.415546,-53.295807,-8.129671,-14.567536,1.4182842,-1.7721847,1.153041,0.0633588,53.46596
32296000,764000,39.8714138,32.7364368,-70.68942,-59.827385,-53.165012,-8.294505,-14.467388,1.4242579,-1.5338855,1.1737266,0.077122815,53.335167
32400000,764000,39.8714138,32.7364368,-71.56766,-61.342762,-53.022152,-8.458514,-14.36319,1.4243466,-1.5362337,1.0518962,-0.016856937,53.192307
32496000,764000,39.8714138,32.7364368,-72.39356,-62.73379,-52.889587,-8.601623,-14.277575,1.4193507,-1.3448989,0.84415436,-0.03770366,53.059742
32600000,764000,39.8714138,32.7364368,-73.301834,-64.22907,-52.745808,-8.741495,-14.188262,1.4120736,-1.3182795,0.90302616,-0.0400925,52.915962
32696000,764000,39.8714138,32.7364368,-74.155426,-65.603966,-52.61488,-8.862526,-14.112639,1.3976178,-1.1876414,0.82084185,-0.21644494,52.785034
32800000,764000,39.8714138,32.7364368,-75.09207,-67.083275,-52.474613,-8.982896,-14.037102,1.3792199,-1.0394208,0.77579886,-0.21759047,52.644768
32896000,764000,39.8714138,32.7364368,-75.96668,-68.44219,-52.3465,-9.078415,-13.974611,1.3598375,-0.9078713,0.6838549,-0.110022716,52.516655
33000000,764000,39.8714138,32.7364368,-76.92272,-69.90614,-52.20946,-9.17006,-13.914812,1.3379834,-0.76149374,0.5855155,-0.15699024,52.379616
33096000,764000,39.8714138,32.7364368,-77.81362,-71.25272,-52.084843,-9.245459,-13.868076,1.3157119,-0.73688436,0.54227835,-0.2510957,52.254997
33200000,764000,39.8714138,32.7364368,-78.785446,-72.705086,-51.95131,-9.313872,-13.822265,1.2858206,-0.57529086,0.54040205,-0.2632355,52.121464
33296000,764000,39.8714138,32.7364368,-79.68955,-74.04242,-51.831665,-9.3699875,-13.787592,1.2564005,-0.4383578,0.40462902,-0.2691075,52.00182
33400000,764000,39.8714138,32.7364368,-80.67485,-75.48751,-51.705925,-9.418301,-13.756598,1.221169,-0.2851217,0.28231913,-0.30871573,51.87608
33496000,764000,39.8714138,32.7364368,-81.58952,-76.819244,-51.593334,-9.455561,-13.7324095,1.1873574,-0.3633936,0.2781872,-0.36477762,51.76349
33600000,764000,39.8714138,32.7364368,-82.584335,-78.259476,-51.474785,-9.487628,-13.714662,1.1497518,-0.23753165,0.21105202,-0.3813663,51.64494
33696000,764000,39.8714138,32.7364368,-83.50545,-79.587105,-51.368538,-9.5069475,-13.700668,1.1142354,-0.11559633,0.15921931,-0.29660946,51.538692
33800000,764000,39.8714138,32.7364368,-84.50621,-81.024895,-51.25757,-9.523196,-13.694432,1.0756575,0.020711944,0.0379501,-0.3482867,51.427723
33896000,764000,39.8714138,32.7364368,-85.43135,-82.35195,-51.158188,-9.530118,-13.692747,1.040298,-0.003466324,0.09043475,-0.32072234,51.328342
34000000,764000,39.8714138,32.7364368,-86.435,-83.79088,-51.052567,-9.53049,-13.6981945,1.005998,0.07943928,-0.13838194,-0.30550358,51.22272
34096000,764000,39.8714138,32.7364368,-87.35948,-85.11758,-50.958035,-9.5228405,-13.7062645,0.9754732,0.14452411,-0.06322622,-0.34221354,51.12819
34200000,764000,39.8714138,32.7364368,-88.35998,-86.555725,-50.85911,-9.510183,-13.716461,0.9435139,0.17790519,-0.02172557,-0.3368752,51.029266
34296000,764000,39.8714138,32.7364368,-89.28171,-87.88335,-50.770992,-9.491188,-13.728859,0.91233003,0.21868736,-0.1055262,-0.3502909,50.941147
34400000,764000,39.8714138,32.7364368,-90.28006,-89.324974,-50.67825,-9.468351,-13.745676,0.87890124,0.277326,-0.11287899,-0.33195314,50.848404
34496000,764000,39.8714138,32.7364368,-91.19724,-90.654724,-50.595646,-9.442532,-13.763476,0.8492998,0.36099303,-0.21508163,-0.34491622,50.7658
34600000,764000,39.8714138,32.7364368,-92.18898,-92.09766,-50.510197,-9.409833,-13.785883,0.8170264,0.40730667,-0.23126145,-0.26019755,50.68035
34696000,764000,39.8714138,32.7364368,-93.09975,-93.43017,-50.434353,-9.375035,-13.809236,0.78837514,0.319661,-0.23714541,-0.3047753,50.604507
34800000,764000,39.8714138,32.7364368,-94.08529,-94.87794,-50.35506,-9.336377,-13.836969,0.7579937,0.50896937,-0.2668215,-0.26249138,50.525215
34896000,764000,39.8714138,32.7364368,-94.98901,-96.21475,-50.28521,-9.297668,-13.862997,0.7279688,0.47154495,-0.24154195,-0.24587566,50.455364
35000000,764000,39.8714138,32.7364368,-95.966705,-97.66836,-50.21234,-9.2557745,-13.8962345,0.69982094,0.4489681,-0.3021734,-0.30595714,50.382496
35096000,764000,39.8714138,32.7364368,-96.862785,-99.010666,-50.14779,-9.212971,-13.922067,0.6747783,0.40173516,-0.2240143,-0.25892723,50.317944
35200000,764000,39.8714138,32.7364368,-97.83172,-100.469826,-50.080948,-9.167766,-13.954175,0.64628255,0.5915934,-0.1953685,-0.31452438,50.251102
35296000,764000,39.8714138,32.7364368,-98.718575,-101.816956,-50.02251,-9.123482,-13.9809065,0.61960727,0.4930021,-0.20358464,-0.25158188,50.192665
35400000,764000,39.8714138,32.7364368,-99.67751,-103.28192,-49.96119,-9.0762005,-14.012059,0.592289,0.46106282,-0.18074997,-0.20974408,50.131344
35496000,764000,39.8714138,32.7364368,-100.555275,-104.63468,-49.905247,-9.03164,-14.042163,0.5738714,0.5075065,-0.17807002,-0.13582407,50.0754
35600000,764000,39.8714138,32.7364368,-101.50476,-106.10508,-49.8472,-8.984787,-14.07419,0.5517777,0.5665142,-0.36490119,-0.25883967,50.017353
35696000,764000,39.8714138,32.7364368,-102.373146,-107.462616,-49.796925,-8.940824,-14.10229,0.53217715,0.5253627,-0.2436276,-0.25691184,49.96708
35800000,764000,39.8714138,32.7364368,-103.312485,-108.93635,-49.744133,-8.895294,-14.13106,0.5103837,0.46201128,-0.27317214,-0.22618285,49.914288
35896000,764000,39.8714138,32.7364368,-104.171875,-110.29729,-49.696445,-8.852496,-14.156795,0.4911857,0.52513087,-0.32615235,-0.25807226,49.8666
36000000,764000,39.8714138,32.7364368,-105.10284,-111.77949,-49.64841,-8.807118,-14.184672,0.4673975,0.4884072,-0.20356439,-0.22138561,49.818565
36096000,764000,39.8714138,32.7364368,-105.95429,-113.14731,-49.605953,-8.76415,-14.207337,0.44682083,0.4400993,-0.16351108,-0.12290384,49.776108
36200000,764000,39.8714138,32.7364368,-106.87409,-114.6306,-49.562836,-8.717017,-14.229606,0.42326817,0.43977866,-0.21147723,-0.16783643,49.73299
36296000,764000,39.8714138,32.7364368,-107.71598,-116.000404,-49.525295,-8.677554,-14.2528105,0.40797958,0.38975126,-0.27704427,-0.1800796,49.69545
36400000,764000,39.8714138,32.7364368,-108.62764,-117.48979,-49.48688,-8.634942,-14.274174,0.3866683,0.43751436,-0.11579733,-0.13944227,49.657036
36496000,764000,39.8714138,32.7364368,-109.462234,-118.86471,-49.454422,-8.59744,-14.291906,0.3685548,0.38932198,-0.27381575,-0.13250856,49.624577
36600000,764000,39.8714138,32.7364368,-110.3648,-120.35855,-49.42031,-8.558865,-14.311611,0.34988433,0.41346517,-0.13374045,-0.21237506,49.590466
36696000,764000,39.8714138,32.7364368,-111.191956,-121.73762,-49.390644,-8.523784,-14.325747,0.33418947,0.40050247,-0.07813311,-0.14248116,49.5608
36800000,764000,39.8714138,32.7364368,-112.08765,-123.23478,-49.36109,-8.491494,-14.340243,0.31542054,0.33424488,-0.12794267,-0.16309041,49.531246
36896000,764000,39.8714138,32.7364368,-112.90896,-124.61651,-49.334763,-8.460862,-14.35133,0.29951087,0.34026346,-0.082638875,-0.15000066,49.504917
37000000,764000,39.8714138,32.7364368,-113.797935,-126.11443,-49.30949,-8.433837,-14.361189,0.28181034,0.30639797,-0.09972422,-0.09064096,49.479645
37096000,764000,39.8714138,32.7364368,-114.614174,-127.496765,-49.287163,-8.411103,-14.366731,0.2680363,0.2645753,-0.05782176,-0.14174356,49.457317
37200000,764000,39.8714138,32.7364368,-115.498276,-128.99512,-49.26246,-8.386628,-14.371069,0.25558096,0.24027194,-0.047550663,-0.12494064,49.432613
37296000,764000,39.8714138,32.7364368,-116.31045,-130.37753,-49.240013,-8.366841,-14.374645,0.24656747,0.2751284,-0.08268907,-0.17828865,49.410168
37400000,764000,39.8714138,32.7364368,-117.18898,-131.87509,-49.216354,-8.347302,-14.379015,0.23447768,0.17455012,0.018004691,-0.076868564,49.38651
37496000,764000,39.8714138,32.7364368,-117.99664,-133.25667,-49.196514,-8.330905,-14.377729,0.22325817,0.25324452,-0.009573123,-0.08122715,49.36667
37600000,764000,39.8714138,32.7364368,-118.8729,-134.75519,-49.175896,-8.315164,-14.375483,0.21423301,0.21714488,-0.000498039,-0.041369345,49.34605
37696000,764000,39.8714138,32.7364368,-119.67945,-136.13791,-49.159443,-8.306391,-14.373441,0.20646244,0.07295565,0.04282643,-0.053742897,49.329597
37800000,764000,39.8714138,32.7364368,-120.552025,-137.63455,-49.14364,-8.295572,-14.371759,0.19952342,0.100316465,0.018361751,0.003580935,49.313793
37896000,764000,39.8714138,32.7364368,-121.35506,-139.0149,-49.12916,-8.28534,-14.367771,0.1963611,0.14098036,0.033331335,0.007207505,49.299316
38000000,764000,39.8714138,32.7364368,-122.22621,-140.51166,-49.115192,-8.278077,-14.361975,0.18710364,0.063957945,0.039346922,-0.038808208,49.285347
38096000,764000,39.8714138,32.7364368,-123.02925,-141.89299,-49.102703,-8.273482,-14.357624,0.17874533,0.06845671,0.025278246,-0.035692934,49.272858
38200000,764000,39.8714138,32.7364368,-123.899605,-143.38872,-49.091644,-8.270381,-14.348601,0.16885014,0.10112718,0.10273267,-0.11363997,49.2618
38296000,764000,39.8714138,32.7364368,-124.70232,-144.76831,-49.081738,-8.26484,-14.3406,0.16016893,0.084463835,0.1323461,-0.048004087,49.251892
38400000,764000,39.8714138,32.7364368,-125.571526,-146.26231,-49.073215,-8.263327,-14.331384,0.15201649,0.037319258,0.1030903,-0.053859312,49.24337
38496000,764000,39.8714138,32.7364368,-126.37301,-147.64044,-49.064938,-8.263046,-14.3206625,0.14711781,0.004227506,0.17616549,-0.015876254,49.235092
38600000,764000,39.8714138,32.7364368,-127.242134,-149.13167,-49.05715,-8.264385,-14.308658,0.14033686,0.043223538,0.10003326,-0.04168972,49.227306
38696000,764000,39.8714138,32.7364368,-128.04495,-150.50653,-49.052258,-8.266727,-14.29608,0.13313279,-0.051391773,0.09109563,-0.031082889,49.222412
38800000,764000,39.8714138,32.7364368,-128.91463,-151.99426,-49.047485,-8.26708,-14.280435,0.12530613,0.056172777,0.22094491,-0.028856097,49.21764
38896000,764000,39.8714138,32.7364368,-129.71738,-153.36612,-49.04416,-8.271918,-14.266807,0.11961384,-0.004618516,0.28169602,-0.043610107,49.214314
39000000,764000,39.8714138,32.7364368,-130.58682,-154.85063,-49.040894,-8.274838,-14.249439,0.111065485,0.016218036,0.16049263,-0.10748579,49.21105
39096000,764000,39.8714138,32.7364368,-131.39021,-156.21936,-49.036896,-8.278351,-14.233089,0.104047716,0.023603147,0.21873716,-0.070828006,49.20705
39200000,764000,39.8714138,32.7364368,-132.26076,-157.70068,-49.033577,-8.279964,-14.213966,0.09740856,0.041196324,0.15194352,0.002913177,49.20373
39296000,764000,39.8714138,32.7364368,-133.06572,-159.0671,-49.031487,-8.284802,-14.198885,0.093263745,-0.050871383,0.1302871,-0.025240703,49.20164
39400000,764000,39.8714138,32.7364368,-133.93686,-160.54471,-49.02986,-8.290964,-14.181059,0.09091407,-0.01357177,0.16048858,0.08460413,49.200016
39496000,764000,39.8714138,32.7364368,-134.74219,-161.90648,-49.029392,-8.29573,-14.167143,0.087066665,-0.0772899,0.13780104,-0.08042715,49.199547
39600000,764000,39.8714138,32.7364368,-135.61441,-163.38089,-49.028675,-8.302228,-14.150908,0.085482135,-0.021104248,0.11010852,-0.013606622,49.19883
39696000,764000,39.8714138,32.7364368,-136.42168,-164.74205,-49.028347,-8.307984,-14.137098,0.084390335,-0.051881272,0.19793922,0.026052816,49.1985
39800000,764000,39.8714138,32.7364368,-137.29495,-166.2139,-49.027534,-8.315571,-14.118278,0.081576966,-0.06044574,0.17344803,-0.01861993,49.19769
39896000,764000,39.8714138,32.7364368,-138.10344,-167.57051,-49.026176,-8.323696,-14.103418,0.08171903,-0.20369789,-0.27276802,-0.065960914,49.19633
40000000,764000,39.8714138,32.7364368,-138.98262,-169.04631,-49.025925,-8.432369,-14.279988,0.06661865,-1.5194114,-2.6518447,-0.31432787,49.19608
40096000,764000,39.8714138,32.7364368,-139.8099,-170.43364,-49.030876,-8.598311,-14.598868,-0.007815679,-1.7931559,-3.8756065,-1.2663686,49.20103
40200000,764000,39.8714138,32.7364368,-140.72176,-171.97581,-49.051254,-8.758553,-15.0412855,-0.23000629,-1.1261326,-4.480517,-2.9035778,49.22141
40296000,764000,39.8714138,32.7364368,-141.5766,-173.44203,-49.098858,-8.817639,-15.483369,-0.590197,0.024991108,-4.7166033,-4.4651093,49.269012
40400000,764000,39.8714138,32.7364368,-142.49875,-175.0782,-49.19612,-8.71746,-15.968179,-1.112115,1.9174613,-4.630551,-5.4824834,49.366276
40496000,764000,39.8714138,32.7364368,-143.33359,-176.63235,-49.33836,-8.4520235,-16.40361,-1.6617999,3.6083608,-4.388792,-5.809722,49.508514
40600000,764000,39.8714138,32.7364368,-144.19763,-178.36122,-49.55012,-7.991004,-16.848627,-2.2539728,5.249052,-4.1436787,-5.4572754,49.720276
40696000,764000,39.8714138,32.7364368,-144.94807,-179.99359,-49.798096,-7.4354587,-17.226753,-2.7492576,6.353152,-3.8246496,-4.8021383,49.96825
40800000,764000,39.8714138,32.7364368,-145.69232,-181.80191,-50.1171,-6.7142434,-17.597754,-3.2230017,7.5641575,-3.4061084,-4.2853036,50.287254
40896000,764000,39.8714138,32.7364368,-146.30943,-183.50655,-50.454174,-5.945009,-17.90822,-3.6162834,8.487649,-3.0247033,-3.8080344,50.62433
41000000,764000,39.8714138,32.7364368,-146.88733,-185.38431,-50.860638,-5.026551,-18.198956,-3.9914582,9.237878,-2.5459466,-3.3338068,51.030792
41096000,764000,39.8714138,32.7364368,-147.33565,-187.13869,-51.26954,-4.1267157,-18.422846,-4.290508,9.593383,-2.1074696,-2.8165839,51.439693
41200000,764000,39.8714138,32.7364368,-147.71887,-189.0617,-51.741493,-3.1150444,-18.612764,-4.5715227,9.901443,-1.4473301,-2.3517692,51.911648
41296000,764000,39.8714138,32.7364368,-147.97894,-190.85226,-52.202587,-2.1692233,-18.737787,-4.7917824,9.854818,-1.0328888,-2.041528,52.37274
41400000,764000,39.8714138,32.7364368,-148.15605,-192.80351,-52.7222,-1.1481185,-18.824745,-4.986751,9.80412,-0.5845092,-1.6966145,52.892353
41496000,764000,39.8714138,32.7364368,-148.22742,-194.60587,-53.2183,-0.22864412,-18.855297,-5.1332965,9.450681,-0.19325851,-1.3936394,53.388454
41600000,764000,39.8714138,32.7364368,-148.20462,-196.56029,-53.76997,0.7379425,-18.845663,-5.2556934,9.156229,0.22458796,-0.92602795,53.940125
41696000,764000,39.8714138,32.7364368,-148.09705,-198.3583,-54.29073,1.595117,-18.800577,-5.3343873,8.749353,0.50036603,-0.5919924,54.460884
41800000,764000,39.8714138,32.7364368,-147.88837,-200.30148,-54.86119,2.4693732,-18.725376,-5.384029,8.150005,0.7645436,-0.24125259,55.031345
41896000,764000,39.8714138,32.7364368,-147.61746,-202.0831,-55.391148,3.237866,-18.628372,-5.401511,7.8098216,1.0547225,0.02328772,55.561302
42000000,764000,39.8714138,32.7364368,-147.24153,-204.0027,-55.966312,4.030888,-18.494743,-5.4043026,7.4875817,1.276971,0.10342802,56.136467
42096000,764000,39.8714138,32.7364368,-146.8238,-205.7553,-56.498177,4.7292495,-18.336857,-5.40027,7.1073303,1.6040331,0.14488025,56.66833
42200000,764000,39.8714138,32.7364368,-146.29652,-207.63783,-57.073082,5.4485645,-18.145153,-5.3905263,6.792041,1.8172905,0.117571086,57.243237
42296000,764000,39.8714138,32.7364368,-145.74638,-209.35187,-57.603897,6.078464,-17.942219,-5.378249,6.4366913,2.0397267,0.14680344,57.77405
42400000,764000,39.8714138,32.7364368,-145.08302,-211.1878,-58.17665,6.727651,-17.704899,-5.3622775,5.9910994,2.31605,0.30021274,58.346806
42496000,764000,39.8714138,32.7364368,-144.41168,-212.85977,-58.70393,7.29302,-17.468258,-5.349089,5.754446,2.3819668,0.2213083,58.874084
42600000,764000,39.8714138,32.7364368,-143.62372,-214.64717,-59.27315,7.8783193,-17.192581,-5.34139,5.423668,2.6116176,0.10982341,59.443306
42696000,764000,39.8714138,32.7364368,-142.84552,-216.269,-59.797504,8.388592,-16.92335,-5.33979,5.1898346,2.6752377,0.045810822,59.96766
42800000,764000,39.8714138,32.7364368,-141.9485,-217.99754,-60.364567,8.913421,-16.616196,-5.3409266,4.953969,2.845095,-0.016292555,60.53472
42896000,764000,39.8714138,32.7364368,-141.07256,-219.56508,-60.886597,9.371636,-16.321243,-5.349891,4.6985846,3.0763159,-0.18871854,61.05675
43000000,764000,39.8714138,32.7364368,-140.0747,-221.23259,-61.454376,9.843345,-15.984908,-5.380997,4.4224486,3.162072,-0.28914306,61.62453
43096000,764000,39.8714138,32.7364368,-139.11188,-222.739,-61.983887,10.251703,-15.656376,-5.427772,4.073509,3.3147674,-0.48828775,62.15404
43200000,764000,39.8714138,32.7364368,-138.03351,-224.36542,-62.584343,10.309187,-16.745655,-6.526507,4.5806484,6.461856,-1.3819113,62.754498
43296000,764000,39.8714138,32.7364368,-137.0285,-225.93295,-63.227135,10.661862,-16.166687,-6.5918317,2.9899185,5.4922123,-0.34764314,63.39729
43400000,764000,39.8714138,32.7364368,-135.90869,-227.57333,-63.92773,10.912101,-15.605964,-6.6255507,1.8963299,5.0311503,-0.1885984,64.097885
43496000,764000,39.8714138,32.7364368,-134.85614,-229.03923,-64.57664,11.0541115,-15.150362,-6.626217,1.2517366,4.2991185,0.33368635,64.746796
43600000,764000,39.8714138,32.7364368,-133.70209,-230.58232,-65.2768,11.178244,-14.732517,-6.5632567,1.241265,3.6082735,0.9833415,65.44696
43704000,764000,39.8714138,32.7364368,-132.53395,-232.08566,-65.96678,11.3256445,-14.3654785,-6.457478,1.6598889,3.4687278,1.0706726,66.13694
43800000,764000,39.8714138,32.7364368,-131.43985,-233.44066,-66.59214,11.499341,-14.026826,-6.3733125,2.0077207,3.5169783,0.7543927,66.7623
43896000,764000,39.8714138,32.7364368,-130.32831,-234.76251,-67.21116,11.697156,-13.674514,-6.335712,2.0830324,3.699573,0.26319733,67.38132
44000000,764000,39.8714138,32.7364368,-129.10408,-236.16206,-67.88396,11.720142,-14.906237,-7.2355566,-21.905766,-197.30795,-112.74707,68.054115
44096000,764000,39.8714138,32.7364368,-127.97185,-237.55865,-68.59126,11.870755,-14.345491,-7.2852993,1.0542097,5.1035233,0.22354534,68.76142
44200000,764000,39.8714138,32.7364368,-126.73308,-239.02008,-69.35566,11.922625,-13.878596,-7.2340956,0.07227158,3.8309624,0.80078554,69.52582
44296000,764000,39.8714138,32.7364368,-125.58953,-240.332,-70.05342,11.898771,-13.550778,-7.1310363,-0.4055232,2.9813123,1.4308523,70.22358
44400000,764000,39.8714138,32.7364368,-124.355156,-241.7223,-70.7952,11.866079,-13.276573,-6.962026,-0.22383508,2.3716826,1.9534322,70.965355
44496000,764000,39.8714138,32.7364368,-123.21615,-242.98369,-71.46295,11.8781185,-13.062391,-6.7813826,0.43864688,2.1870117,1.9123507,71.63311
44600000,764000,39.8714138,32.7364368,-121.97692,-244.32721,-72.166245,11.950053,-12.817645,-6.600984,0.9242476,2.566843,1.4680576,72.3364
44696000,764000,39.8714138,32.7364368,-120.824524,-245.54402,-72.80142,12.054824,-12.557453,-6.4927115,1.1752512,2.868064,0.83554065,72.97158
44800000,764000,39.8714138,32.7364368,-119.5636,-246.83386,-73.48064,12.186639,-12.266048,-6.424694,1.2458475,2.7701364,0.5778065,73.650795
44896000,764000,39.8714138,32.7364368,-118.3872,-248.00056,-74.10265,12.266527,-12.869065,-6.7611628,-9.160481,-208.84985,-96.49864,74.27281
45000000,764000,39.8714138,32.7364368,-117.109726,-249.39983,-74.85339,12.299004,-13.278185,-7.131196,0.4466419,3.4333313,0.89328545,75.02355
45096000,764000,39.8714138,32.7364368,-115.926735,-250.66039,-75.53957,12.307153,-13.00551,-7.0123773,-0.20850524,2.4958603,1.4756572,75.70973
45200000,764000,39.8714138,32.7364368,-114.64638,-252.00127,-76.26751,12.261085,-12.796434,-6.8448114,-0.60617924,1.6730382,1.8145702,76.43767
45296000,764000,39.8714138,32.7364368,-113.46961,-253.2227,-76.92136,12.218171,-12.648872,-6.6603,-0.31260604,1.4938948,2.0537374,77.091515
45400000,764000,39.8714138,32.7364368,-112.197624,-254.5304,-77.61021,12.20991,-12.493098,-6.449714,0.23216048,1.5959377,1.937975,77.780365
45496000,764000,39.8714138,32.7364368,-111.02216,-255.72214,-78.22849,12.252875,-12.319273,-6.283422,0.6410373,2.0699887,1.5289718,78.39865
45600000,764000,39.8714138,32.7364368,-109.741234,-256.99063,-78.88434,12.337677,-12.081111,-6.1595283,0.9525857,2.4637573,0.90982574,79.0545
45696000,764000,39.8714138,32.7364368,-108.550735,-258.1392,-79.479546,12.425603,-11.846169,-6.0836377,1.0291744,2.3971295,0.74956,79.649704
45800000,764000,39.8714138,32.7364368,-107.25048,-259.4647,-80.16456,12.47555,-13.182626,-6.7806683,0.4209834,3.978417,0.3504427,80.33472
45896000,764000,39.8714138,32.7364368,-106.04881,-260.71478,-80.81904,12.48067,-12.856211,-6.698935,-0.2630258,2.810706,1.207848,80.9892
46000000,764000,39.8714138,32.7364368,-104.74841,-262.0016,-81.510826,12.421514,-12.587868,-6.5455494,-0.7533344,1.9580066,1.7034439,81.680984
46096000,764000,39.8714138,32.7364368,-103.55648,-263.1768,-82.13383,12.344806,-12.412901,-6.361353,-0.75663275,1.41226,2.1212327,82.303986
46200000,764000,39.8714138,32.7364368,-102.26916,-264.44662,-82.78856,12.288038,-12.259818,-6.13003,-0.30851707,1.3619949,2.3150103,82.95872
46296000,764000,39.8714138,32.7364368,-101.085556,-265.60745,-83.372574,12.286765,-12.104549,-5.9221387,0.21083285,1.7085947,1.9774846,83.54273
46400000,764000,39.8714138,32.7364368,-99.80002,-266.8541,-83.98613,12.335807,-11.896617,-5.743354,0.67427856,2.1890655,1.4650337,84.15629
46496000,764000,39.8714138,32.7364368,-98.60878,-267.99847,-84.54388,12.407717,-13.385304,-6.3166847,0.48420575,5.1504326,-0.90479004,84.714035
46600000,764000,39.8714138,32.7364368,-97.31165,-269.36966,-85.20949,12.430625,-12.91418,-6.3053923,-0.1780135,4.0868444,0.69794244,85.37965
46696000,764000,39.8714138,32.7364368,-96.117065,-270.59628,-85.818504,12.378779,-12.572451,-6.2140875,-0.884567,3.1558044,1.1055431,85.98866
46800000,764000,39.8714138,32.7364368,-94.83048,-271.8976,-86.46685,12.263812,-12.303243,-6.054836,-1.1788331,2.1661344,1.8186065,86.63701
46896000,764000,39.8714138,32.7364368,-93.65519,-273.07736,-87.047966,12.155569,-12.129699,-5.8495603,-0.9522295,1.523334,2.38827,87.218124
47000000,764000,39.8714138,32.7364368,-92.39086,-274.3422,-87.65421,12.085653,-11.975571,-5.59512,-0.23470029,1.4749897,2.4974577,87.82437
47096000,764000,39.8714138,32.7364368,-91.22812,-275.494,-88.19005,12.085694,-11.824661,-5.3704987,0.25013804,1.7320532,2.1372533,88.36021
47200000,764000,39.8714138,32.7364368,-89.96569,-276.7251,-88.74956,12.143489,-11.626048,-5.1835613,0.77945244,2.205717,1.4307293,88.919716
47296000,764000,39.8714138,32.7364368,-88.79402,-277.84006,-89.251564,12.230277,-11.412334,-5.073604,0.92008317,2.3345637,0.9153271,89.42172
47400000,764000,39.8714138,32.7364368,-87.51235,-279.02734,-89.78501,12.335196,-11.184867,-4.9968934,0.9848803,2.0813372,0.794976,89.95517
47496000,764000,39.8714138,32.7364368,-86.31974,-280.10226,-90.27012,12.43867,-11.010724,-4.9216833,1.0977896,1.5717311,0.85930896,90.44028
47600000,764000,39.8714138,32.7364368,-85.01734,-281.24985,-90.78654,12.550418,-10.873902,-4.8138146,1.0731552,1.0877895,1.1540735,90.956696
47696000,764000,39.8714138,32.7364368,-83.805565,-282.2967,-91.252625,12.65668,-10.776365,-4.694907,1.17754,0.9602409,1.2265015,91.42278
47800000,764000,39.8714138,32.7364368,-82.47827,-283.4226,-91.74424,12.777396,-10.685607,-4.566163,1.262711,0.9311896,1.2031792,91.9144
47896000,764000,39.8714138,32.7364368,-81.24166,-284.45224,-92.18684,12.895692,-10.592648,-4.467373,1.2228929,1.1034089,0.956946,92.356995
48000000,764000,39.8714138,32.7364368,-79.888374,-285.5567,-92.65652,13.029065,-10.467187,-4.390661,1.3159117,1.3720132,0.56866926,92.826675
48096000,764000,39.8714138,32.7364368,-78.627304,-286.56287,-93.08499,13.153809,-10.335141,-4.3493114,1.231837,1.4280255,0.30172336,93.25515
48200000,764000,39.8714138,32.7364368,-77.24724,-287.63824,-93.54619,13.284389,-10.183095,-4.3244176,1.2182113,1.4378729,0.22458842,93.71635
48296000,764000,39.8714138,32.7364368,-75.96232,-288.6163,-93.96931,13.392434,-10.048617,-4.3052344,1.0295218,1.496331,0.26758108,94.139465
48400000,764000,39.8714138,32.7364368,-74.55891,-289.66226,-94.427086,13.499238,-9.916314,-4.280353,0.99004287,1.1919029,0.31274462,94.597244
48496000,764000,39.8714138,32.7364368,-73.25425,-290.6161,-94.84652,13.588916,-9.809768,-4.2497888,0.9387169,1.0964221,0.40744334,95.01668
48600000,764000,39.8714138,32.7364368,-71.83138,-291.63818,-95.29814,13.678984,-9.701997,-4.2127805,0.7721146,1.010222,0.36447307,95.4683
48696000,764000,39.8714138,32.7364368,-70.51061,-292.5717,-95.71271,13.752676,-9.610415,-4.1844554,0.70222384,0.92961144,0.23321061,95.882866
48800000,764000,39.8714138,32.7364368,-69.07298,-293.57178,-96.158615,13.825254,-9.512425,-4.163037,0.6370237,0.9016493,0.15897955,96.32877
48896000,764000,39.8714138,32.7364368,-67.74033,-294.4854,-96.56961,13.8837,-9.425243,-4.1558175,0.5455251,0.9167009,-0.006129033,96.73977
49000000,764000,39.8714138,32.7364368,-66.28969,-295.46692,-97.01318,13.9365015,-9.342246,-4.1566267,0.5828561,0.7648168,0.028444452,97.18334
49096000,764000,39.8714138,32.7364368,-64.94512,-296.3663,-97.42238,13.978952,-9.274668,-4.15572,0.35975686,0.7085702,0.039706934,97.59254
49200000,764000,39.8714138,32.7364368,-63.485382,-297.33328,-97.866875,14.016838,-9.220759,-4.1513853,0.30083534,0.46316847,0.009474344,98.03703
49296000,764000,39.8714138,32.7364368,-62.135082,-298.22116,-98.276955,14.044318,-9.18268,-4.143765,0.22500636,0.4262817,0.15552713,98.44711
49400000,764000,39.8714138,32.7364368,-60.66931,-299.1796,-98.7195,14.069528,-9.154733,-4.1289606,0.22776027,0.25713325,0.14898552,98.889656
49496000,764000,39.8714138,32.7364368,-59.28742,-300.20032,-99.15869,14.367699,-10.788624,-4.560957,-1.1087123,1.7409339,-0.6323447,99.32885
49600000,764000,39.8714138,32.7364368,-57.79673,-301.31888,-99.64716,14.211096,-10.636421,-4.5917788,-1.8486149,1.1960208,-0.03166124,99.81732
49696000,764000,39.8714138,32.7364368,-56.43787,-302.34042,-100.09917,14.01214,-10.552998,-4.5853653,-2.2188444,0.7131326,0.2973331,100.269325
49800000,764000,39.8714138,32.7364368,-54.989014,-303.4396,-100.587715,13.779561,-10.507303,-4.5431995,-2.2398438,0.32973206,0.5392739,100.75787
49896000,764000,39.8714138,32.7364368,-53.671803,-304.45068,-101.03396,13.587429,-10.484353,-4.4844604,-1.8039829,0.33527133,0.6818939,101.20412
50000000,764000,39.8714138,32.7364368,-52.266487,-305.54105,-101.510185,13.36673,-10.403242,-4.3955607,-2.3338003,1.1106454,1.1296784,101.68034
50096000,764000,39.8714138,32.7364368,-50.990852,-306.53705,-101.93986,13.134668,-10.264521,-4.2549815,-2.4092562,1.6241697,1.8672057,102.110016
50200000,764000,39.8714138,32.7364368,-49.634518,-307.59927,-102.38586,12.893007,-10.094331,-4.0276303,-2.2266917,1.634817,2.5983415,102.556015
50296000,764000,39.8714138,32.7364368,-48.40369,-308.56476,-102.77313,12.689637,-9.948566,-3.7450097,-2.0052412,1.4032352,3.2564828,102.94329
50400000,764000,39.8714138,32.7364368,-47.091854,-309.59595,-103.15883,12.494393,-9.8257675,-3.3639932,-1.7527504,1.0511465,4.063334,103.32899
50496000,764000,39.8714138,32.7364368,-45.89653,-310.53802,-103.47775,12.3380165,-9.741877,-2.955983,-1.4579837,0.7339394,4.5744653,103.64791
50600000,764000,39.8714138,32.7364368,-44.617817,-311.55112,-103.776024,12.192581,-9.681481,-2.4632382,-1.3117838,0.53010356,4.9173026,103.94618
50696000,764000,39.8714138,32.7364368,-43.447968,-312.48364,-104.00612,12.067907,-9.64065,-1.9952544,-1.342073,0.40852252,4.839457,104.17628
50800000,764000,39.8714138,32.7364368,-42.195644,-313.48834,-104.20452,11.941018,-9.598666,-1.5118136,-1.145971,0.4768589,4.5131855,104.37468
50896000,764000,39.8714138,32.7364368,-41.05004,-314.41162,-104.34495,11.83207,-9.560698,-1.1017507,-1.1294032,0.40733787,4.1348925,104.51511
51000000,764000,39.8714138,32.7364368,-39.821823,-315.407,-104.45447,11.722208,-9.519433,-0.6958984,-1.0369512,0.34450784,3.7222843,104.624626
51096000,764000,39.8714138,32.7364368,-38.69553,-316.3243,-104.52129,11.631375,-9.483129,-0.35644752,-0.9457187,0.29574567,3.3509035,104.69145
51200000,764000,39.8714138,32.7364368,-37.486614,-317.31317,-104.55774,11.544663,-9.453197,-0.016017493,-0.75535434,0.21540192,3.192916,104.7279
51296000,764000,39.8714138,32.7364368,-36.37662,-318.22382,-104.56121,11.470629,-9.437446,0.27270806,-0.74649286,0.13755442,2.9850712,104.73137
51400000,764000,39.8714138,32.7364368,-35.18355,-319.2082,-104.534065,11.396177,-9.433041,0.5632431,-0.7417177,-0.029665591,2.7082882,104.70422
51496000,764000,39.8714138,32.7364368,-34.087105,-320.11777,-104.48308,11.335969,-9.438728,0.81044614,-0.56872684,-0.11969528,2.424828,104.65324
51600000,764000,39.8714138,32.7364368,-32.907314,-321.10318,-104.401985,11.27774,-9.452876,1.0528729,-0.5121132,-0.16554953,2.2856853,104.57214
51696000,764000,39.8714138,32.7364368,-31.82208,-322.01578,-104.30603,11.231761,-9.475359,1.2546492,-0.47503573,-0.2521516,2.0476396,104.47619
51800000,764000,39.8714138,32.7364368,-30.652636,-323.00613,-104.18079,11.187535,-9.502577,1.4427288,-0.37156177,-0.23010652,1.6938503,104.35095
51896000,764000,39.8714138,32.7364368,-29.576544,-323.9245,-104.05033,11.15485,-9.5334635,1.5885891,-0.409759,-0.39817593,1.5005515,104.22049
52000000,764000,39.8714138,32.7364368,-28.415127,-324.92188,-103.89359,11.128877,-9.571939,1.7224879,-0.17764507,-0.36953795,1.1731805,104.06375
52096000,764000,39.8714138,32.7364368,-27.34554,-325.8462,-103.73799,11.11044,-9.609412,1.8214283,-0.24869594,-0.48555127,0.9642988,103.90815
52200000,764000,39.8714138,32.7364368,-26.189495,-326.85114,-103.55984,11.095139,-9.655296,1.9071333,-0.052870482,-0.41424865,0.84968466,103.729996
52296000,764000,39.8714138,32.7364368,-25.120342,-327.78546,-103.38798,11.087778,-9.699364,1.9704049,0.033206247,-0.46760574,0.6464813,103.558136
52400000,764000,39.8714138,32.7364368,-23.963575,-328.80176,-103.19541,11.0832,-9.751374,2.0244157,-0.099804424,-0.48575443,0.5540782,103.36557
52496000,764000,39.8714138,32.7364368,-22.896376,-329.74503,-103.01379,11.08257,-9.802479,2.061687,0.044467915,-0.52121305,0.31259748,103.183945
52600000,764000,39.8714138,32.7364368,-21.741154,-330.77167,-102.81327,11.0816965,-9.857083,2.0876548,0.05334851,-0.47155166,0.26501712,102.98343
52696000,764000,39.8714138,32.7364368,-20.672138,-331.72635,-102.62753,11.088087,-9.906367,2.0952659,0.01754405,-0.47102556,0.14892778,102.79769
52800000,764000,39.8714138,32.7364368,-19.51382,-332.765,-102.426346,11.100321,-9.955767,2.0917451,0.17330393,-0.3942718,-0.08846539,102.596504
52896000,764000,39.8714138,32.7364368,-18.442581,-333.72827,-102.242615,11.12519,-9.987442,2.0796225,0.36890838,-0.22555074,-0.16481708,102.41277
53000000,764000,39.8714138,32.7364368,-17.279112,-334.77295,-102.04536,11.177501,-9.990498,2.0559654,0.7433253,0.03924605,-0.19590555,102.215515
53096000,764000,39.8714138,32.7364368,-16.197449,-335.7362,-101.86598,11.265984,-9.954095,2.0319085,1.1623579,0.6105001,-0.12795347,102.03614
53200000,764000,39.8714138,32.7364368,-15.014176,-336.77243,-101.673386,11.408849,-9.862943,2.0124342,1.543585,1.1190472,-0.047763806,101.843544
53296000,764000,39.8714138,32.7364368,-13.906112,-337.71863,-101.49649,11.587323,-9.733311,2.0033154,2.1061,1.6401238,0.011747702,101.66665
53400000,764000,39.8714138,32.7364368,-12.68441,-338.72668,-101.30475,11.827248,-9.542471,1.9978822,2.4662745,2.0764503,-0.001708977,101.47491
53496000,764000,39.8714138,32.7364368,-11.532477,-339.638,-101.12793,12.083446,-9.31768,1.9884923,2.787658,2.6502929,-0.12965593,101.29809
53600000,764000,39.8714138,32.7364368,-10.255398,-340.59772,-100.938385,12.396745,-9.01481,1.9642369,3.1535122,3.312386,-0.23792031,101.10854
53696000,764000,39.8714138,32.7364368,-9.047432,-341.4527,-100.76674,12.709851,-8.679139,1.9310373,3.4194913,3.7963054,-0.27639884,100.9369
53800000,764000,39.8714138,32.7364368,-7.661104,-342.4758,-100.63471,13.602546,-9.791139,1.2126687,3.7238111,6.4301944,-1.9871908,100.80487
53896000,764000,39.8714138,32.7364368,-6.3349295,-343.39243,-100.541985,13.926523,-9.184382,1.0475988,3.1116738,6.306174,-1.460215,100.71214
54000000,764000,39.8714138,32.7364368,-4.865298,-344.32132,-100.45794,14.21729,-8.548302,0.92308015,2.519026,6.0963435,-0.95017624,100.6281
54096000,764000,39.8714138,32.7364368,-3.4852383,-345.1204,-100.390335,14.443657,-7.9737115,0.85377485,2.2138758,6.0587363,-0.37971136,100.56049
54200000,764000,39.8714138,32.7364368,-1.9673485,-345.9236,-100.32045,14.675807,-7.340095,0.83510774,2.2326846,6.299435,0.075151205,100.49061
54296000,764000,39.8714138,32.7364368,-0.5437095,-346.60416,-100.25711,14.895865,-6.7116995,0.84381396,2.3359625,6.930677,0.25998986,100.42727
54400000,764000,39.8714138,32.7364368,1.0612944,-347.3299,-100.22496,16.005585,-7.272026,-0.03484675,2.6175053,10.410974,-1.5044844,100.39512
54496000,764000,39.8714138,32.7364368,2.6125488,-347.98505,-100.251625,16.206667,-6.2901697,-0.1550242,1.6305474,10.029058,-1.0396065,100.42178
54600000,764000,39.8714138,32.7364368,4.310491,-348.59103,-100.2925,16.339874,-5.2756867,-0.26986098,0.9098888,9.447398,-0.9994879,100.46266
54696000,764000,39.8714138,32.7364368,5.8865514,-349.05997,-100.339745,16.403225,-4.411956,-0.34736532,0.37817165,8.678339,-0.53272206,100.5099
54800000,764000,39.8714138,32.7364368,7.5981374,-349.47928,-100.395424,16.419178,-3.5577974,-0.3666323,-0.027523492,7.8996387,0.25582126,100.56558
54896000,764000,39.8714138,32.7364368,9.177281,-349.7887,-100.4447,16.4134,-2.8053575,-0.3204287,-0.17820746,7.855416,0.75410396,100.61486
55000000,764000,39.8714138,32.7364368,10.887038,-350.04202,-100.49187,16.398607,-1.9803766,-0.23221593,-0.20532759,8.109566,1.010524,100.662025
55096000,764000,39.8714138,32.7364368,12.462723,-350.19717,-100.526985,16.36616,-1.1782418,-0.15131241,-0.49865127,8.625337,0.7393434,100.69714
55200000,764000,39.8714138,32.7364368,14.165507,-350.27585,-100.55774,16.299177,-0.26166898,-0.09920584,-0.86238843,8.903627,0.35718825,100.7279
55296000,764000,39.8714138,32.7364368,15.728079,-350.2627,-100.582275,16.201202,0.5893629,-0.07412914,-1.1533248,8.741437,0.28163007,100.75243
55400000,764000,39.8714138,32.7364368,17.407719,-350.16,-100.60569,16.065357,1.4569728,-0.039141674,-1.4441261,8.024245,0.51442343,100.77585
55496000,764000,39.8714138,32.7364368,18.944883,-349.98712,-100.62095,15.924608,2.187004,0.022820815,-1.4999441,7.3567433,0.8631646,100.79111
55600000,764000,39.8714138,32.7364368,20.597214,-349.7228,-100.62859,15.764188,2.9120414,0.12154492,-1.6004108,6.665754,1.0368292,100.79875
55696000,764000,39.8714138,32.7364368,22.105715,-349.41394,-100.62484,15.606737,3.536339,0.23914362,-1.5582427,6.3466763,1.2825931,100.795
55800000,764000,39.8714138,32.7364368,23.720886,-349.01434,-100.60759,15.423432,4.189773,0.37652555,-1.7943034,6.284423,1.2963237,100.77775
55896000,764000,39.8714138,32.7364368,25.19361,-348.5848,-100.57929,15.233905,4.784914,0.4920105,-2.1156847,6.2382298,1.2159617,100.74945
56000000,764000,39.8714138,32.7364368,26.769686,-348.05283,-100.53807,15.00561,5.428557,0.5987723,-2.2982793,6.1576138,1.0290518,100.70823
56096000,764000,39.8714138,32.7364368,28.200983,-347.50278,-100.48954,14.772935,6.014209,0.675682,-2.5246763,6.013652,0.6614644,100.6597
56200000,764000,39.8714138,32.7364368,29.726185,-346.84317,-100.429695,14.499791,6.621905,0.7447627,-2.6919713,5.7070303,0.6823996,100.59985
56304000,764000,39.8714138,32.7364368,31.221058,-346.12277,-100.36324,14.216328,7.192786,0.8038496,-2.7706602,5.363996,0.5589239,100.5334
56400000,764000,39.8714138,32.7364368,32.57461,-345.4047,-100.29761,13.944665,7.692207,0.85394555,-2.854429,5.00224,0.6082486,100.467766
56496000,764000,39.8714138,32.7364368,33.900986,-344.64087,-100.22705,13.668679,8.165589,0.903075,-2.8959289,4.774976,0.44856682,100.39721
56600000,764000,39.8714138,32.7364368,35.30896,-343.76132,-100.14409,13.363481,8.651789,0.9490999,-3.0383353,4.573359,0.46873555,100.31425
56696000,764000,39.8714138,32.7364368,36.57903,-342.90692,-100.06375,13.072926,9.078998,0.97672987,-3.079496,4.3384666,0.26280057,100.23391
56800000,764000,39.8714138,32.7364368,37.924267,-341.93497,-99.972786,12.74868,9.521603,0.99448,-3.2107894,4.1843905,0.124915496,100.142944
56896000,764000,39.8714138,32.7364368,39.134754,-340.99918,-99.88779,12.440863,9.90938,0.99165505,-3.2364998,3.9111598,-0.10069645,100.057945
57000000,764000,39.8714138,32.7364368,40.41113,-339.9446,-99.79735,12.105001,10.298482,0.9717796,-3.2026353,3.587267,-0.27526447,99.96751
57096000,764000,39.8714138,32.7364368,41.55799,-338.93735,-99.71448,11.799572,10.631725,0.9445199,-3.0798838,3.3179848,-0.25095788,99.884636
57200000,764000,39.8714138,32.7364368,42.76879,-337.8104,-99.62711,11.479806,10.962868,0.9051777,-2.9687932,3.0480528,-0.43264866,99.79727
57296000,764000,39.8714138,32.7364368,43.857086,-336.7419,-99.550575,11.191885,11.237102,0.8654573,-2.9365065,2.7661529,-0.38219613,99.72073
57400000,764000,39.8714138,32.7364368,45.005405,-335.55374,-99.47186,10.892932,11.508159,0.81953734,-2.7954679,2.4168184,-0.42080876,99.64202
57496000,764000,39.8714138,32.7364368,46.038204,-334.43384,-99.40249,10.629222,11.73402,0.7754627,-2.696952,2.255306,-0.40786898,99.57265
57600000,764000,39.8714138,32.7364368,47.130104,-333.1917,-99.3322,10.359588,11.953909,0.7208031,-2.4358985,2.0408766,-0.5883416,99.50236
57696000,764000,39.8714138,32.7364368,48.11347,-332.02747,-99.27265,10.125701,12.128702,0.66886646,-2.309245,1.588502,-0.58193874,99.44281
57800000,764000,39.8714138,32.7364368,49.15424,-330.746,-99.2145,9.891564,12.292512,0.61083263,-2.1259882,1.4225786,-0.5441438,99.38466
57896000,764000,39.8714138,32.7364368,50.09394,-329.5506,-99.16754,9.697101,12.421125,0.5547202,-1.8745245,1.2257909,-0.46191826,99.3377
58000000,764000,39.8714138,32.7364368,51.091003,-328.24097,-99.12289,9.506799,12.537372,0.49678576,-1.6091101,1.0066878,-0.5317824,99.293045
58096000,764000,39.8714138,32.7364368,51.994873,-327.02377,-99.08654,9.354966,12.624646,0.44878682,-1.515265,0.82924086,-0.48162785,99.2567
58200000,764000,39.8714138,32.7364368,52.95837,-325.69498,-99.05226,9.210794,12.699484,0.39726168,-1.2550211,0.5999449,-0.45878252,99.22242
58296000,764000,39.8714138,32.7364368,53.83542,-324.46313,-99.02459,9.098367,12.752355,0.35351074,-1.0068172,0.47816798,-0.36758927,99.19475
58400000,764000,39.8714138,32.7364368,54.77292,-323.12115,-98.997986,8.999238,12.795048,0.30869985,-0.8080009,0.26389635,-0.46920216,99.168144
58496000,764000,39.8714138,32.7364368,55.629807,-321.88007,-98.977615,8.928222,12.817994,0.27234876,-0.6269085,0.1209105,-0.32570305,99.14777
58600000,764000,39.8714138,32.7364368,56.54997,-320.5336,-98.96056,8.869202,12.8298435,0.24000815,-0.42311236,0.022937281,-0.28501543,99.13072
58696000,764000,39.8714138,32.7364368,57.39452,-319.29074,-98.94901,8.834315,12.829271,0.2169707,-0.2340059,-0.12535092,-0.13234092,99.11917
58800000,764000,39.8714138,32.7364368,58.30662,-317.94257,-98.937035,8.813853,12.818338,0.20026182,-0.07201469,-0.2539097,-0.060847025,99.10719
58896000,764000,39.8714138,32.7364368,59.147728,-316.69946,-98.926254,8.81249,12.799976,0.18876712,0.12548748,-0.308545,-0.023029743,99.09641
59000000,764000,39.8714138,32.7364368,60.05864,-315.35623,-98.91558,8.825723,12.770336,0.1816302,0.26937488,-0.34228915,-0.07020309,99.08574
