timestamp,roll_body,pitch_body,yaw_body,q_d[0],q_d[1],q_d[2],q_d[3],thrust_body[0]
17984000,0,-0.19640963,1.5995768,0.6935009,0.07032019,-0.06832491,0.71375304,1
18008000,0,-0.1877233,1.5995768,0.6937911,0.067219585,-0.06531228,0.7140517,1
18032000,0,-0.17927033,1.5995768,0.69406086,0.06420107,-0.062379416,0.7143294,1
18056000,0,-0.17101991,1.5995768,0.69431233,0.061253775,-0.05951575,0.71458817,1
18080000,0,-0.16298223,1.5995768,0.6945459,0.058381464,-0.05672494,0.7148286,1
18104000,0,-0.15512943,1.5995768,0.69476324,0.05557432,-0.053997446,0.7150523,1
18128000,0,-0.1474374,1.5995768,0.6949658,0.052823815,-0.051324982,0.71526074,1
18152000,0,-0.13988504,1.5995768,0.69515467,0.050122492,-0.048700307,0.7154551,1
18176000,0,-0.13245387,1.5995768,0.6953308,0.047463823,-0.046117075,0.71563643,1
18200000,0,-0.12514742,1.5995768,0.69549465,0.044849124,-0.043576565,0.715805,1
18224000,0,-0.11794921,1.5995768,0.695647,0.042272586,-0.041073136,0.7159618,1
18248000,0,-0.110844746,1.5995768,0.6957885,0.039729062,-0.038601782,0.7161075,1
18272000,0,-0.10382113,1.5995768,0.69591975,0.03721399,-0.036158074,0.71624255,1
18296000,0,-0.09687789,1.5995768,0.6960411,0.03472725,-0.03374189,0.7163674,1
18320000,0,-0.090003826,1.5995768,0.6961529,0.03226487,-0.03134938,0.7164825,1
18344000,0,-0.083188914,1.5995768,0.69625574,0.029823305,-0.028977092,0.7165884,1
18368000,0,-0.076424055,1.5995768,0.6963498,0.02739933,-0.026621895,0.7166851,1
18392000,0,-0.06971173,1.5995768,0.69643515,0.024993869,-0.024284687,0.71677303,1
18416000,0,-0.063043684,1.5995768,0.6965123,0.022603996,-0.021962626,0.7168524,1
18440000,0,-0.056412388,1.5995768,0.6965813,0.020227045,-0.01965312,0.7169234,1
18464000,0,-0.049810946,1.5995768,0.69664234,0.017860575,-0.017353795,0.71698624,1
18488000,0,-0.04323816,1.5995768,0.6966956,0.015504184,-0.015064266,0.7170411,1
18512000,0,-0.036688007,1.5995768,0.6967412,0.013155742,-0.012782458,0.717088,1
18536000,0,-0.030154973,1.5995768,0.69677925,0.010813295,-0.010506476,0.71712714,1
18560000,0,-0.023634002,1.5995768,0.6968098,0.008475059,-0.008234586,0.7171586,1
18584000,0,-0.017124217,1.5995768,0.6968329,0.006140744,-0.005966505,0.7171824,1
18608000,0,-0.010621192,1.5995768,0.69684863,0.003808788,-0.003700716,0.71719855,1
18632000,0,-0.00412088,1.5995768,0.696857,0.001477765,-0.001435834,0.71720713,1
18656000,0,0.00238042,1.5995768,0.696858,-0.000853629,0.000829408,0.71720815,1
18680000,0,0.008882398,1.5995768,0.6968516,-0.003185256,0.003094877,0.71720165,1
18704000,0,0.015388269,1.5995768,0.69683784,-0.005518246,0.00536167,0.71718746,1
18728000,0,0.021900982,1.5995768,0.6968167,-0.00785363,0.00763079,0.71716565,1
18752000,0,0.028423239,1.5995768,0.69678813,-0.010192353,0.009903153,0.71713626,1
18776000,0,0.03495746,1.5995768,0.696752,-0.012535259,0.012179581,0.71709913,1
18800000,0,0.041504115,1.5995768,0.69670844,-0.014882487,0.014460209,0.71705425,1
18824000,0,0.04806526,1.5995768,0.69665724,-0.017234752,0.01674573,0.71700156,1
18848000,0,0.054642778,1.5995768,0.6965984,-0.019592699,0.019036772,0.71694106,1
18872000,0,0.061238375,1.5995768,0.69653183,-0.021956917,0.021333907,0.7168725,1
18896000,0,0.06785179,1.5995768,0.6964575,-0.024327278,0.023637012,0.716796,1
18920000,0,0.07448445,1.5995768,0.69637525,-0.026704274,0.025946561,0.71671134,1
18944000,0,0.081137605,1.5995768,0.6962851,-0.029088316,0.02826296,0.7166186,1
18968000,0,0.087812334,1.5995768,0.69618684,-0.03147977,0.030586556,0.71651745,1
18992000,0,0.09451039,1.5995768,0.69608057,-0.033879224,0.032917928,0.716408,1
19016000,0,0.10123257,1.5995768,0.695966,-0.036286943,0.03525733,0.7162901,1
19040000,0,0.107979536,1.5995768,0.6958431,-0.03870312,0.03760495,0.71616364,1
19064000,0,0.11475182,1.5995768,0.69571173,-0.041127928,0.039960954,0.71602845,1
19088000,0,0.121548735,1.5995768,0.69557196,-0.043561075,0.042325065,0.71588457,1
19112000,0,0.12837061,1.5995768,0.69542354,-0.046002656,0.04469737,0.71573186,1
19136000,0,0.13521767,1.5995768,0.6952664,-0.048452713,0.047077905,0.71557015,1
19160000,0,0.14209001,1.5995768,0.69510055,-0.050911237,0.049466673,0.71539944,1
19184000,0,0.14898941,1.5995768,0.6949257,-0.053378846,0.051864266,0.71521956,1
19208000,0,0.15591574,1.5995768,0.694742,-0.055855446,0.05427059,0.71503043,1
19232000,0,0.16286881,1.5995768,0.6945491,-0.058340933,0.056685556,0.7148319,1
19256000,0,0.16984837,1.5995768,0.6943471,-0.060835175,0.05910903,0.7146239,1
19280000,0,0.1768534,1.5995768,0.6941358,-0.06333778,0.061540622,0.7144065,1
19304000,0,0.18388353,1.5995768,0.6939152,-0.06584857,0.06398017,0.71417946,1
19328000,0,0.19093826,1.5995768,0.6936852,-0.068367325,0.066427454,0.7139427,1
19352000,0,0.19801709,1.5995768,0.6934457,-0.07089383,0.06888228,0.71369624,1
19376000,0,0.2051194,1.5995768,0.6931967,-0.073427826,0.07134437,0.71344,1
19400000,0,0.21224706,1.5995768,0.692938,-0.07596993,0.07381435,0.7131738,1
19424000,0,0.2193993,1.5995768,0.6926697,-0.078519836,0.0762919,0.7128976,1
19448000,0,0.2265754,1.5995768,0.69239146,-0.08107724,0.07877674,0.71261126,1
19472000,0,0.2337745,1.5995768,0.69210345,-0.08364178,0.08126851,0.7123148,1
19496000,0,0.24099478,1.5995768,0.69180554,-0.08621279,0.08376657,0.7120082,1
19520000,0,0.24823539,1.5995768,0.69149774,-0.08878991,0.08627056,0.71169144,1
19544000,0,0.2554955,1.5995768,0.69118,-0.09137279,0.08878016,0.7113644,1
19568000,0,0.2627742,1.5995768,0.69085234,-0.09396109,0.09129502,0.71102715,1
19592000,0,0.27007258,1.5995768,0.69051456,-0.09655513,0.09381545,0.71067953,1
19616000,0,0.27738968,1.5995768,0.6901667,-0.09915453,0.0963411,0.71032155,1
19640000,0,0.28472453,1.5995768,0.6898088,-0.10175892,0.09887159,0.7099531,1
19664000,0,0.2920761,1.5995768,0.68944067,-0.10436786,0.1014065,0.7095743,1
19688000,0,0.29944634,1.5995768,0.6890623,-0.10698201,0.10394648,0.7091848,1
19712000,0,0.30683416,1.5995768,0.6886736,-0.10960094,0.106491104,0.7087848,1
19736000,0,0.31423852,1.5995768,0.6882747,-0.11222423,0.109039955,0.7083742,1
19760000,0,0.32165834,1.5995768,0.6878654,-0.11485145,0.111592636,0.707953,1
19784000,0,0.32909396,1.5995768,0.68744576,-0.11748269,0.11414922,0.7075211,1
19808000,0,0.3365443,1.5995768,0.6870158,-0.12011751,0.11670927,0.7070785,1
19832000,0,0.34400836,1.5995768,0.6865754,-0.122755505,0.11927241,0.70662534,1
19856000,0,0.34906584,1.5995768,0.6862716,-0.12454198,0.1210082,0.70631266,1
19880000,0,0.34906584,1.5995768,0.6862716,-0.12454198,0.1210082,0.70631266,1
19904000,0,0.34906584,1.5995768,0.6862716,-0.12454198,0.1210082,0.70631266,1
19928000,0,0.34906584,1.5995768,0.6862716,-0.12454198,0.1210082,0.70631266,1
19952000,0,0.34906584,1.5995768,0.6862716,-0.12454198,0.1210082,0.70631266,1
19976000,0.43633232,0.34906584,-2.1183834,0.43793857,0.2521792,-0.102860525,-0.85675853,1
20000000,0.43633232,0.34906584,-2.1130195,0.4402348,0.25245416,-0.10218382,-0.85558087,1
20024000,0.43633232,0.34906584,-2.1045792,0.44384155,0.25288314,-0.10111752,-0.8537155,1
20048000,0.43633232,0.34906584,-2.0991664,0.44615042,0.2531559,-0.100432746,-0.8525111,1
20072000,0.43633232,0.34906584,-2.0964327,0.44731525,0.25329292,-0.10008663,-0.85190046,1
20096000,0.43633232,0.34906584,-2.0909867,0.44963333,0.2535645,-0.09939654,-0.8506793,1
20120000,0.43633232,0.34906584,-2.0797338,0.45441246,0.25411975,-0.097968325,-0.848136,1
20144000,0.43633232,0.34906584,-2.076952,0.4555917,0.25425577,-0.09761476,-0.8475031,1
20168000,0.43633232,0.34906584,-2.071443,0.45792443,0.2545237,-0.096914046,-0.846245,1
20192000,0.43633232,0.34906584,-2.0686414,0.45910937,0.25465918,-0.096557416,-0.8456027,1
20216000,0.43633232,0.34906584,-2.0572772,0.46390676,0.25520372,-0.09510886,-0.8429803,1
20240000,0.43633232,0.34906584,-2.0517173,0.4662484,0.25546712,-0.094399035,-0.84168744,1
20264000,0.43633232,0.34906584,-2.0488863,0.46743935,0.2556005,-0.09403734,-0.8410266,1
20288000,0.43633232,0.34906584,-2.043302,0.4697858,0.2558621,-0.09332329,-0.8397182,1
20312000,0.43633232,0.34906584,-2.0345724,0.47344655,0.25626695,-0.092205614,-0.8376597,1
20336000,0.43633232,0.34906584,-2.0289447,0.47580168,0.2565254,-0.09148416,-0.83632416,1
20360000,0.43633232,0.34906584,-2.0260618,0.47700673,0.256657,-0.0911143,-0.83563745,1
20384000,0.43633232,0.34906584,-2.014502,0.48182857,0.25717935,-0.089629345,-0.8328665,1
20408000,0.43633232,0.34906584,-2.0116024,0.48303562,0.25730902,-0.08925637,-0.832167,1
20432000,0.43633232,0.34906584,-2.005922,0.4853971,0.25756148,-0.08852522,-0.83079183,1
20456000,0.43633232,0.34906584,-1.9942842,0.49022326,0.25807226,-0.08702498,-0.82795316,1
20480000,0.43633232,0.34906584,-1.9913553,0.49143523,0.25819942,-0.086646974,-0.8272345,1
20504000,0.43633232,0.34906584,-1.9856249,0.49380338,0.2584466,-0.08590682,-0.82582295,1
20528000,0.43633232,0.34906584,-1.9767001,0.49748364,0.2588274,-0.084752664,-0.82361126,1
20552000,0.43633232,0.34906584,-1.9709306,0.49985743,0.2590708,-0.08400567,-0.82217264,1
20576000,0.43633232,0.34906584,-1.9679632,0.50107676,0.25919515,-0.083621204,-0.8214302,1
20600000,0.43633232,0.34906584,-1.9561586,0.5059163,0.2596842,-0.08208991,-0.8184584,1
20624000,0.43633232,0.34906584,-1.9531925,0.50712955,0.25980565,-0.08170469,-0.8177071,1
20648000,0.43633232,0.34906584,-1.9473994,0.5094959,0.26004124,-0.0809518,-0.81623477,1
20672000,0.87266463,0.34143472,-1.9383713,0.44629502,0.36265105,-0.25620854,-0.7769569,0.41643417
20696000,0.87266463,0.33380422,-1.9324802,0.45021957,0.36075366,-0.25729954,-0.77521354,0.43980902
20720000,0.87266463,0.3261734,-1.9228003,0.4555957,0.35934937,-0.25772,-0.77258074,0.46206564
20744000,0.87266463,0.3185412,-1.9160719,0.45981368,0.35757056,-0.2586847,-0.7705822,0.48329306
20768000,0.87266463,0.31090668,-1.9121207,0.46294942,0.35543537,-0.26015496,-0.7691963,0.5034111
20792000,0.87266463,0.3032595,-1.8989965,0.46959397,0.35449412,-0.26001135,-0.7656432,0.52361417
20816000,0.87266463,0.2955994,-1.8949558,0.47274163,0.35237277,-0.26149422,-0.764179,0.5425152
20840000,0.87266463,0.28792635,-1.8816599,0.47940537,0.35146242,-0.261363,-0.7604827,0.5601022
20864000,0.87266463,0.2802404,-1.8775734,0.4825467,0.34934968,-0.2628667,-0.7589496,0.5763855
20888000,0.87266463,0.27253386,-1.8735173,0.4856694,0.3472283,-0.2643875,-0.75740147,0.5923851
20912000,0.87266463,0.26480743,-1.8600516,0.49233514,0.34634975,-0.2642932,-0.7535231,0.60706943
20936000,0.87266463,0.2570619,-1.8560238,0.49542427,0.34422338,-0.26585165,-0.7519228,0.62046856
20960000,0.87266463,0.24929814,-1.8424795,0.5020697,0.34336185,-0.26579028,-0.7479199,0.6326565
20984000,0.87266463,0.24150725,-1.8385146,0.50511265,0.34122413,-0.2673941,-0.7462759,0.6448934
21008000,0.87266463,0.23369057,-1.8280376,0.5105703,0.33995423,-0.26790544,-0.7429507,0.6559504
21032000,0.87266463,0.22584958,-1.8211243,0.51468515,0.33820674,-0.26904356,-0.74049366,0.6659029
21056000,0.87266463,0.21798578,-1.8107338,0.52006805,0.33692753,-0.2696142,-0.73710054,0.67481184
21080000,0.87266463,0.21009496,-1.8070196,0.52297467,0.33474517,-0.27132815,-0.7354075,0.6834534
21104000,0.87266463,0.2021789,-1.7935574,0.5294432,0.33388346,-0.27143028,-0.7311206,0.6911576
21128000,0.87266463,0.19593161,-1.7899799,0.53195095,0.33225268,-0.27269703,-0.72957015,0.69798255
21152000,0.87266463,0.19727974,-1.779731,0.5354246,0.33410048,-0.2705864,-0.72696644,0.7040079
21176000,0.87266463,0.19847828,-1.7731018,0.53760207,0.33539855,-0.26911646,-0.7253055,0.7092854
21200000,0.87266463,0.19947408,-1.7628851,0.54111004,0.33710214,-0.26709795,-0.7226484,0.7143593
21224000,0.87266463,0.20036072,-1.7595534,0.5421439,0.33784273,-0.26626682,-0.7218339,0.7187613
21248000,0.87266463,0.20114587,-1.7462333,0.5467899,0.3398692,-0.2637707,-0.718286,0.7225915
21272000,0.87266463,0.201843,-1.742975,0.54782677,0.34052944,-0.263003,-0.7174642,0.72589463
21296000,0.87266463,0.20240512,-1.7328641,0.55134016,0.34204006,-0.26110488,-0.71474254,0.72910804
21320000,0.87266463,0.20290841,-1.7227154,0.5548646,0.3435257,-0.2592099,-0.711987,0.7318474
21344000,0.87266463,0.20335336,-1.7162206,0.55708957,0.3445112,-0.25795463,-0.71022713,0.7341734
21368000,0.87266463,0.20374613,-1.706027,0.5606282,0.3459493,-0.25607255,-0.7074192,0.7361241
21392000,0.87266463,0.20404556,-1.7027444,0.5617321,0.34646642,-0.2554106,-0.7065292,0.73806995
21416000,0.87266463,0.20431249,-1.6891661,0.5664657,0.3482786,-0.25296834,-0.70272726,0.7396913
21440000,0.87266463,0.204539,-1.6788363,0.5700452,0.34965324,-0.25109434,-0.6998162,0.7409978
21464000,0.87266463,0.20473936,-1.6755197,0.57116735,0.35013336,-0.2504505,-0.6988912,0.7420384
21488000,0.87266463,0.20486628,-1.6650928,0.5747795,0.35147476,-0.2485812,-0.69591755,0.74315184
21512000,0.87266463,0.2049762,-1.6616936,0.575941,0.35193178,-0.24794827,-0.6949515,0.7440121
21536000,0.87266463,0.20506698,-1.647784,0.5807435,0.35367635,-0.24546546,-0.69093907,0.74464405
21560000,0.87266463,0.20514452,-1.6370995,0.5844119,0.355007,-0.2435474,-0.6878352,0.7450689
21584000,0.87266463,0.20522285,-1.6335685,0.5856109,0.355461,-0.24289489,-0.68681103,0.74515426
21608000,0.87266463,0.20529129,-1.6227492,0.58930516,0.35679117,-0.24094608,-0.68364066,0.7450733
21632000,0.87266463,0.2053478,-1.6118833,0.59300023,0.35811248,-0.2389856,-0.68043524,0.7448224
21656000,0.87266463,0.20539594,-1.597485,0.5978745,0.3598385,-0.23638543,-0.676154,0.7444165
21680000,0.87266463,0.20541143,-1.5938002,0.59911644,0.36027813,-0.23571691,-0.67505306,0.7440464
21704000,0.87266463,0.20542553,-1.5826302,0.60287464,0.3615933,-0.23369642,-0.6716981,0.74354076
21728000,0.87266463,0.20543545,-1.5713758,0.6066431,0.36290562,-0.23165467,-0.66829616,0.7429136
21752000,0.87266463,0.20544043,-1.567523,0.60792845,0.36335272,-0.23095345,-0.6671269,0.7422003
21776000,0.87266463,0.20543896,-1.5560902,0.6117323,0.36466655,-0.22887315,-0.6636406,0.7413638
21800000,0.87266463,0.20541535,-1.5444999,0.61557215,0.3659797,-0.226764,-0.66008157,0.7406104
21824000,0.87266463,0.20539536,-1.5327919,0.61942935,0.367295,-0.22462447,-0.6564644,0.7397747
21848000,0.87266463,0.20537256,-1.521039,0.62328035,0.3686019,-0.22246999,-0.6528103,0.73887277
21872000,0.87266463,0.20535046,-1.5169754,0.62460935,0.36904666,-0.22172816,-0.6515399,0.7378926
21896000,0.87266463,0.20524804,-1.5050292,0.6285081,0.37033454,-0.21955508,-0.64778495,0.7374508
21920000,0.87266463,0.20515254,-1.4929767,0.63241726,0.3716232,-0.21735239,-0.64397395,0.7369031
21944000,0.87266463,0.20505512,-1.4807972,0.6363443,0.3729118,-0.21511912,-0.64009875,0.73629564
21968000,0.87266463,0.20496029,-1.4684842,0.6402896,0.374202,-0.21285233,-0.63615704,0.73558897
21992000,0.87266463,0.20485482,-1.464143,0.64168733,0.37463307,-0.21207651,-0.6347526,0.73490787
22016000,0.87266463,0.20475422,-1.4516244,0.6456654,0.37592468,-0.20976275,-0.6307109,0.7341348
22040000,0.87266463,0.20465483,-1.4390373,0.64963925,0.37720948,-0.20742783,-0.62662226,0.7333062
22064000,0.87266463,0.20455822,-1.4262944,0.6536352,0.3784965,-0.20505455,-0.622458,0.7324264
22088000,0.87266463,0.20446292,-1.4134059,0.6576493,0.37978378,-0.20264524,-0.61822057,0.7314602
22112000,0.87266463,0.2043782,-1.4004105,0.6616668,0.38106924,-0.20020363,-0.6139232,0.7303793
22136000,0.87266463,0.20429188,-1.391295,0.66447276,0.38195428,-0.19849576,-0.61088973,0.7292392
22160000,0.87266463,0.20421079,-1.3779826,0.6685379,0.3832451,-0.19597837,-0.60644263,0.72805214
22184000,0.87266463,0.20410316,-1.3645374,0.6726178,0.38452512,-0.19343665,-0.6019202,0.7270537
22208000,0.87266463,0.2040016,-1.3508515,0.6767379,0.38581288,-0.190838,-0.59728974,0.72597355
22232000,0.87266463,0.20390022,-1.3412325,0.6796196,0.38669953,-0.18901739,-0.5940143,0.7248324
22256000,0.87266463,0.2037987,-1.3329949,0.68207735,0.3874482,-0.18746036,-0.5911962,0.7236447
22280000,0.87266463,0.20365515,-1.3329949,0.6821012,0.38741064,-0.18751313,-0.5911765,0.72272646
22304000,0.87266463,0.20351636,-1.3329949,0.6821242,0.38737428,-0.18756416,-0.59115756,0.72170854
22328000,0.87266463,0.20338535,-1.3329949,0.6821461,0.38733998,-0.18761231,-0.5911397,0.72064877
22352000,0.87266463,0.20325221,-1.3329949,0.6821681,0.3873051,-0.18766128,-0.59112144,0.7194965
22376000,0.87266463,0.20312628,-1.3329949,0.68218905,0.38727212,-0.18770754,-0.5911042,0.71830934
22400000,0.87266463,0.20297317,-1.3329949,0.6822145,0.38723204,-0.18776381,-0.5910833,0.7172416
22424000,0.87266463,0.20283036,-1.3329949,0.6822382,0.38719463,-0.18781632,-0.59106374,0.7161224
22448000,0.87266463,0.20269522,-1.3329949,0.68226063,0.38715923,-0.18786597,-0.5910452,0.7149428
22472000,0.87266463,0.20256127,-1.3329949,0.68228287,0.38712415,-0.18791522,-0.5910269,0.7136999
22496000,0.87266463,0.20245898,-1.3329949,0.68229985,0.38709736,-0.18795285,-0.59101284,0.71219563
22520000,0.87266463,0.20236427,-1.3329949,0.6823155,0.38707256,-0.18798766,-0.59099996,0.7106515
22544000,0.87266463,0.2022743,-1.3329949,0.6823305,0.38704896,-0.1880207,-0.59098756,0.7090636
22568000,0.87266463,0.20218593,-1.3329949,0.6823451,0.38702583,-0.1880532,-0.59097546,0.70747215
22592000,0.87266463,0.20210557,-1.3329949,0.6823585,0.38700476,-0.18808272,-0.59096444,0.70580876
22616000,0.87266463,0.20203844,-1.3329949,0.68236965,0.3869872,-0.1881074,-0.59095526,0.70416224
22640000,0.87266463,0.2019683,-1.3329949,0.6823812,0.3869688,-0.18813318,-0.59094566,0.7024864
22664000,0.87266463,0.20190696,-1.3329949,0.6823914,0.38695276,-0.18815573,-0.59093726,0.70081294
22688000,0.87266463,0.20181005,-1.3329949,0.6824075,0.38692737,-0.18819132,-0.59092396,0.6993917
22712000,0.87266463,0.20172866,-1.3329949,0.68242097,0.38690603,-0.18822126,-0.5909129,0.69797546
22736000,0.87266463,0.20164579,-1.3329949,0.68243474,0.38688433,-0.1882517,-0.5909015,0.6965667
22760000,0.87266463,0.20157292,-1.3329949,0.68244684,0.38686523,-0.18827847,-0.5908915,0.69516027
22784000,0.87266463,0.20152654,-1.3329949,0.6824545,0.3868531,-0.18829554,-0.5908851,0.6935784
22808000,0.87266463,0.20149182,-1.3329949,0.68246025,0.38684398,-0.1883083,-0.5908804,0.6920075
22832000,0.87266463,0.20145857,-1.3329949,0.6824658,0.38683525,-0.18832052,-0.59087586,0.69044995
22856000,0.87266463,0.2014342,-1.3329949,0.68246984,0.38682887,-0.18832946,-0.59087247,0.68893725
22880000,0.87266463,0.20140216,-1.3329949,0.6824751,0.3868205,-0.18834123,-0.59086806,0.68751115
22904000,0.87266463,0.20138171,-1.3329949,0.68247855,0.38681513,-0.18834877,-0.5908653,0.68611735
22928000,0.87266463,0.20136835,-1.3329949,0.68248075,0.3868116,-0.18835369,-0.59086347,0.6847712
22952000,0.87266463,0.20136547,-1.3329949,0.68248117,0.38681084,-0.1883547,-0.59086305,0.6834704
22976000,0.87266463,0.20136654,-1.3329949,0.68248105,0.38681114,-0.18835431,-0.5908632,0.6822291
23000000,0.87266463,0.20134158,-1.3329949,0.6824852,0.3868046,-0.18836349,-0.5908598,0.68124336
23024000,0.87266463,0.20132892,-1.3329949,0.6824873,0.3868013,-0.18836817,-0.59085804,0.6802634
23048000,0.87266463,0.20132726,-1.3329949,0.68248755,0.38680086,-0.18836878,-0.5908578,0.67938197
23072000,0.87266463,0.20133056,-1.3329949,0.6824871,0.38680175,-0.18836755,-0.5908583,0.6785053
23096000,0.87266463,0.20138478,-1.3329949,0.682478,0.38681594,-0.18834762,-0.5908657,0.6773585
23120000,0.87266463,0.20144847,-1.3329949,0.6824674,0.38683262,-0.18832421,-0.59087443,0.6762263
23144000,0.87266463,0.20151865,-1.3329949,0.68245584,0.38685098,-0.18829842,-0.59088403,0.67517847
23168000,0.87266463,0.20159623,-1.3329949,0.68244296,0.38687134,-0.18826991,-0.5908947,0.67418474
23192000,0.87266463,0.20165682,-1.3329949,0.6824329,0.3868872,-0.18824765,-0.590903,0.6733968
23216000,0.87266463,0.20172742,-1.3329949,0.6824212,0.38690573,-0.18822171,-0.59091264,0.67263997
23240000,0.87266463,0.2018061,-1.3329949,0.68240815,0.38692632,-0.18819278,-0.5909234,0.67192954
23264000,0.87266463,0.20189099,-1.3329949,0.6823941,0.3869486,-0.18816158,-0.5909351,0.67125005
23288000,0.87266463,0.20199433,-1.3329949,0.6823769,0.38697565,-0.1881236,-0.59094924,0.6705567
23312000,0.87266463,0.20210479,-1.3329949,0.6823586,0.38700458,-0.18808302,-0.5909644,0.6699263
23336000,0.87266463,0.20222151,-1.3329949,0.68233925,0.38703516,-0.18804012,-0.59098035,0.66938007
23360000,0.87266463,0.20234606,-1.3329949,0.68231857,0.3870678,-0.18799435,-0.5909974,0.66889215
23384000,0.87266463,0.20250499,-1.3329949,0.6822922,0.3871094,-0.18793592,-0.5910192,0.6682127
23408000,0.87266463,0.20267428,-1.3329949,0.68226403,0.38715374,-0.18787369,-0.59104234,0.66761154
23432000,0.87266463,0.20284995,-1.3329949,0.6822349,0.38719976,-0.18780911,-0.59106636,0.6670951
23456000,0.87266463,0.20303243,-1.3329949,0.68220466,0.38724756,-0.18774204,-0.5910914,0.66663283
23480000,0.87266463,0.2032055,-1.3329949,0.6821759,0.38729286,-0.18767843,-0.59111506,0.666287
23504000,0.87266463,0.20338859,-1.3329949,0.6821455,0.38734084,-0.18761113,-0.5911401,0.6659716
23528000,0.87266463,0.20358017,-1.3329949,0.68211365,0.387391,-0.18754071,-0.59116626,0.6657004
23552000,0.87266463,0.2037792,-1.3329949,0.68208057,0.38744307,-0.18746755,-0.5911935,0.66549766
23576000,0.87266463,0.20398588,-1.3329949,0.6820463,0.3874972,-0.18739156,-0.5912218,0.66534483
23600000,0.87266463,0.20419802,-1.3329949,0.68201095,0.38755274,-0.18731357,-0.5912508,0.6652451
23624000,0.87266463,0.20442012,-1.3329949,0.68197405,0.38761085,-0.18723193,-0.5912811,0.6651934
23648000,0.87266463,0.20464987,-1.3329949,0.68193585,0.387671,-0.18714745,-0.5913125,0.66519207
23672000,0.87266463,0.2048857,-1.3329949,0.68189657,0.38773274,-0.18706074,-0.5913447,0.6652305
23696000,0.87266463,0.20511074,-1.3329949,0.68185914,0.3877916,-0.18697798,-0.5913754,0.6654048
23720000,0.87266463,0.2053478,-1.3329949,0.6818197,0.38785365,-0.18689084,-0.59140784,0.6656018
23744000,0.87266463,0.2055934,-1.3329949,0.6817788,0.38791794,-0.18680051,-0.59144133,0.6658601
23768000,0.87266463,0.20584415,-1.3329949,0.681737,0.3879835,-0.18670832,-0.59147555,0.6661536
23792000,0.87266463,0.20610684,-1.3329949,0.68169326,0.38805225,-0.18661173,-0.59151137,0.6664536
23816000,0.87266463,0.20638183,-1.3329949,0.6816475,0.38812417,-0.18651062,-0.59154886,0.66675776
23840000,0.87266463,0.20666094,-1.3329949,0.6816009,0.38819715,-0.18640797,-0.59158695,0.6670527
23864000,0.87266463,0.20694704,-1.3329949,0.68155324,0.388272,-0.18630277,-0.5916259,0.66736764
23888000,0.87266463,0.20723528,-1.3329949,0.6815052,0.38834733,-0.18619674,-0.5916652,0.667639
23912000,0.87266463,0.20753409,-1.3329949,0.6814554,0.38842547,-0.18608683,-0.5917059,0.667954
23936000,0.87266463,0.20783916,-1.3329949,0.6814045,0.38850522,-0.18597466,-0.5917474,0.6682759
23960000,0.87266463,0.2081501,-1.3329949,0.68135256,0.3885865,-0.18586028,-0.5917897,0.66859984
23984000,0.87266463,0.20846729,-1.3329949,0.6812996,0.3886694,-0.1857436,-0.5918329,0.6689566
24008000,0.87266463,0.2087918,-1.3329949,0.6812454,0.38875422,-0.18562424,-0.59187704,0.66934156
24032000,0.87266463,0.20912223,-1.3329949,0.6811902,0.3888406,-0.18550271,-0.591922,0.6697454
24056000,0.87266463,0.20945814,-1.3329949,0.6811341,0.3889283,-0.18537909,-0.59196764,0.6701505
24080000,0.87266463,0.20976184,-1.3329949,0.68108326,0.3890077,-0.1852674,-0.5920089,0.6707953
24104000,0.87266463,0.21007182,-1.3329949,0.6810314,0.38908866,-0.18515334,-0.59205097,0.67141044
24128000,0.87266463,0.21038722,-1.3329949,0.6809787,0.38917103,-0.18503731,-0.5920938,0.67198104
24152000,0.87266463,0.21070887,-1.3329949,0.6809249,0.38925502,-0.18491897,-0.59213746,0.67257124
24176000,0.87266463,0.21103597,-1.3329949,0.6808701,0.3893404,-0.18479857,-0.5921818,0.673165
24200000,0.87266463,0.21136947,-1.3329949,0.68081427,0.3894275,-0.1846759,-0.59222704,0.6736981
24224000,0.87266463,0.21171017,-1.3329949,0.6807572,0.38951647,-0.18455052,-0.59227324,0.6742039
24248000,0.87266463,0.21205634,-1.3329949,0.68069917,0.38960683,-0.18442315,-0.5923202,0.67466724
24272000,0.87266463,0.21240771,-1.3329949,0.68064034,0.3896985,-0.18429384,-0.5923678,0.6751446
24296000,0.87266463,0.21272172,-1.3329949,0.68058765,0.38978046,-0.18417828,-0.5924103,0.67571086
24320000,0.87266463,0.21304415,-1.3329949,0.6805336,0.3898646,-0.18405959,-0.592454,0.6762481
24344000,0.87266463,0.21337101,-1.3329949,0.6804787,0.38994986,-0.1839393,-0.5924982,0.6767708
24368000,0.87266463,0.21370102,-1.3329949,0.68042326,0.39003596,-0.18381783,-0.5925429,0.67724603
24392000,0.87266463,0.21402556,-1.3329949,0.68036884,0.3901206,-0.18369837,-0.59258676,0.67768574
24416000,0.87266463,0.21435478,-1.3329949,0.6803135,0.39020646,-0.18357718,-0.5926313,0.6781263
24440000,0.87266463,0.21468683,-1.3329949,0.6802577,0.39029306,-0.18345496,-0.5926761,0.6784639
24464000,0.87266463,0.21501972,-1.3329949,0.68020177,0.39037985,-0.18333241,-0.5927211,0.67873925
24488000,0.87266463,0.21531934,-1.3329949,0.6801514,0.39045796,-0.18322212,-0.5927616,0.67913336
24512000,0.87266463,0.21561795,-1.3329949,0.68010116,0.39053577,-0.18311217,-0.5928018,0.67942065
24536000,0.86950624,0.21591797,-1.3329949,0.6806667,0.38953954,-0.18206525,-0.5931306,0.6796208
24560000,0.8609821,0.21621981,-1.3329949,0.6822704,0.38671395,-0.17942429,-0.5939413,0.6797424
24584000,0.8520589,0.21653225,-1.3329949,0.68393725,0.38374805,-0.1766571,-0.5947768,0.6797409
24608000,0.8426533,0.21684669,-1.3329949,0.6856827,0.3806101,-0.17374164,-0.59564173,0.6796415
24632000,0.8328011,0.21716064,-1.3329949,0.68749803,0.3773106,-0.17068893,-0.5965303,0.6794569
24656000,0.8225481,0.21747519,-1.3329949,0.68937236,0.37386444,-0.16751175,-0.59743696,0.67915344
24680000,0.8118431,0.21780272,-1.3329949,0.691311,0.3702562,-0.1641897,-0.5983655,0.67863107
24704000,0.8008025,0.21811143,-1.3329949,0.69329524,0.36651656,-0.16076894,-0.59930015,0.6779336
24728000,0.7893161,0.21841958,-1.3329949,0.69534016,0.36261111,-0.15720928,-0.60025024,0.677115
24752000,0.77744013,0.21872841,-1.3329949,0.6974329,0.35855862,-0.15352665,-0.6012093,0.67620224
24776000,0.76516414,0.21903817,-1.3329949,0.6995727,0.35435438,-0.14971739,-0.60217583,0.6751381
24800000,0.75254536,0.21931756,-1.3329949,0.70175177,0.3500089,-0.14581011,-0.60313976,0.6742265
24824000,0.7394773,0.21960366,-1.3329949,0.7039805,0.34549373,-0.14175838,-0.60411096,0.6731935
24848000,0.7260301,0.21989228,-1.3329949,0.7062444,0.34083113,-0.13758454,-0.6050813,0.67202747
24872000,0.7123184,0.22018312,-1.3329949,0.70852154,0.33606064,-0.13332306,-0.60604066,0.67078567
24896000,0.69828564,0.22046737,-1.3329949,0.7108206,0.33115906,-0.12895998,-0.60699016,0.6692992
24920000,0.68398124,0.22074623,-1.3329949,0.7131309,0.32614335,-0.1245096,-0.6079245,0.6676559
24944000,0.66934717,0.22102706,-1.3329949,0.71545833,0.32099414,-0.11995133,-0.60884625,0.6659491
24968000,0.65447915,0.22130862,-1.3329949,0.71778536,0.3157446,-0.11531469,-0.60974735,0.6641394
24992000,0.63930833,0.22160496,-1.3329949,0.720119,0.31037325,-0.11057314,-0.61063135,0.6621437
25016000,0.6238649,0.22190593,-1.3329949,0.72245324,0.30488747,-0.105739735,-0.6114932,0.6600752
25040000,0.6082564,0.22220641,-1.3329949,0.72477055,0.29932418,-0.10084927,-0.61232513,0.6579975
25064000,0.59247124,0.22250828,-1.3329949,0.7270707,0.2936795,-0.09589758,-0.6131265,0.6558393
25088000,0.5764216,0.22277442,-1.3329949,0.7293696,0.28791058,-0.09087206,-0.6138971,0.65394187
25112000,0.5605367,0.22301942,-1.3329949,0.73160225,0.28217793,-0.08589911,-0.6146179,0.65189034
25136000,0.544463,0.22326235,-1.3329949,0.7338161,0.27635813,-0.08086316,-0.61530584,0.64979506
25160000,0.5283694,0.22351523,-1.3329949,0.73598504,0.27051646,-0.07581174,-0.615954,0.64765185
25184000,0.5122521,0.22380039,-1.3329949,0.73810685,0.26465827,-0.070735335,-0.61656356,0.64512426
25208000,0.49614817,0.22409202,-1.3329949,0.74017954,0.25879025,-0.06565569,-0.6171314,0.64259976
25232000,0.48000664,0.22438902,-1.3329949,0.7422097,0.25289357,-0.06055776,-0.61765873,0.64008397
25256000,0.46391597,0.22468278,-1.3329949,0.7441869,0.24699898,-0.055472605,-0.6181424,0.6375754
25280000,0.4478725,0.22499047,-1.3329949,0.74611014,0.24111058,-0.050392777,-0.61858386,0.6350351
25304000,0.4320305,0.22527446,-1.3329949,0.7479656,0.23527566,-0.045381017,-0.6189777,0.6324498
25328000,0.41624004,0.22556111,-1.3329949,0.7497692,0.22944656,-0.04038109,-0.61933005,0.6299262
25352000,0.40065938,0.22584818,-1.3329949,0.7515039,0.22368257,-0.035443284,-0.6196384,0.62744087
25376000,0.38521174,0.22613956,-1.3329949,0.7531793,0.21795683,-0.030542672,-0.6199055,0.625019
25400000,0.3699615,0.22645059,-1.3329949,0.7547883,0.21229884,-0.02569361,-0.62013197,0.6224894
25424000,0.3549494,0.22676729,-1.3329949,0.75632954,0.20672071,-0.020914525,-0.6203183,0.62002605
25448000,0.3400411,0.2270865,-1.3329949,0.7578188,0.20117143,-0.016165294,-0.62046707,0.6176418
25472000,0.32538205,0.22740999,-1.3329949,0.75924265,0.19570732,-0.011490688,-0.62057817,0.61534667
25496000,0.3111408,0.22774631,-1.3329949,0.7605861,0.19039586,-0.006939985,-0.620653,0.6130486
25520000,0.29719955,0.22805473,-1.3329949,0.7618671,0.18518114,-0.0024928,-0.6206933,0.6107197
25544000,0.28346536,0.22836697,-1.3329949,0.76309335,0.18003795,0.001891837,-0.62070215,0.60848683
25568000,0.2699643,0.2286806,-1.3329949,0.76426446,0.17497617,0.006204642,-0.6206808,0.6063515
25592000,0.25676915,0.22900029,-1.3329949,0.76537544,0.17002562,0.010424703,-0.62063116,0.604262
25616000,0.24381946,0.2293253,-1.3329949,0.7664337,0.1651637,0.014570288,-0.6205546,0.60225475
25640000,0.2310591,0.22965324,-1.3329949,0.76744556,0.16036873,0.018657736,-0.6204523,0.60036486
25664000,0.21854013,0.22998476,-1.3329949,0.7684084,0.15566137,0.022670992,-0.6203258,0.5985671
25688000,0.20633791,0.23032309,-1.3329949,0.7693179,0.15107213,0.026587836,-0.62017757,0.59683365
25712000,0.19441675,0.23064774,-1.3329949,0.77018046,0.14658168,0.030411232,-0.62000895,0.59512615
25736000,0.18290558,0.23096482,-1.3329949,0.77098817,0.14224209,0.034103513,-0.61982363,0.5934766
25760000,0.1716017,0.2312855,-1.3329949,0.7717569,0.13797912,0.037731856,-0.6196204,0.5919301
25784000,0.16065755,0.23161247,-1.3329949,0.7724775,0.13385284,0.041250046,-0.6194032,0.59042776
25808000,0.1499082,0.23194675,-1.3329949,0.7731629,0.12980033,0.04470955,-0.61917037,0.58902526
25832000,0.1394058,0.23228393,-1.3329949,0.77381134,0.12584072,0.048092443,-0.6189242,0.5877209
25856000,0.12918289,0.23262265,-1.3329949,0.77442235,0.12198658,0.05138813,-0.61866665,0.58649594
25880000,0.11933114,0.23300698,-1.3329949,0.7749893,0.11828716,0.054585543,-0.6184013,0.5848979
25904000,0.10967777,0.23339303,-1.3329949,0.7755271,0.11466254,0.057720944,-0.618125,0.5833958
25928000,0.10051197,0.2337491,-1.3329949,0.7760227,0.111215554,0.060692586,-0.6178482,0.5818871
25952000,0.09163515,0.2341061,-1.3329949,0.77648723,0.10787889,0.063574016,-0.61756617,0.5804463
25976000,0.08300919,0.23446625,-1.3329949,0.7769242,0.104638726,0.06637797,-0.6172791,0.5790892
26000000,0.074647754,0.23477852,-1.3329949,0.7773369,0.10148497,0.069080256,-0.61698943,0.5783164
26024000,0.06648542,0.23509566,-1.3329949,0.7777268,0.09840851,0.07172181,-0.61669505,0.57759583
26048000,0.05855207,0.2354147,-1.3329949,0.7780935,0.09542023,0.07429226,-0.61639774,0.5769591
26072000,0.05080128,0.23573512,-1.3329949,0.7784401,0.09250205,0.076805785,-0.61609674,0.57637286
26096000,0.043246165,0.23605847,-1.3329949,0.77876693,0.0896597,0.07925899,-0.61579317,0.57582366
26120000,0.03615736,0.23637435,-1.3329949,0.77906346,0.086995564,0.08156457,-0.61549914,0.57527673
26144000,0.029373815,0.2366943,-1.3329949,0.77933776,0.084450655,0.08377676,-0.6152091,0.5747571
26168000,0.022907408,0.23700577,-1.3329949,0.7795912,0.08202589,0.08588708,-0.614925,0.5742685
26192000,0.016665302,0.23732318,-1.3329949,0.7798278,0.07968965,0.08792983,-0.6146434,0.57384765
26216000,0.010663575,0.23764701,-1.3329949,0.78004783,0.07744846,0.08990032,-0.61436564,0.5734738
26240000,0.004878951,0.23797329,-1.3329949,0.78025305,0.0752921,0.09180423,-0.61409134,0.5731501
26264000,-0.000708419,0.23830202,-1.3329949,0.7804451,0.07321294,0.09364771,-0.6138204,0.5728514
26288000,-0.006071203,0.23861219,-1.3329949,0.78062445,0.071215235,0.095414266,-0.6135553,0.57277226
26312000,-0.011210155,0.23892806,-1.3329949,0.78079057,0.06930623,0.09711365,-0.61329573,0.57271403
26336000,-0.015935866,0.23922715,-1.3329949,0.78093886,0.06755304,0.09867911,-0.6130526,0.5726289
26360000,-0.020519152,0.23952937,-1.3329949,0.78107834,0.06585614,0.100201555,-0.6128125,0.5725483
26384000,-0.024874214,0.23985326,-1.3329949,0.7812059,0.064254746,0.10166195,-0.6125793,0.5722696
26408000,-0.02910792,0.24018261,-1.3329949,0.7813262,0.062702194,0.10308677,-0.6123487,0.57201385
26432000,-0.03317864,0.24051523,-1.3329949,0.78143823,0.061214104,0.10446246,-0.61212313,0.571785
26456000,-0.036977064,0.24084729,-1.3329949,0.7815393,0.059832055,0.10575414,-0.611909,0.57157016
26480000,-0.04063107,0.24117775,-1.3329949,0.78163373,0.05850579,0.10700056,-0.61169976,0.57134
26504000,-0.04411184,0.24151173,-1.3329949,0.7817208,0.057248168,0.10819498,-0.61149734,0.57110095
26528000,-0.047283337,0.24183571,-1.3329949,0.7817976,0.056108236,0.1092906,-0.6113099,0.5708375
26552000,-0.050264515,0.24215655,-1.3329949,0.7818677,0.05504164,0.11032652,-0.61113125,0.57057554
26576000,-0.053053983,0.2424792,-1.3329949,0.7819309,0.05405047,0.11130428,-0.6109614,0.57034236
26600000,-0.055610802,0.2427716,-1.3329949,0.7819881,0.05314087,0.11219897,-0.6108045,0.57041746
26624000,-0.057974856,0.2430663,-1.3329949,0.7820389,0.052307293,0.11303547,-0.6106571,0.57046366
26648000,-0.060212716,0.2433613,-1.3329949,0.7820856,0.051523115,0.113833375,-0.6105157,0.5705093
26672000,-0.062257737,0.24365741,-1.3329949,0.78212655,0.050814647,0.11457268,-0.6103842,0.570551
26696000,-0.06426669,0.24396338,-1.3329949,0.7821656,0.050123297,0.115304664,-0.6102535,0.57044524
26720000,-0.06600164,0.24427335,-1.3329949,0.7821971,0.04954031,0.11595445,-0.61013764,0.5703182
26744000,-0.067368455,0.24456897,-1.3329949,0.7822197,0.049096867,0.11648627,-0.6100433,0.5701394
26768000,-0.06863516,0.24486628,-1.3329949,0.78223956,0.04869309,0.11698814,-0.6099542,0.56995654
26792000,-0.069842525,0.24514984,-1.3329949,0.7822582,0.048308276,0.117466494,-0.6098688,0.56991476
26816000,-0.07077255,0.24543728,-1.3329949,0.7822699,0.048033126,0.11786174,-0.6097993,0.5698635
26840000,-0.0716578,0.24572575,-1.3329949,0.7822804,0.047775812,0.118243694,-0.6097322,0.5698002
26864000,-0.0723925,0.24601436,-1.3329949,0.7822872,0.047577426,0.11857976,-0.6096737,0.56974304
26888000,-0.072981946,0.24626985,-1.3329949,0.7822917,0.047425643,0.11885867,-0.6096254,0.57007796
26912000,-0.073445715,0.24652804,-1.3329949,0.78229314,0.047323845,0.1191003,-0.60958433,0.5703856
26936000,-0.07377138,0.24678168,-1.3329949,0.7822915,0.04727467,0.119298056,-0.6095516,0.5706303
26960000,-0.0739459,0.24703507,-1.3329949,0.78228617,0.04728454,0.11944965,-0.6095279,0.5708368
26984000,-0.074014336,0.24730667,-1.3329949,0.78227776,0.047341526,0.11957598,-0.6095096,0.57080865
27008000,-0.07394375,0.24758199,-1.3329949,0.78226584,0.047454022,0.11966137,-0.60949934,0.57074916
27032000,-0.07374705,0.24785863,-1.3329949,0.7822509,0.047616262,0.11970885,-0.60949653,0.5706784
27056000,-0.073488936,0.24813744,-1.3329949,0.7822343,0.04780317,0.11973845,-0.6094973,0.570604
27080000,-0.07318836,0.24841312,-1.3329949,0.78221685,0.04800573,0.1197539,-0.6095008,0.5705289
27104000,-0.07266811,0.24869268,-1.3329949,0.7821938,0.048295386,0.119703904,-0.60951734,0.5704278
27128000,-0.080318354,0.24897277,-1.3381267,0.78079736,0.045702696,0.12202635,-0.6110453,0.5702977
27152000,-0.085406356,0.24924286,-1.3417847,0.7797831,0.044025958,0.1236047,-0.61214525,0.5701217
27176000,-0.11065725,0.24951406,-1.3583152,0.7751956,0.035346936,0.13114022,-0.6169478,0.56992716
27200000,-0.11522372,0.24977751,-1.3618436,0.77417725,0.033893563,0.13258988,-0.6179974,0.5698271
27224000,-0.119935386,0.2500451,-1.365398,0.77314806,0.03239219,0.13409038,-0.6190417,0.5697043
27248000,-0.14422455,0.25031355,-1.3816187,0.7684452,0.024233684,0.14150871,-0.6236024,0.5695624
27272000,-0.14862058,0.25058368,-1.3851621,0.7673845,0.02288396,0.14294094,-0.624632,0.56940216
27296000,-0.15902464,0.250844,-1.3926439,0.76514804,0.019522022,0.14621459,-0.6267285,0.5693236
27320000,-0.16318658,0.2511085,-1.3961554,0.7640803,0.018273778,0.14758608,-0.6277466,0.5692122
27344000,-0.18012041,0.2513682,-1.4080796,0.76045406,0.012799352,0.15291956,-0.63100034,0.5690828
27368000,-0.1898683,0.25162727,-1.4155109,0.758156,0.009756699,0.15605453,-0.63304913,0.56892216
27392000,-0.1936064,0.25188413,-1.4190382,0.7570517,0.008700743,0.15731773,-0.6340727,0.5687322
27416000,-0.2156119,0.25214717,-1.4346805,0.75213,0.001742214,0.16437325,-0.6381841,0.5685175
27440000,-0.21897012,0.25241226,-1.4381211,0.7510303,0.000851385,0.16554067,-0.6391784,0.5683024
27464000,-0.22801562,0.25267786,-1.4454119,0.7486916,-0.001843333,0.16853487,-0.64113444,0.56807125
27488000,-0.24321349,0.25291556,-1.456955,0.74494916,-0.0064523,0.17352861,-0.64412487,0.5682089
27512000,-0.24621469,0.25315765,-1.4603962,0.74382824,-0.007189021,0.1745953,-0.6451235,0.56831753
27536000,-0.25456667,0.25340086,-1.4675834,0.7414702,-0.009576425,0.1774112,-0.6470359,0.5684081
27560000,-0.25719792,0.25363624,-1.471024,0.7403423,-0.010166124,0.17836477,-0.64805555,0.5684401
27584000,-0.27657336,0.253882,-1.4861028,0.7353154,-0.015862003,0.18484738,-0.65183663,0.56828654
27608000,-0.27878374,0.2541321,-1.4894838,0.734195,-0.016276069,0.18568444,-0.6528508,0.5681156
27632000,-0.28108132,0.25438315,-1.4928952,0.7330618,-0.016716108,0.18655223,-0.6538649,0.5679219
27656000,-0.29953536,0.2546357,-1.5077682,0.7280079,-0.021960035,0.19283536,-0.6575233,0.567726
27680000,-0.30134138,0.2548754,-1.5111084,0.72689015,-0.022212073,0.19355051,-0.6585404,0.5676758
27704000,-0.3081838,0.25512075,-1.5180862,0.72451186,-0.023931019,0.19597295,-0.660382,0.5675977
27728000,-0.30988014,0.25536793,-1.521459,0.7233787,-0.02412878,0.19666016,-0.661412,0.56749237
27752000,-0.32704964,0.25561142,-1.5361263,0.7182902,-0.028768629,0.20263188,-0.66496,0.56736517
27776000,-0.32833043,0.2558538,-1.5394497,0.7171685,-0.028806806,0.20318937,-0.6659981,0.5672292
27800000,-0.3295124,0.25606617,-1.5428025,0.7160367,-0.028815284,0.20370458,-0.6670575,0.5675117
27824000,-0.33543542,0.25628296,-1.5496815,0.7136544,-0.030152276,0.20585847,-0.6688875,0.5677717
27848000,-0.34654385,0.256502,-1.5605571,0.70983785,-0.0328985,0.20982721,-0.6715806,0.5680145
27872000,-0.35203797,0.25672287,-1.5673705,0.7074584,-0.034049176,0.2118634,-0.67339224,0.56823236
27896000,-0.35262445,0.25696468,-1.570664,0.70634276,-0.03382197,0.21219856,-0.6744686,0.5681431
27920000,-0.3531512,0.25721264,-1.5739627,0.70522475,-0.033569984,0.21251546,-0.67555034,0.5680312
27944000,-0.36822528,0.2574614,-1.588222,0.700134,-0.037243336,0.21795563,-0.6789113,0.5678969
27968000,-0.36842087,0.25770438,-1.591535,0.69900984,-0.036863998,0.21816434,-0.68002236,0.567734
27992000,-0.37318158,0.25792933,-1.5983309,0.6966121,-0.037700325,0.21998659,-0.6818476,0.56783843
28016000,-0.3731707,0.2581589,-1.601627,0.69549274,-0.037251733,0.22012061,-0.68297076,0.5679225
28040000,-0.3872833,0.25839114,-1.6157187,0.6904002,-0.040488824,0.2253018,-0.686256,0.56799793
28064000,-0.3870762,0.25862393,-1.6189772,0.6892913,-0.039966322,0.22537234,-0.68737733,0.5680417
28088000,-0.3868519,0.25886303,-1.6222401,0.6881795,-0.03943502,0.225438,-0.6884995,0.5679304
28112000,-0.39095584,0.25910714,-1.6289275,0.6857992,-0.03999985,0.22706486,-0.69030505,0.567803
28136000,-0.39979622,0.25935405,-1.6394408,0.6819899,-0.04173074,0.2304165,-0.69286114,0.5676752
28160000,-0.4035369,0.25959918,-1.6460857,0.67961365,-0.042146645,0.23193222,-0.69466287,0.5675257
28184000,-0.40280235,0.25984,-1.649364,0.67849654,-0.041429214,0.23182258,-0.69583356,0.5673793
28208000,-0.40639848,0.26008654,-1.6560067,0.67611504,-0.041784413,0.2332923,-0.6976369,0.5672082
28232000,-0.40551254,0.26033425,-1.6592375,0.67501307,-0.041017577,0.23312879,-0.69880307,0.56704134
28256000,-0.41369846,0.26058272,-1.6696584,0.6712025,-0.04245828,0.23629038,-0.7013211,0.56686103
28280000,-0.41683465,0.2608174,-1.6762278,0.668837,-0.042643994,0.23760527,-0.7031233,0.5668663
28304000,-0.41565233,0.2610561,-1.6794419,0.6677391,-0.04177905,0.23733208,-0.70430994,0.56685245
28328000,-0.4186665,0.26129544,-1.6859913,0.6653748,-0.041915648,0.23860689,-0.70610636,0.5668203
28352000,-0.41729632,0.26153547,-1.6891778,0.66428554,-0.040991142,0.2382637,-0.70730114,0.5667862
28376000,-0.42893663,0.26177135,-1.7027951,0.65922296,-0.04311727,0.24274886,-0.7103795,0.5667232
28400000,-0.42754534,0.2620058,-1.7060021,0.6581212,-0.042182475,0.24239497,-0.71157694,0.5666456
28424000,-0.4301486,0.26224497,-1.7125236,0.6557522,-0.042155772,0.2435334,-0.7133747,0.56654334
28448000,-0.4285151,0.26248527,-1.7157208,0.654654,-0.04114151,0.24309051,-0.71459264,0.56643707
28472000,-0.42689613,0.26272753,-1.7189137,0.65355426,-0.040133268,0.24265057,-0.71580505,0.56632626
28496000,-0.4292429,0.26296982,-1.7253928,0.65119463,-0.040019758,0.24369529,-0.7176047,0.56613696
28520000,-0.43608037,0.26321805,-1.7355503,0.64741546,-0.0409012,0.24643353,-0.7200353,0.56592953
28544000,-0.43812707,0.26346755,-1.7419438,0.64507914,-0.040678717,0.24737689,-0.72181904,0.56572986
28568000,-0.43623418,0.26371574,-1.7451307,0.6439763,-0.039580762,0.24683166,-0.7230506,0.5655142
28592000,-0.43837792,0.26394632,-1.751581,0.6416086,-0.039384432,0.24780399,-0.72483134,0.5655443
28615999,-0.43641746,0.2641831,-1.7547516,0.64050645,-0.038273476,0.24722517,-0.72606224,0.56556094
28639999,-0.43834606,0.26441675,-1.7611773,0.63814384,-0.03800504,0.24811825,-0.72784996,0.56555533
28664000,-0.43625784,0.2646438,-1.7643206,0.63704747,-0.036863036,0.24748385,-0.72908384,0.56553423
28688000,-0.4341227,0.2648969,-1.7674849,0.63594234,-0.035695568,0.24683721,-0.7303249,0.5653163
28712000,-0.4443152,0.2565276,-1.7807446,0.63052785,-0.0404953,0.24835554,-0.73424405,0.5347119
28736000,-0.4421038,0.24815853,-1.7838756,0.6290358,-0.042635284,0.2451522,-0.73647577,0.50374603
28760000,-0.4435503,0.23978959,-1.7901108,0.62630415,-0.045555383,0.24337113,-0.7392147,0.47520116
28784000,-0.44074625,0.23141883,-1.7930315,0.6248767,-0.04755871,0.23995127,-0.7414113,0.44916093
28807999,-0.44157988,0.22304627,-1.7990397,0.6222018,-0.050339624,0.23796003,-0.7441142,0.42535162
28831999,-0.43822786,0.2146708,-1.8017232,0.62085366,-0.05222574,0.23433346,-0.746258,0.40363872
28856000,-0.43862155,0.20629194,-1.8075488,0.6182208,-0.054918855,0.23219132,-0.7489153,0.38390958
28880000,-0.43500262,0.19790748,-1.8100972,0.6169111,-0.056765206,0.22846052,-0.75100213,0.3662896
28904000,-0.43122828,0.18951662,-1.8125916,0.6156206,-0.058582366,0.22466493,-0.7530638,0.35035574
28928000,-0.43138322,0.1811189,-1.8182524,0.61300933,-0.06126696,0.22244458,-0.755635,0.33600566
28952000,-0.42754728,0.17271392,-1.8206706,0.61173236,-0.06310272,0.21861997,-0.75763243,0.32308835
28976000,-0.4277419,0.1643013,-1.826349,0.60908014,-0.06582866,0.21642806,-0.7601624,0.31147513
28999999,-0.42408368,0.1558732,-1.8287967,0.60776895,-0.06774767,0.21266644,-0.7621025,0.30177608
29024000,-0.43267626,0.1474285,-1.8413857,0.6021387,-0.072312444,0.213943,-0.76578605,0.29310873
29048000,-0.42914516,0.13896829,-1.8438513,0.6007833,-0.07431071,0.21023849,-0.76768297,0.28538144
29072000,-0.42560884,0.1304923,-1.8463187,0.59942174,-0.076323025,0.20652558,-0.7695554,0.27847224
29096000,-0.42612192,0.12199299,-1.8520502,0.5966353,-0.0792312,0.20449522,-0.7719654,0.27303612
29120000,-0.42282638,0.11347076,-1.8545583,0.59522897,-0.08135179,0.2008675,-0.77378064,0.26822296
29144000,-0.42357782,0.104926124,-1.8603525,0.59237164,-0.0843653,0.19894026,-0.77614504,0.26395753
29167999,-0.42054927,0.096360005,-1.8629274,0.5909078,-0.08659751,0.19541202,-0.7779094,0.2601502
29191999,-0.4175329,0.087764405,-1.8655399,0.58942115,-0.088850595,0.19188172,-0.77966,0.2574578
29216000,-0.41862413,0.07914022,-1.8714612,0.58644575,-0.09201728,0.19010027,-0.7819693,0.2550772
29240000,-0.41592333,0.070489086,-1.8741183,0.5849043,-0.09440192,0.18668759,-0.78366,0.25298655
29264000,-0.41723588,0.06319973,-1.8800906,0.58196086,-0.09711916,0.18540274,-0.7858214,0.2511207
29288000,-0.41482532,0.06002753,-1.8828213,0.580768,-0.09742577,0.18368188,-0.7870691,0.2500304
29312000,-0.412496,0.057047997,-1.8855712,0.5795764,-0.09768262,0.18204877,-0.7882942,0.24907811
29336000,-0.41426462,0.054252874,-1.8916523,0.5768799,-0.098752424,0.18225013,-0.7900901,0.24823704
29359999,-0.4121512,0.05163282,-1.8944622,0.57567537,-0.09893255,0.18081006,-0.79127616,0.24401605
29383999,-0.41402906,0.04893263,-1.9006181,0.57293814,-0.099992454,0.18109594,-0.79306215,0.23965995
29408000,-0.41220355,0.04638534,-1.9035113,0.57168615,-0.100227095,0.17979757,-0.79423064,0.23569137
29432000,-0.41035914,0.043996744,-1.9064306,0.57043517,-0.10039456,0.17853798,-0.7953923,0.23213571
29456000,-0.40405396,0.041745935,-1.9055804,0.5709167,-0.09957171,0.17535289,-0.7958585,0.22890957
29480000,-0.402205,0.039480023,-1.9084942,0.5696767,-0.09969756,0.17412315,-0.7970006,0.22651441
29504000,-0.4003442,0.037349813,-1.9114218,0.56844044,-0.09976833,0.17292765,-0.79813397,0.22428757
29528000,-0.40237352,0.035337485,-1.9176748,0.56568694,-0.100610286,0.173487,-0.79986125,0.22220543
29551999,-0.40046635,0.033451848,-1.9206091,0.56446373,-0.100576095,0.17234385,-0.8009761,0.2203447
29575999,-0.3985474,0.031671826,-1.9235653,0.56323886,-0.10049784,0.17122628,-0.80208707,0.21855883
29600000,-0.4004621,0.029709978,-1.9298698,0.56045985,-0.10128618,0.17176679,-0.80381715,0.21790077
29624000,-0.3985621,0.027857887,-1.9328626,0.55920863,-0.10124606,0.17064011,-0.8049329,0.21727367
29648000,-0.3965753,0.026112305,-1.9358649,0.5579646,-0.1011415,0.16950811,-0.8060476,0.21666545
29672000,-0.39855182,0.024464518,-1.9422234,0.55517066,-0.101818696,0.170173,-0.80774975,0.21602221
29696000,-0.39660466,0.022809116,-1.9452556,0.5539147,-0.10169285,0.16908453,-0.8088557,0.21573375
29720000,-0.39465263,0.021249404,-1.9482943,0.55266213,-0.10152985,0.16802023,-0.809954,0.21542978
29743999,-0.39661577,0.019784072,-1.9546976,0.5498511,-0.10212757,0.16874067,-0.8116405,0.21507631
29767999,-0.39475042,0.018403813,-1.9577684,0.54859036,-0.101918936,0.16776295,-0.81272185,0.2146857
29792000,-0.3928315,0.016974103,-1.9608551,0.54732025,-0.101717815,0.16675013,-0.8138111,0.21466602
29816000,-0.38650757,0.015635138,-1.9601297,0.5478307,-0.10059248,0.16377471,-0.8142116,0.2145815
29840000,-0.38455516,0.014385276,-1.9632405,0.5465646,-0.10031449,0.16279513,-0.81529254,0.21441817
29864000,-0.38270816,0.013215972,-1.9663672,0.5452912,-0.100034386,0.16188043,-0.8163611,0.21413131
29888000,-0.38487107,0.01193877,-1.9728857,0.54241985,-0.10061622,0.16274515,-0.8180288,0.21436065
29912000,-0.3830812,0.010739316,-1.9760513,0.5411205,-0.100366116,0.1618478,-0.81909734,0.21441363
29935999,-0.38126692,0.009629703,-1.979215,0.5398285,-0.10007584,0.16096386,-0.820159,0.21443099
29960000,-0.38338915,0.008587067,-1.9857807,0.53694516,-0.10054568,0.16188441,-0.8218113,0.21429533
29984000,-0.38160762,0.007490208,-1.9889783,0.5356337,-0.1002613,0.16101901,-0.82287127,0.21449667
30008000,-0.37981537,0.006474586,-1.9921933,0.53432024,-0.09994224,0.16017096,-0.8239289,0.21462213
30032000,-0.37359872,0.005526455,-1.9915625,0.5348151,-0.09872167,0.15732503,-0.82430315,0.21456492
30056000,-0.37189266,0.004652463,-1.9947993,0.5334969,-0.09837271,0.15654783,-0.8253464,0.21441142
30080000,-0.3702473,0.00372974,-1.9980485,0.53216493,-0.09806186,0.15578245,-0.8263874,0.21453656
30104000,-0.36854026,0.002885308,-2.0013049,0.5308373,-0.097704485,0.15501185,-0.8274279,0.21450953
30128000,-0.37083003,0.002113097,-2.0079784,0.527902,-0.098111406,0.15608254,-0.82905483,0.21443075
30152000,-0.3691322,0.00140316,-2.0112538,0.5265715,-0.09770333,0.15535158,-0.8300857,0.21423568
30176000,-0.3589307,0.000760878,-2.0072358,0.528683,-0.0955861,0.15075459,-0.82983774,0.21396078
30200000,-0.361291,-1.38E-05,-2.0139508,0.5257224,-0.09602202,0.15185237,-0.8314665,0.21417417
30224000,-0.35968176,-0.000728747,-2.0172563,0.5243703,-0.09564657,0.15115361,-0.8324903,0.21426679
30248000,-0.35797846,-0.00138372,-2.0205693,0.5230222,-0.09522354,0.15043072,-0.83351725,0.21424241
30272000,-0.35635066,-0.001977944,-2.0238955,0.52166754,-0.09479653,0.14975466,-0.8345359,0.21410444
30296000,-0.358689,-0.002633014,-2.0306542,0.51868385,-0.09517025,0.1508818,-0.83614844,0.21427993
30320000,-0.34845218,-0.003220753,-2.026658,0.520792,-0.09305249,0.14626177,-0.8358974,0.21440046
30344000,-0.34685886,-0.003758307,-2.0300026,0.51942754,-0.09261881,0.14561075,-0.8369075,0.21438006
30368000,-0.3451652,-0.004233488,-2.0333467,0.5180706,-0.0921355,0.14493267,-0.8379191,0.21429752
30392000,-0.34760895,-0.004721684,-2.0401478,0.51506954,-0.09247639,0.14614512,-0.8395195,0.21428049
30416000,-0.34607905,-0.005156474,-2.0435233,0.5136901,-0.09201928,0.14554626,-0.8405185,0.21418777
30440000,-0.33572757,-0.005530975,-2.0395346,0.51580936,-0.089798,0.1409188,-0.84024936,0.21406372
30464000,-0.3341763,-0.005861941,-2.0429177,0.5144328,-0.08929962,0.14033279,-0.8412438,0.21380898
30488000,-0.33674565,-0.006192954,-2.0497627,0.5114122,-0.08961532,0.14163569,-0.8428321,0.2136615
30512000,-0.33531317,-0.006475294,-2.0531592,0.5100236,-0.089128405,0.14111121,-0.8438126,0.21341196
30536000,-0.3337512,-0.006720809,-2.056558,0.5086405,-0.08859489,0.1405402,-0.84479827,0.21308783
30560000,-0.32331368,-0.006909814,-2.0525699,0.51076776,-0.08629026,0.1359095,-0.84451103,0.21277556
30584000,-0.3258956,-0.007052098,-2.059442,0.5077417,-0.086538464,0.13726139,-0.84609026,0.21231198
30608000,-0.32438308,-0.007155635,-2.0628605,0.5063527,-0.085964635,0.13674228,-0.8470647,0.21181178
30632000,-0.3229237,-0.007222832,-2.0662875,0.5049582,-0.08539022,0.13625361,-0.8480334,0.21126114
30656000,-0.31251746,-0.007247682,-2.0623095,0.5070811,-0.083034314,0.1316682,-0.847725,0.21073014
30680000,-0.31522062,-0.007312607,-2.0692112,0.50403625,-0.08328834,0.13308555,-0.8492931,0.21027154
30704000,-0.31378132,-0.007342977,-2.072648,0.50263363,-0.082710706,0.13260895,-0.8502548,0.20976043
30728000,-0.312291,-0.007333878,-2.076088,0.50123245,-0.082105175,0.13211906,-0.8512164,0.20929559
30752000,-0.3018711,-0.007293597,-2.0721068,0.50335073,-0.079729535,0.12753417,-0.85089135,0.20880008
30776000,-0.30455914,-0.00723081,-2.079032,0.5002986,-0.079933204,0.12897103,-0.85245436,0.20822811
30800000,-0.30311793,-0.00716834,-2.0824838,0.49888808,-0.07932439,0.12850949,-0.853407,0.2077625
30824000,-0.3016843,-0.007078859,-2.085944,0.49747336,-0.078707166,0.12805644,-0.85435766,0.20726664
30848000,-0.29123753,-0.006970235,-2.0819623,0.4995857,-0.07630713,0.12346749,-0.8540182,0.2067198
30872000,-0.2898601,-0.00682844,-2.0854254,0.49816746,-0.075689584,0.12304601,-0.85496193,0.20620386
30896000,-0.2927405,-0.006704613,-2.092381,0.49509013,-0.0759213,0.12457287,-0.8565065,0.20579912
30920000,-0.28228223,-0.00655707,-2.0883987,0.49719515,-0.073507234,0.1199829,-0.8561529,0.20535718
30944000,-0.28095508,-0.006388188,-2.0918717,0.49576658,-0.07289747,0.11958357,-0.85708886,0.20491283
30968000,-0.2795996,-0.006207252,-2.095349,0.4943358,-0.07227685,0.11917344,-0.8580244,0.20439142
30992000,-0.27820465,-0.006089478,-2.0988307,0.49289876,-0.07167497,0.11872908,-0.8589628,0.20415904
31016000,-0.27200577,-0.005950612,-2.0983434,0.49333617,-0.070115566,0.11608339,-0.8592019,0.20390229
31040000,-0.27067068,-0.005792053,-2.1018324,0.49189252,-0.06951646,0.11567044,-0.8601336,0.20365264
31064000,-0.26940864,-0.005614818,-2.105324,0.49044424,-0.06892868,0.11529182,-0.8610582,0.20336196
31088000,-0.2588811,-0.005429661,-2.1013367,0.4925276,-0.06648718,0.110670984,-0.86066717,0.20311196
31112000,-0.25761506,-0.005228218,-2.1048312,0.4910763,-0.06589613,0.11029114,-0.8615902,0.20284896
31136000,-0.2607857,-0.005009821,-2.111835,0.48796403,-0.06618892,0.11194303,-0.8631215,0.20256871
31160000,-0.25039572,-0.004775567,-2.107846,0.49003583,-0.063766256,0.10738792,-0.86270875,0.20227331
31184000,-0.24922073,-0.004658817,-2.1113489,0.48856777,-0.06324066,0.10702063,-0.8636253,0.20229572
31208000,-0.24806592,-0.00451652,-2.114855,0.4870971,-0.06271022,0.106666856,-0.8645381,0.2023223
31232000,-0.23764147,-0.004359083,-2.1108625,0.48915154,-0.060306333,0.10207748,-0.864103,0.20234495
31256000,-0.24102896,-0.004184366,-2.1178844,0.48602167,-0.06069524,0.10379739,-0.8656356,0.20235384
31280000,-0.23991923,-0.003905668,-2.1213982,0.4845483,-0.060123228,0.10349066,-0.8665378,0.20210722
31304000,-0.22948162,-0.003617015,-2.1174035,0.4866009,-0.057666246,0.09892203,-0.8660881,0.20186548
31328000,-0.22852203,-0.003316123,-2.1209197,0.4851201,-0.057129093,0.098680325,-0.8669815,0.20164546
31352000,-0.22763102,-0.003005407,-2.124439,0.4836346,-0.056605108,0.09846925,-0.8678693,0.20141214
31376000,-0.21715872,-0.002685336,-2.1204405,0.48567474,-0.054120842,0.0938931,-0.8673956,0.20116864
31400000,-0.22073317,-0.002468972,-2.1274834,0.48253083,-0.05455834,0.09568846,-0.8689253,0.2012787
31424000,-0.21993533,-0.002238811,-2.1310086,0.48103124,-0.054097615,0.09549287,-0.8698066,0.20136504
31448000,-0.20963639,-0.001995233,-2.1270075,0.4830548,-0.051695973,0.090968,-0.8693161,0.20144154
31472000,-0.20891064,-0.001740062,-2.1305337,0.4815517,-0.051249757,0.09080469,-0.87019306,0.20150368
31496000,-0.20817272,-0.001437431,-2.1340637,0.4800477,-0.050780505,0.09064628,-0.87106764,0.20147038
31520000,-0.19793005,-0.001126318,-2.130059,0.48205906,-0.048358425,0.08616215,-0.87054956,0.2014581
31544000,-0.1973227,-0.000807135,-2.133591,0.4805494,-0.0479212,0.086059496,-0.8714182,0.20144764
31568000,-0.19164346,-0.000481379,-2.133113,0.4809055,-0.046434462,0.08365187,-0.8715367,0.20143767
31592000,-0.19112757,-0.000207573,-2.1366477,0.47938782,-0.046043456,0.0835744,-0.8724005,0.20158699
31616000,-0.19064309,7.59E-05,-2.1401842,0.47786736,-0.045656074,0.08351188,-0.87326056,0.20175084
31640000,-0.18052295,0.000368096,-2.1361737,0.47985476,-0.043268472,0.079075314,-0.8727052,0.20189166
31664000,-0.18007722,0.000667562,-2.1397104,0.47833213,-0.042891167,0.079028636,-0.87356347,0.20202887
31688000,-0.16996546,0.000996478,-2.135698,0.48030743,-0.040478267,0.074608654,-0.8729833,0.20209779
31712000,-0.16956365,0.001331502,-2.139236,0.4787829,-0.040103648,0.07458476,-0.8738397,0.2021814
31736000,-0.17385237,0.001672098,-2.1463118,0.47561476,-0.0407104,0.07668443,-0.87535864,0.20227392
31760000,-0.16379713,0.002018023,-2.142299,0.4775819,-0.038312316,0.07228805,-0.87476975,0.2023502
31784000,-0.16352671,0.002415078,-2.1458426,0.4760505,-0.03794596,0.07233191,-0.87561643,0.20231321
31808000,-0.15351559,0.002816179,-2.1418266,0.47800586,-0.035523463,0.067972355,-0.8750019,0.20230126
31832000,-0.15340042,0.003219207,-2.1453702,0.4764702,-0.035199013,0.06808072,-0.87584364,0.20229171
31856000,-0.14346224,0.00362366,-2.141352,0.47841117,-0.032781925,0.063758366,-0.87520444,0.20229816
31880000,-0.14353803,0.003892863,-2.1448965,0.47686645,-0.03256901,0.06391372,-0.8760438,0.20271373
31904000,-0.14358856,0.00416699,-2.1484435,0.4753197,-0.03234741,0.06405865,-0.87688154,0.20312221
31928000,-0.13853444,0.00444716,-2.1479652,0.4756181,-0.03103807,0.061901648,-0.8769221,0.20353478
31952000,-0.13867821,0.004734405,-2.1515155,0.47406703,-0.03083613,0.06208779,-0.8777555,0.20395854
31976000,-0.1289386,0.005028992,-2.1474946,0.47598407,-0.028514119,0.057825174,-0.8770875,0.20438792
32000000,-0.12925598,0.005326493,-2.1510448,0.4744301,-0.028356101,0.05808555,-0.877917,0.20483114
32024000,-0.11963473,0.005629134,-2.1470208,0.47633478,-0.026049025,0.053881027,-0.87722486,0.20525143
32048000,-0.1200754,0.00593604,-2.1505704,0.47477925,-0.025923198,0.05419345,-0.87805223,0.20567401
32072000,-0.12055134,0.006249355,-2.154118,0.4732229,-0.02580193,0.054522578,-0.8788752,0.20605372
32096000,-0.11107287,0.006588087,-2.15009,0.47511753,-0.023511546,0.050389647,-0.8781637,0.20639163
32120000,-0.11159373,0.006929933,-2.15364,0.47356004,-0.023395125,0.050741106,-0.87898743,0.2067306
32144000,-0.102224834,0.007274946,-2.1496136,0.47544095,-0.021118794,0.04666223,-0.8782554,0.20706566
32168000,-0.10763478,0.007622624,-2.1567135,0.47226974,-0.022077572,0.049198974,-0.879803,0.20740025
32192000,-0.09830473,0.008021879,-2.152684,0.47414792,-0.01978948,0.045148607,-0.87906414,0.20757514
32216000,-0.099038966,0.00842196,-2.1562378,0.47258618,-0.019706663,0.04560119,-0.8798832,0.20778838
32240000,-0.08977312,0.008821708,-2.1522064,0.47445294,-0.017424917,0.04158365,-0.8791254,0.20799011
32264000,-0.09068215,0.009222159,-2.1557581,0.47289068,-0.017389752,0.042109095,-0.8799426,0.20820783
32288000,-0.08162549,0.009562272,-2.1517248,0.4747442,-0.01517549,0.038173858,-0.8791646,0.20860639
32312000,-0.08265609,0.00990478,-2.155279,0.47317913,-0.015200723,0.038735196,-0.87998295,0.20902377
32336000,-0.07369331,0.010250157,-2.1512477,0.47502074,-0.01299832,0.03484681,-0.87918824,0.20943794
32360000,-0.07481421,0.010598494,-2.1548018,0.4734556,-0.013048418,0.03544546,-0.8800074,0.20986022
32384000,-0.06598422,0.010867961,-2.1507688,0.47528607,-0.010903131,0.031601734,-0.8791959,0.21053378
32408000,-0.067180306,0.011142828,-2.154323,0.47372,-0.011009291,0.032212418,-0.8800174,0.21119712
32432000,-0.068522155,0.011423716,-2.1578763,0.4721522,-0.011145093,0.032889172,-0.88083273,0.21182628
32456000,-0.05978503,0.011710117,-2.15384,0.4739767,-0.009014914,0.029090337,-0.8800105,0.21246551
32480000,-0.06596937,0.01204664,-2.160943,0.47082302,-0.010219073,0.031927526,-0.8815906,0.21296023
32504000,-0.057459153,0.012387968,-2.1569037,0.47264585,-0.008122128,0.02823994,-0.88076246,0.21345733
32528000,-0.059033122,0.012732796,-2.1604557,0.47107837,-0.008290665,0.02902928,-0.8815746,0.21394718
32552000,-0.050611027,0.013081917,-2.1564195,0.47289082,-0.006204175,0.025386399,-0.8807333,0.21445073
32576000,-0.05234346,0.013433001,-2.159977,0.47132146,-0.006412497,0.026243703,-0.88154763,0.21497051
32600000,-0.043960493,0.01368111,-2.15594,0.4731248,-0.004373144,0.022598147,-0.8806946,0.21579729
32624000,-0.045763306,0.01393342,-2.1594963,0.47155613,-0.004646792,0.023459956,-0.8815117,0.21662402
32648000,-0.03743923,0.014189511,-2.1554573,0.47335255,-0.002611307,0.019845996,-0.8806456,0.21743435
32672000,-0.039396636,0.014450264,-2.159009,0.47178698,-0.002922858,0.020774782,-0.881463,0.21822177
32696000,-0.031257723,0.014783573,-2.1549695,0.47357622,-0.000890864,0.017264374,-0.88058317,0.21878517
32720000,-0.03325158,0.015119525,-2.1585197,0.4720131,-0.001182703,0.018223885,-0.8814024,0.21934955
32744000,-0.025179533,0.015458977,-2.1544802,0.47379464,0.000842194,0.0147482,-0.88051146,0.21990679
32768000,-0.027327744,0.015800824,-2.1580324,0.47223213,0.00051182,0.01577402,-0.88133293,0.220456
32792000,-0.019423958,0.016135225,-2.1539955,0.4740053,0.00250043,0.012374979,-0.88043153,0.22105877
32816000,-0.021754699,0.016470179,-2.1575515,0.4724427,0.002119464,0.013476612,-0.88125575,0.22166541
32840000,-0.014026782,0.01680652,-2.1535144,0.4742094,0.004072662,0.010159057,-0.88034403,0.2222587
32864000,-0.006353508,0.017143585,-2.1494768,0.47596642,0.006026508,0.006873518,-0.8794159,0.22285955
32888000,-0.008866181,0.017512135,-2.1530268,0.47441185,0.0056049,0.008056117,-0.8802483,0.22336544
32912000,-0.001369521,0.017878655,-2.1489887,0.4761632,0.007534633,0.004858764,-0.8793112,0.2238744
32936000,-0.004075577,0.018245846,-2.152541,0.47461,0.00706269,0.006123375,-0.88014656,0.2243867
32960000,-0.001377761,0.018613452,-2.1520555,0.47481295,0.007863446,0.005025272,-0.88003725,0.22489876
32984000,-0.004097154,0.018990748,-2.155608,0.47325885,0.007395055,0.006298293,-0.8808699,0.22538018
33008000,0.003215011,0.019368412,-2.151569,0.47500548,0.009285195,0.003185849,-0.879928,0.22586133
33032000,0.000273289,0.019747533,-2.155121,0.47345418,0.008761421,0.004554589,-0.8807631,0.2263399
33056000,0.007437502,0.020126997,-2.1510816,0.4751962,0.010621399,0.00151087,-0.8798144,0.22682244
33080000,0.004483101,0.020486096,-2.154631,0.4736481,0.010082516,0.002877972,-0.8806518,0.2273672
