timestamp,control[0],control[1],control[2],control[3],control[4],output[2],output[3],output[4],output[5],output[6],output[7],indicated_airspeed_m_s,true_airspeed_m_s,indicated_airspeed_m_s.1,equivalent_airspeed_m_s,true_airspeed_m_s.1,equivalent_ground_minus_wind_m_s,true_ground_minus_wind_m_s,differential_pressure_raw_pa,differential_pressure_filtered_pa,temperature,gyro_bias[0],gyro_bias[1],gyro_bias[2],accel_bias[0],accel_bias[1],accel_bias[2],instance_count,seq_reached,seq_current,seq_total,item_changed_index,item_do_jump_remaining,valid,warning,finished,failure,stay_in_failsafe,flight_termination,item_do_jump_changed,execution_mode,nav_roll,nav_pitch,nav_bearing,target_bearing,xtrack_error,wp_dist,acceptance_radius,rollspeed_integ,pitchspeed_integ,yawspeed_integ,additional_integ1,x,y,z,temperature.1,pressure,temperature.2,gyro_rad[0],gyro_rad[1],gyro_rad[2],accelerometer_m_s2[0],accelerometer_m_s2[1],accelerometer_m_s2[2],x.1,y.1,z.1,altitude_sp,altitude_filtered,height_rate_setpoint,height_rate,airspeed_sp,airspeed_filtered,airspeed_derivative_sp,airspeed_derivative,throttle_integ,pitch_integ,baro_alt_meter,baro_temp_celcius,baro_pressure_pa,rho,xyz[0],xyz[1],xyz[2],xyz[0].1,xyz[1].1,xyz[2].1,roll_body,pitch_body,yaw_body,yaw_sp_move_rate,q_d[0],q_d[1],q_d[2],q_d[3],thrust_body[0],lat,lon,alt,vel_m_s,vel_n_m_s,vel_e_m_s,vel_d_m_s,cog_rad,ref_lat,ref_lon,x.2,y.2,z.2,vx,vy,vz,ax,ay,az,yaw,dist_bottom,roll,pitch,yaw.1,thrust_body[0].1,isTakeoff,isClimbing,isDescending,isCruise,isLand,Unnamed: 127,Unnamed: 128,Unnamed: 129,Unnamed: 130,Unnamed: 131
188004964,-0.005104829,0.211311818,-0.08059846400000001,0.0,1.0,1457.0,2000.0,1000.0,1501.0,1498.0,1614.457291,12.01308389,12.27731146,12.13425789,12.0588012,12.32401756,11.93345674,12.19591718,89.72224216,89.72224216,12.08152892,-0.000567155,-0.005995193,0.000124582,-0.264582158,0.219179145,-0.029226234,3.0,12.14342869,13.14342869,15,0,0,1,0,0.0,0,0,0,0,0,-0.017799967,0.058478117999999996,-1.58922172,-1.574787037,0.515929375,351.6540253,35.05115844,-0.006759413000000001,0.195495107,-0.049579404,0.0,-0.8906658000000002,0.17130114100000002,-8.139328689,-2.46e+27,960.439608,12.08187479,-0.01876463,-0.118430229,-0.004269973,-0.9281253509999999,0.27547273899999997,-8.205388069,-0.027166278,-0.147687844,-0.0019502570000000002,49.932407,49.78159684,0.007540547,-0.032123251,10.22015163,12.66059563,-0.048808887999999995,-0.095041091,-0.33390969,129.09442099999998,449.33407919999996,12.08194082,96043.08482999999,1.14115074,0.27078539,0.35108685,-0.294540362,-0.029967636000000002,-0.141210436,-0.00368519,-0.017909567,0.05628579,-1.5892956980000001,0,0.700410265,0.013809201,0.02609939,-0.7131290370000001,0.0,398688604.6,327345703.8,449815.896,12.34241848,0.02,-12.32611522,0.21497498199999998,4.7143087,39.8714138,32.7368418,-283.9304633,-195.92599669999998,-49.66680575,-0.00376502,-12.1714395,0.477268067,-0.099576168,0.890219467,1.739493055,-1.562762793,49.90432575,-0.011046396000000002,0.036948227,-0.008053973,0.0,0,0,0,0,1,,,,,
188043402,-0.004885534,0.22223195699999998,-0.081084377,0.0,1.0,1457.0,2000.0,1000.0,1501.0,1498.0,1616.0,11.81029004,12.07005767,12.119689900000001,12.04422146,12.3091085,11.91321161,12.17521817,89.47723404,89.47723404,12.08154883,-0.000567325,-0.00599523,0.000124338,-0.264582047,0.21917503300000002,-0.0292698,3.0,12.14682937,13.14682937,15,0,0,1,0,0.0,0,0,0,0,0,-0.017497798999999998,0.056786453,-1.58931531,-1.574788509,0.517702226,351.15396699999997,34.95227216,-0.0067406,0.195940767,-0.049573199000000005,0.0,-0.8909222370000001,0.192004803,-8.13584366,-1.76e+27,960.4410237,12.08200438,-0.02135428,-0.11101455800000001,-0.01422614,-0.850448623,0.254479501,-8.246129066,-0.026311234,-0.14074969,-0.004151612,49.932407,49.77973755,0.007633526999999999,-0.031925171,10.22015103,12.65546595,-0.048706306,-0.094222569,-0.33409619100000004,129.2081179,449.1557345,12.08208255,96045.12095,1.141174951,0.574327425,0.32268842600000003,0.20846563199999998,-0.02725874,-0.144477355,-0.00148107,-0.017565122,0.051842055,-1.589399896,0,0.700398947,0.012345811000000002,0.024420439,-0.713226618,0.0,398688604.8,327345644.3,449807.2771,12.29230846,0.02,-12.2740008,0.261076199,4.7143087,39.8714138,32.7368418,-283.9302874,-196.41489430000001,-49.64468888,-0.007910155,-12.13580316,0.546150068,-0.113723987,0.85149819,1.728039275,-1.5629600259999998,49.88220945,-0.009025166,0.040916816,-0.009037532,0.0,0,0,0,0,1,,,,,
188082438,-0.0030997940000000003,0.228027515,-0.08133899900000001,0.0,1.0,1457.0,2000.0,1000.0,1500.29906,1498.70094,1615.70094,11.79563252,12.05502663,12.10512192,12.02964172,12.29419945,11.89296648,12.15451917,89.23222592,89.23222592,12.08156875,-0.000567496,-0.005995268000000001,0.000124095,-0.264581936,0.219170922,-0.029313367000000003,3.0,12.15023005,13.15023005,15,0,0,1,0,0.0,0,0,0,0,0,-0.017195632,0.055094789000000005,-1.5894089,-1.574789982,0.5194750770000001,350.6539086,34.85338587,-0.006724611,0.19639704,-0.049568593,0.0,-0.8975842470000001,0.232608602,-8.185366346,-7.57e+26,960.4452311000001,12.08214163,-0.015640455,-0.10418603900000001,-0.012794848999999999,-0.9155785590000001,0.252943291,-8.345577437000001,-0.026483227999999998,-0.132733825,-0.00757355,49.932407,49.77838672,0.007701065,-0.031364034,10.22014193,12.65424415,-0.04868205,-0.094276459,-0.334282216,129.3221314,449.18115,12.08223856,96044.8407,1.141171607,-0.251879484,0.331830428,-0.496924976,-0.027066133,-0.14257309699999998,-0.002294232,-0.017259038,0.047687103,-1.589502299,0,0.700384023,0.010971781000000002,0.022856276000000002,-0.713315743,0.0,398688605.0,327345584.7,449796.5673,12.24407078,0.020624125,-12.22469491,0.311858352,4.714352273,39.8714138,32.7368418,-283.9302261,-196.89051809999998,-49.62087113,-0.011815533000000001,-12.10275005,0.612798656,-0.128411085,0.82552103,1.6940784340000001,-1.563205565,49.85839251,-0.007493181999999999,0.045551127000000004,-0.009659664,0.0,0,0,0,0,1,,,,,
188123175,-0.003538603,0.22949573399999998,-0.084866959,0.0,1.0,1457.0,2000.0,1000.0,1500.0,1499.0,1616.0,11.65962807,11.91599151,12.09055394,12.01506199,12.27929039,11.87272134,12.13382017,88.9872178,88.9872178,12.08158866,-0.000567666,-0.005995305,0.000123851,-0.264581825,0.21916681,-0.029356933999999998,3.0,12.15363073,13.15363073,15,0,0,1,0,0.0,0,0,0,0,0,-0.016893464,0.053403124,-1.589502489,-1.574791455,0.521247928,350.1538503,34.75449959,-0.006708245,0.19683983300000002,-0.049550524000000006,0.0,-0.8904988220000001,0.262369935,-8.221351002999999,-2.48e+26,960.4477376,12.08228805,-0.015530881000000002,-0.10150134,-0.023205025,-0.835625499,0.258265007,-8.410443902,-0.025235676000000002,-0.125463797,-0.01019605,49.932407,49.77705802,0.007767497,-0.030787095,10.22013246,12.65319243,-0.048661202,-0.09436832,-0.33446822,129.4361587,449.1541508,12.08239434,96045.14147999999,1.14117519,-0.293878602,0.31705874300000003,-0.34841266,-0.029303287,-0.144918548,-0.004137737,-0.017033923,0.044017188,-1.589602996,0,0.700365127,0.009742242,0.021490817000000002,-0.71339442,0.0,398688605.0,327345525.0,449774.5189,12.20598697,0.024632927000000002,-12.19061989,0.38802559,4.714632148,39.8714138,32.7368418,-283.93026569999995,-197.37509680000002,-49.59486276,-0.015961146000000002,-12.070332,0.680310759,-0.139702759,0.792086308,1.661223216,-1.563505788,49.83238476,-0.00572918,0.045624127,-0.010342212,0.0,0,0,0,0,1,,,,,
188163912,-0.0032155070000000003,0.232268316,-0.085347176,0.0,1.0,1456.1408279999998,2000.0,1000.0,1499.8591720000002,1499.1408279999998,1622.718344,11.7865129,12.04571686,12.07598595,12.00048225,12.26438133,11.85247621,12.11312117,88.74220968,88.74220968,12.08160858,-0.000567837,-0.005995342,0.000123607,-0.26458171399999997,0.219162699,-0.029400501000000002,3.0,12.15703141,13.15703141,15,0,0,1,0,0.0,0,0,0,0,0,-0.016591296999999998,0.05171146,-1.589596079,-1.5747929269999998,0.523020779,349.653792,34.6556133,-0.006693355,0.19728585199999998,-0.049527412,0.0,-0.841461901,0.259044535,-8.216023176,-1.25e+27,960.4450539,12.08246247,-0.009006267,-0.109240509,-0.018618799,-0.8648438909999999,0.243529009,-8.346353551,-0.019656257,-0.120469757,-0.010378993000000001,49.932407,49.77572932,0.007833928,-0.030210156000000002,10.22012299,12.65214071,-0.048640355,-0.09446018099999999,-0.334654224,129.550186,449.20643839999997,12.08259127,96044.55057,1.1411681340000002,0.11363136,0.08602916,-0.094849299,-0.021790991000000003,-0.128776807,-0.0055294359999999996,-0.016635779,0.048050037999999996,-1.589666546,0,0.700320037,0.011321407,0.022760095,-0.713376204,0.0,398688605.0,327345465.2,449752.4705,12.16790315,0.028641727999999998,-12.15654488,0.46419282700000003,4.714912022,39.8714138,32.7368418,-283.93061289999997,-197.887002,-49.56216952,-0.020839859,-12.03985191,0.750457952,-0.140632998,0.73589419,1.6317419080000002,-1.5639728869999998,49.79969152,-0.0040115490000000005,0.047127344,-0.011075083000000001,0.0,0,0,0,0,1,,,,,
188205298,-0.002036803,0.23205016399999998,-0.08487727800000001,0.0,1.0,1456.0,2000.0,1000.0,1500.0,1499.0,1624.438288,11.76428363,12.02300685,12.06141797,11.98590252,12.24947227,11.83223108,12.09242217,88.49720156,88.49720156,12.08162849,-0.0005680069999999999,-0.00599538,0.000123364,-0.264581603,0.21915858800000002,-0.029444067999999997,3.0,12.16043209,13.16043209,15,0,0,1,0,0.0,0,0,0,0,0,-0.016289129,0.050019795,-1.589689669,-1.5747944,0.52479363,349.1537336,34.55672702,-0.006682785,0.197743621,-0.04949844900000001,0.0,-0.7924249809999999,0.25571913399999996,-8.210695349,-2.26e+27,960.4423701999999,12.08263689,-0.013975005,-0.106008937,-0.015949775,-0.85107684,0.19274174100000002,-8.406224969,-0.014076838999999999,-0.11547571699999999,-0.010561936999999999,49.932407,49.77440062,0.007900359000000001,-0.029633217000000003,10.22011352,12.65108899,-0.048619507,-0.09455204199999999,-0.334840228,129.6642133,449.11094929999996,12.08279917,96045.66001,1.141181258,-0.6745810320000001,0.165619569,0.355995433,-0.023796667999999997,-0.12445,-0.0031901259999999997,-0.016352612,0.047669635999999994,-1.5897628369999999,0,0.700286174,0.011285906000000002,0.022525406,-0.713417486,0.0,398688605.0,327345405.5,449730.4221,12.12981933,0.03265053,-12.12246986,0.540360065,4.7151918969999995,39.8714138,32.7368418,-283.93096010000005,-198.3989072,-49.52947628,-0.025718571000000003,-12.00937183,0.8206051459999999,-0.141563238,0.6797020709999999,1.602260599,-1.564439985,49.76699828,-0.002220407,0.058887917000000005,-0.011636436000000002,0.0,0,0,0,0,1,,,,,
188246772,-0.000999618,0.232750126,-0.085533971,0.0,1.0,1457.0,2000.0,1000.0,1500.0,1499.0,1625.0,11.66073997,11.91713275,12.04684999,11.97132278,12.23456321,11.81198594,12.07172317,88.25219343,88.25219343,12.081648399999999,-0.000568178,-0.005995416999999999,0.00012312,-0.264581492,0.21915447600000001,-0.029487634,3.0,12.16383277,13.16383277,15,0,0,1,0,0.0,0,0,0,0,0,-0.015986961,0.04832813,-1.589783259,-1.574795873,0.526566481,348.6536753,34.45784074,-0.006667055,0.198245648,-0.049468977000000004,0.0,-0.822933565,0.22209573100000002,-8.271522044,-2.46e+27,960.4530764000001,12.08284133,-0.016050329,-0.099214654,-0.021860701,-0.829392865,0.267090999,-8.51921872,-0.016318144,-0.113173323,-0.012264763,49.932407,49.77307192,0.00796679,-0.029056277999999998,10.22010406,12.65003727,-0.048598659,-0.094643903,-0.335026232,129.7782406,449.0278051,12.08303022,96046.58531000001,1.141192319,-0.204149367,0.257520767,-0.48403050200000003,-0.019096542,-0.118855505,-0.010500094,-0.015976797,0.044721218,-1.58985681,0,0.700265864,0.010366354,0.021358872,-0.7134870640000001,0.0,398688605.0,327345345.8,449708.3737,12.09173551,0.036659332,-12.08839485,0.616527302,4.715471771,39.8714138,32.7368418,-283.9314868,-198.87740280000003,-49.49369754,-0.030283683,-11.98349469,0.8819188020000001,-0.13819574199999998,0.63696672,1.560250933,-1.564998895,49.73121954,-0.000577164,0.073637702,-0.012124616000000001,0.0,0,0,0,0,1,,,,,
188292246,-0.00039851599999999996,0.24504546100000002,-0.085668108,0.0,1.0,1456.0,2000.0,1000.0,1500.596519,1498.403481,1625.596519,11.7089337,11.96627949,12.03191955,11.95638535,12.21928666,11.79219821,12.05148973,88.00866529,88.00866529,12.08171253,-0.000568382,-0.00599545,0.000122941,-0.264581496,0.21914901399999998,-0.029529696,3.0,12.16723345,13.16723345,15,0,0,1,0,0.0,0,0,0,0,0,-0.015684794,0.046636465999999994,-1.589876848,-1.574797345,0.528339332,348.1536169,34.35895445,-0.0066481809999999995,0.19878933699999998,-0.049430945999999996,0.0,-0.8734870309999999,0.18083745399999998,-8.349019191,-2.46e+27,960.4671567,12.08305333,-0.009887053,-0.09800875,-0.017877632,-0.833428655,0.212572562,-8.554731146,-0.020530213000000002,-0.11154920300000001,-0.014350588999999999,49.932407,49.77145928,0.008047429,-0.027631087999999998,10.22011181,12.64513153,-0.048500388,-0.094636482,-0.335231276,129.90481090000003,448.9708694,12.08325973,96047.25593,1.141200238,0.49313384899999996,-0.046373656,0.20935676600000003,-0.020057141,-0.11310372,-0.011203200000000002,-0.015648563,0.041463953,-1.589949658,0,0.7002464890000001,0.009319786,0.020101251,-0.7135570640000001,0.0,398688605.0,327345286.6,449684.5881,12.0553221,0.0389978,-12.05565613,0.6893538709999999,4.715623374,39.8714138,32.7368418,-283.9320586,-199.3474794,-49.45714129,-0.034769769,-11.95877746,0.941006472,-0.133745248,0.597622376,1.5150842130000002,-1.565580941,49.69466329,0.000628662,0.076278044,-0.01218018,0.0,0,0,0,0,1,,,,,
188330860,-0.000612468,0.249567592,-0.086247815,0.0,1.0,1457.0,2000.0,1000.0,1501.0,1498.0,1626.702541,11.65233949,11.90848418,12.01517686,11.93965943,12.20217261,11.77469747,12.03358413,87.77253702,87.77253702,12.08199774,-0.000568752,-0.005995465,0.000123084,-0.264582069,0.21913680100000002,-0.029564233999999998,3.0,12.17063413,13.17063413,15,0,0,1,0,0.0,0,0,0,0,0,-0.015382626000000002,0.044944801,-1.5899704380000002,-1.574798818,0.530112183,347.6535586,34.26006817,-0.006632621,0.19925492600000003,-0.049396477,0.0,-0.889782898,0.159470757,-8.391013252,-2.46e+27,960.4750682,12.08330458,-0.006617493,-0.09501550800000001,-0.02293698,-0.786673947,0.12808436,-8.478495573,-0.021813864,-0.110620908,-0.016763505,49.932407,49.76984493,0.008128153,-0.026200814,10.22011967,12.64020269,-0.048401652999999996,-0.094628467,-0.335436435,130.0314564,449.0053193,12.08352433,96046.87793999999,1.141195725,-0.43282899399999997,-0.536930522,-0.564641725,-0.023667255,-0.105137639,-0.017465695,-0.015340123,0.039394862,-1.5900366869999998,0,0.7002227790000001,0.008690174,0.019266606000000002,-0.713610923,0.0,398688605.0,327345230.3,449652.1168,12.02726069,0.032984597000000004,-12.02959892,0.745477095,4.7151336189999995,39.8714138,32.7368418,-283.9326878,-199.8304925,-49.41739749,-0.039623486,-11.93484241,1.000550657,-0.134253428,0.566270799,1.475289871,-1.566204537,49.65491949,0.002189441,0.077872455,-0.011757948,0.0,0,0,0,0,1,,,,,
188371597,-0.00036879,0.25007844100000004,-0.085578993,0.0,1.0,1456.0,2000.0,1000.0,1500.0,1499.0,1633.0,11.63720026,11.89304275,11.99843417,11.92293351,12.18505857,11.75719672,12.01567853,87.53640876,87.53640876,12.08228295,-0.000569121,-0.00599548,0.000123227,-0.264582642,0.219124588,-0.029598772000000002,3.0,12.17403481,13.17403481,15,0,0,1,0,0.0,0,0,0,0,0,-0.014935933,0.043401339000000004,-1.589927974,-1.5747969519999998,0.527400674,347.15500039999995,34.16888017,-0.006615721999999999,0.199797169,-0.049353673,0.0,-0.842635221,0.17494237699999998,-8.367257182000001,-2.46e+27,960.4715553,12.08362851,-0.005448429,-0.10696246699999999,-0.016933505,-0.812552377,0.151089948,-8.537361759,-0.017674213,-0.11098124599999999,-0.019782178,49.932407,49.76823059,0.008208877,-0.024770538999999998,10.22012752,12.63527384,-0.048302917,-0.094620452,-0.335641594,130.15810190000002,449.0248571,12.08381042,96046.62756000001,1.141192805,0.163342874,0.07954369,-0.22332750899999998,-0.01708228,-0.10217414400000001,-0.012392262,-0.014923815,0.044442853,-1.590097254,0,0.700176024,0.010638216,0.020884514,-0.713585438,0.0,398688605.0,327345174.0,449619.6455,11.99919927,0.026971394,-12.00354171,0.80160032,4.714643863,39.8714138,32.7368418,-283.9334231,-200.3374632,-49.37175047,-0.045158038,-11.912355900000001,1.0609402890000001,-0.143944853,0.549721469,1.4454449319999998,-1.5669050830000002,49.60927247,0.003120013,0.079920664,-0.011477194,0.0,0,0,0,0,1,,,,,
188412667,-0.000880027,0.250966115,-0.086183417,0.0,1.0,1456.0,2000.0,1000.0,1499.0,1500.0,1634.333867,11.57495789,11.82942043,11.98169148,11.90620759,12.16794452,11.73969598,11.99777293,87.30028049,87.30028049,12.08256816,-0.000569491,-0.005995495,0.00012337,-0.264583216,0.219112375,-0.02963331,3.0,12.17743549,13.17743549,15,0,0,1,0,0.0,0,0,0,0,0,-0.01351846,0.042853352000000004,-1.5889716390000002,-1.574772661,0.49456780100000003,346.6665182,34.1294014,-0.006602500000000001,0.200278592,-0.049309396,0.0,-0.795487545,0.190413997,-8.343501112,-2.46e+27,960.4680423000001,12.08395243,-0.0056185440000000005,-0.098214074,-0.016943951999999998,-0.783655607,0.16033201800000002,-8.520659742000001,-0.013534562,-0.11134158400000001,-0.022800852000000003,49.932407,49.76661625,0.008289601,-0.023340265,10.22013538,12.630345,-0.048204182000000005,-0.094612437,-0.335846753,130.28474740000001,448.8984688,12.08408733,96048.08768,1.141210255,0.411823208,-0.131112593,0.229416185,-0.014668903999999998,-0.094694208,-0.018624153,-0.014571573,0.043086177999999996,-1.5901840369999998,0,0.700150055,0.010278197,0.02028359,-0.713633506,0.0,398688605.0,327345117.6,449587.1742,11.97113786,0.020958192,-11.977484500000001,0.857723545,4.714154108,39.8714138,32.7368418,-283.93415830000004,-200.8444339,-49.32610346,-0.050692589,-11.88986939,1.12132992,-0.153636277,0.53317214,1.415599993,-1.567605629,49.56362546,0.004098063,0.09704681400000001,-0.010875891,0.0,0,0,0,0,1,,,,,
188454141,-0.002625746,0.25535421399999997,-0.08577317400000001,0.0,1.0,1457.0,2000.0,1000.0,1499.0,1500.0,1634.912983,11.59786894,11.85276946,11.96494879,11.88948167,12.15083048,11.72219524,11.97986733,87.06415223,87.06415223,12.08285337,-0.000569861,-0.00599551,0.00012351299999999998,-0.26458378899999996,0.219100162,-0.029667847999999997,3.0,12.18083617,13.18083617,15,0,0,1,0,0.0,0,0,0,0,0,-0.012100988,0.042305365,-1.588015304,-1.57474837,0.46173492899999996,346.1780361,34.08992263,-0.006580079,0.20086899600000002,-0.049251635999999994,0.0,-0.8086815759999999,0.19363745699999999,-8.388653848999999,-2.46e+27,960.4771380000001,12.08425424,0.00201686,-0.08915683699999999,-0.022565633999999998,-0.850015193,0.285422933,-8.616415098,-0.011705401,-0.106674749,-0.024989882,49.931755200000005,49.76497916,0.003655012,-0.022011842,10.22014751,12.62542916,-0.048105620999999994,-0.095905652,-0.33605126700000004,130.4109219,448.98053610000005,12.08439991,96047.12557,1.14119874,0.404254279,-0.434511994,0.610573415,-0.010434654,-0.09417419,-0.014617126999999999,-0.014132413,0.04024567,-1.590270529,0,0.7001304909999999,0.009418902,0.019132384,-0.713696332,0.0,398688605.0,327345061.3,449554.7029,11.94307645,0.014944988999999999,-11.95142729,0.9138467690000001,4.713664353,39.8714138,32.7368418,-283.9353913,-201.3145447,-49.27849473,-0.056961516,-11.87175756,1.174397707,-0.118592399,0.491857871,1.3737887530000001,-1.568271151,49.51601747,0.00540482,0.106454331,-0.010374376999999999,0.0,0,0,0,0,1,,,,,
188501808,-0.00035074199999999997,0.26774919199999997,-0.08643924800000001,0.0,1.0,1456.0,2000.0,1000.0,1499.0,1500.0,1635.507902,11.69484844,11.95189681,11.9482061,11.87275575,12.13371643,11.70469449,11.96196173,86.82802396,86.82802396,12.08313858,-0.000570231,-0.005995525,0.000123656,-0.264584362,0.21908794899999998,-0.029702386,3.0,12.18423685,13.18423685,15,0,0,1,0,0.0,0,0,0,0,0,-0.010683515,0.041757378,-1.587058969,-1.574724078,0.428902057,345.68955389999996,34.05044387,-0.006551854,0.20139355,-0.049168044,0.0,-0.828391071,0.195538408,-8.441247093,-2.46e+27,960.4875952,12.08455365,0.0036192520000000003,-0.092893955,-0.017300931999999998,-0.815328006,0.28135258,-8.709484369,-0.010125717,-0.101465101,-0.027089331,49.90987637,49.76260136,-0.15454159,-0.024000366000000002,10.220299,12.62093664,-0.048012744,-0.139575604,-0.336234785,130.5217543,448.79697689999995,12.08471177,96049.26581,1.141224139,0.294599231,0.5031045,0.19911999,-0.004678014,-0.088548877,-0.019161878,-0.013626272,0.037259682,-1.590356535,0,0.700110311,0.008531008,0.017906385,-0.7137590979999999,0.0,398688605.0,327345004.7,449519.5967,11.91643929,0.007863573,-11.92572615,0.9713942790000001,4.713068944,39.8714138,32.7368418,-283.936678,-201.7806754,-49.23067419,-0.063309738,-11.854118099999999,1.226674908,-0.078718176,0.44786958,1.330685437,-1.5689328919999999,49.46819775,0.006599438000000001,0.10730135800000001,-0.009927023,0.0,0,0,0,0,1,,,,,
188545089,0.000337258,0.269746799,-0.08637222900000001,0.0,1.0,1457.0,2000.0,1000.0,1499.0,1500.0,1637.0,11.63539596,11.891064300000002,11.93146341,11.85602983,12.11660239,11.68719375,11.94405613,86.59189570000001,86.59189570000001,12.08342378,-0.000570601,-0.005995539,0.00012379899999999998,-0.264584936,0.21907573600000002,-0.029736925,3.0,12.18763753,13.18763753,15,0,0,1,0,0.0,0,0,0,0,0,-0.009266043,0.041209391,-1.586102634,-1.574699787,0.396069185,345.2010718,34.0109651,-0.006524785999999999,0.20196444100000002,-0.049083715,0.0,-0.8085300120000001,0.19922269199999998,-8.500289,-2.46e+27,960.4950636,12.08486996,0.008782905,-0.083191751,-0.01493984,-0.7755830359999999,0.209562558,-8.650147848,-0.009237363,-0.096397668,-0.025577417,49.88799753,49.76022356,-0.312738191,-0.025988891,10.22045048,12.61644412,-0.047919867000000005,-0.183245556,-0.336418304,130.6325868,448.71029289999996,12.085054300000001,96050.26921,1.141236121,-0.15455184800000002,0.077768793,0.175416689,-0.011631701999999999,-0.090994651,-0.018525473,-0.013163778000000001,0.034566717999999996,-1.590439839,0,0.700089173,0.007732296,0.016798544,-0.713815814,0.0,398688605.0,327344946.5,449472.2929,11.89639528,-0.004162832,-11.90167333,1.035535107,4.711984443,39.8714138,32.7368418,-283.93823019999996,-202.2637139,-49.17873714,-0.07002482900000001,-11.83782005,1.279522071,-0.07008560700000001,0.392120759,1.282778631,-1.5696335419999998,49.41626077,0.007748461999999999,0.10843174900000001,-0.009456884,0.0,0,0,0,0,1,,,,,
188583281,0.001256398,0.27051999,-0.085715642,0.0,1.0,1460.0,2000.0,1000.0,1493.0,1506.0,1643.0,11.57848835,11.83285769,11.91472071,11.83930392,12.09948834,11.66969301,11.92615053,86.35576743,86.35576743,12.08370899,-0.000570971,-0.005995554,0.00012394200000000001,-0.264585509,0.219063523,-0.029771462999999998,3.0,12.19103821,13.19103821,15,0,0,1,0,0.0,0,0,0,0,0,-0.007848571,0.040661404,-1.5851462980000002,-1.574675496,0.363236312,344.7125896,33.97148633,-0.006504504,0.202540848,-0.049008422999999995,0.0,-0.74116723,0.205047743,-8.567072081000001,-2.46e+27,960.4989441,12.08520655,0.018731531000000003,-0.082092392,-0.019531759,-0.82049147,0.185130204,-8.777039246000001,-0.009178903,-0.091500957,-0.019730311,49.8661187,49.75784576,-0.47093479299999996,-0.027977415,10.22060196,12.611951600000001,-0.04782699,-0.22691550800000002,-0.33660182200000005,130.7434192,448.7448284,12.08540825,96049.87058999999,1.141231299,-0.139589166,-0.373877123,0.286944805,-0.009249432,-0.08307683099999999,-0.015924406000000002,-0.008161866,0.039767704,-1.5857289719999998,0,0.701713954,0.01130562,0.016867001,-0.71215719,0.0,398688605.0,327344888.4,449424.989,11.87635127,-0.016189237,-11.87762052,1.099675935,4.710899942,39.8714138,32.7368418,-283.94010110000005,-202.76704919999997,-49.12185852,-0.077180322,-11.82313227,1.333053434,-0.09895648900000001,0.322254234,1.2291055659999999,-1.5703809,49.35938133,0.008647728,0.11141659599999999,-0.009033579,0.0,0,0,0,0,1,,,,,
188628018,0.001984242,0.271868762,-0.086028008,0.0,1.0,1460.0,2000.0,1000.0,1495.0,1504.0,1645.0,11.61714453,11.87234044,11.89797802,11.822578,12.0823743,11.65219226,11.90824492,86.11963916,86.11963916,12.0839942,-0.000571341,-0.005995569,0.000124085,-0.264586082,0.21905131,-0.029806001000000002,3.0,12.19443889,13.19443889,15,0,0,1,0,0.0,0,0,0,0,0,-0.0064310980000000005,0.040113416,-1.584189963,-1.574651205,0.33040344,344.2241075,33.93200756,-0.0064878340000000005,0.203171221,-0.048922157,0.0,-0.674777863,0.21135927,-8.633587367999999,-2.46e+27,960.5028616000001,12.085543300000001,0.014294723999999998,-0.073603609,-0.01225644,-0.806465751,0.163672128,-8.743111888,-0.009058113000000001,-0.086659145,-0.013940656000000001,49.84423987,49.75546796,-0.629131395,-0.02996594,10.22075345,12.60745908,-0.047734112999999995,-0.27058546,-0.33678534,130.85425159999997,448.6670397,12.08577194,96050.76049,1.14124201,-0.39386883899999997,-0.040092866,-0.119558864,-0.009279546999999999,-0.085596423,-0.019792141,-0.000264313,0.040126386,-1.578028768,0,0.704405122,0.01414398,0.014228244,-0.7095144640000001,0.0,398688605.0,327344830.3,449377.6851,11.85630726,-0.028215641,-11.85356771,1.163816763,4.709815441,39.8714138,32.7368418,-283.94197599999995,-203.2701293,-49.0649786,-0.084326834,-11.80847233,1.38653565,-0.127782935,0.252623118,1.175785903,-1.571127415,49.30250059,0.009541514000000001,0.125425791,-0.008312575,0.0,0,0,0,0,1,,,,,
188664755,0.000692044,0.27522270000000004,-0.085797304,0.0,1.0,1460.0,2000.0,1000.0,1495.808562,1503.191438,1646.0,11.53299216,11.7863076,11.88123533,11.80585208,12.06526025,11.63469152,11.89033932,85.8835109,85.8835109,12.08427941,-0.000571711,-0.005995584,0.000124228,-0.26458665600000003,0.219039097,-0.029840539,3.0,12.19783957,13.19783957,15,0,0,1,0,0.0,0,0,0,0,0,-0.005013626,0.039565429,-1.5832336280000001,-1.5746269130000001,0.297570568,343.73562539999995,33.89252879,-0.006474016,0.203754297,-0.048852494,0.0,-0.760316078,0.293598535,-8.658306228999999,-2.46e+27,960.5125426000001,12.08590481,0.010734476000000001,-0.077143247,-0.017275412,-0.6978736320000001,0.22025592600000002,-8.768687177,0.0007909639999999999,-0.090385809,-0.017117918,49.82054458,49.75297315,-0.782465538,-0.033667726,10.22089548,12.60117901,-0.047605674,-0.316113685,-0.336120239,130.96435490000002,448.6042533,12.08613662,96051.46762000001,1.141250364,0.07355416,-0.458565545,-0.283722715,-0.007465076,-0.080876201,-0.019878361,0.000139939,0.037916343,-1.578093264,0,0.7043946240000001,0.013502746000000001,0.013306008999999999,-0.709555299,0.0,398688605.0,327344772.2,449330.3813,11.83626325,-0.040242046000000004,-11.829514900000001,1.227957592,4.70873094,39.8714138,32.7368418,-283.9444923,-203.7333966,-49.00789655,-0.090071753,-11.79815776,1.4323470759999999,-0.14967403699999998,0.21973396899999997,1.177624152,-1.571742384,49.24541773,0.027891677,0.136859904,0.002472905,0.0,0,0,0,0,1,,,,,
188702985,0.012209309,0.287092709,-0.079548403,0.0,1.0,1460.0,2000.0,1000.0,1495.0,1504.0,1646.3876779999998,11.59376149,11.84833617,11.86449264,11.78912616,12.04814621,11.61719078,11.87243372,85.64738263,85.64738263,12.08456462,-0.00057208,-0.005995599,0.000124371,-0.264587229,0.21902688399999998,-0.029875077000000003,3.0,12.20124025,13.20124025,15,0,0,1,0,0.0,0,0,0,0,0,-0.003596153,0.039017442,-1.5822772930000002,-1.5746026219999998,0.264737696,343.2471432,33.85305003,-0.006457244,0.204387872,-0.048790705,0.0,-0.845854294,0.37583779999999994,-8.683025091000001,-2.46e+27,960.5222236999999,12.08626631,0.013689835,-0.068369917,-0.016693644,-0.78610934,0.208575713,-8.814466362000001,0.01064004,-0.094112474,-0.02029518,49.77095098,49.74881019,-0.866472806,-0.061796475,10.22090273,12.56941288,-0.046970205999999994,-0.38813639,-0.323355895,131.0640618,448.53735660000007,12.08653082,96052.24648,1.141259576,0.24718167600000002,-0.7555970059999999,0.619583757,-0.0035889359999999996,-0.089200796,-0.0161024,0.000555843,0.035378579,-1.578157254,0,0.7043857259999999,0.012749274,0.012264235,-0.7095967609999999,0.0,398688604.9,327344714.3,449280.5443,11.81773151,-0.049999997000000004,-11.80810862,1.288317664,4.70782461,39.8714138,32.7368418,-283.9470085,-204.1966638,-48.9508145,-0.09581667199999999,-11.78784319,1.4781585030000002,-0.17156513899999998,0.18684482,1.179462402,-1.5723573530000001,49.18833486,0.028358441,0.138178906,0.0025823120000000002,0.0,0,0,0,0,1,,,,,
188754229,0.009567348,0.290496545,-0.079091349,0.0,1.0,1460.0,2000.0,1000.0,1497.0,1502.0,1652.966793,11.61744817,11.87260854,11.84774995,11.77240024,12.03103216,11.59969003,11.85452812,85.41125437,85.41125437,12.08484983,-0.00057245,-0.005995613,0.000124514,-0.264587802,0.21901467100000002,-0.029909615,3.0,12.20464093,13.20464093,15,0,0,1,0,0.0,0,0,0,0,0,-0.002178681,0.038469455,-1.581320958,-1.5745783309999999,0.23190482399999998,342.7586611,33.81357126,-0.006445482,0.20495766399999998,-0.048730308,0.0,-0.892075208,0.35528459100000004,-8.684410553,-1.9e+27,960.5287233999999,12.08664173,0.013307111000000002,-0.062197517,-0.018724759,-0.787501294,0.253449015,-8.917950643,0.015635797,-0.09402456099999999,-0.020685552,49.72135739,49.74464722,-0.950480074,-0.08992522300000001,10.22090998,12.53764676,-0.04633473900000001,-0.460159095,-0.310591551,131.1637687,448.584692,12.08693188,96051.73487,1.141253481,-0.10598242699999999,-0.404543289,0.11372843,-0.004300287,-0.084468696,-0.018452105,0.00103977,0.040121502,-1.578185179,0,0.7043403359999999,0.014602627,0.013762743000000001,-0.7095787720000001,0.0,398688604.5,327344657.6,449219.811,11.8057049,-0.049999997000000004,-11.79808662,1.332414483,4.707684703,39.8714138,32.7368418,-283.9500128,-204.6809364,-48.88828262,-0.101721668,-11.77844057,1.524610281,-0.179756814,0.17492197,1.162490628,-1.5729729609999998,49.12580262,0.028317305,0.14218251199999998,0.002404722,0.0,0,0,0,0,1,,,,,
188794966,0.007637921999999999,0.292799988,-0.079327322,0.0,1.0,1459.0,2000.0,1000.0,1497.0,1502.0,1654.0,11.53755119,11.79084254,11.83100726,11.75567432,12.01391812,11.58218929,11.83662252,85.1751261,85.1751261,12.08513503,-0.00057282,-0.005995628,0.000124657,-0.264588376,0.219002458,-0.029944152999999998,3.0,12.20804161,13.20804161,15,0,0,1,0,0.0,0,0,0,0,0,-0.000761209,0.037921468,-1.5803646230000001,-1.5745540390000001,0.19907195100000002,342.27017889999996,33.77409249,-0.006432495999999999,0.205545234,-0.048665428,0.0,-0.907187168,0.253399093,-8.667333976,-8.94e+26,960.5327061,12.08702815,0.017138652,-0.059328029000000004,-0.010410453,-0.832068547,0.246755571,-8.825789682,0.016791469,-0.090918447,-0.018870858,49.6717638,49.74048426,-1.034487341,-0.118053971,10.22091723,12.50588063,-0.045699271,-0.5321818,-0.297827206,131.2634756,448.4173007,12.08734769,96053.61413999999,1.14127587,0.5229708270000001,-0.209975885,-0.04558423,0.004078909,-0.076482656,-0.019069164,0.0015242320000000001,0.040930472,-1.5782488940000001,0,0.7043082390000001,0.015060686,0.013875284,-0.709598847,0.0,398688604.1,327344600.9,449159.0776,11.793678300000002,-0.049999997000000004,-11.78806461,1.376511302,4.7075447960000005,39.8714138,32.7368418,-283.95340319999997,-205.1818289,-48.82143867,-0.107753321,-11.76975952,1.571568724,-0.17710911699999998,0.17958824399999998,1.130635837,-1.573589074,49.05895867,0.02844725,0.156040674,0.002123013,0.0,0,0,0,0,1,,,,,
188831703,0.008275756,0.293892476,-0.079274615,0.0,1.0,1459.125025,2000.0,1000.0,1496.0,1503.0,1654.125025,11.53729798,11.79044437,11.81426457,11.7389484,11.99680407,11.56468855,11.81871692,84.93899784,84.93899784,12.08542024,-0.00057319,-0.005995643,0.0001248,-0.26458894899999996,0.218990245,-0.029978691000000002,3.0,12.21144229,13.21144229,15,0,0,1,0,0.0,0,0,0,0,0,0.0006562639999999999,0.03737348,-1.5794082880000002,-1.5745297480000002,0.166239079,341.7816968,33.73461372,-0.0064205,0.206161717,-0.048606517,0.0,-0.9172024879999999,0.162720491,-8.655677743,-1.11e+26,960.5370471000001,12.08741732,0.010753796000000001,-0.054033687999999996,-0.013556408999999998,-0.796032719,0.19389701399999998,-8.962882055,0.017631001,-0.08723386300000001,-0.017174701,49.62217021,49.73632129,-1.118494609,-0.14618272,10.22092448,12.4741145,-0.045063803,-0.604204504,-0.285062862,131.3631825,448.25668449999995,12.0877635,96055.48118999999,1.141298023,0.47002334,-0.22066026,0.131461888,0.0076498090000000005,-0.081627664,-0.017148025,0.001902171,0.038851486,-1.578312028,0,0.704298203,0.01445658,0.01300858,-0.7096376670000001,0.0,398688603.7,327344544.1,449098.3443,11.78165169,-0.049999997000000004,-11.77804261,1.420608122,4.707404889,39.8714138,32.7368418,-283.956817,-205.6784257,-48.75471459,-0.11369847400000001,-11.76158613,1.617610609,-0.173729427,0.18012368399999998,1.093361898,-1.5741975540000002,48.99223468,0.028261752999999997,0.164846296,0.001696209,0.0,0,0,0,0,1,,,,,
188876440,0.006257798,0.306722153,-0.07970643599999999,0.0,1.0,1459.0,2000.0,1000.0,1497.0,1502.0,1654.704141,11.62769924,11.88286643,11.79752188,11.72222248,11.97969003,11.547187800000001,11.80081132,84.70286957,84.70286957,12.08570545,-0.00057356,-0.005995658,0.000124943,-0.264589523,0.218978032,-0.030013229,3.0,12.21484297,13.21484297,15,0,0,1,0,0.0,0,0,0,0,0,0.002073736,0.036825493,-1.578451953,-1.5745054569999999,0.133406207,341.2932146,33.69513495,-0.00640832,0.206787768,-0.048559965,0.0,-0.886059611,0.16254380300000001,-8.687793799,-1.12e+27,960.5442813,12.08782867,0.014976658,-0.055480932000000004,-0.011163501000000001,-0.762753433,0.210999923,-9.053750981,0.015917521,-0.078877813,-0.0164358,49.57071909,49.73103649,-1.1964882559999999,-0.178440588,10.22092727,12.439706800000002,-0.044375594000000004,-0.672098518,-0.272988245,131.4617886,448.23968099999996,12.08821031,96055.65303,1.1413000420000001,0.04465178,-0.025352765,-0.226680697,0.009349235,-0.072935668,-0.016150138999999997,0.002292085,0.036327285,-1.57837449,0,0.70429098,0.013698653,0.011980862,-0.709678035,0.0,398688603.3,327344487.4,449037.6109,11.76962509,-0.049999997000000004,-11.7680206,1.464704941,4.707264982,39.8714138,32.7368418,-283.9604198,-206.1403327,-48.68895843,-0.11894508599999999,-11.75751234,1.6562507709999998,-0.164438482,0.147300337,1.012325339,-1.574744388,48.92647933,0.027934072,0.167657845,0.0014563970000000001,0.0,0,0,0,0,1,,,,,
188913177,0.005854298000000001,0.309703542,-0.080315153,0.0,1.0,1460.0,2000.0,1000.0,1497.0,1502.0,1655.0,11.60673954,11.86147403,11.78077919,11.70549657,11.96257598,11.52968706,11.78290572,84.4667413,84.4667413,12.08599066,-0.00057393,-0.005995673000000001,0.000125086,-0.264590096,0.218965818,-0.030047767000000003,3.0,12.21824365,13.21824365,15,0,0,1,0,0.0,0,0,0,0,0,0.002486981,0.037342084,-1.578407955,-1.574504395,0.13187451,340.8282564,33.69316281,-0.0063993240000000005,0.20741211,-0.04850542099999999,0.0,-0.8549167329999999,0.162367114,-8.719909856000001,-2.12e+27,960.5515154999999,12.08824001,0.017340604,-0.051538355999999994,-0.008798561,-0.797726788,0.213895516,-9.029356517,0.01420404,-0.070521763,-0.015696899,49.50278698,49.71579814,-1.221125753,-0.247334279,10.220890400000002,12.38186161,-0.043219427000000005,-0.7033605159999999,-0.267033273,131.5506278,448.3104959,12.08865751,96054.85368,1.14129058,0.093771965,0.39482753600000003,-0.550031976,0.017227618,-0.071596658,-0.01681115,0.002725753,0.03409287,-1.578436608,0,0.7042807990000001,0.013058878999999999,0.011039688,-0.7097153979999999,0.0,398688603.0,327344431.0,448976.0374,11.758798800000001,-0.052000397000000004,-11.75959896,1.508801756,4.707006347,39.8714138,32.7368418,-283.9640226,-206.6022398,-48.62320227,-0.124191699,-11.75343855,1.694890934,-0.155147538,0.114476991,0.9312887790000001,-1.575291222,48.86072399,0.027399027000000003,0.168271897,0.001000965,0.0,0,0,0,0,1,,,,,
188953914,0.006180356999999999,0.310446102,-0.079943038,0.0,1.0,1460.0,2000.0,1000.0,1498.0,1501.0,1661.0,11.49589969,11.74811961,11.764036500000001,11.68877065,11.94546194,11.51218632,11.76500012,84.23061304,84.23061304,12.08627587,-0.0005742999999999999,-0.0059956869999999995,0.000125229,-0.264590669,0.218953605,-0.030082305,3.0,12.22164433,13.22164433,15,0,0,1,0,0.0,0,0,0,0,0,0.002797366,0.037967715,-1.578457405,-1.574505712,0.13354886400000002,340.3657076,33.69503231,-0.006390815,0.208016113,-0.04846571,0.0,-0.8212454459999999,0.207207838,-8.810738791,-2.46e+27,960.5612541000002,12.08875033,0.018761306999999998,-0.056299047000000005,-0.017188116,-0.748581528,0.157777533,-9.126088057999999,0.015683045,-0.066022535,-0.013992968,49.43485487,49.70055979,-1.24576325,-0.316227969,10.22085354,12.32401642,-0.042063261,-0.7346225129999999,-0.261078302,131.639467,448.1246984,12.08912516,96056.99904,1.1413160709999999,0.06186312099999999,0.5977327060000001,0.7391107709999999,0.015442951000000002,-0.06581569,-0.011817975,0.0030444340000000004,0.040595013,-1.5784631530000002,0,0.7042230490000001,0.015478427,0.013216114,-0.7096869090000001,0.0,398688602.8,327344375.9,448911.0948,11.752785800000002,-0.062022401,-11.75759476,1.552898556,4.706271613,39.8714138,32.7368418,-283.9681122,-207.0896858,-48.55102932,-0.12980053,-11.7508079,1.7328857659999999,-0.160082107,0.068019129,0.8834276059999999,-1.575831079,48.78855078,0.027345055,0.167069412,0.000464139,0.0,0,0,0,0,1,,,,,
188998651,0.005892735,0.30960034399999997,-0.07934946400000001,0.0,1.0,1459.0,2000.0,1000.0,1496.4414880000002,1502.5585119999998,1662.0,11.55986139,11.81342459,11.74729381,11.67204473,11.92834789,11.49468557,11.74709451,83.99448477,83.99448477,12.08656107,-0.00057467,-0.0059957019999999995,0.000125372,-0.26459124300000003,0.21894139199999998,-0.030116842999999997,3.0,12.22504501,13.22504501,15,0,0,1,0,0.0,0,0,0,0,0,0.003107752,0.038593346,-1.578506855,-1.574507029,0.135223218,339.90315879999997,33.69690182,-0.006381392,0.20862964,-0.048425166,0.0,-0.7862837709999999,0.275023426,-8.931532138,-2.46e+27,960.5722708999999,12.08931118,0.013755125,-0.045075826,-0.006744535,-0.8436165729999999,0.252071896,-9.134095963,0.01879135,-0.063491656,-0.01179653,49.36692276,49.68532143,-1.270400746,-0.38512166,10.22081668,12.26617123,-0.040907095,-0.765884511,-0.25512333,131.7283062,448.03087999999997,12.08959338,96058.09,1.141329,0.216727895,-0.030029096,-0.6255668879999999,0.017246873,-0.060973189000000004,-0.015700353,0.00344994,0.040443989,-1.5785250430000002,0,0.704199137,0.015568024,0.013018561000000001,-0.709712343,0.0,398688602.6,327344320.8,448846.1522,11.7467728,-0.072044405,-11.75559056,1.596995355,4.70553688,39.8714138,32.7368418,-283.9724503,-207.5901657,-48.47558152,-0.135594222,-11.74891377,1.7705512509999999,-0.17227674,0.014602825,0.852497657,-1.576367375,48.71310217,0.026813555,0.18212915899999998,0.000469901,0.0,0,0,0,0,1,,,,,
189035388,0.004851213,0.316929393,-0.079425993,0.0,1.0,1459.0,2000.0,1000.0,1498.0,1501.0,1662.9793960000002,11.55803164,11.81155021,11.73055111,11.65531881,11.91123385,11.47718483,11.72918891,83.75835651,83.75835651,12.08684628,-0.00057504,-0.005995716999999999,0.000125515,-0.26459181600000004,0.21892917899999997,-0.030151381,3.0,12.22844569,13.22844569,15,0,0,1,0,0.0,0,0,0,0,0,0.003418137,0.039218977,-1.578556305,-1.5745083469999999,0.136897572,339.44061,33.69877132,-0.006370178000000001,0.209262712,-0.048389018,0.0,-0.7575146309999999,0.317568103,-9.031357004,-2.46e+27,960.5810533,12.08985069,0.013605239,-0.042692426,-0.006305292,-0.764395575,0.267547683,-9.186945565,0.020913537,-0.060713969000000007,-0.009583401,49.29899065,49.67008308,-1.295038243,-0.45401535,10.22077981,12.20832604,-0.039750928,-0.7971465090000001,-0.249168358,131.81714540000002,448.0361733,12.09006137,96058.03563,1.1413284240000001,-0.236838977,0.662932724,-0.163845863,0.014221795,-0.051619459000000006,-0.015087002,0.003831433,0.038375197,-1.578586245,0,0.704190254,0.014968641000000001,0.012154248000000001,-0.709749493,0.0,398688602.4,327344265.6,448781.2096,11.74075979,-0.082066408,-11.75358636,1.641092154,4.704802147,39.8714138,32.7368418,-283.9768714,-208.082334,-48.40065238,-0.141194045,-11.74758725,1.806515766,-0.175732263,-0.02600135,0.8155353479999999,-1.576875251,48.63817264,0.026394913,0.189878254,5.4600000000000006e-05,0.0,0,0,0,0,1,,,,,
189076250,0.0033498940000000004,0.3230592,-0.079904057,0.0,1.0,1459.0,2000.0,1000.0,1498.0,1501.0,1662.0,11.62455155,11.87956391,11.71380842,11.63859289,11.8941198,11.45968409,11.71128331,83.52222824,83.52222824,12.08713149,-0.000575409,-0.005995731999999999,0.00012565799999999998,-0.264592389,0.21891696600000002,-0.030185919,3.0,12.23184637,13.23184637,15,0,0,1,0,0.0,0,0,0,0,0,0.003728522,0.039844607000000004,-1.578605755,-1.574509664,0.13857192599999998,338.9780611,33.70064082,-0.00636003,0.209885055,-0.048367800999999995,0.0,-0.75148924,0.267298565,-9.054169481,-2.46e+27,960.5816292000002,12.09031187,0.02027751,-0.041635383,-0.009104671,-0.7960677859999999,0.20613748399999998,-9.253611866,0.019413937,-0.057029814000000005,-0.007308973000000001,49.23158942,49.65323284,-1.317002629,-0.5223362420000001,10.22074433,12.15199927,-0.038625103,-0.823727775,-0.24344937600000002,131.90167649999998,447.92518279999996,12.09055487,96059.28952,1.141343237,0.22126022,-0.162463395,0.080574032,0.014321315,-0.054839285999999994,-0.015865179,0.004212875,0.036069781,-1.578647074,0,0.704182633,0.014285206000000002,0.011206654,-0.709786748,0.0,398688602.2,327344210.5,448716.2671,11.73474679,-0.092088412,-11.75158216,1.685188954,4.704067414,39.8714138,32.7368418,-283.98159760000004,-208.5439755,-48.3276281,-0.146081831,-11.74834539,1.8362330130000002,-0.147091054,-0.019549537,0.756417569,-1.577278749,48.56514959,0.026049845,0.18962751,-0.00045713800000000005,0.0,0,0,0,0,1,,,,,
189120862,0.00422705,0.326129025,-0.081097318,0.0,1.0,1459.0,2000.0,1000.0,1498.0,1501.0,1666.0,11.55271333,11.80612636,11.69706573,11.62186697,11.87700575,11.44218334,11.69337771,83.28609998,83.28609998,12.087416699999999,-0.000575779,-0.005995746999999999,0.000125801,-0.264592963,0.218904753,-0.030220457000000003,3.0,12.23524705,13.23524705,15,0,0,1,0,0.0,0,0,0,0,0,0.004038908,0.040470238,-1.578655205,-1.574510981,0.14024628,338.5155123,33.70251033,-0.006352961,0.21050522300000002,-0.048340599000000005,0.0,-0.7454638490000001,0.217029026,-9.076981959,-2.46e+27,960.5822052000001,12.09077305,0.010447406,-0.034122663,-0.006989296,-0.81700046,0.214129005,-9.318728608999999,0.017914337,-0.05334566,-0.005034546,49.167531200000006,49.62623239,-1.322134159,-0.587050163,10.22071754,12.1052341,-0.037690334,-0.820833996,-0.23921644,131.9590789,448.0017818,12.09104425,96058.39725,1.1413326209999999,0.08761493599999999,-0.33454454,0.225033299,0.017182056,-0.049947548,-0.009405466999999999,0.004563353,0.037657065,-1.5786886869999999,0,0.7041530290000001,0.014972101000000002,0.011640858,-0.7097936009999999,0.0,398688601.9,327344154.9,448649.5095,11.73,-0.10168833199999999,-11.74957792,1.728019508,4.703354806,39.8714138,32.7368418,-283.98632369999996,-209.005617,-48.25460383,-0.150969616,-11.74910353,1.8659502609999998,-0.118449845,-0.013097725,0.69729979,-1.5776822469999998,48.49212654,0.025601633,0.188167554,-0.000982922,0.0,0,0,0,0,1,,,,,
189157599,0.0031471090000000004,0.325113991,-0.081438463,0.0,1.0,1459.0,2000.0,1000.0,1498.0,1501.0,1668.0,11.55716287,11.81059282,11.68032304,11.60514105,11.85989171,11.4246826,11.67547211,83.04997171,83.04997171,12.08770191,-0.000576149,-0.005995762,0.00012594399999999999,-0.264593536,0.21889254,-0.030254995,3.0,12.23864773,13.23864773,15,0,0,1,0,0.0,0,0,0,0,0,0.004349293,0.041095869,-1.578704654,-1.5745122980000001,0.141920634,338.0529635,33.70437983,-0.006340704,0.21111434,-0.048320129,0.0,-0.746936322,0.22470948300000002,-9.10217094,-2.46e+27,960.5938721000001,12.09125362,0.007657252,-0.037457874,-0.008709718,-0.74941454,0.20397536600000002,-9.271184625,0.017676237,-0.051474202000000004,-0.005846848000000001,49.10347299,49.59923193,-1.327265689,-0.651764085,10.22069075,12.05846893,-0.036755565,-0.8179402179999999,-0.234983505,132.0164813,447.7888001,12.09155712,96060.832,1.141361576,0.195624735,-0.825536776,0.10255472800000001,0.019459373000000002,-0.051289322000000005,-0.013631922,0.004855653,0.041952505,-1.5787318890000002,0,0.704102399,0.016599578,0.013049203999999998,-0.7097844320000001,0.0,398688601.5,327344097.4,448575.948,11.73,-0.10970593699999999,-11.74757351,1.766103145,4.7027251439999995,39.8714138,32.7368418,-283.9916192,-209.4966895,-48.17458771,-0.155190658,-11.75184147,1.89419718,-0.11027261099999999,-0.020270733,0.650428556,-1.5780287419999999,48.41211039,0.024895507999999997,0.189451111,-0.001225165,0.0,0,0,0,0,1,,,,,
189198336,0.003739047,0.324674103,-0.080290192,0.0,1.0,1459.0,2000.0,1000.0,1499.0,1500.0,1668.0,11.60118777,11.85547795,11.66358035,11.58841513,11.84277766,11.40718186,11.65756651,82.81384344,82.81384344,12.08798712,-0.0005765190000000001,-0.0059957759999999995,0.00012608700000000001,-0.26459410899999997,0.21888032699999999,-0.030289532999999997,3.0,12.24204841,13.24204841,15,0,0,1,0,0.0,0,0,0,0,0,0.004659679,0.041721499999999995,-1.5787541040000002,-1.574513616,0.143594988,337.5904147,33.70624934,-0.006329235999999999,0.21176812,-0.048300497000000005,0.0,-0.750700342,0.250100999,-9.128086244,-2.46e+27,960.6089287000001,12.09174012,0.013835048,-0.026482532000000003,-0.012579605,-0.8307483990000001,0.278028851,-9.322022451,0.017823686000000002,-0.050156754000000005,-0.007602538000000001,49.03941478,49.57223148,-1.332397219,-0.7164780059999999,10.22066395,12.01170376,-0.035820796,-0.8150464390000001,-0.23075057,132.0738837,447.6997264,12.09205419,96061.89439,1.141374286,0.271340455,-0.137786504,-0.118979156,0.017685759,-0.039624822999999997,-0.01320355,0.00501426,0.041115924,-1.578792045,0,0.704086553,0.016358932,0.012697871999999999,-0.709812035,0.0,398688601.1,327344039.8,448502.3865,11.73,-0.117723541,-11.74556911,1.804186782,4.702095481000001,39.8714138,32.7368418,-283.99708880000003,-209.9967569,-48.09243468,-0.159207924,-11.75518448,1.921994727,-0.10834971199999999,-0.03160785,0.6073001929999999,-1.578357815,48.32995696,0.024576202999999998,0.20737576300000002,-0.0014460570000000002,0.0,0,0,0,0,1,,,,,
189243073,0.003721667,0.332712571,-0.080150068,0.0,1.0,1459.0,2000.0,1000.0,1500.0,1499.0,1668.0,11.58901595,11.8429766,11.64683766,11.57168921,11.82566362,11.38968111,11.63966091,82.57771518,82.57771518,12.08827232,-0.000576889,-0.0059957909999999994,0.00012623,-0.264594683,0.21886811399999997,-0.030324071,3.0,12.24544909,13.24544909,15,0,0,1,0,0.0,0,0,0,0,0,0.004970064000000001,0.042347130999999996,-1.578803554,-1.5745149330000001,0.145269341,337.1278659,33.70811884,-0.006320571,0.212400804,-0.048282427999999995,0.0,-0.745929463,0.265069934,-9.157751831,-2.14e+27,960.6231779,12.09223039,0.009768863000000001,-0.020634657,-0.003165868,-0.6752638870000001,0.21725558399999997,-9.50129547,0.017219353,-0.04668121099999999,-0.009039655,48.97535656,49.54523103,-1.337528749,-0.7811919270000001,10.22063716,11.96493859,-0.034886028,-0.8121526609999999,-0.226517634,132.1312862,447.6389652,12.09257401,96062.56809,1.1413821640000001,-0.32752077399999996,0.147890935,-0.460178639,0.017615459,-0.041868294,-0.01519665,0.005349108000000001,0.039113469,-1.578851543,0,0.704078729,0.015766547,0.011873532,-0.709847468,0.0,398688600.7,327343982.3,448428.825,11.73,-0.125741146,-11.74356471,1.842270418,4.701465819,39.8714138,32.7368418,-284.0026116,-210.4847349,-48.01172818,-0.16306316,-11.75866797,1.9477381669999998,-0.095130224,-0.042901144,0.564842989,-1.578681864,48.24925044,0.024098018,0.208563976,-0.00170833,0.0,0,0,0,0,1,,,,,
189279810,0.0037426190000000004,0.337145385,-0.08034372599999999,0.0,1.0,1459.0,2000.0,1000.0,1498.0,1501.0,1671.495299,11.63064852,11.88544904,11.63009497,11.5549633,11.80854957,11.37218037,11.62175531,82.34158691,82.34158691,12.08855753,-0.000577259,-0.005995805999999999,0.000126373,-0.264595256,0.21885590100000002,-0.030358608999999998,3.0,12.24884977,13.24884977,15,0,0,1,0,0.0,0,0,0,0,0,0.00528045,0.042972762000000005,-1.578853004,-1.57451625,0.146943695,336.6653171,33.70998834,-0.00630777,0.213015436,-0.048279248,0.0,-0.722839455,0.25766805800000003,-9.195466946,-1.14e+27,960.6356937,12.09272874,0.008533246,-0.02309946,1.63e-05,-0.7328786620000001,0.2715413,-9.494196162,0.015001411999999999,-0.038573581,-0.009792995,48.91124906,49.51621007,-1.342110277,-0.8445093659999999,10.22060668,11.92085843,-0.034005033,-0.8068628179999999,-0.22304588399999997,132.1862413,447.4329847,12.09309377,96064.9554,1.14141061,-0.149622789,0.44857481200000004,-0.17982549399999997,0.013136462,-0.033936513,-0.009853671,0.005643242,0.039389888,-1.578898455,0,0.704056982,0.015968457,0.011866073999999999,-0.7098635529999999,0.0,398688600.3,327343924.8,448355.2635,11.73,-0.133758751,-11.74156031,1.880354055,4.700836156,39.8714138,32.7368418,-284.0082486,-210.94676439999998,-47.93412646,-0.166570616,-11.76245296,1.969072717,-0.057663972,-0.054100379000000004,0.52382635,-1.578995128,48.17164954,0.023400895,0.208931225,-0.001986217,0.0,0,0,0,0,1,,,,,
189320547,0.0031002990000000004,0.33776483799999996,-0.081631019,0.0,1.0,1459.0,2000.0,1000.0,1498.0,1501.0,1674.0,11.582977900000001,11.83673283,11.62693529,11.55177867,11.80525533,11.37124312,11.62075811,82.31111504,82.31111504,12.08899929,-0.0005775,-0.0059958730000000005,0.000126424,-0.264594743,0.218843067,-0.030392972999999997,3.0,12.25225045,13.25225045,15,0,0,1,0,0.0,0,0,0,0,0,0.005590835,0.043598393,-1.578902454,-1.5745175669999998,0.148618049,336.2027683,33.71185785,-0.0062967890000000006,0.21361954800000002,-0.048276427999999996,0.0,-0.6997494470000001,0.25026618100000003,-9.233182061,-1.31e+26,960.6482096000001,12.09322708,0.009495001,-0.027956575,-0.0026620959999999996,-0.653333571,0.20665674899999997,-9.528246269,0.01278347,-0.030465951,-0.010546335,48.84690561,49.47751621,-1.344058749,-0.901141341,10.22055854,11.88963237,-0.033381476,-0.79010216,-0.223218196,132.2294805,447.5619802,12.09361521,96063.43775,1.1413925759999999,-0.326688071,0.8909149040000001,-0.21507709,0.014121706000000001,-0.027841306,-0.005261448,0.005953133,0.044559445,-1.578934303,0,0.703998771,0.017912382,0.013575773000000001,-0.709845443,0.0,398688599.9,327343867.5,448280.2809,11.73088818,-0.14,-11.74,1.915329066,4.7003227480000005,39.8714138,32.7368418,-284.0138857,-211.408794,-47.85652474,-0.170078073,-11.76623795,1.990407267,-0.020197721000000002,-0.065299614,0.48280971,-1.579308393,48.09404864,0.023021941,0.206940182,-0.002477103,0.0,0,0,0,0,1,,,,,
189365283,0.00424648,0.337115926,-0.081035163,0.0,1.0,1459.0,2000.0,1000.0,1498.3464689999998,1500.6535310000002,1673.0,11.53301418,11.785569,11.63071805,11.55551515,11.80902453,11.37877165,11.62840299,82.38575643,82.38575643,12.08952106,-0.000577674,-0.005995967,0.000126429,-0.264593675,0.218829916,-0.030427247999999997,3.0,12.25565113,13.25565113,15,0,0,1,0,0.0,0,0,0,0,0,0.00590122,0.044224024,-1.578951903,-1.574518885,0.15029240300000002,335.74021949999997,33.71372735,-0.006288155,0.21423646,-0.048260730999999994,0.0,-0.6866985390000001,0.269458262,-9.295899732,-8.74e+26,960.6525614,12.09373644,0.01562802,-0.022351943,-0.003636022,-0.7594701429999999,0.25578117100000003,-9.538377166,0.012408908,-0.026200922999999997,-0.012916899999999999,48.78256216,49.43882235,-1.34600722,-0.957773317,10.22051039,11.8584063,-0.032757918,-0.7733415020000001,-0.22339050800000002,132.2727196,447.29460480000006,12.094164300000001,96066.54643,1.141429395,0.224037063,-0.596527127,-0.564420217,0.021623715,-0.028286005,-0.009534569,0.006044911,0.043734370999999994,-1.5789939659999999,0,0.703984031,0.01765228,0.013252206,-0.709872695,0.0,398688599.3,327343811.0,448200.3053,11.73489698,-0.14,-11.74,1.939381876,4.700217797,39.8714138,32.7368418,-284.02031139999997,-211.9052955,-47.77140975,-0.17253839699999998,-11.77244731,2.009185606,-0.022133768999999998,-0.101619315,0.456317364,-1.5795505680000002,48.00893304,0.022739821,0.223908725,-0.0027198540000000003,0.0,0,0,0,0,1,,,,,
189410020,0.002615634,0.34531105799999995,-0.081393408,0.0,1.0,1458.0,2000.0,1000.0,1498.0,1501.0,1673.0,11.59786093,11.85186506,11.6345008,11.55925162,11.81279374,11.38630019,11.63604787,82.46039782,82.46039782,12.09004284,-0.000577849,-0.005996061,0.000126434,-0.264592607,0.21881676600000002,-0.030461522999999997,3.0,12.25905181,13.25905181,15,0,0,1,0,0.0,0,0,0,0,0,0.006082036999999999,0.044343742,-1.579003095,-1.5745203140000001,0.15210161,335.2602607,33.73019539,-0.006279262,0.214859578,-0.048252033,0.0,-0.6751512359999999,0.292633446,-9.362362155,-1.88e+27,960.6556903,12.09424745,0.005429166,-0.013890916000000001,-0.003338965,-0.76800049,0.21816482899999998,-9.54904918,0.012310438,-0.022511418999999998,-0.015529686000000001,48.71821871,49.40012849,-1.347955692,-1.014405293,10.22046225,11.82718024,-0.032134361,-0.756580844,-0.22356282,132.3159588,447.320772,12.0946984,96066.25874,1.141426059,-0.796902694,-0.205792466,0.407333559,0.006935643000000001,-0.028431025,-0.007996199,0.006203796,0.041687512,-1.57905224,0,0.703979525,0.016982153,0.012474735,-0.709907477,0.0,398688598.7,327343754.4,448120.3297,11.73890578,-0.14,-11.74,1.963434687,4.700112847,39.8714138,32.7368418,-284.0268553,-212.40696,-47.68516946,-0.174841886,-11.77901978,2.027581089,-0.029971288,-0.141701427,0.432000392,-1.579782095,47.92269194,0.022087252,0.223722013,-0.0029376140000000003,0.0,0,0,0,0,1,,,,,
189449515,0.003303559,0.34854993100000004,-0.081832129,0.0,1.0,1458.0,2000.0,1000.0,1497.0,1502.0,1673.0,11.65200219,11.90712219,11.63828355,11.5629881,11.81656294,11.39382872,11.64369275,82.53503922,82.53503922,12.09056461,-0.000578023,-0.005996156,0.000126439,-0.264591539,0.218803615,-0.030495799,3.0,12.26245249,13.26245249,15,0,0,1,0,0.0,0,0,0,0,0,0.00620316,0.04423037900000001,-1.5790550890000001,-1.574521795,0.153972944,334.7722809,33.75338919,-0.006268434,0.215475837,-0.04826227,0.0,-0.6848604429999999,0.294131338,-9.445752124,-2.46e+27,960.6614786,12.0947638,0.011925021000000001,-0.013708528000000001,-0.0009465280000000001,-0.7250029809999999,0.15346981199999998,-9.571144191,0.012385578000000001,-0.020266295,-0.014839052,48.65387525,49.36143463,-1.3499041630000002,-1.071037269,10.220414100000001,11.79595417,-0.031510803999999996,-0.7398201870000001,-0.223735132,132.3591979,447.20925310000007,12.09523999,96067.53836,1.141441184,0.012348742,-0.44595732200000004,0.016511737,0.014093801000000001,-0.030568489,-0.00905477,0.006274535,0.039529712,-1.5791098319999999,0,0.703976375,0.016241561,0.011689528999999999,-0.7099413659999999,0.0,398688598.1,327343697.9,448040.3541,11.74291458,-0.14,-11.74,1.9874874969999998,4.700007896,39.8714138,32.7368418,-284.03330960000005,-212.89253440000002,-47.60097308,-0.17701429999999999,-11.78617303,2.043589953,-0.046050746,-0.162989537,0.40101086,-1.58000303,47.83849508,0.021682002000000002,0.222551412,-0.0031446,0.0,0,0,0,0,1,,,,,
189487494,0.0033896440000000003,0.348281729,-0.08210429799999999,0.0,1.0,1459.0,2000.0,1000.0,1499.0,1500.0,1675.0,11.70082464,11.95702976,11.64206631,11.56672458,11.82033215,11.40135726,11.65133763,82.60968061,82.60968061,12.09108638,-0.000578198,-0.00599625,0.000126444,-0.264590471,0.218790464,-0.030530074,3.0,12.26585317,13.26585317,15,0,0,1,0,0.0,0,0,0,0,0,0.006324282,0.044117015999999995,-1.579107084,-1.5745232759999999,0.155844279,334.28430110000005,33.77658298,-0.0062577019999999995,0.216076895,-0.048254087,0.0,-0.723726373,0.265895335,-9.552360945,-2.46e+27,960.6709145,12.09528748,0.014348561000000001,-0.011943543000000001,-0.00534516,-0.759545647,0.130294305,-9.659738675,0.012698849,-0.020002368,-0.009617246999999999,48.58769557,49.31918779,-1.352114003,-1.127624947,10.22034664,11.76643768,-0.030921824,-0.7206437809999999,-0.223768424,132.40119109999998,447.1744556,12.09578559,96067.92044,1.141445833,-0.029280226,0.109710661,-0.074539965,0.013386443,-0.021634081,-0.005939393,0.0064620630000000005,0.04330741,-1.5791359969999998,0,0.703933409,0.017648506,0.012952576,-0.709927942,0.0,398688597.5,327343641.4,447960.3785,11.74692338,-0.14,-11.74,2.0115403080000003,4.699902946,39.8714138,32.7368418,-284.03964110000004,-213.3560386,-47.51958024,-0.179006923,-11.794122900000001,2.0563251869999997,-0.07343535,-0.158498649,0.360868841,-1.5802094359999999,47.75710224,0.0211857,0.218732189,-0.0033596470000000003,0.0,0,0,0,0,1,,,,,
189528231,0.00301021,0.34679685899999996,-0.082503795,0.0,1.0,1459.0,2000.0,1000.0,1498.0,1501.0,1676.0,11.72752319,11.98417572,11.64584906,11.57046105,11.82410135,11.40888579,11.6589825,82.684322,82.684322,12.09160816,-0.0005783730000000001,-0.005996344,0.000126449,-0.264589404,0.218777313,-0.030564348999999998,3.0,12.26925385,13.26925385,15,0,0,1,0,0.0,0,0,0,0,0,0.006445405,0.044003653,-1.5791590780000002,-1.574524756,0.157715614,333.7963213,33.79977677,-0.006248518000000001,0.216682165,-0.048247596,0.0,-0.7625923040000001,0.237659332,-9.658969766,-2.46e+27,960.6803505,12.09581115,0.006389812,-0.010380389,-0.003596947,-0.767505254,0.271417224,-9.583376224,0.013012121000000001,-0.019738441000000002,-0.004395443,48.51454696,49.26345651,-1.355315795,-1.184044504,10.22020583,11.74340943,-0.030464076,-0.6922990370000001,-0.22327410399999997,132.4384556,446.90339400000005,12.09635417,96071.02931,1.141482765,-0.306493891,-0.024627133,0.703076213,0.010125212,-0.013183927,-0.00447134,0.006533744,0.045834775,-1.5791889469999998,0,0.703891499,0.018571092,0.013816311000000001,-0.7099302259999999,0.0,398688596.9,327343585.1,447879.5173,11.75186437,-0.141864372,-11.74186437,2.03139828,4.699667848,39.8714138,32.7368418,-284.0459726,-213.81954280000002,-47.43818741,-0.180999546,-11.80207277,2.069060421,-0.100819953,-0.15400776,0.32072682199999997,-1.5804158419999998,47.67570941,0.020840543,0.228864252,-0.003549775,0.0,0,0,0,0,1,,,,,
189568968,0.003679013,0.345175826,-0.082713476,0.0,1.0,1459.0,2000.0,1000.0,1499.0,1500.0,1677.0,11.68717053,11.94292449,11.64963181,11.57419753,11.82787056,11.41641433,11.66662738,82.75896339,82.75896339,12.09212993,-0.000578547,-0.005996438000000001,0.000126454,-0.26458833600000004,0.21876416199999998,-0.030598623999999998,3.0,12.27265453,13.27265453,15,0,0,1,0,0.0,0,0,0,0,0,0.006566528,0.04389029,-1.5792110719999999,-1.574526237,0.159586949,333.3083415,33.82297057,-0.006239791,0.217276864,-0.048232915,0.0,-0.7724186009999999,0.218339427,-9.601694452,-2.46e+27,960.6877860999999,12.09634676,0.005973158,-0.008458768,-0.006117750999999999,-0.8040813240000001,0.18137700699999998,-9.686134817000001,0.012681283,-0.018644056000000003,-0.00260402,48.44139836,49.20772524,-1.3585175880000002,-1.240464061,10.22006502,11.72038118,-0.030006328,-0.663954294,-0.22277978399999998,132.47572,447.0818447,12.09689548,96069.01208,1.141458763,-0.14170196699999998,-0.422514454,0.024877112000000003,0.015339941000000001,-0.009646409,-0.005700202,0.006673738,0.044791669000000006,-1.579246476,0,0.703879315,0.018250534,0.013398918999999999,-0.709958581,0.0,398688596.5,327343529.6,447795.7333,11.75988198,-0.149881974,-11.74988198,2.037411482,4.699003209,39.8714138,32.7368418,-284.05266989999996,-214.3213992,-47.34885609,-0.18375969399999997,-11.81087924,2.07924633,-0.106696418,-0.18135554,0.25672495300000003,-1.5805639480000002,47.58637809,0.020115478,0.23349021399999997,-0.0035924240000000003,0.0,0,0,0,0,1,,,,,
