timestamp,control[0],control[1],control[2],control[3],control[4],output[2],output[3],output[4],output[5],output[6],output[7],indicated_airspeed_m_s,true_airspeed_m_s,indicated_airspeed_m_s.1,equivalent_airspeed_m_s,true_airspeed_m_s.1,equivalent_ground_minus_wind_m_s,true_ground_minus_wind_m_s,differential_pressure_raw_pa,differential_pressure_filtered_pa,temperature,gyro_bias[0],gyro_bias[1],gyro_bias[2],accel_bias[0],accel_bias[1],accel_bias[2],instance_count,seq_reached,seq_current,seq_total,item_changed_index,item_do_jump_remaining,valid,warning,finished,failure,stay_in_failsafe,flight_termination,item_do_jump_changed,execution_mode,nav_roll,nav_pitch,nav_bearing,target_bearing,xtrack_error,wp_dist,acceptance_radius,rollspeed_integ,pitchspeed_integ,yawspeed_integ,additional_integ1,x,y,z,temperature.1,pressure,temperature.2,gyro_rad[0],gyro_rad[1],gyro_rad[2],accelerometer_m_s2[0],accelerometer_m_s2[1],accelerometer_m_s2[2],x.1,y.1,z.1,temperature.3,altitude_sp,altitude_filtered,height_rate_setpoint,height_rate,airspeed_sp,airspeed_filtered,airspeed_derivative_sp,airspeed_derivative,throttle_integ,pitch_integ,baro_alt_meter,baro_temp_celcius,baro_pressure_pa,rho,xyz[0],xyz[1],xyz[2],xyz[0].1,xyz[1].1,xyz[2].1,roll_body,pitch_body,yaw_body,yaw_sp_move_rate,q_d[0],q_d[1],q_d[2],q_d[3],thrust_body[0],lat,lon,alt,vel_m_s,vel_n_m_s,vel_e_m_s,vel_d_m_s,cog_rad,ref_lat,ref_lon,x.2,y.2,z.2,vx,vy,vz,ax,ay,az,yaw,dist_bottom,roll,pitch,yaw.1,thrust_body[0].1,isTakeoff,isClimbing,isDescending,isCruise,isLand
191025993,-0.002071805,0.24455511600000002,-0.22965537,0.0,1.0,1385.0,2000.0,1000.0,1500.0,1499.0,1623.0,11.78317824,12.04233623,11.8632349,11.83244731,12.09280259,12.0206496,12.28514496,87.20816375,87.20816375,12.08145347,-0.000583483,-0.005979095,9.22e-05,-0.257682493,0.21409988600000002,-0.031074637999999998,2.0,12.24884977,13.24884977,15,0,0,1,0,0.0,0,0,0,0,0,-0.0046874659999999995,0.104525245,-1.576865217,-1.574466645,0.083176293,353.8749767,35.197253100000005,-0.010182211,0.21116046,-0.138948476,0.0,-0.8329024340000001,0.245852282,-8.042653076,2754.1082,960.4301533,12.08178447,-0.008881348,-0.11928426800000001,-0.003850145,-0.9270697940000001,0.211655223,-8.225920375,-0.01282804,-0.14370734400000001,-0.0028326059999999997,2754.1082,50.007595,49.812271200000005,0.009766198,-0.018880073,10.22004807,12.51914646,-0.045981962,-0.109360069,-0.338473002,133.1399665,449.3176034,12.08185985,96043.26326,1.141152927,0.109363427,-0.37692525200000004,0.038171051,-0.023882478999999998,-0.156755103,-0.001109233,-0.003867953,0.047134218,-1.577446858,0,0.7045868540000001,0.015355608,0.017979075,-0.709223645,0.0,398688593.0,327345744.1,449861.6223,12.27687337,-0.015325065,-12.29154784,0.136501295,4.710632295,39.8714138,32.7368418,-284.0572943,-196.712113,-49.68009093,-0.025588989,-11.97904897,0.5621876920000001,-0.10952328300000001,0.957733988,1.732053606,-1.5659404559999999,49.83841136,0.00627226,0.045286845,-0.0032087540000000003,0.0,0,0,0,0,1
191068448,-0.0010964969999999999,0.246960807,-0.229533574,0.0,1.0,1386.0,2000.0,1000.0,1500.0,1499.0,1623.513503,11.61565022,11.87118572,11.84243485,11.81163491,12.07153597,11.9970254,12.26100474,86.96333005,86.96333005,12.08147417,-0.000583596,-0.005978518,9.209999999999999e-05,-0.25767968,0.21410076100000003,-0.031091315,2.0,12.25225045,13.25225045,15,0,0,1,0,0.0,0,0,0,0,0,-0.004635523,0.09624883199999999,-1.5769261069999998,-1.57446805,0.085009825,353.37309849999997,35.0629635,-0.010159621,0.211658503,-0.13888663,0.0,-0.830591785,0.263640887,-7.965822885,2754.1082,960.4297073999999,12.08191592,-0.005919185,-0.11274091,-0.0054505709999999995,-0.886036169,0.220213889,-8.211329152000001,-0.014061665,-0.131870778,0.000276103,2754.1082,50.007595,49.81099044,0.009830219,-0.018840361,10.22003186,12.51030179,-0.045805392,-0.110445542,-0.338652265,133.253803,449.2888056,12.08202199,96043.6055,1.141156863,0.06748229900000001,-0.08838334199999999,0.071556466,-0.015327976,-0.151900153,-0.0021880579999999997,-0.003692042,0.050438692,-1.577482071,0,0.704546806,0.016589806999999998,0.019080416,-0.709206972,0.0,398688593.0,327345683.9,449855.9998,12.22481296,-0.017407481000000002,-12.23740522,0.178149623,4.710559557,39.8714138,32.7368418,-284.05823710000004,-197.2429055,-49.65399149,-0.027817795,-11.94031728,0.640532134,-0.131705666,0.904530649,1.698096775,-1.566110925,49.81231234,0.007200371999999999,0.051810245,-0.00307747,0.0,0,0,0,0,1
191106903,-0.001343222,0.249277164,-0.226250919,0.0,1.0,1386.0,2000.0,1000.0,1500.0,1499.0,1624.0,11.73429481,11.99246162,11.82163481,11.7908225,12.05026935,11.9734012,12.23686451,86.71849634,86.71849634,12.08149486,-0.00058371,-0.005977941999999999,9.19e-05,-0.257676867,0.214101636,-0.031107992,2.0,12.25565113,13.25565113,15,0,0,1,0,0.0,0,0,0,0,0,-0.004583581,0.08797241900000001,-1.576986997,-1.574469455,0.086843357,352.8712203,34.92867391,-0.010142024,0.212090432,-0.138843913,0.0,-0.859638425,0.23942355699999998,-8.067387688,2754.1082,960.4351408,12.08209717,-0.010073816,-0.10153723,-0.011270108999999999,-0.8649087990000001,0.219540404,-8.219727673,-0.015200503999999998,-0.12278437800000001,0.000306012,2754.1082,50.007595,49.80949055,0.00990521,-0.018263157,10.22001947,12.50629037,-0.045725413,-0.109838837,-0.338846201,133.3777946,449.298458,12.08221417,96043.50103,1.141155612,-0.201856449,0.923011325,-0.145109016,-0.017534438,-0.146829352,-0.001955766,-0.003428488,0.05036126900000001,-1.577552181,0,0.7045203940000001,0.016655859,0.018959105,-0.709234901,0.0,398688593.0,327345623.7,449850.3773,12.17275255,-0.019489898000000002,-12.183262599999999,0.21979795,4.710486818,39.8714138,32.7368418,-284.0593252,-197.74436210000002,-49.6248934,-0.030335645,-11.90635528,0.712145527,-0.121545363,0.824394143,1.6639048109999999,-1.566353581,49.78321468,0.008174421,0.052692771,-0.002875977,0.0,0,0,0,0,1
191149358,-0.000345704,0.249666377,-0.226381329,0.0,1.0,1386.0,2000.0,1000.0,1500.4456890000001,1498.5543109999999,1625.0,11.619126099999999,11.87469089,11.80083476,11.77001009,12.02900272,11.94977701,12.21272429,86.47366263,86.47366263,12.08151556,-0.000583823,-0.005977365,9.18e-05,-0.257674053,0.21410251100000002,-0.031124667999999998,2.0,12.25905181,13.25905181,15,0,0,1,0,0.0,0,0,0,0,0,-0.004531638,0.079696005,-1.577047888,-1.574470859,0.08867688800000001,352.3693421,34.79438431,-0.010123025,0.212590867,-0.13879039199999998,0.0,-0.888685064,0.215206227,-8.168952491,2754.1082,960.4405742,12.08227843,-0.009606904,-0.102985054,-0.015232246999999999,-0.866407232,0.300921067,-8.261905285,-0.016339343,-0.11369797699999999,0.00033592199999999995,2754.1082,50.007595,49.80794359,0.009982557,-0.01757051,10.2200079,12.50331703,-0.04566618,-0.108868685,-0.33904328899999997,133.5039672,449.20743930000003,12.08243059,96044.53591,1.1411680290000001,-0.110596814,0.143413437,-0.736727189,-0.01398566,-0.14234612800000002,-0.0034868340000000003,-0.0032412879999999997,0.04734342,-1.5776223409999999,0,0.704518095,0.015652132,0.017829173,-0.709289161,0.0,398688592.8,327345563.6,449835.7926,12.12855371,-0.023144629,-12.13383677,0.291320256,4.710167116,39.8714138,32.7368418,-284.06048880000003,-198.23054140000002,-49.594233700000004,-0.033004023,-11.8748772,0.780253566,-0.094541841,0.730231555,1.629590395,-1.5666338309999999,49.7525554,0.008941346,0.052623445,-0.002726166,0.0,0,0,0,0,1
191187813,-0.0009708389999999999,0.250019253,-0.22595125300000002,0.0,1.0,1381.574715,2000.0,1000.0,1500.0,1499.0,1630.574715,11.65050485,11.906692800000002,11.78003472,11.74919768,12.007736099999999,11.92615281,12.18858407,86.22882893,86.22882893,12.08153625,-0.000583937,-0.005976789000000001,9.159999999999999e-05,-0.25767124,0.214103386,-0.031141345,2.0,12.26245249,13.26245249,15,0,0,1,0,0.0,0,0,0,0,0,-0.004479696,0.071419592,-1.5771087780000002,-1.574472264,0.09051042,351.8674639,34.66009471,-0.010097965,0.213117687,-0.138734905,0.0,-0.895125493,0.19082185399999999,-8.215470122000001,2754.1082,960.4483828,12.08248633,-0.00890047,-0.09732163,-0.013244803000000001,-0.847015449,0.255673715,-8.350657977000001,-0.015581696,-0.106786589,-0.0034210670000000003,2754.1082,50.007595,49.80639663,0.010059904,-0.016877863,10.21999632,12.500343699999998,-0.045606948,-0.107898534,-0.339240376,133.6301399,449.0856529,12.08264723,96045.94258999999,1.14118476,-0.381210785,0.49287271,-0.039214961,-0.011595177,-0.135898246,-0.002461173,-0.003026263,0.043909805999999996,-1.577692644,0,0.7045172279999999,0.014510633,0.016542948000000002,-0.709345434,0.0,398688592.6,327345503.4,449818.3003,12.08690538,-0.027309462000000003,-12.08594119,0.372534501,4.7097672919999996,39.8714138,32.7368418,-284.06183510000005,-198.72806809999997,-49.56077008,-0.035968745,-11.84406747,0.8485651820000001,-0.074958393,0.658914581,1.598754393,-1.566973827,49.71909195,0.009720598,0.056940904,-0.00260728,0.0,0,0,0,0,1
191230268,-0.0015419239999999999,0.262373929,-0.235919247,0.0,1.0,1382.0,2000.0,1000.0,1500.0,1499.0,1633.0,11.51410476,11.76723882,11.75923467,11.72838528,11.98646947,11.90252862,12.16444385,85.98399522,85.98399522,12.08155695,-0.00058405,-0.005976213,9.14e-05,-0.257668426,0.21410426100000002,-0.031158021,2.0,12.26585317,13.26585317,15,0,0,1,0,0.0,0,0,0,0,0,-0.0044277529999999996,0.063143178,-1.577169668,-1.574473669,0.09234395199999999,351.3655857,34.52580512,-0.010078662,0.21367164,-0.138678343,0.0,-0.891043417,0.16635972699999999,-8.236364967,2754.1082,960.457297,12.08270664,-0.005183127,-0.09920583,-0.013708158,-0.7441988359999999,0.250665848,-8.473653922,-0.013941291000000001,-0.100887603,-0.008940743000000001,2754.1082,50.007595,49.80484967,0.010137251,-0.016185215,10.21998475,12.49737036,-0.045547715,-0.10692838199999999,-0.339437463,133.7563125,449.0408704,12.08289327,96046.44449,1.14119058,-0.314746453,0.253246129,0.10618604300000001,-0.013543993,-0.120538152,-0.004278904,-0.002860037,0.041847273,-1.577755925,0,0.704507852,0.013838106000000001,0.015757039,-0.709385667,0.0,398688592.4,327345443.2,449800.80799999996,12.04525705,-0.031474295,-12.03804561,0.453748745,4.709367468,39.8714138,32.7368418,-284.0636018,-199.25171310000002,-49.52085267,-0.039615567000000004,-11.81479606,0.9173453709999999,-0.072453807,0.640181601,1.575924689,-1.567451343,49.67917412,0.010504738000000001,0.07715446,-0.002207998,0.0,0,0,0,0,1
191268723,-0.000252011,0.266517593,-0.235356652,0.0,1.0,1382.0,2000.0,1000.0,1500.0,1499.0,1633.0,11.56786214,11.82216193,11.73843462,11.70757287,11.96520285,11.87890442,12.14030362,85.73916151,85.73916151,12.08157764,-0.000584164,-0.0059756359999999994,9.13e-05,-0.257665613,0.214105136,-0.031174697999999997,2.0,12.26925385,13.26925385,15,0,0,1,0,0.0,0,0,0,0,0,-0.0042748379999999996,0.059052510999999995,-1.5772328000000002,-1.574475136,0.09424082,350.8608155,34.42324882,-0.010059195,0.214228952,-0.138617563,0.0,-0.8881995690000001,0.158012654,-8.276965465,2754.1082,960.4632723,12.08296077,-0.00847582,-0.096771925,-0.017338828,-0.8018160670000001,0.20082755,-8.475929216,-0.010948893999999999,-0.096189392,-0.012238516000000001,2754.1082,50.007595,49.80333368,0.01021305,-0.015524607,10.21997417,12.494682800000001,-0.045494177999999996,-0.106006239,-0.339633001,133.8815228,449.15547369999996,12.08314283,96045.12228,1.141174879,-0.179180903,0.160747038,-0.193085229,-0.010141938,-0.11232880599999999,-0.00394568,-0.002585025,0.047078479000000006,-1.5777957319999998,0,0.704453518,0.015790862,0.01750174,-0.709358516,0.0,398688592.2,327345383.0,449783.3157,12.00360872,-0.035639128,-11.99015003,0.53496299,4.7089676439999995,39.8714138,32.7368418,-284.06536850000003,-199.7753581,-49.48093526,-0.043262389000000005,-11.78552465,0.98612556,-0.06994922099999999,0.621448621,1.5530949859999998,-1.5679288580000001,49.63925628,0.011376818,0.079495445,-0.001893019,0.0,0,0,0,0,1
191311177,-0.000441736,0.267298363,-0.23415434899999998,0.0,1.0,1382.0,2000.0,1000.0,1499.0,1500.0,1633.364073,11.62075434,11.87617378,11.71763458,11.68676046,11.94393623,11.85528022,12.116163400000001,85.49432781,85.49432781,12.08159834,-0.000584277,-0.00597506,9.109999999999999e-05,-0.25766279999999997,0.214106011,-0.031191375,2.0,12.27265453,13.27265453,15,0,0,1,0,0.0,0,0,0,0,0,-0.004060495,0.057508305999999995,-1.577297295,-1.5744766430000001,0.09617622099999999,350.3542859,34.33999795,-0.010037385,0.214818934,-0.13855588800000002,0.0,-0.887909009,0.18289561,-8.358199989,2754.1082,960.4631874,12.08328465,-0.010443543000000001,-0.098098739,-0.018671601,-0.805911038,0.21866637,-8.440582155,-0.005168621,-0.09396723900000001,-0.010954617,2754.1082,50.007595,49.80222107,0.010268682,-0.015281358,10.21997648,12.49571796,-0.045514834000000004,-0.105709494,-0.339808341,133.9941956,449.0601402,12.08343935,96046.23977,1.141188227,-0.1750724,0.152138413,0.101410475,-0.005570335,-0.101491495,-0.010388648,-0.002254732,0.045668562,-1.577865157,0,0.7044372990000001,0.015407681999999999,0.016887473,-0.7093979559999999,0.0,398688592.0,327345322.8,449765.8234,11.96196039,-0.039803961,-11.94225445,0.616177235,4.70856782,39.8714138,32.7368418,-284.06728010000006,-200.25820359999997,-49.43838673,-0.046465432,-11.763292100000001,1.044032367,-0.09236046699999999,0.568577118,1.477594065,-1.5684197430000002,49.59670854,0.01209093,0.081432541,-0.001705735,0.0,0,0,0,0,1
191357632,4.45e-05,0.26810472,-0.234290357,0.0,1.0,1384.6563310000001,2000.0,1000.0,1500.0,1499.0,1634.6563310000001,11.47818717,11.73054861,11.70388739,11.67296015,11.92981491,11.838169500000001,12.0986587,85.23192473,85.23192473,12.08183998,-0.000584307,-0.005974587,9.109999999999999e-05,-0.257661651,0.214110808,-0.031210225,2.0,12.27605521,13.27605521,15,0,0,1,0,0.0,0,0,0,0,0,-0.0038461520000000003,0.055964100999999995,-1.57736179,-1.5744781490000002,0.098111622,349.8477563,34.25674709,-0.01001644,0.21542367899999998,-0.138489058,0.0,-0.8876184490000001,0.207778567,-8.439434513,2754.1082,960.4631025,12.08360854,-0.002039898,-0.10325745300000001,-0.014214596000000001,-0.890350072,0.226029847,-8.485545391,0.000611653,-0.09174508599999999,-0.009670719,2754.1082,50.007595,49.80110846,0.010324314,-0.01503811,10.21997879,12.49675313,-0.04553549,-0.105412748,-0.33998368100000004,134.10686840000002,448.969174,12.08373254,96047.26329,1.141200392,-0.087738088,0.201984776,0.223258717,-0.007125876999999999,-0.10105052199999999,-0.006300991,-0.00196723,0.04269981900000001,-1.5779341830000002,0,0.7044326209999999,0.014456408,0.015739382,-0.709448915,0.0,398688592.0,327345262.3,449731.8606,11.93023385,-0.04,-11.91023405,0.6954070809999999,4.708583727,39.8714138,32.7368418,-284.0691997,-200.7388195,-49.39569443,-0.049644225,-11.74144418,1.1013450009999999,-0.116133235,0.5138401220000001,1.399214935,-1.568911358,49.55401709,0.012685809,0.083926155,-0.001527799,0.0,0,0,0,0,1
191396174,-0.001263061,0.270333511,-0.229990219,0.0,1.0,1385.0,2000.0,1000.0,1499.0,1500.0,1640.676735,11.49438269,11.74702462,11.69279647,11.66180076,11.91838468,11.8235119,12.083653100000001,84.96290462,84.96290462,12.08216482,-0.0005843059999999999,-0.005974154000000001,9.120000000000001e-05,-0.257661129,0.21411708399999999,-0.031229893999999998,2.0,12.27945589,13.27945589,15,0,0,1,0,0.0,0,0,0,0,0,-0.003631809,0.054419895999999995,-1.577426285,-1.574479655,0.10004702300000001,349.3412267,34.17349622,-0.009996823,0.216023537,-0.138425551,0.0,-0.82585786,0.215294223,-8.436140218,2754.1082,960.4739377999998,12.08390728,-0.00019067400000000002,-0.106324608,-0.016000688,-0.782463043,0.278773494,-8.61161425,-0.001784733,-0.098466494,-0.01208634,2754.1082,50.007595,49.79999586,0.010379946,-0.014794861000000001,10.21998111,12.49778829,-0.045556145,-0.10511600300000001,-0.34015902200000003,134.21954119999998,448.9421178,12.08402659,96047.56947999999,1.141204026,-0.09930562,0.035435329,-0.6733530670000001,-0.008612215,-0.096894387,-0.009251335,-0.0016561229999999998,0.041215100000000005,-1.5779944940000001,0,0.7044191190000001,0.014039747,0.015105664,-0.709483819,0.0,398688592.0,327345201.7,449697.0842,11.89899739,-0.04,-11.8789978,0.7745389079999999,4.708620169,39.8714138,32.7368418,-284.0714217,-201.24201159999998,-49.34680723,-0.053715162000000004,-11.72015456,1.160469902,-0.12605555699999998,0.46875894799999995,1.339120172,-1.5694249269999998,49.50512973,0.01323887,0.09885371300000001,-0.00111288,0.0,0,0,0,0,1
191438542,0.001041946,0.282551709,-0.22962969800000002,0.0,1.0,1385.0,2000.0,1000.0,1498.0,1501.0,1642.302861,11.43830117,11.68965909,11.68170555,11.65064137,11.90695445,11.8088543,12.06864749,84.69388451,84.69388451,12.08248967,-0.000584304,-0.00597372,9.120000000000001e-05,-0.257660607,0.21412335899999999,-0.031249562999999998,2.0,12.28285657,13.28285657,15,0,0,1,0,0.0,0,0,0,0,0,-0.003417465,0.052875690999999996,-1.57749078,-1.574481161,0.101982424,348.8346971,34.09024535,-0.009979857,0.21666121800000002,-0.138369876,0.0,-0.7622472029999999,0.222287175,-8.430301853,2754.1082,960.4851017000001,12.08420527,-0.008351378000000001,-0.10395531400000001,-0.016081583,-0.875746719,0.19432681300000001,-8.592008007,-0.0044272109999999995,-0.105457077,-0.014613306000000001,2754.1082,50.007595,49.79888325,0.010435578000000001,-0.014551612,10.21998342,12.49882346,-0.04557680099999999,-0.104819257,-0.34033436200000006,134.332214,448.83613399999996,12.08435583,96048.80438,1.141218609,-0.320653913,0.267431158,0.7100089629999999,-0.005546476999999999,-0.08844307300000001,-0.013234751000000001,-0.00143088,0.046169483,-1.5780353319999998,0,0.704366565,0.015876968,0.016770325,-0.7094606290000001,0.0,398688592.0,327345141.1,449662.3079,11.86776094,-0.04,-11.84776155,0.853670734,4.7086566119999995,39.8714138,32.7368418,-284.07385089999997,-201.7606666,-49.29367702,-0.058397147999999996,-11.69924732,1.220836063,-0.126491424,0.430291245,1.2915487490000002,-1.569953532,49.45199867,0.014291297,0.107039538,-0.0006568660000000001,0.0,0,0,0,0,1
191476997,0.002111197,0.285357808,-0.229022707,0.0,1.0,1381.0,2000.0,1000.0,1499.0,1500.0,1645.0,11.46056892,11.71244216,11.67061463,11.63948198,11.89552422,11.79419669,12.05364189,84.42486439,84.42486439,12.08281452,-0.000584303,-0.005973287,9.120000000000001e-05,-0.257660085,0.21412963399999999,-0.031269233,2.0,12.28625725,13.28625725,15,0,0,1,0,0.0,0,0,0,0,0,-0.003203122,0.051331485,-1.577555275,-1.5744826669999998,0.103917825,348.3281675,34.00699448,-0.009962646,0.21725254600000002,-0.138325394,0.0,-0.7707262140000001,0.244737438,-8.441559275,2754.1082,960.4910185,12.08452728,-0.006228698,-0.088469416,-0.015611033,-0.8431995170000001,0.24161503199999998,-8.518057106,-0.005438439000000001,-0.10702951599999999,-0.014285751000000001,2754.1082,50.00067101,49.7975973,-0.051595735,-0.015074167,10.21999609,12.49645957,-0.045529269000000004,-0.1158404,-0.34050966200000005,134.4441985,448.7846555,12.08470569,96049.39655,1.1412256170000001,-0.058987559,-0.234767187,0.095675913,-0.006422451,-0.08667226800000001,-0.012641738999999999,-0.001178129,0.044467377999999995,-1.57810362,0,0.704353591,0.015362718999999999,0.016080701,-0.7095007879999999,0.0,398688592.0,327345080.5,449627.5315,11.83652448,-0.04,-11.81652531,0.9328025609999999,4.708693053999999,39.8714138,32.7368418,-284.0763389,-202.2693489,-49.24024296,-0.062793407,-11.67980854,1.279331081,-0.11961026599999999,0.394681227,1.255561388,-1.5704870569999998,49.39856396,0.014794149,0.111580888,-0.000488381,0.0,0,0,0,0,1
191519452,0.000506349,0.290563201,-0.236401611,0.0,1.0,1382.0,2000.0,1000.0,1499.0,1500.0,1645.0,11.38584541,11.63600262,11.65952371,11.628322599999999,11.88409398,11.77953909,12.03863628,84.15584428,84.15584428,12.08313937,-0.000584301,-0.005972853,9.13e-05,-0.257659563,0.21413590899999999,-0.031288902,2.0,12.28965793,13.28965793,15,0,0,1,0,0.0,0,0,0,0,0,-0.0029887790000000004,0.04978728,-1.57761977,-1.574484174,0.105853226,347.8216379,33.92374362,-0.009945421999999999,0.21789222600000002,-0.138271685,0.0,-0.8243372259999999,0.276864806,-8.463519577000001,2754.1082,960.4936502999999,12.08486432,0.000793667,-0.09176339,-0.013512753999999998,-0.775843602,0.234744275,-8.580786159,-0.005428416,-0.10520990599999999,-0.012171113,2754.1082,49.97899232,49.79594196,-0.24593137399999998,-0.017228612,10.22003081,12.48685247,-0.04533643,-0.150979425,-0.340684876,134.55471640000002,448.769368,12.08506045,96049.54719,1.141227525,0.629469143,0.024574002,0.044958944,-0.002457533,-0.08769944,-0.014228382,-0.000922098,0.041555902,-1.578171395,0,0.704349069,0.014420505,0.01496404,-0.709549344,0.0,398688592.0,327345020.3,449591.1848,11.80654434,-0.040314063,-11.78780153,1.0069093820000001,4.708674661,39.8714138,32.7368418,-284.0790145,-202.7462446,-49.1858404,-0.06627895,-11.66505032,1.331862059,-0.089406995,0.368179728,1.256496799,-1.571036259,49.3441614,0.015418423,0.11324442,-0.00016582,0.0,0,0,0,0,1
191557907,0.000420564,0.291010786,-0.235696546,0.0,1.0,1381.0,2000.0,1000.0,1498.758352,1500.241648,1651.758352,11.47964819,11.73186437,11.64843278,11.61716321,11.87266375,11.76488149,12.02363068,83.88682417,83.88682417,12.08346422,-0.0005842999999999999,-0.00597242,9.13e-05,-0.25765904100000003,0.21414218399999999,-0.031308571,2.0,12.29305861,13.29305861,15,0,0,1,0,0.0,0,0,0,0,0,-0.002774436,0.048243075,-1.577684265,-1.57448568,0.107788627,347.3151084,33.84049275,-0.009924258,0.21852173600000002,-0.138220795,0.0,-0.849198415,0.300049611,-8.491084728999999,2452.425421,960.4962821,12.08521137,-0.0030416759999999997,-0.08804737800000001,-0.011558586000000001,-0.8206378059999999,0.30051305899999997,-8.632707693,-0.003683004,-0.101759214,-0.01079381,2452.425421,49.95731362,49.79428662,-0.440267012,-0.019383057,10.22006554,12.47724537,-0.045143592,-0.186118449,-0.34086009,134.6652342,448.7447308999999,12.08542965,96049.84756000001,1.14123102,-0.11584629800000001,0.511772673,-0.215866129,-0.007483872,-0.084724096,-0.014219335,-0.0007440589999999999,0.040567344,-1.5782278419999998,0,0.70433439,0.014132887,0.014552323999999998,-0.709577505,0.0,398688591.8,327344962.6,449545.9964,11.78363797,-0.042396479,-11.77322441,1.052722545,4.7083475130000005,39.8714138,32.7368418,-284.08169,-203.2231403,-49.13143783,-0.069764493,-11.65029209,1.384393038,-0.059203724000000006,0.341678228,1.25743221,-1.5715854619999998,49.28975883,0.015971952,0.126701713,0.000268632,0.0,0,0,0,0,1
191596362,0.002068172,0.30382015100000004,-0.23752469,0.0,1.0,1381.0,2000.0,1000.0,1499.0,1500.0,1653.0,11.45007664,11.7015983,11.63734186,11.60600382,11.86123352,11.75022389,12.00862507,83.61780406,83.61780406,12.08378907,-0.000584299,-0.0059719859999999994,9.14e-05,-0.257658518,0.21414845899999999,-0.03132824,2.0,12.29645929,13.29645929,15,0,0,1,0,0.0,0,0,0,0,0,-0.002560093,0.04669887,-1.57774876,-1.574487186,0.109724028,346.8085788,33.75724188,-0.009906863,0.219143158,-0.138167483,0.0,-0.79188738,0.29767494,-8.534669565,1288.47841,960.4989139,12.08558704,-0.0008472789999999999,-0.085787011,-0.007982745,-0.7511942859999999,0.217102976,-8.729948054,0.003022465,-0.09364659199999999,-0.011523943,1288.47841,49.93563493,49.79263129,-0.634602651,-0.021537502000000004,10.22010026,12.46763827,-0.044950752999999996,-0.22125747399999998,-0.341035304,134.7757521,448.57207410000007,12.08581536,96051.85449,1.1412549379999999,-0.384080631,0.307080135,-0.056852652000000004,-0.006947526999999999,-0.08946119599999999,-0.01822629,-0.000454696,0.04531438,-1.578269168,0,0.704282655,0.015919309,0.01612103,-0.709558079,0.0,398688591.6,327344904.9,449500.80799999996,11.76073159,-0.044478894000000005,-11.75864728,1.0985357070000001,4.708020365,39.8714138,32.7368418,-284.0847485,-203.734422,-49.06801973,-0.073331455,-11.63784867,1.4375913480000002,-0.11043021199999999,0.295717086,1.224614288,-1.572092611,49.22634111,0.016395596000000002,0.135935491,0.000528508,0.0,0,0,0,0,1
191638817,0.0013138289999999999,0.307311972,-0.23748741899999998,0.0,1.0,1381.0,2000.0,1000.0,1499.0,1500.0,1653.0,11.46580715,11.71770071,11.62625094,11.59484443,11.84980329,11.73556629,11.99361947,83.34878395,83.34878395,12.08411392,-0.000584297,-0.005971553,9.14e-05,-0.257657996,0.214154735,-0.031347909,2.0,12.29985997,13.29985997,15,0,0,1,0,0.0,0,0,0,0,0,-0.002345749,0.045154664000000004,-1.577813255,-1.5744886919999999,0.111659429,346.3020492,33.67399101,-0.009888576999999999,0.219786592,-0.138111934,0.0,-0.734576346,0.29530027,-8.578254401,124.5313983,960.5015457000001,12.08596271,-0.001217943,-0.081838763,-0.012905103999999999,-0.829213887,0.21776396,-8.655682927,0.009727935,-0.085533971,-0.012254077,124.5313983,49.91395624,49.79097595,-0.8289382890000001,-0.023691947,10.22013498,12.45803116,-0.044757915,-0.25639649800000003,-0.34121051799999996,134.88627,448.51447,12.08621717,96052.50042000001,1.141262704,-0.215954457,0.853029003,-0.164138099,-0.0025352870000000002,-0.09250367400000001,-0.009357024,-0.000141125,0.043779924000000005,-1.578336044,0,0.7042683959999999,0.015485846000000001,0.015468919,-0.7095963009999999,0.0,398688591.3,327344847.3,449455.6195,11.73782522,-0.04656131,-11.74407016,1.14434887,4.707693218,39.8714138,32.7368418,-284.0878572,-204.25021040000001,-49.00342006,-0.076909087,-11.62570863,1.490877119,-0.1723289,0.24720556,1.187372646,-1.572594249,49.16174186,0.016992194,0.139675449,0.00083516,0.0,0,0,0,0,1
191686543,0.000363627,0.308221886,-0.237786343,0.0,1.0,1380.0,2000.0,1000.0,1500.0,1499.0,1654.8195640000001,11.36667015,11.61625534,11.61516002,11.58368504,11.83837306,11.72090869,11.97861386,83.07976383,83.07976383,12.08443877,-0.000584296,-0.005971119,9.14e-05,-0.257657474,0.21416101,-0.031367578,2.0,12.30326065,13.30326065,15,0,0,1,0,0.0,0,0,0,0,0,-0.002131406,0.043610459000000004,-1.57787775,-1.5744901980000001,0.11359483,345.79551960000003,33.59074014,-0.00987146,0.220431078,-0.138069536,0.0,-0.755865736,0.285635937,-8.61504518,12.08634988,960.5174842,12.08634988,-0.002632057,-0.07426671900000001,-0.007117199,-0.724578718,0.258095064,-8.820298147,0.004967462,-0.08156914400000001,-0.013376845,1063.587611,49.86896899,49.78774374,-0.947035757,-0.043359867,10.22013949,12.43871573,-0.044371515,-0.320847555,-0.333435895,134.996918,448.55538260000003,12.08662548,96052.02898999999,1.14125704,-0.023416713,-0.26637154399999996,-0.053266954000000005,-0.00157921,-0.090870643,-0.015000218000000001,0.000152781,0.041111967,-1.5784021869999998,0,0.704262623,0.014643214,0.014424667,-0.7096418329999999,0.0,398688591.1,327344789.6,449410.4311,11.71491885,-0.048643726,-11.72949303,1.190162032,4.70736607,39.8714138,32.7368418,-284.0910356,-204.744481,-48.93898002,-0.080748378,-11.61594025,1.539652141,-0.18996982,0.21745398,1.141395733,-1.5730326159999999,49.09730202,0.017309568,0.14090736199999998,0.001090785,0.0,0,0,0,0,1
191735726,-0.000886084,0.31087993199999997,-0.23980502399999998,0.0,1.0,1380.0,2000.0,1000.0,1498.839968,1500.160032,1661.0,11.47086279,11.7227004,11.604069099999998,11.57252565,11.82694283,11.70625109,11.96360826,82.81074372,82.81074372,12.08476362,-0.0005842940000000001,-0.005970685999999999,9.15e-05,-0.257656952,0.214167285,-0.031387248,2.0,12.30666133,13.30666133,15,0,0,1,0,0.0,0,0,0,0,0,-0.0019170629999999999,0.042066254000000004,-1.577942245,-1.5744917040000002,0.11553023,345.28899,33.50748928,-0.009847803,0.221142552,-0.138016459,0.0,-0.785560492,0.27519206399999996,-8.651109417,12.08673828,960.5348456,12.08673828,-0.00250824,-0.07422572,-0.005930370999999999,-0.7839328059999999,0.24998447199999999,-8.774609675,-0.001019155,-0.078047874,-0.0145416,2227.534623,49.80621727,49.78330972,-1.007028756,-0.076375578,10.22012097,12.41200116,-0.043837595,-0.407638603,-0.319602349,135.1076653,448.40650660000006,12.0870513,96053.75792999999,1.141277523,-0.22917763800000002,0.295781046,0.16853685699999998,-0.005195155999999999,-0.09008371400000001,-0.014893306,0.000418839,0.040917813,-1.5784551919999998,0,0.7042427170000001,0.014668381000000001,0.014261493,-0.7096633459999999,0.0,398688590.9,327344731.7,449360.8858,11.69564306,-0.052904578,-11.71273762,1.2396059209999999,4.706924845,39.8714138,32.7368418,-284.09427589999996,-205.219627,-48.87468187,-0.084820227,-11.60827978,1.584418053,-0.168274875,0.204376053,1.087654997,-1.573414747,49.03300387,0.017443395,0.15451221,0.001447532,0.0,0,0,0,0,1
191778181,0.001878364,0.322876647,-0.239671419,0.0,1.0,1382.0,2000.0,1000.0,1499.139628,1499.860372,1661.0,11.43086651,11.681823300000001,11.59297818,11.56136626,11.815512599999998,11.69159349,11.94860265,82.54172361,82.54172361,12.08508846,-0.000584293,-0.005970252,9.15e-05,-0.25765643,0.21417356,-0.031406917,2.0,12.31006201,13.31006201,15,0,0,1,0,0.0,0,0,0,0,0,-0.0016563720000000001,0.041739083999999996,-1.57800153,-1.574493149,0.11738375,344.7899895,33.46997361,-0.009830547,0.22171826100000003,-0.137974931,0.0,-0.7793409729999999,0.265447406,-8.726361342,649.4601355000001,960.5433741,12.08714807,-0.00297009,-0.072057748,-0.011388881000000002,-0.756603059,0.254500567,-8.857320922000001,-0.002176452,-0.076718834,-0.012214193,2754.1082,49.74346554,49.77887571,-1.067021754,-0.109391289,10.22010245,12.38528659,-0.043303674,-0.494429651,-0.305768804,135.2184125,448.36892120000005,12.08751437,96054.17355,1.1412825359999998,-0.46428327700000005,0.26863504,0.141620201,-0.0005678619999999999,-0.08106532799999999,-0.01196113,0.00066713,0.045709578,-1.578497874,0,0.704189253,0.016456369,0.015860313,-0.709644363,0.0,398688590.4,327344673.6,449303.2028,11.68314835,-0.06123424400000001,-11.69191366,1.295831166,4.70627055,39.8714138,32.7368418,-284.0976773,-205.7015043,-48.80861355,-0.088917335,-11.6008653,1.6290398019999999,-0.14935354,0.188426813,1.03619869,-1.5738080330000002,48.96693555,0.017840512,0.162718693,0.0018132320000000001,0.0,0,0,0,0,1
191816636,0.000800261,0.323017406,-0.23443494399999998,0.0,1.0,1382.0,2000.0,1000.0,1498.880776,1500.119224,1662.0,11.47777799,11.72966593,11.58188726,11.55020687,11.80408237,11.67693588,11.93359705,82.2727035,82.2727035,12.08541331,-0.0005842919999999999,-0.005969819,9.15e-05,-0.257655908,0.214179835,-0.031426586,2.0,12.31346269,13.31346269,15,0,0,1,0,0.0,0,0,0,0,0,-0.0013843660000000002,0.041709013999999996,-1.5780595430000002,-1.574494579,0.119217281,344.292827,33.44362272,-0.009811985,0.22237383,-0.137928728,0.0,-0.743450452,0.256280412,-8.833988639,1813.406759,960.5446051000001,12.08757553,0.006837456,-0.05310205,-0.00436569,-0.7851009170000001,0.165050273,-8.925894895,0.000656051,-0.07720093,-0.007001696,2754.1082,49.68071381,49.77444169,-1.1270147529999999,-0.142407,10.22008393,12.35857202,-0.04276975400000001,-0.581220699,-0.29193525800000003,135.3291598,448.32676349999997,12.08794966,96054.66943,1.141288392,0.628892181,0.058999129000000004,-0.242405657,0.0013791220000000002,-0.075296722,-0.015720173,0.000982597,0.044424687000000004,-1.5785632090000001,0,0.704173908,0.016112042,0.015295438,-0.709679972,0.0,398688590.0,327344615.5,449245.5199,11.67065364,-0.06956390900000001,-11.67108971,1.352056411,4.705616255,39.8714138,32.7368418,-284.1018392,-206.2151693,-48.73418582,-0.09313372,-11.59461245,1.6729807630000002,-0.14353022599999998,0.158918157,0.9955303090000001,-1.574253995,48.89250782,0.018085725,0.165496966,0.002023642,0.0,0,0,0,0,1
191855091,0.002008519,0.325201253,-0.234908509,0.0,1.0,1383.0,2000.0,1000.0,1499.0,1500.0,1662.0,11.44572742,11.69690591,11.57079634,11.53904748,11.79265214,11.66227828,11.91859144,82.00368339,82.00368339,12.08573816,-0.00058429,-0.005969385,9.159999999999999e-05,-0.25765538600000004,0.214186111,-0.031446255,2.0,12.31686337,13.31686337,15,0,0,1,0,0.0,0,0,0,0,0,-0.001112361,0.041678942999999996,-1.578117557,-1.574496009,0.121050812,343.7956645,33.41727182,-0.009795118,0.22303946100000002,-0.13789291,0.0,-0.721234378,0.249466959,-8.925138542000001,2754.1082,960.5452255000001,12.08800795,0.001669135,-0.062392275,-0.007799675,-0.7385761270000001,0.222462397,-8.935229499,0.003290235,-0.07579673599999999,-0.003419407,2754.1082,49.61796209,49.77000768,-1.187007752,-0.175422711,10.22006542,12.33185745,-0.04223583400000001,-0.668011747,-0.27810171300000003,135.439907,448.2961561000001,12.08840949,96055.02814,1.141292588,-0.132320325,0.137410289,0.638924781,0.00636267,-0.073347778,-0.010256412,0.0012724910000000002,0.041907006000000004,-1.5786280959999999,0,0.7041681120000001,0.015321204,0.014305596,-0.709723613,0.0,398688589.6,327344557.4,449187.83700000006,11.65815893,-0.077893575,-11.65026575,1.408281656,4.704961958999999,39.8714138,32.7368418,-284.1060011,-206.7288342,-48.65975808,-0.097350105,-11.588359599999999,1.716921725,-0.137706912,0.12940950199999998,0.954861927,-1.574699956,48.81808008,0.018556434,0.165603804,0.001902836,0.0,0,0,0,0,1
191897546,0.00042584800000000005,0.32440516399999997,-0.233498153,0.0,1.0,1383.0,2000.0,1000.0,1500.0,1499.0,1667.0,11.41955109,11.67014171,11.55970542,11.52788809,11.78122191,11.64762068,11.90358584,81.73466327,81.73466327,12.08606301,-0.000584289,-0.005968952,9.159999999999999e-05,-0.257654864,0.214192386,-0.031465924,2.0,12.32026405,13.32026405,15,0,0,1,0,0.0,0,0,0,0,0,-0.0008403560000000001,0.041648872999999996,-1.57817557,-1.57449744,0.122884344,343.298502,33.39092093,-0.009777171,0.22373399100000002,-0.137855778,0.0,-0.7566391309999999,0.252570754,-8.946856675,2754.1082,960.5432729,12.0884613,-0.000816479,-0.058597712999999996,-0.011783508,-0.740039885,0.123584931,-9.02748974,0.005088746,-0.066444167,-0.006706425,2754.1082,49.55407448,49.75774165,-1.212685351,-0.235685728,10.22006955,12.28518387,-0.041302281,-0.709351608,-0.268787878,135.523742,448.30542930000007,12.08889193,96054.89357,1.141291059,0.32347734699999997,0.353536953,-0.275495769,-0.0030348429999999997,-0.072235904,-0.010816695,0.001754605,0.042276062,-1.5786765280000001,0,0.7041438240000001,0.015622243000000001,0.014264065,-0.709740991,0.0,398688589.2,327344499.3,449130.154,11.64566423,-0.08622324099999999,-11.62944179,1.464506901,4.704307664,39.8714138,32.7368418,-284.11059839999996,-207.2418374,-48.58164601,-0.10250612099999999,-11.58526295,1.757180779,-0.141959538,0.08808982300000001,0.9126989109999999,-1.575105449,48.73996801,0.018853061,0.178062224,0.001809227,0.0,0,0,0,0,1
191936001,-0.000399045,0.33561275399999996,-0.23314189300000002,0.0,1.0,1383.0,2000.0,1000.0,1498.0,1501.0,1668.0,11.37529456,11.62497755,11.548614500000001,11.5167287,11.76979168,11.63296308,11.88858023,81.46564316,81.46564316,12.08638786,-0.000584287,-0.005968518000000001,9.17e-05,-0.257654342,0.214198661,-0.031485594,2.0,12.32366473,13.32366473,15,0,0,1,0,0.0,0,0,0,0,0,-0.00056835,0.041618802,-1.5782335840000001,-1.57449887,0.124717875,342.8013395,33.36457003,-0.009756200999999999,0.224353065,-0.137822533,0.0,-0.792043884,0.255674549,-8.968574808,2754.1082,960.5413202,12.08891465,0.008633569,-0.051681189,-0.007317203,-0.66268222,0.21436642600000003,-9.01745126,0.006887257,-0.05709159900000001,-0.009993442,2754.1082,49.48993005,49.74370474,-1.23060399,-0.302109557,10.22007881,12.23399741,-0.040278367999999995,-0.740414628,-0.260495982,135.60149199999998,448.0884524,12.08937853,96057.41193999999,1.141320893,0.0020074520000000003,0.156566777,0.202203087,0.00572113,-0.065414897,-0.014400257,0.002053984,0.046861447,-1.578719156,0,0.704089352,0.017355106999999998,0.015771877,-0.7097240490000001,0.0,398688588.8,327344440.7,449066.3247,11.63544609,-0.092276452,-11.62,1.5150409969999998,4.703812345,39.8714138,32.7368418,-284.11529110000004,-207.7546954,-48.50272553,-0.107868305,-11.5828588,1.796631971,-0.148422966,0.044178638,0.870207952,-1.575502062,48.66104753,0.019082071000000003,0.185028042,0.0015637239999999998,0.0,0,0,0,0,1
191978456,0.00284292,0.33780381299999995,-0.23343623600000002,0.0,1.0,1382.0,2000.0,1000.0,1498.0,1501.0,1668.037608,11.42155794,11.67203059,11.53752358,11.50556932,11.75836145,11.61830548,11.87357463,81.19662305,81.19662305,12.08671271,-0.0005842859999999999,-0.005968085,9.17e-05,-0.25765382,0.214204936,-0.031505263,2.0,12.32706541,13.32706541,15,0,0,1,0,0.0,0,0,0,0,0,-0.000296345,0.041588732,-1.578291597,-1.5745003,0.126551406,342.304177,33.33821914,-0.009738648,0.22501596899999998,-0.137787788,0.0,-0.763782825,0.27771931,-8.986156565,2754.1082,960.5635697999999,12.08948724,0.004026806,-0.05206026,-0.01032369,-0.7380676840000001,0.161055314,-9.110422183999999,0.005064201,-0.05559687,-0.014386049,2754.1082,49.42578562,49.72966783,-1.248522629,-0.368533386,10.22008807,12.18281095,-0.039254456,-0.771477648,-0.252204086,135.6792419,448.04707750000006,12.08986449,96057.86688,1.141326275,-0.028517224,0.008045263,0.426159656,-0.001252646,-0.06582433900000001,-0.010395316,0.00255034,0.045718830999999995,-1.5787826809999999,0,0.704072218,0.017124876,0.015192921000000002,-0.7097591679999999,0.0,398688588.4,327344381.5,448997.3967,11.62711642,-0.096441286,-11.62,1.5608541390000001,4.703448901000001,39.8714138,32.7368418,-284.12012819999995,-208.24963540000002,-48.42506718,-0.11321067900000001,-11.58227996,1.832074935,-0.154868378,0.024204082000000002,0.801379697,-1.575879445,48.58338898,0.019185492,0.187574258,0.001488659,0.0,0,0,0,0,1
192016911,0.003477755,0.338789524,-0.23529663,0.0,1.0,1382.0,2000.0,1000.0,1499.0,1500.0,1671.94839,11.428483900000002,11.67909037,11.52643266,11.49440993,11.74693121,11.60364788,11.85856902,80.92760294,80.92760294,12.08703756,-0.000584285,-0.005967651,9.17e-05,-0.25765329800000003,0.214211211,-0.031524932,2.0,12.33046609,13.33046609,15,0,0,1,0,0.0,0,0,0,0,0,-2.4299999999999998e-05,0.041558662,-1.57834961,-1.57450173,0.128384937,341.8070145,33.31186824,-0.009723273000000001,0.225679663,-0.13774228300000002,0.0,-0.7230326440000001,0.30347966,-9.002926902,2754.1082,960.590567,12.09008322,0.003373045,-0.054413740999999995,-0.010306615,-0.701649871,0.158059333,-9.165239884,0.002530713,-0.05564358900000001,-0.018995537,2754.1082,49.36164119,49.71563092,-1.266441267,-0.43495721600000004,10.22009733,12.13162449,-0.038230543,-0.802540668,-0.24391219,135.7569918,447.8280471,12.09038019,96060.41505,1.141356662,-0.09387242400000001,-0.09710835400000001,-0.360555676,0.0049477259999999995,-0.05949841,-0.008071533,0.002841476,0.043333038,-1.578845817,0,0.704067256,0.016381184,0.014249137,-0.709801297,0.0,398688587.9,327344322.4,448928.4687,11.61878676,-0.10060611900000001,-11.62,1.60666728,4.703085457,39.8714138,32.7368418,-284.125131,-208.7239915,-48.34885874,-0.118530295,-11.583798,1.862913304,-0.161293093,0.031727575,0.7022955409999999,-1.5762347369999998,48.50718012,0.019701055,0.186435939,0.001184954,0.0,0,0,0,0,1
192059365,0.0012364910000000002,0.338331545,-0.235457274,0.0,1.0,1383.003201,2000.0,1000.0,1499.0,1500.0,1674.0,11.47411225,11.72572066,11.51534174,11.48325054,11.73550098,11.58899028,11.84356341,80.65858283,80.65858283,12.08736241,-0.000584283,-0.005967218000000001,9.18e-05,-0.25765277600000003,0.214217486,-0.031544601,2.0,12.33386677,13.33386677,15,0,0,1,0,0.0,0,0,0,0,0,0.000247666,0.041528591000000004,-1.578407624,-1.57450316,0.130218468,341.309852,33.28551735,-0.009704784000000001,0.226333245,-0.137704641,0.0,-0.7055556140000001,0.324645659,-9.089963802,2754.1082,960.6066792000001,12.09062946,-0.004336888,-0.04449782,-0.006717641,-0.721147543,0.205411984,-9.196861421,0.001375353,-0.054443717999999995,-0.018932823999999997,2754.1082,49.29732925,49.70075064,-1.283777347,-0.501581327,10.22010424,12.08068796,-0.037211676,-0.831709382,-0.236000811,135.8334598,447.90747269999997,12.09089027,96059.49081,1.1413456640000001,0.134400296,-0.238597531,-0.28192311,0.006088164,-0.052950015999999996,-0.014470114,0.0031811509999999997,0.044176709,-1.5788905069999999,0,0.704041048,0.01680047,0.014425218,-0.709812777,0.0,398688587.5,327344263.3,448859.5407,11.61045709,-0.10477095300000001,-11.62,1.6524804219999998,4.702722013,39.8714138,32.7368418,-284.1301808,-209.1983866,-48.27241088,-0.12376687199999999,-11.58545774,1.893263058,-0.163327675,0.031673512,0.612906059,-1.576587226,48.43073193,0.020200472,0.198592627,0.0008706030000000001,0.0,0,0,0,0,1
192101820,0.0012925810000000001,0.34825223200000005,-0.23189982899999997,0.0,1.0,1383.0,2000.0,1000.0,1499.0,1500.0,1675.0,11.45155151,11.70267933,11.50425082,11.47209115,11.72407075,11.57433268,11.82855781,80.38956271,80.38956271,12.08768726,-0.000584282,-0.005966784,9.18e-05,-0.25765225399999997,0.21422376199999998,-0.03156427,2.0,12.33726745,13.33726745,15,0,0,1,0,0.0,0,0,0,0,0,0.000519672,0.041498521000000003,-1.5784656369999999,-1.57450459,0.132051999,340.8126895,33.25916646,-0.009687862,0.22696836399999998,-0.13766946800000002,0.0,-0.713270228,0.34083857700000003,-9.253059601,2754.1082,960.6110089,12.09112186,0.0030105590000000003,-0.038204832,-0.005834466999999999,-0.6968195970000001,0.190419332,-9.265848789,0.0017117229999999998,-0.051894497000000005,-0.013812762,2754.1082,49.23055471,49.67347145,-1.292548931,-0.571149876,10.22007656,12.03342582,-0.036266985,-0.833028972,-0.233683597,135.89108090000002,447.8337886,12.09140035,96060.33585,1.141355636,0.6224281110000001,-0.025804562000000003,-0.006756926,0.0015620579999999998,-0.05087925099999999,-0.007284983,0.003455647,0.048323396,-1.578934205,0,0.7039875109999999,0.018368999,0.015787202,-0.709799194,0.0,398688587.1,327344204.1,448790.6127,11.60212743,-0.10893578699999999,-11.62,1.698293564,4.702358568999999,39.8714138,32.7368418,-284.1356083,-209.67309519999998,-48.19403953,-0.12833631199999998,-11.58825599,1.919687252,-0.130091751,-0.029258952999999997,0.601403998,-1.576917207,48.352361,0.020485507,0.20513383300000002,0.000595134,0.0,0,0,0,0,1
192148551,0.000520174,0.34966546600000004,-0.23236109600000002,0.0,1.0,1381.0,2000.0,1000.0,1498.0,1501.0,1675.0,11.5004452,11.75250255,11.4931599,11.46093176,11.71264052,11.55967508,11.8135522,80.1205426,80.1205426,12.08801211,-0.00058428,-0.005966351,9.19e-05,-0.25765173199999997,0.21423003699999998,-0.031583939,2.0,12.34066813,13.34066813,15,0,0,1,0,0.0,0,0,0,0,0,0.000791677,0.04146845,-1.57852365,-1.57450602,0.13388553,340.315527,33.23281556,-0.009669936,0.227630814,-0.137636387,0.0,-0.721550018,0.345216084,-9.390622233,2609.3008219999997,960.6161519999999,12.09161584,0.009080868,-0.024756176,-0.012661091000000001,-0.745014871,0.243839177,-9.325694504,0.0023763029999999997,-0.049120372,-0.009493968,2609.3008219999997,49.16378017,49.64619226,-1.301320515,-0.6407184260000001,10.22004889,11.98616369,-0.035322294,-0.8343485620000001,-0.23136638399999998,135.9487021,447.61327400000005,12.09193232,96062.8592,1.141385687,0.24908656199999998,0.408235574,0.376361705,0.001386337,-0.042835764000000005,-0.009399181999999999,0.003841642,0.047128008,-1.578995964,0,0.703972871,0.01808113,0.015228846,-0.70983327,0.0,398688586.5,327344146.8,448719.8244,11.599999,-0.11155031,-11.61844969,1.7332545659999998,4.702130404,39.8714138,32.7368418,-284.1410357,-210.14780380000002,-48.11566817,-0.132905752,-11.59105424,1.946111446,-0.096855828,-0.09019141900000001,0.589901938,-1.5772471869999998,48.27399006,0.020809267,0.204380781,9.2e-05,0.0,0,0,0,0,1
192193460,0.002266743,0.350885529,-0.235400005,0.0,1.0,1381.0,2000.0,1000.0,1498.0,1501.0,1675.193239,11.48217666,11.73382494,11.48206898,11.44977237,11.70121029,11.54501747,11.7985466,79.85152249,79.85152249,12.08833695,-0.000584279,-0.005965916999999999,9.19e-05,-0.25765121,0.21423631199999998,-0.031603609,2.0,12.34406881,13.34406881,15,0,0,1,0,0.0,0,0,0,0,0,0.001063682,0.04143838,-1.578581664,-1.57450745,0.135719061,339.81836450000003,33.20646467,-0.009653113,0.22829124899999997,-0.13760763,0.0,-0.733807448,0.266438152,-9.348485528,1445.356674,960.6270187999999,12.09212098,0.008617993000000001,-0.028686407,-0.004585927,-0.77768843,0.18952843,-9.316555071,0.005350771999999999,-0.044763405,-0.010814403,1445.356674,49.09700564,49.61891308,-1.310092098,-0.710286975,10.22002122,11.93890155,-0.034377603,-0.835668152,-0.22904917,136.0063232,447.75738049999995,12.09245051,96061.20138,1.141366039,-0.245270938,0.363007556,-0.346979059,0.002643997,-0.041613252999999996,-0.012145457,0.004158548,0.044854815,-1.5790575530000002,0,0.703968248,0.017386385,0.014315617,-0.709874278,0.0,398688585.9,327344090.2,448648.3975,11.599999,-0.11363272699999999,-11.61636727,1.764490835,4.701948671999999,39.8714138,32.7368418,-284.1472209,-210.65251580000003,-48.03018973,-0.137753552,-11.59598661,1.9703741719999999,-0.102922925,-0.0673188,0.538908729,-1.5776578819999998,48.18851109,0.021126814,0.20259688,-0.000250966,0.0,0,0,0,0,1
192233185,0.002334843,0.351115248,-0.23688354600000003,0.0,1.0,1381.0,2000.0,1000.0,1500.0,1499.0,1680.0,11.50945692,11.76163853,11.47097806,11.43861298,11.68978006,11.53035987,11.78354099,79.58250238,79.58250238,12.0886618,-0.000584278,-0.005965484,9.19e-05,-0.257650688,0.21424258699999998,-0.031623278,2.0,12.34746949,13.34746949,15,0,0,1,0,0.0,0,0,0,0,0,0.0013356879999999998,0.04140831,-1.578639677,-1.57450888,0.137552592,339.321202,33.18011377,-0.00963429,0.228939449,-0.137572005,0.0,-0.7460648790000001,0.18766022,-9.306348822,281.4125248,960.6378856000001,12.09262612,0.009975683,-0.025770509,-0.008067551,-0.688961177,0.24409803,-9.360512656000001,0.008325242,-0.040406439,-0.012134836999999999,281.4125248,49.0302311,49.59163389,-1.318863682,-0.779855525,10.21999355,11.89163941,-0.033432912,-0.836987741,-0.226731956,136.06394440000003,447.57454299999995,12.09299059,96063.33377000001,1.1413913390000001,0.630982908,-0.163803304,0.09885981199999999,0.0045896999999999995,-0.039005076,-0.011387042,0.004496282,0.046302453,-1.579098754,0,0.7039372420000001,0.018019313999999998,0.014704951,-0.7098799990000001,0.0,398688585.3,327344033.5,448576.9706,11.599999,-0.115715143,-11.61428486,1.7957271030000002,4.701766939,39.8714138,32.7368418,-284.1536506,-211.1669112,-47.94241755,-0.14269119,-11.60160774,1.9939393019999998,-0.121674735,-0.017398808999999998,0.47517008899999996,-1.578094628,48.10073806,0.021255131,0.21784595199999998,-0.000323286,0.0,0,0,0,0,1
192271640,0.0008887330000000001,0.360704686,-0.236825498,0.0,1.0,1383.0,2000.0,1000.0,1498.0,1501.0,1680.0,11.55196767,11.80507141,11.45988714,11.42745359,11.67834983,11.51570227,11.76853539,79.31348227,79.31348227,12.08898665,-0.000584276,-0.00596505,9.2e-05,-0.257650166,0.21424886199999998,-0.031642947000000005,2.0,12.35087017,13.35087017,15,0,0,1,0,0.0,0,0,0,0,0,0.001671824,0.041823325,-1.578692952,-1.574510326,0.139386124,338.82434639999997,33.1937832,-0.0096178,0.229575428,-0.13754671300000001,0.0,-0.722786515,0.192897398,-9.353025597,906.7171099,960.6435974,12.09315116,-0.002901077,-0.030221162000000003,-0.012819023,-0.7392548520000001,0.23531351600000003,-9.493052829,0.0053427940000000005,-0.033318136,-0.011570394,906.7171099,48.96076157,49.55890606,-1.325845642,-0.8486902129999999,10.21996843,11.84696808,-0.032539986,-0.832044786,-0.225197271,136.1178111,447.3542301,12.09354873,96065.84862,1.141421199,0.253551327,-0.132215448,0.04012246,0.005342362,-0.03572017,-0.009775876,0.004746377,0.050182948,-1.579143725,0,0.703883495,0.01948488,0.015981689,-0.7098682740000001,0.0,398688584.7,327343976.9,448505.5437,11.599999,-0.11779756,-11.61220244,1.826963371,4.701585207,39.8714138,32.7368418,-284.16009060000005,-211.66557379999998,-47.85667575,-0.14731845699999999,-11.6076449,2.014600951,-0.115473344,-0.015180782,0.429366577,-1.5785057919999999,48.01499592,0.021165865,0.22071056,-0.000605718,0.0,0,0,0,0,1
192310095,0.000863774,0.360605923,-0.232726253,0.0,1.0,1383.0,2000.0,1000.0,1498.125625,1500.874375,1679.0,11.48981934,11.7414211,11.45146871,11.41897545,11.669655300000002,11.50453873,11.75709611,79.10622716,79.10622716,12.08934348,-0.000584246,-0.005964611999999999,9.2e-05,-0.25764916,0.214253688,-0.03165409,2.0,12.35427085,13.35427085,15,0,0,1,0,0.0,0,0,0,0,0,0.002008883,0.042244745,-1.57874616,-1.5745117730000002,0.141219656,338.3274953,33.20802846,-0.009604923000000001,0.23020166,-0.137524566,0.0,-0.688810375,0.223426679,-9.426438986,2070.661259,960.6477573999999,12.09368219,0.004005908,-0.01748885,-0.010611027,-0.731190509,0.22123537399999998,-9.50744343,0.000567062,-0.025407584,-0.010438525,2070.661259,48.88534333,49.51415134,-1.328877334,-0.915905038,10.21994896,11.80801546,-0.031761325,-0.813278409,-0.225389874,136.1633908,447.3804459,12.09410175,96065.54849,1.141417653,0.125841706,0.964834876,-0.406602012,-0.000844528,-0.029539262,-0.009450867,0.005008312,0.048926464,-1.57920458,0,0.703871395,0.019131613999999998,0.015445871000000002,-0.7099017329999999,0.0,398688584.0,327343920.3,448434.1168,11.599999,-0.119879976,-11.61012002,1.858199639,4.701403474,39.8714138,32.7368418,-284.1665458,-212.1407665,-47.77396283,-0.151482717,-11.61430268,2.030931233,-0.072047165,-0.08412378599999999,0.4103184,-1.5788787930000001,47.93228343,0.021383863,0.21836516399999997,-0.000974734,0.0,0,0,0,0,1
192356550,0.00283327,0.35988255700000005,-0.23345268100000002,0.0,1.0,1382.0,2000.0,1000.0,1498.853971,1500.146029,1679.584117,11.48075229,11.73215942,11.45865424,11.42615232,11.67693374,11.513776,11.76647958,79.25959998,79.25959998,12.08988703,-0.00058405,-0.005964146,9.23e-05,-0.25764533,0.214250048,-0.031615448,2.0,12.35767153,13.35767153,15,0,0,1,0,0.0,0,0,0,0,0,0.002345942,0.042666165,-1.5787993669999998,-1.57451322,0.143053188,337.8306442,33.22227372,-0.009587913,0.230852852,-0.137495982,0.0,-0.66348827,0.23107914899999998,-9.466225121,2754.1082,960.6556568,12.09421322,0.006495461,-0.022140336,-0.012802481000000001,-0.601684401,0.178574733,-9.449490503,-0.0016025870000000002,-0.019488387,-0.009876146,2754.1082,48.8099251,49.46939662,-1.331909026,-0.983119862,10.2199295,11.76906284,-0.030982664,-0.7945120309999999,-0.225582477,136.20897050000002,447.3514286,12.09464611,96065.86813999999,1.141421431,-0.324714041,0.259144997,-0.265081882,0.002667305,-0.025909619,-0.006461108,0.005305117,0.046585819,-1.579264349,0,0.703869202,0.018405783000000002,0.014516096000000001,-0.709942665,0.0,398688583.6,327343862.4,448351.5043,11.60392398,-0.12196239199999999,-11.61588698,1.879623905,4.701221878999999,39.8714138,32.7368418,-284.1730414,-212.6178529,-47.69086273,-0.155662032,-11.62106071,2.047181454,-0.03189196,-0.151372943,0.390519096,-1.5792532769999998,47.84918373,0.021499924,0.21515075600000003,-0.0013681370000000002,0.0,0,0,0,0,1
192399005,0.0026780090000000003,0.359360216,-0.235169295,0.0,1.0,1382.0,2000.0,1000.0,1498.0,1501.0,1684.0,11.44625475,11.69687421,11.46583976,11.43332919,11.68421218,11.52301327,11.77586305,79.41297279,79.41297279,12.09043058,-0.0005838530000000001,-0.005963681,9.25e-05,-0.257641499,0.214246409,-0.031576807,2.0,12.36107221,13.36107221,15,0,0,1,0,0.0,0,0,0,0,0,0.002683001,0.043087585,-1.5788525740000001,-1.5745146669999999,0.14488672,337.33379310000004,33.23651898,-0.009572425,0.231496082,-0.137477563,0.0,-0.6504754429999999,0.206192227,-9.458180707,2754.1082,960.6688752999999,12.09474425,0.0019275520000000001,-0.017489251,-0.009532351,-0.686482035,0.215458578,-9.489942059,-6.54e-05,-0.016401639,-0.010123798,2754.1082,48.73450686,49.4246419,-1.334940718,-1.050334686,10.21991003,11.73011022,-0.030204002,-0.7757456540000001,-0.22577508,136.2545501,447.1650286,12.09521291,96068.04372,1.141447369,-0.36529328299999997,0.176116518,-0.21536658600000003,0.007632248,-0.022213973999999997,-0.009309135,0.0056281809999999995,0.044341538,-1.579323705,0,0.703865339,0.017723317,0.013610942,-0.709981793,0.0,398688583.2,327343804.6,448268.2076,11.60808902,-0.124044809,-11.62213402,1.900448049,4.701040293,39.8714138,32.7368418,-284.180363,-213.133654,-47.59984681,-0.16014910400000001,-11.62986826,2.0617948630000003,-0.058609999,-0.183992369,0.35536342200000004,-1.5796580869999999,47.75816781,0.021611903,0.23082341899999997,-0.001541274,0.0,0,0,0,0,1
192441459,0.001899227,0.36890937,-0.23548388,0.0,1.0,1381.813163,2000.0,1000.0,1498.813163,1500.186837,1684.0,11.53920176,11.79183445,11.47302528,11.44050606,11.69149062,11.53225053,11.78524652,79.56634561,79.56634561,12.09097413,-0.000583656,-0.005963215,9.279999999999999e-05,-0.25763766899999996,0.21424276899999997,-0.031538166,2.0,12.36447289,13.36447289,15,0,0,1,0,0.0,0,0,0,0,0,0.00302006,0.043509005,-1.578905781,-1.5745161140000001,0.146720252,336.83694199999996,33.25076423,-0.009553762,0.23218872399999999,-0.137460097,0.0,-0.6405624679999999,0.183654837,-9.456411399,2754.1082,960.6818594,12.09528416,0.006794458000000001,-0.015307275,-0.009168249,-0.7196529559999999,0.27046535,-9.621411355,0.0017100179999999998,-0.013411252,-0.01026058,2754.1082,48.65908863,49.37988718,-1.33797241,-1.11754951,10.21989057,11.6911576,-0.029425341,-0.756979277,-0.225967683,136.3001298,447.1155423,12.09578399,96068.60465,1.141453943,0.062883135,0.113136105,0.16705574199999998,0.006672735,-0.016698887,-0.012044649,0.005873704,0.050136978,-1.5793471559999999,0,0.7038005890000001,0.019866898,0.015563351000000001,-0.7099490390000001,0.0,398688582.8,327343746.7,448184.911,11.61225406,-0.126127225,-11.62838106,1.921272193,4.700858706,39.8714138,32.7368418,-284.1876846,-213.6494551,-47.50883088,-0.164636177,-11.6386758,2.0764082719999997,-0.08532803800000001,-0.216611795,0.320207748,-1.580062896,47.66715188,0.021583491,0.22983446,-0.00187832,0.0,0,0,0,0,1
192491914,0.0023327960000000003,0.36905701700000004,-0.236027144,0.0,1.0,1381.0,2000.0,1000.0,1498.0,1501.0,1683.0,11.60161039,11.85554774,11.48021081,11.44768294,11.69876906,11.5414878,11.79462999,79.71971843,79.71971843,12.09151768,-0.000583459,-0.005962749,9.31e-05,-0.257633839,0.21423913,-0.031499525,2.0,12.36787357,13.36787357,15,0,0,1,0,0.0,0,0,0,0,0,0.0033571190000000004,0.043930425,-1.5789589880000001,-1.574517561,0.148553784,336.3400909,33.26500949,-0.009532063,0.232824702,-0.137444307,0.0,-0.6819123140000001,0.199972083,-9.558414695,2754.1082,960.6909688999999,12.09597098,0.0067929290000000005,-0.012491973,-0.007291955,-0.6943295290000001,0.308907265,-9.661852233,0.007425467,-0.012014398,-0.008563888,2754.1082,48.58860378,49.33117206,-1.340124914,-1.176957557,10.21986173,11.66061852,-0.028815135,-0.7339473329999999,-0.226146458,136.33726380000002,447.05306060000004,12.09635507,96069.32203,1.141462391,0.42007715799999995,-0.11344584199999999,0.5915501439999999,0.008029126,-0.013716435,-0.009507453,0.006054556,0.051098907,-1.579406876,0,0.70376797,0.020272419,0.015837103999999998,-0.7099639529999999,0.0,398688582.4,327343688.8,448101.6143,11.6164191,-0.12820964199999998,-11.6346281,1.942096337,4.700677119,39.8714138,32.7368418,-284.1948651,-214.1385444,-47.4217891,-0.168484838,-11.64807899,2.08727263,-0.083361224,-0.207188819,0.285795111,-1.5804279469999998,47.580110100000006,0.021616352000000002,0.22820626100000002,-0.002119001,0.0,0,0,0,0,1
192530369,0.002394465,0.367572822,-0.23633385,0.0,1.0,1381.0,2000.0,1000.0,1500.0,1499.0,1682.0,11.54226954,11.79482743,11.48739633,11.45485981,11.7060475,11.55072507,11.80401346,79.87309125,79.87309125,12.09206123,-0.000583263,-0.005962284,9.329999999999999e-05,-0.257630008,0.21423549,-0.031460884,2.0,12.37127425,13.37127425,15,0,0,1,0,0.0,0,0,0,0,0,0.003694179,0.044351845,-1.579012195,-1.5745190080000002,0.150387316,335.84323969999997,33.27925475,-0.00951618,0.23341594300000001,-0.137436668,0.0,-0.72326216,0.21628932899999997,-9.660417992000001,2754.1082,960.7000783,12.096657800000001,0.011507767,-0.01224682,-0.008686634,-0.73734632,0.20706239,-9.636286055,0.013140915,-0.010617544,-0.006867196,2754.1082,48.52199697,49.27934375,-1.341586308,-1.2302288670000001,10.21982554,11.63669315,-0.028337348999999998,-0.7075623209999999,-0.22631436300000002,136.367759,446.97273509999997,12.09692615,96070.24893999999,1.141473527,0.164723539,0.277439091,-0.471403831,0.0064221140000000005,-0.01037662,-0.007616223,0.006326813000000001,0.049331765,-1.5794666430000002,0,0.703761628,0.019741463,0.015117935,-0.710000875,0.0,398688581.9,327343630.7,448017.6167,11.62116823,-0.13175235,-11.639999000000001,1.962628429,4.700373172,39.8714138,32.7368418,-284.2019828,-214.61574159999998,-47.33651661,-0.172049278,-11.65774737,2.096467908,-0.06862389099999999,-0.179048533,0.251713274,-1.580775297,47.49483761,0.021585855,0.22357824699999998,-0.002538201,0.0,0,0,0,0,1
192580824,0.000233938,0.365061095,-0.236865845,0.0,1.0,1384.0,2000.0,1000.0,1498.0,1501.0,1686.0,11.63202191,11.88656984,11.49458185,11.46203668,11.71332594,11.55996233,11.81339693,80.02646407,80.02646407,12.09260478,-0.000583066,-0.005961818000000001,9.36e-05,-0.257626178,0.21423185100000003,-0.031422242999999996,2.0,12.37467493,13.37467493,15,0,0,1,0,0.0,0,0,0,0,0,0.0040312379999999995,0.044773265,-1.579065402,-1.574520455,0.15222084800000002,335.34638860000007,33.29350001,-0.009498586,0.234061803,-0.137428974,0.0,-0.7074388140000001,0.252477418,-9.680400311,2754.1082,960.7188438,12.0972446,-0.000969947,-0.00694787,-0.006783597,-0.7313311259999999,0.21675698100000002,-9.692528801,0.012220197,-0.013223307,-0.006646295,2754.1082,48.45539015,49.22751544,-1.3430477019999998,-1.283500178,10.21978934,11.61276778,-0.027859562999999997,-0.681177308,-0.22648226899999999,136.3982541,446.71305060000003,12.09749654,96073.21006,1.14150867,0.272662367,-0.113543126,-0.09000583300000001,0.007980517,-0.011542864,-0.008216735,0.006606857,0.047118062999999995,-1.57952585,0,0.7037591959999999,0.019054671999999998,0.014238862,-0.710040225,0.0,398688581.3,327343571.3,447929.3223,11.6294979,-0.144246849,-11.639999000000001,1.981370198,4.699319136000001,39.8714138,32.7368418,-284.2094443,-215.10659569999999,-47.24861315,-0.175904316,-11.66743751,2.105261659,-0.06784999900000001,-0.172348635,0.216697157,-1.581122074,47.406934299999996,0.021471407,0.233383297,-0.002729565,0.0,0,0,0,0,1
192623279,0.002175314,0.37080713600000004,-0.230393828,0.0,1.0,1384.0,2000.0,1000.0,1499.0,1500.0,1686.0,11.54091217,11.79334257,11.50176738,11.46921355,11.72060438,11.5691996,11.822780400000001,80.17983689,80.17983689,12.09314833,-0.000582869,-0.005961352,9.379999999999999e-05,-0.257622348,0.214228211,-0.031383601000000004,2.0,12.37807562,13.37807562,15,0,0,1,0,0.0,0,0,0,0,0,0.004368297,0.045194685,-1.579118609,-1.5745219019999999,0.15405438,334.8495375,33.30774527,-0.009479665,0.234702136,-0.13742455,0.0,-0.667255384,0.297131981,-9.66543552,2754.1082,960.7417236,12.09778879,-0.000262839,-0.005183576,-0.008021359,-0.724391531,0.19665178100000003,-9.740377922999999,0.008471973,-0.017534486000000002,-0.007054191,2754.1082,48.38878334,49.17568713,-1.344509096,-1.336771488,10.21975315,11.58884241,-0.027381776,-0.654792296,-0.22665017399999998,136.4287493,446.5794012,12.09806051,96074.75975,1.141527088,-0.43976592700000006,0.04232453,-0.442093539,0.0027367520000000003,-0.0054145190000000004,-0.009484388,0.006945444,0.052844901,-1.579549233,0,0.703690147,0.021206742,0.016133823999999998,-0.710006932,0.0,398688580.7,327343512.0,447841.0278,11.63782757,-0.156741348,-11.639999000000001,2.000111967,4.6982650999999995,39.8714138,32.7368418,-284.2175812,-215.6242867,-47.15553963,-0.18033040399999997,-11.67717044,2.113266376,-0.09451544,-0.20778089800000002,0.1798451,-1.581467725,47.313861200000005,0.021392149,0.23768551899999998,-0.002887255,0.0,0,0,0,0,1
