timestamp,control[0],control[1],control[2],control[3],control[4],output[2],output[3],output[4],output[5],output[6],output[7],indicated_airspeed_m_s,true_airspeed_m_s,indicated_airspeed_m_s.1,equivalent_airspeed_m_s,true_airspeed_m_s.1,equivalent_ground_minus_wind_m_s,true_ground_minus_wind_m_s,differential_pressure_raw_pa,differential_pressure_filtered_pa,temperature,gyro_bias[0],gyro_bias[1],gyro_bias[2],accel_bias[0],accel_bias[1],accel_bias[2],instance_count,seq_reached,seq_current,seq_total,item_changed_index,item_do_jump_remaining,valid,warning,finished,failure,stay_in_failsafe,flight_termination,item_do_jump_changed,execution_mode,nav_roll,nav_pitch,nav_bearing,target_bearing,xtrack_error,wp_dist,acceptance_radius,rollspeed_integ,pitchspeed_integ,yawspeed_integ,additional_integ1,x,y,z,temperature.1,pressure,temperature.2,gyro_rad[0],gyro_rad[1],gyro_rad[2],accelerometer_m_s2[0],accelerometer_m_s2[1],accelerometer_m_s2[2],device_id,x.1,y.1,z.1,temperature.3,altitude_sp,altitude_filtered,height_rate_setpoint,height_rate,airspeed_sp,airspeed_filtered,airspeed_derivative_sp,airspeed_derivative,throttle_integ,pitch_integ,baro_alt_meter,baro_temp_celcius,baro_pressure_pa,rho,xyz[0],xyz[1],xyz[2],xyz[0].1,xyz[1].1,xyz[2].1,roll_body,pitch_body,yaw_body,q_d[0],q_d[1],q_d[2],q_d[3],thrust_body[0],lat,lon,alt,vel_m_s,vel_n_m_s,vel_e_m_s,vel_d_m_s,cog_rad,ground_contact,maybe_landed,landed,ref_lat,ref_lon,x.2,y.2,z.2,vx,vy,vz,ax,ay,az,yaw,dist_bottom,roll,pitch,yaw.1,thrust_body[0].1,timestamp.1,isTakeoff,isClimbing,isDescending,isCruise,isLand
146566232,0.025595127999999998,0.095742559,-0.17009993199999998,0.28282192,0.0,1414.0,1500.0,1282.0,1487.358672,1511.641328,1547.0,13.56693373,13.86774286,14.13573597,14.15330041,14.46703989,15.14589944,15.48164052,123.4695268,123.4695268,12.05939575,-0.0009202160000000001,-0.005701512,-0.000136377,-0.255601867,0.194288842,0.0013044139999999998,2.0,6.365873175,7.365873175,11,0,0,1.0,0.0,0.0,0,0,0,0,0,0.442610003,0.09996727,1.657016344,1.656991229,312.06691780000006,387.31036989999996,41.00529503,-0.001049973,0.041965478,-0.2,0.0,1.032917232,1.19194693,-10.88222447,-340.26352,960.0335363,12.05983984,0.16961068,0.131763021,0.29712548699999997,2.030556324,1.257169054,-10.82638451,2294028,0.10640368900000001,0.115448022,0.287772594,-340.26352,50.01679,53.2536188,-0.161841512,-0.17873041399999998,15.33260932,13.77239926,0.031204211000000003,0.569684781,-0.319685718,108.55106299999998,452.7475886,12.059814,96003.82559,1.140684249,-0.852928575,-0.9339906640000001,0.133932357,0.054853149000000004,0.107000896,0.282416431,0.71526271,0.159456236,1.6609736940000002,0.650413699,0.18029108300000002,0.307931079,0.670541539,0.48331475100000004,398752408.4,327325626.6,453180.8728,13.923492699999999,10.71888151,8.864294589,0.147301453,0.690788283,0,0,0.0,39.8714138,32.7364372,426.78074960000004,-329.49803760000003,-53.12847039,10.37954128,9.352934326,0.055398667,-2.552107066,3.7754962260000005,-0.190215231,0.809704658,53.29794967,0.487827816,0.32258757899999996,0.16940409899999997,0.47872687399999997,146566232,0,0,0,0,1
146605197,0.045472167,0.109119529,-0.173384615,0.31728987399999997,0.0,1412.0,1500.0,1341.0,1470.4016800000002,1528.5983199999998,1559.0,13.68482056,13.98825943,14.19850332,14.21617895,14.53131016,15.221656900000001,15.55907506,124.50885500000001,124.50885500000001,12.05941772,-0.000920137,-0.005701667,-0.000135572,-0.255593283,0.194341638,0.001190073,2.0,6.368473695,7.368473695,11,0,0,1.0,0.0,0.0,0,0,0,0,0,0.469869215,0.12086200300000001,1.6582315619999999,1.658206481,311.6668338,386.8962039,41.42601688,-0.001283794,0.041701746,-0.2,0.0,1.988311165,1.187456168,-10.99842201,-340.26352,960.0415939,12.05987885,0.26426252100000003,0.172443247,0.301448698,3.001230108,1.242889565,-11.11431811,2294028,0.171019497,0.138756982,0.29585479800000003,-340.26352,50.01679,53.244524399999996,-0.161386805,-0.171333995,15.33263474,13.78382513,0.030976202999999997,0.567290567,-0.319752238,108.3310851,452.52676349999996,12.05984034,96006.3848,1.1407146940000001,0.416681535,-0.095815079,-0.153747777,0.050327163,0.102349751,0.279553357,0.718304816,0.18038213399999997,1.6621944,0.651875173,0.17367159899999998,0.315411664,0.66738947,0.503465309,398752448.7,327325671.7,453176.92,13.93389478,10.602378,9.014084339,0.145221039,0.7043682490000001,0,0,0.0,39.8714138,32.7364372,427.2384517,-329.0833505,-53.12424608,10.27921617,9.527331997000001,0.04772707599999999,-2.070432294,4.342844653999999,-0.261544172,0.82340979,53.29372579,0.45035070299999996,0.360396424,0.165245017,0.50236166,146605197,0,0,0,0,1
146646965,0.071708032,0.12928799400000002,-0.178091418,0.366705,0.0,1409.0,1500.0,1390.0,1455.0,1544.0,1569.0,13.66473491,13.96750328,14.26127067,14.2790575,14.59558043,15.29741435,15.63650959,125.5481832,125.5481832,12.05943968,-0.000920059,-0.005701822,-0.00013476799999999998,-0.255584698,0.194394433,0.0010757310000000001,2.0,6.371074215,7.371074215,11,0,0,1.0,0.0,0.0,0,0,0,0,0,0.497128426,0.141756736,1.659446779,1.659421732,311.2667498,386.48203789999997,41.84673874,-0.001520734,0.041389614,-0.2,0.0,2.884348812,1.180215674,-11.19876709,-294.80469839999995,960.0476464,12.05991387,0.355044085,0.21223033600000002,0.310277949,3.7828013030000003,1.221320082,-11.59154771,2294028,0.244185465,0.169123048,0.30238062600000004,-294.80469839999995,50.01679,53.23594994,-0.160958086,-0.164360525,15.33263072,13.79450265,0.030762572999999998,0.5644539670000001,-0.319819811,108.11363030000001,452.69204169999995,12.0598755,96004.45885,1.14069181,-0.047748921,0.073822024,-0.318730638,0.049602863,0.10344319199999999,0.27787015,0.716855692,0.201182361,1.6632220659999999,0.653716831,0.165638401,0.321291116,0.664820579,0.519791871,398752489.1,327325716.8,453172.9672,13.94429686,10.48587449,9.163874089,0.143140625,0.717948215,0,0,0.0,39.8714138,32.7364372,427.6830137,-328.6723639,-53.12070406,10.19186241,9.718226521,0.034803186,-1.6775859709999998,4.952054783,-0.403248006,0.8373164590000001,53.29018406,0.41426076799999995,0.391925798,0.16430818,0.517812775,146646965,0,0,0,0,1
146685332,0.097766387,0.150065157,-0.182743568,0.4115795,0.0,1408.4876980000001,1500.0,1411.0,1456.975395,1542.024605,1574.0,13.73532323,14.03979578,14.32403802,14.34193605,14.65985069,15.3731718,15.71394413,126.58751140000001,126.58751140000001,12.05946165,-0.00091998,-0.005701977,-0.000133963,-0.25557611399999997,0.194447228,0.000961389,2.0,6.373674735,7.373674735,11,0,0,1.0,0.0,0.0,0,0,0,0,0,0.524387638,0.162651469,1.6606619969999998,1.660636983,310.86666569999994,386.06787189999994,42.2674606,-0.0017542439999999999,0.041018971,-0.2,0.0,3.644649217,1.166687029,-11.59154257,-145.3896569,960.0491138,12.05993974,0.428698387,0.263523987,0.314285468,4.355832345,1.250388399,-11.97179207,2294028,0.336904125,0.215627459,0.30534729899999996,-145.3896569,50.01679,53.22772764,-0.160546968,-0.15767352699999998,15.33260678,13.804673300000001,0.030558679,0.561317733,-0.319888095,107.89788440000001,452.6768331999999,12.059906,96004.6271,1.140693777,1.7147662590000001,-0.245014672,-0.184780948,0.049344847000000004,0.108170973,0.277177,0.7145147740000001,0.22183212800000002,1.664197564,0.655551045,0.157347855,0.32678715199999997,0.662341583,0.532128239,398752529.4,327325762.0,453169.0144,13.95469894,10.36937098,9.313663839,0.141060211,0.73152818,0,0,0.0,39.8714138,32.7364372,428.09752689999993,-328.2698395,-53.11872231,10.13417182,9.946846405,0.009868225999999999,-1.487874469,5.656995156,-0.70588667,0.851684007,53.28820231,0.37284892,0.408628024,0.156395002,0.5285721,146685332,0,0,0,0,1
146731699,0.110533837,0.168796666,-0.18613319399999997,0.44738097200000004,0.0,1407.0,1500.0,1448.0,1449.061412,1549.938588,1584.0,13.89824658,14.20628099,14.38680537,14.4048146,14.72412096,15.44892925,15.79137867,127.6268396,127.6268396,12.05948362,-0.0009199010000000001,-0.005702131,-0.000133159,-0.25556753,0.194500023,0.000847048,2.0,6.376275255,7.376275255,11,0,0,1.0,0.0,0.0,0,0,0,0,0,0.5516468489999999,0.183546202,1.661877214,1.661852235,310.4665817,385.6537059,42.68818246,-0.001978663,0.040651343,-0.2,0.0,4.404949622,1.1531583840000001,-11.98431805,4.02538458,960.0505811,12.05996561,0.5285729920000001,0.331009608,0.320963922,5.036370135,1.3224090240000002,-12.74601301,2294028,0.429622785,0.262131871,0.308313971,4.02538458,50.01679,53.21950533,-0.160135851,-0.150986529,15.33258283,13.81484396,0.030354786,0.5581815,-0.31995638,107.68213850000001,452.51394469999997,12.059937,96006.5038,1.140716068,2.037738816,1.236382494,0.6787054690000001,0.050271339000000005,0.10967739300000001,0.283774695,0.711152899,0.24226013100000002,1.6651433830000002,0.657367104,0.148779929,0.331843279,0.660003644,0.540517006,398752569.4,327325809.8,453164.4495,14.02019194,10.27735257,9.509362872999999,0.126737347,0.7460874829999999,0,0,0.0,39.8714138,32.7364372,428.51204010000004,-327.86731519999995,-53.11674057,10.07648123,10.17546629,-0.015066735,-1.298162968,6.361935529,-1.008525334,0.866051555,53.28622057,0.326140083,0.441437452,0.154402184,0.53889245,146731699,0,0,0,0,1
146770066,0.108387086,0.17751630899999998,-0.18563506899999999,0.46465078,0.0,1406.0,1500.0,1479.0,1441.1474289999999,1557.8525710000001,1593.0,13.98542923,14.29540686,14.44957273,14.46769314,14.78839122,15.5246867,15.868813199999998,128.6661678,128.6661678,12.05950559,-0.0009198219999999999,-0.005702286,-0.000132355,-0.255558945,0.19455281800000002,0.0007327060000000001,2.0,6.378875775,7.378875775,11,0,0,1.0,0.0,0.0,0,0,0,0,0,0.578906061,0.204440935,1.6630924319999998,1.6630674859999999,310.06649760000005,385.23953989999995,43.10890432,-0.00218978,0.040307076000000004,-0.2,0.0,4.882580429,1.2138521,-12.61609245,-129.3204921,960.0523614,12.05995496,0.563128562,0.375966167,0.328118656,5.424858872000001,1.276771368,-13.48726094,2294028,0.489569814,0.31741404300000003,0.315315364,-129.3204921,50.01679,53.21128303,-0.159724734,-0.144299531,15.33255889,13.82501461,0.030150892000000002,0.555045266,-0.320024665,107.46639259999999,452.64494069999995,12.05996474,96005.01928,1.140698425,2.298124515,0.99233154,0.437343496,0.076704127,0.111560088,0.284320105,0.707051078,0.262469143,1.66699148,0.658828025,0.13986880599999998,0.33662266799999996,0.6580748470000001,0.546624617,398752608.9,327325860.3,453159.2484,14.14293628,10.21077947,9.752771555,0.09969193800000001,0.761664528,0,0,0.0,39.8714138,32.7364372,428.92163370000003,-327.44181749999996,-53.11845019,10.01836629,10.46201619,-0.078255419,-1.473002139,6.953248422000001,-1.471459136,0.8827111759999999,53.28792939,0.277570122,0.466839503,0.144476545,0.5462971999999999,146770066,0,0,0,0,1
146820866,0.087990761,0.19056997899999997,-0.181101736,0.492527637,0.0,1408.383277,1500.0,1497.783957,1457.616723,1541.383277,1597.083617,14.22188209,14.53713941,14.51234008,14.53057169,14.85266149,15.60044415,15.94624774,129.70549599999998,129.70549599999998,12.05952755,-0.000919743,-0.005702441,-0.00013155,-0.255550361,0.194605613,0.000618364,2.0,6.381476295,7.381476295,11,0,0,1.0,0.0,0.0,0,0,0,0,0,0.606165272,0.22533566800000002,1.6643076490000002,1.664282737,309.66641360000006,384.82537389999993,43.52962618,-0.002384749,0.04000243,-0.2,0.0,5.344147262,1.278763837,-13.26144903,-278.7355336,960.0541595000001,12.05994224,0.5738369289999999,0.430906057,0.311094207,5.704731134,1.2664321170000001,-14.04241223,2294028,0.547654447,0.373195052,0.322546049,-278.7355336,50.01679,53.20306072,-0.159313616,-0.137612533,15.33253495,13.83518526,0.029946999,0.5519090320000001,-0.32009294899999996,107.25064669999999,452.76566569999994,12.059967,96003.6328,1.140681912,2.428074795,1.163664,0.293302464,0.14306745199999998,0.131115994,0.290588268,0.700979165,0.28241680199999997,1.668159016,0.660524614,0.130486454,0.34059455299999997,0.656257365,0.5496587620000001,398752648.4,327325910.9,453154.0474,14.26568062,10.14420636,9.996180236,0.072646529,0.777241572,0,0,0.0,39.8714138,32.7364372,429.3309476,-327.0150143,-53.1203696,9.960227226,10.75185824,-0.143618044,-1.668558547,7.53810392,-1.9435024330000001,0.899501055,53.28984795,0.23657256,0.476054004,0.150444965,0.54825974,146820866,0,0,0,0,1
146862800,0.057801116,0.20568588100000001,-0.181890987,0.5121612,0.0,1409.0,1500.0,1512.0,1471.659732,1527.340268,1602.0,14.37074714,14.68928595,14.57510743,14.59345024,14.91693176,15.6762016,16.02368228,130.7448242,130.7448242,12.05954952,-0.0009196639999999999,-0.005702596,-0.000130746,-0.25554177699999997,0.19465840899999998,0.000504023,2.0,6.384076815,7.384076815,11,0,0,1.0,0.0,0.0,0,0,0,0,0,0.633424484,0.24623040100000002,1.665522867,1.6654979890000001,309.2663295,384.41120789999997,43.95034804,-0.00255845,0.039746205,-0.2,0.0,5.677461728,1.2539894329999999,-13.96333196,-340.26352,960.0526799,12.0598911,0.558848474,0.472231384,0.310503335,5.927039895,1.164628473,-14.75380619,2294028,0.564139623,0.425340073,0.323728801,-340.26352,50.01679,53.19518964,-0.158920064,-0.130190787,15.33251626,13.85059792,0.029638371,0.548810992,-0.320172265,107.01737240000001,452.60382000000004,12.059937,96005.46571,1.140703739,2.13491294,1.294330231,0.649100087,0.220383964,0.164699787,0.29793558800000003,0.69317063,0.30210456,1.6691460790000001,0.662247374,0.120624505,0.343882025,0.654687259,0.5513565570000001,398752688.0,327325961.5,453148.8464,14.38842496,10.07763325,10.23958892,0.04560112,0.792818617,0,0,0.0,39.8714138,32.7364372,429.7551362,-326.5468748,-53.12816131,9.872611671,11.08753495,-0.246274799,-2.10188862,8.019926561,-2.5132390119999997,0.918698262,53.29763981,0.190059891,0.503628394,0.145166864,0.5508546999999999,146862800,0,0,0,0,1
146905167,0.034415768,0.21038758600000002,-0.17188060800000002,0.5285721,0.0,1414.0,1500.0,1528.0,1483.702741,1515.297259,1604.0,14.61633593,14.94024472,14.63787478,14.65632878,14.98120202,15.75195906,16.10111682,131.7841524,131.7841524,12.05957149,-0.000919585,-0.005702751,-0.000129942,-0.255533192,0.194711204,0.000389681,2.0,6.386677335,7.386677335,11,0,0,1.0,0.0,0.0,0,0,0,0,0,0.660683696,0.267125134,1.6667380840000001,1.66671324,308.8662455,383.9970419,44.37106989,-0.002716917,0.039528714,-0.2,0.0,5.920989254,1.166427538,-14.70478785,-340.26352,960.0489054999999,12.05981307,0.5356011970000001,0.516088829,0.316485183,6.148634555,1.157697244,-15.50624502,2294028,0.551501845,0.474939613,0.320677515,-340.26352,50.01679,53.18738784,-0.158529976,-0.122624102,15.33249862,13.86704463,0.029309083,0.545720486,-0.320253757,106.78064029999999,452.66488619999996,12.05989896,96004.77302000001,1.140695569,1.641022309,0.750490553,0.004961569,0.313483618,0.209289191,0.310254448,0.683491037,0.311477432,1.670135863,0.663199209,0.11385438099999999,0.343518761,0.655130645,0.55071941,398752727.5,327326012.0,453143.6453,14.5111693,10.01106015,10.4829976,0.018555711000000003,0.808395662,0,0,0.0,39.8714138,32.7364372,430.18973839999995,-326.04979649999996,-53.140064100000004,9.764360203999999,11.4552996,-0.375040435,-2.701679325,8.429617939,-3.1513687239999997,0.939580792,53.30954345,0.135455385,0.5105098889999999,0.139784805,0.55106294,146905167,0,0,0,0,1
146947534,0.016487488,0.222311266,-0.17221867,0.538337146,0.0,1414.0,1500.0,1538.0,1492.745749,1506.254251,1610.254251,14.78653924,15.11430769,14.70064213,14.71920733,15.04547229,15.82771651,16.17855135,132.82348059999998,132.82348059999998,12.05959346,-0.000919507,-0.005702906,-0.000129137,-0.255524608,0.194763999,0.00027533900000000004,2.0,6.3892778560000005,7.3892778560000005,11,0,0,1.0,0.0,0.0,0,0,0,0,0,0.687942907,0.288019867,1.667953302,1.6679284909999998,308.4661614,383.5828759,44.79179175,-0.002863213,0.039349512999999996,-0.2,0.0,6.111518622999999,1.102703872,-15.41935836,-340.26352,960.0445904,12.05970243,0.496765922,0.554101559,0.312999588,6.134335312999999,1.12606064,-16.1421872,2294028,0.5335965029999999,0.5201255579999999,0.318280948,-340.26352,50.01679,53.17958604,-0.158139888,-0.115057417,15.33248098,13.88349134,0.028979795,0.542629981,-0.32033525,106.54390829999998,452.6226557,12.05981402,96005.28956,1.140701695,1.490423007,0.978771012,-0.08479129199999999,0.398844907,0.256587663,0.31009610600000004,0.6719967809999999,0.311632222,1.671128331,0.663528639,0.109816926,0.339846474,0.657394087,0.540825323,398752765.2,327326066.0,453150.8182,14.682271599999998,9.920308062,10.79752065,-0.079603921,0.827075639,0,0,0.0,39.8714138,32.7364372,430.6137916999999,-325.55319460000004,-53.15503741,9.642785625,11.821594500000002,-0.512671059,-3.3401926889999998,8.768393808999999,-3.7309881139999996,0.960662417,53.32451731,0.078142958,0.5022704170000001,0.156368786,0.54832673,146947534,0,0,0,0,1
146989900,0.003194815,0.225733331,-0.169747808,0.5429208000000001,0.0,1415.788758,1500.0,1545.155031,1498.788758,1500.211242,1612.788758,14.96698784,15.29871082,14.76340949,14.78208588,15.10974255,15.90347396,16.25598589,133.8628088,133.8628088,12.05961542,-0.000919428,-0.005703061,-0.000128333,-0.255516024,0.194816794,0.000160998,2.0,6.391878376,7.391878376,11,0,0,1.0,0.0,0.0,0,0,0,0,0,0.683402073,0.285275145,1.66902613,1.6690013590000001,307.9484015,383.0567265,44.96180119,-0.002993516,0.039184012000000004,-0.2,0.0,6.124808252999999,1.118701496,-16.04401706,-340.26352,960.0384666000001,12.05948276,0.459909685,0.586007346,0.321111028,6.13695555,1.117373224,-16.70786828,2294028,0.498075049,0.550551286,0.318073935,-340.26352,50.01679,53.17178424,-0.1577498,-0.10749073199999999,15.33246333,13.89993805,0.028650507000000002,0.539539475,-0.320416742,106.30717620000001,452.6897631,12.05970613,96004.48091,1.1406920170000001,0.163385374,1.51218083,0.419160582,0.49254945,0.307529111,0.322836384,0.6585876070000001,0.292736665,1.672140571,0.662577309,0.112061803,0.329902645,0.663021037,0.48241924,398752802.0,327326121.5,453163.7167,14.8757505,9.818367674,11.14495034,-0.21067013399999998,0.847191432,0,0,0.0,39.8714138,32.7364372,431.00256720000004,-325.0581858,-53.18027936,9.476655062999999,12.18297414,-0.679948524,-4.108204778999999,8.870009621,-4.114933642,0.982409868,53.34975884,0.039332667,0.468012969,0.17606138300000002,0.5143905,146989900,0,0,0,0,1
147028267,-0.009891039,0.23059147100000002,-0.165229759,0.54825974,0.0,1417.0,1500.0,1548.0,1505.0,1494.0,1614.0,15.22487601,15.56228769,14.82617684,14.84496442,15.17401282,15.97923141,16.33342043,134.902137,134.902137,12.05963739,-0.000919349,-0.005703216,-0.000127529,-0.255507439,0.19486958899999998,4.6700000000000003e-05,2.0,6.394478896,7.394478896,11,0,0,1.0,0.0,0.0,0,0,0,0,0,0.6649081579999999,0.272158009,1.670036482,1.670011753,307.3790083,382.4814414,45.02180415,-0.003112116,0.039014066,-0.2,0.0,6.138097884,1.134699121,-16.66867576,-340.26352,960.0323427999999,12.05926308,0.412873139,0.612168781,0.323228545,6.016980515,1.1088710720000001,-17.23346811,2294028,0.462553594,0.5809770129999999,0.317866922,-340.26352,50.01679,53.16417011,-0.15736909599999999,-0.10000657199999999,15.33244756,13.91538705,0.028341211,0.536490502,-0.320497755,106.0726811,452.77818089999994,12.05953547,96003.47436000001,1.140680076,-0.26215944399999996,0.991831592,0.268342845,0.547968892,0.36433374399999996,0.320817449,0.642566825,0.27412270000000005,1.673400663,0.66170996,0.113315069,0.319096971,0.668929554,0.43110636,398752838.8,327326177.1,453176.6153,15.0692294,9.716427285,11.49238003,-0.34173634700000005,0.867307225,0,0,0.0,39.8714138,32.7364372,431.3913428,-324.5631771,-53.20552132,9.310524501,12.54435377,-0.84722599,-4.87621687,8.971625432,-4.4988791710000005,1.0041573190000002,53.37500037,-0.015410900000000002,0.423653965,0.21725010000000003,0.45183992,147028267,0,0,0,0,1
147066634,-0.021678324,0.238290888,-0.165563741,0.550482069,0.0,1416.874775,1500.0,1550.0,1511.0,1488.0,1619.125225,15.31800506,15.65764704,14.88894419,14.90784297,15.23828309,16.05498886,16.41085497,135.94146519999998,135.94146519999998,12.05965936,-0.00091927,-0.005703371,-0.000126724,-0.255498855,0.19492238399999998,-6.77e-05,2.0,6.397079416,7.397079416,11,0,0,1.0,0.0,0.0,0,0,0,0,0,0.6464142420000001,0.259040873,1.6710468330000001,1.671022147,306.80961510000003,381.9061563,45.08180711,-0.003216925,0.038827931,-0.2,0.0,6.02535133,1.139995329,-17.165384699999997,-340.26352,960.0265075,12.05895279,0.36383081100000003,0.621396307,0.34444114299999995,5.866025605,1.0457208470000001,-17.72088743,2294028,0.418596135,0.599170055,0.329219433,-340.26352,50.01679,53.158894700000005,-0.157105325,-0.09355079599999999,15.33245512,13.91840304,0.028281045,0.533959086,-0.320572803,105.8660606,452.65907230000005,12.05931968,96004.86064,1.1406965690000002,-0.792924939,1.208855594,-0.107594278,0.57185815,0.412687905,0.321077141,0.623909944,0.255734001,1.674664139,0.6610095420000001,0.11363293,0.307379396,0.675023455,0.386807123,398752875.6,327326232.6,453189.5139,15.26270831,9.614486897,11.83980973,-0.472802561,0.887423017,0,0,0.0,39.8714138,32.7364372,431.7884293000001,-323.99780719999995,-53.25012136,9.055916755,12.92793324,-1.060197975,-5.746738422000001,8.782500695,-4.826276442,1.030099622,53.41960073,-0.071125114,0.38327360200000005,0.25655586199999997,0.39875153,147066634,0,0,0,0,1
147113001,-0.030133622000000002,0.233971824,-0.158336961,0.551449031,0.0,1420.0,1500.0,1551.0,1516.0,1483.0,1617.082216,15.40693947,15.74852216,14.95171154,14.97072152,15.30255335,16.13074631,16.4882895,136.9807934,136.9807934,12.05968133,-0.0009191910000000001,-0.0057035259999999996,-0.00012592,-0.255490271,0.19497518,-0.000182027,2.0,6.399679936,7.399679936,11,0,0,1.0,0.0,0.0,0,0,0,0,0,0.627920327,0.245923737,1.672057184,1.6720325409999999,306.24022189999994,381.3308712,45.14181007,-0.003306595,0.038629928,-0.2,0.0,5.894132194,1.143723077,-17.64334058,-340.26352,960.0207144999999,12.05862921,0.316341446,0.6208692579999999,0.36779223899999997,5.601214037,1.03264829,-18.072490300000002,2294028,0.373402248,0.615570203,0.34226617299999995,-340.26352,50.01679,53.15361928,-0.156841554,-0.08709501900000001,15.33246268,13.92141903,0.02822088,0.53142767,-0.32064785100000004,105.6594402,452.75296060000005,12.05906835,96003.77032000001,1.140683624,-0.26820711,0.38138428700000004,0.420376315,0.57259747,0.466353443,0.314278842,0.6026538,0.23754345,1.6751266340000002,0.66074713,0.11315932599999999,0.294691443,0.6809937420000001,0.348972816,398752912.5,327326288.2,453202.4125,15.45618721,9.512546509,12.18723942,-0.6038687739999999,0.90753881,0,0,0.0,39.8714138,32.7364372,432.186734,-323.4221248,-53.29755864,8.788341288,13.31476645,-1.27986721,-6.632284348,8.550763364,-5.145385678999999,1.056656746,53.46703844,-0.10455667800000001,0.353147456,0.265379021,0.37540904,147113001,0,0,0,0,1
147155368,-0.04089673,0.23150479399999999,-0.154941598,0.55031204,0.0,1422.0,1500.0,1548.078416,1522.882376,1476.117624,1615.0,15.63515397,15.98186954,14.98594625,15.00521482,15.33784665,16.1737568,16.53229176,137.56512880000002,137.56512880000002,12.05940521,-0.0009193910000000001,-0.00570377,-0.000125278,-0.255491798,0.195005567,-0.00030105700000000003,2.0,6.402280456000001,7.402280456000001,11,0,0,1.0,0.0,0.0,0,0,0,0,0,0.6094264110000001,0.232806601,1.673067536,1.673042935,305.6708287,380.7555862,45.20181303,-0.00339471,0.038425921,-0.2,0.0,5.378494783,1.131879982,-17.92651419,-340.26352,960.0125579,12.05824567,0.245700802,0.588332241,0.38972573299999996,4.24083718,1.0489720009999999,-18.15426193,2294028,0.320384406,0.609157579,0.359783309,-340.26352,50.01679,53.14834387,-0.156577783,-0.080639243,15.33247025,13.92443502,0.028160714,0.528896255,-0.320722899,105.45281979999999,452.7672069,12.05871852,96003.60074,1.140681588,-1.3986891330000002,1.1100567559999999,-0.697278165,0.556445063,0.506345591,0.313911603,0.580408505,0.21951652600000002,1.6761330859999999,0.660374437,0.112232699,0.281634155,0.68701468,0.31730558,398752946.9,327326352.6,453245.0482,15.615003,9.259183654,12.55108822,-0.8115583120000001,0.934022859,0,0,0.0,39.8714138,32.7364372,432.55488110000005,-322.85224669999997,-53.35390104,8.488400169,13.66531655,-1.498380922,-7.544823636,8.036715596,-5.263605146000001,1.083385754,53.52338082,-0.15278707,0.301582153,0.274873663,0.3351093,147155368,0,0,0,0,1
147197735,-0.05055411,0.212118682,-0.141500315,0.5143905,0.0,1429.0,1500.0,1514.0,1525.0,1474.0,1605.0,15.799185199999998,16.14949338,14.99321892,15.01288537,15.34575803,16.185822899999998,16.54470205,137.7195169,137.7195169,12.05884741,-0.0009198539999999999,-0.005704099,-0.000124791,-0.255502881,0.19501477899999997,-0.000424516,2.0,6.404880976,7.404880976,11,0,0,1.0,0.0,0.0,0,0,0,0,0,0.590932496,0.219689465,1.674077887,1.674053328,305.1014355,380.18030110000007,45.26181599,-0.0034655009999999997,0.038243906,-0.2,0.0,4.499599738,1.105323155,-18.02562748,-340.26352,960.0021678999999,12.05780547,0.18945937399999999,0.538284973,0.40820145399999996,3.2870784860000004,1.055222508,-17.96903289,2294028,0.259973286,0.58118793,0.38152476399999996,-340.26352,50.01679,53.14306845,-0.156314013,-0.07418346599999999,15.33247781,13.92745102,0.028100549,0.526364839,-0.32079794699999997,105.2461994,452.85412599999995,12.05834101,96002.57964,1.140669427,-0.567421806,0.6250611079999999,-0.127765938,0.519217586,0.549067191,0.31418306100000004,0.557679787,0.201632029,1.677436071,0.6599410029999999,0.111074225,0.268352553,0.692904127,0.291201897,398752981.0,327326418.4,453291.8576,15.76895379,8.984568523,12.91724145,-1.030002,0.9614006970000001,0,0,0.0,39.8714138,32.7364372,432.8945307,-322.2878534,-53.41865837,8.157874994,13.98158077,-1.715802719,-8.482870412999999,7.255897417000001,-5.191992996000001,1.110277185,53.58813773,-0.193648906,0.25431215,0.28119679399999997,0.30235758,147197735,0,0,0,0,1
147236102,-0.061822191,0.193880332,-0.12972963199999998,0.45183992,0.0,1435.0,1500.0,1451.0,1531.0,1468.0,1596.0,15.91599681,16.26892316,15.0004916,15.02055592,15.35366942,16.19788901,16.55711234,137.8739049,137.8739049,12.05828961,-0.0009203169999999999,-0.005704427,-0.000124304,-0.255513964,0.195023991,-0.0005479759999999999,2.0,6.407481496,7.407481496,11,0,0,1.0,0.0,0.0,0,0,0,0,0,0.572438581,0.20657232899999997,1.6750882390000001,1.675063722,304.5320423,379.60501600000003,45.32181895,-0.00353111,0.038053225,-0.2,0.0,3.616866337,1.0879367290000002,-18.02819623,-340.26352,959.9932913999999,12.05734508,0.11843694099999999,0.469834166,0.433297143,2.307068065,1.104976456,-17.44925512,2294028,0.199188587,0.548438752,0.403143508,-340.26352,50.03087073,53.13817015,-0.032020612000000004,-0.067587781,15.33249149,13.93515008,0.027946843,0.540160524,-0.320872318,105.04160139999999,452.9691472,12.05787864,96001.2713,1.14065387,-1.078961053,0.581291593,0.425648825,0.483961388,0.583635264,0.311611617,0.534462488,0.183851207,1.678247523,0.659715854,0.10980282699999999,0.254797438,0.698412653,0.269923192,398753015.2,327326484.1,453338.6669,15.92290458,8.709953392000001,13.28339468,-1.248445689,0.988778536,0,0,0.0,39.8714138,32.7364372,433.2322183,-321.7117086,-53.48768837,7.810289791000001,14.28257436,-1.929408376,-9.346104701,6.4055843470000005,-5.0267935,1.137491709,53.65716737,-0.234002039,0.212256295,0.285861522,0.27611426,147236102,0,0,0,0,1
147278468,-0.065794615,0.184832152,-0.12189239,0.4241268,0.0,1441.0,1500.0,1398.0,1535.0,1464.0,1588.0,15.92783258,16.28102895,15.00776427,15.02822647,15.36158081,16.20995511,16.56952264,138.028293,138.028293,12.05773181,-0.00092078,-0.005704756,-0.000123816,-0.255525047,0.195033204,-0.000671435,2.0,6.4100820160000005,7.4100820160000005,11,0,0,1.0,0.0,0.0,0,0,0,0,0,0.553944665,0.193455193,1.67609859,1.676074116,303.9626491,379.0297309,45.38182191,-0.003589697,0.037857982000000005,-0.2,0.0,2.713387265,1.120114801,-17.5089578,-340.26352,959.9925958999999,12.05677553,0.050038199000000005,0.40428546299999996,0.443487694,1.5934076940000002,1.089718584,-16.76042944,2294028,0.136384752,0.489857015,0.42409902299999996,-340.26352,50.07580921,53.13409827,0.364082402,-0.060685487999999996,15.33251859,13.95311203,0.027588145,0.589736875,-0.320945207,104.8414355,453.12102300000004,12.05738372,95999.5001,1.140632885,-1.198766556,0.744948866,0.30828770899999997,0.444490173,0.610938314,0.318548283,0.511356706,0.166136801,1.67889544,0.659552743,0.10857722199999999,0.24118975199999998,0.703571937,0.253115377,398753049.3,327326549.9,453385.4763,16.07685537,8.435338261,13.64954791,-1.466889378,1.016156375,0,0,0.0,39.8714138,32.7364372,433.5593022,-321.0720487,-53.57981147,7.370497975,14.50103275,-2.122388426,-9.804989917999999,5.179662943,-4.355769946000001,1.166452504,53.74929047,-0.26779946,0.173717271,0.293450751,0.25581935,147278468,0,0,0,0,1
147316835,-0.072172595,0.16638741,-0.114141436,0.37540904,0.0,1442.132827,1500.0,1372.210642,1536.265653,1462.734347,1582.335867,16.01171552,16.36688772,15.01503694,15.03589702,15.3694922,16.22202121,16.58193293,138.1826811,138.1826811,12.05717401,-0.000921242,-0.005705085,-0.00012332899999999998,-0.25553613,0.19504241600000002,-0.000794894,2.0,6.412682537,7.412682537,11,0,0,1.0,0.0,0.0,0,0,0,0,0,0.53545075,0.180338057,1.6771089419999998,1.67708451,303.3932559,378.4544459,45.44182487,-0.003638087,0.037677269,-0.2,0.0,1.809908192,1.152292872,-16.98971938,-340.26352,959.9919004000001,12.05620598,-0.01571976,0.331030583,0.45984842299999995,1.0792096290000002,1.098680914,-15.72993002,2294028,0.073580918,0.431275279,0.44505453799999994,-340.26352,50.1207477,53.1300264,0.760185417,-0.053783195,15.33254568,13.97107398,0.027229447,0.639313227,-0.32101809600000003,104.64126970000001,453.1615935,12.05681789,95999.06916,1.1406277120000001,-0.8453422890000001,0.007386983000000001,0.928810595,0.391499661,0.637505632,0.33785245700000005,0.489299186,0.14845844800000002,1.6801785809999998,0.659116919,0.10762585300000001,0.227902248,0.708545353,0.239884785,398753083.0,327326616.2,453435.4399,16.21941588,8.149770965,14.00416483,-1.681828366,1.043676938,0,0,0.0,39.8714138,32.7364372,433.88638610000004,-320.4323889,-53.67193456,6.930706159,14.71949114,-2.315368477,-10.26387514,3.95374154,-3.684746393,1.195413298,53.84141356,-0.297313851,0.135366254,0.298697435,0.2404654,147316835,0,0,0,0,1
147363202,-0.07820009,0.14740558199999998,-0.111922585,0.3351093,0.0,1443.0,1500.0,1335.0,1537.0,1462.0,1573.0,15.98999957,16.34471563,15.02230962,15.04356757,15.37740358,16.23408732,16.59434322,138.33706919999997,138.33706919999997,12.05661621,-0.000921705,-0.005705414000000001,-0.00012284200000000001,-0.25554721399999997,0.19505162899999998,-0.0009183539999999999,2.0,6.415283057000001,7.415283057000001,11,0,0,1.0,0.0,0.0,0,0,0,0,0,0.516956834,0.167220921,1.6781192930000002,1.678094903,302.8238627,377.8791608,45.50182783,-0.0036800229999999997,0.037505042,-0.2,0.0,1.325391653,1.1018437840000002,-16.19530097,-340.26352,959.9819241,12.055574499999999,-0.058649031,0.276426525,0.44739190700000003,0.797864342,1.051524615,-14.86019147,2294028,0.020301633,0.36945010100000003,0.447045939,-340.26352,50.16568619,53.12595452,1.156288431,-0.046880900999999996,15.33257278,13.98903594,0.026870748,0.688889579,-0.321090985,104.44110390000002,453.12375910000003,12.05619612,95999.50976,1.140632942,-2.196036038,-0.565795696,0.5932985239999999,0.34512721799999996,0.636515746,0.356908257,0.46684725,0.130796358,1.6803452319999999,0.659106741,0.106679833,0.21432847100000002,0.712918655,0.229594928,398753110.8,327326690.5,453527.1862,16.21109422,7.719124981,14.20596519,-1.8503420680000002,1.073088113,0,0,0.0,39.8714138,32.7364372,434.1606589,-319.8195018,-53.76975035,6.511747842,14.85239809,-2.439316179,-10.19542633,3.144398592,-2.912975527,1.2205993659999999,53.93922969,-0.307922751,0.119406225,0.298916502,0.23422348,147363202,0,0,0,0,1
147405569,-0.08197689,0.129566675,-0.109720716,0.30235758,0.0,1445.0,1500.0,1302.0,1540.0,1459.0,1564.0,15.97043828,16.32484712,15.02958229,15.05123812,15.38531497,16.24615342,16.60675351,138.49145719999999,138.49145719999999,12.05605841,-0.000922168,-0.005705742,-0.000122354,-0.255558297,0.195060841,-0.001041813,2.0,6.4178835770000005,7.4178835770000005,11,0,0,1.0,0.0,0.0,0,0,0,0,0,0.498462919,0.154103785,1.679129645,1.6791052969999998,302.25446949999997,377.3038757,45.56183079,-0.003721093,0.037343945,-0.2,0.0,0.946853817,1.030493736,-15.33127438,-340.26352,959.9696002000001,12.05492734,-0.113670801,0.232811992,0.439935586,0.358059804,1.068722087,-13.85377966,2294028,-0.030568368,0.30680447899999996,0.44424027,-340.26352,50.21062468,53.12188265,1.552391446,-0.039978608,15.33259987,14.00699789,0.02651205,0.7384659309999999,-0.32116387399999996,104.240938,453.3486119,12.05554401,95996.89382,1.140601929,-1.266047086,-1.017336883,0.001756375,0.289211853,0.61908336,0.37839229999999996,0.445756979,0.114222511,1.681267623,0.658832625,0.105714332,0.201547287,0.717029391,0.222022327,398753138.7,327326764.8,453618.9326,16.20277255,7.288478997,14.40776555,-2.018855771,1.102499288,0,0,0.0,39.8714138,32.7364372,434.42157280000004,-319.21338710000003,-53.86900613,6.098059463999999,14.96366438,-2.545801799,-9.993585708,2.440431282,-2.115720117,1.244830597,54.03848589,-0.333254007,0.082234223,0.305860872,0.22438699,147405569,0,0,0,0,1
147451872,-0.086292689,0.113904091,-0.108292468,0.276311735,0.0,1445.0,1500.0,1276.0,1542.0,1457.0,1557.0,15.93113951,16.28478221,15.03685496,15.05890867,15.39322636,16.25821952,16.6191638,138.64584530000002,138.64584530000002,12.05550062,-0.000922631,-0.005706071,-0.000121867,-0.25556938,0.19507005300000002,-0.001165273,2.0,6.420484097,7.420484097,11,0,0,1.0,0.0,0.0,0,0,0,0,0,0.479969004,0.14098664800000002,1.6801399959999999,1.680115691,301.68507630000005,376.7285906,45.62183375,-0.003754762,0.037214821,-0.2,0.0,0.63334434,1.0226913309999999,-14.4761041,-340.26352,959.9559437,12.05426321,-0.16204802199999999,0.19723528199999998,0.42734839799999996,0.21026457,0.979662932,-13.08891173,2294028,-0.080392457,0.258284786,0.43838525100000003,-340.26352,50.31525095,53.12103193,1.88495831,-0.001224627,15.332591699999998,14.05015579,0.025648727000000003,0.920177734,-0.321229141,104.0458343,453.46022469999997,12.05484956,95995.6187,1.1405867459999999,-1.534350614,-1.415248738,0.408899027,0.21710835,0.575440508,0.40285859799999996,0.425168659,0.106544486,1.68189951,0.6591927710000001,0.10168637400000001,0.191722742,0.7199711529999999,0.216281981,398753166.6,327326839.0,453710.6789,16.19445089,6.857833014,14.60956591,-2.187369474,1.1319104629999999,0,0,0.0,39.8714138,32.7364372,434.67294960000004,-318.5810274,-53.97511206,5.686829847,15.05271345,-2.620527139,-9.652883552999999,1.839397089,-1.3538637269999998,1.268376215,54.14459206,-0.35145077799999996,0.059055142000000005,0.301520644,0.2173306,147451872,0,0,0,0,1
147490303,-0.085238799,0.107988461,-0.107219985,0.2651743,0.0,1445.3048609999998,1500.0,1261.95139,1542.6097220000001,1456.3902779999999,1552.7805560000002,15.8566821,16.20868286,15.04412764,15.06657921,15.40113774,16.27028563,16.63157409,138.8002334,138.8002334,12.05494282,-0.000923094,-0.0057063999999999995,-0.00012138,-0.255580463,0.195079266,-0.001288732,2.0,6.423084617000001,7.423084617000001,11,0,0,1.0,0.0,0.0,0,0,0,0,0,0.461646099,0.134209893,1.6806902819999998,1.680666019,301.04949980000004,376.10415750000004,45.49559805,-0.0037856409999999997,0.037102479,-0.2,0.0,0.40256654700000005,1.095736786,-13.63220119,-340.26352,959.9405919,12.05357746,-0.1942448,0.18285246,0.409917452,0.12200682800000001,1.030605334,-12.38030487,2294028,-0.128885894,0.227736667,0.428650728,-340.26352,50.46824492,53.12279145,2.166038983,0.063340205,15.33255494,14.11373109,0.024376482999999997,1.208964817,-0.321288232,103.8548326,453.4952601,12.05417161,95995.22692999999,1.140582083,-1.528185207,-1.964160539,0.378536727,0.15205765400000001,0.5127987629999999,0.42867443200000005,0.40481877299999997,0.10113746,1.6820696080000002,0.659819618,0.096948398,0.182653775,0.72240741,0.212619945,398753194.5,327326913.3,453802.4253,16.18612923,6.42718703,14.81136627,-2.355883177,1.161321638,0,0,0.0,39.8714138,32.7364372,434.9121928,-317.9152778,-54.08993302,5.278728362,15.11349689,-2.654845779,-9.135516191,1.369318535,-0.63704339,1.2910495709999998,54.25941302,-0.36464315,0.047477934000000006,0.29258233100000003,0.21282789,147490303,0,0,0,0,1
147532670,-0.088503352,0.09410949699999999,-0.106311887,0.24761221,0.0,1446.0,1500.0,1247.0,1543.0,1456.0,1547.0,15.83213125,16.18385261,15.05140031,15.07424976,15.40904913,16.28235173,16.64398438,138.9546215,138.9546215,12.05438502,-0.000923557,-0.005706728,-0.00012089200000000001,-0.255591546,0.195088478,-0.0014121910000000001,2.0,6.425685137,7.425685137,11,0,0,1.0,0.0,0.0,0,0,0,0,0,0.443347163,0.128321816,1.681176085,1.681151864,300.40464689999993,375.47283569999996,45.34325882,-0.00381102,0.037027342000000005,-0.2,0.0,0.184381606,1.1542046209999999,-12.80674401,-340.26352,959.9254192,12.05289276,-0.23626663399999998,0.158659585,0.382819488,-0.006957163000000001,0.929046881,-11.70179611,2294028,-0.175974933,0.19801944100000002,0.418174747,-340.26352,50.62123889,53.12455097,2.447119656,0.127905037,15.33251818,14.1773064,0.023104239,1.4977519,-0.321347323,103.66383090000001,453.71547860000004,12.05343919,95992.68418,1.140551965,-1.006784336,-1.3971994140000001,0.451997401,0.07584197,0.437125194,0.445390823,0.386316252,0.096230502,1.683267153,0.659983251,0.09254390900000001,0.174432455,0.724864796,0.210395807,398753220.1,327326987.5,453898.0632,16.16081616,6.011888077999999,14.97479896,-2.481644329,1.189068276,0,0,0.0,39.8714138,32.7364372,435.1470239,-317.2533692,-54.20402095,4.876781932,15.17147054,-2.684267375,-8.627275159,0.9171477379999999,0.058492168,1.313331905,54.37350095,-0.377587393,0.033434884,0.282829327,0.21029592,147532670,0,0,0,0,1
147575037,-0.09136724800000001,0.07963956,-0.104143986,0.23422348,0.0,1447.0,1500.0,1234.0,1545.0,1454.0,1539.0,15.74603185,16.09586042,15.05867298,15.08192031,15.41696052,16.29441783,16.65639467,139.10900959999998,139.10900959999998,12.05382722,-0.000924019,-0.005707057,-0.000120405,-0.25560262899999997,0.19509769100000002,-0.001535651,2.0,6.428285657000001,7.428285657000001,11,0,0,1.0,0.0,0.0,0,0,0,0,0,0.42504822700000006,0.12243374,1.681661888,1.681637709,299.7597941,374.8415139,45.19091959,-0.0038326000000000002,0.036976581,-0.2,0.0,0.10703396800000001,1.04963771,-12.1875823,-340.26352,959.9122514000001,12.05221974,-0.261477262,0.13767078900000002,0.36273589700000003,-0.115746036,0.966148487,-11.13366084,2294028,-0.20735730300000002,0.177594838,0.39940637700000003,-340.26352,50.77423286,53.12631049,2.728200329,0.192469869,15.33248142,14.240881699999997,0.021831995,1.786538983,-0.321406414,103.4728292,453.76112639999997,12.05273723,95992.18067999999,1.140545879,-0.347969518,-0.8633452229999999,-0.341529975,0.019076636,0.37841328,0.454373198,0.36746369700000003,0.091784565,1.683540452,0.660492072,0.08793648300000001,0.166163367,0.7269117070000001,0.20921264,398753239.4,327327061.6,454004.5805,16.088001600000002,5.639493599,15.03097019,-2.4878855769999997,1.212161498,0,0,0.0,39.8714138,32.7364372,435.3325101,-316.63441739999996,-54.30991069,4.543673063,15.19801973,-2.6589208859999998,-8.221102157999999,0.6652556479999999,0.5159807129999999,1.331241092,54.47939069,-0.39010429,0.020844613,0.27361497100000004,0.20908934,147575037,0,0,0,0,1
147613403,-0.089075424,0.07368529900000001,-0.10395795099999999,0.22881990000000002,0.0,1448.0,1500.0,1226.264453,1544.867774,1454.132226,1534.264453,15.64402324,15.99164779,15.06594565,15.08959086,15.424871900000001,16.30648394,16.66880496,139.2633976,139.2633976,12.05326942,-0.000924482,-0.005707386,-0.00011991700000000001,-0.255613712,0.195106903,-0.00165911,2.0,6.4308861770000005,7.4308861770000005,11,0,0,1.0,0.0,0.0,0,0,0,0,0,0.406749291,0.11654566300000001,1.68214769,1.6821235540000001,299.1149412,374.21019210000003,45.03858035,-0.0038548420000000003,0.036952648,-0.2,0.0,0.029686331,0.945070799,-11.56842059,-340.26352,959.8990836000002,12.05154672,-0.27847722199999997,0.12175041699999999,0.338754703,-0.089150736,0.918582314,-10.72100892,2294028,-0.23873967199999999,0.157170234,0.38063800799999997,-340.26352,50.92722683,53.12807001,3.009281002,0.25703470100000003,15.33244467,14.30445701,0.020559752,2.075326066,-0.321465505,103.2818275,453.8813688,12.05203604,95990.79396,1.140529457,-0.527765532,-1.03843745,-0.44585427299999997,-0.029322697999999998,0.322870203,0.45994280299999996,0.34923227700000004,0.087686078,1.6838122759999998,0.660962087,0.08340479599999999,0.158210493,0.7287903609999999,0.208890777,398753258.8,327327135.6,454111.0978,16.01518704,5.26709912,15.08714143,-2.494126825,1.235254719,0,0,0.0,39.8714138,32.7364372,435.51799630000005,-316.0154657,-54.41580043,4.210564193,15.22456893,-2.6335743959999998,-7.814929157000001,0.413363559,0.973469257,1.3491502780000002,54.58528043,-0.396720085,0.009171811,0.26215915,0.20886302,147613403,0,0,0,0,1
147659541,-0.088643109,0.060113399000000005,-0.10190008800000001,0.22057378,0.0,1449.0,1500.0,1220.0,1544.0,1455.0,1529.476895,15.63529671,15.98273253,15.07321833,15.09726141,15.43278329,16.31855004,16.68121525,139.4177857,139.4177857,12.05271162,-0.000924945,-0.005707715,-0.00011943,-0.255624795,0.195116115,-0.00178257,2.0,6.433486697,7.433486697,11,0,0,1.0,0.0,0.0,0,0,0,0,0,0.388450355,0.110657586,1.6826334930000002,1.682609399,298.4700883,373.57887039999997,44.88624112,-0.003875214,0.036948402000000005,-0.2,0.0,-0.031350432000000004,0.866847134,-11.05488677,-340.26352,959.8876537000001,12.05078004,-0.299729431,0.119241536,0.329998305,-0.125552241,0.7900246240000001,-10.29261024,2294028,-0.26374290300000003,0.142546714,0.361518658,-340.26352,51.09766797,53.14655858,3.1519036610000004,0.39508942700000005,15.33244406,14.45039324,0.017641013,2.3196911119999997,-0.321527436,103.159137,453.9920713,12.05133384,95989.51169,1.140514148,-1.24199619,-0.740822593,-0.355348262,-0.069809469,0.276501819,0.44978640700000005,0.332714616,0.083924309,1.6851198440000001,0.660972126,0.079235788,0.151013986,0.73077241,0.20905261100000003,398753278.1,327327209.7,454217.6151,15.94237247,4.894704641000001,15.14331266,-2.5003680740000003,1.258347941,0,0,0.0,39.8714138,32.7364372,435.6899687,-315.3576307,-54.52458084,3.889987635,15.23810992,-2.57936002,-7.39940497,0.254556362,1.314765205,1.366039468,54.69406084,-0.39053519700000006,0.007250339000000001,0.25778468600000004,0.20892522,147659541,0,0,0,0,1
147704274,-0.09245712800000001,0.055419916,-0.10617686,0.21459752,0.0,1446.0,1500.0,1214.0,1546.0,1453.0,1527.0,15.50942941,15.85422449,15.080491,15.10493196,15.44069468,16.33061615,16.69362554,139.5721738,139.5721738,12.05215382,-0.0009254080000000001,-0.005708043,-0.00011894299999999999,-0.255635878,0.19512532800000001,-0.0019060289999999998,2.0,6.436087217000001,7.436087217000001,11,0,0,1.0,0.0,0.0,0,0,0,0,0,0.370151419,0.10476951,1.6831192959999999,1.683095244,297.8252354,372.9475486,44.73390189,-0.003894065,0.036968214,-0.2,0.0,-0.086170999,0.7986630779999999,-10.58160854,-340.26352,959.8768862,12.04997767,-0.320703332,0.09884841,0.310492695,-0.10520826900000001,0.7581231970000001,-9.932078073,2294028,-0.286314995,0.130134029,0.34226554600000003,-340.26352,51.27270711,53.16945589,3.258037383,0.5525115270000001,15.33245299,14.618034699999997,0.014288361000000001,2.552349267,-0.321590114,103.05444909999999,454.1301488,12.05063248,95987.91842999999,1.140495275,-0.7333769590000001,0.271005603,-0.6356743020000001,-0.121694217,0.23921969,0.437145821,0.315538069,0.080271112,1.685296296,0.661399476,0.074896768,0.14354856800000002,0.7323483590000001,0.21018235600000001,398753297.5,327327283.8,454324.1324,15.86955791,4.522310162,15.1994839,-2.506609322,1.281441163,0,0,0.0,39.8714138,32.7364372,435.856791,-314.684977,-54.63446291,3.574187236,15.246693400000002,-2.514143875,-6.980316974,0.13122451599999999,1.6117792830000002,1.38253993,54.80394291,-0.39913127,-0.003604637,0.246955793,0.21020502,147704274,0,0,0,0,1
147748504,-0.09336250300000001,0.049278119,-0.108697468,0.2114155,0.0,1445.0,1500.0,1211.0,1547.437087,1451.562913,1524.0,15.44329289,15.78673965,15.08776367,15.11260251,15.44860607,16.34268225,16.70603583,139.7265619,139.7265619,12.05159602,-0.0009258710000000001,-0.005708372,-0.000118455,-0.255646961,0.19513454,-0.002029488,2.0,6.438687738,7.438687738,11,0,0,1.0,0.0,0.0,0,0,0,0,0,0.351852483,0.098881433,1.6836050980000001,1.683581089,297.1803825,372.31622680000004,44.58156266,-0.0039112090000000006,0.037000615,-0.2,0.0,-0.11041372199999999,0.756584611,-10.19611114,-340.26352,959.8626974,12.04925106,-0.34052277299999995,0.076630607,0.29793047699999997,0.027432373,0.689646271,-9.663054608,2294028,-0.306779825,0.114578754,0.32517741699999997,-340.26352,51.44774625,53.1923532,3.364171106,0.7099336270000001,15.33246192,14.78567616,0.010935708999999998,2.785007423,-0.321652793,102.9497613,454.23797189999993,12.04997923,95986.7094,1.1404809040000001,-0.673450696,-0.39197959,-0.40101457,-0.162595444,0.204720287,0.422633524,0.29902162,0.076939378,1.6854732190000001,0.661787845,0.070655257,0.136413625,0.733779044,0.21141035100000002,398753314.3,327327359.4,454429.0344,15.8014943,4.181271983,15.23190038,-2.479593919,1.3026106590000002,0,0,0.0,39.8714138,32.7364372,436.00892530000004,-314.0309759,-54.73852801,3.2791125410000004,15.25129334,-2.443067417,-6.621149156,0.027768552999999998,1.841226595,1.39789044,54.90800786,-0.39780401299999996,-0.008212004,0.237845451,0.21113791699999998,147748504,0,0,0,0,1
147790871,-0.094454125,0.04389066900000001,-0.111306012,0.20946795,0.0,1444.0,1500.0,1209.394079,1546.211842,1452.788158,1521.788158,15.39466294,15.73705846,15.09503635,15.12027306,15.45651745,16.35474835,16.71844613,139.88094990000002,139.88094990000002,12.05103823,-0.0009263339999999999,-0.005708701,-0.00011796799999999999,-0.255658044,0.195143752,-0.002152948,2.0,6.441288257999999,7.441288257999999,11,0,0,1.0,0.0,0.0,0,0,0,0,0,0.333553547,0.092993357,1.684090901,1.684066934,296.5355296,371.68490499999996,44.42922343,-0.0039300279999999995,0.037046285,-0.2,0.0,-0.08169688,0.7597199459999999,-9.962646507,-340.26352,959.842583,12.04865564,-0.349027387,0.066215257,0.29266705,0.024754263,0.690441768,-9.571669612,2294028,-0.323594961,0.09358064099999999,0.311838949,-340.26352,51.62278539,53.21525051,3.470304829,0.867355726,15.33247085,14.95331761,0.007583057,3.0176655789999995,-0.321715472,102.8450734,454.292202,12.04933187,95986.05458,1.140473147,-0.8253220520000001,-0.589136546,-0.5442730610000001,-0.20321193899999998,0.183393097,0.401000662,0.28310444100000004,0.07381162299999999,1.685700405,0.662119824,0.06653191900000001,0.129553719,0.735106665,0.212822223,398753328.0,327327437.0,454532.015,15.73908182,3.877531297,15.23606121,-2.413020604,1.321491933,0,0,0.0,39.8714138,32.7364372,436.13562060000004,-313.40928030000003,-54.83251835,3.0199339110000003,15.24899395,-2.361841137,-6.365760615,-0.041263202,1.953651056,1.411249281,55.00199777,-0.39678066700000003,-0.012549336999999999,0.227247898,0.21242571,147790871,0,0,0,0,1
147830476,-0.093155493,0.041253786,-0.11428609699999999,0.209034584,0.0,1443.0,1500.0,1209.0,1546.0,1453.0,1520.64893,15.29633429,15.63669118,15.10230902,15.12794361,15.46442884,16.36681446,16.73085642,140.035338,140.035338,12.05048043,-0.0009267969999999999,-0.005709029,-0.00011748100000000001,-0.255669127,0.195152965,-0.0022764070000000003,2.0,6.443888778,7.443888778,11,0,0,1.0,0.0,0.0,0,0,0,0,0,0.315254611,0.08710528,1.6845767040000001,1.6845527790000001,295.8906768,371.0535832,44.27688419,-0.003946779,0.037105861000000004,-0.2,0.0,-0.052714722,0.762474535,-9.72935806,-339.0654252,959.8225343,12.04806075,-0.350790782,0.06304339099999999,0.290584553,-0.006101581,0.65244957,-9.328443423,2294028,-0.34034640299999996,0.072641516,0.298593935,-339.0654252,51.79726504,53.23925246,3.5641116860000004,1.026370542,15.33248065,15.122129999999999,0.004207004,3.2448950589999996,-0.32177992,102.7428719,454.3121447,12.04871451,95985.85123,1.1404706409999998,-1.079488024,0.293949034,-0.327139729,-0.236054168,0.157701946,0.378618578,0.26776888600000004,0.07093311299999999,1.6859299230000002,0.66241723,0.062507656,0.12297745300000001,0.7363213890000001,0.214163682,398753341.7,327327514.6,454634.9956,15.67666933,3.573790611,15.24022204,-2.346447289,1.340373206,0,0,0.0,39.8714138,32.7364372,436.26218509999995,-312.7871721,-54.92649868,2.760819117,15.24666178,-2.280492116,-6.109895233,-0.11008321900000001,2.065410028,1.424604875,55.09597768,-0.397420644,-0.017300519,0.214253735,0.21397877,147830476,0,0,0,0,1
147879605,-0.090155606,0.037856155,-0.117245192,0.20886302,0.0,1441.0,1500.0,1208.0,1545.0,1454.0,1518.0,15.22556836,15.56425859,15.10958169,15.13561416,15.47234023,16.37888056,16.74326671,140.1897261,140.1897261,12.04992263,-0.0009272589999999999,-0.005709358,-0.000116993,-0.25568021,0.195162177,-0.002399867,2.0,6.4464892979999995,7.4464892979999995,11,0,0,1.0,0.0,0.0,0,0,0,0,0,0.296955675,0.081217203,1.685062506,1.6850386240000002,295.24582389999995,370.42226139999997,44.12454496,-0.003959138,0.037165855,-0.2,0.0,0.009088526,0.718128503,-9.517864418,-189.65596169999998,959.8106048000001,12.04753022,-0.359533847,0.038396936,0.293401819,0.096817695,0.564245176,-9.204559222,2294028,-0.349218346,0.058999392000000005,0.296909763,-189.65596169999998,51.95394587,53.29839567,3.2657701169999998,1.23605363,15.33251835,15.32819234,8.65e-05,3.2994248,-0.321900671,102.7197703,454.5975308,12.04809451,95982.55527000001,1.140431542,-0.604520018,-0.82594678,-0.450258625,-0.269128304,0.146081425,0.351919789,0.254282251,0.068298366,1.68725167,0.662242502,0.058940886,0.117184253,0.737718381,0.21538833899999998,398753355.5,327327592.2,454737.9762,15.61425685,3.2700499260000004,15.24438288,-2.279873975,1.35925448,0,0,0.0,39.8714138,32.7364372,436.3725659,-312.11401800000004,-55.01923967,2.509601195,15.24027379,-2.183959301,-5.795041942,-0.152710041,2.094844101,1.437558673,55.18871909,-0.39551128700000004,-0.018617424,0.20313342199999998,0.21536955,147879605,0,0,0,0,1
147921972,-0.09085554400000001,0.03439365,-0.122875822,0.20955762,0.0,1438.0,1500.0,1209.0,1545.2650529999999,1453.7349470000001,1517.0,15.10786465,15.44418957,15.11685436,15.14328471,15.48025161,16.39094666,16.755677,140.3441142,140.3441142,12.04936483,-0.000927722,-0.005709687,-0.000116506,-0.255691293,0.19517139,-0.002523326,2.0,6.449089817999999,7.449089817999999,11,0,0,1.0,0.0,0.0,0,0,0,0,0,0.278656739,0.075329127,1.685548309,1.685524469,294.600971,369.7909396,43.97220573,-0.003971015,0.037241177,-0.2,0.0,0.07089177299999999,0.673782471,-9.306370775,-40.24649823,959.7986752999999,12.04699969,-0.36921472,0.021986286,0.295758445,0.160214195,0.6292926879999999,-8.999125329,2294028,-0.35809029,0.045357269000000006,0.29522559,-40.24649823,52.11062671,53.35753888,2.9674285489999996,1.4457367190000001,15.33255605,15.53425468,-0.004033978,3.3539545410000002,-0.322021422,102.6966686,454.641862,12.04753121,95982.03529,1.140425344,-0.347162201,-0.146503678,-0.092364898,-0.289084083,0.127222014,0.334469737,0.24009853899999997,0.06567305799999999,1.6874328459999999,0.662488089,0.055209355,0.11109245599999999,0.738726716,0.21706999899999999,398753369.2,327327669.8,454840.9568,15.55184437,2.96630924,15.24854371,-2.21330066,1.378135754,0,0,0.0,39.8714138,32.7364372,436.4829467,-311.4408639,-55.11198065,2.258383273,15.233885800000001,-2.087426485,-5.480188652000001,-0.195336862,2.124278174,1.450512471,55.28146051,-0.393974686,-0.019971287,0.18962485199999998,0.21727039999999997,147921972,0,0,0,0,1
147960338,-0.09486156800000001,0.030436502999999997,-0.126643081,0.21089277,0.0,1436.0,1500.0,1210.0,1547.0,1452.0,1514.7779560000001,15.21903686,15.55779432,15.12412704,15.15095526,15.488163,16.40301277,16.76808729,140.4985023,140.4985023,12.04880703,-0.000928185,-0.005710015,-0.000116019,-0.255702376,0.19518060199999998,-0.002646785,2.0,6.451690338,7.451690338,11,0,0,1.0,0.0,0.0,0,0,0,0,0,0.260734337,0.069689611,1.686023131,1.685999333,293.9572898,369.1589517,43.82767208,-0.003980644,0.037321587999999996,-0.2,0.0,0.123506547,0.6081299960000001,-9.147679975,-85.06933728,959.7944311000001,12.04651106,-0.372311795,0.004031481,0.292968014,0.19619079,0.520928469,-8.773474533,2294028,-0.36388845799999997,0.030374931,0.293065963,-85.06933728,52.26730754,53.41668209,2.669086981,1.6554198080000002,15.33259376,15.74031702,-0.008154469000000001,3.408484282,-0.32214217300000003,102.67356690000001,454.6756313,12.04698184,95981.64022999999,1.140420675,-0.375311,-0.819997159,-0.18307333899999997,-0.313017134,0.11874308800000001,0.320831889,0.226442012,0.06327237299999999,1.6876145790000001,0.662706528,0.051568393,0.105261231,0.739646633,0.21856292800000002,398753379.7,327327746.4,454932.3079,15.50295459,2.70989798,15.24864773,-2.12914783,1.394373637,0,0,0.0,39.8714138,32.7364372,436.5734583000001,-310.8016017,-55.19407998,2.035187045,15.2278228,-1.992943524,-5.225337903,-0.1926106,2.186574061,1.462252476,55.36355998,-0.395752615,-0.021611177000000002,0.176770094,0.21892163,147960338,0,0,0,0,1
148006705,-0.09349755400000001,0.028083016000000002,-0.131666181,0.21242571,0.0,1434.0,1500.0,1211.820964,1545.641928,1453.358072,1513.358072,15.16562719,15.50337442,15.13139971,15.15862581,15.49607439,16.41507887,16.78049758,140.65289030000002,140.65289030000002,12.04824923,-0.000928648,-0.005710344,-0.000115531,-0.255713459,0.195189814,-0.002770245,2.0,6.454290857999999,7.454290857999999,11,0,0,1.0,0.0,0.0,0,0,0,0,0,0.24880637100000003,0.06800718,1.686323131,1.686299376,293.3322618,368.516358,43.80740319,-0.0039905240000000005,0.037420272000000004,-0.2,0.0,0.17117368,0.53100482,-9.017421475,-234.4788008,959.7943251,12.04604499,-0.37549340000000003,-0.01631721,0.29811455,0.19396718,0.42641540000000006,-8.686306,2294028,-0.368031516,0.014670938,0.29065032,-234.4788008,52.42398838,53.47582529,2.3707454119999998,1.865102896,15.33263146,15.94637937,-0.01227496,3.463014023,-0.322262924,102.6504652,454.6037004,12.04647237,95982.46161,1.140430342,-0.231841181,-1.085505655,-0.28342273,-0.328060523,0.10094792300000001,0.311890983,0.213437673,0.06113535,1.687900564,0.662859044,0.048039842,0.09975353699999999,0.740510896,0.21970486600000003,398753388.4,327327822.3,455017.3969,15.46134627,2.478971794,15.24656731,-2.035529106,1.409188155,0,0,0.0,39.8714138,32.7364372,436.65327110000004,-310.1805888,-55.27044917,1.827079423,15.22193481,-1.8995643309999999,-5.002796214,-0.16546344699999999,2.266564769,1.4733389019999998,55.43992917,-0.388333899,-0.018040895,0.162183692,0.22008732,148006705,0,0,0,0,1
148049072,-0.08933321699999999,0.028421249,-0.135125184,0.213431786,0.0,1432.0,1500.0,1213.0,1544.0,1455.0,1514.0,15.14185334,15.47900998,15.13867238,15.16629636,15.50398578,16.42714497,16.79290787,140.8072784,140.8072784,12.04769143,-0.000929111,-0.005710673,-0.00011504399999999999,-0.255724542,0.195199027,-0.0028937040000000004,2.0,6.456891378,7.456891378,11,0,0,1.0,0.0,0.0,0,0,0,0,0,0.236878405,0.06632475,1.6866231319999998,1.686599419,292.7072338,367.87376439999997,43.78713431,-0.003998054,0.037513286,-0.2,0.0,0.21195932,0.47258137899999997,-8.883599299,-296.6390326,959.7907891000001,12.04559415,-0.36544699700000005,-0.027558115,0.29622814399999997,0.215505707,0.376471709,-8.581477213,2294028,-0.370730544,-0.00013701299999999998,0.28958696,-340.26352,52.55905615,53.54782686,2.07604315,2.0545592630000002,15.33267796,16.13264433,-0.015999327,3.428124108,-0.322415154,102.6442499,454.65681229999996,12.04596252,95981.85566,1.14042323,0.45762933899999997,-0.07481172900000001,-0.44384004899999996,-0.34213811200000005,0.092709607,0.297849943,0.200766611,0.059223437000000004,1.68808365,0.663030077,0.044543054000000006,0.094434655,0.741274733,0.220611219,398753397.2,327327898.2,455102.4859,15.41973795,2.248045609,15.2444869,-1.9419103819999999,1.4240026730000002,0,0,0.0,39.8714138,32.7364372,436.72868560000006,-309.5446477,-55.34575038,1.620688161,15.21611764,-1.802618848,-4.783636118,-0.14509803,2.336733165,1.484499993,55.51523038,-0.383766341,-0.015051311000000001,0.15058481,0.22087745399999997,148049072,0,0,0,0,1
148099439,-0.090336974,0.027230945,-0.142777175,0.21527595100000002,0.0,1430.0,1500.0,1214.0,1544.093019,1454.906981,1513.0,15.01533963,15.34972896,15.14594506,15.1739669,15.51189716,16.43921108,16.80531816,140.9616665,140.9616665,12.04713363,-0.000929574,-0.005711002,-0.00011455700000000001,-0.255735625,0.19520823899999998,-0.003017164,2.0,6.459491898,7.459491898,11,0,0,1.0,0.0,0.0,0,0,0,0,0,0.22495043899999997,0.06464232,1.686923133,1.686899462,292.08220589999996,367.23117080000003,43.76686542,-0.00400686,0.037628353999999996,-0.2,0.0,0.236058173,0.45950737799999997,-8.741135638,-147.2304491,959.7789359,12.04518024,-0.36858906,-0.027115471000000002,0.298651531,0.31127431699999997,0.39503545799999995,-8.436736183999999,2294028,-0.36992797200000005,-0.012772172,0.291802718,-340.26352,52.63554714,53.65467775,1.791204309,2.1891962119999997,15.33274833,16.26525351,-0.0186501,3.150884809,-0.322652699,102.68380079999999,454.81473289999997,12.04550787,95980.03534,1.140401633,0.231564202,0.426456997,0.342293988,-0.35074951600000004,0.075724088,0.29565238899999996,0.188553903,0.057510043,1.688267496,0.663177705,0.041124028,0.089345453,0.741970307,0.22133579,398753405.9,327327974.2,455187.5749,15.37812963,2.017119424,15.24240648,-1.8482916580000002,1.438817191,0,0,0.0,39.8714138,32.7364372,436.7934348,-308.87250710000006,-55.41846184,1.4184588630000001,15.21047223,-1.697025545,-4.572675974,-0.14117750099999998,2.383083642,1.4958421419999999,55.58794184,-0.380621596,-0.011932802,0.136273217,0.22169560000000002,148099439,0,0,0,0,1
148145806,-0.088026665,0.028299027,-0.14718895099999998,0.21676441600000002,0.0,1426.0,1500.0,1216.0,1543.05001,1455.94999,1513.94999,15.02357522,15.35823346,15.15321773,15.18163745,15.51980855,16.45127718,16.81772845,141.11605459999998,141.11605459999998,12.04657584,-0.0009300360000000001,-0.00571133,-0.000114069,-0.255746708,0.19521745199999999,-0.003140623,2.0,6.462092417999999,7.462092417999999,11,0,0,1.0,0.0,0.0,0,0,0,0,0,0.21302247300000002,0.06295989,1.6872231340000001,1.687199506,291.4571779,366.5885772,43.74659654,-0.004013025,0.037734347,-0.2,0.0,0.260157026,0.446433377,-8.598671977999999,2.178134427,959.7670828,12.04476633,-0.363019427,-0.040284845,0.288851176,0.295243304,0.364937324,-8.352714529,2294028,-0.36912540000000005,-0.025407332,0.29401847600000003,-340.26352,52.71203814,53.76152864,1.506365468,2.32383316,15.33281869,16.397862699999997,-0.021300872000000002,2.87364551,-0.322890244,102.7233517,455.0629558,12.04506845,95977.21377,1.14036808,0.109053723,-0.219015317,0.057047637000000005,-0.359521129,0.050690355,0.292877478,0.17682846300000002,0.055964560999999996,1.688451814,0.663302175,0.037803872,0.08448766099999999,0.742603685,0.22183384,398753414.6,327328050.1,455272.6639,15.336521300000001,1.7861932390000002,15.24032607,-1.754672935,1.4536317090000002,0,0,0.0,39.8714138,32.7364372,436.8581841,-308.2003666,-55.4911733,1.216229565,15.20482681,-1.591432243,-4.36171583,-0.137256973,2.429434119,1.50718429,55.66065329999999,-0.370262253,-0.0064267709999999995,0.126274204,0.22199082899999997,148145806,0,0,0,0,1
