timestamp,control[0],control[1],control[2],control[3],control[4],output[2],output[3],output[4],output[5],output[6],output[7],indicated_airspeed_m_s,true_airspeed_m_s,air_temperature_celsius,indicated_airspeed_m_s.1,equivalent_airspeed_m_s,true_airspeed_m_s.1,equivalent_ground_minus_wind_m_s,true_ground_minus_wind_m_s,differential_pressure_raw_pa,differential_pressure_filtered_pa,temperature,gyro_bias[0],gyro_bias[1],gyro_bias[2],accel_bias[0],accel_bias[1],accel_bias[2],instance_count,seq_reached,seq_current,seq_total,item_changed_index,item_do_jump_remaining,valid,warning,finished,failure,stay_in_failsafe,flight_termination,item_do_jump_changed,execution_mode,nav_roll,nav_pitch,nav_bearing,target_bearing,xtrack_error,wp_dist,acceptance_radius,rollspeed_integ,pitchspeed_integ,yawspeed_integ,additional_integ1,x,y,z,temperature.1,pressure,temperature.2,gyro_rad[0],gyro_rad[1],gyro_rad[2],accelerometer_m_s2[0],accelerometer_m_s2[1],accelerometer_m_s2[2],x.1,y.1,z.1,temperature.3,altitude_sp,altitude_filtered,height_rate_setpoint,height_rate,airspeed_sp,airspeed_filtered,airspeed_derivative_sp,airspeed_derivative,throttle_integ,pitch_integ,baro_alt_meter,baro_temp_celcius,baro_pressure_pa,rho,xyz[0],xyz[1],xyz[2],xyz[0].1,xyz[1].1,xyz[2].1,roll_body,pitch_body,yaw_body,q_d[0],q_d[1],q_d[2],q_d[3],thrust_body[0],lat,lon,alt,vel_m_s,vel_n_m_s,vel_e_m_s,vel_d_m_s,cog_rad,ground_contact,maybe_landed,landed,ref_timestamp,ref_lat,ref_lon,x.2,y.2,z.2,vx,vy,vz,ax,ay,az,dist_bottom,roll,pitch,yaw,thrust_body[0].1,timestamp.1,isTakeoff,isClimbing,isDescending,isCruise,isLand
141502144,0.038902917,0.146045911,-0.13126718,0.2663731,0.0,1433.709142,1500.0,1266.0,1479.709142,1519.290858,1572.0,14.86242939,15.19034208,12.073486,14.83217643,14.88345598,15.21192292,14.77747131,15.10359947,135.4337677,135.4337677,12.07346258,-0.001043466,-0.005754193,-0.000232148,-0.236471577,0.191607203,-0.011416043999999998,2.0,7.057611522,8.057611522,11,0,0,1,0,0.0,0,0,0,0,0,0.491375867,0.08114486,-2.9024769260000003,-2.902476732,23.68505577,98.57755883,43.53985415,-0.004604607,0.085537265,-0.19262342699999999,0.0,0.29860435,-0.04238447,-9.927537465,-5.32e+20,960.2906519999999,12.07348278,0.337875269,0.027434891,0.175930618,0.28742206800000003,-0.147168222,-9.907144987,0.329309778,0.058355994,0.193983278,-4.75e+20,50.850456,50.97268133,-0.006111215,-0.15306963,15.33087765,15.56925309,-0.004767518,0.16993086300000002,-0.33842405299999995,97.40573407,450.58264979999996,12.073486,96028.70315,1.140979798,-0.16628547400000002,0.45635686,-0.8035022890000001,0.335414052,0.035017539,0.164272535,0.581613645,0.08029116,-2.907240695,0.100480095,0.071679778,-0.280034122,-0.952020807,0.268687428,398690816.1,327375962.1,451070.1494,15.22950185,-14.31498005,-5.241570124,0.047509499000000004,3.492722831,0,0,0.0,764000,39.8714138,32.7364368,-261.0505375,98.22404499999999,-50.95256831,-14.14065826,-5.573872175,0.10683706800000001,1.011117785,-2.515679917,0.030057235,51.1227232,0.21865170399999997,0.199548048,0.27433897399999996,0.27427703,141502144,0,0,0,0,1
141534282,0.037959072999999996,0.147527355,-0.129181556,0.2670725,0.0,1435.0,1500.0,1267.0,1480.0,1519.0,1573.0,14.97599771,15.30642458,12.073486,14.8343459,14.88557742,15.21408692,14.77660549,15.10271033,135.38844630000003,135.38844630000003,12.07347452,-0.00104237,-0.005753151,-0.000231891,-0.236499453,0.191629822,-0.011383638,2.0,7.060212042000001,8.060212042,11,0,0,1,0,0.0,0,0,0,0,0,0.50251221,0.08104639400000001,-2.9030541739999998,-2.9030539589999997,23.14518963,98.03623590000001,43.54383107,-0.004649441,0.085638373,-0.19265039899999997,0.0,0.31417587,-0.072049455,-9.979788936,-5.32e+20,960.2849152000001,12.07349372,0.331701901,0.034805943,0.191392316,0.182748635,-0.240248149,-9.866664092,0.329383906,0.06354601900000001,0.194573367,-5.32e+20,50.850456,50.97090425,-0.006022373,-0.139396439,15.33091356,15.57205628,-0.0048228640000000005,0.156112576,-0.338455861,97.4154748,450.6617284,12.073486,96027.82882000001,1.140969519,-0.12986557199999998,0.496553621,-0.136559084,0.341026615,0.040298163,0.177918412,0.592631052,0.080340601,-2.90907586,0.099204511,0.071993629,-0.285337728,-0.950556092,0.269225005,398690769.7,327375939.2,451068.4997,15.23125025,-14.28499412,-5.32501279,0.047499497,3.498535275,0,0,0.0,764000,39.8714138,32.7364368,-261.5642773,98.02059742,-50.9506629,-14.10445403,-5.66841964,0.108855269,1.0853777070000001,-2.627412947,0.029283067000000003,51.12081815,0.207726473,0.20636821100000002,0.27888323,0.2759089,141534282,0,0,0,0,1
141566420,0.034423807,0.149576248,-0.126819409,0.2684684,0.0,1436.0,1500.0,1267.5301060000002,1481.5301060000002,1517.4698939999998,1574.0,14.80182062,15.12841718,12.073516999999999,14.83651537,14.88769886,15.21625093,14.77573967,15.10182118,135.34312480000003,135.34312480000003,12.07348647,-0.001041275,-0.005752109,-0.000231634,-0.23652732899999998,0.191652441,-0.011351231000000002,2.0,7.062812563,8.062812563,11,0,0,1,0,0.0,0,0,0,0,0,0.513648553,0.080947927,-2.903631423,-2.903631187,22.60532348,97.49491296,43.547808,-0.0046993270000000005,0.08570394699999999,-0.19265887,0.0,0.321179033,-0.128298219,-10.03717996,-5.32e+20,960.2792149,12.07350476,0.32888285100000003,0.046224374000000006,0.19215422199999999,0.30053041199999997,-0.141907624,-10.05209308,0.33091032600000003,0.064913174,0.19359409800000002,-5.32e+20,50.850456,50.96912718,-0.00593353,-0.125723248,15.33094947,15.57485946,-0.0048782109999999995,0.14229429,-0.33848766799999996,97.42521553,450.5675181,12.073516999999999,96028.87808,1.140981874,-0.492529778,0.168877699,0.580708357,0.336548351,0.043276887,0.189423232,0.598553585,0.080388831,-2.910009698,0.09854025,0.072175396,-0.288182117,-0.9497530000000001,0.269783503,398690723.2,327375915.8,451066.4017,15.2329986,-14.25002731,-5.415926955,0.044002797999999996,3.504912782,0,0,0.0,764000,39.8714138,32.7364368,-262.0892893,97.80972046,-50.94854273,-14.06544661,-5.7688532189999995,0.11077053699999999,1.172438003,-2.7397859589999998,0.039599498999999996,51.11869834,0.202648839,0.192981633,0.293164567,0.19868597,141566420,0,0,0,0,1
141602559,0.033471779,0.150832676,-0.123144167,0.26883313,0.0,1438.0,1500.0,1268.0,1482.9405880000002,1516.0594119999998,1575.0,14.86573714,15.1936786,12.073516999999999,14.83868484,14.88982029,15.21841493,14.77487384,15.10093203,135.2978034,135.2978034,12.07349842,-0.001040179,-0.0057510669999999995,-0.000231377,-0.236555205,0.19167506,-0.011318825,2.0,7.065413082999999,8.065413083,11,0,0,1,0,0.0,0,0,0,0,0,0.524784896,0.080849461,-2.9042086719999998,-2.9042084139999997,22.06545734,96.95359003,43.55178492,-0.00474541,0.085729443,-0.19263666399999999,0.0,0.328182197,-0.184546984,-10.09457098,-5.32e+20,960.2735144999999,12.07351581,0.332351258,0.050782615999999996,0.19069414,0.31537789,-0.11648978300000001,-10.02906167,0.332436745,0.066280329,0.19261483,-5.32e+20,50.850456,50.9673501,-0.005844688000000001,-0.112050056,15.33098538,15.57766264,-0.004933558,0.128476003,-0.33851947600000004,97.43495626,450.65799680000003,12.073516999999999,96027.85521000001,1.140969815,-0.046837957,0.275720284,0.080482332,0.33699377799999997,0.053668888,0.18947898600000002,0.605208227,0.080402852,-2.9105590039999996,0.09803697199999999,0.072429207,-0.291359743,-0.948815918,0.270471938,398690676.7,327375892.4,451064.3037,15.23474695,-14.21506049,-5.506841121,0.040506099999999996,3.51129029,0,0,0.0,764000,39.8714138,32.7364368,-262.6143013,97.59884351,-50.94642256,-14.02643918,-5.869286797999999,0.112685805,1.259498299,-2.852158972,0.049915931,51.11657853,0.201008613,0.16284522,0.31983483,0.0,141602559,0,0,0,0,1
141638697,0.034842108,0.152907597,-0.120873521,0.26956856,0.0,1439.0,1500.0,1269.0,1482.0,1517.0,1576.0,14.83192021,15.15924731,12.073516999999999,14.84085431,14.89194173,15.22057894,14.77400802,15.10004289,135.25248190000002,135.25248190000002,12.07351036,-0.001039084,-0.005750024,-0.00023112,-0.23658308,0.19169767899999998,-0.011286418000000001,2.0,7.068013603,8.068013602999999,11,0,0,1,0,0.0,0,0,0,0,0,0.535921239,0.080750995,-2.904785921,-2.904785642,21.52559119,96.4122671,43.55576184,-0.00478519,0.08572347,-0.192606533,0.0,0.337735522,-0.163327933,-10.15447218,-5.32e+20,960.2764092,12.07352654,0.335673692,0.056291985,0.20186266,0.266350023,-0.100972805,-10.136453999999999,0.327713963,0.070620153,0.19570543899999998,-5.32e+20,50.850456,50.96557303,-0.005755845999999999,-0.098376865,15.33102129,15.58046583,-0.004988905,0.11465771599999999,-0.338551284,97.44469699,450.7739563999999,12.073516999999999,96026.53757,1.1409541970000001,-0.122903838,-0.447730255,0.522600319,0.33087717899999997,0.061113325999999996,0.195014524,0.6152217870000001,0.080404325,-2.9123232519999998,0.09683688800000001,0.072659063,-0.296170349,-0.947430143,0.271266808,398690630.2,327375869.0,451062.2056,15.236495300000001,-14.18009367,-5.597755286,0.037009401000000004,3.517667797,0,0,0.0,764000,39.8714138,32.7364368,-263.0993578,97.393512,-50.94461771,-13.98428236,-5.9726771439999995,0.11421237699999999,1.293057293,-2.9572292910000004,0.094454726,51.1147734,0.180578245,0.153542814,0.33671311200000004,0.0,141638697,0,0,0,0,1
141670836,0.02950532,0.15507863300000002,-0.119099934,0.2699541,0.0,1440.0,1500.0,1269.0,1485.0,1514.0,1577.0,14.87302383,15.20123929,12.07353501,14.84302378,14.89406317,15.22274294,14.773142199999999,15.09915374,135.2071605,135.2071605,12.07352231,-0.001037988,-0.005748982,-0.000230864,-0.236610956,0.19172029899999998,-0.011254011000000001,2.0,7.0706141229999995,8.070614123,11,0,0,1,0,0.0,0,0,0,0,0,0.547057581,0.080652528,-2.9053631689999997,-2.9053628689999997,20.98572505,95.87094416,43.55973877,-0.004825205,0.085685626,-0.192570452,0.0,0.347596986,-0.132748391,-10.21467667,-5.32e+20,960.2803424000001,12.07353722,0.334020985,0.062581136,0.20207007800000001,0.23547655899999997,-0.139744217,-10.15208171,0.32223608600000003,0.07531916599999999,0.19928781399999998,-5.32e+20,50.850456,50.96387398,-0.005670904,-0.08548467,15.33105485,15.58259461,-0.00503081,0.10117777300000001,-0.33858289700000005,97.45435073,450.5999925,12.07353501,96028.54582999999,1.140978003,0.557778227,-0.049667747000000005,-0.44265366899999997,0.33907515,0.07334817,0.199854215,0.624876366,0.080407475,-2.914217942,0.095588572,0.072841895,-0.300809773,-0.9460816009999999,0.27209006399999996,398690583.7,327375845.5,451060.1076,15.23824365,-14.14512685,-5.688669452,0.033512702000000005,3.524045305,0,0,0.0,764000,39.8714138,32.7364368,-263.57958659999997,97.18885055,-50.94285097,-13.941745000000001,-6.076424758,0.115691982,1.320151686,-3.061417221,0.143128633,51.11300629,0.17683406,0.124765366,0.362388595,0.0,141670836,0,0,0,0,1
141702974,0.029246811,0.157625223,-0.11822544900000001,0.27045274,0.0,1440.172034,1500.0,1270.0,1484.655931,1514.344069,1578.0,14.88372131,15.21206322,12.073547,14.84519325,14.8961846,15.22490695,14.77227637,15.0982646,135.161839,135.161839,12.07353425,-0.001036893,-0.00574794,-0.000230607,-0.236638832,0.191742918,-0.011221605,2.0,7.073214642999999,8.073214643,11,0,0,1,0,0.0,0,0,0,0,0,0.554400039,0.07906969900000001,-2.906621061,-2.906620782,20.46545241,95.36398036,43.56786314,-0.00486094,0.085647086,-0.19253931100000002,0.0,0.35639603799999997,-0.102371382,-10.27189791,-5.32e+20,960.2836469,12.07354794,0.331371566,0.067256806,0.19734521800000002,0.192687373,-0.07499711,-10.20316478,0.317084414,0.079887645,0.20264886899999998,-5.32e+20,50.850456,50.9633684,-0.005645621,-0.084538835,15.33105238,15.57440757,-0.004867113,0.092873234,-0.338611527,97.46267367,450.5884408,12.073547,96028.6206,1.140978941,0.011606697,0.485255084,0.225715954,0.336383869,0.073669644,0.203679422,0.6262365670000001,0.08037877,-2.915389165,0.094989699,0.072715817,-0.301497168,-0.945931127,0.273039578,398690537.2,327375822.1,451058.0096,15.239992,-14.11016003,-5.779583617,0.030016003,3.530422812,0,0,0.0,764000,39.8714138,32.7364368,-264.0629042,96.98169301,-50.94110425,-13.89836049,-6.181792196,0.11727343,1.3509582359999999,-3.166330266,0.184995802,51.11125925,0.16952036399999998,0.11660764900000001,0.37647214700000003,0.0,141702974,0,0,0,0,1
141735113,0.03187377,0.160181472,-0.11679478,0.27153188,0.0,1441.0,1500.0,1271.0,1484.0,1515.0,1580.0,14.92162647,15.25071529,12.073547,14.84736272,14.89830604,15.22707095,14.77141055,15.09737545,135.11651750000001,135.11651750000001,12.0735462,-0.001035797,-0.005746898,-0.00023035,-0.236666708,0.19176553699999999,-0.011189198000000001,2.0,7.075815163,8.075815163,11,0,0,1,0,0.0,0,0,0,0,0,0.56173175,0.077482664,-2.90788088,-2.907880622,19.94523529,94.8571139,43.57599926,-0.004895609,0.085598071,-0.19249086699999998,0.0,0.353809109,-0.07416494,-10.29714721,-5.32e+20,960.2802124,12.07355899,0.331265459,0.071755399,0.196736104,0.295602693,-0.21009657,-10.20976709,0.315428722,0.083057176,0.20363800899999998,-5.32e+20,50.850456,50.96286283,-0.005620338000000001,-0.083592999,15.33104992,15.56622052,-0.0047034170000000005,0.084568694,-0.33864015799999997,97.47099662,450.4511241,12.073547,96030.21385,1.140997832,-0.081053035,0.6597970439999999,0.058517043,0.335595675,0.078639447,0.200905515,0.635245222,0.080282742,-2.9156855110000004,0.09453612300000001,0.07305349900000001,-0.305771748,-0.944578948,0.27423636100000004,398690493.1,327375796.9,451055.5635,15.24348052,-14.06475078,-5.8896416810000005,0.036961392,3.538227945,0,0,0.0,764000,39.8714138,32.7364368,-264.57932650000004,96.74778454,-50.93957229,-13.84589706,-6.304519448,0.119946339,1.4215483619999998,-3.279014446,0.153914445,51.10972729,0.154436527,0.103618553,0.397085963,0.003530147,141735113,0,0,0,0,1
141771251,0.030401012999999998,0.162967489,-0.11528969,0.272094,0.0,1442.0,1500.0,1272.0,1484.992999,1514.007001,1581.0,14.97895716,15.30934295,12.073578,14.84953219,14.90042748,15.22923496,14.77054473,15.09648631,135.07119609999998,135.07119609999998,12.07355815,-0.001034702,-0.005745855,-0.00023009299999999998,-0.23669458300000001,0.19178815600000002,-0.011156791999999999,2.0,7.078415682999999,8.078415683,11,0,0,1,0,0.0,0,0,0,0,0,0.56906346,0.075895629,-2.909140699,-2.909140463,19.42501816,94.35024744,43.58413538,-0.004928784,0.08557296800000001,-0.192455292,0.0,0.351222181,-0.045958498,-10.32239651,-5.32e+20,960.2767779999999,12.07357003,0.332634815,0.08116575200000001,0.194928739,0.273356725,-0.127065817,-10.24995394,0.31377303,0.08622670800000001,0.20462715,-5.32e+20,50.850456,50.96235726,-0.005595055,-0.08264716400000001,15.33104746,15.55803348,-0.00453972,0.076264155,-0.33866878799999994,97.47931956,450.6356169,12.073578,96028.1159,1.14097278,0.217929713,0.007092244,-0.109142776,0.332167308,0.082606514,0.19733941,0.6406532420000001,0.080202518,-2.9181132,0.093205305,0.072896722,-0.308418294,-0.9438627209999999,0.27544277300000003,398690449.1,327375771.8,451053.1158,15.24697705,-14.01929351,-5.999787762,0.04395479099999999,3.546039641,0,0,0.0,764000,39.8714138,32.7364368,-265.09574879999997,96.51387608,-50.93804032,-13.79343362,-6.4272467010000005,0.12261924800000001,1.4921384869999998,-3.391698626,0.122833088,51.10819532,0.151022882,0.09983069,0.408443348,0.059886724,141771251,0,0,0,0,1
141807389,0.027389807999999998,0.166597955,-0.11436346900000001,0.27346382,0.0,1442.0,1500.0,1273.0,1486.403481,1512.596519,1583.0,14.92623795,15.25560149,12.073578,14.85170166,14.90254891,15.23139896,14.76967891,15.09559716,135.0258746,135.0258746,12.07357009,-0.001033606,-0.0057448130000000005,-0.00022983599999999997,-0.236722459,0.191810775,-0.011124385,2.0,7.081016203,8.081016202999999,11,0,0,1,0,0.0,0,0,0,0,0,0.57639517,0.074308595,-2.910400519,-2.910400304,18.90480103,93.84338098,43.59227151,-0.004966605,0.085632178,-0.19248994,0.0,0.353959439,-0.038777245,-10.34139774,-4.79e+20,960.2786558,12.07358098,0.322866241,0.082502959,0.19904606,0.32232152199999997,-0.101423261,-10.24992603,0.310952858,0.09089414300000001,0.20748684399999998,-4.79e+20,50.850456,50.96185168,-0.005569772,-0.081701328,15.33104499,15.54984643,-0.004376024,0.067959615,-0.338697418,97.4876425,450.5593887,12.073578,96028.98379,1.140983192,-0.019100079,-0.04442288,0.43139304,0.329724655,0.09113323,0.196716799,0.644678147,0.070227765,-2.9203874560000003,0.093575779,0.068039476,-0.310979847,-0.943346314,0.20586913899999998,398690405.0,327375746.6,451050.6681,15.25047357,-13.97383624,-6.1099338439999995,0.05094819,3.5538513369999998,0,0,0.0,764000,39.8714138,32.7364368,-265.5995514,96.28162716,-50.93640021,-13.74005925,-6.54950395,0.125918749,1.572810143,-3.4905421939999997,0.108770362,51.10655521,0.145593889,0.128959333,0.399568765,0.10570386,141807389,0,0,0,0,1
141839528,0.02566905,0.169063149,-0.11300764599999999,0.27427703,0.0,1443.0,1500.0,1274.0,1487.0,1512.0,1584.0,14.84566465,15.17305754,12.07357901,14.85387113,14.90467035,15.23356297,14.76881308,15.09470802,134.9805532,134.9805532,12.07358204,-0.001032511,-0.005743771,-0.00022958,-0.236750335,0.191833394,-0.011091978999999998,2.0,7.083616723,8.083616722999999,11,0,0,1,0,0.0,0,0,0,0,0,0.583726881,0.07272156,-2.911660338,-2.911660144,18.3845839,93.33651451,43.60040763,-0.004999235,0.085735006,-0.192530907,0.0,0.370490205,-0.086066491,-10.34421192,-2.9e+20,960.2942961000001,12.07359166,0.314823108,0.08832896300000001,0.205106176,0.35549042700000005,-0.15137350300000002,-10.33325893,0.30511583800000003,0.099442234,0.215192628,-2.9e+20,50.850456,50.96134611,-0.0055444890000000005,-0.080755493,15.33104253,15.54165939,-0.004212327,0.059655075,-0.338726049,97.49596545,450.671718,12.07357901,96027.71147000001,1.140968067,-0.704933087,0.8291597959999999,-0.168057667,0.327955799,0.09707005,0.201141755,0.652389099,0.054013424000000004,-2.922753671,0.094806277,0.06040733,-0.315614007,-0.942200678,0.055767007,398690361.0,327375721.4,451048.2204,15.2539701,-13.92837898,-6.220079926,0.057941587999999995,3.561663034,0,0,0.0,764000,39.8714138,32.7364368,-266.07065950000003,96.05367769,-50.9344799,-13.68432488,-6.670543546,0.130841575,1.6796002780000001,-3.553528529,0.138798242,51.1046349,0.133009005,0.171750619,0.387711541,0.18651308,141839528,0,0,0,0,1
141879666,0.021832091,0.171597666,-0.110637935,0.2759089,0.0,1444.0,1500.0,1275.0,1489.0,1510.0,1585.0,14.92990952,15.25926373,12.073608,14.85604061,14.90679179,15.23572697,14.76794726,15.09381887,134.93523169999997,134.93523169999997,12.07359399,-0.001031415,-0.005742729,-0.000229323,-0.23677821100000002,0.19185601300000002,-0.011059572,2.0,7.086217242999999,8.086217243,11,0,0,1,0,0.0,0,0,0,0,0,0.591058591,0.071134525,-2.912920157,-2.912919985,17.86436678,92.82964805,43.60854375,-0.0050392629999999996,0.085878069,-0.192598994,0.0,0.38702097,-0.133355737,-10.34702611,-1e+20,960.3099364,12.07360235,0.317789944,0.09017004099999999,0.20580967100000003,0.323477154,-0.151175314,-10.30711603,0.299278818,0.107990325,0.222898412,-1e+20,50.850456,50.96068587,-0.005511473,-0.081651726,15.33102485,15.533110999999998,-0.004041711,0.052720507,-0.338753752,97.50353516,450.38694789999994,12.073608,96030.9665,1.141006683,-0.17598750300000002,0.275535392,0.48391330200000005,0.318779913,0.10379536,0.20395536600000003,0.651881336,0.037797301,-2.9252276760000004,0.096251487,0.052363979000000005,-0.316336583,-0.94229539,0.0,398690316.9,327375696.2,451045.7728,15.25746662,-13.88292171,-6.330226007,0.064934987,3.56947473,0,0,0.0,764000,39.8714138,32.7364368,-266.5417677,95.82572821,-50.932559600000005,-13.62859052,-6.791583142,0.135764401,1.7863904130000001,-3.6165148639999996,0.168826123,51.1027146,0.12575150400000001,0.199759219,0.377889479,0.236933547,141879666,0,0,0,0,1
141911805,0.019439471,0.165242125,-0.105664911,0.19868597,0.0,1447.0,1500.0,1198.0,1490.0,1509.0,1582.634927,15.06946626,15.40166624,12.07360822,14.85821008,14.90891322,15.23789098,14.76708144,15.09292973,134.88991030000003,134.88991030000003,12.07360593,-0.00103032,-0.005741687,-0.000229066,-0.23680608600000003,0.191878632,-0.011027166000000001,2.0,7.088817764,8.088817764,11,0,0,1,0,0.0,0,0,0,0,0,0.598390301,0.069547491,-2.914179977,-2.914179825,17.34414965,92.32278159,43.61667987,-0.0050793999999999995,0.08602368199999999,-0.192659893,0.0,0.38181387899999997,-0.16852382600000002,-10.3621296,-8.94e+19,960.31205,12.07361321,0.31313663199999997,0.09656829800000001,0.204600936,0.301670124,-0.14951272,-10.40362562,0.294244081,0.114285829,0.230256818,-8.94e+19,50.850456,50.95977401,-0.005465876999999999,-0.085544757,15.33098243,15.52397478,-0.0038598359999999997,0.048014698,-0.338779946,97.50987947,450.58080700000005,12.07360822,96028.71442,1.140979934,-0.02016134,-0.14759312300000002,0.539473908,0.3230356,0.10287332800000001,0.202803428,0.655547644,0.021571378999999998,-2.925572128,0.09860478800000001,0.044854436,-0.31893798,-0.941560437,0.0,398690272.9,327375670.2,451044.0,15.26048112,-13.83312567,-6.444710923,0.070482096,3.577656647,0,0,0.0,764000,39.8714138,32.7364368,-267.0283165,95.58252969,-50.93022342,-13.5663956,-6.9215703589999995,0.14187805,1.885105576,-3.7053479769999997,0.19406780699999998,51.10037825,0.119155179,0.22466366699999998,0.36916252,0.28335947,141911805,0,0,0,0,1
141951943,0.02319391,0.151795525,-0.096727029,0.0,0.0,1451.0,1500.0,1000.0,1488.0,1511.0,1575.045409,14.90652414,15.23540761,12.073639,14.86037955,14.91103466,15.24005498,14.76621562,15.09204058,134.8445888,134.8445888,12.07361788,-0.001029224,-0.0057406440000000005,-0.000228809,-0.23683396199999998,0.19190125100000002,-0.010994759,2.0,7.0914182839999995,8.091418284,11,0,0,1,0,0.0,0,0,0,0,0,0.605722012,0.067960456,-2.9154397960000002,-2.915439666,16.82393252,91.81591513,43.624815999999996,-0.0051219790000000005,0.08616021900000001,-0.1927114,0.0,0.352255215,-0.190113333,-10.39100004,-2.79e+20,960.2990104,12.07362425,0.30884455899999996,0.09564379699999999,0.211203781,0.387100412,-0.21255848,-10.33079488,0.290108092,0.11805790099999999,0.23722607899999998,-2.79e+20,50.850456,50.95886215,-0.005420281,-0.089437788,15.33094,15.51483855,-0.0036779609999999996,0.043308889,-0.33880614,97.51622378,450.5672311000001,12.073639,96028.91057000001,1.140982308,-0.097887797,-0.200547645,0.9670070040000001,0.313425517,0.106175796,0.21197141,0.6598383529999999,0.005332196,-2.926427182,0.100726148,0.037294055,-0.321821158,-0.940685764,0.0,398690228.8,327375641.9,451044.0,15.26222956,-13.77193361,-6.570592029,0.07223044599999999,3.5868109710000002,0,0,0.0,764000,39.8714138,32.7364368,-267.5321624,95.3222486,-50.92742134,-13.49696332,-7.0615810429999994,0.149325705,1.974774847,-3.8231356360000004,0.21394781100000002,51.09757582,0.115637806,0.242483339,0.36449233600000003,0.30981129999999996,141951943,0,0,0,0,1
141996082,0.018350688,0.139663221,-0.088618357,0.0,0.0,1453.0,1500.0,1000.0,1491.0,1508.0,1573.0,14.82906584,15.15611931,12.073639,14.86254902,14.913156099999998,15.24221899,14.76534979,15.09115143,134.79926730000003,134.79926730000003,12.07362982,-0.001028129,-0.005739602,-0.000228552,-0.23686183800000002,0.19192387,-0.010962353000000001,2.0,7.094018804,8.094018804,11,0,0,1,0,0.0,0,0,0,0,0,0.6130537220000001,0.066373422,-2.916699615,-2.9166995069999997,16.30371539,91.30904866,43.63295212,-0.0051670940000000005,0.08627742699999999,-0.192739193,0.0,0.32269655,-0.211702841,-10.41987049,-4.68e+20,960.2859708999999,12.0736353,0.306944351,0.105986549,0.221883222,0.35443118700000004,-0.190694852,-10.35223385,0.285972104,0.12182997300000001,0.24419533899999998,-4.68e+20,50.850456,50.95795028,-0.005374685,-0.09333081900000001,15.33089758,15.50570232,-0.003496086,0.03860308,-0.338832334,97.52256809,450.62901500000004,12.073639,96028.19769,1.140973802,-0.5481323020000001,0.185911482,0.835530703,0.308055648,0.119625754,0.215841449,0.656243189,-0.010926328,-2.930701765,0.101385501,0.028774919,-0.321012391,-0.941189115,0.0030353990000000003,398690184.7,327375613.5,451044.0,15.26397799,-13.71074155,-6.696473136,0.073978796,3.595965295,0,0,0.0,764000,39.8714138,32.7364368,-268.0360084,95.06196751,-50.92461927,-13.42753104,-7.201591727,0.156773359,2.064444117,-3.940923295,0.233827815,51.09477339,0.10656654199999999,0.265003233,0.35742395600000004,0.35537508,141996082,0,0,0,0,1
142028220,0.018693938,0.135334326,-0.084420889,0.0,0.0,1457.0,1500.0,1000.0,1490.0,1509.0,1567.0,14.97879869,15.30924566,12.073669,14.86471849,14.91527753,15.24438299,14.76448397,15.09026229,134.7539459,134.7539459,12.07364177,-0.0010270330000000001,-0.00573856,-0.00022829599999999998,-0.23688971399999997,0.191946489,-0.010929946000000001,2.0,7.096619324,8.096619324,11,0,0,1,0,0.0,0,0,0,0,0,0.6203854329999999,0.064786387,-2.917959435,-2.917959347,15.78349827,90.8021822,43.64108824,-0.005218739,0.08636773,-0.192724244,0.0,0.33995714,-0.220724698,-10.50432664,-5.32e+20,960.2791747000001,12.07365345,0.297203462,0.106490604,0.225938608,0.43859319799999996,-0.177358595,-10.365095599999998,0.281299395,0.127927926,0.258474996,-5.32e+20,50.850456,50.95703842,-0.005329089,-0.09722385,15.33085515,15.496566099999999,-0.0033142109999999996,0.033897272,-0.338858528,97.52891240000001,450.5678089,12.073669,96028.90532,1.140982219,-0.36545617700000005,0.284198216,0.275896045,0.30040385199999997,0.12121952300000001,0.230093233,0.6600875970000001,-0.020585762,-2.931764996,0.10238178199999999,0.02425337,-0.323305141,-0.940427007,0.048839909,398690140.7,327375585.2,451044.0,15.26572643,-13.64954948,-6.822354242,0.075727145,3.605119619,0,0,0.0,764000,39.8714138,32.7364368,-268.5091778,94.80604678,-50.92115639,-13.35349729,-7.33990232,0.16387790300000002,2.262094591,-3.9647022539999996,0.229775851,51.09131063,0.103519233,0.276915316,0.356041593,0.37483495,142028220,0,0,0,0,1
142064358,0.017962571,0.132023889,-0.080149525,0.0,0.0,1459.0,1500.0,1000.0,1490.0,1509.0,1565.276855,15.02384339,15.355314000000002,12.07369857,14.86688796,14.91739897,15.246547,14.76361815,15.08937314,134.7086244,134.7086244,12.07365372,-0.001025937,-0.0057375180000000005,-0.000228039,-0.23691758899999998,0.191969108,-0.01089754,2.0,7.099219843999999,8.099219844,11,0,0,1,0,0.0,0,0,0,0,0,0.6277171429999999,0.063199352,-2.9192192539999997,-2.919219188,15.26328114,90.29531574,43.64922436,-0.005278494,0.086430928,-0.192675563,0.0,0.38082507200000004,-0.223409658,-10.61681038,-5.32e+20,960.2755265000001,12.07367518,0.29327848,0.105182212,0.24197902899999998,0.365269267,-0.235354473,-10.40734237,0.27635606,0.13519864199999998,0.27644072199999997,-5.32e+20,50.850456,50.95612656,-0.005283493,-0.10111688099999999,15.33081273,15.48742987,-0.003132336,0.029191462999999997,-0.338884722,97.53525671,450.474512,12.07369857,96029.99948,1.1409952429999999,-0.372222716,-0.073202186,0.387229461,0.29566950399999997,0.12101079999999999,0.247255163,0.661783857,-0.010357162,-2.9342303,0.09955480300000001,0.028753058999999997,-0.32364382199999997,-0.9404853459999999,0.116478894,398690096.6,327375556.9,451044.0,15.26747487,-13.58835742,-6.948235348,0.077475495,3.614273943,0,0,0.0,764000,39.8714138,32.7364368,-268.9668795,94.55232464,-50.91736032,-13.27714338,-7.4773556889999995,0.170809441,2.514191667,-3.9410798660000004,0.213656839,51.08751491,0.095115868,0.290948594,0.35072323200000005,0.4078123,142064358,0,0,0,0,1
142096497,0.016682801,0.121966323,-0.072633829,0.010136247,0.0,1462.374675,1500.0,1006.873375,1491.3126630000002,1507.6873369999998,1561.25065,14.92195491,15.25114569,12.07371322,14.86905743,14.91952041,15.248710999999998,14.76275232,15.088484,134.663303,134.663303,12.07366566,-0.001024842,-0.005736475,-0.000227782,-0.236945465,0.191991727,-0.010865133,2.0,7.101820364,8.101820364,11,0,0,1,0,0.0,0,0,0,0,0,0.635048853,0.061612318,-2.9204790739999997,-2.920479028,14.74306401,89.78844928,43.65736049,-0.005345117,0.086465481,-0.192585657,0.0,0.421693005,-0.226094618,-10.72929412,-5.32e+20,960.2718782,12.07369691,0.284964203,0.120700894,0.246627488,0.36904551,-0.166413531,-10.48783588,0.271412726,0.14246935800000002,0.294406448,-5.32e+20,50.850456,50.95466277,-0.005210304,-0.103591894,15.33081306,15.47398435,-0.00286342,0.027856644,-0.33890396100000003,97.53875453,450.5763067,12.07371322,96028.80021,1.140981031,0.087366955,0.6025174560000001,0.15283502,0.28887646100000003,0.128310013,0.258661939,0.6599046270000001,0.0006583960000000001,-2.936232075,0.096863928,0.03351905,-0.322259936,-0.941084158,0.17623079600000002,398690052.6,327375528.6,451044.0,15.26922331,-13.52716536,-7.074116453999999,0.079223845,3.623428267,0,0,0.0,764000,39.8714138,32.7364368,-269.4245812,94.2986025,-50.91356425,-13.20078946,-7.614809058,0.17774098,2.766288743,-3.917457479,0.197537827,51.083719200000004,0.090063807,0.29938335899999996,0.35243110299999997,0.4217166,142096497,0,0,0,0,1
142128635,0.015204146000000002,0.126395059,-0.071826464,0.059886724,0.0,1464.0,1500.0,1059.0,1492.0,1507.0,1562.09782,14.95088095,15.28056254,12.07373,14.8712269,14.92164184,15.25087501,14.7618865,15.08759485,134.61798149999998,134.61798149999998,12.07367761,-0.001023746,-0.005735433000000001,-0.000227525,-0.236973341,0.192014346,-0.010832726,2.0,7.104420884,8.104420884,11,0,0,1,0,0.0,0,0,0,0,0,0.642380564,0.060025283,-2.921738893,-2.921738869,14.22284688,89.28158281,43.66549661,-0.005418046,0.086472495,-0.192479729,0.0,-0.096520068,-0.212755635,-10.75837516,-5.32e+20,960.2774549000001,12.07372797,0.278645625,0.124885631,0.258748413,0.36327588200000005,-0.25378760300000003,-10.48001718,0.26296421600000003,0.14240914699999999,0.305108777,-5.32e+20,50.850456,50.95296245,-0.005125289,-0.105459186,15.33083172,15.458692000000001,-0.0025572,0.027966533999999998,-0.33892022,97.54103242,450.3489313999999,12.07373,96031.43934,1.1410123209999998,-0.44535515200000003,0.562172031,0.22193864800000002,0.280355472,0.13593573,0.260188456,0.662057393,0.010014506,-2.9397087,0.093680186,0.037463237999999996,-0.32288001899999996,-0.941045652,0.22875646800000002,398690008.9,327375498.1,451041.4723,15.25930541,-13.44361272,-7.208747388,0.08486097199999999,3.633855203,0,0,0.0,764000,39.8714138,32.7364368,-269.9058891,94.01457590000001,-50.90891722,-13.06927074,-7.7477022689999995,0.18967361800000002,3.202404795,-3.797677981,0.295525847,51.07907191,0.079711183,0.309922478,0.352618586,0.441881772,142128635,0,0,0,0,1
142165548,0.010223895,0.14684992,-0.078807114,0.14771977,0.0,1462.0,1500.0,1105.0,1492.508302,1506.491698,1569.0,14.90742919,15.23613191,12.07377363,14.87339637,14.92376328,15.25303901,14.76102068,15.08670571,134.5726601,134.5726601,12.07368955,-0.001022651,-0.005734391,-0.00022726799999999998,-0.237001217,0.192036965,-0.01080032,2.0,7.107021404,8.107021404,11,0,0,1,0,0.0,0,0,0,0,0,0.649712274,0.058438249000000005,-2.922998712,-2.92299871,13.70262976,88.77471635,43.67363273,-0.005495409000000001,0.08644529,-0.19236623600000002,0.0,-0.70730349,-0.196763474,-10.77364673,-5.32e+20,960.2845589,12.07376057,0.28111206,0.130600991,0.271828904,0.35055100899999997,-0.16522249,-10.51310995,0.253935333,0.14113511,0.314608461,-5.32e+20,50.850456,50.95126213,-0.005040275,-0.107326478,15.33085038,15.44339964,-0.0022509789999999997,0.028076425,-0.338936478,97.54331032,450.5134429,12.07377363,96029.51235,1.140989468,-0.486488126,-0.16697030699999998,-0.014562934,0.283469337,0.1440971,0.274338473,0.660675559,0.018047917,-2.941636579,0.09149807900000001,0.040866491,-0.321878088,-0.941461797,0.274343646,398689965.5,327375465.9,451036.9266,15.24007365,-13.34220844,-7.3503637820000005,0.093602721,3.645298134,0,0,0.0,764000,39.8714138,32.7364368,-270.39110560000006,93.72553161,-50.90412929,-12.92861805,-7.879840427,0.202434317,3.6689899560000003,-3.6619771819999998,0.412407245,51.07428363,0.07505677200000001,0.311122538,0.348794589,0.44378918,142165548,0,0,0,0,1
142204912,0.011061447,0.161452798,-0.08169717,0.18651308,0.0,1459.0,1500.0,1186.0,1494.0,1505.0,1579.918784,14.81030652,15.13703265,12.073791499999999,14.87556584,14.92588472,15.25520302,14.76015486,15.08581656,134.5273386,134.5273386,12.0737015,-0.001021555,-0.005733349,-0.00022701200000000001,-0.237029092,0.192059585,-0.010767913,2.0,7.109621924,8.109621923999999,11,0,0,1,0,0.0,0,0,0,0,0,0.651973616,0.05741306400000001,-2.925248944,-2.925248944,13.19879103,88.27895029,43.63523903,-0.005582223000000001,0.086400213,-0.192238264,0.0,-1.286787745,-0.17430577,-10.78808275,-5.32e+20,960.2914947999999,12.07379317,0.272147313,0.137460015,0.286258634,0.365336985,-0.162760779,-10.60113879,0.244567134,0.139641986,0.32466906100000004,-5.32e+20,50.850456,50.9495618,-0.00495526,-0.10919376900000001,15.33086904,15.42810729,-0.001944759,0.028186316,-0.338952737,97.54558821,450.55114469999995,12.073791499999999,96029.08684,1.140984484,-0.7648695870000001,-0.157166433,0.5177883560000001,0.27554459800000003,0.150122401,0.288455138,0.66411271,0.025026332999999998,-2.945313,0.088563781,0.043711093,-0.323234519,-0.941150485,0.313890805,398689922.2,327375433.8,451032.3809,15.22084189,-13.24080416,-7.491980175,0.10234446900000001,3.656741065,0,0,0.0,764000,39.8714138,32.7364368,-270.8736902,93.43699771,-50.89925975,-12.78789011,-8.011471504,0.215746487,4.113154145,-3.53357051,0.529537589,51.06941379,0.058575202,0.31576279999999995,0.352256099,0.44462937,142204912,0,0,0,0,1
142237051,0.005562143,0.175559474,-0.086070094,0.25409317,0.0,1456.670734,1500.0,1231.865773,1495.658532,1503.341468,1585.658532,14.74743364,15.07275487,12.07383401,14.87773531,14.92800615,15.25736702,14.75928903,15.08492742,134.48201719999997,134.48201719999997,12.07371345,-0.00102046,-0.005732307,-0.000226755,-0.237056968,0.19208220399999998,-0.010735507,2.0,7.1122224439999995,8.112222444,11,0,0,1,0,0.0,0,0,0,0,0,0.653515293,0.05646762599999999,-2.927639751,-2.927639751,12.69727699,87.78475978,43.59024109,-0.005671958,0.08633204300000001,-0.19212881199999998,0.0,-1.285001757,-0.031773719,-10.78700147,-5.32e+20,960.2953069,12.07382576,0.27502782800000003,0.144544545,0.296349453,0.353588065,-0.134543735,-10.67378129,0.228897341,0.134080096,0.345146667,-5.32e+20,50.850456,50.94786148,-0.004870245,-0.111061061,15.330887699999998,15.41281493,-0.0016385389999999998,0.028296207,-0.338968995,97.54786611,450.5804478,12.07383401,96028.7307,1.140980123,-0.587494107,-0.183547314,0.652814134,0.27638425699999997,0.15642399099999998,0.294840963,0.663454734,0.031048954,-2.947163099,0.086726464,0.046214384000000004,-0.322675641,-0.9413931740000001,0.3477822,398689878.8,327375401.6,451027.8352,15.20161013,-13.13939988,-7.633596568,0.11108621699999999,3.6681839960000002,0,0,0.0,764000,39.8714138,32.7364368,-271.30739700000004,93.15794255,-50.89287466,-12.6457646,-8.13368537,0.23930025300000002,4.140928838,-3.540626213,0.651291223,51.06302941,0.05522321,0.323021424,0.35480592899999996,0.44522690000000004,142237051,0,0,0,0,1
142269189,0.006113377,0.18315943699999998,-0.08779758900000001,0.28335947,0.0,1455.739748,1500.0,1283.0,1496.0,1503.0,1591.0,14.74268595,15.06795621,12.073853,14.87990478,14.93012759,15.25953103,14.75842321,15.08403827,134.4366957,134.4366957,12.07372539,-0.001019364,-0.005731264,-0.000226498,-0.237084844,0.192104823,-0.0107031,2.0,7.114822965,8.114822965,11,0,0,1,0,0.0,0,0,0,0,0,0.655056969,0.055522188,-2.930030557,-2.930030557,12.19576294,87.29056927,43.54524315,-0.005765775,0.086250311,-0.19203877100000002,0.0,-1.28321577,0.11075833199999999,-10.78592019,-5.32e+20,960.2991189999999,12.07385836,0.25043286600000003,0.14402538,0.309220451,-0.612556871,-0.09137525099999999,-10.71663104,0.213227547,0.128518207,0.36562427299999994,-5.32e+20,50.850456,50.94616358,-0.0047853520000000005,-0.112929722,15.33090618,15.39768403,-0.0013355510000000001,0.028442428,-0.338985105,97.55007492,450.4249608,12.073853,96030.55163,1.141001762,-0.129552254,-0.27938395899999996,0.937660168,0.261181631,0.158421498,0.305143473,0.66783207,0.036330927,-2.951048,0.08393309199999999,0.048256133,-0.324572529,-0.940892555,0.37706844100000003,398689835.5,327375369.4,451023.2895,15.18237837,-13.037995599999999,-7.775212961,0.119827966,3.6796269269999997,0,0,0.0,764000,39.8714138,32.7364368,-271.7411038,92.87888739,-50.88648957,-12.50363909,-8.255899236,0.262854019,4.168703531,-3.547681916,0.773044858,51.05664503,0.036822501,0.32289128699999997,0.353901586,0.44468599999999997,142269189,0,0,0,0,1
142305327,0.0041275470000000005,0.19141749100000002,-0.089484574,0.317754844,0.0,1454.84977,1500.0,1312.6055210000002,1497.15023,1501.84977,1595.15023,14.68820606,15.0121142,12.07389419,14.88207425,14.93224903,15.26169503,14.75755739,15.08314913,134.39137419999997,134.39137419999997,12.07373734,-0.001018269,-0.005730221999999999,-0.000226241,-0.23711272,0.19212744199999998,-0.010670694,2.0,7.117423485,8.117423485,11,0,0,1,0,0.0,0,0,0,0,0,0.6565986460000001,0.05457675,-2.9324213639999996,-2.9324213639999996,11.6942489,86.79637875,43.50024521,-0.00586624,0.086157317,-0.191968899,0.0,-1.2663484390000002,0.20581001899999998,-10.72450626,-5.32e+20,960.3013996,12.07389631,0.24354645800000002,0.141645802,0.32674415100000004,-1.2738171109999998,-0.096228442,-10.78527972,0.200951191,0.12099625800000001,0.38326865,-5.32e+20,50.850456,50.94458913,-0.004706615999999999,-0.11486787400000001,15.33091551,15.39074894,-0.0011966639999999998,0.030432921,-0.33899365,97.54877666,450.4670816000001,12.07389419,96030.04122,1.140995723,-0.085097774,-0.380362601,0.537352378,0.247313838,0.155735029,0.322905651,0.667378893,0.040947281,-2.9528157139999998,0.082355092,0.050118885,-0.324182099,-0.941068426,0.401723968,398689792.1,327375337.3,451018.7437,15.16314662,-12.93659132,-7.916829354,0.128569714,3.691069858,0,0,0.0,764000,39.8714138,32.7364368,-272.1800151,92.59088823,-50.87916451,-12.36089428,-8.38146771,0.290852543,4.1283305189999995,-3.592693975,0.905493184,51.04932034,0.028435096,0.326063708,0.358081156,0.44392884,142305327,0,0,0,0,1
142341466,0.00278219,0.199092365,-0.090885784,0.35537508,0.0,1454.0,1500.0,1355.0,1498.560712,1500.439288,1599.0,14.59183287,14.91367216,12.07393943,14.88424372,14.93437046,15.26385904,14.75669156,15.08225998,134.34605280000002,134.34605280000002,12.07374929,-0.0010171730000000001,-0.00572918,-0.000225984,-0.237140595,0.192150061,-0.010638287,2.0,7.120024005,8.120024005,11,0,0,1,0,0.0,0,0,0,0,0,0.6581403229999999,0.053631312,-2.93481217,-2.93481217,11.19273485,86.30218824,43.45524727,-0.005965033000000001,0.08605080699999999,-0.191969013,0.0,-1.2028156190000001,0.153945454,-10.47640786,-5.32e+20,960.2989412999999,12.07395082,0.22556726300000002,0.13993365900000002,0.351692501,-1.375949025,-0.0021719079999999997,-10.75935851,0.199174987,0.10740939099999999,0.392146299,-5.32e+20,50.850456,50.94301467,-0.00462788,-0.116806026,15.33092484,15.38381386,-0.001057776,0.032423414,-0.339002195,97.54747840000002,450.56670319999995,12.07393943,96028.88699999999,1.140981975,-0.084183108,-0.417518235,0.710291957,0.23148275100000001,0.15875735900000001,0.342354216,0.672144361,0.045104108,-2.956917,0.07962139900000001,0.051598288,-0.326330144,-0.9404819809999999,0.42276292200000004,398689752.0,327375303.5,451010.8348,15.11905581,-12.80155431,-8.043822765,0.163632724,3.7030232030000003,0,0,0.0,764000,39.8714138,32.7364368,-272.6350305,92.27521408,-50.86893098,-12.21623319,-8.517416189,0.332604275,3.877091272,-3.755152598,1.071033589,51.03908609,0.010440966,0.330575186,0.36113765600000003,0.442373215,142341466,0,0,0,0,1
142373604,-0.001437486,0.203035978,-0.090310889,0.37483495,0.0,1454.0,1500.0,1374.0,1500.0,1499.0,1601.0,14.55009107,14.87104454,12.07401536,14.886413199999998,14.9364919,15.26602304,14.75582574,15.08137083,134.3007313,134.3007313,12.07376123,-0.0010160780000000001,-0.005728138000000001,-0.000225728,-0.23716847100000002,0.19217268,-0.010605881000000001,2.0,7.122624525,8.122624525,11,0,0,1,0,0.0,0,0,0,0,0,0.659682,0.052685874,-2.9372029769999997,-2.9372029769999997,10.69122081,85.80799772,43.41024933,-0.0060663290000000005,0.085937687,-0.19202228300000002,0.0,-1.1392828000000002,0.10208088800000001,-10.22830947,-5.32e+20,960.296483,12.07400533,0.212263124,0.120473797,0.374877484,-1.301856107,0.002230049,-10.68073693,0.197398782,0.093822523,0.40102394799999996,-5.32e+20,50.850456,50.94144021,-0.004549145,-0.118744178,15.33093417,15.37687878,-0.000918889,0.034413908,-0.339010739,97.54618014,450.4551699,12.07401536,96030.18239,1.140997455,-0.836434683,0.08859684400000001,0.21623397,0.219316995,0.143877825,0.36463115700000004,0.671281853,0.048743512999999995,-2.958598138,0.078252163,0.052998432000000005,-0.32579705800000003,-0.940703135,0.438837064,398689712.4,327375269.4,451002.2679,15.07010202,-12.65993799,-8.167955591,0.203844763,3.715076395,0,0,0.0,764000,39.8714138,32.7364368,-273.0900459,91.95953994,-50.85869744,-12.07157209,-8.653364668,0.374356006,3.6258520260000004,-3.917611221,1.236573994,51.02885184,-0.006435809,0.329300965,0.357253507,0.439302729,142373604,0,0,0,0,1
142409743,-0.005788626999999999,0.20756297199999998,-0.090643604,0.4078123,0.0,1454.0,1500.0,1407.0,1503.0,1496.0,1603.0,14.52378809,14.84413273,12.07406063,14.88858267,14.93861334,15.26818705,14.75495992,15.08048169,134.25540990000002,134.25540990000002,12.07377318,-0.001014982,-0.005727095,-0.00022547099999999998,-0.237196347,0.192195299,-0.010573474,2.0,7.125225045,8.125225045,11,0,0,1,0,0.0,0,0,0,0,0,0.661223676,0.051740435999999994,-2.9395937830000003,-2.9395937830000003,10.18970677,85.31380721,43.36525139,-0.006171725,0.08581090400000001,-0.192141581,0.0,-0.8756961959999999,0.077467429,-10.07535706,-4.49e+20,960.2966801000001,12.07406919,0.194544562,0.11626125699999999,0.381327505,-1.3007622859999999,0.088158742,-10.6144683,0.19262162100000002,0.095105496,0.402302901,-4.49e+20,50.850456,50.93986575,-0.004470409,-0.12068233,15.3309435,15.36994369,-0.0007800010000000001,0.036404401,-0.339019284,97.54488188,450.5222524,12.07406063,96029.41148,1.140988251,-0.009640104,0.215713154,-1.073554792,0.20638914600000002,0.129589425,0.383377359,0.67565392,0.052217872,-2.963089901,0.075448182,0.054064494000000005,-0.327810543,-0.940172599,0.44382397100000004,398689672.9,327375235.3,450993.7009,15.02114823,-12.51832166,-8.292088417999999,0.24405680100000002,3.727129588,0,0,0.0,764000,39.8714138,32.7364368,-273.5245119,91.64837867,-50.84692414,-11.94597539,-8.797911755,0.41645076799999997,3.3381504060000005,-4.182757238,1.290938695,51.01707829,-0.025269197,0.332796286,0.358822229,0.4360826,142409743,0,0,0,0,1
142445881,-0.008958753,0.20999009999999999,-0.089324642,0.4217166,0.0,1455.0,1500.0,1431.2980599999999,1504.792158,1494.207842,1605.792158,14.54908945,14.86999019,12.07414577,14.89075214,14.94073477,15.27035105,14.7540941,15.07959254,134.21008840000002,134.21008840000002,12.07378512,-0.001013887,-0.005726053,-0.000225214,-0.23722422199999998,0.19221791800000002,-0.010541068,2.0,7.127825565,8.127825565,11,0,0,1,0,0.0,0,0,0,0,0,0.662765353,0.050794998,-2.94198459,-2.94198459,9.688192721,84.81961669,43.32025345,-0.006276606999999999,0.085657839,-0.192358353,0.0,-0.35478752399999997,0.087906098,-10.04478756,-2.6e+20,960.3002927000001,12.07414508,0.19671850300000002,0.101748431,0.39641571,-1.2708818709999998,0.083477074,-10.42850645,0.183984438,0.115515015,0.39380792299999995,-2.6e+20,50.850456,50.93829129,-0.004391673,-0.122620483,15.33095283,15.36300861,-0.000641114,0.038394894,-0.339027829,97.54358362,450.42787080000005,12.07414577,96030.50385,1.141001285,0.39338616600000004,1.370600684,-0.047370425,0.19731329600000003,0.11417716800000001,0.39745549399999996,0.673187578,0.055374865999999995,-2.966424388,0.073423287,0.054908978,-0.326595875,-0.940706167,0.444863275,398689633.4,327375201.2,450985.13399999996,14.97219444,-12.37670534,-8.416221243999999,0.28426884,3.73918278,0,0,0.0,764000,39.8714138,32.7364368,-273.9325458,91.34302214,-50.83317029,-11.84490052,-8.953518926000001,0.45898675899999997,3.0035485310000003,-4.579986397,1.202302041,51.003324799999994,-0.046143422,0.32660970300000003,0.350868405,0.4340695,142445881,0,0,0,0,1
142482020,-0.012792263,0.20928194,-0.088157278,0.44250649999999997,0.0,1456.0,1500.0,1442.0,1506.0,1493.0,1604.0,14.53359826,14.8541131,12.07423646,14.90990506,14.95992886,15.28995757,14.77170471,15.09758076,134.56652119999998,134.56652119999998,12.07382799,-0.001012778,-0.005725,-0.00022482,-0.23726068399999997,0.19224959,-0.010499497,2.0,7.130426085,8.130426085,11,0,0,1,0,0.0,0,0,0,0,0,0.66430703,0.04984956,-2.9443753960000003,-2.9443753960000003,9.186678676,84.32542618,43.27525551,-0.006391919,0.085465952,-0.19268153899999999,0.0,0.166121148,0.09834476800000001,-10.01421807,-7e+19,960.3039052999999,12.07422096,0.189696123,0.08532741099999999,0.41114068,-1.3210104,0.081772988,-10.39617681,0.17534725399999998,0.135924534,0.385312945,-7e+19,50.850456,50.93639218,-0.004296712,-0.12612004699999999,15.330959,15.356535399999999,-0.000511527,0.040214428999999996,-0.33903598700000004,97.54208924,450.42920989999993,12.07423646,96030.47682000001,1.1410009859999999,-0.177761052,0.84986867,-0.420447826,0.19082787199999998,0.098969562,0.411298858,0.676912955,0.058226503,-2.969071649,0.071602255,0.05594920900000001,-0.32829124,-0.940195587,0.445226664,398689593.9,327375167.1,450976.5671,14.92324065,-12.23508902,-8.540354071,0.324480879,3.751235973,0,0,0.0,764000,39.8714138,32.7364368,-274.3405797,91.03766561,-50.81941643,-11.74382565,-9.109126096,0.50152275,2.668946657,-4.977215557,1.113665387,50.9895713,-0.056359255999999996,0.3204778,0.34230856600000004,0.4314923,142482020,0,0,0,0,1
142514158,-0.014929478999999999,0.210824531,-0.086970344,0.44378918,0.0,1456.0,1500.0,1443.613123,1508.2262449999998,1490.7737550000002,1605.613123,14.55499408,14.87600013,12.07432714,14.94849688,14.99866392,15.329528400000001,14.81046307,15.13717559,135.3827931,135.3827931,12.07390623,-0.001011656,-0.005723935,-0.000224269,-0.23730697399999998,0.192291623,-0.010447438,2.0,7.133026605,8.133026605,11,0,0,1,0,0.0,0,0,0,0,0,0.665848706,0.048904122,-2.946766203,-2.946766203,8.685164631000001,83.83123566,43.23025757,-0.006498092,0.085279175,-0.19307245,0.0,0.688167018,0.09828522199999999,-10.15190807,-1.2e+20,960.3056511,12.07431078,0.176235075,0.08950702699999999,0.401610927,-0.932701734,0.234254863,-10.1361937,0.17249012100000002,0.16214468699999998,0.375095736,-1.2e+20,50.850456,50.93385904,-0.004170063,-0.132669082,15.330959,15.35096424,-0.00040010400000000003,0.041700078,-0.339043391,97.54021182,450.4840784,12.07432714,96029.87637,1.140993741,0.520338893,0.58471155,-0.27290679100000004,0.178857268,0.10417069400000001,0.404105502,0.6713863090000001,0.060969345,-2.9746117539999997,0.068696149,0.05613721,-0.325723937,-0.9412930009999999,0.44432491399999996,398689554.6,327375132.5,450967.2044,14.88367271,-12.09857371,-8.670608122,0.362652511,3.763435175,0,0,0.0,764000,39.8714138,32.7364368,-274.7642332,90.70417005,-50.80251665,-11.652897099999999,-9.301253119,0.5348387179999999,2.48006377,-5.402043087000001,0.9541496070000001,50.97267143,-0.083954744,0.313062827,0.329319563,0.42641473,142514158,0,0,0,0,1
142550296,-0.020615766,0.213751291,-0.08591575900000001,0.44507927,0.0,1457.0,1500.0,1445.0,1511.0,1488.0,1606.0,14.50386557,14.82366893,12.07441783,14.9870887,15.03739899,15.36909924,14.84922142,15.17677043,136.199065,136.199065,12.07398448,-0.001010533,-0.00572287,-0.000223718,-0.23735326399999998,0.19233365600000002,-0.010395379,2.0,7.135627125,8.135627125,11,0,0,1,0,0.0,0,0,0,0,0,0.667390383,0.047958684,-2.949157009,-2.949157009,8.183650586,83.33704515,43.18525963,-0.006600226,0.085085996,-0.193512236,0.0,1.210879206,0.09207445199999999,-10.38818645,-3.09e+20,960.3063030999999,12.07440875,0.179594783,0.111831314,0.395826102,-0.5532430070000001,0.164334439,-10.04580204,0.173019697,0.191769468,0.36386941799999994,-3.09e+20,50.850456,50.93132589,-0.004043414,-0.139218117,15.330959,15.34539308,-0.000288681,0.043185727,-0.339050795,97.53833441,450.43379649999997,12.07441783,96030.43179,1.141000361,-0.53838331,1.024327632,0.058472595999999995,0.18308407899999998,0.11864451300000001,0.400164124,0.665208439,0.063458314,-2.9801431430000003,0.065855177,0.056203105999999996,-0.322860568,-0.9424779120000001,0.443050568,398689516.4,327375094.2,450951.81899999996,14.91514283,-12.00066613,-8.847191438,0.385381056,3.776739469,0,0,0.0,764000,39.8714138,32.7364368,-275.19703860000004,90.35418699,-50.78377358,-11.56791358,-9.514778239,0.562752392,2.37656209,-5.843041346000001,0.753103583,50.953928000000005,-0.116295864,0.30153412399999996,0.312988869,0.421318,142550296,0,0,0,0,1
142582435,-0.022518662000000002,0.211370022,-0.084140294,0.44522690000000004,0.0,1458.0,1500.0,1444.5659130000001,1511.868174,1487.131826,1605.4340869999999,14.66592907,14.98938216,12.07454728,15.02568051,15.07613405,15.40867007,14.88797977,15.21636526,137.0153368,137.0153368,12.07406273,-0.00100941,-0.005721805,-0.000223167,-0.237399553,0.192375689,-0.010343320999999999,2.0,7.138227646,8.138227646,11,0,0,1,0,0.0,0,0,0,0,0,0.66893206,0.047013245999999995,-2.951547816,-2.951547816,7.682136541,82.84285463,43.14026169,-0.006711261,0.084866784,-0.194043073,0.0,1.733591394,0.08586368300000001,-10.62446483,-4.99e+20,960.3069551000001,12.07450673,0.174549283,0.139540966,0.38325548200000004,0.015202668999999999,0.1486443,-10.00894416,0.173549273,0.22139425,0.352643101,-4.99e+20,50.850456,50.92879274,-0.003916765,-0.14576715199999998,15.330959,15.33982192,-0.000177258,0.044671376,-0.339058199,97.53645699,450.41244589999997,12.07454728,96030.68473,1.141003422,-0.136864996,1.381778035,-0.167127601,0.171111982,0.141548964,0.39085443799999997,0.666320867,0.065766496,-2.98086136,0.065106655,0.057208963,-0.323305484,-0.942316782,0.441134126,398689478.3,327375056.0,450936.4335,14.94661295,-11.90275855,-9.023774755,0.408109602,3.790043763,0,0,0.0,764000,39.8714138,32.7364368,-275.629844,90.00420392,-50.76503051,-11.48293006,-9.728303358,0.590666067,2.27306041,-6.284039605,0.552057559,50.93518457,-0.125531506,0.299478919,0.309993427,0.418587255,142582435,0,0,0,0,1
142614573,-0.0284618,0.21238769999999998,-0.082963418,0.44468599999999997,0.0,1458.0,1500.0,1443.0,1513.0,1486.0,1606.0,14.7456096,15.07078867,12.07466071,15.06427233,15.11486911,15.44824091,14.92673812,15.2559601,137.83160869999998,137.83160869999998,12.07414097,-0.001008287,-0.005720741,-0.000222616,-0.23744584300000002,0.19241772199999999,-0.010291261999999999,2.0,7.140828166,8.140828166,11,0,0,1,0,0.0,0,0,0,0,0,0.670473737,0.046067807,-2.953938622,-2.953938622,7.180622496,82.34866412,43.09526375,-0.006831125,0.084610006,-0.19467651600000002,0.0,2.199951429,0.091148595,-10.9053507,-5.32e+20,960.3066210000001,12.0746226,0.169006028,0.161096051,0.377146715,0.602860229,0.095657479,-10.14418826,0.17495236399999997,0.25203144,0.34358335100000004,-5.32e+20,50.850456,50.9262596,-0.003790117,-0.152316187,15.330959,15.33425075,-6.579999999999999e-05,0.046157025,-0.339065603,97.53457958,450.32199460000004,12.07466071,96031.69243,1.141015425,0.505759771,0.63265176,0.036466271,0.172733949,0.168545379,0.37923454799999995,0.658154523,0.06812114799999999,-2.986445906,0.062322563,0.057160205,-0.319513523,-0.9437996890000001,0.438258085,398689440.2,327375017.7,450921.04799999995,14.97808307,-11.80485097,-9.200358072,0.430838148,3.803348057,0,0,0.0,764000,39.8714138,32.7364368,-276.0289105,89.65844959,-50.74621377,-11.40565335,-9.959727698,0.597019229,2.331550305,-6.635868972999999,0.281049369,50.91636777,-0.156898604,0.288819314,0.294609873,0.41385454,142614573,0,0,0,0,1
142646712,-0.035069722000000005,0.214337357,-0.082437039,0.44300956,0.0,1459.0,1500.0,1443.0,1517.0,1482.0,1607.0,14.80546705,15.13186933,12.07478896,15.10286415,15.15360418,15.48781174,14.96549647,15.29555493,138.64788059999998,138.64788059999998,12.07421922,-0.0010071639999999998,-0.005719676,-0.000222065,-0.237492133,0.192459755,-0.010239203,2.0,7.143428686,8.143428686,11,0,0,1,0,0.0,0,0,0,0,0,0.672015413,0.045122369,-2.9563294289999997,-2.9563294289999997,6.679108452,81.85447359999999,43.05026582,-0.006930905,0.084373608,-0.195233025,0.0,2.654249721,0.098894069,-11.19578445,-5.32e+20,960.3060759,12.07474231,0.168644187,0.19790259100000002,0.36317983,1.2590387920000001,0.07477294799999999,-10.35348535,0.17654242399999998,0.28288532899999996,0.334987338,-5.32e+20,50.850456,50.92372645,-0.003663468,-0.158865222,15.330959,15.32867959,4.5600000000000004e-05,0.047642674,-0.33907300700000004,97.53270216,450.36370889999995,12.07478896,96031.23064,1.14100983,-0.022757588999999998,0.28353066600000004,-0.284152026,0.165093996,0.19922183100000002,0.36402063700000004,0.651907562,0.070219344,-2.991726855,0.059668285999999994,0.057120429,-0.31662677,-0.944943395,0.43529572299999997,398689402.1,327374979.4,450905.6625,15.00955319,-11.70694339,-9.376941387999999,0.45356669299999997,3.816652351,0,0,0.0,764000,39.8714138,32.7364368,-276.42075550000004,89.31360040000001,-50.72738128,-11.33002623,-10.19498323,0.59875753,2.4247132419999997,-6.96861243,-0.004933682,50.89753528,-0.183144473,0.276006929,0.27918011,0.409857773,142646712,0,0,0,0,1
142678850,-0.035067867,0.21097758100000003,-0.08103647,0.44195622,0.0,1459.0,1500.0,1440.0,1517.0,1482.0,1605.0,14.94211537,15.2716231,12.07492502,15.14145596,15.19233924,15.52738258,15.00425482,15.33514976,139.46415249999998,139.46415249999998,12.07429747,-0.001006041,-0.005718611,-0.00022151400000000002,-0.237538422,0.19250178899999998,-0.010187144,2.0,7.146029206000001,8.146029206,11,0,0,1,0,0.0,0,0,0,0,0,0.668157754,0.046724894,-2.96009923,-2.96009923,6.24150204,81.39848593,43.2303477,-0.00704084,0.08409705599999999,-0.19587064199999998,0.0,3.101833732,0.105618165,-11.48809098,-5.32e+20,960.3055668,12.07486201,0.166989915,0.22330227800000002,0.343592905,1.71800169,0.06600800799999999,-10.65592231,0.178130569,0.313407762,0.326481743,-5.32e+20,50.8187786,50.92016433,-0.23493883100000001,-0.167294616,15.33095471,15.3226617,0.00016586,0.011881447,-0.318164587,97.52772995,450.1905012,12.07492502,96033.23453999999,1.141033669,-0.06850366599999999,0.23321283199999998,-0.261324663,0.171819527,0.234595838,0.344817139,0.6434907870000001,0.072269638,-2.997179795,0.05700256,0.056982672000000005,-0.31272044600000004,-0.946419053,0.43182895,398689364.0,327374941.1,450890.2771,15.04102331,-11.60903581,-9.553524705,0.476295239,3.8299566460000003,0,0,0.0,764000,39.8714138,32.7364368,-276.8129894,88.96782968,-50.70854349,-11.25380384,-10.43081159,0.600073646,2.522456221,-7.296014757000001,-0.289654473,50.878697499999994,-0.204616656,0.26684949399999996,0.270034224,0.40627602,142678850,0,0,0,0,1
142722989,-0.040595832000000005,0.211472519,-0.080450494,0.4380849,0.0,1459.0,1500.0,1438.0,1520.0,1479.0,1605.0,15.06276086,15.39471692,12.07503051,15.18004778,15.23107431,15.56695341,15.04301318,15.3747446,140.2804244,140.2804244,12.07437571,-0.001004918,-0.0057175459999999996,-0.000220963,-0.237584712,0.192543822,-0.010135085,2.0,7.148629726,8.148629726,11,0,0,1,0,0.0,0,0,0,0,0,0.66254076,0.049157652999999996,-2.964318366,-2.964318366,5.824719464,80.95494638,43.4837702,-0.007166563000000001,0.083772275,-0.196590128,0.0,3.1575274789999996,0.052727786,-11.88970559,-5.32e+20,960.3071557,12.07498136,0.176424222,0.252182829,0.336807649,2.210841508,-0.026668577000000002,-10.94194243,0.17960695699999998,0.324584277,0.323253533,-5.32e+20,50.77063332,50.91606729,-0.586511268,-0.17670153600000002,15.330948199999998,15.31641157,0.00029073099999999996,-0.043243011,-0.28638282800000003,97.52114887,450.4554368,12.07503051,96030.16554,1.140997215,0.185187138,0.648413554,0.487175672,0.180305642,0.27017949399999996,0.32858826,0.635661005,0.07419477299999999,-3.0024908089999998,0.054406024000000004,0.056851444,-0.30908679699999997,-0.9477683370000001,0.42805607100000004,398689326.3,327374900.4,450873.4339,15.101647400000001,-11.512516499999998,-9.763426685,0.48930584299999996,3.844569364,0,0,0.0,764000,39.8714138,32.7364368,-277.22792789999994,88.56827325,-50.68939712,-11.14283781,-10.70007464,0.576748264,2.8875208910000003,-7.311673128,-0.50070137,50.85955148,-0.23219121,0.254541627,0.25822085,0.40333188600000003,142722989,0,0,0,0,1
142755127,-0.043108285999999996,0.21149531300000002,-0.080969027,0.4360826,0.0,1457.0,1500.0,1434.0,1523.0,1476.0,1604.0,15.08620031,15.41895894,12.0751666,15.218639600000001,15.26980937,15.60652425,15.08177153,15.41433943,141.09669630000002,141.09669630000002,12.07445396,-0.001003795,-0.005716481,-0.00022041200000000002,-0.237631001,0.192585855,-0.010083026,2.0,7.151230246,8.151230246,11,0,0,1,0,0.0,0,0,0,0,0,0.656923767,0.051590412,-2.9685375019999998,-2.9685375019999998,5.407936887000001,80.51140683,43.73719271,-0.007271774,0.083485987,-0.19719875399999998,0.0,3.213221227,-0.000162594,-12.2913202,-5.32e+20,960.3087447,12.07510071,0.178648435,0.27072281600000003,0.32285717199999997,2.560503647,0.129061166,-11.18976305,0.181083345,0.335760791,0.320025324,-5.32e+20,50.72248804,50.91197024,-0.9380837059999999,-0.186108456,15.33094169,15.31016144,0.000415603,-0.098367469,-0.25460106899999996,97.5145678,450.4138694,12.0751666,96030.64737,1.141002987,-0.51818241,0.883004564,-0.249116287,0.17626310899999997,0.28913126899999997,0.32059044600000003,0.624220586,0.07592679299999999,-3.008107155,0.051796782,0.05650536,-0.303754149,-0.949661277,0.424386805,398689289.2,327374856.0,450854.3769,15.20654855,-11.41810562,-10.02393079,0.48755749600000003,3.861169227,0,0,0.0,764000,39.8714138,32.7364368,-277.64286630000004,88.16871682,-50.67025074,-11.03187178,-10.96933768,0.553422883,3.252585561,-7.327331499,-0.711748267,50.84040546,-0.27216331899999996,0.235877229,0.23945856199999999,0.3988394,142755127,0,0,0,0,1
142787265,-0.048026598,0.20456819,-0.084676357,0.431965569,0.0,1457.0,1500.0,1431.0,1523.0,1476.0,1602.0,15.19402588,15.52904732,12.07529765,15.25723142,15.30854444,15.64609508,15.12052988,15.45393427,141.91296819999997,141.91296819999997,12.07453221,-0.001002673,-0.005715416,-0.000219861,-0.237677291,0.192627888,-0.010030967,2.0,7.1538307660000005,8.153830766,11,0,0,1,0,0.0,0,0,0,0,0,0.651306773,0.054023170999999995,-2.9727566380000003,-2.9727566380000003,4.991154311,80.06786728,43.99061521,-0.007396595,0.083126238,-0.197923099,0.0,3.240812746,-0.041038055,-12.66014042,-5.32e+20,960.3114065,12.07522246,0.179758168,0.296541424,0.320507903,2.8660004089999997,0.06839427299999999,-11.54209091,0.18029040600000001,0.34668654200000004,0.320006526,-5.32e+20,50.67434276,50.907873200000004,-1.289656143,-0.19551537600000002,15.33093517,15.30391131,0.000540475,-0.153491926,-0.22281931100000002,97.50798672,450.20131680000003,12.07529765,96033.09295,1.141031983,-1.054210612,0.662528671,-0.18423082899999998,0.180173311,0.31835014899999997,0.317634698,0.609455037,0.077566441,-3.0127304269999997,0.049764967,0.056213914000000004,-0.296803989,-0.951982283,0.42053280600000004,398689252.2,327374811.6,450835.3199,15.31144971,-11.32369474,-10.28443489,0.48580915,3.87776909,0,0,0.0,764000,39.8714138,32.7364368,-278.04856960000006,87.77044646,-50.65206297,-10.91497877,-11.23443907,0.526802943,3.619744863,-7.331849765,-0.908079689,50.82221782,-0.307790159,0.219277114,0.22442374899999998,0.39463826399999996,142787265,0,0,0,0,1
