timestamp,control[0],control[1],control[2],control[3],control[4],output[2],output[3],output[4],output[5],output[6],output[7],indicated_airspeed_m_s,true_airspeed_m_s,indicated_airspeed_m_s.1,equivalent_airspeed_m_s,true_airspeed_m_s.1,equivalent_ground_minus_wind_m_s,true_ground_minus_wind_m_s,differential_pressure_raw_pa,differential_pressure_filtered_pa,temperature,gyro_bias[0],gyro_bias[1],gyro_bias[2],accel_bias[0],accel_bias[1],accel_bias[2],instance_count,seq_reached,seq_current,seq_total,item_changed_index,item_do_jump_remaining,valid,warning,finished,failure,stay_in_failsafe,flight_termination,item_do_jump_changed,execution_mode,nav_roll,nav_pitch,nav_bearing,target_bearing,xtrack_error,wp_dist,acceptance_radius,rollspeed_integ,pitchspeed_integ,yawspeed_integ,additional_integ1,x,y,z,temperature.1,pressure,temperature.2,gyro_rad[0],gyro_rad[1],gyro_rad[2],accelerometer_m_s2[0],accelerometer_m_s2[1],accelerometer_m_s2[2],x.1,y.1,z.1,temperature.3,altitude_sp,altitude_filtered,height_rate_setpoint,height_rate,airspeed_sp,airspeed_filtered,airspeed_derivative_sp,airspeed_derivative,throttle_integ,pitch_integ,baro_alt_meter,baro_temp_celcius,baro_pressure_pa,rho,xyz[0],xyz[1],xyz[2],xyz[0].1,xyz[1].1,xyz[2].1,roll_body,pitch_body,yaw_body,q_d[0],q_d[1],q_d[2],q_d[3],thrust_body[0],lat,lon,alt,vel_m_s,vel_n_m_s,vel_e_m_s,vel_d_m_s,cog_rad,ground_contact,maybe_landed,landed,ref_lat,ref_lon,x.2,y.2,z.2,vx,vy,vz,ax,ay,az,yaw,dist_bottom,roll,pitch,yaw.1,thrust_body[0].1,timestamp.1,isTakeoff,isClimbing,isDescending,isCruise,isLand
10004000,0.021800047000000003,0.019315979,0.0006915539999999999,0.15,0.0,900.0,900.0,900.0,900.0,900.0,900.0,-0.235052,-0.23964378,-1.4272593999999998,-1.4272593999999998,-1.4551412000000001,0.039223957999999996,0.03999021,226.41554,226.41554,12.40448,-0.001297855,-0.005307485,-9.95e-05,0.026071498,-0.010134246,-0.11897202,2.0,-1.0,0.0,11,0,0,1,0,0.0,0,0,0,0,0,0.0,0.0,2.3211906000000004,2.3001367999999998,-0.6490364000000001,264.34995,27.629995,3.38e-06,5.75e-06,0.0,7.209999999999999e-05,0.12460092,0.15711291,-10.039258,3344830000000000.0,966.1618699999999,12.404602,0.000184627,-0.002096707,-0.002369215,-0.11027032,0.17501229,-9.901809,-0.003801759,0.007915367,0.012969807,3344830000000000.0,0.034319222,0.02231922,0.40060008,-0.25844285,10.195497999999999,6.306352599999999,0.07778291400000001,16.738129999999998,0.22825381,-19.703861,399.51263,12.404602,96617.48,1.1479754,0.24625652,0.5530996,-0.32534203,-0.00012432399999999998,0.002325163,-8.950000000000001e-05,0.0,0.0,1.6169292,0.6906097,0.0,0.0,0.7232276999999999,1.0,398714137.0,327364372.0,400119.0,0.0,0.01,0.01,-0.01,0.8457865,0,0,1.0,39.8714138,32.7364372,-0.003356722,-0.0068107540000000005,-0.06823142,-0.003920552,0.015361896000000002,-0.037032127000000005,0.002346249,0.050198488,-0.048724,1.6178726,0.1,0.029142718999999997,0.027163425,0.000233937,1.0,10004000,1,0,0,0,0
10046351,0.024549705,0.019528128999999998,0.00031390599999999997,0.15,0.0,900.0,900.0,900.0,900.0,900.0,900.0,0.59006811,0.6016000779999999,-0.651831567,-0.6516929539999999,-0.664424361,0.7613450140000001,0.776217587,230.4798903,230.4798903,12.40429308,-0.0012483239999999999,-0.005349773,2.3899999999999998e-05,0.026009139,-0.010045578000000001,-0.119019615,2.0,-1.0,0.0,11,0,0,1,0,0.0,0,0,0,0,0,0.0,-0.014416543,2.326888382,2.301638562,-1.035062737,263.8898179,29.95446553,3.49e-06,7.56e-06,0.0,8.23e-05,0.057371238,0.173697679,-10.01068274,3344830000000000.0,966.1634017000001,12.404602,-0.008580256,-0.005710236,0.00299543,-0.11708437199999999,0.18178160899999998,-9.997045939,-0.0042588109999999995,0.001333629,0.007483401,3344830000000000.0,0.023504959,0.011504957,0.40060008,-0.268595182,10.77122981,7.435767266,0.06670925700000001,17.31152202,0.205993989,-19.28436794,399.61028050000004,12.404602,96616.37565,1.147962394,-0.388927087,-0.04681337,0.74535145,-0.000909897,0.0052508369999999995,-0.007017036999999999,0.0,0.0,1.6169292,0.6906097,0.0,0.0,0.7232276999999999,1.0,398714137.2,327364372.0,400119.7465,0.0,0.008133627,0.01,-0.006267253,0.900739453,0,0,0.961792358,39.8714138,32.7364372,-0.003429793,-0.006668082,-0.067717239,-0.0037173270000000003,0.01530977,-0.036139335,0.006707659,0.029693999999999998,-0.05771257,1.617674514,0.101271099,0.02976044,0.026389695,0.000233937,1.0,10046351,1,0,0,0,0
10080702,0.022262867999999998,0.019107856,2.9199999999999998e-05,0.15,0.0,900.0,900.0,900.0,900.0,900.0,900.0,0.23076664600000002,0.235272703,0.123596266,0.123873493,0.126292478,1.48346607,1.512444965,234.5442406,234.5442406,12.40410616,-0.001198792,-0.0053920619999999995,0.00014734,0.02594678,-0.00995691,-0.11906721,2.0,-1.0,0.0,11,0,0,1,0,0.0,0,0,0,0,0,0.0,-0.028833086,2.332586165,2.303140324,-1.421089074,263.4296858,32.27893607,3.39e-06,6.52e-06,0.0,7.45e-05,-0.009858445,0.19028244800000002,-9.98210749,3344830000000000.0,966.1649333999999,12.404602,-0.00037414800000000004,-0.007525015,-0.0009206310000000001,-0.06791309,0.140700235,-9.8992716,-0.004715864,-0.00524811,0.0019969939999999998,3344830000000000.0,0.012690696999999999,0.000690695,0.40060008,-0.278747514,11.34696162,8.565181932,0.05563560099999999,17.88491403,0.183734168,-18.86487489,399.618836,12.404602,96616.26062,1.147961044,-0.274736374,0.785089467,0.77551536,0.0020871970000000003,0.004191277,6.409999999999999e-05,0.0,-0.056216098,1.6169292,0.688928157,0.020226466000000002,-0.019314241,0.7214667370000001,1.0,398714137.4,327364372.0,400120.4931,0.0,0.006267253,0.01,-0.002534507,0.955692407,0,0,0.923584717,39.8714138,32.7364372,-0.003502864,-0.006525411,-0.067203058,-0.0035141020000000003,0.015257645,-0.035246543,0.011069068,0.009189511,-0.06670114,1.617476428,0.102542199,0.030138399,-0.668890985,0.000233937,1.0,10080702,1,0,0,0,0
10115053,0.020321053999999998,0.019430277,0.00018085400000000001,0.15,0.0,900.0,900.0,900.0,900.0,900.0,900.0,0.579118709,0.5904324679999999,0.8990240979999999,0.8994399390000001,0.917009317,2.205587125,2.248672342,238.6085909,238.6085909,12.40391924,-0.0011492610000000002,-0.00543435,0.00027076,0.025884421,-0.009868242,-0.119114805,2.0,-1.0,0.0,11,0,0,1,0,0.0,0,0,0,0,0,0.0,-0.043249629000000005,2.338283947,2.304642086,-1.8071154109999998,262.9695538,34.6034066,3.02e-06,4.38e-06,0.0,6.96e-06,-0.050177209,0.194434615,-9.959894522,3344830000000000.0,966.1658017999999,12.404602,0.001629654,-0.008302363,0.00020691900000000002,-0.05243671,0.278118359,-9.938507485,-0.0036594640000000003,-0.008001501,-0.001075852,3344830000000000.0,0.001876434,-0.010123568000000001,0.40060008,-0.288899846,11.92269343,9.694596599,0.044561944000000006,18.45830605,0.161474347,-18.44538183,399.6304879,12.404602,96616.10328,1.147959109,-0.242299884,-0.034385254,0.11451464199999999,0.001504105,0.006913558,-0.004261519,0.0,-0.33576636,1.6169292,0.680896229,0.12084751099999999,-0.115397214,0.713055447,1.0,398714137.6,327364372.0,400121.2396,0.0,0.00440088,0.01,0.00119824,1.01064536,0,0,0.885377075,39.8714138,32.7364372,-0.003558672,-0.006333791,-0.066500814,-0.00358583,0.015440366,-0.034370484,0.008728908,-0.00194638,-0.053738582,1.6173054519999999,0.103036854,0.028773227000000002,-0.634203269,0.000233937,1.0,10115053,1,0,0,0,0
10157403,0.023564476,0.019066135,-3.6e-05,0.15,0.0,900.0,900.0,900.0,900.0,900.0,900.0,1.079308996,1.100400607,1.674451931,1.675006386,1.7077261559999999,2.9277081810000003,2.98489972,242.6729412,242.6729412,12.40373232,-0.00109973,-0.005476639,0.00039418099999999996,0.025822062000000003,-0.009779574000000001,-0.1191624,2.0,-1.0,0.0,11,0,0,1,0,0.0,0,0,0,0,0,0.0,-0.057666170999999995,2.34398173,2.306143848,-2.193141748,262.50942169999996,36.92787713,8.73e-06,-0.000412284,0.0,-0.00017093799999999998,-0.04446717,0.17732189,-9.948563695,3344830000000000.0,966.1655357999999,12.404602,-0.0027412390000000003,-0.003535033,0.001022637,-0.084443412,0.2278984,-9.883105452,-1.4400000000000001e-05,-0.004206835999999999,-2.05e-05,3344830000000000.0,-0.008937829,-0.020937831,0.40060008,-0.299052178,12.49842524,10.82401126,0.033488288,19.03169806,0.139214526,-18.02588877,399.6647097,12.404602,96615.71021,1.147954443,-0.322429783,-0.035372877999999996,-0.221502888,0.000376819,0.005301597,0.0016686379999999998,0.0,-0.312689571,1.6169292,0.682182857,0.112612214,-0.107533338,0.714402869,1.0,398714137.7,327364372.0,400121.9862,0.0,0.002534507,0.01,0.004930986,1.065598314,0,0,0.8471694340000001,39.8714138,32.7364372,-0.003585125,-0.006058945,-0.065478809,-0.004125055999999999,0.016022392,-0.033522875,-0.0050058229999999995,0.002847005,-0.003452872,1.617180569,0.102211333,0.023970134,-0.57161281,0.000233937,1.0,10157403,1,0,0,0,0
10195754,0.021295937999999997,0.019535753,-0.00018511599999999998,0.15,0.0,900.0,900.0,900.0,900.0,900.0,900.0,-1.10243418,-1.1239732040000001,2.449879764,2.4505728319999998,2.498442995,3.649829237,3.7211270969999997,246.7372915,246.7372915,12.4035454,-0.001050198,-0.005518927,0.000517601,0.025759703,-0.009690905999999999,-0.119209995,2.0,-1.0,0.0,11,0,0,1,0,0.0,0,0,0,0,0,0.0,-0.072082714,2.349679512,2.30764561,-2.579168085,262.04928959999995,39.25234767,1.0800000000000002e-05,-0.001589995,0.0,-0.000483645,-0.038757131,0.160209165,-9.937232868999999,3344830000000000.0,966.1652697000001,12.404602,-0.002520849,-0.007848102,-0.000138055,-0.056166694,0.20161585199999998,-9.985597221,0.0036305940000000004,-0.00041217099999999997,0.001034829,3344830000000000.0,-0.019752091,-0.031752092999999995,0.40060008,-0.309204511,13.07415705,11.95342593,0.022414631,19.60509008,0.11695470599999999,-17.60639572,399.74067460000003,12.404602,96614.86813999999,1.1479445129999999,-0.17182754,0.340293109,0.186761055,-0.000116598,0.002084517,0.000287453,0.0,-0.291845466,1.6169292,0.683268815,0.105161042,-0.10041821699999999,0.715540023,1.0,398714137.9,327364372.0,400122.7327,0.0,0.0006681339999999999,0.01,0.008663733,1.120551267,0,0,0.8089617920000001,39.8714138,32.7364372,-0.003611579,-0.0057841,-0.064456804,-0.004664283,0.016604419,-0.032675266,-0.018740555,0.00764039,0.046832837999999995,1.617055687,0.10138581199999999,0.015403658999999998,-0.536444767,0.000233937,1.0,10195754,1,0,0,0,0
10230105,0.022321322,0.019687738,-0.00018031200000000002,0.15,0.0,900.0,900.0,900.0,900.0,900.0,900.0,1.456469105,1.4849323280000002,3.225307597,3.226139279,3.289159834,4.371950293,4.457354475,250.8016418,250.8016418,12.40335848,-0.001000667,-0.005561216,0.000641021,0.025697344,-0.009602238,-0.11925759,2.0,-1.0,0.0,11,0,0,1,0,0.0,0,0,0,0,0,0.0,-0.086499257,2.355377295,2.309147371,-2.9651944219999997,261.5891575,41.576818200000005,-4.83e-05,-0.002583455,0.0,-0.001038172,15.00112619,0.174918884,-9.760529987,3344830000000000.0,966.1611052999999,12.404602,0.001961129,-0.010961011000000001,5.85e-05,-0.115299048,0.163905034,-9.964788316,0.000818032,-0.0010806589999999999,-8.290000000000001e-05,3344830000000000.0,-0.028737492000000003,-0.040737494,0.40060008,-0.315216537,13.254024,13.04705636,0.004139360999999999,19.6283531,0.10999999,-17.327437300000003,399.568813,12.404602,96616.85584,1.1479680620000001,0.257561414,0.052364713,-0.114581951,0.001819621,0.001176265,0.002322072,0.0,-0.272845123,1.6169292,0.6841902990000001,0.098358407,-0.09392238800000001,0.7165050959999999,1.0,398714138.0,327364372.0,400122.8802,0.0,0.0,0.00880176,0.00880176,1.110819602,0,0,0.7707541509999999,39.8714138,32.7364372,-0.0036615059999999997,-0.0053477080000000005,-0.0634754,-0.004786234,0.017410845,-0.032260376,-0.031863614,0.012234143000000001,0.053128679000000005,1.6169902619999998,0.10125127699999999,0.005898294,-0.48104811700000005,0.000233937,1.0,10230105,1,0,0,0,0
10268456,0.021203825,0.019476416,3.4e-05,0.15,0.0,900.0,900.0,900.0,900.0,900.0,900.0,1.858077042,1.894376787,4.000735429,4.001705725,4.079876673,5.094071349,5.193581851999999,254.865992,254.865992,12.40317156,-0.0009511360000000001,-0.0056035040000000005,0.000764441,0.025634986000000002,-0.00951357,-0.119305185,2.0,-1.0,0.0,11,0,0,1,0,0.0,0,0,0,0,0,0.0,-0.1009158,2.3610750769999997,2.310649133,-3.351220759,261.12902540000005,43.90128873,-0.00015675,-0.003316328,0.0,-0.001688146,35.3812508,0.200932153,-9.525085817999999,3344830000000000.0,966.1555562000001,12.404602,-0.0040470459999999995,-0.0008143689999999999,0.000787296,-0.074891218,0.208994034,-9.869532198,-0.00428831,-0.0033344909999999998,-0.00197256,3344830000000000.0,-0.036891849,-0.048891852,0.40060008,-0.319347188,13.254007999999999,14.12442625,-0.017408357,19.40163478,0.10999999,-17.11233852,399.67716839999997,12.404602,96615.60488,1.147953244,0.23353104,-0.059939305,-0.371335079,0.003271772,0.003016144,0.002725504,0.0,-0.255206124,1.6169292,0.6849942929999999,0.09203575,-0.08788489099999999,0.7173470270000001,1.0,398714138.0,327364372.0,400122.6935,0.0,0.0,0.0069353869999999995,0.0069353869999999995,1.065020052,0,0,0.7325465090000001,39.8714138,32.7364372,-0.003719652,-0.004854751,-0.06250821200000001,-0.00476208,0.018295843,-0.031996998,-0.0447725,0.016757996,0.044021818,1.616945655,0.101358684,-0.009054593,-0.430210004,0.000233937,1.0,10268456,1,0,0,0,0
10310807,0.021849953999999998,0.019312503,-0.0005558059999999999,1.0,0.0,900.0,900.0,900.0,900.0,900.0,900.0,-1.2019082970000001,-1.225392394,4.776163262,4.777272172,4.870593512,5.816192404,5.92980923,258.9303423,258.9303423,12.40298464,-0.000901604,-0.005645791999999999,0.0008878610000000001,0.025572627,-0.009424901999999999,-0.11935278,2.0,-1.0,0.0,11,0,0,1,0,0.0,0,0,0,0,0,0.0,-0.115332343,2.366772859,2.312150895,-3.7372470960000004,260.6688934,46.22575926,-0.000315143,-0.003994253,0.0,-0.002438848,53.15311364,0.216290473,-9.325370989,3344830000000000.0,966.1513391000001,12.404602,0.001006851,-0.003567588,-0.00178799,-0.09163439699999999,0.14468847199999998,-9.912127838,-0.008535741999999999,-0.005241865,-0.0036185609999999997,3344830000000000.0,-0.045046206,-0.05704621,0.40060008,-0.323477839,13.253992000000002,15.20179615,-0.038956075,19.17491647,0.10999999,-16.89723973,399.603616,12.404602,96616.42355,1.147962998,0.253723004,-0.037896561,0.17908036800000002,0.002398341,0.005291403,0.000803515,0.0,-0.238908805,1.6169292,0.685686308,0.08618716400000001,-0.082300077,0.718071762,1.0,398714138.0,327364372.0,400122.5069,0.0,0.0,0.005069014,0.005069014,1.019220502,0,0,0.694338868,39.8714138,32.7364372,-0.003773044,-0.004351917,-0.061592222,-0.004752209,0.020914407,-0.031564411,-0.071089951,0.390185825,0.044811245,1.616905101,0.101392792,-0.021015141,-0.408877738,0.000233937,1.0,10310807,1,0,0,0,0
10353158,0.021402025,0.019518288999999998,0.0018805410000000001,1.0,0.0,1500.0,1500.0,2000.0,1488.068414,1510.931586,1509.0,1.669520172,1.70213856,5.551591095,5.552838617999999,5.661310351,6.53831346,6.666036607000001,262.9946926,262.9946926,12.40279771,-0.0008520730000000001,-0.005688080999999999,0.0010112810000000002,0.025510268,-0.009336234,-0.119400375,2.0,-1.0,0.0,11,0,0,1,0,0.0,0,0,0,0,0,0.0,-0.129748886,2.3724706419999997,2.313652657,-4.1232734330000005,260.2087613,48.5502298,-0.00048060800000000004,-0.004563102,0.0,-0.003172931,49.12093584,0.142577615,-9.424339363,3344830000000000.0,966.1582565,12.404602,-0.001292999,-0.007288595,0.0015493420000000002,-0.065532429,0.10025464,-9.88653834,-0.005603026999999999,-0.004252992,-0.0032278190000000003,3344830000000000.0,-0.053200563,-0.065200567,0.40060008,-0.327608491,13.253976000000002,16.27916604,-0.06050379400000001,18.94819815,0.10999999,-16.68214095,399.55114810000003,12.404602,96617.04596,1.147970328,0.012368763,-0.173174415,0.584940836,0.000602648,-0.000147318,-0.00076595,0.0,-0.223544661,1.6169292,0.6862989509999999,0.08066848,-0.077030285,0.718713316,1.0,398714138.0,327364372.0,400122.3203,0.0,0.0,0.0032026409999999996,0.0032026409999999996,0.973420953,0,0,0.6561312260000001,39.8714138,32.7364372,-0.0037883509999999997,-0.003769968,-0.061086304,-0.004856738,0.037417935,-0.029776552999999997,-0.20480300699999998,3.71834219,0.12486478300000001,1.616897001,0.10083980599999999,-0.035456582,-0.37304840799999994,0.000233937,1.0,10353158,1,0,0,0,0
10391509,0.02224916,0.019229601000000002,0.003434423,1.0,0.0,1501.0,1500.0,2000.0,1488.923985,1510.076015,1509.0,1.6848274669999999,1.7177558640000001,6.327018927999999,6.328405065,6.45202719,7.260434516,7.402263985,267.0590429,267.0590429,12.40261079,-0.000802542,-0.005730369,0.0011347010000000001,0.025447908999999998,-0.009247566,-0.11944797,2.0,-1.0,0.0,11,0,0,1,0,0.0,0,0,0,0,0,0.0,-0.144165429,2.378168424,2.315154419,-4.50929977,259.7486292,50.87470033,-0.000666875,-0.005187084000000001,0.0,-0.003832915,45.08875804,0.068864757,-9.523307737,3344830000000000.0,966.1651737999999,12.404602,-0.000633953,-0.010329955,0.002013508,48.12592076,0.194149651,-9.376565779,-0.002670312,-0.0032641190000000002,-0.002837077,3344830000000000.0,-0.06135492,-0.073354925,0.40060008,-0.331739142,13.253960000000001,17.35653593,-0.08205151200000001,18.72147983,0.10999999,-16.46704217,399.722595,12.404602,96615.07013,1.14794688,-0.067979734,-0.157955181,0.6959801320000001,0.001091777,0.005367365,-0.003229165,0.0,-0.209073058,1.6169292,0.6868386340000001,0.075465975,-0.07206241,0.719278484,1.0,398714138.0,327364372.0,400122.1336,0.0,0.0,0.0013362670000000001,0.0013362670000000001,0.927621403,0,0,0.617923585,39.8714138,32.7364372,-0.0038036579999999997,-0.003188018,-0.060580387,-0.004961267,0.053921462999999996,-0.027988695,-0.338516063,7.046498555,0.20491832100000001,1.616888901,0.10028682,-0.049052360999999996,-0.358443542,0.000233937,1.0,10391509,1,0,0,0,0
10429860,0.020552975,0.019365549,-9.76e-05,1.0,0.0,1499.0,1500.0,2000.0,1488.083617,1510.916383,1509.0,3.946143558,4.023265456,7.10244676,7.103971511,7.242744029,7.982555572000001,8.138491362,271.1233932,271.1233932,12.40242387,-0.000753011,-0.005772658000000001,0.001258122,0.02538555,-0.009158897,-0.119495565,2.0,-1.0,0.0,11,0,0,1,0,0.0,0,0,0,0,0,0.0,-0.158581972,2.383866207,2.316656181,-4.895326107,259.2884971,53.19917086,-0.000866815,-0.00582732,0.0,-0.004349436,41.31103789,0.072021927,-9.569847365,2739960000000000.0,966.1641887,12.404602,-0.00543515,-0.005423003000000001,-0.000538912,52.01956938,0.19674277399999998,-9.298333009,-0.002180356,-0.002799985,-0.003420393,2739960000000000.0,-0.06920006,-0.081200065,0.40060008,-0.332509772,13.25395403,18.35977745,-0.10211646199999999,18.34784608,0.10999999,-16.58257813,399.5496012,12.404602,96617.05204,1.147970395,-0.458471433,0.372754961,0.179198435,0.0035932629999999998,0.005222172,0.0031124570000000003,0.0,-0.19532675100000002,1.6169292,0.68731726,0.070520472,-0.06733996099999999,0.719779787,1.0,398714138.0,327364373.8,400122.106,0.280426085,0.000530106,0.279365873,0.001060212,0.9305063720000001,0,0,0.579715943,39.8714138,32.7364372,-0.005908145,0.043193761,-0.059250422999999997,-0.047047017999999996,0.970926253,-0.004043633,-0.745948445,15.81585804,0.429077785,1.61686118,0.1,-0.064121712,-0.331790815,0.000233937,1.0,10429860,1,0,0,0,0
10464210,0.023307009,0.019467836000000002,0.002259974,1.0,0.0,1500.091218,1500.0,2000.0,1488.0,1511.0,1509.0,5.749411819,5.861689,7.877874593,7.879537957999999,8.033460867999999,8.704676628,8.87471874,275.1877435,275.1877435,12.40223695,-0.0007034789999999999,-0.005814946,0.0013815420000000001,0.025323191000000002,-0.009070229,-0.11954316,2.0,-1.0,0.0,11,0,0,1,0,0.0,0,0,0,0,0,0.0,-0.172998514,2.389563989,2.318157943,-5.2813524439999995,258.82836499999996,55.5236414,-0.0010722169999999999,-0.006431096999999999,0.0,-0.004670425,37.81367152,0.159872179,-9.558622581,1468670000000000.0,966.1544967,12.404602,-0.008224008,-0.0041342309999999995,-9.790000000000001e-05,46.85421954,0.21224384300000002,-9.375808336,-0.004381757,-0.002913991,-0.005076895,1468670000000000.0,-0.076530131,-0.088530136,0.40060008,-0.327683542,13.25396475,19.23954167,-0.119711531,17.72949199,0.10999999,-17.24885977,399.568813,12.404602,96616.851,1.147968013,0.026662721,-0.115544447,0.040445675,-0.000636168,0.004984181,-0.003826719,0.0,-0.182154925,1.6169292,0.687747137,0.065778692,-0.062812042,0.7202299740000001,1.0,398714138.0,327364380.1,400122.4793,1.267737548,0.002396479,1.262944589,0.004792959,1.056113069,0,0,0.541508302,39.8714138,32.7364372,-0.010263924,0.138929238,-0.057032472,-0.134371548,2.858307267,0.043777937,-1.4483395769999998,30.44863423,0.808525165,1.6168123140000001,0.1,-0.081857501,-0.313539411,0.000233937,1.0,10464210,1,0,0,0,0
10506561,0.02536262,0.019272854,0.003059333,1.0,0.0,1501.0,1500.0,2000.0,1487.0,1512.0,1509.0,7.39092498,7.535317163999999,8.653302426,8.655104404,8.824177707,9.426797683,9.610946117000001,279.2520938,279.2520938,12.40205003,-0.000653948,-0.005857235,0.001504962,0.025260832,-0.008981560999999999,-0.119590755,2.0,-1.0,0.0,11,0,0,1,0,0.0,0,0,0,0,0,0.0,-0.187415057,2.395261772,2.319659705,-5.667378781,258.36823300000003,57.84811193,-0.001302005,-0.007024369,0.0,-0.00477419,34.31630515,0.247722432,-9.547397796,197384000000000.0,966.1448048000001,12.404602,-0.005123862,-0.005633681,-0.00084538,42.69368732,0.152403992,-9.536472258,-0.006583158,-0.003027997,-0.006733398000000001,197384000000000.0,-0.08386020200000001,-0.09586020699999999,0.40060008,-0.32285731100000004,13.25397548,20.11930589,-0.1373066,17.11113791,0.10999999,-17.91514142,399.62535510000004,12.404602,96616.18985,1.147960222,0.636863877,0.47854005200000005,0.348723393,-0.0010766039999999999,0.007218365,-0.001811269,0.0,-0.16956130100000003,1.6169292,0.6881279020000001,0.061242169000000006,-0.058480112,0.720628645,1.0,398714138.0,327364386.5,400122.8526,2.25504901,0.004262853,2.246523305,0.008525705,1.1817197659999998,0,0,0.50330066,39.8714138,32.7364372,-0.014619703000000001,0.234664714,-0.054814521,-0.221696079,4.7456882810000005,0.091599506,-2.150730708,45.08141041,1.187972546,1.616763449,0.1,-0.096742668,-0.285917352,0.000233937,1.0,10506561,1,0,0,0,0
10541824,0.022060491,0.019515235,0.002254814,1.0,0.0,1501.0,1500.0,2000.0,1488.0,1511.0,1509.0,8.818686138,8.991011561,9.428730259,9.430670851,9.614894546,10.14891874,10.34717349,283.3164441,283.3164441,12.40186311,-0.000604417,-0.005899523,0.001628382,0.025198473,-0.008892893,-0.11963835,2.0,-1.0,0.0,11,0,0,1,0,0.0,0,0,0,0,0,0.0,-0.18105053399999999,2.402449023,2.3217980480000002,-6.192446776000001,257.7837121,58.79761427,-0.001522945,-0.007508638000000001,0.0,-0.004650601,31.62792074,0.148392837,-9.561079246,1073910000000000.0,966.1497117,12.404602,-0.000458174,-0.010068361,-0.001871842,39.24842851,0.191002851,-9.432369951,-0.004884433,-0.002432881,0.013234473,1073910000000000.0,-0.09119027199999999,-0.10319027800000001,0.40060008,-0.31803108,13.25398621,20.99907012,-0.15490167,16.49278383,0.10999999,-18.58142307,399.5765695,12.404602,96616.74915,1.14796683,0.214620437,0.0057727180000000005,-0.01517683,0.003645583,0.004267374,-0.0029083090000000004,0.0,-0.157362817,1.6169292,0.688472511,0.056845832,-0.054282052000000004,0.720989573,1.0,398714138.0,327364392.8,400123.2258,3.2423604719999997,0.006129226,3.23010202,0.012258452,1.307326464,0,0,0.465093019,39.8714138,32.7364372,-0.025392221,0.469652918,-0.049038777,-0.294535941,6.328925432,0.132466316,-2.084730092,44.05683015,1.174008769,1.6166596880000002,0.1,-0.115656026,-0.256311498,0.000233937,1.0,10541824,1,0,0,0,0
10587263,0.022426152999999997,0.018539988,0.002340067,1.0,0.0,1501.0,1500.0,2000.0,1488.0,1511.0,1509.0,10.0389523,10.23508861,10.20415809,10.206237300000002,10.40561138,10.8710398,11.08340087,287.38079439999996,287.38079439999996,12.40167619,-0.000554885,-0.0059418119999999994,0.0017518020000000002,0.025136113999999998,-0.008804225,-0.119685945,2.0,-1.0,0.0,11,0,0,1,0,0.0,0,0,0,0,0,0.0,-0.16981227399999999,2.409985596,2.3240856869999997,-6.750123887999999,257.1700187,59.42464851,-0.001729404,-0.00789027,0.0,-0.004378909,29.08822772,0.014659469,-9.579338478,2345190000000000.0,966.1573017999999,12.404602,0.0036313929999999997,-0.008842639000000001,-0.003471052,36.01184475,0.193418273,-9.541974582,-0.002468862,-0.001707427,0.037176917999999996,2345190000000000.0,-0.09852034300000001,-0.110520349,0.40060008,-0.31320485,13.25399694,21.87883434,-0.17249673899999998,15.87442974,0.10999999,-19.24770472,399.743881,12.404602,96614.80896000001,1.147943706,-0.38336353700000003,-0.340488899,0.16943143100000002,-0.000363708,0.0077838709999999995,-0.003849801,0.0,-0.14553991800000002,1.6169292,0.6887810120000001,0.052582738,-0.050211228,0.721312593,1.0,398714138.0,327364399.2,400123.5991,4.229671934,0.007995599,4.213680736000001,0.015991198,1.432933161,0,0,0.426885377,39.8714138,32.7364372,-0.037282416,0.728896384,-0.042643331,-0.364852839,7.85918632,0.172121735,-1.884889778,40.30502659,1.0915200090000001,1.616546366,0.1,-0.132254852,-0.228392651,0.000233937,1.0,10587263,1,0,0,0,0
10623228,0.023611902999999997,0.018994626,0.001071147,1.0,0.0,1500.0,1500.0,2000.0,1487.878376,1511.121624,1509.0,11.56548056,11.79153824,10.97958592,10.98180374,11.19632822,11.59316085,11.81962825,291.44514469999996,291.44514469999996,12.40148927,-0.0005053540000000001,-0.0059841,0.0018752220000000002,0.025073755,-0.008715556999999999,-0.11973354,2.0,-1.0,0.0,11,0,0,1,0,0.0,0,0,0,0,0,0.0,-0.158574015,2.417522169,2.326373326,-7.3078010010000005,256.5563253,60.05168274,-0.001951494,-0.008249408,0.0,-0.003973471,26.70244696,-0.112992232,-9.686114725,3344830000000000.0,966.1629922000001,12.404602,-0.006290295,-0.007373301,0.001643138,32.96084759,0.148028443,-9.569509338,0.006164265,-0.010365678,0.070478424,3344830000000000.0,-0.105536601,-0.11753660699999999,0.40060008,-0.30735973699999997,13.25400753,22.73130038,-0.189545847,15.25627422,0.10999999,-19.95517069,399.5532119,12.404602,96617.03838,1.1479701820000001,0.637968069,-0.004340427,0.060230242,-0.0018015829999999998,0.002785335,0.002409137,0.0,-0.13403544,1.6169292,0.68905844,0.048432731,-0.046248385999999995,0.721603193,1.0,398714138.0,327364405.5,400123.9724,5.216983397,0.009861972,5.197259452,0.019723945,1.5585398590000001,0,0,0.388677736,39.8714138,32.7364372,-0.050426184000000006,1.025425512,-0.035450759,-0.431790185,9.339581395,0.210274275,-1.6859506969999998,36.72487421,1.014662915,1.6164457819999998,0.1,-0.145002574,-0.210240106,0.000233937,1.0,10623228,1,0,0,0,0
10671965,0.024154343999999998,0.018271416999999998,-0.0017043929999999998,1.0,0.0,1499.0,1500.0,2000.0,1488.870774,1510.129226,1509.0,12.34349708,12.58455611,11.75501376,11.75737019,11.98704506,12.31528191,12.55585563,295.509495,295.509495,12.40130235,-0.000455823,-0.006026388000000001,0.001998642,0.025011396,-0.008626889,-0.119781135,2.0,-1.0,0.0,11,0,0,1,0,0.0,0,0,0,0,0,0.0,-0.14733575599999998,2.425058742,2.3286609659999997,-7.865478112999999,255.9426319,60.67871698,-0.002192839,-0.008605371,0.0,-0.003452911,24.88303295,-0.218264596,-10.11861614,3344830000000000.0,966.1616924000001,12.404602,0.003971144,-0.0028197390000000004,0.008808726,30.06124911,0.120893175,-9.561420168,0.037676773999999996,-0.05355411,0.138219433,3344830000000000.0,-0.107861615,-0.11986162,0.40060008,-0.286283196,13.254016,23.17568165,-0.198433305,14.64108705,0.10999999,-21.27830742,399.550842,12.404602,96617.05681000001,1.147970358,-0.41300767200000005,-0.059333005,0.09213612199999999,0.002896036,0.003870915,0.018493841,0.0,-0.12278917199999999,1.6169292,0.689308058,0.044374344,-0.042373037999999995,0.721864611,1.0,398714138.0,327364445.9,400122.7902,6.601814363,0.011728346,6.5818143629999994,0.02,1.567949773,0,0,0.350470094,39.8714138,32.7364372,-0.067963393,1.452631169,-0.02546447,-0.486883082,10.64520979,0.243159617,-1.49017021,33.74631447,0.957543337,1.616389844,0.1,-0.15837025,-0.19548536,0.000233937,1.0,10671965,1,0,0,0,0
10710316,0.01470166,0.013128923,-0.008984323,1.0,0.0,1496.0,1500.0,2000.0,1492.0,1507.0,1506.0,13.70239202,13.97010574,12.53044159,12.53293664,12.7777619,13.03740296,13.292082999999998,299.5738453,299.5738453,12.40111543,-0.000406291,-0.006068677,0.002122063,0.024949037,-0.008538221,-0.11982873,2.0,-1.0,0.0,11,0,0,1,0,0.0,0,0,0,0,0,0.0,-0.13609749699999998,2.432595315,2.330948605,-8.423155226,255.32893849999996,61.30575121,-0.0023897,-0.008908507,0.0,-0.003016365,23.06361895,-0.32353696,-10.55111757,3344830000000000.0,966.1603925000001,12.404602,0.001368911,-0.003532317,0.043163624000000005,27.62141133,-0.080486277,-9.570482687,0.069189284,-0.09674254199999999,0.205960442,3344830000000000.0,-0.11018663,-0.122186634,0.40060008,-0.26520665600000004,13.25402447,23.62006292,-0.20732076300000002,14.02589987,0.10999999,-22.60144415,399.5694337,12.404602,96616.86911,1.147968281,0.281368829,-0.082359038,1.345387726,-0.002737828,0.010026956,0.063591539,0.0,-0.111785273,1.6169292,0.689530231,0.040401999,-0.038579846,0.722097225,1.0,398714138.0,327364489.0,400121.4837,8.018391678,0.013594719,7.998391678,0.02,1.5680800830000001,0,0,0.31226245199999997,39.8714138,32.7364372,-0.085500602,1.879836826,-0.01547818,-0.5419759789999999,11.95083819,0.276044958,-1.294389722,30.76775473,0.900423759,1.616333905,0.1,-0.16810128100000002,-0.173610438,0.000233937,1.0,10710316,1,0,0,0,0
10752667,0.012657503999999998,-0.34053014299999995,-0.02038187,1.0,0.0,1491.855571,1500.0,2000.0,1492.144429,1506.855571,1328.0,14.5366598,14.82061496,13.30586942,13.30850308,13.56847874,13.75952402,14.02831038,303.6381955,303.6381955,12.40092851,-0.00035676,-0.006110965,0.002245483,0.024886679,-0.008449553,-0.119876325,2.0,-1.0,0.0,11,0,0,1,0,0.0,0,0,0,0,0,0.0,-0.12485923800000001,2.4401318880000002,2.333236244,-8.980832337999999,254.715245,61.93278544,-0.00262653,-0.009291536999999999,0.0,-0.002534331,21.05977551,-0.380269271,-10.55655327,3344830000000000.0,966.1638249,12.40458849,0.001014512,-0.005974201,0.09965162400000001,25.29951763,-0.246340554,-9.601707101,0.120174226,-0.1189326,0.233642221,3344830000000000.0,-0.112511645,-0.12451164699999999,0.40060008,-0.244130116,13.25403294,24.064444199999997,-0.216208221,13.410712699999998,0.10999999,-23.92458088,399.50132149999996,12.404602,96617.64424,1.147977384,0.15347638,-0.985862815,1.3669743559999998,0.005976594,0.0018046720000000002,0.126523685,0.0,-0.100961535,1.6169292,0.6897297720000001,0.036493577,-0.034847697999999996,0.7223062720000001,1.0,398714138.0,327364532.2,400120.1772,9.434968994,0.015461092,9.414968994,0.02,1.5682103930000002,0,0,0.274054811,39.8714138,32.7364372,-0.10332846300000001,2.377859842,-0.004124648,-0.5796475179999999,13.10013009,0.300641161,-1.05939709,28.33927652,0.5785942,1.6177981000000001,0.1,-0.17846116399999998,-0.16777713800000002,0.000233937,1.0,10752667,1,0,0,0,0
10787017,-0.007759724,-0.27266077899999996,-0.034817493,1.0,0.0,1483.84797,1500.0,2000.0,1501.304061,1497.695939,1339.216243,15.27333501,15.57170956,14.08129726,14.08406953,14.35919558,14.48164507,14.76453776,307.7025458,307.7025458,12.40074159,-0.000307229,-0.006153254,0.002368903,0.02482432,-0.008360885,-0.11992392,2.0,-1.0,0.0,11,0,0,1,0,0.0,0,0,0,0,0,0.0,-0.11362097800000001,2.447668461,2.335523883,-9.538509451,254.1015516,62.55981968,-0.002825092,-0.009626756,0.0,-0.002209348,18.92381596,-0.40222989200000003,-10.25606023,3344830000000000.0,966.1706472999999,12.40456531,0.018795801,-0.036568161,0.160184697,23.91849188,-0.49431963,-10.73176186,0.18510825600000003,-0.126080461,0.23262755100000002,3344830000000000.0,-0.11483665900000001,-0.126836661,0.40060008,-0.223053576,13.25404141,24.50882547,-0.225095679,12.79552553,0.10999999,-25.24771761,399.6258497,12.404602,96616.18835,1.147960143,2.125055482,-2.64869482,1.73196159,0.084324118,-0.086607852,0.223702752,0.0,-0.090307086,1.6169292,0.689904871,0.03264515,-0.031172836000000002,0.722489582,1.0,398714138.0,327364575.3,400118.8708,10.85154631,0.017327465,10.83154631,0.02,1.5683407040000001,0,0,0.235847169,39.8714138,32.7364372,-0.12135637099999999,2.9246248230000003,0.008169926999999999,-0.605328335,14.14181914,0.319532138,-0.7974156370000001,26.28940681,0.074570825,1.620308569,0.1,-0.189447329,-0.152846073,0.000233937,1.0,10787017,1,0,0,0,0
10822737,-0.024224918999999998,-0.24102894100000002,-0.04681598,1.0,0.0,1477.840368,1500.0,2000.0,1510.159632,1488.840368,1376.159632,16.33641949,16.65561278,14.85672509,14.85963598,15.14991242,15.20376613,15.50076514,311.7668961,311.7668961,12.40055467,-0.000257697,-0.006195541999999999,0.002492323,0.024761961000000002,-0.008272217,-0.119971515,2.0,-1.0,0.0,11,0,0,1,0,0.0,0,0,0,0,0,0.0,-0.102382719,2.455205035,2.337811522,-10.09618656,253.4878582,63.18685391,-0.003042898,-0.010013892,0.0,-0.001978081,16.78785641,-0.42419051399999996,-9.955567189,3344830000000000.0,966.1774697000001,12.40454212,0.08688063,-0.112433061,0.230700551,22.36628039,-0.319180347,-10.75675548,0.250042286,-0.133228323,0.23161288100000002,3344830000000000.0,-0.11716167400000001,-0.129161674,0.40060008,-0.20197703600000003,13.25404988,24.95320674,-0.23398313699999998,12.18033835,0.10999999,-26.57085434,399.46954,12.40459275,96617.97215,1.14798137,1.548777455,-0.272483073,-0.110336604,0.171547893,-0.137519445,0.26420556300000003,0.0,-0.07978045,1.6169292,0.6900596920000001,0.028842041000000002,-0.027541249,0.7226517090000001,1.0,398714138.0,327364618.4,400117.5643,12.26812362,0.019193839,12.24812362,0.02,1.568471014,0,0,0.197639528,39.8714138,32.7364372,-0.13938428,3.4713898039999997,0.020464502,-0.6310091529999999,15.1835082,0.338423115,-0.535434183,24.2395371,-0.42945255,1.622819037,0.1,-0.199239974,-0.141191804,0.000233937,1.0,10822737,1,0,0,0,0
10859719,-0.040789316,-0.219644228,-0.054770268,1.0,0.0,1473.0,1500.0,2000.0,1518.167233,1480.832767,1389.167233,16.86333855,17.19259696,15.63215292,15.63520242,15.94062926,15.92588719,16.23699251,315.83124639999994,315.83124639999994,12.40036775,-0.000208166,-0.006237831,0.002615743,0.024699602,-0.008183549,-0.12001911,2.0,-1.0,0.0,11,0,0,1,0,0.0,0,0,0,0,0,0.0,-0.09114446,2.462741608,2.340099161,-10.65386368,252.87416480000002,63.81388814,-0.0032724340000000003,-0.010469156,0.0,-0.001871622,15.32657671,-0.285882145,-9.926831849,3344830000000000.0,966.1707836,12.40451894,0.16316224199999999,-0.14667951199999998,0.263241837,20.35380516,-0.232516484,-10.38865989,0.266939231,-0.077280146,0.140962488,3344830000000000.0,-0.106852404,-0.118852405,0.40060008,-0.091921976,13.2540592,25.20342516,-0.238987316,11.589753,0.10999999,-28.17603899,399.41279160000005,12.404572,96618.65178,1.14798948,1.294877063,0.061603587,-0.605301635,0.223264546,-0.135592778,0.259160083,0.0,-0.06936044200000001,1.6169292,0.690193782,0.025076644,-0.023945674,0.72279214,1.0,398714138.0,327364675.5,400118.5903,13.37405871,0.018939788,13.35617913,0.011518303999999998,1.568638336,0,0,0.159431886,39.8714138,32.7364372,-0.15577883,4.061751945,0.030457727999999996,-0.64856286,15.97188411,0.325868411,-0.716726539,22.19258756,-0.240472868,1.6309260330000002,0.1,-0.206511716,-0.140995009,0.000233937,1.0,10859719,1,0,0,0,0
10898070,-0.041268137,-0.17745904,-0.05818021,1.0,0.0,1470.174835,1500.0,2000.0,1519.174835,1479.825165,1408.174835,17.56325258,17.90627018,16.40758075,16.41076887,16.7313461,16.64800824,16.97321989,319.8955967,319.8955967,12.40018083,-0.000158635,-0.006280119,0.0027391629999999998,0.024637243,-0.008094881,-0.120066705,2.0,-1.0,0.0,11,0,0,1,0,0.0,0,0,0,0,0,0.0,-0.079906201,2.470278181,2.3423868,-11.21154079,252.26047140000003,64.44092238,-0.003476157,-0.010917525,0.0,-0.001876447,13.89962806,-0.139418495,-9.911924888,3344830000000000.0,966.1634101,12.40449575,0.216380873,-0.14877064,0.266180741,18.37091343,-0.18046344,-10.230395699999999,0.281391812,-0.018121331,0.045750985999999993,3344830000000000.0,-0.092337672,-0.104337673,0.40060008,0.047750577999999995,13.254068799999999,25.38901431,-0.242698904,11.00735664,0.10999999,-29.87510644,399.5062343,12.404541,96617.56709,1.147976455,0.9892943359999999,0.469864425,-1.7404985919999998,0.250224279,-0.1212224,0.21688739399999998,0.0,-0.059028855,1.6169292,0.6903080640000001,0.021342525,-0.020379967,0.722911836,1.0,398714138.0,327364743.2,400121.3899,14.24378847,0.017073415,14.22964164,-0.0034126829999999997,1.568833801,0,0,0.121224245,39.8714138,32.7364372,-0.17211001,4.653805561,0.040361667999999996,-0.6658012529999999,16.75043203,0.312093683,-0.91521695,20.14575131,-0.024606182,1.639250162,0.1,-0.214293697,-0.13099542,0.000233937,1.0,10898070,1,0,0,0,0
10936421,-0.04786789599999999,-0.166632173,-0.057079984,1.0,0.0,1471.0,1500.0,2000.0,1523.0,1476.0,1416.0,18.21792446,18.57374982,17.18300859,17.18633532,17.52206294,17.370129300000002,17.70944727,323.959947,323.959947,12.39999391,-0.00010910299999999999,-0.0063224069999999995,0.002862584,0.024574883999999998,-0.008006213,-0.12011430000000001,2.0,-1.0,0.0,11,0,0,1,0,0.0,0,0,0,0,0,0.0,-0.068667942,2.477814754,2.34467444,-11.769217900000001,251.64677799999998,65.06795661,-0.003687515,-0.011424921000000001,0.0,-0.001961974,12.62648157,0.00770014,-9.913987208,3344830000000000.0,966.1610314,12.40447622,0.24891024399999997,-0.135166659,0.221587848,16.52972105,-0.319294604,-9.905571606,0.292789405,0.021171008999999998,-0.05123343599999999,3344830000000000.0,-0.07782293900000001,-0.08982294099999999,0.40060008,0.18742313300000002,13.254078400000001,25.57460345,-0.246410491,10.42496027,0.10999999,-31.5741739,399.50698430000006,12.404510499999999,96617.55641,1.147976482,0.002921238,1.49080143,-2.769017259,0.26371842,-0.054357771,0.14000253199999999,0.0,-0.048763472999999995,1.6169292,0.690404245,0.017631794,-0.01683659,0.72301249,1.0,398714138.0,327364811.0,400124.1894,15.11351822,0.015207041000000001,15.10310414,-0.018343669,1.569029267,0,0,0.083016603,39.8714138,32.7364372,-0.186269403,5.267485174,0.049536317,-0.68043011,17.46858435,0.305400657,-1.070077757,18.25034736,0.18491569,1.6467964309999998,0.1,-0.221235178,-0.132909959,0.000233937,1.0,10936421,1,0,0,0,0
10970772,-0.055737534000000005,-0.15667599,-0.052033205,1.0,0.0,1473.1900380000002,1500.0,2000.0,1527.0,1472.0,1419.570114,18.81637154,19.18384786,17.95843642,17.96190176,18.31277977,18.09225035,18.44567465,328.0242973,328.0242973,12.39980699,-5.96e-05,-0.0063646959999999995,0.0029860040000000004,0.024512525,-0.007917545,-0.120161895,2.0,-1.0,0.0,11,0,0,1,0,0.0,0,0,0,0,0,0.0,-0.057429682999999995,2.485351327,2.346962079,-12.32689501,251.03308450000003,65.69499085,-0.003899115,-0.011956902,0.0,-0.002102032,11.67937547,0.156207261,-9.952022175,3344830000000000.0,966.169241,12.40446444,0.261569753,-0.078625855,0.165912808,15.20170055,-0.231256606,-9.697635296,0.297710827,0.018349028,-0.151976211,3344830000000000.0,-0.06330820599999999,-0.075308209,0.40060008,0.327095688,13.254088000000001,25.7601926,-0.250122078,9.842563907999999,0.10999999,-33.27324135,399.50169569999997,12.404510499999999,96617.63911,1.147977345,-0.16623063400000002,0.863123038,-3.1993486989999997,0.283856615,0.010506933999999999,0.032879433,0.0,-0.03854921,1.6169292,0.6904805009999999,0.013939047,-0.013310388000000001,0.723092397,1.0,398714138.0,327364878.7,400126.989,15.98324798,0.013340668,15.97656665,-0.033274655,1.569224732,0,0,0.044808962,39.8714138,32.7364372,-0.196078361,5.92448511,0.057250080999999994,-0.6898316520000001,18.06575465,0.312893411,-1.137541505,16.65828648,0.38172788799999996,1.652784524,0.1,-0.226691705,-0.125166616,0.000233937,1.0,10970772,1,0,0,0,0
11005123,-0.053675006,-0.136917383,-0.042484053,1.0,0.0,1478.19764,1500.0,2000.0,1526.19764,1472.80236,1431.0,19.26334625,19.63967877,18.73386425,18.73746821,19.10349661,18.81437141,19.18190202,332.0886476,332.0886476,12.39962006,-1e-05,-0.006406984,0.0031094240000000004,0.024450166000000002,-0.007828877,-0.12020949,2.0,-1.0,0.0,11,0,0,1,0,0.0,0,0,0,0,0,0.0,-0.046191422999999995,2.4928879,2.3492497180000003,-12.88457213,250.41939109999998,66.32202508,-0.004101515,-0.012470858999999999,0.0,-0.002258115,10.73226937,0.30471438100000003,-9.990057142000001,3344830000000000.0,966.1774507000001,12.40445266,0.283205802,-0.015465398,0.079732515,13.75676022,-0.276789625,-9.797177459,0.30263224899999996,0.015527046000000001,-0.252718987,3344830000000000.0,-0.048793474,-0.060793477,0.40060008,0.46676824200000006,13.2540976,25.94578174,-0.253833665,9.260167545,0.10999999,-34.97230881,399.62562599999995,12.40448,96616.2027,1.147960327,0.781702927,0.490067875,-3.253639278,0.300047275,0.035034391,-0.067773773,0.0,-0.028367617,1.6169292,0.69053988,0.010257774,-0.009795142,0.72315457,1.0,398714138.0,327364946.5,400129.7886,16.85297774,0.011474295,16.85002915,-0.048205640999999994,1.569420197,0,0,0.00660132,39.8714138,32.7364372,-0.20588732,6.581485047,0.064963845,-0.699233195,18.66292496,0.320386165,-1.205005253,15.0662256,0.578540085,1.658772617,0.1,-0.231586861,-0.120779568,0.000233937,1.0,11005123,1,0,0,0,0
11039473,-0.058027561,-0.132878759,-0.030370352000000003,1.0,0.0,1484.2052410000001,1500.0,2000.0,1529.0,1470.0,1433.6157230000001,19.70218337,20.08706566,19.08951131,19.09256141,19.46554764,19.14759636,19.52165748,333.67505550000004,333.67505550000004,12.39902555,1.83e-05,-0.006431824,0.0031770540000000003,0.023628156,-0.007405571999999999,-0.120124118,2.0,-1.0,0.0,11,0,0,1,0,0.0,0,0,0,0,0,0.0,-0.035505552999999995,2.50101179,2.351664696,-13.44768971,249.7791529,66.60127154,-0.004298695,-0.01297053,0.0,-0.002413022,9.738094461000001,0.125624411,-9.932037846,3344830000000000.0,966.1755975,12.40444114,0.291467586,0.017140462,-0.020638204,12.88011583,-0.124643608,-9.940704915,0.294911587,-0.000895113,-0.28352694100000003,3344830000000000.0,-0.017388787,-0.029388789,0.40060006,0.620782119,13.25410329,26.04795897,-0.25587709399999997,8.697407485,0.10999999,-36.80470561,399.5452749,12.40448,96617.11007000001,1.147971047,0.301879248,0.185274479,-2.988298069,0.30370852800000003,0.043527816,-0.192111864,0.0,-0.018205014,1.6169292,0.6905803220000001,0.006583087,-0.006286186,0.723196907,1.0,398714138.0,327365018.3,400132.4705,17.65370174,0.004510902,17.653309699999998,-0.059215843,1.569875689,0,0,0.0,39.8714138,32.7364372,-0.21647981300000002,7.3175129960000005,0.07354919900000001,-0.714566218,19.19233779,0.325407285,-1.312594434,13.74917805,0.501999406,1.657923957,0.1,-0.23647737600000002,-0.11018663,0.000233937,1.0,11039473,1,0,0,0,0
11077824,-0.064317175,-0.122678397,-0.014504745,1.0,0.0,1492.212843,1500.0,2000.0,1532.0,1467.0,1438.0,20.09564058,20.48820359,19.25609681,19.25828117,19.63453544,19.30566963,19.68284923,333.236222,333.236222,12.3980979,3.72e-05,-0.006448806,0.003219557,0.022464012999999998,-0.006831551999999999,-0.11997885800000001,2.0,-1.0,0.0,11,0,0,1,0,0.0,0,0,0,0,0,0.0,-0.025158167000000002,2.509495567,2.3541577030000003,-14.01414103,249.1226489,66.66740548,-0.0044927790000000006,-0.013448368999999998,0.0,-0.002547961,8.722720627000001,-0.20100928699999998,-9.83075747,3344830000000000.0,966.1692122000002,12.40442974,0.297435985,0.032741746,-0.148581613,11.73005156,0.126390893,-10.02366858,0.281497161,-0.023442544,-0.28283753300000003,3344830000000000.0,0.035702272,0.023702273,0.400600015,0.793209974,13.25410395,26.04303694,-0.25577864,8.159860058,0.10999999,-38.80829471,399.5090664,12.40446725,96617.55846,1.14797636,0.049530766,0.004853853,-2.24026324,0.309506013,0.029326573999999998,-0.274413913,0.0,-0.008048616,1.6169292,0.690603401,0.00291048,-0.0027792159999999997,0.723221067,1.0,398714138.0,327365105.7,400134.7101,18.19494999,-0.021618323999999998,18.19269176,-0.055483097,1.571308933,0,0,0.0,39.8714138,32.7364372,-0.227402832,8.086878118,0.082502224,-0.7324013779999999,19.69316782,0.329385771,-1.4371101240000002,12.54814211,0.310147565,1.654191281,0.1,-0.23999714100000002,-0.10841623800000001,0.000233937,1.0,11077824,1,0,0,0,0
11124175,-0.062767408,-0.10610204300000001,0.003974728,1.0,0.0,1501.0,1500.0,2000.0,1531.0,1468.0,1446.0,20.54358764,20.94480912,19.4226823,19.42400092,19.80352325,19.46374291,19.84404099,332.79738849999995,332.79738849999995,12.39717026,5.610000000000001e-05,-0.006465788,0.0032620609999999997,0.021299869,-0.006257533000000001,-0.119833599,2.0,-1.0,0.0,11,0,0,1,0,0.0,0,0,0,0,0,0.0,-0.014810781,2.517979344,2.356650711,-14.58059236,248.466145,66.73353943,-0.004679785,-0.013890717,0.0,-0.002653345,7.72741803,-0.508799509,-9.738135005,3344830000000000.0,966.1630046,12.40441831,0.31061784,0.019769175,-0.259871487,10.62079253,0.211012965,-10.06503292,0.268052162,-0.042978796,-0.277245801,3344830000000000.0,0.08879333199999999,0.076793335,0.40059997,0.96563783,13.25410461,26.038114899999997,-0.25568018600000003,7.622312632000001,0.10999999,-40.8118838,399.6576816,12.404449000000001,96615.81071,1.147955568,-0.3674187,-0.540477058,-0.924215078,0.299895101,0.0043643829999999995,-0.313870453,0.0,0.002111479,1.6169292,0.6906088420000001,-0.00076354,0.000729104,0.723226822,1.0,398714138.0,327365193.0,400136.9498,18.73619824,-0.04774755,18.73207383,-0.05175035,1.5727421769999999,0,0,0.0,39.8714138,32.7364372,-0.237944166,8.854958811,0.091254893,-0.7495331890000001,20.18395437,0.33246417699999997,-1.533305567,11.36323153,0.13132107,1.649835596,0.1,-0.243889432,-0.095355735,0.000233937,1.0,11124175,1,0,0,0,0
11166526,-0.066699341,-0.09640217,0.018016883,1.0,0.0,1508.2280460000002,1500.0,2000.0,1533.0,1466.0,1451.0,20.82740908,21.23443587,19.58926779,19.58972068,19.97251105,19.62181618,20.00523275,332.35855499999997,332.35855499999997,12.39624261,7.49e-05,-0.00648277,0.0033045640000000003,0.020135726,-0.005683514000000001,-0.11968834,2.0,-1.0,0.0,11,0,0,1,0,0.0,0,0,0,0,0,0.0,-0.004463395,2.526463122,2.3591437180000003,-15.14704368,247.80964100000003,66.79967337,-0.004862669,-0.014297521,0.0,-0.002734211,7.055605927,-0.512887226,-9.785053109,3344830000000000.0,966.1596599,12.40440653,0.301030142,-0.020236145,-0.31174200399999996,9.49338272,0.194326492,-10.14471517,0.254114418,-0.013983522,-0.192642753,3344830000000000.0,0.141884391,0.12988439599999999,0.400599925,1.138065686,13.25410526,26.03319286,-0.255581732,7.084765205,0.10999999,-42.815472899999996,399.6417328,12.40443149,96616.00835,1.1479579690000001,-0.31874057899999997,-0.677676835,0.269932907,0.291195496,-0.018985729,-0.319915255,0.0,0.012288721,1.6169292,0.690595772,-0.004443737,0.004243323,0.723213102,1.0,398714138.0,327365280.4,400139.1894,19.27744649,-0.073876775,19.27145589,-0.048017604000000005,1.5741754209999999,0,0,0.0,39.8714138,32.7364372,-0.243684452,9.606883218,0.097487369,-0.757817876,20.54840828,0.324220861,-1.273272763,10.38115492,0.116334807,1.6376433369999999,0.1,-0.246981001,-0.093358303,0.000233937,1.0,11166526,1,0,0,0,0
11209754,-0.068820237,-0.090825584,0.028076652,1.0,0.0,1513.235647,1500.0,2000.0,1534.0,1465.0,1454.471294,21.19475044,21.60886671,19.75585329,19.75544043,20.14149885,19.77988945,20.16642451,331.9197215,331.9197215,12.39531496,9.379999999999999e-05,-0.006499751,0.003347068,0.018971583,-0.005109494,-0.119543081,2.0,-1.0,0.0,11,0,0,1,0,0.0,0,0,0,0,0,0.0,0.005883991,2.534946899,2.361636725,-15.713495000000002,247.15313700000002,66.86580732,-0.005042238,-0.014671388999999998,0.0,-0.002804248,6.383793825,-0.516974944,-9.831971212000001,3344830000000000.0,966.1563152999998,12.40439475,0.294384951,-0.037365708,-0.31238351,8.466296227,-0.33125392800000003,-9.883843258999999,0.240176673,0.015011751,-0.108039704,3344830000000000.0,0.19497545,0.182975458,0.40059988,1.310493541,13.25410592,26.02827082,-0.255483278,6.5472177789999995,0.10999999,-44.819062,399.61991960000006,12.404419,96616.26843,1.147961072,-0.940658312,-0.586004973,0.796112885,0.270877456,-0.025435112000000003,-0.289155217,0.0,0.022488695,1.6169292,0.690565999,-0.008132051999999999,0.007765291,0.723181948,1.0,398714138.0,327365367.7,400141.4291,19.81869474,-0.100006001,19.81083795,-0.044284857000000004,1.575608665,0,0,0.0,39.8714138,32.7364372,-0.249424738,10.35880763,0.103719844,-0.766102563,20.91286219,0.315977545,-1.013239958,9.399078322000001,0.101348544,1.6254510780000002,0.1,-0.24982117899999998,-0.077702799,0.000233937,1.0,11209754,1,0,0,0,0
11247228,-0.07007970000000001,-0.084181189,0.032992171,1.0,0.0,1516.0,1500.0,2000.0,1535.0,1464.0,1457.756751,21.38680802,21.80470921,19.92243878,19.92116019,20.31048665,19.93796272,20.32761627,331.480888,331.480888,12.39438732,0.00011265899999999999,-0.006516733,0.0033895709999999996,0.01780744,-0.004535475,-0.11939782199999999,2.0,-1.0,0.0,11,0,0,1,0,0.0,0,0,0,0,0,0.0,0.016231376999999998,2.543430677,2.364129732,-16.27994633,246.49663309999997,66.93194127,-0.005218945,-0.015019583999999999,0.0,-0.002874031,5.755889709,-0.472316456,-10.10101282,3344830000000000.0,966.1547086,12.40438313,0.270461939,-0.03210027,-0.24510696699999998,7.177504457,-0.715143332,-9.713638536,0.22830652,0.045210914000000005,-0.019450102,3344830000000000.0,0.25051993300000003,0.23851994199999998,0.400599816,1.475620555,13.25411343,26.0112177,-0.255142066,6.032065379,0.10999999,-46.77876092,399.611014,12.40439557,96616.34022,1.14796193,-0.850874853,0.692954018,2.131309049,0.256982595,-0.005565634,-0.22183112100000002,0.0,0.032722952,1.6169292,0.690516385,-0.01183253,0.011298875,0.7231299659999999,1.0,398714138.0,327365455.1,400143.6687,20.35994299,-0.126135227,20.35022002,-0.04055211,1.577041909,0,0,0.0,39.8714138,32.7364372,-0.25560336100000003,11.15406997,0.109761773,-0.762126262,21.24751339,0.311161733,-0.7801024059999999,8.476522207,0.135394334,1.613510719,0.1,-0.25359855600000003,-0.064269847,0.000233937,1.0,11247228,1,0,0,0,0
11289579,-0.071785343,-0.07753232,0.034400084,1.0,0.0,1517.0,1500.0,2000.0,1535.0,1464.0,1461.0,21.69087483,22.11470095,20.08902427,20.08687995,20.47947445,20.096035999999998,20.48880803,331.0420545,331.0420545,12.39345967,0.00013152200000000002,-0.006533715,0.003432075,0.016643296999999998,-0.0039614559999999995,-0.119252563,2.0,-1.0,0.0,11,0,0,1,0,0.0,0,0,0,0,0,0.0,0.026578763,2.5519144540000003,2.36662274,-16.84639765,245.84012909999998,66.99807521,-0.005392868,-0.015349286,0.0,-0.002963047,5.186817969,-0.362342856,-10.66767803,3344830000000000.0,966.1554308,12.40437172,0.246472862,0.003533265,-0.17275860899999998,6.484361096000001,-0.712423903,-9.730683254,0.219206736,0.07702317,0.074481089,3344830000000000.0,0.323176,0.311176008,0.400599624,1.589827291,13.25416868,25.90955544,-0.25310772,5.673108797,0.10999999,-48.43234451,399.66940719999997,12.404388,96615.70233,1.147954427,-0.33938481200000004,0.503812406,2.2790784619999997,0.24056770600000002,0.024680457000000003,-0.13601802699999999,0.0,0.042993765999999996,1.6169292,0.690449602,-0.015545931,0.014844799999999998,0.7230600540000001,1.0,398714137.4,327365548.0,400145.5903,20.70717243,-0.14908381699999998,20.69876359,-0.04,1.5780310880000001,0,0,0.0,39.8714138,32.7364372,-0.262330942,12.00360744,0.115565068,-0.7427946740000001,21.54484059,0.31063842399999997,-0.580647653,7.628507744,0.230846379,1.6018858319999998,0.1,-0.256105829,-0.059997761,0.000233937,1.0,11289579,1,0,0,0,0
11327930,-0.074262142,-0.075919363,0.031603054,1.0,0.0,1515.741548,1500.0,2000.0,1537.0,1462.0,1462.0,21.88185359,22.30949763,20.25560977,20.2525997,20.64846225,20.25410927,20.64999978,330.603221,330.603221,12.39253202,0.000150385,-0.006550696,0.003474578,0.015479153,-0.0033874359999999997,-0.11910730300000001,2.0,-1.0,0.0,11,0,0,1,0,0.0,0,0,0,0,0,0.0,0.036926149,2.5603982309999997,2.369115747,-17.41284897,245.18362510000003,67.06420916,-0.005566837,-0.015664045,0.0,-0.003087727,4.617746228,-0.25236925600000004,-11.23434324,3344830000000000.0,966.1561528999999,12.40436032,0.232518857,0.022596573999999998,-0.085175566,6.142317368,-0.578728913,-9.789839764,0.21010695199999999,0.108835426,0.16841228,3344830000000000.0,0.395832067,0.383832073,0.40059943200000003,1.7040340269999998,13.25422392,25.80789319,-0.251073373,5.314152215,0.10999999,-50.085928100000004,399.63003419999995,12.404388,96616.14099,1.147959566,-0.20551582300000001,0.710727012,2.578991665,0.23367386699999998,0.054295703,-0.033723731,0.0,0.053306648,1.6169292,0.690363708,-0.019274121,0.018404846000000002,0.7229700720000001,1.0,398714136.6,327365641.9,400147.4567,21.02072314,-0.171480296,21.01418049,-0.04,1.578943185,0,0,0.0,39.8714138,32.7364372,-0.26905852399999997,12.85314491,0.121368362,-0.723463086,21.84216779,0.31011511399999997,-0.3811929,6.780493282,0.326298424,1.590260945,0.1,-0.258790423,-0.045961800000000004,0.000233937,1.0,11327930,1,0,0,0,0
11362280,-0.07613398099999999,-0.069690815,0.025439792000000003,1.0,0.0,1512.0,1500.0,2000.0,1537.2660529999998,1461.7339470000002,1465.0,22.08862205,22.52024321,20.42219526,20.41831946,20.81745005,20.41218254,20.81119154,330.1643875,330.1643875,12.39160438,0.000169247,-0.006567678,0.003517082,0.01431501,-0.002813417,-0.118962044,2.0,-1.0,0.0,11,0,0,1,0,0.0,0,0,0,0,0,0.0,0.047273535,2.568882009,2.371608754,-17.97930029,244.52712119999998,67.1303431,-0.005741948,-0.015969675,0.0,-0.003257633,4.096469035,-0.14807361900000002,-12.06734216,3344830000000000.0,966.1579857999999,12.40430261,0.23707403800000001,0.04858788,-0.011130649,5.828405192999999,-0.523559481,-10.06091375,0.19778125800000002,0.141251668,0.19203835600000002,3344830000000000.0,0.468488134,0.456488138,0.40059924,1.8182407630000001,13.25427917,25.70623093,-0.249039027,4.955195633,0.10999999,-51.7395117,399.61742430000004,12.404358,96616.2653,1.147961021,-0.35538466799999996,0.8159040190000001,2.3822082719999997,0.218915492,0.0883951,0.066080468,0.0,0.063665577,1.6169292,0.6902589929999999,-0.023018438,0.021980292999999998,0.722860411,1.0,398714135.9,327365735.8,400149.3231,21.33427385,-0.193876775,21.32959739,-0.04,1.5798552819999998,0,0,0.0,39.8714138,32.7364372,-0.270712651,13.66996133,0.124559281,-0.707093486,22.07245876,0.300196733,-0.49611325799999995,6.166896309,0.044477159,1.586008335,0.1,-0.261881558,-0.040107767,0.000233937,1.0,11362280,1,0,0,0,0
11400631,-0.077711532,-0.069374196,0.017665741000000002,1.0,0.0,1508.726345,1500.0,2000.0,1538.0,1461.0,1465.0,22.30454566,22.74032679,20.58878075,20.58403921,20.98643786,20.57025582,20.9723833,329.725554,329.725554,12.39067673,0.00018811,-0.00658466,0.003559585,0.013150867,-0.002239398,-0.118816785,2.0,-1.0,0.0,11,0,0,1,0,0.0,0,0,0,0,0,0.0,0.057620921,2.577365786,2.374101761,-18.54575162,243.87061719999997,67.19647705,-0.005915015,-0.016260463,0.0,-0.003482688,3.587416885,-0.045230309,-12.96846476,3344830000000000.0,966.1601027999999,12.40423306,0.218785106,0.079212875,0.076680793,5.046808626,-0.42383680100000004,-10.64722368,0.18463043,0.1738224,0.197681566,3344830000000000.0,0.541144201,0.529144203,0.40059904799999996,1.932447499,13.25433442,25.60456867,-0.24700468,4.596239051,0.10999999,-53.39309529,399.6765023,12.40435489,96615.5833,1.147952949,-0.506568319,1.8288686669999998,1.480742571,0.204241903,0.131591553,0.170283252,0.0,0.074073486,1.6169292,0.690135802,-0.026779864,0.025572077999999998,0.7227313959999999,1.0,398714135.1,327365829.6,400151.1894,21.64782457,-0.216273255,21.64501428,-0.04,1.5807673780000002,0,0,0.0,39.8714138,32.7364372,-0.27120984600000003,14.47931617,0.127154484,-0.691399326,22.28746304,0.28813593600000004,-0.6827225140000001,5.606755003,-0.323376069,1.58343687,0.1,-0.264996546,-0.027439055,0.000233937,1.0,11400631,1,0,0,0,0
11442982,-0.078665835,-0.067076439,0.008810669,1.0,0.0,1504.718744,1500.0,2000.0,1539.0,1460.0,1466.0,22.42198292,22.86020028,20.75536624,20.74975897,21.15542566,20.72832909,21.13357506,329.2867205,329.2867205,12.38974909,0.000206973,-0.006601642,0.003602088,0.011986723999999999,-0.001665378,-0.118671526,2.0,-1.0,0.0,11,0,0,1,0,0.0,0,0,0,0,0,0.0,0.067968307,2.585849564,2.376594769,-19.11220294,243.21411319999999,67.26261099,-0.006088326999999999,-0.016557546,0.0,-0.003767119,3.103565103,0.042099884000000004,-13.78617593,3344830000000000.0,966.161294,12.40415201,0.210084887,0.10418504,0.159983837,4.617561804,-0.25753735699999997,-11.09408031,0.170360087,0.20122412899999997,0.19608417,3344830000000000.0,0.613800267,0.601800268,0.400598856,2.046654235,13.25438967,25.50290641,-0.24497033399999998,4.237282469,0.10999999,-55.04667888,399.68229019999995,12.40430641,96615.50717000001,1.1479520490000001,-0.621792579,0.755689962,0.5178440320000001,0.200897574,0.16977243,0.202577848,0.0,0.084539901,1.6169292,0.689991841,-0.030561652,0.029183304,0.722580639,1.0,398714134.4,327365923.5,400153.0558,21.96137528,-0.238669734,21.96043118,-0.04,1.581679475,0,0,0.0,39.8714138,32.7364372,-0.27229057,15.30486798,0.12892236199999998,-0.682049335,22.49352984,0.264128226,-0.896405954,5.040929668,-0.769180647,1.582590775,0.1,-0.267687277,-0.014775646000000002,0.000233937,1.0,11442982,1,0,0,0,0
11485333,-0.080076445,-0.064765533,0.001348979,1.0,0.0,1501.0,1500.0,2000.0,1539.0,1460.0,1467.7111419999999,22.59706922,23.03865016,20.92195174,20.91547873,21.32441346,20.88640236,21.29476682,328.847887,328.847887,12.38882144,0.00022583599999999998,-0.0066186230000000006,0.0036445920000000003,0.01082258,-0.0010913589999999999,-0.11852626699999999,2.0,-1.0,0.0,11,0,0,1,0,0.0,0,0,0,0,0,0.0,0.07831569299999999,2.594333341,2.379087776,-19.67865426,242.55760930000002,67.32874494,-0.006260435999999999,-0.016851164,0.0,-0.004108179,2.74699926,0.051074022999999996,-14.18257963,3344830000000000.0,966.1578087000001,12.4040129,0.203562301,0.153179849,0.206897672,3.949389978,-0.210694826,-12.107733300000001,0.150435119,0.202517456,0.157914804,3344830000000000.0,0.703797804,0.691797804,0.40059882,2.170225771,13.254452800000003,25.37398664,-0.242390677,3.9499369719999997,0.10999999,-56.53778253,399.6253,12.40425783,96616.17108,1.1479599090000001,-0.5880826,0.667433311,0.7302736890000001,0.179683313,0.20547465199999998,0.216965081,0.0,0.095060404,1.6169292,0.689829481,-0.034362204,0.03281245,0.7224106490000001,1.0,398714133.4,327366022.1,400156.12100000004,22.21129526,-0.270288058,22.21129526,-0.065821164,1.5829778559999998,0,0,0.0,39.8714138,32.7364372,-0.275948126,16.2019449,0.127036807,-0.700714908,22.66012916,0.18736349800000002,-1.229647755,4.450003913,-1.5592148369999999,1.589363834,0.1,-0.27017193300000003,-0.010781009,0.000233937,1.0,11485333,1,0,0,0,0
11519684,-0.080463837,-0.065782463,-0.003822895,1.0,0.0,1498.0,1500.0,2000.0,1539.296459,1459.703541,1467.0,22.71202311,23.15579974,21.08853723,21.08119848,21.49340126,21.04447563,21.45595858,328.4090535,328.4090535,12.38789379,0.000244698,-0.006635605,0.003687095,0.009658436999999999,-0.00051734,-0.11838100800000001,2.0,-1.0,0.0,11,0,0,1,0,0.0,0,0,0,0,0,0.0,0.088663079,2.602817118,2.381580783,-20.24510558,241.90110530000004,67.39487889,-0.006446136,-0.017154326,0.0,-0.004526245,2.390433416,0.060048160999999996,-14.57898333,3344830000000000.0,966.1543234,12.40387379,0.179807259,0.191301246,0.22604731399999997,3.495353158,-0.078626688,-13.00696864,0.13051015,0.203810782,0.11974543900000001,3344830000000000.0,0.7977850120000001,0.7857850120000001,0.40059882,2.2959518230000002,13.25451774,25.23879587,-0.23968556300000002,3.6790667060000004,0.10999999,-57.99150518,399.6253,12.40418363,96616.19,1.1479602,-0.228165247,-0.384516042,-0.5675691820000001,0.161417598,0.222735022,0.19634512199999998,0.0,0.105644671,1.6169292,0.6896455709999999,-0.038184763999999996,0.036462608,0.722218021,1.0,398714132.3,327366125.5,400160.4137,22.39606621,-0.31134827,22.39606621,-0.118079616,1.584671739,0,0,0.0,39.8714138,32.7364372,-0.27960568199999997,17.09902182,0.125151252,-0.71938048,22.82672848,0.110598769,-1.5628895569999999,3.859078158,-2.349249028,1.5961368930000002,0.1,-0.272595845,0.003213577,0.000233937,1.0,11519684,1,0,0,0,0
