timestamp,control[0],control[1],control[2],control[3],control[4],output[2],output[3],output[4],output[5],output[6],output[7],indicated_airspeed_m_s,true_airspeed_m_s,indicated_airspeed_m_s.1,equivalent_airspeed_m_s,true_airspeed_m_s.1,equivalent_ground_minus_wind_m_s,true_ground_minus_wind_m_s,differential_pressure_raw_pa,differential_pressure_filtered_pa,temperature,gyro_bias[0],gyro_bias[1],gyro_bias[2],accel_bias[0],accel_bias[1],accel_bias[2],instance_count,seq_reached,seq_current,seq_total,item_changed_index,item_do_jump_remaining,valid,warning,finished,failure,stay_in_failsafe,flight_termination,item_do_jump_changed,execution_mode,nav_roll,nav_pitch,nav_bearing,target_bearing,xtrack_error,wp_dist,acceptance_radius,rollspeed_integ,pitchspeed_integ,yawspeed_integ,additional_integ1,x,y,z,temperature.1,pressure,temperature.2,gyro_rad[0],gyro_rad[1],gyro_rad[2],accelerometer_m_s2[0],accelerometer_m_s2[1],accelerometer_m_s2[2],x.1,y.1,z.1,temperature.3,altitude_sp,altitude_filtered,height_rate_setpoint,height_rate,airspeed_sp,airspeed_filtered,airspeed_derivative_sp,airspeed_derivative,throttle_integ,pitch_integ,baro_alt_meter,baro_temp_celcius,baro_pressure_pa,rho,xyz[0],xyz[1],xyz[2],xyz[0].1,xyz[1].1,xyz[2].1,roll_body,pitch_body,yaw_body,yaw_sp_move_rate,q_d[0],q_d[1],q_d[2],q_d[3],thrust_body[0],lat,lon,alt,vel_m_s,vel_n_m_s,vel_e_m_s,vel_d_m_s,cog_rad,ref_lat,ref_lon,x.2,y.2,z.2,vx,vy,vz,ax,ay,az,yaw,dist_bottom,roll,pitch,yaw.1,thrust_body[0].1,isTakeoff,isClimbing,isDescending,isCruise,isLand
12996000,0.025679672,0.026575262000000002,-0.003823528,0.15,0.0,900.0,900.0,900.0,900.0,900.0,900.0,0.70116186,0.7148595999999999,1.1347691999999998,1.1347691999999998,1.1569378000000001,0.012660473,0.012907805,0.788717,0.788717,12.404602,-0.001182983,-0.005864966,0.000855216,0.012953349,0.001044344,-0.12958068,2.0,-1.0,0.0,15,0,0,1,0,0.0,0,0,0,0,0,0.0,0.0,1.5549458,1.5553863,0.014969123999999999,220.3035,28.627808,3.26e-06,1.07e-05,0.0,7.43e-05,-0.16298635,0.11850625,-9.944972,2754.1082,966.1632,12.404602,-0.0028371209999999997,-0.010165150999999999,-0.005074026,-0.16613898,0.09887949,-9.86392,0.001235787,-0.015373356999999999,0.0005352369999999999,2754.1082,-0.012685731,-0.024685732999999998,0.40060008,-0.23831798,10.195354,6.9178896,0.0655493,17.368952,0.22018132,-20.331959,399.61593999999997,12.404602,96616.32,1.1479617,-0.30385354,-0.35487914,0.023823634,0.004707379,0.003255787,-0.004992249,0.0,0.0,1.6081135,0,0.69379085,0.0,0.0,0.7201766,1.0,398714138.0,327368418.0,400121.0,0.0,0.0,-0.01,-0.02,5.2506485000000005,39.8714138,32.7368418,-0.005569869,-0.004582005,-0.00912457,0.000628188,0.011471578,-0.007672836999999999,0.068049215,0.050554104,0.030917395,1.6088078000000001,0.1,0.027422171000000002,0.037054177,-0.005631699,1.0,1,0,0,0,0
13038455,0.030288673,0.026713441,-0.004997658,0.15,0.0,900.0,900.0,900.0,900.0,900.0,900.0,1.116215563,1.138034383,1.92219228,1.922559919,1.960122645,0.8418002990000001,0.85824948,10.83839329,10.83839329,12.40459812,-0.001153817,-0.005895084,0.000943403,0.012922775,0.001138365,-0.129564404,2.0,-1.0,0.0,15,0,0,1,0,0.0,0,0,0,0,0,0.0,-0.013571223,1.5541697019999998,1.555167345,0.061412635,219.6240363,31.12671794,3.2e-06,9.03e-06,0.0,9e-05,-0.16386689699999998,0.11515634699999999,-9.950997775,2754.1082,966.1644735,12.404602,-0.003201485,-0.011963953999999999,0.001580292,-0.127045803,0.23436162300000002,-9.866389655,0.000468754,-0.014520166000000001,-0.000831151,2754.1082,-0.023183653,-0.035183655,0.40060008,-0.25182408,10.83899681,8.159635425,0.053587237,17.84443959,0.19699453100000003,-19.93028587,399.5632177,12.404602,96616.91084,1.147968708,0.225808707,-0.22318587199999998,-0.318639328,-0.000952362,0.0048649140000000006,-0.001517133,0.0,0.0,1.6081135,0,0.69379085,0.0,0.0,0.7201766,1.0,398714138.0,327368418.0,400120.3753,0.0,0.0,-0.007917584,-0.0075055009999999995,5.224370945,39.8714138,32.7368418,-0.005353653000000001,-0.004971602,-0.00893869,0.001227073,0.010791021000000001,-0.006480823,0.030387981,0.019774596999999998,0.007138299,1.6086868069999998,0.1,0.02782052,0.036221562,-0.005631699,1.0,1,0,0,0,0
13077820,0.028891955,0.025759514,-0.004705064,0.15,0.0,900.0,900.0,900.0,900.0,900.0,900.0,0.25551191100000004,0.26050075300000003,2.70961536,2.7103506389999996,2.7633074910000004,1.6709401240000001,1.703591155,20.88806957,20.88806957,12.40459424,-0.001124652,-0.005925203,0.001031591,0.012892201,0.001232386,-0.129548129,2.0,-1.0,0.0,15,0,0,1,0,0.0,0,0,0,0,0,0.0,-0.027142447000000004,1.553393604,1.55494839,0.107856146,218.94457250000002,33.62562789,2.51e-06,7.41e-06,0.0,0.000102363,-0.164747444,0.111806444,-9.957023551,2754.1082,966.1657469,12.404602,0.002253236,-0.012117203,0.003948076,-0.154786491,0.212837091,-9.889419182000001,-0.00029827900000000004,-0.013666973999999998,-0.002197539,2754.1082,-0.033681576,-0.045681577,0.40060008,-0.265330179,11.48263962,9.401381249,0.041625175,18.31992717,0.173807742,-19.52861274,399.6006857,12.404602,96616.47787,1.147963549,0.330071053,-0.719479853,0.12993548,0.004633744,0.005801722,-0.0024271,0.0,0.0,1.6081135,0,0.69379085,0.0,0.0,0.7201766,1.0,398714138.0,327368418.0,400119.7506,0.0,0.0,-0.005835167,0.004988998,5.198093388999999,39.8714138,32.7368418,-0.0051374359999999996,-0.0053611990000000005,-0.00875281,0.001825958,0.010110464,-0.005288809,-0.007273253,-0.01100491,-0.016640796,1.608565815,0.1,0.028241171000000002,0.035242302,-0.005631699,1.0,1,0,0,0,0
13122729,0.028325271000000003,0.026657592,-0.00430647,0.15,0.0,900.0,900.0,900.0,900.0,900.0,900.0,0.984582277,1.003818919,3.49703844,3.4981413580000003,3.566492336,2.50007995,2.54893283,30.93774586,30.93774586,12.40459036,-0.0010954860000000001,-0.0059553209999999995,0.001119778,0.012861626999999999,0.0013264070000000002,-0.129531853,2.0,-1.0,0.0,15,0,0,1,0,0.0,0,0,0,0,0,0.0,-0.04071367,1.552617506,1.554729436,0.15429965699999998,218.2651088,36.12453783,2.83e-06,7.26e-06,0.0,0.00011741,-0.197978092,0.12779521,-9.930696355,2754.1082,966.1614255000001,12.404602,-0.004628358,-0.005597787,0.00519718,-0.108564624,0.20806877899999998,-9.842055302999999,-0.002899531,-0.010573511,-0.002580585,2754.1082,-0.044179498,-0.056179499,0.40060008,-0.27883627899999996,12.12628243,10.64312707,0.029663112000000002,18.79541476,0.150620952,-19.12693961,399.5874795,12.404602,96616.61482999999,1.147965223,0.387348925,-0.058550219,-0.051688001,0.002446573,0.00305774,-0.000215196,0.0,-0.294087795,1.6081135,0,0.686300363,0.105515839,-0.101649965,0.712401195,1.0,398714138.0,327368418.0,400119.1258,0.0,0.0,-0.003752751,0.017483497,5.171815833999999,39.8714138,32.7368418,-0.0049313840000000005,-0.00561103,-0.008716073000000001,0.001818688,0.009659912,-0.0042398259999999995,-0.01947584,-0.032359521,-0.028963153,1.6084528790000001,0.1,0.028318733999999998,-0.534227782,-0.005631699,1.0,1,0,0,0,0
13161819,0.027391015,0.026673014,-0.004123519,0.15,0.0,900.0,900.0,900.0,900.0,900.0,900.0,0.667974845,0.681022765,4.284461521,4.285932077,4.369677182,3.329219775,3.394274505,40.98742215,40.98742215,12.40458648,-0.00106632,-0.00598544,0.001207965,0.012831053,0.0014204279999999998,-0.12951557800000002,2.0,-1.0,0.0,15,0,0,1,0,0.0,0,0,0,0,0,0.0,-0.05428489400000001,1.551841408,1.5545104809999999,0.200743168,217.58564500000003,38.62344777,7.25e-06,-0.000255203,0.0,0.000103749,-0.249075839,0.154464806,-9.886500473,2754.1082,966.1540140000001,12.404602,0.001065702,-0.00881665,-0.001328011,-0.168350946,0.22070327,-9.927603255,-0.00651383,-0.006242736,-0.002420526,2754.1082,-0.05467742,-0.066677421,0.40060008,-0.292342378,12.76992524,11.884872900000001,0.01770105,19.27090234,0.12743416300000002,-18.72526648,399.73839019999997,12.404602,96614.87958,1.147944692,-0.448747104,0.14141614,0.252678412,0.002823651,0.004780991,-0.001482963,0.0,-0.270435914,1.6081135,0,0.687457109,0.097084216,-0.093527255,0.71360199,1.0,398714138.0,327368418.0,400118.5011,0.0,0.0,-0.0016703339999999999,0.029977996,5.145538278,39.8714138,32.7368418,-0.004730918,-0.005784041,-0.00876131,0.001478254,0.00933578,-0.0032694559999999996,-0.017685463000000002,-0.048533879,-0.034988483,1.608344372,0.1,0.025426864,-0.497158355,-0.005631699,1.0,1,0,0,0,0
13204274,0.020290949,0.026017803,0.002020338,0.0,0.0,900.0,900.0,900.0,900.0,900.0,900.0,-0.5483557689999999,-0.559074438,5.071884601,5.073722796,5.172862027,4.158359601,4.23961618,51.03709843,51.03709843,12.4045826,-0.001037155,-0.006015558000000001,0.001296152,0.012800478999999998,0.001514449,-0.12949930199999998,2.0,-1.0,0.0,15,0,0,1,0,0.0,0,0,0,0,0,0.0,-0.06785611700000001,1.55106531,1.5542915259999999,0.247186679,216.90618130000001,41.12235771,1.28e-05,-0.0015166860000000002,0.0,-7.53e-05,4.995174535,0.17507794100000001,-9.860172506,2418.456549,966.1490167000002,12.404602,-0.006773129,-0.00784107,-0.000159171,-0.18959393600000002,0.21501861,-9.901658073,-0.008356787,-0.003545017,-0.0020878529999999998,2418.456549,-0.064698176,-0.07669817599999999,0.40060008,-0.299204751,13.25388596,13.13419653,0.002393789,19.55753421,0.10999999,-18.38522334,399.63447599999995,12.404602,96616.12236000001,1.14795937,-0.441294488,0.11766323199999999,-0.108252266,-0.001940131,0.005353921,-0.0010795610000000001,0.0,-0.249016866,1.6081135,0,0.6884184320000001,0.08943633599999999,-0.086159586,0.714599827,1.0,398714138.0,327368418.0,400118.2472,0.0,0.0,0.0,0.03835167,5.111040066,39.8714138,32.7368418,-0.004546204,-0.00595727,-0.008755456,0.001370418,0.00896393,-0.002342766,-0.0039890740000000004,-0.051480082,-0.030357887000000004,1.608240938,0.1,0.019019388999999998,-0.459570569,-0.005631699,1.0,1,0,0,0,0
13246729,0.02247591,0.026633184,0.000430269,1.0,0.0,900.0,900.0,900.0,900.0,900.0,900.0,-1.368477978,-1.395216332,5.859307681000001,5.8615135160000005,5.976046873,4.987499426,5.084957855,61.08677472,61.08677472,12.40457872,-0.001007989,-0.006045676999999999,0.00138434,0.012769903999999999,0.00160847,-0.129483027,2.0,-1.0,0.0,15,0,0,1,0,0.0,0,0,0,0,0,0.0,-0.081427341,1.5502892119999998,1.5540725709999998,0.29363019,216.2267176,43.62126766,-3.1e-05,-0.002499377,0.0,-0.0005306,23.30474462,0.180747845,-9.877930407000001,1254.64478,966.1499759999999,12.404602,-0.002535148,-0.006918372,0.001143643,-0.189004117,0.162611157,-9.905985897,-0.0058292759999999996,-0.0048765729999999995,-0.0013292879999999999,1254.64478,-0.073272805,-0.08527280599999999,0.40060008,-0.285932306,13.25390595,14.40648583,-0.023051598,19.27181025,0.10999999,-18.23195921,399.6522647,12.404602,96615.86183,1.147956282,-0.032625764,0.119052945,-0.020990042,-0.002284988,0.0020468129999999998,-0.002076245,0.0,-0.229437991,1.6081135,0,0.689228161,0.082436553,-0.079416252,0.7154403420000001,1.0,398714138.0,327368418.0,400119.4967,0.0,0.0,0.0,0.030022003999999998,5.043220259,39.8714138,32.7368418,-0.004399936,-0.00613103,-0.008624896,0.0018303179999999998,0.008475607,-0.0015226929999999999,0.038768017,-0.022138438,0.00028215,1.608149885,0.1,0.006807685999999999,-0.41666909,-0.005631699,1.0,1,0,0,0,0
13289184,0.020459981000000002,0.026204855,0.001288497,1.0,0.0,1502.0,1500.0,2000.0,1489.0,1510.0,1512.142829,-0.18123218300000002,-0.184775083,6.646730761000001,6.649304235,6.779231717999999,5.816639252000001,5.93029953,71.13645101,71.13645101,12.40457484,-0.000978823,-0.006075795,0.0014725270000000002,0.01273933,0.001702491,-0.129466751,2.0,-1.0,0.0,15,0,0,1,0,0.0,0,0,0,0,0,0.0,-0.09499856400000001,1.549513114,1.553853617,0.340073701,215.54725380000002,46.1201776,-0.00013725600000000002,-0.003369889,0.0,-0.001253168,41.61431470000001,0.186417749,-9.895688307999999,90.83301058,966.1509354,12.404602,-0.001160093,-0.0063346190000000005,0.00330343,20.53859446,0.139330069,-9.855900439,-0.003301766,-0.006208129000000001,-0.000570723,90.83301058,-0.08184743400000001,-0.09384743599999999,0.40060008,-0.27265986,13.25392594,15.67877514,-0.048496985,18.9860863,0.10999999,-18.07869508,399.6876567,12.404602,96615.47749,1.147951667,-0.187475196,-0.397785082,0.360591494,-0.0009816080000000001,0.006381848000000001,-0.005016473,0.0,-0.211247538,1.6081135,0,0.689922423,0.07592619099999999,-0.07314442,0.7161610420000001,1.0,398714138.0,327368418.0,400120.7461,0.0,0.0,0.0,0.021692338,4.975400452,39.8714138,32.7368418,-0.0042536679999999995,-0.00630479,-0.008494337,0.0022902179999999997,0.007987285,-0.0007026189999999999,0.081525108,0.007203205,0.030922186,1.608058833,0.1,-0.007466305,-0.37774788200000003,-0.005631699,1.0,1,0,0,0,0
13327639,0.020792404,0.02670713,0.0028267170000000003,1.0,0.0,1501.163233,1500.0,2000.0,1489.0,1510.0,1513.0,3.275988087,3.339999653,7.4341538410000005,7.437094954,7.582416564,6.645779077,6.775641205,81.18612729,81.18612729,12.40457096,-0.000949658,-0.006105913,0.001560714,0.012708756000000002,0.0017965120000000001,-0.129450476,2.0,-1.0,0.0,15,0,0,1,0,0.0,0,0,0,0,0,0.0,-0.10856978800000001,1.548737016,1.5536346619999999,0.38651721200000005,214.8677901,48.61908754,-0.00030894799999999997,-0.00416759,0.0,-0.0020086229999999997,43.56902633,0.20108437199999998,-9.898341835,1097.787963,966.1618232999999,12.404602,-0.00298674,-0.011963526,-0.001034485,52.42266528,0.220718875,-9.79954648,-0.002075986,-0.00544212,0.002186959,1097.787963,-0.09042206300000001,-0.10242206699999999,0.40060008,-0.259387414,13.25394594,16.95106444,-0.07394237299999999,18.70036234,0.10999999,-17.92543095,399.56349680000005,12.404602,96616.92852999999,1.1479689020000001,-0.00039857699999999995,0.529753296,0.148764565,-0.00021566400000000001,0.003919228,-0.004493168,0.0,-0.194283005,1.6081135,0,0.690519129,0.06984898,-0.06728986599999999,0.7167804459999999,1.0,398714138.0,327368418.0,400121.9956,0.0,0.0,0.0,0.013362673,4.907580645,39.8714138,32.7368418,-0.00616136,0.049570570999999994,-0.007208122,-0.053013885999999996,1.5042685980000001,0.030493617999999997,-0.660059597,19.57527104,0.442575183,1.607952915,0.1,-0.024469254,-0.35939903100000004,-0.005631699,1.0,1,0,0,0,0
13368188,0.021857043,0.02620463,0.002182004,1.0,0.0,1500.1836369999999,1500.0,2000.0,1489.0,1510.0,1512.0,5.092425574,5.191918193999999,8.221576921,8.224885673,8.385601409,7.474918903,7.62098288,91.23580358,91.23580358,12.40456708,-0.000920492,-0.006136032,0.0016489010000000001,0.012678182,0.0018905329999999998,-0.1294342,2.0,-1.0,0.0,15,0,0,1,0,0.0,0,0,0,0,0,0.0,-0.122141011,1.547960918,1.5534157069999999,0.432960723,214.18832630000003,51.11799749,-0.0005299780000000001,-0.004865055,0.0,-0.002709515,44.34195687,0.21640108600000002,-9.89990394,2261.599732,966.1734287999999,12.404602,-0.005672074,-0.0028663720000000003,-0.00026904,48.12225264,0.15146756,-9.824375714,-0.0009442669999999999,-0.004524544,0.005089094000000001,2261.599732,-0.098996692,-0.11099669699999999,0.40060008,-0.24611496800000002,13.25396593,18.22335375,-0.09938776,18.41463838,0.10999999,-17.77216682,399.4862999,12.404602,96617.76229,1.147978828,0.25386611,-0.14568141099999998,0.106494008,0.000332204,0.0026418740000000002,-0.001913371,0.0,-0.178317065,1.6081135,0,0.691034455,0.064124786,-0.061775393,0.71731541,1.0,398714138.0,327368418.0,400123.245,0.0,0.0,0.0,0.005033007,4.839760838,39.8714138,32.7368418,-0.008209636,0.109282208,-0.0058428080000000005,-0.11213475199999999,3.102996146,0.06376894799999999,-1.4553284919999998,40.48066488,0.88030657,1.6078459790000001,0.1,-0.045701596,-0.322861277,-0.005631699,1.0,1,0,0,0,0
13420549,0.022844369,0.026524383,0.001588814,1.0,0.0,1500.0,1500.0,2000.0,1488.204041,1510.795959,1513.0,6.962553516,7.098564583,9.009000001,9.012676393,9.188786254,8.304058728,8.466324555,101.28547990000001,101.28547990000001,12.4045632,-0.000891326,-0.00616615,0.001737089,0.012647608000000001,0.001984554,-0.129417925,2.0,-1.0,0.0,15,0,0,1,0,0.0,0,0,0,0,0,0.0,-0.135712235,1.54718482,1.5531967519999998,0.479404234,213.50886260000001,53.61690743,-0.00079674,-0.00547658,0.0,-0.003250266,42.20499427,0.23233247899999998,-9.878609147999999,2754.1082,966.1764204,12.404602,-0.004333895999999999,-0.0077793969999999995,0.006311366,42.49037675,0.224216147,-9.836477786,-0.002012861,-0.004762005,0.005550289,2754.1082,-0.104321879,-0.116321884,0.40060008,-0.23930286399999998,13.25398216,19.27823418,-0.120485044,17.96018239,0.10999999,-18.06968681,399.503117,12.404602,96617.60386,1.1479769709999998,0.294778895,0.361881971,-0.577607969,0.001849634,0.008426011,0.000894523,0.0,-0.163233201,1.6081135,0,0.69148003,0.058713013,-0.056561892999999995,0.717777876,1.0,398714138.0,327368422.4,400124.3297,0.5282896579999999,0.000824165,0.529113823,0.00164833,4.532527279,39.8714138,32.7368418,-0.014190187,0.275090054,-0.002627827,-0.17519544899999998,4.807467991,0.09941855599999999,-1.6930157719999999,46.68151127,0.9937598879999999,1.6077899930000001,0.1,-0.066897467,-0.287566518,-0.005631699,1.0,1,0,0,0,0
13459004,0.021262245,0.026415861000000002,0.001802703,1.0,0.0,1500.0,1500.0,2000.0,1489.2244449999998,1509.7755550000002,1513.0,8.601222561,8.769246444,9.796423081,9.800467112,9.991971099999999,9.133198554,9.31166623,111.33515619999999,111.33515619999999,12.40455932,-0.0008621610000000001,-0.006196269,0.001825276,0.012617034,0.002078576,-0.129401649,2.0,-1.0,0.0,15,0,0,1,0,0.0,0,0,0,0,0,0.0,-0.149283458,1.5464087219999998,1.5529777980000001,0.525847745,212.8293989,56.11581737,-0.001075605,-0.005976778,0.0,-0.003590656,37.933159100000005,0.248714837,-9.840545163,2754.1082,966.1730924000001,12.404602,-0.002113019,-0.004629269,0.001618275,38.71564662,0.156380811,-9.880857909,-0.004695738,-0.00584687,0.004220665,2754.1082,-0.10634782400000001,-0.118347828,0.40060008,-0.239050111,13.25399458,20.11237379,-0.13716758699999998,17.33440843,0.10999999,-18.82489949,399.57714080000005,12.404602,96616.73437,1.1479665959999998,0.11195188,0.239887259,0.273802127,0.004486425,0.007216538000000001,0.002792577,0.0,-0.148845264,1.6081135,0,0.691869037,0.053547871,-0.051585995,0.718181673,1.0,398714138.0,327368433.4,400125.1626,1.8631186240000002,0.0029065809999999997,1.866025205,0.0058131630000000005,3.859780977,39.8714138,32.7368418,-0.023003633,0.51733188,0.001919694,-0.24109448600000002,6.58812029,0.136778644,-1.52900933,42.28888709,0.873596347,1.607770712,0.1,-0.08586015599999999,-0.270427362,-0.005631699,1.0,1,0,0,0,0
13497459,0.023022707000000003,0.026520407000000003,0.0010969060000000001,1.0,0.0,1500.0,1500.0,2000.0,1488.0,1511.0,1513.0,10.07777502,10.27463782,10.58384616,10.58825783,10.79515595,9.962338379,10.15700791,121.38483240000001,121.38483240000001,12.40455544,-0.000832995,-0.006226387,0.0019134629999999998,0.01258646,0.002172597,-0.129385374,2.0,-1.0,0.0,15,0,0,1,0,0.0,0,0,0,0,0,0.0,-0.158105394,1.545752405,1.5527834759999999,0.566450134,212.1024727,58.28275177,-0.001344265,-0.00638319,0.0,-0.003718861,33.95975307,0.24694393899999997,-9.824441522999999,2754.1082,966.1705562999999,12.404602,-0.002890326,-0.007634246,0.000215255,35.18673323,0.23992673899999997,-9.870843074,-0.006725919,-0.007332111999999999,0.00254273,2754.1082,-0.10837376900000001,-0.12037377099999999,0.40060008,-0.238797357,13.25400699,20.94651341,-0.15385013,16.70863447,0.10999999,-19.58011217,399.50900099999996,12.404602,96617.50627,1.147975915,0.259921566,-0.056632844,-0.06922734,0.0027472020000000002,0.0074267809999999995,-0.0017447320000000001,0.0,-0.135010565,1.6081135,0,0.69220989,0.048578757,-0.046798935,0.7185354740000001,1.0,398714138.0,327368444.4,400125.9956,3.19794759,0.004988998,3.202936587,0.009977996,3.187034675,39.8714138,32.7368418,-0.033422279,0.8028466340000001,0.0072890080000000005,-0.304766616,8.306739619,0.17266393,-1.3719144980000002,38.05907945,0.7638218379999999,1.607758918,0.1,-0.104916248,-0.23763920300000002,-0.005631699,1.0,1,0,0,0,0
13539914,0.021646499,0.026400887,0.000633016,1.0,0.0,1500.0,1500.0,2000.0,1489.0,1510.0,1513.0,11.34746144,11.56917106,11.37126924,11.37604855,11.59834079,10.791478199999998,11.00234958,131.4345087,131.4345087,12.40455156,-0.0008038289999999999,-0.006256505,0.00200165,0.012555886,0.0022666179999999998,-0.12936909800000002,2.0,-1.0,0.0,15,0,0,1,0,0.0,0,0,0,0,0,0.0,-0.145586375,1.545634322,1.55269984,0.580805401,211.1622737,58.95795192,-0.001621001,-0.006737674,0.0,-0.0036782790000000004,31.03816657,0.18119152600000002,-9.885737567,2754.1082,966.170811,12.404602,-0.001421758,-0.012497596000000001,-0.001621515,31.78269467,0.23508443699999998,-9.751420454,-0.006455664,-0.010228487,-0.00036283199999999994,2754.1082,-0.11039971400000001,-0.122399715,0.40060008,-0.238544604,13.25401941,21.78065303,-0.170532673,16.082860500000002,0.10999999,-20.33532485,399.4994994,12.404602,96617.6197,1.147977273,-0.079627832,0.13105979,-0.085082934,-0.001236642,0.0049318470000000005,-0.0026402820000000003,0.0,-0.12167275,1.6081135,0,0.692507145,0.043785898,-0.04218167900000001,0.71884409,1.0,398714138.0,327368455.5,400126.8286,4.532776555,0.007071414,4.53984797,0.014142828999999999,2.5142883730000003,39.8714138,32.7368418,-0.049320631,1.236083112,0.015463698,-0.36083670700000003,9.813595671,0.203514649,-1.2384139809999999,34.38508207,0.689512591,1.6077726769999998,0.1,-0.125508494,-0.20726412800000002,-0.005631699,1.0,1,0,0,0,0
13586368,0.021511599,0.02593333,0.00150046,1.0,0.0,1500.0,1500.0,2000.0,1489.571314,1509.428686,1511.428686,12.47806543,12.72181969,12.15869232,12.16383927,12.40152564,11.62061803,11.84769126,141.484185,141.484185,12.40454767,-0.000774664,-0.006286624,0.0020898379999999997,0.012525312,0.002360639,-0.129352823,2.0,-1.0,0.0,15,0,0,1,0,0.0,0,0,0,0,0,0.0,-0.133067357,1.5455162390000001,1.552616205,0.595160668,210.2220748,59.63315207,-0.0018920439999999998,-0.007048389,0.0,-0.003497692,28.11658008,0.115439112,-9.947033611,2754.1082,966.1710657,12.404602,-0.0034967540000000004,-0.005562607,-0.001040207,28.59208081,0.17904266300000002,-9.836858634,-0.00618541,-0.013124863,-0.003268395,2754.1082,-0.112425659,-0.12442565900000001,0.40060008,-0.23829185,13.25403183,22.61479265,-0.187215217,15.45708654,0.10999999,-21.09053753,399.5455,12.404602,96617.11791,1.147971158,0.39259047700000005,-0.829538665,-0.32798820100000003,0.0023063579999999997,0.0029077029999999998,-0.003257593,0.0,-0.108750593,1.6081135,0,0.692764528,0.039140468,-0.037706444,0.7191112620000001,1.0,398714138.0,327368466.5,400127.6615,5.867605521000001,0.009153831,5.8767593520000005,0.018307662,1.841542071,39.8714138,32.7368418,-0.06521898400000001,1.669319589,0.023638387,-0.41690679700000005,11.32045172,0.23436536800000002,-1.104913464,30.71108469,0.615203344,1.607786437,0.1,-0.143497379,-0.18122834100000002,-0.005631699,1.0,1,0,0,0,0
13628823,0.015787372,0.020485482,0.001499696,1.0,0.0,1500.0,1500.0,2000.0,1492.0,1507.0,1510.0,13.64687286,13.91351136,12.946115400000002,12.95162999,13.20471048,12.44975786,12.69303293,151.5338613,151.5338613,12.40454379,-0.000745498,-0.006316741999999999,0.002178025,0.012494738,0.00245466,-0.129336547,2.0,-1.0,0.0,15,0,0,1,0,0.0,0,0,0,0,0,0.0,-0.120548338,1.5453981559999999,1.552532569,0.609515935,209.28187580000002,60.30835222,-0.00215819,-0.007352043000000001,0.0,-0.0032312309999999998,25.678761399999996,0.118102945,-9.929450334,2754.1082,966.1657597999999,12.404602,0.002897147,-0.01049039,0.005828296,26.26755211,0.157321171,-9.886016393,-0.004575234,-0.010283388000000001,0.004046444000000001,2754.1082,-0.113000089,-0.12500009,0.40060008,-0.21337256300000002,13.25402967,23.17461568,-0.19841172,14.76731443,0.10999999,-22.38944042,399.6994454,12.404602,96615.34887999999,1.14795021,-0.4319657,0.351720496,0.764398127,-0.001574286,0.007342342,0.003591532,0.0,-0.09615861699999999,1.6081135,0,0.692988064,0.034612198999999996,-0.033344085,0.719343266,1.0,398714138.0,327368501.2,400127.2583,7.256829242,0.008763753,7.264356871,0.017527506,1.568458792,39.8714138,32.7368418,-0.079899347,2.177532935,0.033304736,-0.45247561700000005,12.47226679,0.25523873399999997,-1.03288729,28.05081103,0.533757539,1.607528527,0.1,-0.157138983,-0.158190161,-0.005631699,1.0,1,0,0,0,0
13674557,0.015950102,0.019902225,0.001140017,1.0,0.0,1500.0,1500.0,2000.0,1492.0,1507.0,1509.0,14.52901501,14.81292657,13.73353848,13.73942071,14.00789533,13.27889768,13.53837461,161.5835376,161.5835376,12.40453991,-0.000716332,-0.006346861,0.002266212,0.012464163,0.002548681,-0.129320272,2.0,-1.0,0.0,15,0,0,1,0,0.0,0,0,0,0,0,0.0,-0.108029319,1.545280073,1.552448934,0.623871202,208.3416769,60.98355237,-0.002419354,-0.007683132,0.0,-0.002950387,23.316300899999998,0.13142421099999999,-9.899579757,2754.1082,966.1595877999998,12.404602,-0.001448285,-0.004903458,0.008066496999999999,23.80479813,0.173769665,-9.946821437,-0.002756335,-0.006548109,0.012953349,2754.1082,-0.11307585,-0.12507585400000001,0.40060008,-0.17997907800000001,13.25402252,23.64019712,-0.20772349199999998,14.05555573,0.10999999,-23.87512831,399.5248771,12.404602,96617.35655,1.147974005,-0.044066089,0.31549936,0.811518891,0.000580873,0.009666311,0.018393005,0.0,-0.083839628,1.6081135,0,0.6931805659999999,0.030180795,-0.029075035,0.719543073,1.0,398714138.0,327368552.0,400126.0088,8.683284325,0.0066813359999999995,8.686647329,0.013362673,1.568931272,39.8714138,32.7368418,-0.09440073,2.69676395,0.04319028,-0.485031824,13.57190945,0.27464595199999997,-0.969894623,25.53950163,0.451263033,1.607230695,0.1,-0.172021498,-0.137828959,-0.005631699,1.0,1,0,0,0,0
13717733,0.012613433,-0.266690103,-0.0010126269999999999,1.0,0.0,1499.0,1500.0,2000.0,1493.0,1506.0,1366.0,15.59997776,15.90483903,14.52096156,14.52721143,14.81108017,14.10803751,14.38371628,171.6332139,171.6332139,12.40453603,-0.0006871669999999999,-0.0063769790000000005,0.002354399,0.012433588999999998,0.0026427020000000002,-0.129303996,2.0,-1.0,0.0,15,0,0,1,0,0.0,0,0,0,0,0,0.0,-0.0955103,1.54516199,1.552365299,0.638226469,207.401478,61.65875251,-0.002675075,-0.008034495,0.0,-0.002711186,21.39775448,0.050622890999999996,-9.985078196,2754.1082,966.1589041000001,12.404602,-0.0024085070000000003,-0.007057023000000001,0.025020402999999997,21.81801754,0.0006608089999999999,-9.895382906,0.023257603999999998,-0.011873865,0.07814444,2754.1082,-0.113151611,-0.125151617,0.40060008,-0.14658559300000001,13.25401536,24.10577857,-0.21703526399999998,13.34379702,0.10999999,-25.3608162,399.62028210000005,12.404602,96616.28397,1.1479612829999999,0.778364334,-0.413111081,4.336201528,0.015029536999999999,0.004739274,0.074789704,0.0,-0.07174255,1.6081135,0,0.693344452,0.02582811,-0.024881824,0.719713168,1.0,398714138.0,327368602.8,400124.7594,10.10973941,0.00459892,10.10893779,0.00919784,1.5694037509999998,39.8714138,32.7368418,-0.110349386,3.2934349139999997,0.054302489,-0.5046298810000001,14.60351695,0.28760933,-0.7537919,23.3997575,0.280628613,1.608262698,0.1,-0.18386065899999998,-0.13237286,-0.005631699,1.0,1,0,0,0,0
13756188,0.001355558,-0.242431468,-0.016704695,1.0,0.0,1490.632727,1500.0,2000.0,1499.367273,1499.632727,1378.0,16.33320834,16.65238587,15.30838464,15.31500215,15.61426502,14.93717733,15.22905796,181.68289019999997,181.68289019999997,12.40453215,-0.0006580010000000001,-0.006407098000000001,0.002442587,0.012403015,0.002736723,-0.129287721,2.0,-1.0,0.0,15,0,0,1,0,0.0,0,0,0,0,0,0.0,-0.082991281,1.545043908,1.552281663,0.652581736,206.461279,62.33395266,-0.002925021,-0.008410562,0.0,-0.002584695,19.90669609,-0.120818218,-10.18167668,2754.1082,966.1635054999999,12.404602,0.02914752,-0.007082213,0.132433906,20.9352034,-0.7595921590000001,-10.30563644,0.0725713,-0.025925372999999998,0.19753704800000002,2754.1082,-0.113227373,-0.12522738,0.40060008,-0.11319210800000001,13.25400821,24.57136001,-0.226347036,12.63203832,0.10999999,-26.846504100000004,399.63766719999995,12.404602,96616.05364,1.1479585209999998,1.934920571,-0.875138194,2.8628607169999998,0.080017212,-0.011328508999999999,0.227548793,0.0,-0.059844304,1.6081135,0,0.693479603,0.021545997,-0.020756596999999998,0.7198535220000001,1.0,398714138.0,327368653.6,400123.5099,11.53619449,0.002516503,11.53122825,0.005033007,1.5698762309999998,39.8714138,32.7368418,-0.127649096,3.962397268,0.066559808,-0.512131303,15.571612599999998,0.294557281,-0.39475857,21.60687529,0.027714217000000003,1.610536121,0.1,-0.19374061899999998,-0.12041523800000001,-0.005631699,1.0,1,0,0,0,0
13798643,-0.011932723999999999,-0.198749068,-0.035656348,1.0,0.0,1481.0,1500.0,2000.0,1506.0,1493.0,1401.938388,17.12505161,17.45964608,16.09580772,16.10279287,16.41744986,15.76631716,16.07439963,191.73256640000002,191.73256640000002,12.40452827,-0.000628835,-0.006437216,0.002530774,0.012372441000000001,0.002830744,-0.129271445,2.0,-1.0,0.0,15,0,0,1,0,0.0,0,0,0,0,0,0.0,-0.070472263,1.544925825,1.552198028,0.6669370029999999,205.5210801,63.00915281,-0.0031704990000000002,-0.008860402,0.0,-0.002561115,18.41303486,-0.202994148,-10.34646698,2754.1082,966.1673935,12.40460004,0.103557251,-0.035127289,0.283500691,18.73962649,-0.317745417,-10.40205836,0.127096069,-0.035883031,0.289648891,2754.1082,-0.113303134,-0.125303144,0.40060008,-0.079798623,13.25400105,25.03694146,-0.235658808,11.92027961,0.10999999,-28.33219199,399.5239242,12.404602,96617.38046,1.147974303,1.97473686,0.7146703609999999,0.583035166,0.151238486,-0.014560557,0.296407068,0.0,-0.048086799000000006,1.6081135,0,0.6935893879999999,0.017313801,-0.016679461,0.7199674309999999,1.0,398714138.0,327368704.4,400122.2605,12.96264957,0.000434087,12.953518699999998,0.000868174,1.57034871,39.8714138,32.7368418,-0.143624836,4.636401535,0.07827044,-0.5188975029999999,16.50209096,0.29856935100000004,-0.170815677,19.86388675,-0.177265256,1.614114244,0.1,-0.205819527,-0.113613196,-0.005631699,1.0,1,0,0,0,0
13845098,-0.032556305,-0.181680893,-0.048453302000000004,1.0,0.0,1475.0,1500.0,2000.0,1516.408082,1482.591918,1410.632326,17.910639899999996,18.26053837,16.883230800000003,16.89058359,17.22063471,16.59545698,16.91974131,201.78224269999998,201.78224269999998,12.40452439,-0.00059967,-0.006467334,0.002618961,0.012341867,0.002924765,-0.129255169,2.0,-1.0,0.0,15,0,0,1,0,0.0,0,0,0,0,0,0.0,-0.057953244,1.544807742,1.552114393,0.68129227,204.5808811,63.68435296,-0.00341309,-0.009371906999999999,0.0,-0.002639554,16.90503401,0.206609862,-10.33601955,2754.1082,966.1673509999999,12.40458731,0.17893922,-0.031546312,0.307029906,17.23289752,0.01261479,-10.23783969,0.21032969199999998,-0.023286839,0.23146548100000003,2754.1082,-0.08919341199999999,-0.10119342,0.400600067,0.11806162699999999,13.25401687,25.22717234,-0.23946310899999998,11.1848725,0.10999999,-30.43997399,399.6129148,12.404572,96616.31483999999,1.1479616000000001,1.9899362880000002,0.5532450210000001,-1.703683698,0.227223017,0.007747368,0.262844566,0.0,-0.036447061,1.6081135,0,0.693674848,0.013123418999999999,-0.012642605,0.720056173,1.0,398714138.0,327368778.3,400122.989,13.99350587,0.008241648,13.98350654,-0.016483296,1.569958124,39.8714138,32.7368418,-0.15277734,5.336389926,0.08716365400000001,-0.5218746470000001,17.23870401,0.28745099399999996,-0.643077996,18.37803137,-0.135206201,1.6244162930000001,0.1,-0.215622502,-0.10758956,-0.005631699,1.0,1,0,0,0,0
13887553,-0.052358546,-0.166898155,-0.051200054,1.0,0.0,1474.0,1500.0,2000.0,1522.428486,1476.571514,1424.0,18.56717756,18.92991857,17.67065388,17.6783743,18.02381955,17.42459681,17.76508298,211.831919,211.831919,12.40452051,-0.000570504,-0.006497453,0.002707148,0.012311293000000001,0.003018786,-0.129238894,2.0,-1.0,0.0,15,0,0,1,0,0.0,0,0,0,0,0,0.0,-0.045434225,1.544689659,1.5520307569999998,0.695647536,203.6406822,64.3595531,-0.00365218,-0.009922116,0.0,-0.0028021120000000003,15.39703316,0.616213872,-10.32557213,2754.1082,966.1673086000001,12.40457457,0.258327698,-0.0007701339999999999,0.23637896600000002,15.91804603,0.175617727,-10.31118332,0.29356331399999996,-0.010690648,0.17328207,2754.1082,-0.06489836,-0.076898366,0.400600055,0.317182158,13.25403287,25.41529326,-0.243225208,10.44928418,0.10999999,-32.55252299,399.5949467,12.40456624,96616.5319,1.147964158,1.5349294409999998,-0.221303483,-2.9525910680000003,0.293721419,0.010126043000000001,0.175869782,0.0,-0.024891552999999997,1.6081135,0,0.6937368290000001,0.008962921,-0.008634539,0.72012051,1.0,398714138.0,327368858.3,400124.2384,14.92018141,0.01865373,14.91018166,-0.037307459,1.56934025,39.8714138,32.7368418,-0.16192984400000002,6.036378318,0.096056869,-0.52485179,17.97531706,0.276332636,-1.115340314,16.89217599,-0.093147146,1.634718343,0.1,-0.224072882,-0.101470967,-0.005631699,1.0,1,0,0,0,0
13926008,-0.056698224000000005,-0.13646946599999998,-0.047439645,1.0,0.0,1476.4488900000001,1500.0,2000.0,1529.0,1470.0,1431.0,19.15333812,19.52764136,18.45807696,18.46616502,18.8270044,18.25373663,18.61042466,221.88159530000001,221.88159530000001,12.40451663,-0.000541338,-0.006527570999999999,0.002795336,0.012280718999999999,0.003112807,-0.129222618,2.0,-1.0,0.0,15,0,0,1,0,0.0,0,0,0,0,0,0.0,-0.032915206,1.5445715759999998,1.5519471219999998,0.710002803,202.7004832,65.03475325,-0.003894501,-0.010511636000000001,0.0,-0.003035247,13.855068,0.727649855,-10.26840787,2754.1082,966.1649971,12.40455117,0.316674274,-0.003738693,0.124408793,14.57979437,0.597410543,-10.19077949,0.324898837,-0.018117339,0.064417555,2754.1082,-0.040603308,-0.052603312,0.40060004200000005,0.516302689,13.25404886,25.60341417,-0.24698730600000002,9.713695852999999,0.10999999,-34.66507199,399.8067827,12.404541,96614.05692999999,1.147934864,1.106537018,0.31140402699999997,-2.7556202589999996,0.34847747100000004,-0.000625486,0.031914248,0.0,-0.013403139,1.6081135,0,0.6937748020000001,0.004826273,-0.004649449,0.720159958,1.0,398714138.0,327368938.2,400125.4879,15.84685695,0.029065811,15.83685679,-0.058131623,1.5687223769999998,39.8714138,32.7368418,-0.172744007,6.842230444,0.103426171,-0.567617853,18.63644884,0.263039401,-1.5363840219999998,15.34534222,-0.12442497699999999,1.6399804059999998,0.1,-0.231295754,-0.09429684,-0.005631699,1.0,1,0,0,0,0
13968462,-0.068443639,-0.12914081300000002,-0.038953922,1.0,0.0,1480.469294,1500.0,2000.0,1534.0,1465.0,1438.0,19.62674908,20.01024272,19.24550004,19.25395574,19.63018925,19.08287646,19.45576633,231.9312716,231.9312716,12.40451275,-0.000512173,-0.00655769,0.002883523,0.012250145,0.0032068279999999997,-0.129206343,2.0,-1.0,0.0,15,0,0,1,0,0.0,0,0,0,0,0,0.0,-0.020396187,1.544453493,1.5518634869999999,0.72435807,201.76028430000002,65.7099534,-0.004122987,-0.011078532,0.0,-0.003302604,12.30449641,0.763531152,-10.19940572,2754.1082,966.1621106,12.40452507,0.34719151,-0.011106073999999999,0.034840997,13.51609126,0.996635328,-10.23489554,0.34308357,-0.030617755,-0.057289367,2754.1082,-0.016308256,-0.028308259,0.40060003,0.7154232209999999,13.25406485,25.79153509,-0.250749405,8.978107527999999,0.10999999,-36.77762099,399.61251630000004,12.404510499999999,96616.35356,1.147962045,-0.004692561,-0.810840014,-2.656060037,0.362945222,-0.023910998,-0.081574651,0.0,-0.001953514,1.6081135,0,0.6937896509999999,0.0007034360000000001,-0.0006776639999999999,0.7201753120000001,1.0,398714138.0,327369018.2,400126.7373,16.7735325,0.039477893,16.76353192,-0.078955786,1.568104503,39.8714138,32.7368418,-0.183953481,7.673267646,0.11043293300000001,-0.619849734,19.27962356,0.249228762,-1.9452427769999998,13.78400164,-0.17314971699999998,1.6440434519999998,0.1,-0.237412818,-0.09804202199999999,-0.005631699,1.0,1,0,0,0,0
14010917,-0.062996811,-0.106750143,-0.027184613,1.0,0.0,1487.0,1500.0,2000.0,1531.489698,1467.510302,1447.469094,20.16437427,20.55842041,19.76416122,19.77240686,20.15878673,19.62495398,20.00845161,239.3851458,239.3851458,12.40439803,-0.000490646,-0.006576477,0.0029465409999999996,0.011789293000000001,0.0034498190000000002,-0.12917817199999998,2.0,-1.0,0.0,15,0,0,1,0,0.0,0,0,0,0,0,0.0,-0.00819076,1.543906065,1.5516363130000002,0.765152099,200.800825,66.15564817,-0.004346957,-0.011617637,0.0,-0.003589475,10.91483545,0.67612048,-10.07954274,2754.1082,966.1602298,12.40449896,0.36140426299999995,-0.032547451,-0.067275509,12.12225872,0.836012454,-10.36805592,0.34734999899999996,-0.041143048,-0.141660798,2754.1082,0.016626797,0.004626797,0.40060001100000003,0.910290873,13.25408444,25.92699268,-0.253458165,8.292994955,0.10999999,-38.84538802,399.58576800000003,12.40448,96616.65095,1.147965602,0.39848852100000004,0.566564918,-1.6118692209999999,0.35976350100000004,-0.025820821,-0.179738499,0.0,0.009476565,1.6081135,0,0.693782197,-0.0034123820000000003,0.003287361,0.720167606,1.0,398714138.0,327369098.2,400127.9868,17.70020804,0.049889975,17.69020704,-0.09977995,1.567486629,39.8714138,32.7368418,-0.19486758699999998,8.499436289,0.11552632,-0.668566192,19.83648538,0.237279137,-2.079811393,12.32549422,-0.09045934300000001,1.6431581730000002,0.1,-0.242226485,-0.08669156900000001,-0.005631699,1.0,1,0,0,0,0
14053372,-0.06891944900000001,-0.09581522599999999,-0.014710424,1.0,0.0,1493.510102,1500.0,2000.0,1534.0,1465.0,1452.0,20.57260916,20.97444483,19.91138739,19.91862461,20.3078983,19.77030493,20.15667918,243.2515631,243.2515631,12.40413011,-0.000479676,-0.006579605,0.002974775,0.010733787,0.0038986890000000003,-0.12913356199999998,2.0,-1.0,0.0,15,0,0,1,0,0.0,0,0,0,0,0,0.0,0.0034669009999999997,1.542608676,1.551158414,0.8521281190000001,199.8077227,66.20045368,-0.004548814,-0.012082675,0.0,-0.003858755,9.728285551,0.43308327399999996,-9.895480147,2754.1082,966.1596185000001,12.40447285,0.35955316,-0.042033595,-0.163397645,10.65871561,0.683128225,-10.10596643,0.334047907,-0.04917522,-0.178905128,2754.1082,0.076847864,0.06484786599999999,0.40059997299999994,1.091727497,13.25411537,25.89613409,-0.252840374,7.767289995,0.10999999,-40.77172903,399.576709,12.404449000000001,96616.74351,1.14796667,-0.562610346,-0.488355959,-0.822196433,0.34100003799999995,-0.038072128,-0.21418242699999998,0.0,0.020903348999999998,1.6081135,0,0.693752472,-0.007526909,0.00725114,0.72013674,1.0,398714137.8,327369194.2,400130.4725,18.29515703,-0.009751953,18.28515603,-0.097939582,1.570644666,39.8714138,32.7368418,-0.205425225,9.31972926,0.118310532,-0.713040022,20.28917957,0.22757549800000001,-1.883350018,10.9910921,0.150830768,1.636300955,0.1,-0.247114453,-0.07597218900000001,-0.005631699,1.0,1,0,0,0,0
14095827,-0.069777381,-0.08376403,-0.0031237659999999996,1.0,0.0,1499.530506,1500.0,2000.0,1535.0,1464.0,1458.0,20.85165132,21.25911894,20.05861357,20.06484235,20.45700987,19.91565589,20.30490674,247.1179804,247.1179804,12.40386219,-0.000468706,-0.006582733,0.00300301,0.009678282,0.004347558,-0.129088951,2.0,-1.0,0.0,15,0,0,1,0,0.0,0,0,0,0,0,0.0,0.015124562,1.5413112869999999,1.550680514,0.939104139,198.81462040000002,66.24525918,-0.004760384,-0.012547774,0.0,-0.004149913,8.564431229,0.196843745,-9.731032854,2754.1082,966.1589685,12.40444677,0.338401225,-0.053565195999999995,-0.21196810100000002,9.288745475,0.442777947,-9.840703441,0.319741782,-0.053790375999999994,-0.210007024,2754.1082,0.137068931,0.125068935,0.400599935,1.273164121,13.25414631,25.86527549,-0.25222258399999997,7.241585035,0.10999999,-42.69807003,399.70395210000004,12.404419,96615.31467,1.147949771,-0.022442197,0.864208016,-0.567498746,0.323795024,-0.034554518,-0.225043923,0.0,0.032345655,1.6081135,0,0.693699842,-0.01164678,0.011220067,0.7200820529999999,1.0,398714137.6,327369290.4,400132.9714,18.88656331,-0.07014203,18.87656231,-0.095857166,1.573843029,39.8714138,32.7368418,-0.216297462,10.15099931,0.120993028,-0.755349085,20.73376439,0.21963822600000002,-1.67237593,9.688163741,0.374018491,1.6290492419999998,0.1,-0.25129250399999997,-0.07726791400000001,-0.005631699,1.0,1,0,0,0,0
14142282,-0.072413792,-0.074398355,0.007621706999999999,1.0,0.0,1503.55091,1500.0,2000.0,1536.0,1463.0,1462.0,21.18001429,21.593581600000004,20.20583974,20.2110601,20.60612144,20.06100685,20.45313431,250.9843977,250.9843977,12.40359428,-0.00045773699999999994,-0.006585861,0.003031244,0.008622777,0.004796428,-0.129044341,2.0,-1.0,0.0,15,0,0,1,0,0.0,0,0,0,0,0,0.0,0.026782222999999997,1.5400138980000002,1.550202615,1.02608016,197.82151819999999,66.29006469,-0.004969037,-0.012976205,0.0,-0.00444366,7.641050803,0.032629878,-9.774422002,2754.1082,966.1579072999999,12.40442087,0.320595219,-0.042648179,-0.220593505,8.30378653,0.16435845699999999,-9.578879149,0.294797283,-0.022200097000000002,-0.176025968,2754.1082,0.197289997,0.18529000399999998,0.40059989700000004,1.454600745,13.25417724,25.83441689,-0.251604793,6.715880075,0.10999999,-44.62441103,399.5282631,12.404419,96617.34582,1.147973825,-0.537351597,0.470793468,0.754415512,0.295434663,-0.01774671,-0.20473316100000002,0.0,0.043815194,1.6081135,0,0.6936235470000001,-0.015776058,0.015198057,0.7200029520000001,1.0,398714137.4,327369386.6,400135.4703,19.47796959,-0.130532108,19.46796859,-0.09377475,1.577041392,39.8714138,32.7368418,-0.23005076,11.08279628,0.122744025,-0.777833435,21.10408456,0.227877147,-1.328495945,8.673468693,0.43142645399999996,1.618184782,0.1,-0.255167899,-0.066840167,-0.005631699,1.0,1,0,0,0,0
14184737,-0.07409586,-0.070727893,0.013501865,1.0,0.0,1506.571314,1500.0,2000.0,1536.571314,1462.428686,1466.0,21.49466606,21.91463778,20.35306592,20.35727784,20.75523301,20.20635781,20.60136188,254.8508151,254.8508151,12.40332636,-0.000446767,-0.006588989,0.003059478,0.0075672709999999995,0.005245298000000001,-0.128999731,2.0,-1.0,0.0,15,0,0,1,0,0.0,0,0,0,0,0,0.0,0.038439884,1.5387165090000001,1.549724715,1.11305618,196.8284159,66.33487020000001,-0.005190561,-0.013417075,0.0,-0.00477493,6.717670377,-0.131583989,-9.81781115,2754.1082,966.1568461,12.40439498,0.295054379,-0.028261742000000003,-0.19496867199999998,7.2991766920000005,-0.20447995100000002,-9.574809731,0.269852785,0.009390181,-0.142044912,2754.1082,0.257511064,0.245511073,0.400599859,1.636037369,13.25420818,25.803558300000002,-0.250987002,6.190175115,0.10999999,-46.55075203,399.6545638,12.404388,96615.85687999999,1.147956246,-0.040235337999999995,0.932886057,1.198331911,0.27098306699999997,0.025139926,-0.146740843,0.0,0.055322496,1.6081135,0,0.693524514,-0.019918416,0.019188648,0.7199001420000001,1.0,398714137.2,327369482.8,400137.9692,20.06937588,-0.190922185,20.05937488,-0.091692334,1.5802397540000002,39.8714138,32.7368418,-0.243804059,12.01459326,0.124495022,-0.8003177840000001,21.47440473,0.23611606899999998,-0.9846159590000001,7.658773645,0.488834417,1.6073203219999999,0.1,-0.258796201,-0.054766417000000005,-0.005631699,1.0,1,0,0,0,0
14223192,-0.075797633,-0.06479972,0.01588359,1.0,0.0,1508.0,1500.0,2000.0,1537.591718,1461.408282,1467.0,21.80834068,22.234467600000002,20.50029209,20.50349559,20.90434459,20.35170876,20.74958945,258.7172324,258.7172324,12.40305845,-0.000435797,-0.006592117,0.0030877120000000003,0.0065117659999999996,0.005694168,-0.12895512,2.0,-1.0,0.0,15,0,0,1,0,0.0,0,0,0,0,0,0.0,0.050097544,1.53741912,1.549246816,1.200032201,195.8353136,66.37967571,-0.0053715740000000005,-0.013770603999999999,0.0,-0.005080688,5.9533437639999995,-0.15261812800000002,-10.22620871,2754.1082,966.1624636,12.4043787,0.26746274,0.018533513999999997,-0.128291411,6.486937768,-0.158770486,-9.786470932,0.251958585,0.047031115,-0.067261246,2754.1082,0.332986732,0.320986744,0.400599735,1.8033756890000001,13.2542495,25.7257652,-0.24943031300000001,5.725025533999999,0.10999999,-48.39986368,399.5606244,12.404388,96616.94091,1.147969061,-0.8809838170000001,1.208991747,1.828639542,0.248453184,0.063145513,-0.076368942,0.0,0.066877492,1.6081135,0,0.693402403,-0.024077292,0.023195152,0.719773365,1.0,398714136.7,327369580.7,400140.6631,20.61280256,-0.248581716,20.60241152,-0.08726945,1.5831930269999999,39.8714138,32.7368418,-0.256021631,12.91751054,0.125899069,-0.8079859709999999,21.75790011,0.232145995,-0.939034406,6.799012199,0.254018985,1.600667487,0.1,-0.263032276,-0.045253595,-0.005631699,1.0,1,0,0,0,0
14271293,-0.076772278,-0.059004959,0.013154218999999998,1.0,0.0,1506.0,1500.0,2000.0,1538.0,1461.0,1470.0,21.96561915,22.394777899999998,20.64751827,20.64971333,21.05345616,20.49705972,20.89781701,262.5836497,262.5836497,12.40279053,-0.00042482800000000003,-0.006595245,0.003115947,0.00545626,0.006143038000000001,-0.12891051,2.0,-1.0,0.0,15,0,0,1,0,0.0,0,0,0,0,0,0.0,0.061755205,1.536121731,1.548768916,1.287008221,194.8422113,66.42448121,-0.005572031,-0.014141633999999998,0.0,-0.005454098,5.247713139,-0.120814329,-10.76930615,2754.1082,966.1705457999999,12.40436596,0.245490056,0.054566320999999994,-0.06492991299999999,5.868587477999999,-0.280453247,-10.21839391,0.236666173,0.086904935,0.0225799,2754.1082,0.424429279,0.412429295,0.40059952,1.95595742,13.25430169,25.5988461,-0.246890885,5.3232588210000005,0.10999999,-50.16813995,399.59387169999997,12.404358,96616.53347000001,1.147964304,-0.099921001,1.4369034980000002,1.526949278,0.221888935,0.09056103800000001,0.043258307999999995,0.0,0.078488748,1.6081135,0,0.6932566109999999,-0.028255622999999997,0.027220399,0.7196220109999999,1.0,398714135.3,327369685.6,400144.2032,20.94807161,-0.294394874,20.93559837,-0.072692535,1.5850829869999998,39.8714138,32.7368418,-0.26771011100000003,13.81047815,0.12718358400000002,-0.8105496670000001,22.01148246,0.223969655,-0.99622318,5.992628764,-0.081473792,1.595465648,0.1,-0.26607444,-0.032115169,-0.005631699,1.0,1,0,0,0,0
14312102,-0.078358793,-0.05487116,0.008978004,1.0,0.0,1504.0,1500.0,2000.0,1539.0,1460.0,1472.0,22.23304978,22.66732775,20.79474444,20.79593107,21.20256773,20.64241068,21.04604458,266.450067,266.450067,12.40252262,-0.000413858,-0.006598373,0.003144181,0.004400755,0.0065919080000000005,-0.12886589999999998,2.0,-1.0,0.0,15,0,0,1,0,0.0,0,0,0,0,0,0.0,0.073412866,1.5348243419999998,1.548291017,1.373984241,193.849109,66.46928672,-0.005772546999999999,-0.014500053999999998,0.0,-0.005873756,4.591005388999999,-0.103746986,-11.47179576,2754.1082,966.1740892000001,12.404338599999999,0.22228314,0.079347054,0.053907496,4.932915086,-0.34060399700000005,-10.71568305,0.22136400399999998,0.128848787,0.09158029699999999,2754.1082,0.515871825,0.503871845,0.400599306,2.108539151,13.25435388,25.471926999999997,-0.244351457,4.921492109,0.10999999,-51.93641621,399.63327910000004,12.40433031,96616.05912,1.147958632,-0.75536052,1.669378904,0.977319629,0.20862580600000002,0.141459669,0.08654613800000001,0.0,0.090167799,1.6081135,0,0.6930851790000001,-0.032457337999999995,0.03126817,0.7194440759999999,1.0,398714133.8,327369790.6,400147.7433,21.28334067,-0.34020803200000005,21.26878521,-0.058115621,1.586972946,39.8714138,32.7368418,-0.280596701,14.74192952,0.127386971,-0.821949398,22.24504022,0.192445433,-1.111699473,5.214262956000001,-0.653798911,1.5936182890000001,0.1,-0.26863443800000003,-0.031242771000000003,-0.005631699,1.0,1,0,0,0,0
14350557,-0.079231661,-0.056127817999999996,0.0033963120000000003,1.0,0.0,1501.0,1500.0,2000.0,1539.0,1460.0,1472.305861,22.35629272,22.79305476,20.94197062,20.94214882,21.3516793,20.78776164,21.19427215,270.3164844,270.3164844,12.402254699999999,-0.000402888,-0.006601501,0.003172415,0.0033452490000000002,0.007040778,-0.128821289,2.0,-1.0,0.0,15,0,0,1,0,0.0,0,0,0,0,0,0.0,0.08507052699999999,1.5335269530000002,1.5478131169999998,1.460960262,192.8560067,66.51409223,-0.005970836,-0.014855886,0.0,-0.006347347,4.01595884,-0.11127747699999999,-12.44033998,2754.1082,966.1700566,12.40428681,0.20284991800000002,0.14012734400000001,0.10060163800000001,4.398533233,-0.23362312,-11.50178255,0.206045549,0.174247898,0.125793682,2754.1082,0.607314371,0.595314396,0.400599091,2.261120881,13.25440607,25.34500791,-0.24181202899999998,4.519725396,0.10999999,-53.70469248,399.57041569999996,12.40427641,96616.83152,1.147967785,-0.179459525,1.217659999,0.438220451,0.191372787,0.194788433,0.132716742,0.0,0.10191349699999999,1.6081135,0,0.6928893629999999,-0.036681929,0.035337982000000004,0.719240786,1.0,398714132.4,327369895.5,400151.2835,21.61860972,-0.38602119100000004,21.60197206,-0.043538705999999996,1.588862906,39.8714138,32.7368418,-0.295364585,15.733808800000002,0.125892751,-0.84722363,22.447155,0.12425995,-1.318699872,4.479890925,-1.598002418,1.5970381919999999,0.1,-0.271552342,-0.018417338999999998,-0.005631699,1.0,1,0,0,0,0
14389011,-0.08048375599999999,-0.053510815,-0.002068,1.0,0.0,1498.0,1500.0,2000.0,1540.0,1459.0,1472.0,22.49247614,22.93191366,21.0891968,21.08836656,21.50079087,20.93311259,21.34249971,274.1829017,274.1829017,12.40198679,-0.000391919,-0.006604628,0.0032006490000000003,0.002289744,0.0074896469999999995,-0.128776679,2.0,-1.0,0.0,15,0,0,1,0,0.0,0,0,0,0,0,0.0,0.096728188,1.532229564,1.5473352180000002,1.5479362819999998,191.8629044,66.55889773,-0.006165909,-0.015199348,0.0,-0.006883446,3.442779678,-0.116475371,-13.40312839,2732.1701780000003,966.1659728,12.40423307,0.18765874300000002,0.194352356,0.14104339999999999,3.795814516,-0.22371570899999998,-12.60825752,0.190527554,0.218863587,0.15897198199999998,2732.1701780000003,0.698756917,0.6867569459999999,0.400598877,2.413702612,13.25445826,25.21808881,-0.239272602,4.117958683,0.10999999,-55.47296874,399.58777000000003,12.40420947,96616.61435,1.1479652,0.326657227,0.76057581,0.43266565,0.177730661,0.228223939,0.14882128,0.0,0.113730775,1.6081135,0,0.692668636,-0.040931008,0.039431382,0.71901169,1.0,398714130.9,327370000.5,400154.8236,21.95387878,-0.431834349,21.935158899999998,-0.028961792000000004,1.590752865,39.8714138,32.7368418,-0.310245553,16.72359693,0.124024816,-0.87347715,22.64657833,0.053143609,-1.5286926930000002,3.7508809789999997,-2.538231531,1.600560671,0.1,-0.2741946,-0.005918403000000001,-0.005631699,1.0,1,0,0,0,0
14431466,-0.081395411,-0.052082125,-0.008042597,1.0,0.0,1495.0,1500.0,2000.0,1540.0,1459.0,1472.306261,22.61073056,23.05249849,21.23642297,21.23458431,21.64990245,21.07846355,21.49072728,278.04931899999997,278.04931899999997,12.40171887,-0.000380949,-0.006607755999999999,0.0032288840000000004,0.001234239,0.007938516999999999,-0.128732069,2.0,-1.0,0.0,15,0,0,1,0,0.0,0,0,0,0,0,0.0,0.108385849,1.530932175,1.546857318,1.6349123019999998,190.8698021,66.60370324,-0.0063616490000000005,-0.015529336000000001,0.0,-0.007480227,2.966797971,-0.000261655,-14.06632704,1568.3580980000002,966.1592234999999,12.40407771,0.169295387,0.223812946,0.153135288,3.267133658,-0.162138901,-13.66536767,0.164623474,0.222702115,0.13827409,1568.3580980000002,0.82394072,0.811940746,0.40059882,2.58406243,13.25451153,25.05487417,-0.236007241,3.766653385,0.10999999,-57.20041232,399.6884212,12.40406429,96615.47377000001,1.147951633,-0.508031494,-0.026166484,-0.49860830899999997,0.158715665,0.24985740399999998,0.13841173,0.0,0.125621953,1.6081135,0,0.692422547,-0.045205249,0.043549024000000006,0.71875625,1.0,398714129.2,327370108.6,400159.3263,22.22978788,-0.48326263399999997,22.21059004,-0.054492899000000004,1.592824819,39.8714138,32.7368418,-0.328302193,17.65466132,0.111662144,-0.927231221,22.77041985,-0.10027762300000001,-1.822719275,3.172450115,-3.3668509589999998,1.606963731,0.1,-0.27693051399999996,0.004994498,-0.005631699,1.0,1,0,0,0,0
14479842,-0.082082223,-0.051561564000000004,-0.013722411,1.0,0.0,1492.285857,1500.0,2000.0,1540.0,1459.0,1473.285857,22.77432548,23.21942883,21.38364915,21.38080205,21.79901402,21.22381451,21.63895485,281.9157363,281.9157363,12.40145095,-0.000369979,-0.006610884,0.003257118,0.00017873299999999998,0.008387387,-0.128687458,2.0,-1.0,0.0,15,0,0,1,0,0.0,0,0,0,0,0,0.0,0.120043509,1.529634786,1.546379419,1.7218883230000002,189.8766998,66.64850875,-0.006570798,-0.015885512,0.0,-0.00817463,2.4908162640000002,0.115952061,-14.72952568,404.5460176,966.1524742,12.40392235,0.15035536,0.238259088,0.137470821,2.801416038,-0.04045587,-14.50148515,0.138719393,0.226540642,0.117576198,404.5460176,0.961184302,0.9491843209999999,0.40059882,2.760776481,13.2545652,24.87868679,-0.232482418,3.433383973,0.10999999,-58.9132615,399.7282672,12.40387288,96615.0233,1.147946435,-0.37818358,0.054555335,-0.570386202,0.135510308,0.250663625,0.114136945,0.0,0.137594577,1.6081135,0,0.692149036,-0.049507074000000005,0.047693242000000004,0.7184723159999999,1.0,398714127.1,327370221.6,400165.3653,22.4109579,-0.543652716,22.39384248,-0.144036807,1.595187237,39.8714138,32.7368418,-0.346358832,18.58572572,0.09929947199999999,-0.9809852920000001,22.89426138,-0.253698855,-2.1167458569999997,2.59401925,-4.195470387,1.613366791,0.1,-0.279127394,0.005390273,-0.005631699,1.0,1,0,0,0,0
14528376,-0.082020907,-0.050405422000000005,-0.017615441000000003,1.0,0.0,1491.0,1500.0,2000.0,1541.0,1458.0,1474.0,22.83352154,23.27983473,21.53087532,21.5270198,21.94812559,21.36916547,21.78718242,285.7821536,285.7821536,12.40118304,-0.00035901,-0.006614012,0.003285352,-0.000876772,0.008836257,-0.128642848,2.0,-1.0,0.0,15,0,0,1,0,0.0,0,0,0,0,0,0.0,0.1321526,1.5279857630000002,1.5457570369999998,1.82846285,188.89072209999998,66.59730896,-0.006748569,-0.016178363,0.0,-0.008778223,2.187321921,0.088001119,-14.93768213,784.0738024,966.1463553,12.40369803,0.130794371,0.235073445,0.110894664,2.411568544,-0.0034310890000000004,-14.97617177,0.12003188,0.217545185,0.089782543,784.0738024,1.098427883,1.086427895,0.40059882,2.937490532,13.25461886,24.70249941,-0.228957595,3.1001145610000003,0.10999999,-60.62611069,399.70771349999995,12.40363369,96615.24025,1.147948843,-0.958135305,-1.2579719459999998,-0.209353696,0.12198401,0.239077953,0.075383188,0.0,0.149648632,1.6081135,0,0.691848604,-0.053836376,0.051863929,0.718160448,1.0,398714125.0,327370334.7,400171.4043,22.59212793,-0.6040427979999999,22.57709492,-0.23358071600000002,1.597549655,39.8714138,32.7368418,-0.371747548,19.57648972,0.073006247,-1.055032926,22.98695067,-0.453780255,-2.269513014,2.08750873,-4.58480309,1.619094276,0.111648015,-0.281079446,0.018989096,-0.005631699,1.0,1,0,0,0,0
14570831,-0.082070935,-0.049034558,-0.019756436000000002,1.0,0.0,1490.0,1500.0,2000.0,1541.0,1458.0,1475.245049,22.88340172,23.33069279,21.6781015,21.67323754,22.09723716,21.51451642,21.93540998,289.648571,289.648571,12.40091512,-0.00034804,-0.00661714,0.003313586,-0.001932278,0.009285126999999999,-0.128598238,2.0,-1.0,0.0,15,0,0,1,0,0.0,0,0,0,0,0,0.0,0.144636905,1.526044473,1.5450145659999999,1.9513270459999998,187.910666,66.46631257,-0.006941625,-0.016486577,0.0,-0.009426137,1.9714810719999998,-0.013210471000000001,-14.91459821,1947.885883,966.1405568,12.40343867,0.107486151,0.211647554,0.076521227,2.131990633,0.000560566,-15.07154496,0.105011635,0.202027839,0.058383011,1947.885883,1.2356714640000002,1.22367147,0.40059882,3.1142045830000002,13.25467252,24.52631203,-0.225432772,2.766845149,0.10999999,-62.33895988,399.84598,12.40334722,96613.65518,1.147929952,-0.40732710299999997,-0.511734646,-0.35985884100000004,0.10671405199999999,0.222841951,0.047289124,0.0,0.161784467,1.6081135,0,0.69152125,-0.058193100000000005,0.056061031,0.717820632,1.0,398714123.0,327370447.8,400177.4433,22.77329795,-0.664432881,22.76034736,-0.323124625,1.5999120740000001,39.8714138,32.7368418,-0.400591436,20.5953866,0.040148382,-1.138643707,23.06495977,-0.675849813,-2.355713015,1.6148899859999999,-4.7671261089999994,1.624503403,0.128785046,-0.282967299,0.02383096,-0.005631699,1.0,1,0,0,0,0
14609286,-0.082033727,-0.048442680999999994,-0.021137944,1.0,0.0,1489.0,1500.0,2000.0,1541.0,1458.0,1475.0,22.93601155,23.38443623,21.82532767,21.81945529,22.24634873,21.65986738,22.08363755,293.51498829999997,293.51498829999997,12.40064721,-0.00033707,-0.006620268,0.0033418209999999996,-0.002987783,0.009733997,-0.128553627,2.0,-1.0,0.0,15,0,0,1,0,0.0,0,0,0,0,0,0.0,0.157121209,1.524103183,1.544272095,2.074191242,186.93061,66.33531618,-0.0071322880000000005,-0.016782887,0.0,-0.010063378000000001,1.79575703,-0.09419482400000001,-14.80163534,2754.1082,966.1399518999999,12.40313966,0.09931471800000001,0.200715668,0.047195785,2.0057658330000003,0.021227178,-14.911022599999999,0.091622409,0.187720423,0.032973326000000004,2754.1082,1.372915045,1.360915045,0.40059882,3.2909186339999996,13.25472618,24.35012466,-0.221907949,2.433575736,0.10999999,-64.05180906,399.88759849999997,12.40298423,96613.14689,1.147924036,-0.649133804,-0.229241597,-0.185361075,0.095588539,0.20410752899999998,0.027451001000000003,0.0,0.17400181,1.6081135,0,0.6911664340000001,-0.062576962,0.060284278,0.717452352,1.0,398714120.9,327370560.9,400183.4823,22.95446798,-0.7248229629999999,22.94359981,-0.412668534,1.6022744919999998,39.8714138,32.7368418,-0.43198792700000005,21.59120044,0.001607065,-1.222108331,23.13042603,-0.8900885270000001,-2.400047821,1.20540743,-4.831537997,1.62892163,0.156714987,-0.284525944,0.031691005,-0.005631699,1.0,1,0,0,0,0
14651741,-0.082601357,-0.045300657,-0.02226463,1.0,0.0,1488.0,1500.0,2000.0,1541.0,1458.0,1477.0,22.99781278,23.44749531,21.97255385,21.96567303,22.3954603,21.80521834,22.23186512,297.38140560000005,297.38140560000005,12.40037929,-0.000326101,-0.006623396,0.003370055,-0.004043288,0.010182867,-0.128509017,2.0,-1.0,0.0,15,0,0,1,0,0.0,0,0,0,0,0,0.0,0.16960551399999999,1.522161893,1.5435296230000002,2.197055438,185.95055390000002,66.20431979,-0.007322663,-0.017061396,0.0,-0.010694271000000002,1.710480391,-0.129574825,-14.48603124,2754.1082,966.1510565,12.40275126,0.091879469,0.187010557,0.029397791,1.76964959,-0.029515642,-14.57037593,0.08191047900000001,0.176140921,0.021068358,2754.1082,1.525669689,1.513669751,0.400597993,3.4443279689999997,13.254841599999999,24.20235132,-0.218950179,2.220619684,0.10999999,-65.3339556,399.92091339999996,12.40260172,96612.76161,1.1479194320000001,-0.141626597,-0.829990817,-0.5676505789999999,0.081968157,0.188374727,0.012387151,0.0,0.186302868,1.6081135,0,0.690782448,-0.066988459,0.064534148,0.7170537640000001,1.0,398714117.7,327370676.8,400211.6205,23.07249762,-0.816783357,23.06006914,-0.572638516,1.6060991980000001,39.8714138,32.7368418,-0.46868569600000004,22.53907513,-0.048737712,-1.305269413,23.16984316,-1.0880640529999999,-2.357436506,0.9270468390000001,-4.651070681,1.6312819440000002,0.207059768,-0.286186592,0.044797592000000004,-0.005631699,1.0,1,0,0,0,0
14690196,-0.082568769,-0.043294886,-0.023271827999999998,1.0,0.0,1488.0,1500.0,2000.0,1541.0,1458.0,1478.1838369999998,23.08943336,23.54056597,22.11978003,22.11189077,22.54457188,21.9505693,22.38009268,301.24782289999996,301.24782289999996,12.40011138,-0.00031513099999999996,-0.006626524,0.003398289,-0.005098794,0.010631736000000001,-0.128464407,2.0,-1.0,0.0,15,0,0,1,0,0.0,0,0,0,0,0,0.0,0.18208981899999999,1.520220603,1.5427871519999998,2.319919634,184.9704979,66.07332339999999,-0.007511296999999999,-0.01732322,0.0,-0.01132212,1.6252037519999998,-0.164954826,-14.17042714,2754.1082,966.162161,12.40236285,0.078251947,0.16897194199999999,0.01172103,1.6319451880000002,-0.17542128,-14.3102611,0.072198548,0.16456141900000001,0.00916339,2754.1082,1.678663886,1.6666640119999998,0.400597153,3.597377387,13.25495798,24.05501682,-0.216001165,2.009521753,0.10999999,-66.60945036,399.9363355,12.4021157,96612.62557,1.147917848,0.010355319,0.346082082,0.45775632299999996,0.070529152,0.181809346,0.002525536,0.0,0.19868518699999999,1.6081135,0,0.690369177,-0.071426487,0.068809572,0.716624796,1.0,398714113.7,327370794.9,400255.5595,23.14538241,-0.9313162629999999,23.12878909,-0.78296256,1.610969429,39.8714138,32.7368418,-0.505383464,23.48694983,-0.09908248900000001,-1.388430496,23.2092603,-1.286039579,-2.31482519,0.648686247,-4.470603365,1.633642258,0.257404549,-0.288036452,0.055053233,-0.005631699,1.0,1,0,0,0,0
