timestamp,control[0],control[1],control[2],control[3],control[4],output[2],output[3],output[4],output[5],output[6],output[7],indicated_airspeed_m_s,true_airspeed_m_s,indicated_airspeed_m_s.1,equivalent_airspeed_m_s,true_airspeed_m_s.1,equivalent_ground_minus_wind_m_s,true_ground_minus_wind_m_s,differential_pressure_raw_pa,differential_pressure_filtered_pa,temperature,gyro_bias[0],gyro_bias[1],gyro_bias[2],accel_bias[0],accel_bias[1],accel_bias[2],instance_count,seq_reached,seq_current,seq_total,item_changed_index,item_do_jump_remaining,valid,warning,finished,failure,stay_in_failsafe,flight_termination,item_do_jump_changed,execution_mode,nav_roll,nav_pitch,nav_bearing,target_bearing,xtrack_error,wp_dist,acceptance_radius,rollspeed_integ,pitchspeed_integ,yawspeed_integ,additional_integ1,x,y,z,temperature.1,pressure,temperature.2,gyro_rad[0],gyro_rad[1],gyro_rad[2],accelerometer_m_s2[0],accelerometer_m_s2[1],accelerometer_m_s2[2],x.1,y.1,z.1,altitude_sp,altitude_filtered,height_rate_setpoint,height_rate,airspeed_sp,airspeed_filtered,airspeed_derivative_sp,airspeed_derivative,throttle_integ,pitch_integ,baro_alt_meter,baro_temp_celcius,baro_pressure_pa,rho,xyz[0],xyz[1],xyz[2],xyz[0].1,xyz[1].1,xyz[2].1,roll_body,pitch_body,yaw_body,yaw_sp_move_rate,q_d[0],q_d[1],q_d[2],q_d[3],thrust_body[0],lat,lon,alt,vel_m_s,vel_n_m_s,vel_e_m_s,vel_d_m_s,cog_rad,ref_lat,ref_lon,x.2,y.2,z.2,vx,vy,vz,ax,ay,az,yaw,dist_bottom,roll,pitch,yaw.1,thrust_body[0].1,isTakeoff,isClimbing,isDescending,isCruise,isLand,Unnamed: 127,Unnamed: 128,Unnamed: 129,Unnamed: 130,Unnamed: 131
18000000,0.029987697,0.023146236,-0.004639516,0.15,0.0,900.0,900.0,900.0,900.0,900.0,900.0,1.2217288,1.2455992,-1.7246671000000002,-1.7246671000000002,-1.7583638,0.028891234,0.029455718,-1.821867,-1.821867,12.404602,-0.0013319970000000001,-0.005971878000000001,0.001445237,0.004684234000000001,0.000254504,-0.13043001,3.0,-1.0,0.0,15,0,0,1,0,0.0,0,0,0,0,0,0.008008662,0.0,1.044843,1.598742,0.15075016,,0.28647888,4.16e-06,8.77e-06,-2.61e-06,0.0,-0.1369608,0.17842492,-10.082828,-2.46e+27,966.1614400000001,12.404602,-0.001544147,-0.010817568,-0.006094445,-0.12588969,0.18479644,-9.951461,0.00218058,-0.0070884,-0.006287633000000001,-0.17377941,-0.18577942,0.40060034,0.15398929999999997,13.254102,25.356976,-0.24205747,11.104186,0.10999999,-30.373655,399.57837,12.404602,96616.71,1.1479663999999998,0.45923686,-0.33705682,-0.4576049,0.0008912169999999999,0.002827922,-0.00936675,0.008008662,0.0,1.044843,0,0.8666065000000001,0.003470198,0.001998076,0.49897605,0.15,398714138.0,327368418.0,400131.0,0.0,0.01,0.01,-0.03,0.5279621,39.8714138,32.7368418,0.01346522,-0.0017997820000000002,0.06598736,0.007574231,-0.011060908000000001,0.025026938,-0.069068335,-0.02698312,-0.04523992,1.5962101999999998,0.1,0.03823575,0.032982934,-0.007231569,0.15,1,0,0,0,0,,,,,
18044737,0.031199219,0.023151787000000004,-0.005079845,0.15,0.0,900.0,900.0,900.0,900.0,900.0,900.0,-0.167631605,-0.17090869600000003,-0.8893841379999999,-0.8894411879999999,-0.9068127990000001,0.791562139,0.8070341520000001,7.034029969,7.034029969,12.40460078,-0.0013249429999999999,-0.0059801,0.001480763,0.004692844,0.00031440099999999996,-0.130410202,3.0,-1.0,0.0,15,0,0,1,0,0.0,0,0,0,0,0,0.007353421999999999,0.0,1.086620538,1.595200341,0.13841633,,1.234413011,4.04e-06,8.09e-06,3.42e-07,0.0,-0.14508243699999998,0.17963104800000002,-10.02337635,-2.46e+27,966.1662274,12.404602,-0.002405139,-0.00738407,-0.00516584,-0.20883922100000002,0.198498935,-9.919383285,0.002682753,-0.003979775,-0.004926489,-0.141865866,-0.153865874,0.40060028799999997,0.334664559,13.25410059,25.47887598,-0.2444955,10.49635866,0.10999999,-32.20468376,399.659764,12.404602,96615.77737000001,1.147955305,-0.2572536,-0.270029271,0.087659746,0.001372471,0.006653757,-0.0029980270000000003,0.008008662,0.0,1.044843,0,0.8666065000000001,0.003470198,0.001998076,0.49897605,0.15,398714138.0,327368418.2,400131.2004,0.0,0.007995599,0.007995599,-0.023986797,0.5821863629999999,39.8714138,32.7368418,0.013511545,-0.0018141160000000002,0.066271131,0.008372224000000001,-0.010755114,0.024518882999999998,-0.052577205999999994,-0.022267099999999998,-0.042666324000000005,1.596099379,0.1,0.038387943,0.033325105,-0.007221508000000001,0.15,1,0,0,0,0,,,,,
18089474,0.030779964,0.023489377000000002,-0.005426705,0.15,0.0,900.0,900.0,900.0,900.0,900.0,900.0,0.885611698,0.9029174320000001,-0.054101175,-0.054215275,-0.055261798,1.554233045,1.584612585,15.88992694,15.88992694,12.40459955,-0.00131789,-0.005988321,0.0015162889999999999,0.0047014529999999995,0.000374298,-0.130390394,3.0,-1.0,0.0,15,0,0,1,0,0.0,0,0,0,0,0,0.006698183000000001,0.0,1.1283980759999999,1.5916586830000001,0.12608250000000001,,2.182347142,4.85e-06,9.01e-06,1.3e-07,0.0,-0.153204075,0.18083717600000002,-9.963924697000001,-2.46e+27,966.1710148,12.404602,-0.00417947,-0.008319876,-0.00117518,-0.189111229,0.200412211,-9.903652766,0.003184925,-0.000871151,-0.003565345,-0.10995232099999999,-0.121952327,0.400600235,0.515339818,13.25409918,25.60077596,-0.24693353,9.888531329,0.10999999,-34.03571253,399.54538210000004,12.404602,96617.13426,1.147971386,-0.429957606,-0.606442368,-0.574116204,-0.002925362,-0.00136944,-0.002178901,0.008008662,0.0,1.044843,0,0.8666065000000001,0.003470198,0.001998076,0.49897605,0.15,398714138.0,327368418.4,400131.4009,0.0,0.0059911980000000005,0.0059911980000000005,-0.017973595,0.6364106270000001,39.8714138,32.7368418,0.01355787,-0.001828449,0.066554901,0.009170216,-0.010449319,0.024010827999999998,-0.036086077,-0.017551081,-0.040092727,1.5959885580000002,0.1,0.038435494,0.033286058,-0.007221153,0.15,1,0,0,0,0,,,,,swd
18134211,0.030271463,0.022985707,-0.004945945,0.15,0.0,900.0,900.0,900.0,900.0,900.0,900.0,-0.653420132,-0.666181204,0.7811817870000001,0.7810106370000001,0.796289204,2.31690395,2.362191019,24.74582391,24.74582391,12.40459833,-0.0013108360000000001,-0.005996543000000001,0.001551815,0.004710063,0.000434195,-0.13037058599999998,3.0,-1.0,0.0,15,0,0,1,0,0.0,0,0,0,0,0,0.006042943,0.0,1.170175613,1.588117024,0.11374867,,3.130281273,4.5e-06,8.63e-06,-2.02e-06,0.0,-0.150784414,0.15173875,-9.965770889,-2.46e+27,966.1755249,12.404602,0.004521082,-0.008775081,0.003318515,-0.10908921099999999,0.14901287,-9.95575302,0.001324285,-0.001073885,-0.00119848,-0.078038777,-0.090038781,0.40060018299999994,0.696015077,13.25409777,25.72267594,-0.249371559,9.280703994,0.10999999,-35.86674129,399.52295710000004,12.404602,96617.40106,1.147974579,-0.108642219,-0.11272588300000001,-0.44083578799999995,0.000985307,0.006584373,-0.005348119,0.008008662,0.0,1.044843,0,0.8666065000000001,0.003470198,0.001998076,0.49897605,0.15,398714138.0,327368418.6,400131.6013,0.0,0.003986797,0.003986797,-0.011960392,0.69063489,39.8714138,32.7368418,0.013685458000000001,-0.001873315,0.066570241,0.009645378000000001,-0.010330653,0.02365521,-0.020487612,-0.005111028,-0.037452992000000004,1.595892053,0.1,0.038363101000000004,0.033336227999999996,-0.0072218709999999995,0.15,1,0,0,0,0,,,,,
18170948,0.030506221,0.022736947999999996,-0.004730507,0.15,0.0,900.0,900.0,900.0,900.0,900.0,900.0,-0.6947336829999999,-0.708300811,1.6164647490000001,1.61623655,1.647840205,3.0795748560000002,3.139769452,33.60172088,33.60172088,12.404597099999998,-0.001303782,-0.006004765,0.0015873410000000001,0.004718672,0.000494092,-0.130350779,3.0,-1.0,0.0,15,0,0,1,0,0.0,0,0,0,0,0,0.005387704,0.0,1.211953151,1.584575366,0.10141484099999999,,4.078215403,4.62e-06,8.12e-06,-1.8100000000000002e-07,0.0,-0.139806378,0.09803636,-10.01738419,-2.46e+27,966.1798098999999,12.404602,-0.0026559340000000004,-0.009739252,-0.0016462410000000001,-0.184719014,0.143646138,-9.949873092999999,-0.002454701,-0.003965077,0.00198492,-0.046125232,-0.058125235,0.400600131,0.876690337,13.25409636,25.84457592,-0.251809589,8.672876659,0.10999999,-37.69777006,399.502297,12.404602,96617.60557,1.147977057,-0.252649332,0.5202244429999999,-0.21773660399999997,0.001497151,0.007895518,-0.007834113,0.008008662,0.0,1.044843,0,0.8666065000000001,0.003470198,0.001998076,0.49897605,0.15,398714138.0,327368418.8,400131.8018,0.0,0.001982396,0.001982396,-0.005947189,0.7448591529999999,39.8714138,32.7368418,0.013879022,-0.001942969,0.066367644,0.009858436,-0.010363915,0.023423355,-0.005613891,0.013600089,-0.03475956,1.59580717,0.1,0.038423587,0.033693085,-0.007213613000000001,0.15,1,0,0,0,0,,,,,
18215685,0.028910077000000003,0.023687156,-0.005325132,0.15,0.0,900.0,900.0,900.0,900.0,900.0,900.0,-1.03590407,-1.0561425340000001,2.451747711,2.451462462,2.499391206,3.842245761,3.9173478860000004,42.45761784,42.45761784,12.40459588,-0.001296728,-0.006012986999999999,0.001622867,0.004727282,0.0005539890000000001,-0.130330971,3.0,-1.0,0.0,15,0,0,1,0,0.0,0,0,0,0,0,0.0047324640000000005,0.0,1.253730689,1.5810337069999998,0.089081011,,5.026149534,4.67e-06,7.67e-06,2.07e-07,0.0,-0.132072212,0.055293338,-10.058838699999999,-2.46e+27,966.1830754000001,12.404602,-0.00468049,-0.003302046,0.002156864,-0.120015506,0.221906508,-9.903746734,-0.0056129890000000005,-0.006558451,0.004947857,-0.012930788,-0.024930789,0.40060007799999997,1.057113281,13.25409641,25.96048578,-0.254127787,8.069271182,0.10999999,-39.52892388,399.52529389999995,12.404602,96617.33951,1.147973778,-0.12101957699999999,-0.17646713100000003,0.175904168,-0.0016417629999999999,0.000810892,-0.002875804,0.008008662,0.0,1.044843,0,0.8666065000000001,0.003470198,0.001998076,0.49897605,0.15,398714138.0,327368419.0,400131.9758,0.0,0.0,0.0,-6.6e-05,0.797509198,39.8714138,32.7368418,0.014041248999999999,-0.0019507679999999999,0.066195615,0.009757509000000001,-0.000979149,0.023396382,-0.021295066,1.200099058,-0.010483277,1.5957213419999998,0.1,0.038416872000000005,0.033761486,-0.007212456999999999,0.15,1,0,0,0,0,,,,,
18252843,0.028473198999999998,0.023654697000000002,-0.005479241,0.15,0.0,900.0,900.0,900.0,900.0,900.0,900.0,0.589515123,0.6010312879999999,3.287030674,3.286688375,3.3509422069999997,4.6049166669999995,4.69492632,51.31351481,51.31351481,12.40459465,-0.001289675,-0.006021208,0.001658393,0.004735891,0.000613886,-0.130311163,3.0,-1.0,0.0,15,0,0,1,0,0.0,0,0,0,0,0,0.004077224,0.0,1.295508227,1.577492049,0.076747181,,5.974083665,4.52e-06,9.08e-06,-1.35e-06,0.0,-0.152339366,0.107152414,-10.01260184,-2.46e+27,966.1775403999999,12.404602,0.00094387,-0.002854877,-0.005722707,-0.144380905,0.202408828,-9.949734923,-0.003413367,-0.006581028,0.006007743,0.05481238099999999,0.04281238,0.40060003,1.230730737,13.25413589,25.91482893,-0.25321386100000004,7.579538619,0.10999999,-41.36345065,399.62064,12.404602,96616.266,1.147961,0.427258504,-0.361451201,-0.11593965199999999,0.004872662,0.0037107459999999996,-0.001896119,0.008008662,0.0,1.044843,0,0.8666065000000001,0.003470198,0.001998076,0.49897605,0.15,398714138.0,327368419.0,400129.771,0.0,0.0,0.0,-0.006079216,0.708336526,39.8714138,32.7368418,0.013932975,-0.001424629,0.066287455,0.006946238,0.089702735,0.025137967,-0.30072840100000003,12.467030900000001,0.20009781199999999,1.59562735,0.1,0.0268808,0.033607526,-0.00721697,0.0,1,0,0,0,0,,,,,
18301159,0.019530171000000002,0.022848999,0.002216422,0.0,0.0,900.0,900.0,900.0,900.0,900.0,900.0,-0.633394108,-0.645770361,4.122313636,4.121914287,4.202493209,5.367587572,5.472504753,60.16941178,60.16941178,12.40459343,-0.001282621,-0.00602943,0.001693919,0.004744501,0.0006737830000000001,-0.130291355,3.0,-1.0,0.0,15,0,0,1,0,0.0,0,0,0,0,0,0.003421985,0.0,1.337285764,1.57395039,0.064413351,,6.9220177960000004,4.2e-06,8.82e-06,-1.75e-06,0.0,-0.17260652,0.159011489,-9.966364979,-2.46e+27,966.1720055,12.404602,-0.001418771,-0.008180804,0.001729535,-0.192557827,0.18246337199999998,-9.882039287000001,-0.001213745,-0.006603605,0.00706763,0.122555549,0.110555548,0.400599982,1.4043481930000001,13.25417538,25.86917209,-0.252299934,7.089806055,0.10999999,-43.19797743,399.6162738,12.404602,96616.27901,1.147961279,0.198046307,0.08894381300000001,-0.100792359,0.002346565,0.008032491,-0.0067687730000000005,0.000568729,0.0,1.556464834,0,0.710244999,0.000246433,0.00014189200000000002,0.700414255,0.01065213,398714138.0,327368419.0,400127.5661,0.0,0.0,0.0,-0.012092418,0.619163854,39.8714138,32.7368418,0.013824701000000002,-0.00089849,0.06637929599999999,0.004134968,0.180384619,0.026879552999999997,-0.580161735,23.73396273,0.41067890100000004,1.595533359,0.1,0.026882151,0.033671149,-0.00721697,1.0,1,0,0,0,0,,,,,
18341896,0.021470048,0.023231764,0.00247921,1.0,0.0,1500.0,1500.0,2000.0,1489.0,1510.0,1511.0,-1.2299192559999998,-1.25394764,4.957596598,4.9571402,5.05404421,6.130258477000001,6.250083187,69.02530875,69.02530875,12.40459221,-0.001275567,-0.006037651999999999,0.001729445,0.00475311,0.00073368,-0.130271547,3.0,-1.0,0.0,15,0,0,1,0,0.0,0,0,0,0,0,0.002766745,0.0,1.3790633019999998,1.570408732,0.052079521,,7.869951927000001,3.91e-06,7.83e-06,2.46e-07,0.0,13.37107036,0.16984847399999997,-9.906999142,-2.46e+27,966.1711177999999,12.404602,-0.010343168,-0.0018402339999999998,-0.0023359789999999997,28.03304769,0.179877607,-9.911035753,-0.001781279,-0.004609434,0.003862788,0.190298717,0.17829871600000002,0.40059993299999996,1.57796565,13.25421486,25.82351525,-0.251386008,6.600073492000001,0.10999999,-45.0325042,399.6232587,12.404602,96616.21226,1.14796043,-0.221410469,0.221992417,0.171542222,0.001223069,0.00400339,0.000624923,0.0,0.0,1.5955746000000002,0,0.6982923000000001,0.0,0.0,0.71581274,1.0,398714138.0,327368419.0,400125.3613,0.0,0.0,0.0,-0.018105621000000002,0.5299911820000001,39.8714138,32.7368418,0.011913055,0.075475447,0.068002445,-0.030403327,1.564354686,0.052485355,-0.807269628,32.37973916,0.574532746,1.595495214,0.1,0.026917443,0.033767301,-0.00721697,1.0,1,0,0,0,0,,,,,
18398633,0.020476062,0.023080924,0.001468845,1.0,0.0,1500.0,1500.0,2000.0,1489.0,1510.0,1511.7879580000001,0.189178122,0.19287139399999997,5.79287956,5.792366112000001,5.9055952110000005,6.892929382999999,7.02766162,77.88120572,77.88120572,12.40459098,-0.001268513,-0.0060458740000000006,0.0017649710000000002,0.00476172,0.000793577,-0.130251739,3.0,-1.0,0.0,15,0,0,1,0,0.0,0,0,0,0,0,0.002111506,0.0,1.42084084,1.566867073,0.039745691,,8.817886058,3.1e-06,8.66e-06,0.0,0.0,34.0360711,0.159148096,-9.840740347,-2.46e+27,966.1726700999999,12.404602,-0.0007931860000000001,-0.005848474,0.007111809,51.54321934,0.21832146100000002,-9.808374234,-0.00380162,-0.001556431,-0.001581115,0.258041885,0.246041885,0.400599885,1.751583106,13.25425434,25.777858399999996,-0.250472081,6.110340927999999,0.10999999,-46.86703098,399.5188597,12.404602,96617.42384,1.147974872,0.567612742,-0.141159141,-0.20997095899999998,-0.00252897,0.005316834,-0.006559141,0.0,0.0,1.5955746000000002,0,0.6982923000000001,0.0,0.0,0.71581274,1.0,398714138.0,327368419.0,400123.1564,0.0,0.0,0.0,-0.024118824,0.44081850899999997,39.8714138,32.7368418,0.009054605,0.191670895,0.07042956,-0.081598902,3.627325197,0.09062031599999999,-1.006905687,39.64936005,0.713853917,1.595486391,0.1,0.026839573,0.033853523999999996,-0.00721697,1.0,1,0,0,0,0,,,,,
18439369,0.019713897,0.023518267000000002,0.002083573,1.0,0.0,1501.0,1500.0,2000.0,1489.0,1510.0,1511.0,3.2359028239999996,3.299110055,6.628162522999999,6.627592025,6.757146212,7.655600288,7.8052400539999995,86.73710269,86.73710269,12.40458976,-0.00126146,-0.006054095,0.001800497,0.004770329,0.0008534739999999999,-0.130231931,3.0,-1.0,0.0,15,0,0,1,0,0.0,0,0,0,0,0,0.0014562660000000001,0.0,1.4626183780000002,1.5633254140000001,0.027411861000000003,,9.765820188,3.33e-06,8.69e-06,0.0,4.94e-07,49.46657778,0.15240947,-9.790828665,-2.46e+27,966.1729585,12.404602,0.001583982,-0.002778225,0.00263496,46.55266427,0.191530053,-9.843236473,-0.005344407,0.000132264,-0.005980055,0.328982187,0.31698218699999997,0.400599825,1.9247601000000003,13.25429614,25.72479122,-0.24940990100000002,5.626202441,0.10999999,-48.70352366,399.5276673,12.404602,96617.32437,1.1479736170000001,-0.09369049,-0.38946883600000004,0.489320455,0.0031508120000000002,0.007040106,-0.00040214900000000003,0.0,0.0,1.5955746000000002,0,0.6982923000000001,0.0,0.0,0.71581274,1.0,398714138.0,327368419.3,400120.9956,0.029705941,0.0,0.029705941,-0.029911982,0.358963511,39.8714138,32.7368418,0.005276778,0.34306998,0.073423367,-0.130315219,5.59032415,0.127028894,-1.143527673,44.60794227,0.813286999,1.59546024,0.1,0.026815191000000002,0.033782526,-0.00721697,1.0,1,0,0,0,0,,,,,
18480106,0.021042322999999998,0.023185171,0.001412056,1.0,0.0,1500.0,1500.0,2000.0,1489.0,1510.0,1511.0,4.6998786169999995,4.791715008,7.463445485,7.4628179370000005,7.608697213999999,8.418271193999999,8.582818488,95.59299966,95.59299966,12.40458853,-0.001254406,-0.006062316999999999,0.0018360229999999998,0.004778939,0.0009133710000000001,-0.130212123,3.0,-1.0,0.0,15,0,0,1,0,0.0,0,0,0,0,0,0.000801026,0.0,1.504395915,1.5597837559999999,0.015078032,,10.71375432,2.97e-06,7.8e-06,0.0,1.0199999999999999e-05,44.92205756,0.160789039,-9.803298182,-2.46e+27,966.1684243999999,12.404602,-7.659999999999999e-05,-0.008760746,-0.001434125,41.980079700000005,0.21087802100000003,-9.856749923999999,-0.005064834,-0.0033852879999999998,-0.006391376999999999,0.44144083100000003,0.429440831,0.40059962,2.09221721,13.25436806,25.57549254,-0.246422488,5.214709245,0.10999999,-50.56554583,399.5986752,12.404602,96616.50209,1.14796385,-0.601651311,0.708436272,-0.046355165,0.003251579,0.006614531999999999,2.84e-05,0.0,0.0,1.5955746000000002,0,0.6982923000000001,0.0,0.0,0.71581274,1.0,398714138.0,327368431.1,400120.7952,1.382676535,0.0,1.382676535,-0.025903181,0.603077647,39.8714138,32.7368418,-0.0020094270000000003,0.628807473,0.07857969299999999,-0.169570592,7.171827865,0.15684952800000002,-1.03968558,40.747513700000006,0.7605056290000001,1.595367964,0.1,0.026891337,0.033798939,-0.00721697,1.0,1,0,0,0,0,,,,,
18520843,0.022793567999999997,0.023236097,0.0021568579999999998,1.0,0.0,1500.0,1500.0,2000.0,1489.94939,1509.05061,1511.0,6.471331046,6.597758089,8.298728447,8.29804385,8.460248215,9.180942099,9.360396921,104.44889659999998,104.44889659999998,12.40458731,-0.001247352,-0.006070539000000001,0.001871549,0.004787548,0.000973267,-0.130192316,3.0,-1.0,0.0,15,0,0,1,0,0.0,0,0,0,0,0,0.000145787,0.0,1.5461734530000002,1.556242097,0.0027442020000000003,,11.66168845,2.62e-06,8.64e-06,0.0,1.9600000000000002e-05,40.37753734,0.169168608,-9.815767698,-2.46e+27,966.1638902000001,12.404602,-0.004063443,-0.0031275490000000003,-0.002810348,38.15155458,0.16808594,-9.842490983,-0.00478526,-0.00690284,-0.006802698,0.553899475,0.541899475,0.400599414,2.25967432,13.25443997,25.42619386,-0.24343507399999997,4.8032160489999995,0.10999999,-52.42756799,399.5316645,12.404602,96617.27881,1.147973083,0.195297563,-0.015371095,0.29554788600000004,0.001092033,0.0052329609999999995,-0.004907626,0.0,0.0,1.5955746000000002,0,0.6982923000000001,0.0,0.0,0.71581274,1.0,398714138.0,327368442.9,400120.5947,2.7356471289999997,0.0,2.7356471289999997,-0.021894379,0.847191782,39.8714138,32.7368418,-0.009295633000000001,0.9145449659999999,0.08373601900000001,-0.20882596399999998,8.75333158,0.186670162,-0.9358434870000001,36.88708513,0.707724259,1.595275688,0.1,0.026896329,0.033836995,-0.00721697,1.0,1,0,0,0,0,,,,,
18557580,0.019803331,0.023826708999999998,0.001928785,1.0,0.0,1501.0,1500.0,2000.0,1489.0,1510.0,1511.0,8.045184419,8.202335519,9.13401141,9.133269762000001,9.311799216,9.943613005,10.13797535,113.3047936,113.3047936,12.40458608,-0.001240298,-0.006078760999999999,0.001907075,0.004796158,0.001033164,-0.13017250800000002,3.0,-1.0,0.0,15,0,0,1,0,0.0,0,0,0,0,0,0.0,-0.013097757,1.5553479380000002,1.55542459,0.006348178,220.93997630000004,14.46136081,3.04e-06,8.18e-06,0.0,3.3e-05,36.667826500000004,0.22083722,-9.85140774,-2.46e+27,966.1630979,12.404602,0.000141044,-0.003729798,-0.0021976229999999997,34.72367153,0.155591758,-9.867638671,-0.0031086079999999997,-0.008272314000000001,-0.006538487,0.666358118,0.654358118,0.400599209,2.42713143,13.25451188,25.27689518,-0.24044766,4.391722853,0.10999999,-54.28959016,399.6116066,12.404602,96616.33383999999,1.147961931,0.345822377,0.169000189,-0.426482476,-0.0033254870000000002,0.006514525,-0.004746087,0.0,0.0,1.5955746000000002,0,0.6982923000000001,0.0,0.0,0.71581274,1.0,398714138.0,327368454.7,400120.3943,4.088617724,0.0,4.088617724,-0.017885577,1.0913059170000001,39.8714138,32.7368418,-0.019708446,1.333502335,0.091499008,-0.242622165,10.15442052,0.21299281899999997,-0.840980223,33.60529094,0.644439122,1.595156946,0.1,0.026813207000000002,0.033789046,-0.00721697,1.0,1,0,0,0,0,,,,,
18598317,0.020209609,0.023651087,0.001701487,1.0,0.0,1500.0,1500.0,2000.0,1490.0,1509.0,1511.0,9.712804319,9.902571554,9.969294372,9.968495674,10.16335022,10.70628391,10.91555379,122.1606906,122.1606906,12.40458486,-0.001233245,-0.0060869819999999995,0.001942601,0.004804767,0.001093061,-0.1301527,3.0,-1.0,0.0,15,0,0,1,0,0.0,0,0,0,0,0,0.0,-0.029943615,1.5551926169999999,1.555386635,0.014512973,220.42505609999998,17.7909331,3.27e-06,8.9e-06,0.0,5.379999999999999e-05,33.22239123,0.286209842,-9.894382874,-2.46e+27,966.16349,12.404602,-0.004553958,-0.007056731,-0.0050456979999999995,31.13882286,0.17119243899999997,-9.862927638,-0.000989684,-0.008961772,-0.006060421,0.778816762,0.766816762,0.40059900299999995,2.59458854,13.254583800000002,25.12759651,-0.237460246,3.9802296569999998,0.10999999,-56.15161232,399.61193910000003,12.404602,96616.35116,1.147962054,0.18321414800000002,0.298562465,-0.000994036,0.001908648,0.009473298,-0.004541801,0.0,0.0,1.5955746000000002,0,0.6982923000000001,0.0,0.0,0.71581274,1.0,398714138.0,327368466.6,400120.1938,5.441588317999999,0.0,5.441588317999999,-0.013876775,1.3354200520000001,39.8714138,32.7368418,-0.031111048999999998,1.794633115,0.10008718900000001,-0.274690155,11.49839556,0.23820812,-0.7489593859999999,30.50667501,0.5778288079999999,1.5950298269999998,0.1,0.026838711,0.033824011,-0.00721697,1.0,1,0,0,0,0,,,,,
18639054,0.021750332,0.023788047000000003,0.0017513939999999999,1.0,0.0,1500.313263,1500.0,2000.0,1489.0,1510.0,1511.0,10.88541768,11.09808975,10.80457733,10.80372159,11.01490122,11.46895482,11.69313222,131.0165875,131.0165875,12.40458364,-0.001226191,-0.006095204,0.001978128,0.004813377,0.001152958,-0.130132892,3.0,-1.0,0.0,15,0,0,1,0,0.0,0,0,0,0,0,0.0,-0.046789472,1.555037297,1.555348681,0.022677769,219.9101358,21.1205054,2.93e-06,8.4e-06,0.0,7.45e-05,30.04802783,0.329505333,-9.925102508,-2.46e+27,966.1650958999999,12.404602,-0.003204725,-0.003892306,-0.001522991,29.07702586,0.148555069,-9.888087458,6.7e-06,-0.008897096,-0.003684295,0.893095217,0.881095217,0.40059882,2.7601618439999998,13.25465299,24.97809898,-0.23446891,3.584212878,0.10999999,-57.96528882,399.5859856,12.404602,96616.63992,1.147965453,-0.166097824,-0.018436087,-0.246800711,0.00018618,0.00690627,-0.005380995,0.0,0.0,1.5955746000000002,0,0.6982923000000001,0.0,0.0,0.71581274,1.0,398714138.0,327368479.6,400119.9802,6.794294859,0.0,6.794294859,-0.009933987,1.571492195,39.8714138,32.7368418,-0.041954498,2.27762017,0.108778498,-0.302102489,12.73011653,0.260505848,-0.643934644,27.64250937,0.519443808,1.5949165619999999,0.1,0.026858812000000003,0.033687693,-0.00721697,1.0,1,0,0,0,0,,,,,
18679582,0.020775557,0.023310817,0.0012586189999999999,1.0,0.0,1500.0,1500.0,2000.0,1489.0,1510.0,1511.0,12.13512741,12.37225636,11.6398603,11.6389475,11.86645222,12.23162572,12.47071066,139.87248449999998,139.87248449999998,12.40458241,-0.001219137,-0.0061034259999999995,0.002013654,0.0048219859999999995,0.001212855,-0.130113084,3.0,-1.0,0.0,15,0,0,1,0,0.0,0,0,0,0,0,0.0,-0.06363533,1.554881977,1.5553107259999999,0.030842564,219.39521549999998,24.45007769,3.05e-06,7.85e-06,0.0,9.32e-05,27.47292082,0.323995091,-9.928729008,-2.46e+27,966.1693849,12.404602,-0.0067088090000000005,-0.006322475,-0.003916971,26.54039587,0.25666970699999997,-9.861245163,-0.00147852,-0.007165266,0.00288786,1.022521911,1.0105219109999999,0.40059882,2.910054207,13.25469952,24.82694625,-0.231444924,3.3170229439999996,0.10999999,-59.37653234,399.6757522,12.404602,96615.62092,1.147953345,-0.188568333,-0.5821755670000001,0.43470887,0.002496517,0.008540016999999999,-0.005520585,0.0,0.0,1.5955746000000002,0,0.6982923000000001,0.0,0.0,0.71581274,1.0,398714138.0,327368529.6,400119.3789,8.13924785,0.0,8.13924785,-0.007929586,1.5714222009999999,39.8714138,32.7368418,-0.05156183,2.808924715,0.11769779400000001,-0.319222603,13.71367837,0.276353721,-0.5101622720000001,25.29664106,0.479242441,1.594833926,0.1,0.026927936,0.03336395,-0.00721697,1.0,1,0,0,0,0,,,,,
18716528,0.014111031999999999,0.017836036,0.0021263989999999997,1.0,0.0,1500.155031,1500.0,2000.0,1492.844969,1506.155031,1508.0,13.16227916,13.41942922,12.47514326,12.47417341,12.71800322,12.99429663,13.24828909,148.72838149999998,148.72838149999998,12.40458119,-0.001212084,-0.006111648000000001,0.00204918,0.0048305959999999995,0.001272752,-0.130093276,3.0,-1.0,0.0,15,0,0,1,0,0.0,0,0,0,0,0,0.0,-0.080481187,1.5547266569999998,1.555272772,0.039007359,218.8802952,27.77964998,3.06e-06,8.36e-06,0.0,0.000114433,24.89781381,0.31848484899999996,-9.932355509,-2.46e+27,966.173674,12.404602,0.00038290300000000003,-0.00850399,0.003899679,24.37591534,0.106597945,-9.8396863,-0.002963737,-0.005433435,0.009460015,1.151948605,1.139948605,0.40059882,3.05994657,13.25474606,24.67579351,-0.228420939,3.049833009,0.10999999,-60.78777586,399.423178,12.404602,96618.51866,1.14798779,0.8330106290000001,-0.009433619,0.48815030600000003,0.00026325599999999996,0.00683656,-0.005887641999999999,0.0,0.0,1.5955746000000002,0,0.6982923000000001,0.0,0.0,0.71581274,1.0,398714138.0,327368579.5,400118.7776,9.48420084,0.0,9.48420084,-0.005925185,1.571352207,39.8714138,32.7368418,-0.061169163,3.3402292589999996,0.12661709,-0.33634271600000004,14.6972402,0.292201593,-0.37638990000000005,22.95077276,0.43904107299999995,1.594751291,0.1,0.026965621000000002,0.032957709,-0.00721697,1.0,1,0,0,0,0,,,,,
18761265,0.013772808999999999,0.017435254,0.000168065,1.0,0.0,1500.0,1500.0,2000.0,1492.5759150000001,1506.4240849999999,1508.0,14.18937671,14.466517499999998,13.31042622,13.30939932,13.56955422,13.75696753,14.02586752,157.5842784,157.5842784,12.40457996,-0.00120503,-0.006119869,0.002084706,0.004839205,0.001332649,-0.130073468,3.0,-1.0,0.0,15,0,0,1,0,0.0,0,0,0,0,0,0.0,-0.097327045,1.5545713369999998,1.5552348169999999,0.047172154,218.36537489999998,31.10922228,2.53e-06,7.1e-06,0.0,0.00013395399999999998,23.05819803,-0.051077174,-10.02514664,-1.59e+27,966.1738508999999,12.404602,-0.0005734669999999999,-0.0055916559999999995,0.017977164,22.24900931,0.047217511,-9.871102146,0.004231631,-0.007931008,0.04055022,1.2813753,1.2693753,0.40059882,3.2098389330000003,13.25479259,24.52464078,-0.22539695399999998,2.7826430739999997,0.10999999,-62.19901938,399.4761631,12.404602,96617.90567000001,1.147980534,0.017041363,0.040416192999999996,0.241378161,0.00412994,0.0051839370000000004,0.002497331,0.0,0.0,1.5955746000000002,0,0.6982923000000001,0.0,0.0,0.71581274,1.0,398714138.0,327368629.4,400118.1762,10.82915383,0.0,10.82915383,-0.003920784,1.571282214,39.8714138,32.7368418,-0.072800916,3.993608734,0.136992725,-0.33986111700000005,15.58461574,0.298670528,-0.284693133,21.28510575,0.21550909199999999,1.5976807430000002,0.1,0.027025322999999997,-0.10224322400000001,-0.00721697,1.0,1,0,0,0,0,,,,,
18800004,0.010230607,-0.106984349,-0.002126393,1.0,0.0,1499.0,1500.0,2000.0,1493.0,1506.0,1508.0,15.07684265,15.37135038,14.14570918,14.14462524,14.42110522,14.51963844,14.80344596,166.4401754,166.4401754,12.40457874,-0.0011979760000000001,-0.006128091,0.002120232,0.004847815,0.0013925460000000001,-0.13005366,3.0,-1.0,0.0,15,0,0,1,0,0.0,0,0,0,0,0,0.0,-0.11417290199999999,1.5544160169999999,1.5551968619999998,0.05533695,217.8504546,34.43879457,2.34e-06,6.63e-06,0.0,0.000151873,21.33497592,-0.478251475,-10.13204834,-5.88e+26,966.1733770999999,12.404602,0.002362323,-0.006391526999999999,0.035437192,20.48802438,0.020292853,-9.85958069,0.012800727,-0.011097896999999999,0.07552048,1.410801994,1.398801994,0.40059882,3.359731296,13.25483912,24.37348804,-0.222372968,2.515453139,0.10999999,-63.610262899999995,399.6169287,12.404602,96616.28443,1.147961286,0.263296338,0.08006177099999999,0.414568845,0.001057927,0.007382393,0.018545454,0.0,-0.104175626,1.5955746000000002,0,0.6957946840000001,0.037167652,-0.036257927,0.71325246,1.0,398714138.0,327368679.3,400117.5749,12.17410682,0.0,12.17410682,-0.0019163829999999998,1.57121222,39.8714138,32.7368418,-0.08475304,4.666306931,0.14759882900000001,-0.341227006,16.4567695,0.303655218,-0.19965495600000002,19.72708262,-0.037035505,1.601086868,0.1,0.025951495,-0.4921237,-0.00721697,1.0,1,0,0,0,0,,,,,
18846739,0.001005721,-0.21768664199999999,-0.015670029,1.0,0.0,1495.417684,1500.0,2000.0,1495.582316,1503.417684,1388.493899,15.83661248,16.14602097,14.98099215,14.97985115,15.27265622,15.28230934,15.58102439,175.2960724,175.2960724,12.40457752,-0.001190922,-0.006136313000000001,0.002155758,0.004856424,0.0014524429999999999,-0.130033853,3.0,-1.0,0.0,15,0,0,1,0,0.0,0,0,0,0,0,0.0,-0.131018759,1.5542606959999998,1.5551589080000001,0.063501745,217.3355344,37.76836686,2.33e-06,6.03e-06,0.0,0.000136612,19.69224731,-0.5784275729999999,-10.20586125,-4.17e+26,966.1707759999999,12.404602,0.044779055,-0.008300797,0.161739724,19.49837302,-0.535533444,-10.31688019,0.048426449,-0.012124231999999999,0.126437766,1.544315794,1.5323157969999999,0.400598705,3.509387593,13.25489456,24.223942899999997,-0.219380957,2.258790878,0.10999999,-64.99017509,399.5403442,12.404602,96617.20399,1.147972241,1.207421938,0.040198292000000004,3.859889002,0.005489509,0.005959123,0.044758322999999996,0.0,-0.260985376,1.5955746000000002,0,0.69235434,0.09314332199999999,-0.090863515,0.7097257859999999,1.0,398714138.0,327368730.4,400117.0352,13.49846369,0.000264053,13.49837568,-0.000176035,1.571123794,39.8714138,32.7368418,-0.09399746699999999,5.348256385,0.157130174,-0.347098808,17.24323421,0.30240353,-0.32600354600000003,18.25829585,-0.192500423,1.606810311,0.1,0.021097491,-0.44456781700000003,-0.00721697,1.0,1,0,0,0,0,,,,,
18887476,-0.016244985,-0.19753483,-0.031331667,1.0,0.0,1487.838568,1500.0,2000.0,1503.161432,1495.838568,1396.0,16.64642435,16.97172181,15.81627511,15.81507706,16.12420723,16.04498025,16.35860282,184.15196930000002,184.15196930000002,12.40457629,-0.001183869,-0.006144535,0.002191284,0.004865034,0.00151234,-0.130014045,3.0,-1.0,0.0,15,0,0,1,0,0.0,0,0,0,0,0,0.0,-0.147864617,1.5541053759999999,1.555120953,0.07166654,216.82061409999997,41.09793915,1.1599999999999999e-05,-0.000678812,0.0,6.3e-05,18.16285508,-0.21818403100000003,-10.23308452,-1.42e+27,966.1651798,12.404602,0.10992299300000001,-0.005695673,0.245808788,17.97751924,-0.345125487,-10.3620759,0.12214841,-0.010136628,0.19980876600000003,1.7023238440000001,1.6903238669999998,0.40059790100000003,3.657629133,13.25500333,24.08403215,-0.21658056899999997,2.0652215469999997,0.10999999,-66.18231684,399.6763398,12.404602,96615.5893,1.147953027,1.391913142,0.272905536,1.90274978,0.05985904400000001,0.006578151,0.174677083,0.0,-0.24037660800000002,1.5955746000000002,0,0.693252885,0.085825093,-0.083724415,0.710646862,1.0,398714138.0,327368808.2,400117.83700000006,14.37438688,0.006277255,14.37229446,-0.004184837,1.5706340380000001,39.8714138,32.7368418,-0.099429407,6.043231784,0.165148237,-0.359315021,17.90904712,0.292370905,-0.749988691,16.91515554,-0.21127532,1.615796581,0.1,0.010745301,-0.401527626,-0.00721697,1.0,1,0,0,0,0,,,,,
18928213,-0.030263011,-0.158404134,-0.042379457999999995,1.0,0.0,1480.259452,1500.0,2000.0,1510.740548,1488.259452,1417.0,17.42927377,17.769810699999997,16.65155807,16.65030297,16.97575823,16.80765115,17.13618126,193.00786630000002,193.00786630000002,12.40457507,-0.001176815,-0.006152756,0.00222681,0.0048736429999999996,0.0015722370000000002,-0.12999423699999998,3.0,-1.0,0.0,15,0,0,1,0,0.0,0,0,0,0,0,0.0,-0.164710474,1.553950056,1.5550829990000001,0.079831335,216.3056938,44.42751145,-1.47e-05,-0.00172038,0.0,-0.000271078,16.63346284,0.14205951,-10.26030778,-2.43e+27,966.1595836000001,12.404602,0.211944978,-0.004820652,0.256080062,16.48461663,0.154409978,-10.28088978,0.19587037100000002,-0.008149023,0.273179766,1.860331894,1.848331937,0.400597098,3.8058706719999997,13.25511211,23.94412139,-0.21378018,1.871652216,0.10999999,-67.37445859999998,399.572411,12.404602,96616.79741,1.147967327,1.542416689,0.52441669,-0.47696239999999995,0.151311857,-0.000903497,0.264440817,0.0,-0.221497279,1.5955746000000002,0,0.69401185,0.07911305,-0.077176656,0.7114249090000001,1.0,398714138.0,327368886.0,400118.6387,15.25031006,0.012290458,15.24621324,-0.008193639,1.570144283,39.8714138,32.7368418,-0.104861347,6.738207182999999,0.17316629999999997,-0.371531234,18.57486003,0.28233828,-1.173973836,15.57201524,-0.230050217,1.6247828519999998,0.1,-0.003498963,-0.376229482,-0.00721697,1.0,1,0,0,0,0,,,,,
18968950,-0.04920744,-0.150054359,-0.045185944000000006,1.0,0.0,1477.0,1500.0,2000.0,1519.639328,1479.360672,1424.0,18.10685018,18.46066519,17.48684103,17.48552889,17.82730923,17.57032206,17.91375969,201.86376330000002,201.86376330000002,12.40457384,-0.001169761,-0.006160978,0.002262336,0.004882253,0.001632134,-0.129974429,3.0,-1.0,0.0,15,0,0,1,0,0.0,0,0,0,0,0,0.0,-0.181556332,1.553794736,1.555045044,0.08799613099999999,215.7907735,47.75708374,-9.87e-05,-0.002553134,0.0,-0.000822802,15.30298618,0.42463148100000003,-10.26123675,-2.46e+27,966.1582779999999,12.404577900000001,0.305027714,-0.00853822,0.14764861099999999,14.74631621,0.5401233320000001,-10.31559747,0.256123372,-0.010357861999999999,0.176037135,2.018339943,2.006340007,0.40059629399999996,3.954112212,13.25522089,23.80421064,-0.21097979100000003,1.678082885,0.10999999,-68.56660035,399.5673702,12.404572,96616.86105,1.147968125,2.3709899969999997,-0.030929289,-2.81956244,0.231709478,0.0068767509999999995,0.23627611899999998,0.0,-0.20398333899999999,1.5955746000000002,0,0.694662232,0.07288029,-0.071096452,0.712091603,1.0,398714138.0,327368963.7,400119.4405,16.12623325,0.018303661000000002,16.12013203,-0.01220244,1.569654528,39.8714138,32.7368418,-0.115372678,7.552672097,0.18051445100000002,-0.428091254,19.15452557,0.270556759,-1.429660994,14.0712706,-0.182240868,1.626663389,0.1,-0.019597918,-0.343929108,-0.00721697,1.0,1,0,0,0,0,,,,,
19005687,-0.053365058,-0.125337218,-0.04294563,1.0,0.0,1477.0,1500.0,2000.0,1528.89878,1470.10122,1427.0,18.70555619,19.07095361,18.32212399,18.3207548,18.67886023,18.33299296,18.69133812,210.71966030000002,210.71966030000002,12.40457262,-0.001162707,-0.0061692,0.002297862,0.004890862,0.001692031,-0.129954621,3.0,-1.0,0.0,15,0,0,1,0,0.0,0,0,0,0,0,0.0,-0.19840218899999998,1.553639416,1.555007089,0.096160926,215.27585319999997,51.08665603,-0.00022903099999999998,-0.0032180579999999998,0.0,-0.0014258839999999999,13.97925753,0.704568518,-10.26127372,-2.46e+27,966.1571179,12.40455298,0.34614988799999996,-0.01292933,0.028581129,13.34769155,0.848089797,-10.31795091,0.315919451,-0.012709062,0.073109991,2.1763479930000003,2.164348076,0.40059549,4.102353752,13.25532967,23.66429988,-0.208179403,1.4845135530000002,0.10999999,-69.75874209999999,399.70781489999996,12.404572,96615.21048,1.147948458,1.214749105,-0.56550899,-2.402294922,0.304160786,0.005283397,0.14824726300000002,0.0,-0.187562017,1.5955746000000002,0,0.6952231740000001,0.067031217,-0.065390539,0.71266661,1.0,398714138.0,327369041.5,400120.2422,17.00215643,0.024316862999999998,16.99405081,-0.016211242,1.569164773,39.8714138,32.7368418,-0.126056324,8.37119058,0.187839875,-0.486155596,19.73126864,0.258715908,-1.679638803,12.56517939,-0.132172711,1.628302871,0.1,-0.04384609,-0.30743459300000003,-0.00721697,1.0,1,0,0,0,0,,,,,
19054424,-0.066198073,-0.11267318300000001,-0.034922398,1.0,0.0,1480.477896,1500.0,2000.0,1530.477896,1468.522104,1440.0,19.20149977,19.57677937,18.83124066,18.82957629,19.19764658,18.80415484,19.17172901,217.4542245,217.4542245,12.40444621,-0.00115722,-0.006174789,0.002324137,0.00456202,0.001879158,-0.129916588,3.0,-1.0,0.0,15,0,0,1,0,0.0,0,0,0,0,0,0.0,-0.198498781,1.5531796869999999,1.554859508,0.126303793,214.5658469,53.13742158,-0.000434819,-0.003896079,0.0,-0.002060417,12.64164308,0.772543007,-10.24374043,-2.46e+27,966.1583581,12.40452807,0.36720185299999997,-0.024388792000000003,-0.040667106,12.10204271,0.712090617,-10.35180875,0.346687824,-0.016850063000000002,-0.015586946,2.343687622,2.331687719,0.400595118,4.252979368,13.25543826,23.52710443,-0.205433323,1.297991055,0.10999999,-70.93858398,399.64675919999996,12.404541,96615.94969,1.14795734,0.285798955,-0.30149650899999997,-2.654088116,0.35256295299999996,-0.001420303,0.022573827999999997,0.0,-0.17212216100000002,1.5955746000000002,0,0.695706316,0.061527458,-0.060021495,0.713161844,1.0,398714138.0,327369120.1,400121.143,17.86069613,0.027359472000000003,17.85080615,-0.021320264,1.5688363159999998,39.8714138,32.7368418,-0.13648058,9.181571723,0.193219253,-0.535783228,20.21678555,0.24880455199999998,-1.7055515680000002,11.23334144,-0.07126508200000001,1.6258066359999999,0.1,-0.064483823,-0.27289714,-0.00721697,1.0,1,0,0,0,0,,,,,
19095161,-0.06551601,-0.09602447,-0.02594855,1.0,0.0,1485.0,1500.0,2000.0,1535.0,1464.0,1446.0,19.70156435,20.0864897,19.00773228,19.0055299,19.37707888,18.97803524,19.34904745,222.0254495,222.0254495,12.40419214,-0.001153331,-0.006177694,0.002340977,0.0038890459999999997,0.002196035,-0.129859969,3.0,-1.0,0.0,15,0,0,1,0,0.0,0,0,0,0,0,0.0,-0.185166446,1.552475894,1.554624032,0.17406784600000003,213.69942799999998,54.16288832,-0.000697193,-0.004502675,0.0,-0.002628885,11.2911646,0.644152194,-10.20992979,-2.46e+27,966.161822,12.40450315,0.34960868100000003,-0.025156616,-0.115239036,10.85578378,0.584864003,-10.28433704,0.35056449100000003,-0.022649164,-0.09110080300000001,2.553900675,2.541900751,0.40059672700000004,4.41455849,13.25554603,23.40238429,-0.20293676300000002,1.143844837,0.10999999,-72.06191474,399.54479,12.404510499999999,96617.1039,1.1479711240000001,-0.724012034,0.254923466,-1.809129033,0.366902024,-0.011039527,-0.061415595999999996,0.0,-0.157435173,1.5955746000000002,0,0.696128675,0.056288775,-0.054911037,0.7135948209999999,1.0,398714137.8,327369213.1,400123.7487,18.41992377,-0.020746149,18.412038199999998,-0.045373075,1.5712851330000002,39.8714138,32.7368418,-0.146664535,9.984414312,0.19679578399999997,-0.577594965,20.61778917,0.240680709,-1.523887094,10.06293436,-0.000315605,1.619479009,0.1,-0.082420085,-0.256169235,-0.00721697,1.0,1,0,0,0,0,,,,,
19131898,-0.068326942,-0.08950036300000001,-0.016905361,1.0,0.0,1489.636127,1500.0,2000.0,1533.0,1466.0,1455.0,20.15306131,20.54687772,19.18422391,19.18148351,19.55651119,19.15191563,19.52636589,226.5966745,226.5966745,12.40393807,-0.001149441,-0.006180599,0.002357818,0.0032160709999999996,0.002512911,-0.12980335,3.0,-1.0,0.0,15,0,0,1,0,0.0,0,0,0,0,0,0.0,-0.171834111,1.5517721009999998,1.5543885569999998,0.221831898,212.8330091,55.18835507,-0.000938754,-0.0049401670000000005,0.0,-0.0029711190000000004,9.963148825,0.508069289,-10.17429977,-2.46e+27,966.1648387,12.40447733,0.349993693,-0.024448262000000002,-0.161283598,9.720794124,0.580927066,-10.01392002,0.352875747,-0.027309839,-0.161524419,2.7641137280000003,2.7521137839999996,0.400598337,4.576137613,13.2556538,23.27766414,-0.20044020199999998,0.9896986190000001,0.10999999,-73.1852455,399.5967521,12.40447963,96616.5046,1.147963954,-1.081999807,0.235656175,-0.6613968689999999,0.352712918,-0.0168962,-0.137618204,0.0,-0.143383166,1.5955746000000002,0,0.6964985359999999,0.051273794000000004,-0.050018803,0.713973944,1.0,398714137.6,327369306.1,400126.3545,18.97915142,-0.06885177,18.97327024,-0.069425885,1.573733949,39.8714138,32.7368418,-0.157254289,10.79471241,0.20033987600000003,-0.618683709,21.0136413,0.232911095,-1.348164375,8.910505235,0.059399474,1.613039664,0.1,-0.10149326,-0.22476728699999998,-0.00721697,1.0,1,0,0,0,0,,,,,
19172635,-0.070757557,-0.07953102,-0.007822417,1.0,0.0,1494.2152429999999,1500.0,2000.0,1534.2152429999999,1464.7847570000001,1457.6457289999998,20.611258199999998,21.01393222,19.36071554,19.35743712,19.73594349,19.32579602,19.70368433,231.1678995,231.1678995,12.40368399,-0.001145551,-0.006183504,0.002374658,0.002543096,0.0028297879999999997,-0.129746731,3.0,-1.0,0.0,15,0,0,1,0,0.0,0,0,0,0,0,0.0,-0.15850177599999998,1.5510683090000001,1.554153081,0.269595951,211.96659010000002,56.21382181,-0.0012076860000000001,-0.005362793,0.0,-0.00319977,8.929007152,0.271352601,-10.11486732,-2.46e+27,966.1620037999999,12.40443975,0.325958831,-0.02575009,-0.17884978199999998,8.744130972,0.313348826,-10.00745052,0.334707119,-0.017076769,-0.165353645,2.9743267810000003,2.9623268169999997,0.40059994600000004,4.737716736,13.25576158,23.152944,-0.197943642,0.835552402,0.10999999,-74.30857626,399.59116800000004,12.404449000000001,96616.57141,1.147964706,-0.296602585,0.01445573,0.39549637600000004,0.335739619,-0.009281678,-0.178547003,0.0,-0.129936885,1.5955746000000002,0,0.6968180279999999,0.046472455999999995,-0.045334985,0.714301475,1.0,398714137.4,327369399.1,400128.9602,19.53837906,-0.116957391,19.53450229,-0.093478696,1.5761827659999998,39.8714138,32.7368418,-0.17315301,11.70254909,0.203459578,-0.650313713,21.34209776,0.229775777,-1.250176193,7.993277355,-0.027862386,1.605138729,0.1,-0.12099469999999998,-0.195357114,-0.00721697,1.0,1,0,0,0,0,,,,,
19217371,-0.073178023,-0.070439403,0.000531586,1.0,0.0,1498.0,1500.0,2000.0,1535.0,1464.0,1462.0,20.96620098,21.37589255,19.53720716,19.53339073,19.91537579,19.49967642,19.88100277,235.7391244,235.7391244,12.40342992,-0.0011416619999999999,-0.006186409,0.002391499,0.001870121,0.0031466640000000004,-0.129690113,3.0,-1.0,0.0,15,0,0,1,0,0.0,0,0,0,0,0,0.0,-0.14516944099999998,1.550364516,1.553917605,0.317360003,211.10017119999998,57.23928855,-0.001473578,-0.005726141,0.0,-0.0032769059999999996,7.894865479,0.034635913,-10.05543487,-2.46e+27,966.1591689999999,12.40440217,0.303141149,-0.014786801,-0.180636773,7.837977689,0.134999581,-9.854266163,0.31653849,-0.0068436999999999994,-0.169182871,3.1845398339999997,3.17253985,0.400601556,4.899295858,13.25586935,23.02822386,-0.195447082,0.6814061840000001,0.10999999,-75.43190702,399.6772318,12.404419,96615.57615,1.147952832,-0.292342795,0.46767371399999996,0.903696325,0.31337675800000003,-0.006136541999999999,-0.182079203,0.0,-0.116930341,1.5955746000000002,0,0.697098007,0.041826205,-0.040802455,0.714588491,1.0,398714137.2,327369492.1,400131.5659,20.09760671,-0.165063013,20.09573433,-0.117531506,1.5786315830000002,39.8714138,32.7368418,-0.18905173,12.61038577,0.20657927899999998,-0.681943717,21.67055422,0.22664046,-1.152188011,7.076049475,-0.115124245,1.597237795,0.1,-0.138121473,-0.177848896,-0.00721697,1.0,1,0,0,0,0,,,,,
19262108,-0.07532435900000001,-0.063312576,0.006370678,1.0,0.0,1501.373475,1500.0,2000.0,1536.626525,1462.373475,1466.0,21.22927811,21.64412438,19.71369879,19.70934435,20.0948081,19.67355681,20.05832121,240.3103494,240.3103494,12.40317585,-0.001137772,-0.0061893140000000004,0.002408339,0.001197146,0.0034635409999999997,-0.12963349400000002,3.0,-1.0,0.0,15,0,0,1,0,0.0,0,0,0,0,0,0.0,-0.131837106,1.549660724,1.55368213,0.36512405600000003,210.2337523,58.26475529,-0.001739424,-0.006054825,0.0,-0.003234803,7.002898165,-0.151504912,-10.24562103,-2.46e+27,966.1585071000001,12.40436484,0.281114282,0.015782852,-0.151891516,6.91957977,-0.058381055999999994,-10.14190087,0.29232749,0.016764232,-0.13651797300000001,3.395936665,3.3839366610000003,0.40060282,5.058065287,13.25598831,22.91156973,-0.193111618,0.539465159,0.10999999,-76.49622212,399.65000469999995,12.40438427,96615.90127,1.147956655,-0.782189936,0.9024137720000001,1.693496422,0.284433375,0.028738858,-0.159996107,0.0,-0.104321684,1.5955746000000002,0,0.697342067,0.03732044,-0.036406977,0.7148386729999999,1.0,398714136.9,327369585.7,400134.4885,20.64072715,-0.212772555,20.64059513,-0.139603921,1.581038925,39.8714138,32.7368418,-0.203540782,13.49292215,0.207560687,-0.706620418,21.93448778,0.203842093,-1.114782117,6.282042618999999,-0.48032417200000005,1.592642788,0.1,-0.15796956199999998,-0.14870866800000002,-0.00721697,1.0,1,0,0,0,0,,,,,
19314845,-0.07674256900000001,-0.058596045,0.008219661999999999,1.0,0.0,1503.0,1500.0,2000.0,1537.0,1462.0,1469.0,21.50185775,21.92195064,19.89019042,19.88529796,20.274240399999996,19.8474372,20.23563966,244.8815744,244.8815744,12.40292178,-0.001133882,-0.0061922190000000005,0.00242518,0.000524171,0.003780418,-0.129576875,3.0,-1.0,0.0,15,0,0,1,0,0.0,0,0,0,0,0,0.0,-0.118504771,1.548956931,1.553446654,0.412888108,209.3673334,59.29022204,-0.002022086,-0.006387074,0.0,-0.003099316,6.196995517,-0.307029844,-10.58691279,-2.46e+27,966.1591607,12.40432767,0.256866469,0.056022325,-0.096859654,6.132334352999999,-0.14377788800000002,-10.43727553,0.264458765,0.048468581,-0.081761507,3.611668537,3.599668513,0.40060282,5.206545514,13.25614825,22.82445366,-0.191366096,0.44222000100000003,0.10999999,-77.34441969,399.6507818,12.404358,96615.92559,1.1479570129999999,-0.716704157,1.044202017,1.751445823,0.262713307,0.054161505,-0.11752019,0.0,-0.092051988,1.5955746000000002,0,0.697552187,0.032934332000000004,-0.032128221,0.715054084,1.0,398714135.7,327369687.1,400141.9048,20.95541808,-0.254864973,20.95328187,-0.133590718,1.582858079,39.8714138,32.7368418,-0.217176498,14.36014308,0.207247688,-0.727087965,22.15936267,0.16914078100000002,-1.114049464,5.562627106,-1.013772772,1.5900490109999998,0.1,-0.171184137,-0.14315161699999998,-0.00721697,1.0,1,0,0,0,0,,,,,
19355582,-0.078543629,-0.054271829,0.007007925999999999,1.0,0.0,1503.0,1500.0,2000.0,1538.0,1461.0,1471.063413,21.7587183,22.18387613,20.06668204,20.06125157,20.4536727,20.0213176,20.4129581,249.4527994,249.4527994,12.40266771,-0.001129993,-0.006195124000000001,0.002442021,-0.000148804,0.0040972940000000005,-0.129520256,3.0,-1.0,0.0,15,0,0,1,0,0.0,0,0,0,0,0,0.0,-0.105172436,1.548253139,1.5532111780000002,0.460652161,208.5009144,60.31568878,-0.002255498,-0.006681746999999999,0.0,-0.002943561,5.417895256,-0.416123084,-10.98898269,-2.28e+27,966.1597107000001,12.40428607,0.23597498,0.084764085,-0.028939087999999998,5.476863347999999,-0.298350325,-10.90793385,0.237302035,0.081842811,-0.026964794,3.82740041,3.815400365,0.40060282,5.35502574,13.25630819,22.73733758,-0.18962057300000001,0.344974844,0.10999999,-78.19261726,399.6221465,12.40431102,96616.2231,1.147960598,-0.106069225,1.967549578,1.119768706,0.244961764,0.090574395,-0.061691162,0.0,-0.080064648,1.5955746000000002,0,0.697731773,0.028647951,-0.027946757000000003,0.715238158,1.0,398714134.5,327369788.5,400149.3211,21.27010902,-0.296957391,21.26596861,-0.127577516,1.584677233,39.8714138,32.7368418,-0.231909846,15.243515499999999,0.205667155,-0.7516302290000001,22.37478217,0.121495108,-1.156967285,4.841930657,-1.592040416,1.58856659,0.1,-0.18423684,-0.128137104,-0.00721697,1.0,1,0,0,0,0,,,,,
19404319,-0.07933082,-0.05115586,0.0025848000000000004,1.0,0.0,1502.0,1500.0,2000.0,1539.0,1460.0,1471.221644,21.99531779,22.42515741,20.24317367,20.23720518,20.63310501,20.19519799,20.59027654,254.0240244,254.0240244,12.40241364,-0.001126103,-0.006198029,0.002458861,-0.000821778,0.004414171,-0.129463637,3.0,-1.0,0.0,15,0,0,1,0,0.0,0,0,0,0,0,0.0,-0.091840101,1.547549346,1.5529757030000002,0.508416213,207.6344955,61.34115552,-0.002505731,-0.007030425999999999,0.0,-0.002784195,4.765299261,-0.306063941,-11.67791852,-1.28e+27,966.1597720000001,12.40422358,0.210509172,0.135364657,0.03072125,4.781975799,-0.290719209,-11.55660708,0.21350583899999998,0.123098684,0.028021877,4.043132282,4.031132217,0.40060282,5.5035059660000005,13.25646814,22.6502215,-0.18787505100000002,0.247729687,0.10999999,-79.04081483,399.7630914,12.4042589,96614.57771,1.147941036,0.268213684,0.730214631,1.021298385,0.22767473100000002,0.125601055,-0.003240938,0.0,-0.06829864,1.5955746000000002,0,0.697884466,0.024439742999999996,-0.023841549,0.7153946390000001,1.0,398714133.3,327369889.9,400156.7373,21.58479996,-0.33904981,21.57865535,-0.12156431300000001,1.586496387,39.8714138,32.7368418,-0.251823901,16.20312111,0.198104002,-0.795404696,22.54557327,0.012753506000000001,-1.40591045,4.115188331000001,-2.381848925,1.592329646,0.1,-0.19606649199999998,-0.11612839900000001,-0.00721697,1.0,1,0,0,0,0,,,,,
19445056,-0.080291658,-0.052848479000000004,-0.002952597,1.0,0.0,1500.0,1500.0,2000.0,1539.0,1460.0,1473.0,22.20750305,22.64157846,20.419665300000002,20.41315879,20.81253731,20.36907839,20.76759498,258.5952494,258.5952494,12.40215957,-0.0011222139999999999,-0.006200934,0.002475702,-0.001494753,0.004731047,-0.129407018,3.0,-1.0,0.0,15,0,0,1,0,0.0,0,0,0,0,0,0.0,-0.07850776599999999,1.5468455540000001,1.552740227,0.556180266,206.76807659999997,62.36662227,-0.0027712109999999996,-0.007436924,0.0,-0.0026621640000000003,4.1127032660000005,-0.196004798,-12.36685435,-2.75e+26,966.1598332999998,12.40416108,0.196535669,0.17151234899999998,0.087161555,4.1566443280000005,-0.29994355899999997,-12.35865753,0.18970964399999998,0.164354558,0.083008549,4.258864153999999,4.246864069,0.40060282,5.651986192000001,13.25662808,22.56310543,-0.18612952800000002,0.15048453,0.10999999,-79.88901240000001,399.6982423,12.40420684,96615.35038999999,1.1479501570000001,-1.053160835,0.682342807,1.090257249,0.205172335,0.158985204,0.054510992,0.0,-0.05671922,1.5955746000000002,0,0.6980113259999999,0.020297442,-0.019800637,0.715524681,1.0,398714132.1,327369991.4,400164.1536,21.8994909,-0.38114222799999997,21.89134208,-0.11555111,1.5883155409999998,39.8714138,32.7368418,-0.271737955,17.16272672,0.19054084899999998,-0.839179163,22.71636437,-0.095988096,-1.654853615,3.388446004,-3.171657435,1.596092702,0.1,-0.20602961399999997,-0.104451796,-0.00721697,1.0,1,0,0,0,0,,,,,
19487586,-0.081449618,-0.050442084000000005,-0.009415639,1.0,0.0,1497.0,1500.0,2000.0,1540.0,1459.0,1474.0,22.33611143,22.77259058,20.59615692,20.589112399999998,20.99196961,20.54295878,20.94491342,263.1664743,263.1664743,12.40190549,-0.001118324,-0.006203839,0.002492542,-0.002167728,0.0050479240000000005,-0.129350399,3.0,-1.0,0.0,15,0,0,1,0,0.0,0,0,0,0,0,0.0,-0.06517543099999999,1.546141761,1.5525047509999998,0.6039443179999999,205.9016577,63.39208901,-0.002993468,-0.007827378000000001,0.0,-0.00262123,3.628773652,-0.167830951,-13.04221926,-7.3e+26,966.1585587000001,12.40405346,0.17233934899999998,0.196690402,0.130546626,3.474693573,-0.21952265,-13.32635155,0.174907068,0.18560613,0.110480371,4.481958832,4.469958732,0.40060282,5.799470114,13.25678349,22.48320359,-0.18452838300000002,0.060648082,0.10999999,-80.71097056,399.5896035,12.40410466,96616.6199,1.147965246,-0.434153484,0.544944256,0.5232018829999999,0.18335579999999999,0.194701125,0.103343832,0.0,-0.045310208,1.5955746000000002,0,0.698112262,0.016215404,-0.015818512,0.71562816,1.0,398714130.8,327370093.4,400172.1398,22.20293759,-0.424620924,22.19278456,-0.118163633,1.5901803959999998,39.8714138,32.7368418,-0.293073545,18.07785211,0.17248676,-0.896993927,22.83648038,-0.247085881,-1.8920326,2.862889193,-3.752275172,1.601617529,0.100861337,-0.215920135,-0.102532361,-0.00721697,1.0,1,0,0,0,0,,,,,
19529060,-0.082748113,-0.048068001,-0.015075823,1.0,0.0,1494.0,1500.0,2000.0,1540.0,1459.0,1474.84817,22.48194983,22.921217499999997,20.77264855,20.76506601,21.17140192,20.71683917,21.12223186,267.73769930000003,267.73769930000003,12.40165142,-0.0011144339999999999,-0.006206744,0.002509383,-0.002840703,0.005364801,-0.12929378,3.0,-1.0,0.0,15,0,0,1,0,0.0,0,0,0,0,0,0.0,-0.051843096,1.545437969,1.5522692759999999,0.651708371,205.03523869999998,64.41755575,-0.003245785,-0.00831967,0.0,-0.002673144,3.208264417,-0.17044686,-13.71248136,-1.74e+27,966.1567818,12.40392887,0.158649155,0.21525276,0.14335556800000002,3.0140751760000004,-0.110388685,-14.07786742,0.163486189,0.19933587,0.127606314,4.72711271,4.71511261,0.40060282,5.943969074,13.256925299999999,22.42491584,-0.18335979600000002,-0.006991635,0.10999999,-81.45431464,399.753939,12.40399023,96614.6932,1.147942423,-0.976562644,0.690835222,-0.018620808,0.174334894,0.21123042399999997,0.13329643300000002,0.0,-0.034019117,1.5955746000000002,0,0.69819043,0.012175057,-0.011877057,0.715708296,1.0,398714128.6,327370202.2,400186.9724,22.37130726,-0.48475294399999996,22.35914983,-0.224396879,1.592594256,39.8714138,32.7368418,-0.314943647,18.97625246,0.150487966,-0.9600879929999999,22.93754202,-0.41411004799999995,-2.124788125,2.412980304,-4.254234923,1.607804801,0.10204654699999999,-0.224750936,-0.100712538,-0.00721697,1.0,1,0,0,0,0,,,,,
19571267,-0.082719664,-0.046933126,-0.020362605,1.0,0.0,1491.0,1500.0,2000.0,1540.0,1459.0,1475.427285,22.58992529,23.031493100000002,20.94914017,20.94101963,21.35083422,20.89071957,21.2995503,272.3089243,272.3089243,12.40139735,-0.001110545,-0.006209649,0.0025262229999999997,-0.0035136779999999997,0.0056816769999999996,-0.129237162,3.0,-1.0,0.0,15,0,0,1,0,0.0,0,0,0,0,0,0.0,-0.03921798,1.54472929,1.552021389,0.7000154129999999,204.13970049999998,65.14733888,-0.0034622529999999998,-0.00877075,0.0,-0.002807792,2.832057505,-0.164781342,-14.27113226,-2.46e+27,966.1538905,12.40377651,0.135900984,0.22014140899999998,0.141595093,2.72171796,-0.108875452,-14.63667307,0.15042860800000002,0.20970708899999999,0.134765185,4.972266588,4.960266488,0.40060282,6.088468035,13.25706712,22.36662808,-0.18219120800000002,-0.074631353,0.10999999,-82.19765871,399.6874152,12.40383251,96615.48822,1.147951807,-0.565247824,0.217963372,-0.293692517,0.155911298,0.229024151,0.137902582,0.0,-0.022827057,1.5955746000000002,0,0.6982466740000001,0.00816977,-0.007969805,0.715765937,1.0,398714126.4,327370311.0,400201.805,22.53967694,-0.544884965,22.5255151,-0.330630126,1.595008116,39.8714138,32.7368418,-0.340196774,19.89774278,0.12240972900000001,-1.0306402209999999,23.02790774,-0.5933614070000001,-2.3155430619999997,1.9679345730000002,-4.631251686000001,1.613751577,0.11511087199999999,-0.232068797,-0.091702109,-0.00721697,1.0,1,0,0,0,0,,,,,
19612004,-0.082893722,-0.047813818,-0.024209438,1.0,0.0,1488.9935990000001,1500.0,2000.0,1541.0,1458.0,1475.0,22.68662347,23.13006869,21.1256318,21.11697324,21.53026652,21.06459996,21.47686874,276.8801493,276.8801493,12.40114328,-0.001106655,-0.006212554,0.002543064,-0.004186653,0.0059985540000000006,-0.129180543,3.0,-1.0,0.0,15,0,0,1,0,0.0,0,0,0,0,0,0.0,-0.028012502999999998,1.5440108030000002,1.551748589,0.749412427,203.1857094,65.28358063,-0.003704629,-0.009300473,0.0,-0.003047355,2.570538332,-0.137677262,-14.54084946,-2.46e+27,966.1481146,12.40355225,0.126107456,0.217023827,0.121908006,2.403935275,0.043238470999999994,-14.85130941,0.133134007,0.21138393100000002,0.11612177800000001,5.217420466,5.205420366,0.40060282,6.232966995,13.25720893,22.30834033,-0.18102262100000002,-0.14227107,0.10999999,-82.94100278,399.7647459,12.4036246,96614.59537000001,1.147941184,-0.6334424989999999,-0.031066037,-0.23262681300000002,0.139010822,0.230914902,0.138874582,0.0,-0.011710183,1.5955746000000002,0,0.698279687,0.004191121,-0.004088538,0.715799772,1.0,398714124.2,327370419.9,400216.6375,22.70804661,-0.605016985,22.69188038,-0.43686337299999994,1.597421976,39.8714138,32.7368418,-0.374207716,20.87900731,0.07859332299999999,-1.120499781,23.09058435,-0.80426594,-2.397568883,1.53547835,-4.684822018999999,1.6190757690000002,0.158927282,-0.239280679,-0.08375506,-0.00721697,1.0,1,0,0,0,0,,,,,
19652741,-0.083388731,-0.044892892000000004,-0.027290956,1.0,0.0,1487.0,1500.0,2000.0,1541.0,1458.0,1477.0,22.77955567,23.22479747,21.30212343,21.29292685,21.70969883,21.23848035,21.65418718,281.4513743,281.4513743,12.40088921,-0.001102765,-0.0062154590000000004,0.002559904,-0.0048596279999999995,0.00631543,-0.129123924,3.0,-1.0,0.0,15,0,0,1,0,0.0,0,0,0,0,0,0.0,-0.016807026,1.5432923159999998,1.551475788,0.798809441,202.2317183,65.41982239,-0.0039140170000000005,-0.009770844,0.0,-0.003324303,2.309019159,-0.11057318199999999,-14.81056665,-2.46e+27,966.1423387,12.403328,0.11559531599999999,0.21036923899999999,0.09482809099999999,2.178258429,-0.065790551,-14.86777178,0.11583940699999999,0.213060773,0.097478371,5.462574344,5.450574243999999,0.40060282,6.377465955,13.25735074,22.25005257,-0.179854034,-0.209910787,0.10999999,-83.68434686,399.7759207,12.40337185,96614.44232999999,1.147939362,-0.124859001,-1.022184123,-0.760927347,0.132458969,0.23766452600000001,0.11991427699999999,0.0,-0.000637514,1.5955746000000002,0,0.698291331,0.00022817,-0.000222585,0.715811758,1.0,398714122.0,327370528.7,400231.4701,22.87641628,-0.665149005,22.85824565,-0.543096619,1.599835836,39.8714138,32.7368418,-0.40821865700000004,21.86027185,0.034776917000000004,-1.210359341,23.15326097,-1.015170472,-2.479594704,1.1030221279999999,-4.738392351,1.62439996,0.202743692,-0.244327753,-0.08527796300000001,-0.00721697,1.0,1,0,0,0,0,,,,,
19689478,-0.083131346,-0.044280742000000005,-0.029031935,1.0,0.0,1486.0,1500.0,2000.0,1541.0,1458.0,1476.835367,22.84759203,23.29422826,21.47861505,21.46888046,21.88913113,21.41236075,21.83150562,286.0225992,286.0225992,12.40063514,-0.0010988760000000001,-0.0062183640000000005,0.002576745,-0.005532601999999999,0.006632307,-0.129067305,3.0,-1.0,0.0,15,0,0,1,0,0.0,0,0,0,0,0,0.0,-0.005601549,1.54257383,1.5512029880000002,0.848206455,201.2777273,65.55606414,-0.004133678,-0.010275713,0.0,-0.0036646409999999997,2.0906276480000003,-0.07435266,-14.82071714,-2.46e+27,966.1331972000002,12.40291714,0.09734677300000001,0.210221005,0.06918079099999999,1.953633195,-0.077110359,-14.82359324,0.09979903400000001,0.20484299,0.077867937,5.724909804,5.712909703999999,0.40060282,6.514049605,13.25750299,22.19846492,-0.17881923800000002,-0.26815559999999994,0.10999999,-84.43110545,399.8591684,12.40307155,96613.49213,1.147928132,-0.48915346600000004,-0.062442146,-1.2315812179999999,0.116835908,0.22339066,0.08836074599999999,0.0,0.010402704,1.5955746000000002,0,0.698282348,-0.003723175,0.003632045,0.715802523,1.0,398714119.7,327370638.0,400249.1192,23.03580816,-0.7300339770000001,23.01563313,-0.657955591,1.6024647630000002,39.8714138,32.7368418,-0.447116556,22.78397518,-0.022802278999999998,-1.297086747,23.18673476,-1.205424415,-2.45002559,0.8496714040000001,-4.595286699,1.627402541,0.26032288600000003,-0.249170543,-0.075381029,-0.00721697,1.0,1,0,0,0,0,,,,,
19730215,-0.083410691,-0.04262824900000001,-0.030640429,1.0,0.0,1485.0,1500.0,2000.0,1541.0,1458.0,1478.0,22.910303600000002,23.35832225,21.65510668,21.64483407,22.06856343,21.58624114,22.00882406,290.59382420000003,290.59382420000003,12.40038106,-0.001094986,-0.006221269000000001,0.002593586,-0.0062055769999999994,0.006949184000000001,-0.12901068599999999,3.0,-1.0,0.0,15,0,0,1,0,0.0,0,0,0,0,0,0.0,0.0056039290000000005,1.5418553430000002,1.5509301880000002,0.897603468,200.32373619999998,65.6923059,-0.004349285,-0.010756466999999999,0.0,-0.0040317370000000005,1.8810345869999998,-0.036272297,-14.77791357,-2.46e+27,966.1233691,12.40246822,0.086797716,0.19880755600000002,0.046111230999999996,1.829418226,-0.026783609,-14.69913455,0.084014535,0.19460661,0.05806022,6.0301395620000005,6.018139462000001,0.40060282,6.630872462999999,13.25768126,22.16360427,-0.178118455,-0.302945772,0.10999999,-85.18638848,399.9329282,12.40270687,96612.6494,1.147918135,-0.575288766,0.093411199,-0.820770133,0.09663534300000001,0.216512386,0.061483261,0.0,0.021429187000000002,1.5955746000000002,0,0.698251835,-0.007669491,0.007481771,0.715771265,1.0,398714115.9,327370751.6,400296.0222,23.10195339,-0.8442848340000001,23.07977395,-0.8624044809999999,1.60732746,39.8714138,32.7368418,-0.487011439,23.69593548,-0.083189215,-1.3831751630000002,23.21425091,-1.3914654430000002,-2.3976900569999997,0.6328598910000001,-4.412057292,1.6299314919999999,0.320709817,-0.253721441,-0.065014349,-0.00721697,1.0,1,0,0,0,0,,,,,
