timestamp,control[0],control[1],control[2],control[3],control[4],output[2],output[3],output[4],output[5],output[6],output[7],indicated_airspeed_m_s,true_airspeed_m_s,air_temperature_celsius,indicated_airspeed_m_s.1,equivalent_airspeed_m_s,true_airspeed_m_s.1,equivalent_ground_minus_wind_m_s,true_ground_minus_wind_m_s,differential_pressure_raw_pa,differential_pressure_filtered_pa,temperature,gyro_bias[0],gyro_bias[1],gyro_bias[2],accel_bias[0],accel_bias[1],accel_bias[2],instance_count,seq_reached,seq_current,seq_total,item_changed_index,item_do_jump_remaining,valid,warning,finished,failure,stay_in_failsafe,flight_termination,item_do_jump_changed,execution_mode,nav_roll,nav_pitch,nav_bearing,target_bearing,xtrack_error,wp_dist,acceptance_radius,rollspeed_integ,pitchspeed_integ,yawspeed_integ,additional_integ1,x,y,z,temperature.1,pressure,temperature.2,gyro_rad[0],gyro_rad[1],gyro_rad[2],accelerometer_m_s2[0],accelerometer_m_s2[1],accelerometer_m_s2[2],x.1,y.1,z.1,temperature.3,altitude_sp,altitude_filtered,height_rate_setpoint,height_rate,airspeed_sp,airspeed_filtered,airspeed_derivative_sp,airspeed_derivative,throttle_integ,pitch_integ,baro_alt_meter,baro_temp_celcius,baro_pressure_pa,rho,xyz[0],xyz[1],xyz[2],xyz[0].1,xyz[1].1,xyz[2].1,roll_body,pitch_body,yaw_body,q_d[0],q_d[1],q_d[2],q_d[3],thrust_body[0],lat,lon,alt,vel_m_s,vel_n_m_s,vel_e_m_s,vel_d_m_s,cog_rad,ground_contact,maybe_landed,landed,ref_timestamp,ref_lat,ref_lon,x.2,y.2,z.2,vx,vy,vz,ax,ay,az,dist_bottom,roll,pitch,yaw,thrust_body[0].1,timestamp.1,isTakeoff,isClimbing,isDescending,isCruise,isLand
23119311.0,-0.000505265,-0.076261309,-0.016821869,0.13602376,0.0,1488.0,1500.0,1350.0,1519.0,1480.0,1468.0,16.4505262,16.81775136,12.039764,17.07457791,17.10029848,17.48203733,16.95947275,17.33806731,177.4322448,177.4322448,12.03997334,-0.001609351,-0.006756495,0.0030729940000000003,-0.142284158,0.002236461,-0.105741222,2.0,-1.0,0.0,11.0,0.0,0.0,1.0,0.0,0.0,0.0,0.0,0.0,0.0,0.0,-0.858465438,0.243916015,0.326781917,0.091156814,-18.71061902,176.8791468,56.00043787,-0.020450016,-0.040079821,-0.01108815,0.0,2.6862907000000003,0.199204771,-8.034313931,-1.3900000000000002e-25,959.6971947,12.03983906,-0.06367017700000001,-0.100299124,-0.021398885,2.04708,0.28422922100000003,-7.649068517999999,-0.133314063,-0.067413876,-0.021240359,-1.3900000000000002e-25,56.41092761,57.34639378,3.947368187,2.34763438,15.33548071,20.43548249,-0.102000036,1.199598126,-0.180292241,-18.98692867,455.71999960000005,12.039764,95969.6404,1.14027813,-0.031298477000000005,-0.173378754,-0.313053002,0.003357042,-0.129924055,-0.038377881,-0.439766694,0.057189193,0.7707359,0.901585549,-0.212512946,-0.056102075,0.372482058,0.518620657,398713738.0,327393684.1,456227.6095,16.80478096,0.742940588,16.80411882,-0.377945581,1.526147928,0.0,0.0,0.0,787999.0,39.8714138,32.7364368,-4.323709432,253.2138839,-56.23324914,0.739963849,16.76162493,0.133224503,0.532283651,2.240102563,2.17945858,56.38211099,-0.360708759,0.081387118,-0.046241951,0.4843436,23119311.0,0.0,1.0,0.0,0.0,0.0
23143429.0,-0.012833839621242484,-0.07490387708016032,-0.02074945043486974,0.24931681346693385,0.0,1488.0,1500.0,1383.3306613226453,1528.875751503006,1470.124248496994,1474.7895791583167,16.518996031983967,16.887700548697396,12.039788541242485,17.128118951122246,17.154013463967935,17.53694618739479,17.014321173967936,17.39413495721443,178.70614335470944,178.70614335470944,12.039958804128256,-0.0016077745831663327,-0.006754184691382766,0.0030670290460921845,-0.14224157746292584,0.0021289048076152304,-0.10575711949098196,2.0,-1.0,0.0,11.0,0.0,0.0,1.0,0.0,0.0,0.0,0.0,0.0,0.0,0.0,-0.8569971483006011,0.24452491371743487,0.31867428301202405,0.08879176841282566,-18.27666522224449,176.63415020601204,56.00347140458918,-0.020537234933867735,-0.03995579575751503,-0.011127144404809618,0.0,2.9868247164248496,0.20603117436673346,-8.329180192531062,-1.3900000000000002e-25,959.6996730198397,12.039882908336674,-0.09998087164529058,-0.08213607945490983,-0.022977584983967934,2.477047156857715,0.26426470420641285,-7.848101765238477,-0.17324081405410824,-0.04488178602805611,-0.024418385709418837,-1.3900000000000002e-25,56.523546433567134,57.402324333266534,3.9506056965951903,2.3787847019158317,15.335522570841684,20.4349340154509,-0.10198822892184368,1.165489768997996,-0.18069356993787575,-18.795858320821644,455.73796711022044,12.039788541242485,95969.43701507014,1.1402757036513027,0.04353278451503005,-0.46657906636873747,-0.464329437006012,0.004071779146292585,-0.12361117589779559,-0.03776062369338677,-0.477237586993988,0.06721373998196392,0.7707359,0.8967445994288578,-0.23113081951503006,-0.0585505916733467,0.3724143831783567,0.5281651406152305,398713739.66653305,327393732.3677355,456239.8998727455,16.780200233026054,0.7523046731142284,16.78539065470942,-0.3077149463466934,1.5255554736432866,0.0,0.0,0.0,787999.0,39.8714138,32.7364368,-4.305368836873748,253.6024428739479,-56.22840079410822,0.7540169841342685,16.827821820741484,0.17894487231462924,0.5620452867114228,2.5860883529879763,2.014267669731463,56.37726240955912,-0.4179925926673347,0.10783151593987976,-0.04698739124048096,0.5015257163927855,23143428.819639277,0.0,1.0,0.0,0.0,0.0
23169422.0,-0.028869155955911826,-0.06910152465531062,-0.02303923679559118,0.3335132729258517,0.0,1488.2344689378758,1500.0,1414.5511022044088,1538.5170340681364,1460.4829659318636,1481.1102204408817,16.591106409238478,16.961382056152303,12.039819774228457,17.18165999224449,17.207728445591183,17.59185504713427,17.06916960028056,17.45020260208417,179.98004193286573,179.98004193286573,12.039944268256512,-0.0016061981663326654,-0.006751874382765531,0.003061063857715431,-0.1421989969258517,0.002021348615230461,-0.10577301698196392,2.0,-1.0,0.0,11.0,0.0,0.0,1.0,0.0,0.0,0.0,0.0,0.0,0.0,0.0,-0.8555288583667334,0.24513381266933867,0.3105666490240481,0.08642672282565131,-17.84271142448898,176.38915358857716,56.006504939178356,-0.02062291528256513,-0.039838650302605215,-0.011164439847695391,0.0,3.2873587328496994,0.21285757796793586,-8.624046454062125,-1.3900000000000002e-25,959.7021513396793,12.039926756673347,-0.13903857810621242,-0.060394308781563134,-0.02381741167935872,2.874605828374749,0.28805757310420843,-8.05969799439479,-0.2131675648737475,-0.022349696290581166,-0.027596412184368736,-1.3900000000000002e-25,56.636165257134266,57.45825488418838,3.9538432064248497,2.4099350238316632,15.335564431683368,20.434385540901804,-0.10197642207815631,1.131381411995992,-0.1810948988757515,-18.60478797398798,455.75823689438874,12.039819774228457,95969.20843176352,1.1402729849198396,0.07242406402605212,-0.5391912444248498,-0.40297091961723447,0.005249611671342686,-0.11989242454709419,-0.036611541831663326,-0.5147084844428857,0.07721755334468937,0.7707359,0.8916543444288577,-0.2496738383527054,-0.06101950081362725,0.3723623479038076,0.5369686747194389,398713741.30961925,327393780.2134269,456247.63547535066,16.773137841022045,0.7620580531022044,16.779898521222446,-0.23982008773547098,1.5249766137955911,0.0,0.0,0.0,787999.0,39.8714138,32.7364368,-4.287028241747495,253.9910018713427,-56.22355244821644,0.7680701192685371,16.894018713827656,0.22466524162925852,0.5918069224228457,2.932074142975952,1.849076759228457,56.372413826773546,-0.462921733490982,0.12873960236873747,-0.0477499226252505,0.5147036379158316,23169422.390781563,0.0,1.0,0.0,0.0,0.0
23198478.0,-0.050955648933867746,-0.056042934482965934,-0.022655357693386773,0.3702101643887775,0.0,1488.8517034068136,1500.0,1442.3266533066133,1547.7755511022044,1451.2244488977956,1486.6653306613227,16.669159898857714,17.041156494228456,12.039861931342685,17.235201033366735,17.261443423386773,17.646763910701402,17.12401803042084,17.506270243126252,181.2539405492986,181.2539405492986,12.039929732384769,-0.001604621749498998,-0.0067495640741482964,0.0030550982865731463,-0.14215641638877757,0.0019137924228456913,-0.10578891447294589,2.0,-1.0,0.0,11.0,0.0,0.0,1.0,0.0,0.0,0.0,0.0,0.0,0.0,0.0,-0.8540605680501002,0.24574271200400802,0.30245901503607214,0.08406167723847695,-17.40875762673347,176.14415693286574,56.009538473767535,-0.020706083923847696,-0.03973273595390782,-0.011198961771543087,0.0,3.5878927492745487,0.2196839819519038,-8.918912715593187,-1.3900000000000002e-25,959.704629659519,12.03997060501002,-0.18258072265931863,-0.03281034417234469,-0.023451043519038078,3.219258340062124,0.38328343915631263,-8.291803023092186,-0.2530943153106212,0.00018239306412825076,-0.030774438276553108,-1.3900000000000002e-25,56.7487840807014,57.51418543128256,3.957080716637275,2.441085345747495,15.33560629252505,20.433837066352705,-0.10196461561723447,1.097273054993988,-0.18149622781362726,-18.413717630981964,455.78226509158316,12.039861931342685,95968.93871264528,1.1402697888797595,0.026319304539078173,-0.2516980066372746,0.005509614074148184,0.007183437507014027,-0.12040853132064128,-0.03459426774749499,-0.5521793891643286,0.08718751951703406,0.7707359,0.8861571036432865,-0.2680946585290581,-0.06352170022044087,0.3723358438557114,0.5445626245791583,398713742.9144289,327393827.37014025,456247.9355130261,16.794673756533065,0.7724469486533067,16.796013926833666,-0.17573833360320645,1.5244199466933868,0.0,0.0,0.0,787999.0,39.8714138,32.7364368,-4.268687646621242,254.37956090701405,-56.21870410232465,0.7821232544028056,16.960215610741482,0.2703856109438878,0.6215685581342686,3.278059932963928,1.6838858483426855,56.36756524016032,-0.4876821022364729,0.14060977855310622,-0.04854035493787575,0.5213447968737476,23198478.086172346,0.0,1.0,0.0,0.0,0.0
23224033.0,-0.06404345760721443,-0.04694977771342686,-0.02246118459519038,0.39259254196392784,0.0,1489.0,1500.0,1457.4408817635272,1551.721439991984,1447.278560008016,1490.3446893787575,16.749407347154307,17.123210664408816,12.039905645330661,17.28874207917836,17.315158401182366,17.701672774268538,17.17886646056112,17.562337884168336,182.52783911883768,182.52783911883768,12.039915196513025,-0.0016030448637274549,-0.006747253765531062,0.0030491331843687376,-0.1421138358517034,0.0018062362304609217,-0.10580481196392785,2.0,-1.0,0.0,11.0,0.0,0.0,1.0,0.0,0.0,0.0,0.0,0.0,0.0,0.0,-0.8525922777334669,0.24635161086973947,0.2943513810480962,0.0816966316513026,-16.974803828977954,175.8991602771543,56.01257200835671,-0.020792277214428858,-0.03963046431462926,-0.01122604118236473,0.0,3.7889743351943888,0.24706375014428855,-9.227124628783567,1.3248472233066129,959.7050393537074,12.040021051302606,-0.22724059423847692,-0.006401507867735481,-0.024403324444889782,3.4910104589238475,0.39121361175350705,-8.652288317753507,-0.29227511829659314,0.023161520426853703,-0.03490193836072144,1.3248472233066129,56.86140290426854,57.57011598306613,3.9603182263807613,2.4722356671943886,15.335648153366733,20.433288591803606,-0.10195280868737475,1.0631646984609218,-0.18189755675150301,-18.222647283286573,455.7542834827656,12.039905645330661,95969.25593492985,1.1402735528156311,0.019949869809619235,-0.1272226372144289,0.3000211807154307,-0.0027991561763527012,-0.11865388099198397,-0.03598601539478958,-0.5896502755971944,0.0971002921503006,0.7707359,0.8801642761803606,-0.28634255364328653,-0.06607544762324649,0.3723356842685371,0.5503117442304609,398713744.56613225,327393874.4799599,456246.94043807616,16.821190786432865,0.7829465351142284,16.81589283557114,-0.11232072868136275,1.5238671445771543,0.0,0.0,0.0,787999.0,39.8714138,32.7364368,-4.248243062300602,254.79282907655312,-56.21137614893787,0.8021939358817635,17.045984178557113,0.30080822416232467,0.7001972213567134,3.514353028058116,1.3926710374248499,56.360237046052106,-0.5343034890901803,0.16050130967134268,-0.04973101025250501,0.5312082671342686,23224032.691382766,0.0,1.0,0.0,0.0,0.0
23248733.0,-0.0750320983006012,-0.0386889729498998,-0.02228632013426854,0.41150883559118234,0.0,1489.0,1500.0,1469.7575150300602,1554.7780909338678,1444.2219090661322,1493.689378757515,16.830038055791583,17.20565495212425,12.039951864649298,17.342283125611225,17.368873378977955,17.756581636973948,17.233714890701403,17.618405526072145,183.80173768216434,183.80173768216434,12.039900660641283,-0.0016014679158316634,-0.006744943456913828,0.003043168230460922,-0.1420712554008016,0.0016986799519038075,-0.10582070945490982,2.0,-1.0,0.0,11.0,0.0,0.0,1.0,0.0,0.0,0.0,0.0,0.0,0.0,0.0,-0.8511239874168336,0.24696050958717436,0.28624374706012023,0.07933158606412825,-16.54085003208417,175.6541636300601,56.01560554208417,-0.020879420296593183,-0.03953061801202405,-0.011248846368737476,0.0,3.946811023649299,0.2833807371703407,-9.541139631707415,3.225777725933868,959.7045495344689,12.040074368296594,-0.27181180086172346,0.019349520725450903,-0.02632519171743487,3.7291784647675352,0.3775904909539078,-9.045107362226453,-0.33113156099599195,0.04633503313026052,-0.039442298010020034,3.225777725933868,56.974021728697394,57.626046536332666,3.9635557359759517,2.5033859885791583,15.335690014208417,20.432740117254507,-0.10194100169539078,1.0290563419899799,-0.18229888568937877,-18.03157693496994,455.7141350861724,12.039951864649298,95969.71072663326,1.1402789443787575,0.052273179138276546,-0.10166162409018036,0.47333045775150295,-0.01693027713026052,-0.11519132856913827,-0.037655950981963934,-0.6271211561603207,0.1069844104509018,0.7707359,0.8739321763587173,-0.3045035640681363,-0.06865509983366733,0.3723476064008016,0.5552970410501001,398713746.2240481,327393921.56633264,456245.53580621246,16.84928304054108,0.7934811263927856,16.83696191196393,-0.04911315376553106,1.523315564721443,0.0,0.0,0.0,787999.0,39.8714138,32.7364368,-4.227036205921844,255.2150493410822,-56.20314983765531,0.8244447653667334,17.138843533987977,0.32568848323046096,0.7965303355731462,3.710904623971944,1.0557979560781563,56.352010494048095,-0.587461787268537,0.18265579135671342,-0.050944145619238476,0.5416317309018036,23248732.85771543,0.0,1.0,0.0,0.0,0.0
23274991.0,-0.09062169236072144,-0.02782947993987977,-0.021860729561122245,0.43696217470941884,0.0,1489.0,1500.0,1489.5090180360721,1562.7084243206411,1436.2915756793589,1498.627254509018,16.9087548749499,17.286060444549097,12.040010489579158,17.39582416673347,17.42258835677355,17.81149049436874,17.288563320841686,17.67447317328657,185.0756362985972,185.0756362985972,12.03988612476954,-0.0015998914989979961,-0.006742633148296593,0.003037203276553106,-0.1420286754809619,0.0015911231422845692,-0.10583660694589178,2.0,-1.0,0.0,11.0,0.0,0.0,1.0,0.0,0.0,0.0,0.0,0.0,0.0,0.0,-0.8496556971002004,0.24756940830460922,0.2781361130721443,0.0769665404769539,-16.106896240501,175.40916703607215,56.018639070501,-0.020966521955911824,-0.03943861921442886,-0.01125981524248497,0.0,4.03196296457916,0.3347191382044088,-9.864908298448897,6.09497200332064,959.7025477813628,12.04013251795591,-0.3136582270340681,0.043336845270541074,-0.03165247946092184,3.9024514055210417,0.4012709703446894,-9.386990092871743,-0.36944282859519034,0.06983526215631261,-0.04467657901202405,6.09497200332064,57.08664055843687,57.6819770895992,3.966793245571142,2.53453631049499,15.3357318750501,20.432191642705412,-0.10192919523446894,0.994947984987976,-0.1827002146272545,-17.840506591963926,455.70036810340684,12.040010489579158,95969.86942995992,1.140280802254509,0.24561093296593176,-0.3679808371082163,0.12181141690180375,-0.033403794156312616,-0.10562884948296594,-0.03439640117835672,-0.6645920361923848,0.11680340354108215,0.7707359,0.867191348230461,-0.32246613888176356,-0.0712939352004008,0.3723826424809619,0.5591704780601202,398713747.8288577,327393968.5995992,456244.1312274549,16.877375294649298,0.8040157176713427,16.858030988356713,0.014094421681362684,1.5227639848657315,0.0,0.0,0.0,787999.0,39.8714138,32.7364368,-4.205232126106212,255.64428344929863,-56.194219683186375,0.8484036940400801,17.237258372785572,0.3462264262765531,0.9067345088877755,3.8763196051663327,0.6831525958937876,56.34308009885772,-0.6383003981222445,0.2031234110280561,-0.05151581954308617,0.5492263010821643,23274990.629258517,0.0,1.0,0.0,0.0,0.0
23300137.0,-0.10615803559919838,-0.017163957591182378,-0.02152735349699399,0.46046373346693387,0.0,1489.0,1500.0,1503.1683366733466,1566.3526578276553,1432.6473421723447,1501.9619238476953,17.00422082757515,17.38365676022044,12.04007018224449,17.44936520785571,17.47630333456914,17.86639935496994,17.343411750981964,17.73054081729459,186.34953488296594,186.34953488296594,12.039871588897796,-0.0015983150821643288,-0.006740322839679359,0.003031238002004008,-0.14198609524048095,0.0014835666533066134,-0.10585250443687375,2.0,-1.0,0.0,11.0,0.0,0.0,1.0,0.0,0.0,0.0,0.0,0.0,0.0,0.0,-0.8481874071042085,0.2481783070220441,0.2700284794048096,0.07460149488977956,-15.672942445711424,175.16417041002003,56.02167260212425,-0.021053967663326654,-0.03935126394388777,-0.011259981711422846,0.0,4.116224791200402,0.38530976721442883,-10.189038973046092,8.91165158764128,959.7005859480962,12.040190597074147,-0.35465147004008013,0.06778741342284567,-0.03891414668336673,4.055766455773547,0.4198777577114229,-9.739966707605209,-0.40777235030260517,0.09327543827655309,-0.04994450073547094,8.91165158764128,57.199259384969935,57.737907642865736,3.970030755486974,2.565686632410822,15.335773735891784,20.4316431649499,-0.10191738845290581,0.9608396283066133,-0.18310154356513025,-17.649436245751502,455.7220821627255,12.04007018224449,95969.62113048095,1.1402778296693388,-0.10064649749498916,-0.2418653015891788,-0.09768248086172338,-0.05963492336673343,-0.09074181280160322,-0.031113202797595194,-0.7020629165450902,0.12657581162124248,0.7707359,0.8601056944509018,-0.3402789376633267,-0.07397636078757515,0.3724303268977956,0.5623070009218437,398713749.4657315,327394015.6328657,456242.7266166333,16.905467551963927,0.8145503089498998,16.879100061543085,0.07730199712825644,1.52221240501002,0.0,0.0,0.0,787999.0,39.8714138,32.7364368,-4.183285259917835,256.0709649643287,-56.185326101062124,0.8735707564208416,17.335607165891783,0.3627835071182364,1.0246387793567133,4.024926871731463,0.31607758280360754,56.33418633052105,-0.6713589201583167,0.21701271085971943,-0.05342614549098196,0.5542796608416833,23300136.73747495,0.0,1.0,0.0,0.0,0.0
23324255.0,-0.1216451218276553,-0.006677858104208425,-0.021279275853707418,0.4821598953907815,0.0,1489.0,1500.0,1511.192384769539,1566.0322489458918,1432.9677510541082,1503.8136272545091,17.115179728657317,17.49715458739479,12.040130862565132,17.502906248977954,17.530018312364728,17.921308218537074,17.398260181122247,17.786608458336673,187.62343343767537,187.62343343767537,12.039857053026052,-0.0015967386653306613,-0.006738012531062124,0.0030252724308617233,-0.14194351470340683,0.0013760104609218439,-0.10586840192785571,2.0,-1.0,0.0,11.0,0.0,0.0,1.0,0.0,0.0,0.0,0.0,0.0,0.0,0.0,-0.8467191174048097,0.24878720573947896,0.2619208460340682,0.07223644930260521,-15.238988647955914,174.9191737543086,56.02470613671343,-0.02114173161523046,-0.03926820393587174,-0.011250155955911823,0.0,4.1996632620861725,0.4352087071022044,-10.51350450490982,11.679755080875749,959.6986610406814,12.040248610941884,-0.39485551861723445,0.09266648191182363,-0.047965114923847696,4.190620457312625,0.43379137995591194,-10.10320516512024,-0.4461187570601202,0.11666006545891781,-0.0552435401262525,11.679755080875749,57.311878208537074,57.79383819613226,3.973268265699399,2.5968369543266534,15.335815596733466,20.431094684228455,-0.10190558137474949,0.9267312719218437,-0.183502872503006,-17.45836589657315,455.77661618597193,12.040130862565132,95968.99635340682,1.1402703889078156,-0.9460294734228449,0.24725237632665298,-0.19505312127054103,-0.09489184384769536,-0.07092956034468939,-0.027808129482965932,-0.7395337971943888,0.13630512856713428,0.7707359,0.8527010769438879,-0.3579531936152305,-0.07669910732865731,0.3724897110260521,0.5647618781963928,398713751.13226455,327394062.6661322,456241.3219761523,16.93355981224449,0.8250849002284568,16.900169131763526,0.14050957257515026,1.5216608251543084,0.0,0.0,0.0,787999.0,39.8714138,32.7364368,-4.1612063163346695,256.4952853306613,-56.17646634835671,0.8998553424809619,17.433894866733468,0.3756582904208417,1.1496656396933866,4.157987002264528,-0.0458448592244487,56.32532644202406,-0.6879708600380761,0.22481706483967936,-0.05657472456112224,0.5569824009619239,23324254.55711423,0.0,1.0,0.0,0.0,0.0
23349348.0,-0.1299379884809619,0.0005586455811623231,-0.02145970000200401,0.49572224263727455,0.0,1489.0,1500.0,1523.1022044088177,1571.5511022044088,1427.4488977955912,1507.3306613226453,17.206116403607215,17.590102045470942,12.04019153733467,17.556447295651303,17.58373329016032,17.976217082104206,17.453108611262525,17.842676104929858,188.8973320478958,188.8973320478958,12.039842511603206,-0.0015951616933867735,-0.006735702222444889,0.0030193074148296595,-0.14190093416633268,0.0012684542685370741,-0.10588429941883769,2.0,-1.0,0.0,11.0,0.0,0.0,1.0,0.0,0.0,0.0,0.0,0.0,0.0,0.0,-0.8452508271503006,0.24939610445691385,0.25381321210821645,0.06987140371543087,-14.805034850200402,174.67417709859717,56.027739671302605,-0.021225498773547093,-0.03918760750701403,-0.011222718218436874,0.0,4.197167744861724,0.4129157715430862,-10.872919448737475,9.377951164629259,959.7005890422846,12.040300096713427,-0.4359713246292585,0.1117493470501002,-0.05286756241082165,4.219353541741483,0.385646093729459,-10.482058309699399,-0.4862274883326653,0.13424701658316632,-0.06379034512024048,9.377951164629259,57.43446368084168,57.85975905693387,3.9763363235210423,2.628277618316633,15.335870569278558,20.42265652741483,-0.10173571831863727,0.8971313247935871,-0.1839205860741483,-17.244049651883767,455.73642653426856,12.04019153733467,95969.459281503,1.1402759105250502,-1.118948815250501,-0.08548586933667324,0.08121264434468925,-0.136633044006012,-0.047051704503006025,-0.0309975337755511,-0.7592195320220442,0.14595160252905812,0.7707359,0.8481864903647295,-0.36789676925450904,-0.07617588626853708,0.37325903116633263,0.5661403695531062,398713752.74328655,327394109.7549098,456239.9173911824,16.961652066973947,0.835619491507014,16.92123820753507,0.20371714802204405,1.5211092452985973,0.0,0.0,0.0,787999.0,39.8714138,32.7364368,-4.138201744777555,256.9030581943888,-56.16784368877756,0.93397179601002,17.531754411062124,0.36272666792785574,1.3246092761482966,4.182089161148297,-0.37165687570741474,56.31670397971944,-0.7323937681162325,0.24267688130661322,-0.05819756931262526,0.5609612173547094,23349347.705410823,0.0,1.0,0.0,0.0,0.0
23373945.0,-0.13720506486172343,0.007275713200400801,-0.021478467753507015,0.5079608221322646,0.0,1489.0,1500.0,1534.5084271462927,1577.624776973948,1421.375223026052,1511.1625595470941,17.304945641963926,17.69111191717435,12.040252211482967,17.609988341222444,17.63744826795591,18.03112594567134,17.507957039679358,17.89874375042084,190.1712306470942,190.1712306470942,12.039827971282564,-0.0015935848316633266,-0.006733392086172344,0.0030133422885771544,-0.14185835362925853,0.0011608979038076153,-0.10590019690981964,2.0,-1.0,0.0,11.0,0.0,0.0,1.0,0.0,0.0,0.0,0.0,0.0,0.0,0.0,-0.8437825368336673,0.2500050031743487,0.2457055781202405,0.0675063581282565,-14.37108105244489,174.42918046012025,56.030773205891784,-0.021309869595190382,-0.03910689418436874,-0.0111855639498998,0.0,4.185055066685371,0.3825436006533066,-11.23624570032064,6.508756888304609,959.7029482358718,12.040350853627254,-0.47734561333466935,0.12968306528256512,-0.057553265244488984,4.2371189063066135,0.3550502121743487,-10.849536054669338,-0.526533447258517,0.15118513031462924,-0.07270061829458918,6.508756888304609,57.55902017154308,57.927655615811624,3.979370870430862,2.6597757006412825,15.335928134609219,20.412658095831663,-0.10153459781763527,0.868422966280561,-0.18434153980961923,-17.025136270801603,455.6873226721443,12.040252211482967,95970.02305705412,1.1402826308376752,-1.2646345044448897,-0.22697881617434876,0.14729176600400806,-0.17913368916833666,-0.021759156414829662,-0.03360965561923848,-0.7721868037975952,0.1555636641282565,0.7707359,0.8448457820601203,-0.37495549125450905,-0.07442127150701404,0.3742897479519038,0.5672486184869739,398713754.41703403,327394156.9533066,456237.3710288577,17.00116202749499,0.8481226543246493,16.95549674200401,0.2572787301142284,1.5204820743727456,0.0,0.0,0.0,787999.0,39.8714138,32.7364368,-4.115093582913827,257.3089791887775,-56.159247563086176,0.9689647399498998,17.629566038957915,0.34690696391983966,1.5051392666092185,4.193997467781563,-0.6934276530581163,56.3081080903006,-0.7730928700521043,0.2612122123246493,-0.05942306780160322,0.5644300933867735,23373944.559118237,0.0,1.0,0.0,0.0,0.0
23396979.0,-0.1439025279478958,0.013590695220440874,-0.020956145428857716,0.519132032745491,0.0,1489.0,1500.0,1543.4920964609219,1583.4437456713426,1415.5562543286574,1515.3261449018037,17.42993298016032,17.818870915891786,12.040312885631263,17.663529382344688,17.691163245751504,18.086034809238477,17.562805463647294,17.954811391462925,191.4451292018036,191.4451292018036,12.03981343541082,-0.0015920084148296593,-0.006731082394789579,0.0030073767174348697,-0.14181577309218438,0.0010533410941883769,-0.1059160944008016,2.0,-1.0,0.0,11.0,0.0,0.0,1.0,0.0,0.0,0.0,0.0,0.0,0.0,0.0,-0.842314246517034,0.25061390189178356,0.23759794413226454,0.06514131254108217,-13.93712725468938,174.1841838661323,56.03380674048096,-0.021396953354709418,-0.039025167402805615,-0.011128415444889779,0.0,4.172942388953908,0.3521714293186373,-11.599571956352705,3.6395626115350734,959.7053074294589,12.04040161498998,-0.5191237480681362,0.14632486141082163,-0.06287794146893788,4.257229799637274,0.38768464289178356,-11.183138428136271,-0.5668394061843687,0.16812324404609216,-0.08161089102404809,3.6395626115350734,57.685785348697394,57.99776610639278,3.9823678659739477,2.6913381247054105,15.33598860507014,20.40091124741483,-0.1012984506993988,0.8407137043086172,-0.18476612429058117,-16.801071430881763,455.64257267935875,12.040312885631263,95970.53292975952,1.1402887007214428,-1.5342891506893785,0.3626360731082156,-0.4371447377955904,-0.2217215015851703,0.006010748843687342,-0.032855376581162325,-0.7729490636773547,0.16511082654108217,0.7707359,0.8437004090661322,-0.37680060197996,-0.07042567885771545,0.37579013754709417,0.5679702248356714,398713756.26873744,327394204.4186373,456231.8772717435,17.070145602244487,0.8657074785571142,17.02380248220441,0.2859401898256513,1.51965977301002,0.0,0.0,0.0,787999.0,39.8714138,32.7364368,-4.09198542060521,257.71490022765533,-56.15065143739479,1.0039576834448898,17.727377666853705,0.33108725991182364,1.68566925707014,4.20590577485972,-1.0151984299639276,56.29951220533066,-0.7961449726573147,0.2785863645571142,-0.06006363188176353,0.5662139627254509,23396978.51503006,0.0,1.0,0.0,0.0,0.0
23422354.0,-0.15287880557114228,0.02093062464729458,-0.020956622551102203,0.5301129514028057,0.0,1489.0,1500.0,1548.769928769539,1584.4040627374748,1414.5959372625252,1517.255876761523,17.50433584675351,17.894871317855713,12.040373563847695,17.717070423466932,17.744878223547094,18.140943668737474,17.617653891683364,18.010879036573144,192.7190277971944,192.7190277971944,12.039798899539077,-0.0015904319979959918,-0.006728772296593186,0.0030014115531062126,-0.14177319255511023,0.0009457846913827656,-0.10593199189178357,2.0,-1.0,0.0,11.0,0.0,0.0,1.0,0.0,0.0,0.0,0.0,0.0,0.0,0.0,-0.8408459562004008,0.2512228006092184,0.22949031014428858,0.06277626695390782,-13.503173456933869,173.93918723146294,56.03684027507014,-0.02146797123046092,-0.03895344782965932,-0.011060092583166332,0.0,4.141330741086173,0.34233231215430865,-11.935491235270542,1.5787229396873763,959.7066957623246,12.040444248216433,-0.5558341635450902,0.1606003036252505,-0.07265525345891784,4.211951049366734,0.41119234331663324,-11.518444012284569,-0.6018016211803606,0.18304047447094188,-0.0903694853266533,1.5787229396873763,57.812550525851705,58.06787659290581,3.985364861517034,2.722900548769539,15.336049079599197,20.389164403066133,-0.10106230398797596,0.8130044423366733,-0.18519070836472948,-16.577006586893788,455.66433826052105,12.040373563847695,95970.29282933868,1.1402858422665332,-1.551098470705411,0.6973422042184367,-0.3903233220541085,-0.2682505028617234,0.03551011361923845,-0.03575496573547094,-0.7755447471442887,0.17345749658517035,0.7668938752164328,0.8430358291643286,-0.3793390744609219,-0.06656075474549099,0.3754193191122245,0.5681736425631263,398713758.2424849,327394252.08737475,456224.60407114227,17.15692351016032,0.8863602938617234,17.11266380713427,0.29956850691182363,1.5187196641162324,0.0,0.0,0.0,787999.0,39.8714138,32.7364368,-4.066142854398798,258.1387079260521,-56.14313930322645,1.0487803913887774,17.825103383847694,0.3006172973146293,1.8827981254949897,4.154469660488978,-1.3346511661422844,56.292000214248496,-0.7892855825971945,0.28890803073346694,-0.06265122632264529,0.5671735869739479,23422354.09018036,0.0,1.0,0.0,0.0,0.0
23448845.0,-0.1625558770501002,0.028557007396793586,-0.02120142347294589,0.5407421806613226,0.0,1489.0,1500.0,1552.192384769539,1583.1005155470941,1415.8994844529059,1518.1385158797596,17.554748788236473,17.946329275210424,12.040433105971944,17.770611464589177,17.798593201342687,18.195852526372743,17.672502321823647,18.066946683547094,193.99292641122244,193.99292641122244,12.039784363667334,-0.0015888555571142286,-0.0067264619879759515,0.0029954465751503003,-0.14173061201803608,0.000838228498997996,-0.10594788938276553,2.0,-1.0,0.0,11.0,0.0,0.0,1.0,0.0,0.0,0.0,0.0,0.0,0.0,0.0,-0.8393776659078156,0.2518316993266533,0.22138267615631263,0.06041122139078157,-13.069219659418838,173.69419057575152,56.03987380965932,-0.021529800088176353,-0.038886178434869745,-0.010984272054108216,0.0,4.098089568629258,0.3447394652364729,-12.255064516873748,-1.3900000000000002e-25,959.7075050633266,12.040482034188377,-0.5903166303266533,0.17362707918436873,-0.08475937333066133,4.134093242977956,0.42819047194188375,-11.856525291002002,-0.6335767344068136,0.19675241502404808,-0.09903761601202404,-1.3900000000000002e-25,57.93931570300602,58.13798707755512,3.9883618570601205,2.754462972833667,15.336109555991985,20.377417560821645,-0.10082615746292585,0.7852951803647295,-0.185615292252505,-16.352941741042084,455.7174435214429,12.040433105971944,95969.69910653307,1.1402787733927857,-1.4422630259519036,0.9096004062224446,-0.022784182943887926,-0.31660926265330663,0.0655895604809619,-0.040697183202404806,-0.779326947721443,0.1810193136993988,0.7605951333647294,0.8426768781823647,-0.38232383451703406,-0.06278663196392785,0.3738498676252505,0.5680621634448897,398713760.2769539,327394299.85891783,456216.4104711423,17.252905383507013,0.9086000011002003,17.212157331062123,0.30542106054709417,1.517718620268537,0.0,0.0,0.0,787999.0,39.8714138,32.7364368,-4.038787692418838,258.5724100278557,-56.13622680286573,1.0990406500981964,17.92278157735471,0.2620432214589179,2.089109028869739,4.067993184032064,-1.6528216269839677,56.28508780286573,-0.7669674442244491,0.2959928793026052,-0.06602725540480961,0.5677103609218437,23448844.65531062,0.0,1.0,0.0,0.0,0.0
23472962.0,-0.16044466666933868,0.03017232358116232,-0.020802678278557116,0.5451242676352706,0.0,1489.0,1500.0,1557.1302605210421,1587.9446765891785,1411.0553234108215,1521.6937567935872,17.65879832963928,18.05277523561122,12.04046457258517,17.824152505711425,17.852308179138277,18.25076138993988,17.727350751963925,18.123014324589178,195.26682496593187,195.26682496593187,12.039769827795592,-0.0015872785230460922,-0.006724151679358718,0.002989481004008016,-0.14168803148096193,0.0007306723066132266,-0.1059637868737475,2.0,-1.0,0.0,11.0,0.0,0.0,1.0,0.0,0.0,0.0,0.0,0.0,0.0,0.0,-0.8379093762084169,0.2524405980440882,0.2132750421683367,0.058046176420841686,-12.635265867835672,173.4491939200401,56.0429073442485,-0.021569945018036073,-0.03880100192985972,-0.010866078442885771,0.0,4.016766753446894,0.3872478346392785,-12.521111756633267,-1.3900000000000002e-25,959.7064184220441,12.040503958356714,-0.6345001370440881,0.18604482258316632,-0.09744859681763525,4.086900378745491,0.4010636527835672,-12.241343083386774,-0.65491547251503,0.20651755564128255,-0.10740951832064126,-1.3900000000000002e-25,58.06608088016032,58.208097568136274,3.9913588526032067,2.7860253968977955,15.336170026452907,20.365670718577157,-0.10059001034468938,0.7575859183927857,-0.18603987673346695,-16.128876901122247,455.694947238477,12.04046457258517,95969.95132088177,1.1402817608076152,-1.4601476607174348,1.353760512931863,0.20181177982965892,-0.3598179320881763,0.08791218082565126,-0.04940591406412824,-0.788984614238477,0.18453805198396794,0.7427163073927855,0.8437225171963928,-0.38747068178757516,-0.05958512503807616,0.36658816767334673,0.5667946008637275,398713762.25210416,327394347.5711423,456208.21693046094,17.348887256853708,0.9308397083386772,17.311650854989978,0.3112736135891783,1.5167175758276554,0.0,0.0,0.0,787999.0,39.8714138,32.7364368,-4.009009056835671,259.02196497615233,-56.13027503308617,1.1580129249519038,18.020383629458916,0.21048477757114237,2.310131339859719,3.925375222188377,-1.968937631905811,56.279136033086175,-0.7449629033186373,0.3132162214028056,-0.06400991712825652,0.5683330579158317,23472962.4749499,0.0,1.0,0.0,0.0,0.0
23496046.0,-0.1640443930561122,0.03421252851102204,-0.020533028218436875,0.5501484798997996,0.0,1489.1013071382765,1500.0,1560.9781656372745,1590.8569152765533,1408.1430847234467,1524.2272375671344,17.76474795314629,18.161150953286572,12.040494270941883,17.87769354941884,17.906023156933866,18.305670253507014,17.782199182104208,18.179081968216433,196.54072354649298,196.54072354649298,12.039755291923848,-0.00158570174749499,-0.006721841370741484,0.0029835156913827657,-0.14164545120240482,0.0006231161142284569,-0.10597968436472946,2.0,-1.0,0.0,11.0,0.0,0.0,1.0,0.0,0.0,0.0,0.0,0.0,0.0,0.0,-0.836441086250501,0.25304949676152305,0.20516740843887776,0.05568113119238477,-12.201312073667335,173.20419729018036,56.045940878837676,-0.021599925058116233,-0.0387155568256513,-0.010734492356713426,0.0,3.9354439385230457,0.42975620404208414,-12.787158996392787,-1.3900000000000002e-25,959.7053317807615,12.04052588252505,-0.6686595203847695,0.19541097429659318,-0.10859180183767535,4.0476313185731465,0.3990899213747495,-12.552723848837676,-0.6762542108817635,0.21628269625851704,-0.11578142037074148,-1.3900000000000002e-25,58.19284605731463,58.278208056132264,3.9943558478877756,2.817587821220441,15.336230496913828,20.353923873747494,-0.1003538632264529,0.7298766566793587,-0.18646446121442886,-15.904812058617235,455.6874330258518,12.040494270941883,95970.03531044087,1.1402827622945892,-1.553763499262525,1.3959185279318638,0.12787262919038087,-0.40083572032865733,0.10856837089779559,-0.05504998546292585,-0.7969811211282566,0.18788800320440885,0.727388967767535,0.8446040040981964,-0.3917948645190381,-0.056613098254509026,0.3604326375511022,0.5655133141302605,398713764.2272545,327394395.30921847,456200.0233639279,17.444869130200402,0.9530794155771543,17.411144378917836,0.31712616663126253,1.5157165316452905,0.0,0.0,0.0,787999.0,39.8714138,32.7364368,-3.979171468769539,259.4711617232465,-56.124411880360725,1.217238152002004,18.117662835150302,0.1586797725450902,2.5315257222665335,3.7819894091723447,-2.2829702573567134,56.27327288036072,-0.7245146217735471,0.3230901351743487,-0.06496194195591183,0.5683814593186373,23496046.226452906,0.0,1.0,0.0,0.0,0.0
23517695.0,-0.17556859759318635,0.041617501545090176,-0.020442510166332667,0.5560637032264528,0.0,1489.343187747495,1500.0,1563.3136308797596,1591.08842449499,1407.91157550501,1525.3429271382765,17.87333412468938,18.272204396172345,12.040521515671344,17.931234596713427,17.959738134729456,18.36057911707415,17.837047612244486,18.23514961543086,197.81462216292587,197.81462216292587,12.039740756052105,-0.0015841253306613226,-0.006719531062124248,0.00297755073747495,-0.14160287128256513,0.0005155599218436876,-0.10599558185571142,2.0,-1.0,0.0,11.0,0.0,0.0,1.0,0.0,0.0,0.0,0.0,0.0,0.0,0.0,-0.8349727959338676,0.2536583954789579,0.1970597750681363,0.05331608560521042,-11.767358275911825,172.9592006961924,56.048974413426855,-0.021615800328657318,-0.03862973901402805,-0.010584322913827654,0.0,3.854121123957916,0.47226457344488976,-13.053206236152304,-1.3900000000000002e-25,959.704245139479,12.040547806693388,-0.6889094612104208,0.2005427468496994,-0.1175897564268537,4.019357304344689,0.4320185365330661,-12.762203623426855,-0.6975929496072144,0.2260478368757515,-0.12415332206212425,-1.3900000000000002e-25,58.31961123446894,58.34831854054109,3.997352842813627,2.8491502459018037,15.33629096737475,20.34217702533066,-0.10011771610821643,0.7021673953246493,-0.18688904569539078,-15.68074721252505,455.70070788757516,12.040521515671344,95969.8858718036,1.1402810081142285,-1.7524637213466931,0.8802596869939887,-0.3603129191302598,-0.4388134486172344,0.1269122274909819,-0.05644154489378758,-0.8026726080701403,0.19100374601803613,0.7156020626853709,0.8452577140380761,-0.39497752048697393,-0.053959497404809625,0.35581202525450906,0.5642129838056111,398713766.20240486,327394443.0831663,456191.82976152305,17.540851003547093,0.9753191228156312,17.51063790284569,0.32297871967334674,1.5147154878216433,0.0,0.0,0.0,787999.0,39.8714138,32.7364368,-3.949252078420842,259.91986143146295,-56.118671692384765,1.2768143747354708,18.21449406016032,0.10653264004809626,2.7534363898176353,3.637538128250501,-2.594111991913827,56.26753269238477,-0.7062258008917836,0.32276600498597197,-0.07003424581963928,0.5676329699398798,23517695.10821643,0.0,1.0,0.0,0.0,0.0
23543288.0,-0.18433956914428856,0.04830667423046091,-0.020679642915831662,0.5605463783366733,0.0,1489.1986876432866,1500.0,1564.8763337094188,1590.3074337014027,1408.6925662985973,1527.484626509018,17.990801265971946,18.39223520234469,12.040538723206414,17.98477563907816,18.01345311252505,18.415487980641284,17.89189604238477,18.29121725771543,199.08852077935873,199.08852077935873,12.039726220180361,-0.0015825489138276553,-0.006717220753507014,0.0029715857835671345,-0.14156029086973948,0.0004080032364729462,-0.10601147934669339,2.0,-1.0,0.0,11.0,0.0,0.0,1.0,0.0,0.0,0.0,0.0,0.0,0.0,0.0,-0.8324816874088177,0.25421217294188375,0.18969768290380762,0.05111532956513026,-11.368545233066133,172.68424613346693,56.04985986517034,-0.021623893815631262,-0.038545472136272546,-0.010417731615230462,0.0,3.755485970162325,0.4890911590801604,-13.23872175246493,-1.3900000000000002e-25,959.7054804621242,12.040530686372746,-0.6991957843246493,0.21284414158316628,-0.1241612153286573,3.93637163842485,0.4458675090220441,-12.985388388316633,-0.698133554737475,0.23042058403807614,-0.13122356774949898,-1.3900000000000002e-25,58.44046105322645,58.417495334168336,4.000063074701402,2.8770536660901804,15.336341681643287,20.32865839519038,-0.09984632887374749,0.6798248635611224,-0.18728200364729458,-15.465679695651302,455.67118604549097,12.040538723206414,95970.21802623247,1.1402849484148296,-1.7911688227735472,0.9142557837274545,-0.18527671430461,-0.486639866276553,0.14627653497394782,-0.0633828096032064,-0.8096539721022045,0.19392894975350702,0.700423424961924,0.846214125745491,-0.39873258591783567,-0.050890025913827665,0.3497029246372746,0.5623900627154308,398713768.17755514,327394490.85711426,456183.63620841684,17.636832881823647,0.9975588295611222,17.610131421843686,0.3288312732084168,1.5137144435050098,0.0,0.0,0.0,787999.0,39.8714138,32.7364368,-3.916053145234469,260.34863592845693,-56.11786125567134,1.350462370811623,18.293365140681363,0.040669290480962086,2.9960454130681358,3.4503712264028064,-2.7893551336893783,56.26672225567134,-0.6929530674128257,0.3253970318797595,-0.07478740584769539,0.5661883892985972,23543287.87775551,0.0,1.0,0.0,0.0,0.0
23569434.0,-0.19018842938276553,0.053788719585170335,-0.020885351116232465,0.5641145834669339,0.0,1489.1102204408817,1500.0,1566.2204408817636,1588.447572262525,1410.552427737475,1530.0673210501002,18.10561633961924,18.509542095410822,12.040548158957916,18.038316680200403,18.067168090320642,18.470396843106215,17.946744471422846,18.34728489985972,200.36241938476954,200.36241938476954,12.039711684308617,-0.0015809723867735472,-0.00671491044488978,0.002965620719438878,-0.14151771033266536,0.00030044653707414834,-0.10602737683767535,2.0,-1.0,0.0,11.0,0.0,0.0,1.0,0.0,0.0,0.0,0.0,0.0,0.0,0.0,-0.8294905924068138,0.2547390054208417,0.1827000355270541,0.048994883460921845,-10.986910116973949,172.39464716933867,56.049695266152305,-0.02162920699198397,-0.038462171935871745,-0.010245123649298598,0.0,3.6517354506212425,0.4983294162084169,-13.40044214743487,-1.3900000000000002e-25,959.7074018579158,12.040502029278557,-0.7041633265250502,0.2246759899759519,-0.1300125818036072,3.8466647674989978,0.4645016009018036,-13.197639686312625,-0.6925288287194389,0.23320001313827654,-0.13790920640881763,-1.3900000000000002e-25,58.55863209857715,58.48624930364729,4.002643445663327,2.9033001047675353,15.336387977314628,20.314337410320643,-0.09955898317034068,0.6599126574328658,-0.18766063945290581,-15.254686622184368,455.62939109138273,12.040548158957916,95970.69066889779,1.1402905584589178,-1.8001275681162323,1.0620753323466934,0.05269470913827672,-0.535040591284569,0.1656405391062124,-0.0728168554008016,-0.8167576038617235,0.19675887619438878,0.684597099460922,0.8472397095551103,-0.4025254319679359,-0.04772843701803607,0.34330569702805613,0.5604378523086172,398713770.1967936,327394538.82945895,456175.6284002004,17.732745968356713,1.0218622753907816,17.709005812645287,0.331657009002004,1.5126113466192384,0.0,0.0,0.0,787999.0,39.8714138,32.7364368,-3.8820276604909822,260.77238863527054,-56.11829327769539,1.4276569112785569,18.367709681823648,-0.028650991843687322,3.2438710950721443,3.252438598955912,-2.9553880611342684,56.26715427769539,-0.6812109251222446,0.3285946919358717,-0.07892016505811623,0.5645200459719439,23569433.863727454,0.0,1.0,0.0,0.0,0.0
23593552.0,-0.1857875371262525,0.05454784206212425,-0.02056664456713427,0.5651370508817635,0.0,1489.7274549098197,1500.0,1567.4549098196392,1582.7987473326652,1416.2012526673348,1533.4890893306613,18.197935753486973,18.60391108571142,12.040533481122246,18.091857721322647,18.120883068116232,18.525305700501004,18.001592895390782,18.403352547074146,201.63631793947897,201.63631793947897,12.039697148436874,-0.0015793953527054108,-0.006712600136272545,0.002959655148296593,-0.1414751297955912,0.00019289034468937896,-0.10604327432865732,2.0,-1.0,0.0,11.0,0.0,0.0,1.0,0.0,0.0,0.0,0.0,0.0,0.0,0.0,-0.82538536348497,0.2552057957775551,0.17651449127855712,0.04705339404208417,-10.643553044028057,172.07241571763527,56.04719081260521,-0.02163075254709419,-0.038381520376753506,-0.010063877685370742,0.0,3.544525302100201,0.5024355277755511,-13.54606940507014,-1.3900000000000002e-25,959.7097872222445,12.040465569238478,-0.6962157926653307,0.22603582664128255,-0.1353646799038076,3.7894702846933868,0.5272672179519037,-13.343708161663326,-0.6827678871482966,0.23490184831262526,-0.1443347270981964,-1.3900000000000002e-25,58.671338754609216,58.554140756072144,4.004958914977956,2.9261664938657317,15.336425258276552,20.298379708116233,-0.09923908412424849,0.6449580334569138,-0.18801005958917835,-15.052004938416834,455.58075616312624,12.040533481122246,95971.25122272545,1.1402972474288575,-1.8577433535671342,1.0962405310881762,-0.1887377316873743,-0.5746650560781562,0.18382008850100195,-0.08728364564529056,-0.8229282486873748,0.19937142848296593,0.6697236140420842,0.8482325478637276,-0.40582844618837677,-0.04462524751903808,0.33730876358517037,0.5584967764368737,398713772.41883767,327394587.7144289,456168.4749613227,17.82834260715431,1.0556589215791583,17.805032219458916,0.3205593826132265,1.511038808486974,0.0,0.0,0.0,787999.0,39.8714138,32.7364368,-3.8480021752404814,261.1961413927856,-56.11872530478958,1.5048514512384765,18.44205422803607,-0.09797127416833654,3.491696777076152,3.0545059715090184,-3.1214209890861717,56.26758630478958,-0.6706941034068137,0.3309728043767535,-0.08056907978356713,0.5626294074148297,23593552.300601203,0.0,1.0,0.0,0.0,0.0
23617670.0,-0.17914260050901804,0.058651568995991984,-0.02037188969739479,0.5663115401002004,0.0,1490.0,1500.0,1567.7079209058118,1577.0447018336672,1421.9552981663328,1535.2920790941882,18.28498777248497,18.692922324268537,12.040516762725453,18.14539876244489,18.174598045911825,18.580214561342686,18.05644132280561,18.459420190841684,202.91021652865732,202.91021652865732,12.03968261256513,-0.0015778186633266533,-0.006710289827655311,0.0029536899218436875,-0.14143254925851706,8.531933066132266e-05,-0.10605917181963928,2.0,-1.0,0.0,11.0,0.0,0.0,1.0,0.0,0.0,0.0,0.0,0.0,0.0,0.0,-0.8212801345631263,0.2556725861342685,0.17032894668537074,0.04511190462324649,-10.30019597383968,171.75018426593184,56.044686355611226,-0.021630159993987978,-0.03830283561523046,-0.00987511232264529,0.0,3.4400996298677358,0.5052894128176353,-13.673503309278557,-1.3900000000000002e-25,959.7119009368738,12.04042210511022,-0.6909098110220441,0.23000298545490983,-0.14308443211222444,3.667181351963928,0.5229748051583166,-13.508362502024047,-0.6727876517815631,0.23632161520641282,-0.15110549728657316,-1.3900000000000002e-25,58.78404541064128,58.62203221194389,4.007274384292585,2.949032882963928,15.336462539238477,20.28242200935872,-0.0989191854228457,0.6300034098256513,-0.18835948007014028,-14.849323251202405,455.5908704028056,12.040516762725453,95971.1335967535,1.140295821032064,-1.8324041442925851,0.9721899863106213,-0.3099052287054108,-0.6173576503226452,0.19856273424048096,-0.0984172165230461,-0.8276212011843688,0.2018420545751503,0.6573827827795591,0.8490827337154309,-0.4084088711743487,-0.041824383006012024,0.33239877535270546,0.5566243744088176,398713774.91663325,327394637.8402806,456162.5055304609,17.92350071488978,1.1026115440961923,17.897111784669338,0.29016632227655315,1.508815702242485,0.0,0.0,0.0,787999.0,39.8714138,32.7364368,-3.810909719729459,261.6302880172345,-56.121182333727454,1.5899485660120238,18.512331012164328,-0.17114985359919838,3.735018727665331,2.8508743336332665,-3.254229067571142,56.27004333372746,-0.6543076362324649,0.33289424544288576,-0.0845332303246493,0.5607206375070141,23617670.39278557,0.0,1.0,0.0,0.0,0.0
23641788.0,-0.17072330323446894,0.06539986689579158,-0.020275143132264528,0.5676062326052104,0.0,1490.0,1500.0,1567.1848955511025,1571.2074586753504,1427.7925413246496,1535.8151044488975,18.367874874609218,18.777697200981965,12.040498430861726,18.198939803567132,18.228313023707415,18.63512342490982,18.111289752945893,18.515487831883767,204.18411514509017,204.18411514509017,12.039668076693387,-0.001576242246492986,-0.006707979519038077,0.002947724967935872,-0.14138996872144288,-2.226340280561109e-05,-0.10607506931062125,2.0,-1.0,0.0,11.0,0.0,0.0,1.0,0.0,0.0,0.0,0.0,0.0,0.0,0.0,-0.8171749056412826,0.256139376490982,0.1641434018196393,0.04317041520440882,-9.956838905831663,171.42795281422846,56.04218189589179,-0.021627876843687378,-0.03822570599599198,-0.009680401388777555,0.0,3.337875636561123,0.5071531652585171,-13.786551771242484,-1.3900000000000002e-25,959.7137998587175,12.040373102865733,-0.6876924985731462,0.2360317478276553,-0.15267628291783567,3.4934223890621245,0.46565976411623256,-13.68771264262525,-0.6626340213206413,0.23751835136673347,-0.1581492554509018,-1.3900000000000002e-25,58.89675206667335,58.689923670541084,4.009589853607214,2.9718992720621245,15.336499820200402,20.266464313326654,-0.09859928699398798,0.6150487864669338,-0.18870890082364727,-14.646641561262525,455.6474374729459,12.040498430861726,95970.47973559119,1.1402879778336674,-1.7414726136072145,0.7230386210761528,-0.3359795143406813,-0.6624762073887775,0.210587828252505,-0.10691521859919838,-0.8311457457935872,0.20420045995390787,0.6470445152685371,0.8498201246012024,-0.4104179465330661,-0.03926256615631263,0.3283482321703407,0.5548062726292585,398713777.63246495,327394688.9472946,456157.47229198396,18.01831207713427,1.159966566501002,17.986070591402804,0.24451640719038084,1.5060781933046092,0.0,0.0,0.0,787999.0,39.8714138,32.7364368,-3.7713922179659316,262.0726530480962,-56.12524052691383,1.681294228312625,18.579391426272544,-0.24737917957915823,3.974779588298597,2.64273650146493,-3.3607663348496994,56.274101526913825,-0.6332800540440882,0.33445459751503004,-0.09032803244088175,0.5587975311823646,23641788.21242485,0.0,1.0,0.0,0.0,0.0
23664950.0,-0.1613120091162325,0.07023284712224448,-0.02027929173747495,0.5681748146372746,0.0,1490.0,1500.0,1566.485075170341,1569.7779132064127,1429.2220867935873,1535.9357665130258,18.44374181344689,18.855238176032064,12.040457923026054,18.25248085048096,18.282028001503004,18.690032288476953,18.166138183086172,18.571555478717436,205.4580137036072,205.4580137036072,12.039653540821643,-0.0015746658296593187,-0.006705669210420841,0.0029417594348697396,-0.14134738818436873,-0.000129796907815631,-0.10609096680160321,2.0,-1.0,0.0,11.0,0.0,0.0,1.0,0.0,0.0,0.0,0.0,0.0,0.0,0.0,-0.8130696767194389,0.25660616626853705,0.15795785695390782,0.04122892578557114,-9.613481836086173,171.10572136252503,56.03967743617235,-0.021624718006012025,-0.03814154829058116,-0.00948501110220441,0.0,3.249903126895792,0.5026077803366734,-13.80648314747495,-1.3900000000000002e-25,959.7143082793586,12.040288239138278,-0.6712137446673347,0.23316332318837676,-0.15564225273146293,3.406000191963928,0.4956039125911823,-13.79493902236473,-0.6513580034709419,0.23727140858717435,-0.16696006618036074,-1.3900000000000002e-25,59.00945872270541,58.757815123346695,4.011905323501002,2.9947656605811623,15.336537101162325,20.25050661729459,-0.09827938798597195,0.6000941625290581,-0.1890583215771543,-14.443959877114228,455.613351150501,12.040457923026054,95970.88548511022,1.1402928303647295,-1.9587057999639272,0.7365461249699399,-0.6725419165911815,-0.6818443119378758,0.21868022242685367,-0.11921487262324645,-0.8360278253346693,0.20639810720040083,0.6331790664649299,0.850822515745491,-0.4130195396533066,-0.03623060538076153,0.32274959417434873,0.5529570914769539,398713780.3482966,327394740.11222446,456152.43911142286,18.113123439378757,1.217321588326653,18.075029403927857,0.19886649210420854,1.5033406849458917,0.0,0.0,0.0,787999.0,39.8714138,32.7364368,-3.725430183,262.536858544489,-56.133553807835675,1.7892453325370739,18.637904378697396,-0.3317158289298595,4.205076894314629,2.4226235095030066,-3.3974892281042086,56.28241480783567,-0.6172026416573146,0.3365387531102204,-0.09359415521442885,0.5569989693787575,23664950.420841683,0.0,1.0,0.0,0.0,0.0
23688698.0,-0.15208342425050103,0.07307927409619239,-0.020036098831663327,0.5683241878476955,0.0,1489.8332684168336,1500.0,1565.4108216432867,1568.3818033266534,1430.6181966733466,1536.1370703807615,18.513849276212422,18.926888910701404,12.040404110841683,18.30602189581162,18.335742979298598,18.74494115008016,18.22098661322645,18.627623123967936,206.73191227795593,206.73191227795593,12.039639004949901,-0.0015730892164328657,-0.006703358901803607,0.0029357940601202406,-0.14130480764729458,-0.00023733542484969934,-0.10610686429258517,2.0,-1.0,0.0,11.0,0.0,0.0,1.0,0.0,0.0,0.0,0.0,0.0,0.0,0.0,-0.808964447993988,0.2570729562044088,0.15177231228456914,0.03928743656312625,-9.270124766422846,170.78348989118234,56.03717297645291,-0.021620875693386773,-0.038056301448897795,-0.00928609646492986,0.0,3.1628675659819643,0.49764103324649306,-13.820292641142284,-1.3900000000000002e-25,959.7147253026052,12.0402010196994,-0.6557137509158317,0.23197450081563126,-0.1593563251042084,3.3162672336272547,0.52939457348497,-13.880940248857716,-0.6400081954468938,0.23692955265931864,-0.1758870501122245,-1.3900000000000002e-25,59.12216537873747,58.825706577735474,4.014220793236473,3.017632049258517,15.336574382124248,20.234548921262526,-0.09795948893987977,0.585139538749499,-0.18940774213426853,-14.241278191382765,455.6151639765531,12.040404110841683,95970.87391420841,1.1402927049258518,-2.007953055478958,0.661299368677355,-0.6807435862785577,-0.6959312286232465,0.2271009667795591,-0.129023766747495,-0.8406090354308617,0.20851881738076153,0.619632687759519,0.8518209002424849,-0.41546340888777555,-0.03323356085170341,0.31728024974949903,0.5512377530480962,398713783.04448897,327394791.28096193,456147.40593466937,18.207934801623246,1.2746766103106213,18.16398821486974,0.1532165768216433,1.5006031766252503,0.0,0.0,0.0,787999.0,39.8714138,32.7364368,-3.679044459,263.0024999192385,-56.14214683501002,1.8982881442124246,18.69585538727455,-0.41658548569939874,4.434752028723447,2.2017232232985977,-3.429622249018036,56.291007835010014,-0.6017039776252505,0.3387953522004008,-0.09691982463326654,0.5552116342124248,23688697.8997996,0.0,1.0,0.0,0.0,0.0
23713834.0,-0.14338611160921846,0.07193863096993988,-0.019248674302605212,0.5676775507975952,0.0,1489.3092548697396,1500.0,1563.5591182364728,1566.436385210421,1432.563614789579,1536.567863006012,18.572604004308616,18.98693681290581,12.040324913486973,18.359562936933866,18.389457957094187,18.799850007474948,18.275835043366733,18.68369076501002,208.0058108943888,208.0058108943888,12.039624469078158,-0.0015715121823647296,-0.006701048593186372,0.002929829106212425,-0.14126222711022046,-0.0003448916172344688,-0.10612276178356714,2.0,-1.0,0.0,11.0,0.0,0.0,1.0,0.0,0.0,0.0,0.0,0.0,0.0,0.0,-0.8048592196893788,0.2575397465611223,0.14558676803607218,0.03734594776152305,-8.926767697180361,170.4612583777555,56.03466851673347,-0.021615692158316633,-0.03796971085971944,-0.00907972535470942,0.0,3.0758320050681363,0.492674285735471,-13.834102139018036,-1.3900000000000002e-25,959.7151423679359,12.040113804468938,-0.6441793706513026,0.23563826080761524,-0.16560692771743485,3.2094195307414832,0.5591346967234468,-13.931619790981964,-0.6286583874228457,0.23658769673146293,-0.18481403446492986,-1.3900000000000002e-25,59.23487203476954,58.89359803633267,4.016536262551102,3.040498438356713,15.336611663086172,20.218591225230462,-0.09763958989378758,0.5701849153907816,-0.1897571622705411,-14.038596501442887,455.7066747885772,12.040324913486973,95969.81880743487,1.1402801238356715,-1.6538162504128262,0.3588615616633273,0.058426414274547755,-0.7023290348677355,0.23677935694388777,-0.1329597419539078,-0.8443542759278557,0.21049731000601202,0.6072669395751503,0.8527733658617234,-0.41748582453507016,-0.03037757067134269,0.31230605839078157,0.54980102748497,398713785.6985972,327394842.4496994,456142.3727579158,18.302746163867734,1.3320316327154307,18.252947021603205,0.10756666111823655,1.4978656683046094,0.0,0.0,0.0,787999.0,39.8714138,32.7364368,-3.632658735,263.468141293988,-56.150739862184366,2.007330956308617,18.753806395851704,-0.5014551424689377,4.664427162711423,1.980822937094189,-3.4617552699318637,56.29960086218436,-0.5867481093046093,0.3413476796873748,-0.1007293340521042,0.5534308103086172,23713834.156312626,0.0,1.0,0.0,0.0,0.0
23736751.0,-0.1397396836673347,0.07258958629058115,-0.019386278010020037,0.5663514430861724,0.0,1489.0859569539077,1500.0,1562.1382765531062,1564.6214578757515,1434.3785421242485,1536.3972243687374,18.60824679252505,19.02345171991984,12.040247633466933,18.41310397805611,18.44317293488978,18.854758869178355,18.330683473507012,18.73975841036072,209.27970946773547,209.27970946773547,12.039609933206414,-0.0015699355791583167,-0.006698738284569138,0.002923863721442886,-0.14121964700400802,-0.0004524478096192382,-0.10613865927454909,2.0,-1.0,0.0,11.0,0.0,0.0,1.0,0.0,0.0,0.0,0.0,0.0,0.0,0.0,-0.8007539909539079,0.25800653648697397,0.13940122335671346,0.03540445852905812,-8.583410627937877,170.13902690741483,56.032164061322646,-0.021608241428857717,-0.03787863758517034,-0.008865828382765532,0.0,2.9723234819499003,0.4974465000781563,-13.848994681082164,-1.3900000000000002e-25,959.7127452168337,12.040006588637274,-0.6327033411282565,0.23371348400601205,-0.17084984041082163,3.1266438435571144,0.5348320636392787,-13.957692035911824,-0.6162927875551103,0.23703866256713427,-0.19119596730460922,-1.3900000000000002e-25,59.34758037116232,58.962367944428856,4.018796614310621,3.0641584700100197,15.33665739755511,20.20323126797595,-0.09733147707014028,0.5567973792064129,-0.1901019178977956,-13.835473260100201,455.6999568831664,12.040247633466933,95969.89606559118,1.1402810864529058,-1.2583009727615242,0.37540844002003965,-0.1955503759138255,-0.697578928246493,0.24019749602605212,-0.14087575536673344,-0.8470419814048097,0.2123933783527054,0.5967672220621243,0.8536393902785571,-0.41900032745691385,-0.027767078176352714,0.3081297212605211,0.5483169622825651,398713788.3957916,327394893.6184369,456137.33953807614,18.397557530420844,1.3893866546893785,18.34190583264529,0.06191674584569152,1.495128159983968,0.0,0.0,0.0,787999.0,39.8714138,32.7364368,-3.582026373224449,263.9149864122245,-56.16341834607214,2.1226658976533064,18.797673947915833,-0.5803347979859718,4.871133785947896,1.7663411902284576,-3.4144491158056116,56.312279488256515,-0.5686818308136273,0.34416590486973947,-0.10531389822044086,0.551795191975952,23736751.044088177,0.0,1.0,0.0,0.0,0.0
23758852.0,-0.13789891838476956,0.07376543075551102,-0.01987879829859719,0.5647955346292586,0.0,1489.0,1500.0,1560.807615230461,1562.9038076152306,1436.0961923847694,1536.0480961923847,18.638250728316635,19.054223523847693,12.04016793727455,18.466645019659317,18.49688791268537,18.90966773274549,18.38553190316633,18.79582605709419,210.5536080272545,210.5536080272545,12.03959539733467,-0.0015683591623246495,-0.006696427975951904,0.0029178981983967937,-0.14117706703607213,-0.0005600040501002003,-0.10615455676553105,2.0,-0.9999422730260521,5.772697394789478e-05,11.0,0.0,0.0,1.0,0.0,0.0,0.0,0.0,0.0,0.0,0.0,-0.796648762032064,0.2584733262745491,0.13321567849098195,0.033462969110220446,-8.240053558647295,169.81679545571143,56.02965960729459,-0.021599643593186373,-0.03778580223446894,-0.008649609200400801,0.0,2.8607294183507013,0.5069989578336673,-13.864418821763527,-1.3900000000000002e-25,959.708966745491,12.039889555531062,-0.621248779749499,0.22961164972144288,-0.17569042293587175,3.0545413427474952,0.4903994850661323,-13.96989930228457,-0.6034285994108217,0.2378787746713427,-0.19632869451102203,-1.3900000000000002e-25,59.460289942304605,59.03178263332665,4.021016509885771,3.088401032903808,15.336709335350701,20.18831004833667,-0.09703201514629259,0.5445600801763527,-0.19044324976152305,-13.632025921182365,455.6513379813628,12.04016793727455,95970.45460803607,1.1402877978517034,-0.8413125239759525,0.5083147717955914,-0.8084495127875755,-0.6884590766953909,0.2414609346713427,-0.15018302074549097,-0.8493539698697395,0.2142423645971944,0.5868458113927856,0.8544833948156313,-0.4203292893006012,-0.02523007094589179,0.30419768265531066,0.5468382419619239,398713791.11643285,327394944.7967936,456132.3766739479,18.49224141747495,1.446971141246493,18.430711668877755,0.016083258991984036,1.4923785478717435,0.0,0.0,0.0,787999.0,39.8714138,32.7364368,-3.529477034282565,264.3533466983968,-56.17794104827655,2.240841172571142,18.835184078416834,-0.6565105037414829,5.0674721810581165,1.5547568397675353,-3.331283279765531,56.326802397034065,-0.5494556249458917,0.3471152138557115,-0.11006876658116231,0.5502042134268537,23758852.358717434,0.0,1.0,0.0,0.0,0.0
