timestamp,control[0],control[1],control[2],control[3],control[4],output[2],output[3],output[4],output[5],output[6],output[7],indicated_airspeed_m_s,true_airspeed_m_s,air_temperature_celsius,indicated_airspeed_m_s.1,equivalent_airspeed_m_s,true_airspeed_m_s.1,equivalent_ground_minus_wind_m_s,true_ground_minus_wind_m_s,differential_pressure_raw_pa,differential_pressure_filtered_pa,temperature,gyro_bias[0],gyro_bias[1],gyro_bias[2],accel_bias[0],accel_bias[1],accel_bias[2],instance_count,seq_reached,seq_current,seq_total,item_changed_index,item_do_jump_remaining,valid,warning,finished,failure,stay_in_failsafe,flight_termination,item_do_jump_changed,execution_mode,nav_roll,nav_pitch,nav_bearing,target_bearing,xtrack_error,wp_dist,acceptance_radius,rollspeed_integ,pitchspeed_integ,yawspeed_integ,additional_integ1,x,y,z,temperature.1,pressure,temperature.2,gyro_rad[0],gyro_rad[1],gyro_rad[2],accelerometer_m_s2[0],accelerometer_m_s2[1],accelerometer_m_s2[2],x.1,y.1,z.1,temperature.3,altitude_sp,altitude_filtered,height_rate_setpoint,height_rate,airspeed_sp,airspeed_filtered,airspeed_derivative_sp,airspeed_derivative,throttle_integ,pitch_integ,baro_alt_meter,baro_temp_celcius,baro_pressure_pa,rho,xyz[0],xyz[1],xyz[2],xyz[0].1,xyz[1].1,xyz[2].1,roll_body,pitch_body,yaw_body,q_d[0],q_d[1],q_d[2],q_d[3],thrust_body[0],lat,lon,alt,vel_m_s,vel_n_m_s,vel_e_m_s,vel_d_m_s,cog_rad,ground_contact,maybe_landed,landed,ref_timestamp,ref_lat,ref_lon,x.2,y.2,z.2,vx,vy,vz,ax,ay,az,dist_bottom,roll,pitch,yaw,thrust_body[0].1,timestamp.1,isTakeoff,isClimbing,isDescending,isCruise,isLand
9000000.0,0.0,0.0,0.0,0.499,0.5,900.0,900.0,900.0,900.0,900.0,900.0,1.9468714,1.9849108,12.404602,1.2420452,1.2420452,1.2663174,0.055327658,0.05640888,0.57151264,0.57151264,12.404602,-0.0007071930000000001,-0.005146375,-0.000529372,0.030616779,0.002432482,-0.111323915,2.0,-1.0,0.0,11.0,0.0,0.0,1.0,0.0,0.0,0.0,0.0,0.0,0.0,0.0,0.0,0.0,1.5752882,1.5750723,-0.006953625,296.17035,31.615036,4.33e-06,1.44e-05,-1.01e-06,0.0,-0.118745424,0.26680568,-10.02198,-1.3900000000000002e-25,966.1468,12.404602,-0.003731395,-0.002747726,2.46e-06,-0.2039415,0.20994374,-9.94355,-0.004415787,-0.009544579,-0.004312929,-1.3900000000000002e-25,0.009191727,-0.0028082740000000004,0.40060008,-0.27258617,10.195412,6.662840400000001,0.07065143,17.085504999999998,0.23094437,-19.22034,399.60184,12.404602,96616.44,1.1479629999999998,0.3798737,0.5819464,0.21160913,-0.004281654,0.000891695,0.0009773339999999998,0.007962049,0.0,2.4050531000000004,0.35999888,0.001433172,0.003714093,0.93294424,0.15,398714138.0,327364368.0,400117.0,0.0,0.01,0.0,0.03,0.60999256,0.0,0.0,1.0,787999.0,39.8714138,32.7364368,0.004669844,-0.005415201999999999,-0.046151035,0.017144926,0.017327141,-0.04982907,-0.031016342,-0.028253619,-0.034870576,0.10292487,0.040135752,0.049674913,-0.006798121,0.15,9000000.0,1.0,0.0,0.0,0.0,0.0
9031680.0,0.0,0.0,0.0,0.499,0.5,900.0,900.0,900.0,900.0,900.0,900.0,0.5920119876452905,0.6035803189759519,12.404602,1.2188114868717435,1.2188114868717435,1.242629600492986,0.0548874073006012,0.055960020613226455,0.5294815413687375,0.5294815413687375,12.404602,-0.0007094619278557115,-0.005152154330661323,-0.000517387501002004,0.030519006228456914,0.0024807737575150302,-0.11156510166332664,2.0,-1.0,0.0,11.0,0.0,0.0,1.0,0.0,0.0,0.0,0.0,0.0,0.0,0.0,0.0,-0.007680669404809619,1.574907860028056,1.5749962074408819,0.014988587915831663,295.72480310080164,33.133901324789576,4.418256513026052e-06,1.3811623246492986e-05,-7.88623246492986e-07,0.0,-0.1506473630821643,0.25428290894188377,-10.009692692905812,-1.3900000000000002e-25,966.1496962845691,12.404602,-0.005358314825651302,-0.004365388452905811,0.0011689198557114228,-0.24043922048496993,0.2067049892705411,-9.895873100605211,-0.003948037042084168,-0.009501517911823647,-0.005756246595190381,-1.3900000000000002e-25,-0.000980736342685369,-0.012980737342685369,0.40060008,-0.2857074790781563,10.623344451042083,7.63795721344489,0.05970774300200401,17.40283429330661,0.21402249055911823,-18.932271462244486,399.59342731563123,12.404602,96616.55724877755,1.1479644849158315,-0.08742251500200399,0.061292741192384814,-0.20819804400801598,-0.0007247230961923848,0.004794503913827655,0.0032698940080160316,0.007930695873747496,0.0,2.4050531000000004,0.35999891236072146,0.0014275287314629258,0.0036994681603206413,0.9329443113406813,0.15,398714138.0,327364368.0,400117.5579282565,0.0,0.008605268350701403,0.0,0.027210535965931867,0.7740864502044087,0.0,0.0,1.0,787999.0,39.8714138,32.7364368,0.004620906498997996,-0.005514636200400801,-0.045949134987975954,0.01638499844288577,0.01787318331062124,-0.0489445683747495,-0.004488131651302605,-0.017140576579158316,-0.019542390014028056,0.10209392683967936,0.040122538529058116,0.04978259697795591,-0.006759717649298597,0.15,9031679.675350701,1.0,0.0,0.0,0.0,0.0
9059592.0,0.0,0.0,0.0,0.499,0.5,900.0,900.0,900.0,900.0,900.0,900.0,0.27980724194388773,0.28527492295190376,12.404602,1.195577773743487,1.195577773743487,1.21894180051503,0.05444715613026052,0.05551116122645291,0.4874504432084168,0.4874504432084168,12.404602,-0.0007117303847695391,-0.0051579341322645295,-0.000505403002004008,0.03042123345691383,0.0025290650440881763,-0.11180628785571142,2.0,-1.0,0.0,11.0,0.0,0.0,1.0,0.0,0.0,0.0,0.0,0.0,0.0,0.0,0.0,-0.015361339280561121,1.5745275200561122,1.5749201144108216,0.03693080130260521,295.279256154509,34.652766649579156,4.741983967935871e-06,1.345871743486974e-05,-1.966885771543086e-06,0.0,-0.18254930216432863,0.24176013788376752,-9.997405386282566,-1.3900000000000002e-25,966.1525925691383,12.404602,-0.005363877817635271,-0.006624171406813627,0.0001535238597194391,-0.2033553741963928,0.22891193210821642,-9.920571218645291,-0.003480286613226453,-0.00945845635270541,-0.007199564190380762,-1.3900000000000002e-25,-0.011153200156312625,-0.023153200685370738,0.40060008,-0.29882878768537074,11.051276897374748,8.613074026418838,0.0487640564749499,17.720163581903808,0.19710061158917835,-18.64420291977956,399.65247738577153,12.404602,96615.88245807614,1.1479564996613225,-0.1416556630901804,-0.21905005183366733,-0.3458348854008016,-0.0007499866713426852,0.005258622817635271,0.0021278287054108218,0.007896676745490981,0.0,2.3998540909218438,0.36241216914028057,0.0014309185991983968,0.0036797910561122246,0.9319783103967936,0.15,398714138.0,327364368.0,400118.11580941884,0.0,0.007210536230460922,0.0,0.024421072402805614,0.9381803404088176,0.0,0.0,1.0,787999.0,39.8714138,32.7364368,0.004571968527054109,-0.005614070400801603,-0.04574723544689378,0.015625071356713427,0.018419225621242485,-0.048060066749499,0.022040079168336668,-0.006027534629258518,-0.004214204028056114,0.10126298367935871,0.040115920128256516,0.049715847849699395,-0.006726511142284569,0.15,9059591.815631263,1.0,0.0,0.0,0.0,0.0
9085388.0,0.004966338408817627,0.007247436474949889,-0.00015378023847695363,0.4054638567334671,0.486984319751503,900.0,900.0,900.0,900.0,900.0,900.0,0.2366145050460926,0.24123714126052143,12.404602,1.1723440606152304,1.1723440606152304,1.195254000478958,0.054006904901803605,0.055062302046092186,0.44541934510621245,0.44541934510621245,12.404602,-0.0007139987835671342,-0.005163713991983968,-0.000493418503006012,0.030323460685370743,0.00257735627254509,-0.11204747398997995,2.0,-1.0,0.0,11.0,0.0,0.0,1.0,0.0,0.0,0.0,0.0,0.0,0.0,0.0,0.0,-0.023042009214428855,1.5741471800841682,1.5748440213226451,0.058873014747494984,294.8337092024048,36.17163197436874,4.964729458917836e-06,1.3403206412825651e-05,-3.2644088176352706e-06,0.0,-0.20673450477755512,0.22909338066933868,-9.984516218517035,0.40514721741683296,966.1550675238477,12.404602,-0.003248049318637277,-0.006963339432865734,-0.0025727667835671324,-0.14125279724048098,0.242175736,-9.94664370222445,-0.00291193195991984,-0.009149224571142285,-0.008271314961923848,0.40514721741683296,-0.021325664028056107,-0.033325664028056104,0.40060008,-0.3119500962344689,11.479209343126252,9.588190839334668,0.03782037000601203,18.037492869919838,0.1801787326773547,-18.356134376733465,399.68928088456914,12.404602,96615.45550887776,1.147951431276553,0.0012979287935871477,-0.2616022778216434,-0.3381550316733467,-0.0009748128496994009,0.004647721719438877,-0.001221801853707413,0.007874214903807615,0.0,2.3859646605050098,0.3688592707094188,0.0014522951723446892,0.0036591373086172344,0.9293974723687375,0.15,398714138.0,327364368.0,400118.67368476954,0.0,0.005815804052104209,0.0,0.02163160889779559,1.1022742304068136,0.0,0.0,1.0,787999.0,39.8714138,32.7364368,0.004515604382765531,-0.005697784613226453,-0.045578638402805606,0.014867210108216436,0.01885214998797595,-0.047253790218436884,0.04808360837474949,0.0033895057535070117,0.00966615265330661,0.10052793228056112,0.04010653143486974,0.04959579774348697,-0.006708717881763527,0.15,9085387.92985972,1.0,0.0,0.0,0.0,0.0
9111185.0,0.022661932545090177,0.033070826633266534,-0.0007017156513026051,0.07218458897795599,0.440608061002004,900.0,900.0,900.0,900.0,900.0,900.0,-0.61818429660521,-0.6302633699859719,12.404602,1.149110347486974,1.149110347486974,1.1715662009719439,0.053566654202404806,0.05461344339478958,0.4033882464749499,0.4033882464749499,12.404602,-0.0007162677114228456,-0.005169493322645291,-0.000481434004008016,0.030225687913827657,0.0026256480300601206,-0.11228866065330662,2.0,-1.0,0.0,11.0,0.0,0.0,1.0,0.0,0.0,0.0,0.0,0.0,0.0,0.0,0.0,-0.030722678619238476,1.5737668401122245,1.574767928763527,0.08081522766332665,294.3881623032065,37.69049729915832,4.589639278557114e-06,1.3770941883767537e-05,-2.852545090180361e-06,0.0,-0.21114088770340686,0.21605757155911826,-9.970084415689378,1.8487300212224445,966.1564625651303,12.404602,0.0019708605751502994,-0.00145930657715431,-0.006543039711422845,-0.1209601103206413,0.19588308999999998,-9.872040334965932,-0.002085718613226453,-0.008157770761523046,-0.00839070028256513,1.8487300212224445,-0.03149812737074148,-0.043498127370741484,0.40060008,-0.32507140531262524,11.907141794168336,10.563307652779558,0.026876683008016034,18.354822163226455,0.16325685323647296,-18.068065838977954,399.5719377460922,12.404602,96616.80410517033,1.1479674733687373,0.0549742470581162,-0.040648049428857747,-0.36425431389779556,0.0034461552004008003,0.00623212029258517,-0.005284819138276552,0.007885213871743487,0.0,2.3572857786733468,0.38217122194589176,0.0015067685631262524,0.0036432540781563124,0.9240684911583167,0.15,398714138.0,327364368.0,400119.23161302606,0.0,0.004421072402805612,0.0,0.018842144863727456,1.2663681198757515,0.0,0.0,1.0,787999.0,39.8714138,32.7364368,0.004440206843687375,-0.0057412068176352716,-0.04549539853707415,0.014114643144288579,0.018995140983967936,-0.04664801295791583,0.07288484616633266,0.008459513671342685,0.019835568204408814,0.10003866170741484,0.04008054724649299,0.049590263324649296,-0.006722948509018036,0.15,9111184.573146293,1.0,0.0,0.0,0.0,0.0
9136981.0,0.029984762541082167,0.03492590998997996,-0.0035851077855711426,0.11639622519038076,0.3775492927214429,900.0,900.0,900.0,900.0,900.0,900.0,-0.4836570704849699,-0.49310664587775555,12.404602,1.1258766336813628,1.1258766336813628,1.1478784007875753,0.0531264028256513,0.05416458406613227,0.36135714852104206,0.36135714852104206,12.404602,-0.0007185359619238477,-0.005175273330661323,-0.00046944950501002,0.030127915142284568,0.002673939110220441,-0.11252984663927856,2.0,-1.0,0.0,11.0,0.0,0.0,1.0,0.0,0.0,0.0,0.0,0.0,0.0,0.0,0.0,-0.03840334870140281,1.5733865001402805,1.574691836204409,0.10275744125651302,293.94261540400805,39.2093626239479,4.783527054108216e-06,1.3800000000000003e-05,-2.2307014028056112e-06,0.0,-0.17908359897394793,0.20234138876953908,-9.952808655122245,5.206743200054109,966.1558667254509,12.404602,0.00033223884168336656,-0.0059843975290581174,-0.000653916987975952,-0.13613387448697395,0.2149015669298597,-9.930378453739479,-0.000784123507014028,-0.005908591180360722,-0.0067543307174348696,5.206743200054109,-0.04167059071342685,-0.053670591390781563,0.40060008,-0.33819271371342685,12.335074238436873,11.538424468256514,0.015932996010020038,18.672151456533065,0.14633497379559118,-17.779997301222444,399.5755904793587,12.404602,96616.76820875751,1.1479670259378758,0.4171465060360722,-0.09187421876352705,-0.2274243206472946,0.0031789155871743487,0.004303893490981965,-0.003778827853707415,0.007909286462925852,0.0,2.3550196,0.3832231125490982,0.0015155184789579158,0.003652714751503006,0.9236473444569139,0.15,398714138.0,327364368.0,400119.7894735471,0.0,0.003026340753507014,0.0,0.016052681507014027,1.4304620100220442,0.0,0.0,1.0,787999.0,39.8714138,32.7364368,0.004329912667334669,-0.00571075739478958,-0.045568650639278556,0.013371784028056112,0.0186065717755511,-0.04640982661523046,0.09540849026252506,0.005559754563126252,0.023201414945891785,0.1,0.039991166721442886,0.049493365947895794,-0.006737695280561122,0.15,9136980.539078156,1.0,0.0,0.0,0.0,0.0
9162776.0,0.03290863994188377,0.03485848392184369,-0.005115235599198397,0.15,0.3130591894068137,900.0,900.0,900.0,900.0,900.0,900.0,0.3118257439458905,0.3179210363246481,12.404602,1.102642920230461,1.102642920230461,1.124190600957916,0.052686151803607216,0.05371572467935872,0.3193260502124249,0.3193260502124249,12.404602,-0.0007208045671342686,-0.005181052983967936,-0.00045746500601202405,0.030030142370741482,0.0027222305450901804,-0.11277103297995993,2.0,-1.0,0.0,11.0,0.0,0.0,1.0,0.0,0.0,0.0,0.0,0.0,0.0,0.0,0.0,-0.04608401842885771,1.573006159755511,1.574615743232465,0.12469965449498996,293.4970685048096,40.72822794873747,4.737254509018036e-06,1.3841282565130262e-05,-3.295811623246491e-06,0.0,-0.14389777078156316,0.1885668307234469,-9.935288886346694,8.72901223822645,966.155100070541,12.404602,-0.002531489559118233,-0.00671357579158317,0.00041877477555110555,-0.1570467845771543,0.20800148683567138,-9.93902479273547,0.0005582583787575137,-0.003551500216432868,-0.004967319460921845,8.72901223822645,-0.05184305446893787,-0.06384305505611221,0.40060008,-0.35131402246893784,12.763006686252504,12.513541279779558,0.00498930942484971,18.98948074983968,0.12941309435470943,-17.491928759338677,399.5973123609218,12.404602,96616.51882643286,1.1479640730400802,0.2635398645731468,0.04517887235270514,0.016758067098196078,1.4351396793592461e-05,0.004366105292585168,-0.001772354380761525,0.007871555392785572,0.0,2.329185961523046,0.39507433275951903,0.0015545211462925851,0.003615254198396794,0.9185115571823648,0.15,398714138.0,327364368.0,400120.3473695391,0.0,0.001631609104208418,0.0,0.013263217795591186,1.5945559002264529,0.0,0.0,1.0,787999.0,39.8714138,32.7364368,0.004216624400801603,-0.005673970286573147,-0.04565532997995992,0.012629757833667337,0.018172395743486974,-0.046203179138276554,0.11773671992785568,0.0019761984629258554,0.02598352353507014,0.1,0.03979929774749499,0.04947906580160321,-0.006677276521042084,0.15,9162776.446893787,1.0,0.0,0.0,0.0,0.0
9189166.0,0.032825874833667334,0.035011003749498996,-0.005383602979959919,0.15,0.24708610546893792,900.0,900.0,900.0,900.0,900.0,900.0,1.32116077651503,1.3469771454168336,12.404602,1.0794092071022043,1.0794092071022043,1.100502801450902,0.05224590110420842,0.05326686529258517,0.27729495172945895,0.27729495172945895,12.404602,-0.0007230733466933869,-0.005186832314629258,-0.0004454805070140281,0.029932369599198396,0.0027705223026052105,-0.11301221949498999,2.0,-1.0,0.0,11.0,0.0,0.0,1.0,0.0,0.0,0.0,0.0,0.0,0.0,0.0,0.0,-0.053764687981963925,1.5726258191963927,1.5745396500861724,0.14664186755911823,293.05152159078153,42.24709327352705,4.499238476953908e-06,1.3751703406813628e-05,-4.725070140280563e-06,0.0,-0.11449264999799601,0.1764234484488978,-9.921455690352705,11.086974710356715,966.1545661819639,12.404602,-0.0037933619939879808,-0.00442515326252505,-0.0017881574168336688,-0.17478925019238478,0.1863805023507014,-9.920651638783566,0.001091605653306615,-0.0017952724949899794,-0.002782337539078159,11.086974710356715,-0.061565731124248485,-0.0735657311242485,0.40060008,-0.3610923007254509,13.126792720741483,13.45798711529058,-0.006623885683366724,19.231211474088177,0.11502782176352705,-17.234188556633267,399.614826908016,12.404602,96616.31532881763,1.1479616867635272,-0.1930867646492986,0.2956575369018036,0.2341700483246494,-0.003579032164328659,0.005900149268537074,-0.00021286772344689358,0.007791663521042084,0.0,2.292442,0.41193069078356714,0.001604820352705411,0.00354992672745491,0.9112068283887775,0.15,398714138.0,327364368.0,400120.9052829659,0.0,0.0004412709418837678,0.0,0.01006496663927856,1.7549076497294587,0.0,0.0,1.0,787999.0,39.8714138,32.7364368,0.004096431741482966,-0.00564722777755511,-0.045758576448897796,0.012038699350701404,0.017780130875751504,-0.04593279437875752,0.1313246740761523,-0.0009194237074148297,0.02494792377955913,0.1,0.039578513501002,0.049527228561122245,-0.006584627703406813,0.15,9189165.541082164,1.0,0.0,0.0,0.0,0.0
9217903.0,0.03169707623847695,0.03561990014228457,-0.005463876691382766,0.15,0.17524120582164332,900.0,900.0,900.0,900.0,900.0,900.0,1.3945616767314628,1.4218002346192384,12.404602,1.0561754939739478,1.0561754939739478,1.0768150019438878,0.05180565040480963,0.05281800590581162,0.23526385383366735,0.23526385383366735,12.404602,-0.0007253415390781564,-0.005192611645290581,-0.0004334960080160321,0.02983459682765531,0.00281881406012024,-0.11325340542284569,2.0,-1.0,0.0,11.0,0.0,0.0,1.0,0.0,0.0,0.0,0.0,0.0,0.0,0.0,0.0,-0.061445358122244484,1.572245479224449,1.5744635575270542,0.16858408121042084,292.6059746180361,43.76595859831664,4.396272545090181e-06,1.3016232464929861e-05,-2.3200801603206423e-06,0.0,-0.10797600456913828,0.17073864051302604,-9.922219329831663,8.834912539693388,966.1549539222444,12.404602,0.003257655292585167,-0.004598026442885771,0.0005416953807615217,-0.17163510436272544,0.20401897540080158,-9.984365436466934,-0.0015783855390781555,-0.002418138422845691,0.0009783930981963913,8.834912539693388,-0.06950749271342685,-0.08150749271342686,0.40060008,-0.35763398397194385,13.236593619418837,14.28099247747495,-0.020887973923847687,19.173612728957917,0.11068614115831664,-17.096532196152303,399.5918924234469,12.404602,96616.58655579158,1.1479649191583166,-0.1715081795991984,0.3403387498877755,0.05663944379959929,-0.0011492053306613238,0.006169756735470942,-0.0004933535410821642,0.007739562024048098,0.0,2.292442,0.4119307194669339,0.0015940898316633267,0.0035261894028056112,0.9112069195871744,0.15,398714138.0,327364368.0,400121.46313767537,0.0,6.022050501002023e-05,0.0,0.005248139444889782,1.9004425448336673,0.0,0.0,1.0,787999.0,39.8714138,32.7364368,0.003948901418837676,-0.005660255174348697,-0.04592741851302605,0.012045391400801604,0.017553810286573147,-0.04541004443286573,0.1103058603727455,-0.0010911980941883768,0.008796262605210426,0.1,0.03954356171543086,0.049542853641282567,-0.00659710423246493,0.15,9217903.33266533,1.0,0.0,0.0,0.0,0.0
9244165.0,0.03300803823046092,0.03493599936272545,-0.0055252066593186365,0.15,0.10958870828256514,900.0,900.0,900.0,900.0,900.0,900.0,0.9977576491102207,1.0172501579198396,12.404602,1.0329417808456913,1.0329417808456913,1.0531272018176352,0.05136539908617235,0.052369147138276555,0.1932327553186373,0.1932327553186373,12.404602,-0.0007276103507014029,-0.005198391595190381,-0.00042151150901803606,0.029736824056112224,0.002867105198396794,-0.11349459196993988,2.0,-1.0,0.0,11.0,0.0,0.0,1.0,0.0,0.0,0.0,0.0,0.0,0.0,0.0,0.0,-0.06912602764328657,1.571865139252505,1.574387464967936,0.19052629424248496,292.1604277072144,45.28482392310622,4.5286172344689375e-06,1.3581162324649298e-05,-2.8688577154308617e-06,0.0,-0.1067691872745491,0.16655213828056112,-9.926369245198396,5.513384639683368,966.1555554855711,12.404602,0.002797811436873748,-0.005102353829659319,-3.505258116232436e-05,-0.19597509365531063,0.1725356484769539,-9.915759059090181,-0.004991509965931863,-0.0035929235551102204,0.005104677547094188,5.513384639683368,-0.07680106085370741,-0.08880106085370741,0.40060008,-0.3493579918677355,13.25395248046092,15.059797587955911,-0.03611689825450902,19.00706813234469,0.10999999,-17.00258231280561,399.60213747955913,12.404602,96616.46090663326,1.1479633691743487,-0.16748979889579158,-0.2517194040501001,-0.272507339272545,9.851382765531044e-05,0.0016341374028056126,-0.0007008150420841682,0.007680181378757514,0.0,2.2555298755511024,0.4286323040400802,0.0016457327254509018,0.003469105466933868,0.9033549294268537,0.15,398714138.0,327364368.0,400122.0210543086,0.0,0.0,0.0,-0.00021034699398797454,2.0401035276593182,0.0,0.0,1.0,787999.0,39.8714138,32.7364368,0.0037951440340681366,-0.005682341410821644,-0.046111203420841684,0.01218824532264529,0.017365291110220442,-0.04482980872144289,0.08140397490180362,-0.0006425079118236475,-0.010798684647294585,0.1,0.03937973216032064,0.04935942760921844,-0.006569273909819639,0.15,9244164.789579159,1.0,0.0,0.0,0.0,0.0
9269961.0,0.033261334346693386,0.03456978486372745,-0.005588800915831663,0.15,0.049172063114228455,900.0,900.0,900.0,900.0,900.0,900.0,0.9448286926172346,0.9632866113306613,12.404602,1.0097080677174348,1.0097080677174348,1.0294394019298596,0.05092514800601203,0.05192028813226452,0.1512016570420842,0.1512016570420842,12.404602,-0.0007298792785571142,-0.005204171306613227,-0.0004095270100200401,0.02963905128456914,0.002915396575150301,-0.11373577863326653,2.0,-1.0,0.0,11.0,0.0,0.0,1.0,0.0,0.0,0.0,0.0,0.0,0.0,0.0,0.0,-0.07680669740280562,1.5714847992805612,1.5743113720541082,0.21246850751302607,291.714880808016,46.80368924789579,4.549058116232465e-06,1.3751703406813627e-05,-3.124308617234469e-06,0.0,-0.1069042133527054,0.16309354316032063,-9.933839338314629,2.3810361678877756,966.1562296044088,12.404602,0.0011278594308617234,-0.005966807140280562,0.0002747795050100201,-0.20733723769939882,0.14140892676352704,-9.88240881457916,-0.007840742983967936,-0.004872914488977956,0.008200410466933868,2.3810361678877756,-0.08397296196993988,-0.09597296196993987,0.40060008,-0.3401777108316633,13.253959758076151,15.83030620751503,-0.05152692415030061,18.820074149058115,0.10999999,-16.91683623777555,399.60445608597195,12.404602,96616.42372707414,1.1479629266993987,0.15533122513226458,-0.6354201551362726,-0.16116692938476956,0.0019952305531062125,-0.0003845788577154308,0.001928136190380762,0.007639884482965932,0.0,2.214922257529058,0.44689127346492985,0.001707004653306613,0.0034169367074148296,0.8944817450400802,0.15,398714138.0,327364368.0,400122.57894709415,0.0,0.0,0.0,-0.0057892743266533065,2.1786619638436875,0.0,0.0,1.0,787999.0,39.8714138,32.7364368,0.003643472983967936,-0.005699006865731463,-0.04629731463126253,0.01229601140280561,0.01715130821242485,-0.0443096824749499,0.052771833440881766,-0.0008888447895791584,-0.03205057902605211,0.1,0.039236403569138274,0.04927046840681363,-0.006526327555110221,0.15,9269961.078156313,1.0,0.0,0.0,0.0,0.0
9296839.0,0.03193991744689379,0.03474888356112224,-0.005578227436873749,0.15,0.0,900.0,900.0,900.0,900.0,900.0,900.0,1.1919485157735479,1.215225327296594,12.404602,0.9864743545891784,0.9864743545891784,1.0057516023326654,0.050484897216432865,0.051471428745490974,0.10917055905611225,0.10917055905611225,12.404602,-0.0007321481162324649,-0.00520995072745491,-0.0003975425110220441,0.029541278513026053,0.0029636883326653305,-0.11397696520641282,2.0,-1.0,0.0,11.0,0.0,0.0,1.0,0.0,0.0,0.0,0.0,0.0,0.0,0.0,0.0,-0.0844873674529058,1.5711044593086172,1.5742352788496994,0.2344107210741483,291.2693339088176,48.32255457268537,4.441643286573146e-06,1.3281963927855711e-05,-2.4399799599198407e-06,0.0,-0.10770433735671343,0.16049561026452905,-9.946482145108217,-1.3900000000000002e-25,966.1569661380761,12.404602,-0.0001026121442885775,-0.007004091172344689,0.0014065718917835707,-0.20107022145290582,0.1338177224248496,-9.917484961831665,-0.009334681182364732,-0.006156006114228456,0.009178231192384775,-1.3900000000000002e-25,-0.09114486346693386,-0.10314486346693386,0.40060008,-0.33099742950501004,13.253967031883766,16.600814824168335,-0.06693694966533065,18.633080161963928,0.10999999,-16.8310901656513,399.59777258617237,12.404602,96616.49507286574,1.1479638356873747,0.6625477476773554,-0.6381481330761525,0.3380853569458921,0.004263507639278559,0.001283811585170339,0.006064083635270548,0.007616322967935873,0.0,2.17674999842485,0.46388604884168333,0.0017663702384769539,0.003373379511022044,0.8857986588597195,0.15,398714138.0,327364368.0,400123.13681082166,0.0,0.0,0.0,-0.011368201659318632,2.3172204000280563,0.0,0.0,1.0,787999.0,39.8714138,32.7364368,0.00349801250501002,-0.005702086529058116,-0.046482512965931866,0.012288080679358717,0.016875210795591185,-0.043924814865731465,0.027477138462925866,-0.0026833013266533002,-0.05523051169138274,0.1,0.03914030152104208,0.04929753460521042,-0.006474676160320642,0.15,9296839.150300601,1.0,0.0,0.0,0.0,0.0
9331461.0,0.03099214766933868,0.03452591524849699,-0.00499223802204409,0.15,0.0,900.0,900.0,900.0,900.0,900.0,900.0,0.266820557571144,0.2720313579599216,12.404602,0.9632406414609219,0.9632406414609219,0.9820638020901804,0.05004464578156313,0.05102256935871744,0.06713946042484978,0.06713946042484978,12.404602,-0.0007344163086172344,-0.005215730793587174,-0.0003855580120240481,0.029443505741482967,0.0030119800901803606,-0.11421815113426853,2.0,-1.0,0.0,11.0,0.0,0.0,1.0,0.0,0.0,0.0,0.0,0.0,0.0,0.0,0.0,-0.09216803685771542,1.5707241193366734,1.5741591862905813,0.25635293398997994,290.82378700961925,49.84141989747495,4.61815631262525e-06,1.3134869739478959e-05,-1.542705410821645e-06,0.0,-0.11061226884368737,0.16062526128857715,-9.975518158390782,-1.3900000000000002e-25,966.1579002597194,12.404602,0.00027774547895791514,-0.006989787733466933,-0.0025805903907815553,-0.2079809248577154,0.22107521364529042,-9.980609865725452,-0.006533461380761527,-0.007448923579158315,0.003444029028056123,-1.3900000000000002e-25,-0.09831676496392784,-0.11031676496392784,0.40060008,-0.3218171488236473,13.253974305691383,17.37132344727455,-0.08234697518036069,18.44608617486974,0.10999999,-16.745344087074148,399.63539486673346,12.404602,96616.09123312625,1.1479590132044089,0.015142365557115456,-0.43324516671943925,0.011040059304609828,0.002501170697394793,0.0030749150020040047,-0.0006980737615230326,0.007555433328657314,0.0,2.131171105645291,0.48395202537274545,0.0018280608056112223,0.003305611012024048,0.8749989079378758,0.15,398714138.0,327364368.0,400123.69473907823,0.0,0.0,0.0,-0.01694712899198396,2.4557788362124247,0.0,0.0,1.0,787999.0,39.8714138,32.7364368,0.003371988823647295,-0.005662650577154309,-0.0466648545991984,0.011918101286573148,0.016404739595190385,-0.043963210126252504,0.012626291505010049,-0.009322276901803594,-0.0844438396633266,0.1,0.03903885065931864,0.04914223329659319,-0.006418730356713427,0.15,9331460.709418837,1.0,0.0,0.0,0.0,0.0
9363838.0,0.030629530196392786,0.03489622765731463,-0.005037459509018036,0.15,0.0,900.0,900.0,900.0,900.0,900.0,900.0,0.6301107499098193,0.6424247335531059,12.404602,0.9400069283326653,0.9400069283326653,0.9583760024088177,0.04960439490781563,0.050573709971943895,0.02510834271543088,0.02510834271543088,12.404602,-0.0007366850621242484,-0.005221510298597194,-0.00037357351302605207,0.02934573296993988,0.003060271286573146,-0.11445933762324649,2.0,-1.0,0.0,11.0,0.0,0.0,1.0,0.0,0.0,0.0,0.0,0.0,0.0,0.0,0.0,-0.09984870682364728,1.5703437793647295,1.574083093731463,0.27829514746693385,290.3782400543086,51.36028522226453,4.749779559118236e-06,1.2875551102204408e-05,-1.6498396793587173e-06,0.0,-0.11352020033066132,0.16075491231262526,-10.004554172234469,-1.3900000000000002e-25,966.158834437475,12.404602,0.0018214649458917827,-0.00452993062725451,-0.000408657763527056,-0.2409915342344689,0.20863420242084169,-10.00346245995992,-0.0037322415791583175,-0.00874184160521042,-0.002290172575150298,-1.3900000000000002e-25,-0.10548866589979959,-0.11748866589979959,0.40060008,-0.3126368681422846,13.253981579498998,18.14183207038076,-0.09775700125651303,18.25909218777555,0.10999999,-16.659598008496992,399.65685115931865,12.404602,96615.8334983968,1.1479559683567133,-0.0007346609719439678,-0.21782307956112232,-0.13877364170340678,0.0013196396072144294,0.0028004999418837677,-0.00019270266132264628,0.007465313148296593,0.0,2.117259786973948,0.49005365336673345,0.0018290312124248497,0.003253732933867736,0.871661723749499,0.15,398714138.0,327364368.0,400124.2526112225,0.0,0.0,0.0,-0.022526056324649296,2.5943372729579157,0.0,0.0,1.0,787999.0,39.8714138,32.7364368,0.003245964581162325,-0.005623214625250501,-0.046847196793587176,0.01154812245490982,0.01593426839478958,-0.04400160594789579,-0.0022245554529058045,-0.01596125303807615,-0.11365716763527053,0.1,0.03901738328456914,0.04905307483366733,-0.006347859262525049,0.15,9363837.779559119,1.0,0.0,0.0,0.0,0.0
9393145.0,0.03060023541482966,0.03517407044088177,-0.005190359,0.15,0.0,900.0,900.0,900.0,900.0,900.0,900.0,0.9089005080681369,0.9266634777795597,12.404602,0.9167732152044088,0.9167732152044088,0.9346882029018037,0.04916414420841683,0.05012485088176353,-0.01692276045691377,-0.01692276045691377,12.404602,-0.0007389536933867734,-0.005227289629258517,-0.0003615890140280561,0.029247960198396792,0.003108562605210421,-0.11470052398997996,2.0,-1.0,0.0,11.0,0.0,0.0,1.0,0.0,0.0,0.0,0.0,0.0,0.0,0.0,0.0,-0.10752937666733466,1.5699634393927857,1.5740070008757514,0.30023736082164326,289.9326931112225,52.87915054705411,4.929739478957915e-06,1.2877955911823647e-05,-2.285571142284568e-06,0.0,-0.12224175807815628,0.15933714770541083,-10.02366744024048,-1.3900000000000002e-25,966.1597781533065,12.404602,0.0026907954729458927,-0.0011152466472945945,0.0018393752184368744,-0.2596646977975952,0.1847532173326653,-9.984933414316632,-0.0015253096973947915,-0.009392877577154308,-0.005993657995991983,-1.3900000000000002e-25,-0.11177698293386773,-0.12377698323046091,0.40060008711823647,-0.30386665690380765,13.253989019398798,18.867347047394787,-0.11226715102605209,18.02692782953908,0.10999999,-16.69511376054108,399.6297443314629,12.404602,96616.1375530461,1.1479595726152305,0.025946459192385044,-0.10027791405410817,-0.1415671680020042,0.0014958695931863702,0.004152926126252498,0.002325127601202402,0.007372544913827655,0.0,2.100564258817635,0.4972810665871743,0.0018327011783567135,0.0031980442204408823,0.8674850963226454,0.15,398714138.0,327364368.0,400124.6063801603,0.0,0.0,-0.0002551211543086163,-0.026064014422845692,2.7615399537575147,0.0,0.0,1.0,787999.0,39.8714138,32.7364368,0.003126651771543086,-0.005605111138276553,-0.04702483756713427,0.011317189056112226,0.015613298845691381,-0.043955930529058114,-0.013617065352705402,-0.012167629861723475,-0.12000559596793592,0.1,0.038997345661322645,0.04898012488376753,-0.006273942482965931,0.15,9393144.709418837,1.0,0.0,0.0,0.0,0.0
9418941.0,0.030780983498997997,0.03502699677555111,-0.0051981853647294594,0.15,0.0,900.0,900.0,900.0,900.0,900.0,900.0,0.48862314736272544,0.4981734858036072,12.404602,0.893539502044088,0.893539502044088,0.9110004033627255,0.048723893476953904,0.049675992198396794,-0.05895383443687375,-0.05895383443687375,12.404602,-0.0007412219178356713,-0.005233068991983968,-0.0003496045150300601,0.029150187426853706,0.0031568543306613227,-0.1149417099498998,2.0,-1.0,0.0,11.0,0.0,0.0,1.0,0.0,0.0,0.0,0.0,0.0,0.0,0.0,0.0,-0.11521004610420842,1.5695830994208415,1.5739309076132264,0.3221795737695391,289.48714621202413,54.39801587216433,5.17813627254509e-06,1.3283967935871743e-05,-3.2016032064128256e-06,0.0,-0.13992039775751502,0.15553527238877757,-10.027492685811623,-1.3900000000000002e-25,966.1607365374749,12.404602,0.0019039360901803605,0.002106804823647294,0.0012592363086172341,-0.2455932588016032,0.19366329596192386,-9.924416622078157,-0.0002340000480961924,-0.009054962543086171,-0.006568409464929859,-1.3900000000000002e-25,-0.11665715442484971,-0.12865715548897794,0.4006001056032064,-0.29574996325450903,13.253996723987976,19.521156766032064,-0.12534318996392785,17.72277657006012,0.10999999,-16.923881485791583,399.5462823725451,12.404602,96617.11178300601,1.1479710868777555,-0.16920670491783568,-0.11461736737675349,-0.017750742094188383,0.0032880493066132265,0.008553716148296593,0.0041454635871743485,0.007290255448897794,0.0,2.0661881705490983,0.5121585402905812,0.0018668629178356713,0.003130755448897796,0.8588790330801603,0.15,398714138.0,327364368.0,400124.6315793587,0.0,0.0,-0.0009209777394789579,-0.02631608901002004,2.97485878698998,0.0,0.0,1.0,787999.0,39.8714138,32.7364368,0.003017670134268537,-0.005619844699398797,-0.047195241234468936,0.01130028773747495,0.015522456825651301,-0.04378084417034068,-0.01968616487174349,0.007684870008016033,-0.09115813612024048,0.1,0.038937086008016035,0.04889976827855711,-0.006204514963927856,0.15,9418940.649298597,1.0,0.0,0.0,0.0,0.0
9444737.0,0.03065137513226453,0.034544019627254514,-0.004894638855711423,0.15,0.0,900.0,900.0,900.0,900.0,900.0,900.0,0.47091597912024047,0.4801131819238477,12.404602,0.8703057881803608,0.8703057881803608,0.8873126031202405,0.04828364204208417,0.049227132811623255,-0.10098493233266528,-0.10098493233266528,12.404602,-0.0007434908456913828,-0.005238849058116233,-0.0003376200160320641,0.02905241465531062,0.003205145352705411,-0.11518289661322645,2.0,-1.0,0.0,11.0,0.0,0.0,1.0,0.0,0.0,0.0,0.0,0.0,0.0,0.0,0.0,-0.12289071624448897,1.569202759448898,1.5738548150541083,0.3441217874208417,289.04159931282567,55.916881204308616,4.906012024048096e-06,1.291623246492986e-05,-3.2383767535070136e-06,0.0,-0.16537558100801603,0.14966351068136272,-10.018044862865732,-1.3900000000000002e-25,966.1617076533066,12.404602,-0.0015898789038076124,-0.005225675721442879,-0.0017119427374749474,-0.2418539141883768,0.28770046202605204,-9.879909134683366,0.0002623663486973943,-0.007858440312625252,-0.004426791629258519,-1.3900000000000002e-25,-0.11932864891983969,-0.13132865145490982,0.4006001423767535,-0.28865831340480963,13.254004843587174,20.062496813767535,-0.13616982676152303,17.30571387206413,0.10999999,-17.455764855511024,399.63991032404806,12.404602,96616.0250732064,1.1479582161362725,-0.24258585284569134,0.26116172273146254,-0.1013279065671342,0.002313235527054109,0.006184780424849701,-0.001360784507014024,0.007228976745490982,0.0,2.053732432519038,0.5174662156432865,0.0018698658456913829,0.003092964745490982,0.8556213594188375,0.15,398714138.0,327364368.0,400124.0737246493,0.0,0.0,-0.0023157093887775535,-0.020737161677354718,3.270013559322645,0.0,0.0,1.0,787999.0,39.8714138,32.7364368,0.0029174592765531062,-0.005662455679358718,-0.0473595020501002,0.011465087653306612,0.01562697901402806,-0.04349589551503006,-0.02123600292985972,0.04117040894188374,-0.03243144112825657,0.1,0.03875477894188377,0.04879790923046092,-0.0061818977615230464,0.15,9444737.29258517,1.0,0.0,0.0,0.0,0.0
9470533.0,0.030857463420841683,0.034814061593186375,-0.004787347184368737,0.15,0.0,900.0,900.0,900.0,900.0,900.0,900.0,0.49024668425050094,0.49982435802004,12.404602,0.8470720748196393,0.8470720748196393,0.8636248033807616,0.04784339111022044,0.0487782734248497,-0.14301603073146285,-0.14301603073146285,12.404602,-0.0007457592705410822,-0.005244628621242485,-0.00032563551703406813,0.028954641883767535,0.003253436877755511,-0.1154240827735471,2.0,-1.0,0.0,11.0,0.0,0.0,1.0,0.0,0.0,0.0,0.0,0.0,0.0,0.0,0.0,-0.1305713858817635,1.568822419476954,1.57377872249499,0.3660640005691383,288.59605241362726,57.43574653142284,4.266693386773548e-06,1.269939879759519e-05,-3.0085571142284574e-06,0.0,-0.18971253561723445,0.144082537252505,-10.007853903867735,-1.3900000000000002e-25,966.1627842997995,12.404602,-0.0013513203767535106,-0.006861848084168338,-0.0008547742124248546,-0.21076450950100212,0.24036808468136295,-9.874840114841684,0.0006598855250500996,-0.006680921146292588,-0.002328864895791587,-1.3900000000000002e-25,-0.12200014391783566,-0.13400014792384768,0.4006001786472946,-0.2815666630521042,13.254012958156313,20.603836866533065,-0.14699646406212422,16.888651179098197,0.10999999,-17.987648220200402,399.61825241623245,12.404602,96616.28218923848,1.147961258995992,-0.01170883030661396,0.11752190930661394,-0.2720435655150296,0.0011282924949899823,0.006511170224448895,-0.0020200037935871776,0.007110275881763527,0.0,2.0320107513266534,0.5267222859819639,0.0018719055170340682,0.0030220802705410825,0.8499402440380761,0.15,398714138.0,327364368.0,400123.5158196393,0.0,0.0,-0.003710441541082162,-0.01515823434468939,3.56516833165531,0.0,0.0,1.0,787999.0,39.8714138,32.7364368,0.0028201603206412826,-0.005701777,-0.04753103633266533,0.011628400180360722,0.01573700811222445,-0.04319847532865732,-0.02167652712224449,0.0727716385631262,0.023793569559118127,0.1,0.038466896446893786,0.048755053793587175,-0.006038057116232466,0.15,9470533.432865731,1.0,0.0,0.0,0.0,0.0
9496329.0,0.030863187014028057,0.03508516586573146,-0.004891826847695391,0.15,0.0,900.0,900.0,900.0,900.0,900.0,900.0,0.573564608541082,0.5847737426793587,12.404602,0.8238383616913828,0.8238383616913828,0.8399370036352706,0.04740314017234469,0.048329414038076154,-0.18504712912424848,-0.18504712912424848,12.404602,-0.0007480277014028056,-0.005250408190380761,-0.00031365101803607217,0.02885686911222445,0.003301728635270541,-0.11566526893987976,2.0,-1.0,0.0,11.0,0.0,0.0,1.0,0.0,0.0,0.0,0.0,0.0,0.0,0.0,0.0,-0.1333493523466934,1.5685842613727454,1.5737280649338679,0.38044414218637274,288.09456485450903,58.61858636218437,3.898857715430861e-06,1.3196192384769538e-05,-2.920240480961924e-06,0.0,-0.20329231455711422,0.14129889372945892,-9.990514082142285,-1.3900000000000002e-25,966.1648761452903,12.404602,-0.000165444649298597,-0.005991029663326653,0.0009958405611222444,-0.1850918817014028,0.1766843881543086,-9.889040456951905,0.00010651436072144397,-0.0056862040060120245,-0.0006512381142284573,-1.3900000000000002e-25,-0.12467163914829658,-0.13667164438677354,0.40060021468537077,-0.2744750124669339,13.254021070400801,21.145176919238477,-0.15782310159519036,16.471588486072147,0.10999999,-18.5195315849499,399.5411926859719,12.404602,96617.17922693386,1.1479718974488977,0.0749135309679361,-0.15791832576953907,-0.26785076433667354,-0.0010206849338677338,0.006194193410821645,-0.0008811129338677356,0.006941436414829659,0.0,2.0022327533066133,0.5393270055831664,0.0018712817054108216,0.002922796438877756,0.8420186067014028,0.15,398714138.0,327364368.0,400122.9579152305,0.0,0.0,-0.0051051736873747484,-0.00957930701202405,3.860323103987976,0.0,0.0,1.0,787999.0,39.8714138,32.7364368,0.002747512503006012,-0.005713248236472946,-0.04776414285170341,0.011779124593186372,0.015893648246492986,-0.04279548379358718,-0.012726882589178368,0.08842247911623247,0.058842212248497,0.1,0.038163006024048096,0.04869825980961924,-0.005855203210420842,0.15,9496329.340681363,1.0,0.0,0.0,0.0,0.0
9522125.0,0.030128021292585173,0.03463322191382766,-0.005248624394789579,0.15,0.0,900.0,900.0,900.0,900.0,900.0,900.0,0.754561426571142,0.7693025598837673,12.404602,0.8006046485631262,0.8006046485631262,0.8162492033927856,0.04696288873747495,0.04788055465130261,-0.22707822702004005,-0.22707822702004005,12.404602,-0.000750296629258517,-0.005256188256513027,-0.00030166651903807616,0.028759096340681363,0.0033500203927855714,-0.11590645560320642,2.0,-1.0,0.0,11.0,0.0,0.0,1.0,0.0,0.0,0.0,0.0,0.0,0.0,0.0,0.0,-0.12590992108817636,1.5686424150601201,1.5737304147635272,0.3790646730300601,287.4764950797596,59.101137768416834,4.450460921843687e-06,1.5034869739478954e-05,-3.3835871743486967e-06,0.0,-0.19553078747695393,0.14406491021442888,-9.958991533539079,-1.3900000000000002e-25,966.1689820589178,12.404602,-0.0006001226853707409,-0.005381894977955913,0.0012295997034068133,-0.19704990962925856,0.21508251921843682,-9.905414069282564,-0.0023333406192384736,-0.00505414983967936,0.00019255004609218334,-1.3900000000000002e-25,-0.12734313437875752,-0.1393431403527054,0.400600250723447,-0.26738336188176354,13.254029182645292,21.686516966973947,-0.16864973912825645,16.054525788076155,0.10999999,-19.051414954669337,399.4597100074148,12.404602,96618.11559176352,1.1479830383627254,-0.43213666681162255,-0.2077624454789579,0.18478363297795525,-0.004976358763527049,0.001940445711422851,-0.0006632627635270545,0.006723411937875752,0.0,1.9645895118236474,0.5551075694488977,0.0018660348557114229,0.0027962012965931865,0.8317617576292585,0.15,398714138.0,327364368.0,400122.4000605211,0.0,0.0,-0.006499905336673345,-0.004000379679358726,4.155477876320641,0.0,0.0,1.0,787999.0,39.8714138,32.7364368,0.002723433919839679,-0.005669847360721443,-0.048118562621242485,0.011905047515030059,0.016142123426853706,-0.04218448983767535,0.014723765711422806,0.07264702456713429,0.05216806204008016,0.1,0.03792743835871744,0.04855558874348697,-0.005707799388777556,0.15,9522125.248496994,1.0,0.0,0.0,0.0,0.0
9550759.0,0.030574348661322647,0.034264847501002005,-0.005226245376753507,0.15,0.0,900.0,900.0,900.0,900.0,900.0,900.0,0.09681747198396795,0.09871220636272537,12.404602,0.7773709354348697,0.7773709354348697,0.7925614038597194,0.046522638012024047,0.0474316959739479,-0.26910932562525053,-0.26910932562525053,12.404602,-0.0007525648476953908,-0.005261967613226453,-0.0002896820200400802,0.028661323569138277,0.0033983114408817636,-0.11614764155711424,2.0,-1.0,0.0,11.0,0.0,0.0,1.0,0.0,0.0,0.0,0.0,0.0,0.0,0.0,0.0,-0.11766693465931863,1.5687238731563127,1.5737369331382767,0.37644577822244485,286.8492565631263,59.528614514408815,4.2713627254509016e-06,1.3610220440881762e-05,-3.0523847695390784e-06,0.0,-0.1877692603967936,0.14683092740881765,-9.927468982807616,-1.3900000000000002e-25,966.1730879016031,12.404602,-0.0012297859078156314,-0.008195382689378758,-0.0020348358116232465,-0.17751073506012024,0.19911635666332667,-9.918863953048096,-0.004773195599198397,-0.0044220956733466935,0.0010363389158316633,-1.3900000000000002e-25,-0.13001462889979962,-0.1420146370280561,0.40060028747094195,-0.2602917112965932,13.254037301983967,22.22785701470942,-0.17947637666132263,15.63746309008016,0.10999999,-19.583298317294588,399.56797494689374,12.404602,96616.8719834469,1.1479682918737475,-0.13917568118436874,-0.09501172331262527,0.2956584699038076,-0.0030640136673346693,0.006690262360721443,0.001494381130260521,0.006353566863727455,0.0,1.927601276753507,0.5703625632064129,0.0018108342785571139,0.0026098737975951904,0.8213076475551102,0.15,398714138.0,327364368.0,400121.8421348698,0.0,0.0,-0.007894636985971945,0.0015785483627254512,4.450632648653307,0.0,0.0,1.0,787999.0,39.8714138,32.7364368,0.0026993560460921843,-0.005626446484969939,-0.0484729831002004,0.012030971146292585,0.016390598607214427,-0.041573495881763525,0.042174414012024056,0.056871570727454905,0.04549391254108216,0.1,0.03738662692184369,0.04838818237074149,-0.0053035625370741486,0.15,9550758.831663327,1.0,0.0,0.0,0.0,0.0
9577717.0,0.030779445957915832,0.03441013490781563,-0.0049951917394789585,0.15,0.0,900.0,900.0,900.0,900.0,900.0,900.0,0.5128352529799589,0.5228583632224438,12.404602,0.7541372223066133,0.7541372223066133,0.7688736043527055,0.046082387312625255,0.046982836877755514,-0.3111404238116232,-0.3111404238116232,12.404602,-0.00075483348496994,-0.005267747388777555,-0.00027769796593186377,0.02856355079759519,0.0034466029078156313,-0.11638882792985972,2.0,-1.0,0.0,11.0,0.0,0.0,1.0,0.0,0.0,0.0,0.0,0.0,0.0,0.0,0.0,-0.10939443958717435,1.5688061870641283,1.5737436045951905,0.37378136778356713,286.22168138577155,59.95406874018036,4.354609218436873e-06,1.3044488977955912e-05,-2.5140480961923857e-06,0.0,-0.17475494682765533,0.15242701575551101,-9.903015907661322,-1.3900000000000002e-25,966.1755150835671,12.404602,-0.00011476578356713649,-0.006609675843687379,-2.643801603211416e-06,-0.186855096513026,0.212420235014028,-9.933328712951903,-0.005598493961923848,-0.004895675803607214,0.0019864093106212416,-1.3900000000000002e-25,-0.13155837496192385,-0.14355838440681365,0.40060031401202406,-0.24555391135270543,13.254044852124249,22.740897036312624,-0.1897370249719439,15.204876688396794,0.10999999,-20.204990017895792,399.54441757875753,12.404602,96617.12229072145,1.1479712533947897,0.043680636306613146,-0.2974172955350698,0.14849726232665358,0.002147230587174343,0.007746801989979961,0.001967761797595191,0.006090230653306613,0.0,1.896142887783567,0.583207722995992,0.0017752883086172343,0.002473821703406814,0.8122326367194389,0.15,398714138.0,327364368.0,400121.3146815631,0.0,0.00015218255711422823,-0.008832820519038076,0.006244379308617231,4.6519398012024045,0.0,0.0,1.0,787999.0,39.8714138,32.7364368,0.0026664266713426854,-0.005630769380761523,-0.04879668441082164,0.011905453332665331,0.016478025466933867,-0.041135454607214426,0.057038238889779554,0.048036214625250505,0.03661774818236474,0.10001624826452907,0.03698236765531062,0.048345496060120244,-0.004997332176352706,0.15,9577717.064128257,1.0,0.0,0.0,0.0,0.0
9603513.0,0.030631143675350702,0.03467708706412826,-0.004821005607214429,0.15,0.0,900.0,900.0,900.0,900.0,900.0,900.0,1.1840075528136287,1.2071412015450917,12.404602,0.7309035091783568,0.7309035091783568,0.7451858046653307,0.045642136432865736,0.04653397749098197,-0.3531715218877755,-0.3531715218877755,12.404602,-0.0007571024128256514,-0.005273527274549098,-0.0002657140220440882,0.028465778026052102,0.0034948944849699398,-0.11663001459318637,2.0,-1.0,0.0,11.0,0.0,0.0,1.0,0.0,0.0,0.0,0.0,0.0,0.0,0.0,0.0,-0.10112194462525051,1.5688885007915832,1.5737502760521043,0.37111695734468936,285.594106237475,60.379522963046085,4.5816432865731465e-06,1.3118036072144289e-05,-1.928016032064129e-06,0.0,-0.15580049697595197,0.1612235025791583,-9.886557379889778,-1.3900000000000002e-25,966.1760439068137,12.404602,0.0016544183587174344,-0.0030378681763527063,0.0026323407835671464,-0.2012305443887776,0.22957800219238483,-9.938044414368738,-0.0045979637474949965,-0.00661956720641282,0.0030566688036072123,-1.3900000000000002e-25,-0.13083736825851705,-0.1428373778977956,0.40060031998196394,-0.2154610618196394,13.254051265591183,23.19710474448898,-0.1988610508076152,14.741115477795592,0.10999999,-21.007035430220437,399.46431132985975,12.404602,96618.02668046093,1.1479819893647294,0.09781600495991996,-0.5965133522665331,-0.09092539431863722,0.0064044478977956015,0.005012070226452918,0.0016306498396793574,0.005887830845691383,0.0,1.8609147123206413,0.5973611931062124,0.0017574423787575148,0.0023611641282565133,0.8017523590100202,0.15,398714137.96392787,327364368.0,400120.86318917834,0.0,0.0006841004649298572,-0.00863179843086173,0.00863179843086173,4.619072890585172,0.0,0.0,1.0,787999.0,39.8714138,32.7364368,0.002623622246492986,-0.005688334671342685,-0.04908611472945892,0.011499417793587177,0.01638578062324649,-0.04089036627855711,0.05785971348697398,0.046943501739478935,0.02528493053707418,0.10005062368336673,0.0366869266753507,0.048351280280561126,-0.004773317206412826,0.15,9603513.152304608,1.0,0.0,0.0,0.0,0.0
9629310.0,0.02996731275150301,0.03429207170340682,-0.005213343316633267,0.15,0.0,900.0,900.0,900.0,900.0,900.0,900.0,0.42002975648697427,0.4282340724789583,12.404602,0.7076697960501003,0.7076697960501003,0.7214980044228457,0.045201884997995996,0.046085118104208414,-0.3952026205190381,-0.3952026205190381,12.404602,-0.0007593713406813628,-0.005279306605210421,-0.0002537295230460922,0.028368005254509016,0.0035431855070140288,-0.11687120125651303,2.0,-1.0,0.0,11.0,0.0,0.0,1.0,0.0,0.0,0.0,0.0,0.0,0.0,0.0,0.0,-0.09284944910821644,1.568970813963928,1.5737569475090178,0.36845254690581164,284.9665310891783,60.804977185911824,4.6698997995991985e-06,1.3191583166332666e-05,-1.552925851703407e-06,0.0,-0.12912309561122245,0.17418092519639278,-9.880492806384769,-1.3900000000000002e-25,966.1741045434869,12.404602,0.0019153119659318636,-0.002449478184368738,-0.003783260498997994,-0.17070191195190382,0.19574344111022043,-9.910498676294589,-0.0012236179178356727,-0.00996902617034068,0.004283190158316633,-1.3900000000000002e-25,-0.12541302367935872,-0.1374130318476954,0.40060028320841684,-0.15347953208416837,13.254055325390782,23.535285639238477,-0.20562459088977955,14.212611817695391,0.10999999,-22.18363135523046,399.48916509939875,12.404602,96617.78009911823,1.1479791445631262,0.03617525568537078,-0.5476518011422846,-0.1208184386513026,0.0015269318476953926,-0.001302233172344687,0.0023280307414829658,0.005647661338677355,0.0,1.8030158965170342,0.6203469458837675,0.001750874623246493,0.0022150334068136274,0.7841600713286574,0.15,398714137.8168337,327364368.0,400120.58422505006,0.0,0.002078832849699398,-0.005842335132264531,0.005842335132264531,4.054128392793587,0.0,0.0,1.0,787999.0,39.8714138,32.7364368,0.00256821848496994,-0.005813831020040081,-0.04933182012625251,0.01073547382965932,0.01606429524248497,-0.040891464336673344,0.0407647453727455,0.055729521454909815,0.01081770301603207,0.10010812721442885,0.036429364751503004,0.048253700202404805,-0.0045863641703406816,0.15,9629309.795591183,1.0,0.0,0.0,0.0,0.0
9660316.0,0.029996996006012022,0.03381418645290581,-0.0048000991623246515,0.15,0.0,900.0,900.0,900.0,900.0,900.0,900.0,0.8322350832064107,0.8484899222204387,12.404602,0.6844360829218438,0.6844360829218438,0.6978102048316634,0.04476163421442886,0.04563625871743487,-0.43723371849899784,-0.43723371849899784,12.404602,-0.000761639617234469,-0.005285085935871743,-0.00024174502404809625,0.028270232482965934,0.0035914771803607216,-0.11711238726853707,2.0,-1.0,0.0,11.0,0.0,0.0,1.0,0.0,0.0,0.0,0.0,0.0,0.0,0.0,0.0,-0.08457695359118239,1.5690531277875752,1.5737636196172344,0.36578813581563124,284.3389558757514,61.230431415290575,4.406452905811624e-06,1.3395390781563124e-05,-1.764008016032063e-06,0.0,-0.10244569424649308,0.1871383478136272,-9.87442823287976,-1.3900000000000002e-25,966.1721651801603,12.404602,-0.0016248205290581006,-0.005284412841683355,-0.00010119970741484866,-0.17794446754108212,0.2255327212605209,-9.931816031707413,0.0021507279118236342,-0.013318485134268525,0.005509712164328653,-1.3900000000000002e-25,-0.11998867910020042,-0.1319886857975952,0.40060024708617237,-0.09149800234869762,13.254059378677356,23.873466540501003,-0.21238813032064124,13.684108157595192,0.10999999,-23.360227286753503,399.5904326214429,12.404602,96616.58247268538,1.1479648270661322,-0.0017422729478956608,-0.20973157341483106,-0.24046240833466884,0.0019588489639278516,0.0025832354228456714,0.0024264372945891786,0.005388652903807616,0.0,1.7458074360741487,0.6424758781703406,0.001729641486973948,0.002065129038076153,0.7660429483767536,0.15,398714137.6697395,327364368.0,400120.3052609218,0.0,0.003473564583166327,-0.00305287118236474,0.00305287118236474,3.4891838943507034,0.0,0.0,1.0,787999.0,39.8714138,32.7364368,0.002512815374749499,-0.005939327368737474,-0.04957752487174349,0.009971529865731465,0.015742809861723446,-0.040892561743486974,0.0236697779098197,0.06451554117034064,-0.00364952385370736,0.10016563139679359,0.03611887993186373,0.04820808690781563,-0.004323297957915833,0.15,9660316.208416834,1.0,0.0,0.0,0.0,0.0
9688902.0,0.03052025047094188,0.033746220761523046,-0.004591615569138277,0.15,0.0,900.0,900.0,900.0,900.0,900.0,900.0,1.1566165074749497,1.1792085186793584,12.404602,0.6612023697935873,0.6612023697935873,0.6741224049378758,0.044321383128256515,0.04518739971743487,-0.479264816781563,-0.479264816781563,12.404602,-0.0007639081963927855,-0.005290865653306613,-0.00022976052505010024,0.028172459711422848,0.0036397689378757513,-0.11735357358316632,2.0,-1.0,0.0,11.0,0.0,0.0,1.0,0.0,0.0,0.0,0.0,0.0,0.0,0.0,0.0,-0.07630445846092186,1.5691354416953909,1.5737702914228457,0.3631237250280561,283.7113806925851,61.65588564164329,4.418577154308617e-06,1.3267935871743488e-05,-1.5905811623246507e-06,0.0,-0.09016130230460921,0.18921016315831665,-9.888036193853708,1.6094945995070067,966.1699403392786,12.404602,-0.002795625234468941,-0.00581296340881764,0.002317389813627254,-0.16833679682364736,0.22380541835671353,-9.94983128143487,0.0030578897635270574,-0.013094355324649308,0.006753137418837672,1.6094945995070067,-0.11456433452104209,-0.126564339747495,0.4006002106613226,-0.029516472226453046,13.25406343498998,24.211647438737476,-0.21915166966733465,13.155604501362726,0.10999999,-24.5368232152505,399.6241258759519,12.404602,96616.18480298598,1.147960090987976,-0.22736417450701307,0.01598584923847674,-0.2844961605370742,0.0019531384448897822,0.004943966246492987,0.0012009928777555166,0.005065165234468939,0.0,1.6999496905050102,0.6599520978537075,0.0016702562064128258,0.001903495811623247,0.7512070711563127,0.15,398714137.5226453,327364368.0,400120.02633547096,0.0,0.004868296232464926,-0.00026340753507014683,0.00026340753507014683,2.9242393962104223,0.0,0.0,1.0,787999.0,39.8714138,32.7364368,0.0024622195571142287,-0.005976770078156312,-0.04955598873747495,0.009637167931863727,0.015642070068136272,-0.040489953346693384,0.016504189827655304,0.06049369217835675,-0.013150218981963916,0.10079920353306614,0.03576558010420842,0.048045620587174355,-0.004033943008016032,0.15,9688901.695390781,1.0,0.0,0.0,0.0,0.0
9715187.0,0.03106659540480962,0.03398322944488978,-0.004602145068136273,0.15,0.0,900.0,900.0,900.0,900.0,900.0,900.0,0.9535013001943904,0.9721264466753523,12.404602,0.6379686565430862,0.6379686565430862,0.6504346048176353,0.04388113181563127,0.04473854094388778,-0.5212959152905812,-0.5212959152905812,12.404602,-0.000766177002004008,-0.0052966455971943886,-0.0002177760260521042,0.02807468693987976,0.0036880605731462925,-0.11759476012424849,2.0,-1.0,0.0,11.0,0.0,0.0,1.0,0.0,0.0,0.0,0.0,0.0,0.0,0.0,0.0,-0.06803196355711423,1.5692177554809619,1.5737769628797595,0.36045931458917835,283.08380554428857,62.08133986450902,4.639438877755511e-06,1.2777755511022045e-05,-1.3224849699398786e-06,0.0,-0.09153928760521042,0.18094895719038076,-9.92031805263527,4.746781040803604,966.1674445312625,12.404602,-0.001852924667334668,-0.004810770492985969,0.0025033027374749494,-0.14626451869138277,0.18962485085971945,-9.947419975771544,0.0016231091723446912,-0.009478042757515034,0.008012607997995991,4.746781040803604,-0.10913998994188377,-0.1211399936973948,0.40060017401002,0.032465058122244435,13.25406749478958,24.549828333486975,-0.22591520913627255,12.62710084739479,0.10999999,-25.713419141482966,399.5871450769539,12.404602,96616.62432098197,1.1479653731442885,-0.5429866744248497,0.08769764184368739,-0.20540874513026078,0.0007553072525050119,0.004387597543086174,-0.0009801791863727444,0.004660669068136274,0.0,1.664132881963928,0.673325376997996,0.0015683750480961927,0.0017234661503006015,0.7392982408216433,0.15,398714137.3755511,327364368.0,400119.7474326653,0.0,0.006263028004008015,0.0025260558857715405,-0.0025260558857715405,2.359294898296594,0.0,0.0,1.0,787999.0,39.8714138,32.7364368,0.0024161683266533066,-0.0059309714388777555,-0.0492818167995992,0.009708910629258518,0.01575001176953908,-0.03970570242685371,0.01872532462124248,0.04436394515430864,-0.01795581125851703,0.1019773605230461,0.03530972723847695,0.04782887689178357,-0.0036832451743486977,0.15,9715186.581162324,1.0,0.0,0.0,0.0,0.0
9743924.0,0.029901896266533067,0.033841949154308625,-0.004314465609218437,0.15,0.0,900.0,900.0,900.0,900.0,900.0,900.0,-0.8111328741442898,-0.8269843364909828,12.404602,0.6147349426793587,0.6147349426793587,0.6267468053106213,0.04344088111623246,0.04428968155711423,-0.5633270131863728,-0.5633270131863728,12.404602,-0.0007684451943887775,-0.005302424927855712,-0.0002057915270541082,0.027976914168336673,0.0037363515951903807,-0.1178359460521042,2.0,-1.0,0.0,11.0,0.0,0.0,1.0,0.0,0.0,0.0,0.0,0.0,0.0,0.0,0.0,-0.05975946804008016,1.5693000686533065,1.5737836343366733,0.3577949041503006,282.456230395992,62.50679408737475,4.455571142284569e-06,1.2042284569138276e-05,-2.6610420841683374e-06,0.0,-0.09636000470541083,0.17008397146693388,-9.957305477621242,8.269050080949903,966.164880532465,12.404602,-0.0032449777314629263,-0.008561278819639282,0.0031049525350701408,-0.15994636106412827,0.1723664463927856,-9.88603314783968,-0.0004018092825651314,-0.005006946478957914,0.009276122805611223,8.269050080949903,-0.10371564536272544,-0.11571564764729458,0.4006001379719439,0.09444658785771547,13.25407155458918,24.888009228236474,-0.23267874921843687,12.09859718729459,0.10999999,-26.890015073847696,399.54590376452904,12.404602,96617.08981525051,1.147970872995992,-0.4473197702104208,0.06324073683767534,0.09689659636472964,-0.001340363507014029,0.002054900679358716,-0.0023185450781563134,0.004130402609218437,0.0,1.6277546505010019,0.6866580538056113,0.0014172916653306612,0.0015019915791583166,0.7269262846993989,0.15,398714137.2284569,327364368.0,400119.4684685371,0.0,0.007657760388777557,0.005315519919839681,-0.005315519919839681,1.7943503997695387,0.0,0.0,1.0,787999.0,39.8714138,32.7364368,0.0023711736853707414,-0.0058658285711422845,-0.048948934561122245,0.009875027038076151,0.01590644864529058,-0.03883276240480962,0.023127824260521044,0.025420464967935864,-0.02167031607615231,0.10328207273547094,0.03450213013226453,0.04789870250300601,-0.003099234911823647,0.15,9743924.372745492,1.0,0.0,0.0,0.0,0.0
9772663.0,0.029408935020040085,0.03413550354108216,-0.00391833091983968,0.15,0.0,900.0,900.0,900.0,900.0,900.0,900.0,-0.33551479788577443,-0.3420721259098226,12.404602,0.5915012294088177,0.5915012294088177,0.6030590058036073,0.04300063041683367,0.04384082217034068,-0.6053581116753506,-0.6053581116753506,12.404602,-0.0007707139799599198,-0.005308204851703407,-0.00019380702805611225,0.027879141396793587,0.0037846432104208416,-0.1180771325731463,2.0,-1.0,0.0,11.0,0.0,0.0,1.0,0.0,0.0,0.0,0.0,0.0,0.0,0.0,0.0,-0.05148697311623249,1.5693823824188378,1.5737903057935871,0.35513049371142286,281.8286551883768,62.93224831617235,4.224248496993989e-06,1.2967735470941879e-05,-1.3373787575150354e-06,0.0,-0.10783259693186369,0.16502284400400805,-9.983179446174349,10.999414022707409,966.1631501977956,12.404602,-0.004350924551102201,-0.006043351250501014,-0.000268126597194376,-0.19022557238276544,0.17095957510420842,-9.904265789150301,-0.0022487587755510973,-0.0019929015991984045,0.00935551601002004,10.999414022707409,-0.09829130078356715,-0.1102913015971944,0.40060010134068136,0.1564281175931862,13.254075608456914,25.226190128917835,-0.23944228870741482,11.570093527194391,0.10999999,-28.066611000280556,399.63078538276557,12.404602,96616.12427705411,1.1479593572965932,-0.24537982405611286,0.0521292213947896,0.26284233064529017,0.0004221483707414755,0.0028346983887775506,-0.0018007163246493013,0.003607624535070142,0.0,1.5975926841923849,0.6975189046092184,0.0012563430000000005,0.0012941733446893795,0.7164648306212426,0.15,398714137.0813627,327364368.0,400119.1895044088,0.0,0.009052492180360718,0.008104983953907808,-0.008104983953907808,1.2294059018356729,0.0,0.0,1.0,787999.0,39.8714138,32.7364368,0.00233059175751503,-0.005784250881763526,-0.04850649317234469,0.009924708673346693,0.016118970106212424,-0.038086299208416836,0.022422332573146297,0.011102658641282603,-0.02163056866132265,0.10412129261923847,0.03406113584769539,0.047820615905811624,-0.002741279671342686,0.15,9772662.75751503,1.0,0.0,0.0,0.0,0.0
