timestamp,control[0],control[1],control[2],control[3],control[4],output[2],output[3],output[4],output[5],output[6],output[7],indicated_airspeed_m_s,true_airspeed_m_s,air_temperature_celsius,indicated_airspeed_m_s.1,equivalent_airspeed_m_s,true_airspeed_m_s.1,equivalent_ground_minus_wind_m_s,true_ground_minus_wind_m_s,differential_pressure_raw_pa,differential_pressure_filtered_pa,temperature,gyro_bias[0],gyro_bias[1],gyro_bias[2],accel_bias[0],accel_bias[1],accel_bias[2],instance_count,seq_reached,seq_current,seq_total,item_changed_index,item_do_jump_remaining,valid,warning,finished,failure,stay_in_failsafe,flight_termination,item_do_jump_changed,execution_mode,nav_roll,nav_pitch,nav_bearing,target_bearing,xtrack_error,wp_dist,acceptance_radius,rollspeed_integ,pitchspeed_integ,yawspeed_integ,additional_integ1,x,y,z,temperature.1,pressure,temperature.2,gyro_rad[0],gyro_rad[1],gyro_rad[2],accelerometer_m_s2[0],accelerometer_m_s2[1],accelerometer_m_s2[2],x.1,y.1,z.1,temperature.3,altitude_sp,altitude_filtered,height_rate_setpoint,height_rate,airspeed_sp,airspeed_filtered,airspeed_derivative_sp,airspeed_derivative,throttle_integ,pitch_integ,baro_alt_meter,baro_temp_celcius,baro_pressure_pa,rho,xyz[0],xyz[1],xyz[2],xyz[0].1,xyz[1].1,xyz[2].1,roll_body,pitch_body,yaw_body,q_d[0],q_d[1],q_d[2],q_d[3],thrust_body[0],lat,lon,alt,vel_m_s,vel_n_m_s,vel_e_m_s,vel_d_m_s,cog_rad,ground_contact,maybe_landed,landed,ref_timestamp,ref_lat,ref_lon,x.2,y.2,z.2,vx,vy,vz,ax,ay,az,dist_bottom,roll,pitch,yaw,thrust_body[0].1,timestamp.1,isTakeoff,isClimbing,isDescending,isCruise,isLand
35009243.0,-0.033735175,0.13642073300000002,0.254296545,0.281518918,0.0,1623.0,1500.0,1279.210842,1516.0,1483.0,1572.0,15.376461,15.75647092,11.72714204,15.4107033,15.35889467,15.73827471,15.43265512,15.81385712,146.017184,146.017184,11.72782751,-0.00172812,-0.006505833000000001,0.000545366,-0.179433175,0.13244744,-0.08946963599999999,2.0,-0.23944789,0.76055211,11.0,0.0,0.0,1.0,0.0,0.0,0.0,0.0,0.0,0.0,0.0,0.51813794,0.026748273,1.843597772,1.618260389,-12.44651128,262.4767174,46.18583286,-0.006773049000000001,-0.031725467,0.099280633,0.0,0.237083267,-0.0011662410000000002,-11.19298569,4.38931173,954.1676813,11.72731753,-0.040176586,0.299812527,0.462341264,0.159460413,-0.109057151,-11.0780624,-0.039144333,0.310027655,0.469347227,11.72731753,100.04175,102.7380466,-0.134814914,-1.878597871,15.36970068,16.23304681,-0.017266906999999998,0.608929948,-0.305596129,50.48526117,503.9532056,11.72714204,95416.51596,1.1337061000000002,-0.383592104,-0.49507938,0.261645163,-0.04090608,0.288154666,0.451007425,0.792085354,-0.000996951,1.646295579,0.627145959,0.262628647,0.282568579,0.676659737,0.277951914,398729979.2,327396898.1,504345.9312,15.74230246,13.37130826,8.289583917,-0.132166437,0.554866832,0.0,0.0,0.0,787999.0,39.8714138,32.7364368,178.7479993,279.48265539999994,-104.2474697,12.38914341,9.642189483,0.42968676,-5.044403072,6.390564901,2.375133915,104.3963297,-0.082585499,0.443693003,0.50221655,0.27962154,35009243.0,0.0,0.0,0.0,1.0,0.0
35228040.0,-0.03305794381162324,0.1484513853026052,0.23647872935871742,0.2791048885531062,0.0,1611.9599198396793,1500.0,1276.9914632264529,1516.9985167334669,1482.0014832665331,1575.9899799599198,15.350810299338677,15.7299079501002,11.72800954254509,15.450702106873747,15.39886540008016,15.779086331983967,15.450219804168336,15.831708822825652,147.13396892885777,147.13396892885777,11.729087911402807,-0.0017245560581162324,-0.00649308674749499,0.000556244136272545,-0.17938857565130262,0.13306171513827655,-0.08912963514629257,2.0,-0.22381871168537074,0.7761812883146292,11.0,0.0,0.0,1.0,0.0,0.0,0.0,0.0,0.0,0.0,0.0,0.42255906733466936,0.0332030662745491,1.8505127652044089,1.6205460453907816,-12.864817393466934,258.7761314983968,46.595020496753506,-0.007018855939879759,-0.030468834625250508,0.09866183040881764,0.0,0.14434618735871743,0.08395794211022044,-11.888420035971945,-1.3900000000000002e-25,954.1988945875751,11.72839259258517,-0.04160834473947896,0.34274080317635275,0.4630510245270541,0.12116754708416834,0.029724108851703415,-11.757227049158317,-0.03783221698997996,0.35231482758316635,0.46973705080561123,-1.3900000000000002e-25,100.04175,102.33143606933868,-0.11448448952705412,-1.9514801884529058,15.369323984509018,16.404618039038077,-0.02070589029058116,0.688721112496994,-0.30717692605611224,50.28226294470942,503.6141793963928,11.72800954254509,95420.40299028056,1.1337521843707414,-0.43190610883767533,-0.15662348949899801,0.04610395254709422,-0.03229536640881764,0.32466561567535074,0.4602945633767535,0.7647765462284569,0.002418117254509018,1.7031064153787574,0.6115717126192385,0.2449844596813627,0.28145147972344686,0.6976720968517033,0.27514887231863727,398730249.4218437,327397146.13486975,504324.0807865731,15.735246051703408,12.28965713503006,9.796740089683366,0.4413181505951904,0.6728831582725451,0.0,0.0,0.0,787999.0,39.8714138,32.7364368,181.48747964228457,281.86977388577156,-104.09537591022044,11.114989814448897,11.103702532685372,0.92093486249499,-6.021775575424849,6.242004576356713,1.9854164850040081,104.2442417022044,-0.08538177201803608,0.458452973246493,0.4383096218917836,0.2768732670541082,35228040.44288577,0.0,0.0,0.0,1.0,0.0
35442837.0,-0.03608184725250501,0.15211605541683365,0.21125415849098195,0.2760420576633266,0.0,1601.1031734208418,1500.0,1274.9799599198398,1518.421165014028,1480.578834985972,1578.361044773547,15.388091669158317,15.768058605490982,11.729530491362725,15.490700913747496,15.438836130360722,15.819897944168337,15.467784478537075,15.849560535450902,148.25075395771543,148.25075395771543,11.730348312805612,-0.001720993116232465,-0.0064803394949899795,0.0005671222725450901,-0.17934397728256515,0.1336759902765531,-0.08878963527254509,2.0,-0.20818953337074148,0.7918104666292585,11.0,0.0,0.0,1.0,0.0,0.0,0.0,0.0,0.0,0.0,0.0,0.3205344896693387,0.039589305569138276,1.8522655054088175,1.6220367837815632,-13.060132387134267,254.99841019679357,47.01630606350701,-0.007287006863727455,-0.029534335963927856,0.09651969801202405,0.0,0.14838644813226454,0.23413394542084168,-12.683384228717435,0.17524150455511128,954.2420300106213,11.730054261422845,-0.04863167708416834,0.3820792469699399,0.469405070993988,0.19736346555511025,0.13183525725851708,-12.616028783006012,-0.05105876009619239,0.3853601607915832,0.46790354729058126,0.17524150455511128,100.04175,101.86864796893788,-0.09134503176753507,-1.9834453538456913,15.368918952044087,16.561001145450902,-0.023841637100200402,0.7125512170561122,-0.30885452491382764,50.23194856917836,503.45917106753507,11.729530491362725,95422.17334290581,1.133773293729459,0.0638822552505009,-0.2315484645130259,0.15900238958116225,-0.033508586761523046,0.35943343701803604,0.4676184291342685,0.7280237293486974,0.007283631813627255,1.7550810573486975,0.5981630333426854,0.22489759621643288,0.2760153217815632,0.7179353511462926,0.27176688006412825,398730493.8935872,327397435.0300601,504168.7488350701,15.759929639018036,10.982871068116232,11.266988883326652,0.8991596774589178,0.7982814901543086,0.0,0.0,0.0,787999.0,39.8714138,32.7364368,183.91344057675352,284.6085533482967,-103.84200583787575,9.578050202833667,12.499312126452907,1.3027890979779557,-7.166973983112225,5.758154660809619,1.4399240785811624,103.99086983787575,-0.09973795535470942,0.46710227438476964,0.3788104424549098,0.2744361499799599,35442836.88577154,0.0,0.0,0.0,1.0,0.0
35669633.0,-0.03917310960921844,0.15674415558316632,0.1928207868256513,0.27378564284569135,0.0,1587.939879759519,1500.0,1271.4635303887776,1521.0300601202405,1477.9699398797595,1575.0,15.447532568777556,15.828733772505009,11.7315796353507,15.530699720921843,15.478806870240481,15.860709566252506,15.485349162805612,15.867412238176353,149.36753888657313,149.36753888657313,11.731608714208418,-0.0017174291743486975,-0.00646759224248497,0.0005780004088176352,-0.1792993779238477,0.13429026638476954,-0.08844963443887777,2.0,-0.19256035605611221,0.8074396439438879,11.0,0.0,0.0,1.0,0.0,0.0,0.0,0.0,0.0,0.0,0.0,0.2178870771963928,0.04579220653507014,1.8450924371382766,1.6218694355671341,-12.831353323386773,251.17749208116234,47.39094697599199,-0.007576826418837675,-0.028907251905811625,0.09314848769138277,0.0,0.23246684677154314,0.31436772344288577,-13.134447484288577,-1.3900000000000002e-25,954.2620344390781,11.732108558677355,-0.07303979217034069,0.3890926978496994,0.45982773831462925,0.14772841114028054,0.2457557351903808,-12.99707140224449,-0.08296105906012025,0.3820969286653306,0.4570966474509018,-1.3900000000000002e-25,100.04175,101.44821814068136,-0.07032356101202404,-1.9627212925691382,15.368551281523045,16.675918001462925,-0.02614733032064128,0.6866024602785571,-0.31027807136272545,50.33450823519038,503.2235810424851,11.7315796353507,95424.8962761523,1.1338056499178355,-0.37378010576753473,0.08371226341482983,-0.34148760660320643,-0.04919197887975952,0.3970961332905812,0.46720177776352706,0.6772673661322646,0.013175788811623247,1.7971012334509018,0.5890768553527054,0.20200857184569138,0.2637837843366733,0.7366107826272545,0.2672481197675351,398730710.33707416,327397763.98637277,503914.41746893787,15.81020290975952,9.420193094667335,12.68095345741483,1.2933804712464931,0.931789509236473,0.0,0.0,0.0,787999.0,39.8714138,32.7364368,185.9609729180361,287.6826779282565,-103.51184564388778,7.785232447725451,13.761505983046092,1.5733248998356713,-8.106423029723446,5.020497994829659,1.0330134479178357,103.66070564388778,-0.12346942691182365,0.4579673383166333,0.3212295207234469,0.2710324047294589,35669633.358717434,0.0,0.0,0.0,1.0,0.0
35884431.0,-0.04713189450100202,0.14856099725050098,0.16775503283767534,0.27014584104208417,0.0,1576.9198396793588,1500.0,1266.9599198396793,1525.0400801603207,1473.9599198396793,1570.9599198396793,15.593109084268537,15.977570919899799,11.733947193947895,15.601144620721442,15.54923129270541,15.93267153280561,15.53211527234469,15.915132123246492,150.93293468036077,150.93293468036077,11.733281303867736,-0.0017138764729458917,-0.006454727184368738,0.0005889153867735471,-0.1791869158016032,0.13496343661322643,-0.08799237188977954,2.0,-0.17693117774148298,0.8230688222585171,11.0,0.0,0.0,1.0,0.0,0.0,0.0,0.0,0.0,0.0,0.0,0.11471512163527053,0.05184069975350702,1.830402163224449,1.6203056693827658,-12.245407401182366,247.32019420420843,47.726304321322644,-0.007885528268537076,-0.028451631276553105,0.08891084891382765,0.0,0.14689879681763526,0.27630303442084164,-13.226145081462926,-1.3900000000000002e-25,954.3034855721443,11.734709186252505,-0.11289441043486974,0.3706851852004008,0.43430104132665326,0.16294689621643285,0.32611356073547093,-13.241298677715431,-0.12075371570741483,0.3669450618877756,0.41869330638677354,-1.3900000000000002e-25,100.04175,101.02001586913828,-0.048913333378757515,-1.8870598126352707,15.368206051743488,16.79533196240481,-0.028542509749498998,0.619866427244489,-0.3116661769318637,50.582004585811625,502.81518702304606,11.733947193947895,95429.56622903807,1.1338611663867735,-0.18686319934268528,0.1735285479498995,-0.49916190585170317,-0.07350079844088175,0.40103402666132265,0.4497677627054108,0.6088059346993988,0.019416863262525053,1.8241991911102204,0.5862184035591183,0.17612393534869744,0.24267559568136274,0.7526167397214429,0.2621419818056112,398730888.41402805,327398120.3931864,503594.02339498996,15.895603899438878,7.648058504326653,13.938231946252506,1.5109556420480963,1.0685454496653306,0.0,0.0,0.0,787999.0,39.8714138,32.7364368,187.57935417715433,291.0269623054109,-103.13025970440881,5.843059549250501,14.805392309238478,1.7641826990901803,-8.600536190621241,3.915216269052104,0.665647521018036,103.27912643226453,-0.159469469743487,0.4366167426472946,0.2651059873226453,0.2667254436713427,35884430.771543086,0.0,0.0,0.0,1.0,0.0
36115227.0,-0.05415693263527054,0.1377173297274549,0.14486389338276554,0.26572098631663327,0.0,1565.2212928116232,1500.0,1261.9498997995993,1529.030592472946,1469.969407527054,1563.6230687254508,15.800593679278556,16.18983811753507,11.736538513767535,15.748899410400801,15.696984920881762,16.083731624008017,15.653030784929859,16.03869442905812,153.63746003046094,153.63746003046094,11.736000497334668,-0.0017103475911823646,-0.006441560230460922,0.0005999227835671343,-0.17890213200200403,0.13578615426653307,-0.08723735506212425,2.0,-0.16130199942685372,0.8386980005731464,11.0,0.0,0.0,1.0,0.0,0.0,0.0,0.0,0.0,0.0,0.0,0.022540346272545083,0.05718573653707415,1.8131770059438879,1.6180772956693386,-11.514501998276552,243.4674209735471,47.98957306687375,-0.008176789174348697,-0.02801422389178357,0.08408544071342686,0.0,0.08574962518637273,0.2753507082264529,-12.966886296653307,11.051797712555109,954.3594154601202,11.73724682767535,-0.16595890988977957,0.33584331263126255,0.4054157029198397,0.12567878887575154,0.2732385701523046,-13.02422223486974,-0.16658193436873747,0.32193966783967937,0.40210227589378755,11.051797712555109,100.04175,100.60806504328657,-0.028315926316633263,-1.7452640500701404,15.368045471503006,16.907143224649293,-0.030781964563126256,0.5192234656072144,-0.3130090798797595,50.97241261549098,502.4372456867735,11.736538513767535,95433.89592613226,1.1339125188376753,-0.21209713636072183,-0.3197053940200402,0.44466715298797566,-0.11546213976553107,0.3763980239038076,0.4246735209038076,0.5322729866653306,0.02602981948697395,1.850168827781563,0.5832625185591181,0.14822540446092186,0.21759271731262525,0.7684250485831663,0.25633405612424853,398731029.4466934,327398522.01182365,503216.02008637274,16.00918663967936,5.6871881511282565,14.926790591202405,1.6775164128617233,1.2066978869498999,0.0,0.0,0.0,787999.0,39.8714138,32.7364368,188.73596167515032,294.5716686238477,-102.71872603126253,3.8719745303847697,15.576319994829658,1.8849661226933867,-8.420629058086172,2.7590220264128256,0.4075084741222445,102.86759043607213,-0.20448604315631264,0.4016908452665331,0.21051448481963927,0.26155906973947896,36115227.21442886,0.0,0.0,0.0,1.0,0.0
36338264.0,-0.0650218029478958,0.12296278353907816,0.12292810830060119,0.2604889860521042,0.0,1552.879759519038,1500.0,1255.939879759519,1532.1803607214429,1466.8196392785571,1554.939879759519,15.979070035591182,16.37247234420842,11.739291118837675,15.89665419048096,15.844738548456913,16.234791724809618,15.773946288517035,16.16225673547094,156.34198547054106,156.34198547054106,11.738719691402805,-0.0017068197094188377,-0.006428393276553106,0.0006109301402805611,-0.1786173482024048,0.13660887191983967,-0.08648233733466934,2.0,-0.14567282211222446,0.8543271778877756,11.0,0.0,0.0,1.0,0.0,0.0,0.0,0.0,0.0,0.0,0.0,-0.050996783533066144,0.06133857524448898,1.7916558133326652,1.6147225715430862,-10.537924225931864,239.6223160282565,48.1306684848497,-0.008444054144288577,-0.0274716651503006,0.07880145661523047,0.0,-0.0170609609278557,0.21769745497795587,-12.486857744849699,-1.3900000000000002e-25,954.4113119076153,11.739987844969939,-0.22209072660320642,0.28284465587975954,0.37262162136873755,0.021740271545090173,0.2503201565511022,-12.590151016392785,-0.24104327802805614,0.2649803427314629,0.3545181045971944,-1.3900000000000002e-25,100.04175,100.2632119250501,-0.011073155246492983,-1.5629410198316633,15.367807787915831,16.96914371739479,-0.03202672976553106,0.41026361895190383,-0.3141738073066132,51.45104424729459,502.04846543146294,11.739291118837675,95438.30438763527,1.1339648608456914,-0.22169755226452917,0.24940409824048054,0.00237347015631241,-0.18315746424048096,0.32662782032665333,0.38887221098998,0.43546665383967936,0.03282487518436874,1.8570701136212424,0.5876218998136272,0.1165463916492986,0.1825489223767535,0.7796054059098196,0.2504938600440882,398731124.38537073,327398935.6226453,502816.06969959923,16.14125330232465,3.7427185311923843,15.66608581234469,1.7823243447955912,1.3359856408316635,0.0,0.0,0.0,787999.0,39.8714138,32.7364368,189.42720924969942,298.2405889278557,-102.28845813887776,1.9961173828557113,16.068779728176352,1.9564691305871744,-7.889109968370741,1.5800605685631262,0.24568417392585168,102.43732313887776,-0.251285252240481,0.3613127085771544,0.1570359289759519,0.2558708523046092,36338264.138276555,0.0,0.0,0.0,1.0,0.0
36580820.0,-0.07354997243687375,0.10526634361523046,0.09779166779759518,0.25365156330661326,0.0,1542.7053320400803,1500.0,1250.7754723206413,1536.6512888977957,1462.3487111022043,1547.7754723206413,16.089705574328658,16.485338553507013,11.742123476593187,16.04440898056112,15.99249216723447,16.385851824909818,15.894861791603205,16.28581905068136,159.04651081563125,159.04651081563125,11.741438894268537,-0.0017032908276553105,-0.00641522632264529,0.0006219384268537074,-0.17833256440280562,0.13743158957314627,-0.08572732048697394,2.0,-0.1300436437975952,0.8699563562024047,11.0,0.0,0.0,1.0,0.0,0.0,0.0,0.0,0.0,0.0,0.0,-0.11644294228256512,0.0650292340761523,1.7703592981983969,1.6113153235871742,-9.561346634388778,235.82025100941885,48.232418386933865,-0.008673988819639279,-0.02681509406012024,0.07324041174348697,0.0,-0.06299491600200406,0.11565849498797588,-12.024728966132265,-1.3900000000000002e-25,954.4594343398797,11.742902448296594,-0.2908046321803607,0.22483690907414833,0.32425428583967936,-0.08111747603807602,0.048048180973947745,-12.140703586533068,-0.3048111595230461,0.21257876265531064,0.309937060733467,-1.3900000000000002e-25,100.04175,99.9431779880962,0.004928502815631256,-1.3144115276392787,15.367638729238477,17.009300848977954,-0.03283325238076153,0.2665465763527055,-0.3153354740300601,52.069495657715436,501.51652630400804,11.742123476593187,95444.4076517034,1.1340374453046091,-0.4164881320681361,0.08956846644288657,0.1605812585470946,-0.24259651261723444,0.2732485065651303,0.3536262784208417,0.32816545675551106,0.03922975365931864,1.8543956407635271,0.5944637054609219,0.08252270010420842,0.14225443323246492,0.7871193151843687,0.24625655775751504,398731182.21382767,327399374.0815631,502388.3523062124,16.300815966052102,1.8456162542064136,16.18615078260521,1.8672594241102205,1.4565375432505008,0.0,0.0,0.0,787999.0,39.8714138,32.7364368,189.7093861068136,301.9967079857716,-101.84932488356714,0.28456652544288646,16.339366423967938,1.9834098073146291,-7.050212397877756,0.7165695310460924,0.04946756190180369,101.99819228877756,-0.31069087509218435,0.31870041429859725,0.10283484773547097,0.2499504694188377,36580820.17034068,0.0,0.0,0.0,1.0,0.0
36815618.0,-0.08298205023847695,0.09035651240280561,0.0776932681002004,0.24850291450901804,0.0,1533.8396793587174,1500.0,1245.9198396793588,1541.0801603206412,1457.9198396793588,1540.9014953106212,16.294039307935872,16.694447010521042,11.744944706893788,16.19162841715431,16.139676865551102,16.536329653486973,16.015279416913828,16.40887192482966,161.7410863490982,161.7410863490982,11.744154587935872,-0.0016997966933867735,-0.006402006420841684,0.0006329161142284568,-0.1780483056533066,0.13826103091382766,-0.08496747656713428,2.0,-0.11441446640280561,0.8855855335971944,11.0,0.0,0.0,1.0,0.0,0.0,0.0,0.0,0.0,0.0,0.0,-0.14939263675150302,0.06686359729258516,1.7499651736553106,1.607697124242485,-8.584769783587173,232.19105093306612,48.176141470781566,-0.008839965072144289,-0.026016248146292584,0.06767176138677354,0.0,-0.19115543970741483,0.11143299971342685,-11.630148953647295,11.470582604869735,954.4985929036072,11.745592671563125,-0.35479907788577153,0.17862118371342683,0.270630987993988,-0.22357961358316625,0.04927609624048097,-11.70401365523046,-0.34609015147895794,0.17145096467134263,0.2674046117314629,11.470582604869735,100.04175,99.70001994639279,0.017086242498997997,-1.0507318614008017,15.367377958376753,16.985050704048096,-0.03235345566533066,0.1277049106292585,-0.3163235470781563,52.71180661200401,501.10806720881766,11.744944706893788,95449.06195326653,1.134092791238477,-0.4065600940300598,0.26441284763927814,0.1113237288777552,-0.3052924930661323,0.2306513779539078,0.3081224487715431,0.2256646772805611,0.04549733929258517,1.8511293338036072,0.5994443291603206,0.04963148942885771,0.10352882198597192,0.7921261781863728,0.2434063731703407,398731203.03206414,327399821.58376753,501949.99056933867,16.460377345971946,0.15141041465731445,16.45032387234469,1.869946021222445,1.5613296815210422,0.0,0.0,0.0,787999.0,39.8714138,32.7364368,189.6187317180361,305.8101557685372,-101.4055676749499,-1.2120311273607216,16.444139291422847,1.962451752026052,-5.922028693585171,0.21527321310220432,-0.16882035611422852,101.55442811923848,-0.36905155489378755,0.2790585280440882,0.05240363676352705,0.24587472659318638,36815617.54308617,0.0,0.0,0.0,1.0,0.0
37050984.0,-0.08298951333266534,0.0775627569298597,0.061100345330661304,0.24512233683366735,0.0,1524.8305589338677,1500.0,1242.9098196392786,1542.3481117034069,1456.6518882965931,1534.8196392785571,16.399848446172346,16.802618283086176,11.747666126853707,16.28830243963928,16.233145044308614,16.63183213088176,16.0886880902004,16.48382588799599,163.49623236793587,163.49623236793587,11.746539825991983,-0.0016994902044088175,-0.0063836911543086175,0.0006410900220440882,-0.17781361449498997,0.1397253031683367,-0.08375195863727455,2.0,-0.09878528816833666,0.9012147118316634,11.0,0.0,0.0,1.0,0.0,0.0,0.0,0.0,0.0,0.0,0.0,-0.18176903775951905,0.06867287214428858,1.7294614501703407,1.6040478156372744,-7.602801503973947,228.55689610501003,48.118843633707414,-0.008949137408817635,-0.025105850893787574,0.06225161855911823,0.0,-0.34880713083967946,-0.03157765020040085,-11.381688338677353,-1.3900000000000002e-25,954.5449439376753,11.748443754068136,-0.38889980055711426,0.13290991990781564,0.22979661403807614,-0.3076189931563126,0.018604815352705188,-11.538817692364729,-0.38744418242685374,0.13305958370140278,0.22167692056513022,-1.3900000000000002e-25,100.04175,99.51962072452906,0.026106245819639287,-0.8168620457274548,15.367197126172345,16.950805857955913,-0.031672174781563124,0.007067713442885701,-0.31719294255911823,53.383249478156316,500.8937536196393,11.747666126853707,95451.54433747494,1.134122312012024,-0.28627952444889665,0.2041050327094167,-0.3308343745871725,-0.3583669092925852,0.1721245757354709,0.26293236538877757,0.11371996869739473,0.05173220288176353,1.8314014618737475,0.609210400751503,0.014134589194388758,0.06078125273547092,0.7905458085511022,0.24108755731262527,398731189.8302605,327400274.2258517,501512.8111705411,16.613515107254507,-1.3130333519418849,16.54854559739479,1.8407271357695392,1.650188811923848,0.0,0.0,0.0,787999.0,39.8714138,32.7364368,189.19736747515032,309.6715250985972,-100.96796319478959,-2.466394786460923,16.433788010400804,1.877656747286573,-4.8049982264609215,-0.2577927757515033,-0.4579944670140283,101.116825650501,-0.4071626943527054,0.24531411551102203,0.008489007030060093,0.24300533704408817,37050984.46693387,0.0,0.0,0.0,1.0,0.0
37289211.0,-0.08739968568737475,0.06513262316633266,0.044130115811623245,0.2425057813026052,0.0,1517.1817955110218,1500.0,1240.8997995991983,1544.345109521042,1454.654890478958,1529.8997995991983,16.495651271623245,16.900265292605212,11.75023909482966,16.3829988906012,16.324511583567133,16.725183718757517,16.16025756244489,16.5568980145491,165.21462370881764,165.21462370881764,11.748912131102205,-0.0016993079939879759,-0.006365177282565131,0.0006491544689378758,-0.17758086153907815,0.14121441375350702,-0.08251861337474949,2.0,-0.0831561098537074,0.9168438901462925,11.0,0.0,0.0,1.0,0.0,0.0,0.0,0.0,0.0,0.0,0.0,-0.19394996306613227,0.06959837316032064,1.7050969200781563,1.5993026413747495,-6.430908730082164,224.74819976112224,48.02558167623247,-0.00898972170741483,-0.024101615791583167,0.05720374779358717,0.0,-0.41659004932264526,-0.08954740994989979,-11.27035901753507,6.787438829745497,954.5901476607214,11.75083872751503,-0.40866158261723445,0.10204376729659317,0.16776736871543088,-0.37534779337474944,-0.08962852883366731,-11.283500842384768,-0.41090213555711425,0.10146414130861722,0.16708830658517032,6.787438829745497,100.04175,99.37989170651302,0.033092960318637274,-0.6233111050701402,15.367108448076152,16.883080371422846,-0.030319437326653306,-0.07467990815230462,-0.3180246042705411,54.12722351995992,500.33801792565134,11.75023909482966,95457.91242188377,1.1341978817935872,-0.05071081598597187,-0.4825510251683366,-0.8962939598657307,-0.39751604368937876,0.13247992303807615,0.21270001806212424,0.028778968857715404,0.057067979012024046,1.819835072232465,0.6138166971623247,-0.013695820527054117,0.02886791899799598,0.7887926511683367,0.2407872671743487,398731149.1084168,327400729.5450902,501091.4244486974,16.74603698739479,-2.5577975152645296,16.546534586853706,1.7596060801803606,1.7244564188116234,0.0,0.0,0.0,787999.0,39.8714138,32.7364368,188.51833223807614,313.5246996609218,-100.56261759979961,-3.4588968923707415,16.36203957509018,1.7282248941783567,-3.6794686879959917,-0.3843761751803607,-0.6881066092505012,100.71147903947895,-0.42184466369739476,0.22067866589178356,-0.025197887250501004,0.24097260148296593,37289210.52905811,0.0,0.0,0.0,1.0,0.0
37508449.0,-0.08293077995591182,0.05775962546893788,0.03284675028657315,0.24074096943486972,0.0,1512.7795591182364,1500.0,1240.1102204408817,1540.4997532505013,1458.5002467494987,1526.169091927856,16.56119185739479,16.96729927719439,11.75252601244489,16.477695340661324,16.415878131923847,16.818535306633265,16.23182703468938,16.629970132004008,166.9330150496994,166.9330150496994,11.751284437314629,-0.0016991265831663327,-0.006346662521042083,0.0006572189158316634,-0.17734810938276555,0.1427035234288577,-0.08128526711222445,2.0,-0.06752693253907815,0.9324730674609218,11.0,0.0,0.0,1.0,0.0,0.0,0.0,0.0,0.0,0.0,0.0,-0.20612065098797594,0.0705238533527054,1.6807358895951903,1.5945581070521042,-5.259184300727455,220.93949468697394,47.93232365941884,-0.008971836070140281,-0.02303511967935872,0.052937325833667344,0.0,-0.4561998275731463,-0.1081385024168337,-11.090843116513026,-1.3900000000000002e-25,954.6157977593186,11.752969566853707,-0.4180359406913828,0.07724593547094187,0.11776779299198398,-0.4182128754869739,-0.021518716246492965,-11.1588871397996,-0.40862715517234466,0.08133191812024049,0.11174862425651305,-1.3900000000000002e-25,100.04175,99.2875637193988,0.03770925646693387,-0.4816243108517035,15.367088293326653,16.84235816270541,-0.02950539089779559,-0.11917047555711421,-0.3187057296272545,54.81026376176352,500.066956721042,11.75252601244489,95461.0035196994,1.1342346471823648,0.02991645537875716,-0.003030442937874446,-0.43635750595791617,-0.41066422339078157,0.09986063263927857,0.15892979847294592,-0.052063779212424825,0.061528382973947894,1.7969008669178357,0.6216829241783567,-0.04026753299398797,-0.0011969204248496886,0.7822175649098196,0.2378152834148297,398731087.2442886,327401174.74448895,500709.07849498995,16.86188767751503,-3.4795317740601197,16.49370604270541,1.5563227236553108,1.7787753662404808,0.0,0.0,0.0,787999.0,39.8714138,32.7364368,187.63944572384773,317.3593659300601,-100.20153068897795,-4.191225438296593,16.27140116492986,1.5298785591943886,-2.56125235535471,-0.5300234012745493,-0.9039345779919838,100.35039590941884,-0.40642150431863727,0.19944389693787576,-0.04981699933667332,0.2408986155270541,37508448.75350701,0.0,0.0,0.0,1.0,0.0
37738804.0,-0.08117148108416834,0.05093325010420842,0.02333360686973948,0.24047472184368737,0.0,1516.2404809619238,1500.0,1237.879759519038,1536.7697954228456,1462.2302045771544,1525.0,16.621316632625252,17.028647996112223,11.754496990120241,16.57239179951904,16.50724468028056,16.911886894509017,16.30339651573146,16.70304225945892,168.65140639058117,168.65140639058117,11.753656742525049,-0.001698944392785571,-0.006328148539078157,0.0006652833627254509,-0.1771153564468938,0.14419263322444892,-0.08005192184969939,2.0,-0.051897754224448894,0.9481022457755511,11.0,0.0,0.0,1.0,0.0,0.0,0.0,0.0,0.0,0.0,0.0,-0.1979806516733467,0.07140607500801603,1.6633180172685371,1.5910832303486975,-4.421448788825652,217.11365615551105,47.846866251743485,-0.008892260995991984,-0.02195037883567134,0.051033743202404815,0.0,-0.5062647593286573,-0.11972653201402804,-11.149666396813627,-1.3900000000000002e-25,954.6631904629259,11.754961905911824,-0.38983505619639275,0.07377029986372745,0.06815771570741481,-0.5709679355971944,-0.12260478095791558,-11.105374231222445,-0.3797601850741483,0.07165880444088175,0.0700988863266533,-1.3900000000000002e-25,100.04175,99.217826351503,0.04119611792184369,-0.3634437718256513,15.367016244088175,16.788372889418838,-0.02842712416232465,-0.14291121390981965,-0.3193558904709419,55.52973820695391,499.7030079723447,11.754496990120241,95465.19525785571,1.134284473759519,0.24998490581362742,-0.0331181588657317,-0.3066272601663324,-0.40516225248897797,0.09070634737074147,0.10919029004408815,-0.11402278230260522,0.06499272056513025,1.773623811460922,0.6290892689338677,-0.0611294495490982,-0.02364109268336674,0.7745608262965932,0.2380122321503006,398731004.1084168,327401629.6895791,500367.10464208416,16.942464396573147,-4.212795669555111,16.415687308496995,1.3945975210821642,1.8219508796853707,0.0,0.0,0.0,787999.0,39.8714138,32.7364368,186.630354255511,321.1372604533067,-99.90213151306614,-4.653362475803608,16.182331683847696,1.281302041519038,-1.5344503416332664,-0.45400096395991985,-1.1292333157134269,100.05099336753507,-0.3903723791082164,0.19472192593987975,-0.006382351675350694,0.2375863246492986,37738804.31462926,0.0,0.0,0.0,1.0,0.0
37958122.0,-0.07123059666533069,0.05022359156513027,0.03975586496593189,0.23686174148296593,0.0,1525.1302605210421,1500.0,1237.1302605210421,1533.189867967936,1465.810132032064,1523.0,16.605101753346695,17.011718016112226,11.756055078957916,16.577001908717435,16.50886613208417,16.913367683567134,16.306281710821644,16.705819203346692,168.88588318436874,168.88588318436874,11.755132057394789,-0.0017016028376753507,-0.006309322637274549,0.0006652769018036073,-0.17711898680360721,0.14578084909819639,-0.07883660501603205,2.0,-0.03626857590981963,0.9637314240901804,11.0,0.0,0.0,1.0,0.0,0.0,0.0,0.0,0.0,0.0,0.0,-0.1864063497294589,0.07228098167535071,1.6470741522545091,1.5878230378777556,-3.6401869395611213,213.2849205018036,47.762727853086176,-0.008782879228456913,-0.02090936010220441,0.05108850336673347,0.0,-0.4770332176332665,-0.08258143498997979,-11.04837567476954,5.4243898778476725,954.6810503783568,11.756352530300601,-0.35222846698797594,0.049254793681362714,0.03015532756913821,-0.46649261051503027,-0.08244900916032072,-11.017105982965932,-0.3360864656172345,0.04802126965931865,0.02226866758917831,5.4243898778476725,100.04175,99.17254607629259,0.04346013029258518,-0.2692423433667334,15.36689791735471,16.76983646521042,-0.028058766791583166,-0.1538820806973948,-0.3199570551382766,56.245164536913826,499.5005793731463,11.756055078957916,95467.47101100201,1.1343115482144288,0.5720136034849708,-0.1037433025931875,-0.27029428462525124,-0.3699434584368737,0.08008226143486974,0.056571845342685334,-0.16069486918837675,0.0674271838997996,1.7477281161883766,0.6373595253787575,-0.07725152683967935,-0.03994457993787575,0.7656431417835672,0.24165294336272544,398730912.3246493,327402069.89138275,500085.3364492986,16.982013373446893,-4.610334415827656,16.341946496212422,1.1096655783907814,1.8461939514268537,0.0,0.0,0.0,787999.0,39.8714138,32.7364368,185.5392330961924,324.89971216132267,-99.66437737875752,-4.892795600382765,16.10696409711423,1.0063430549819636,-0.6297412661943881,-0.30025916261723434,-1.1911380191022043,99.81324545755511,-0.34454628925450903,0.17820894072545088,0.04427883737875754,0.2379164707014028,37958121.7995992,0.0,0.0,0.0,1.0,0.0
38200397.0,-0.06251781710621244,0.043026594907815637,0.05212085625651303,0.23943105565130263,0.0,1523.0,1500.0,1241.0974583767536,1529.1124088957915,1469.8875911042085,1518.392970018036,16.53466437232465,16.93948359577154,11.757209406312626,16.535839913867733,16.464888890841685,16.868169708456914,16.27426902717435,16.67287976731463,168.36639568316633,168.36639568316633,11.75615160719439,-0.0017057038116232465,-0.006290338993987976,0.0006611700480961925,-0.1772427210961924,0.14741941809218437,-0.07763044895390782,2.0,-0.020639398595190397,0.9793606014048096,11.0,0.0,0.0,1.0,0.0,0.0,0.0,0.0,0.0,0.0,0.0,-0.17236308957114227,0.07272109581362725,1.630764734486974,1.5843724856973949,-2.858925090296594,209.43409020841685,47.68968372747495,-0.00864976678757515,-0.01989205979759519,0.05154685288977956,0.0,-0.3671038708937877,-0.10339318397394792,-10.689479383186374,-1.3900000000000002e-25,954.6958628771544,11.757391795611221,-0.30737447273547097,0.02899128463326649,-0.0159343481743487,-0.35360078157915853,-0.08758619476553095,-10.70386561018036,-0.2783500870160321,0.027409454280561126,-0.02250644736472943,-1.3900000000000002e-25,100.04175,99.14704910557114,0.04473480847895792,-0.19999666905811628,15.366881720921844,16.764151232424847,-0.02794538188977956,-0.1637313903046092,-0.32051054473547097,56.92964881763527,499.2413649280561,11.757209406312626,95470.46805052104,1.1343471178196394,-0.18959243465331174,-0.7260885279318687,-0.682329961897798,-0.3327167374308617,0.06272151124448902,0.0157108877955912,-0.18689112006212422,0.06873624180561122,1.7254104798717436,0.6447255138677355,-0.0866422514729459,-0.04858196173146292,0.7579256587314629,0.2483810228096192,398730810.97314626,327402518.7771543,499868.9956735471,16.9865893447495,-4.830463924801603,16.292946733747495,0.845197542204409,1.8593315547054108,0.0,0.0,0.0,787999.0,39.8714138,32.7364368,184.41640132344688,328.6563574809619,-99.48697949837675,-4.9280454346513025,16.06991260753507,0.7725370649559121,0.2559560897114223,-0.08511874554308631,-0.8202142116513029,99.6358451866533,-0.29369660458917846,0.15045435864729462,0.019736660953907848,0.24179025014028055,38200397.34068136,0.0,0.0,0.0,1.0,0.0
38435796.0,-0.054249780749498995,0.035996808737474954,0.04555464266332664,0.24383451084168337,0.0,1520.0,1500.0,1247.2413408316634,1522.0592603707414,1476.9407396292586,1516.0,16.57876801272545,16.984332513787574,11.75807699240481,16.494677926212425,16.420911642404807,16.822971733346694,16.24225633482966,16.63994033997996,167.84690818196393,167.84690818196393,11.757171166993988,-0.00170980550501002,-0.006271355350701403,0.0006570623446893787,-0.17736645438877754,0.14905798795591182,-0.07642429302204409,2.0,-0.0050102202805611265,0.9949897797194389,11.0,0.0,0.0,1.0,0.0,0.0,0.0,0.0,0.0,0.0,0.0,-0.15717981983366736,0.0729604498717435,1.6144250485931861,1.5808340373186374,-2.077663241182365,205.57305800901804,47.62176224729459,-0.008515753661322645,-0.018935412468937877,0.05216213354308617,0.0,-0.38659503241683374,0.013524607919839816,-10.58602878004008,2.107730391246485,954.7283321434869,11.75825829741483,-0.2348788237214429,0.0336212228236473,-0.04919918896793587,-0.22020797836072123,-0.14622717750100214,-10.54244699004008,-0.23434627502805613,0.031656583701402806,-0.05802247617234468,2.107730391246485,100.04175,99.13184374627255,0.045495071911823635,-0.1344225115991984,15.366837112264529,16.714972963266533,-0.02696272014028056,-0.1682734258517034,-0.32108844352705407,57.675663221322644,499.0416519014028,11.75807699240481,95472.72612216433,1.1343739403006012,0.006705931641283344,0.13916110885571145,-0.17409494502805728,-0.2812124546432866,0.04132167267935871,-0.028195764052104208,-0.20006988966933867,0.07002585519038076,1.7036625678356714,0.6522811644108216,-0.0919432093747495,-0.052163742741482964,0.7505692061022043,0.2536044759719439,398730708.68998,327402964.6817635,499694.4200573146,16.970384135891784,-4.855576061571143,16.245576208837676,0.6190334220200402,1.8615043152064128,0.0,0.0,0.0,787999.0,39.8714138,32.7364368,183.29516176232465,332.44437839078154,-99.35981074641282,-4.795076906058116,16.078131454909823,0.5949981354529058,0.8313695844629256,0.017098083511021957,-0.5773591171302606,99.50867241649298,-0.23259325941282566,0.13387001356112224,-0.01321761556713426,0.24877817156312626,38435795.84569138,0.0,0.0,0.0,1.0,0.0
38670632.0,-0.03997830623647295,0.031894386274549096,0.03864939239679358,0.2505688111022044,0.0,1517.0,1500.0,1253.0,1516.7568412024048,1482.2431587975952,1514.8396793587174,16.53626568741483,16.94087078563126,11.758695323727455,16.453515931563125,16.37693439256513,16.777773758236474,16.210243644088177,16.60700091264529,167.32742068076152,167.32742068076152,11.758190716793587,-0.0017139064989979962,-0.006252371547094189,0.000652955501002004,-0.17749018868136274,0.15069655765931864,-0.07521813709018035,2.0,0.010618957194388783,1.0106189571943889,11.0,0.0,0.0,1.0,0.0,0.0,0.0,0.0,0.0,0.0,0.0,-0.1384434542284569,0.07324994327054109,1.602262463480962,1.5781691826232467,-1.4965506959639276,201.70243055050102,47.55551608955912,-0.008394046645290582,-0.018099394723446894,0.05282941849699399,0.0,-0.24490825930861715,-0.13353909415230455,-10.433664628016032,-1.3900000000000002e-25,954.740377197996,11.758804163627254,-0.1819345919839679,0.03368290258316633,-0.07071364863527056,-0.29501705288977953,-0.07998712763126249,-10.492578255931862,-0.1712640627755511,0.022256599981963936,-0.08122158610621243,-1.3900000000000002e-25,100.04175,99.13296903777555,0.04543881278757515,-0.08443591422645289,15.366881817615232,16.69792242933868,-0.02662081601002004,-0.16135857638877757,-0.321595217995992,58.34900586559118,499.0014815743487,11.758695323727455,95473.1938298998,1.1343795548136273,-0.26138778599398765,-0.36678387841482823,-0.22677012675150243,-0.2214604414368737,0.04093163914028057,-0.05701876933066134,-0.20842165841082164,0.07065201876152304,1.6788625480981962,0.6611120555230461,-0.0955771749238477,-0.05390892472144289,0.7422157324128256,0.25949971813627254,398730607.79058117,327403409.98817635,499565.7069018036,16.947589582284568,-4.709690497531062,16.27343646200401,0.45415311924248497,1.8526391621683367,0.0,0.0,0.0,787999.0,39.8714138,32.7364368,182.21534787054108,336.24358714629255,-99.26699972915831,-4.535451008699399,16.11568108174349,0.4501797960400801,1.3057787183827656,0.1447904304709419,-0.47635097534669324,99.41585972915831,-0.1678344547234469,0.1250312167014028,-0.0384693727735471,0.25401279779559116,38670632.368737474,0.0,0.0,0.0,1.0,0.0
38909469.0,-0.031216745999999983,0.0295792584749499,0.0334283932004008,0.25555846,0.0,1515.0,1500.0,1259.0,1512.1703406813626,1486.8296593186374,1514.0,16.47518529294589,16.87818976294589,11.759144682905811,16.423918116412825,16.344725143026054,16.744668226372745,16.181790858817635,16.577745029519036,166.83209616472948,166.83209616472948,11.758925103246494,-0.0017207924889779559,-0.006230999430861723,0.000643764861723447,-0.17786225008016032,0.15249751561322644,-0.0740388765230461,2.0,0.02624813534869741,1.0262481353486974,11.0,0.0,0.0,1.0,0.0,0.0,0.0,0.0,0.0,0.0,0.0,-0.11632561486773545,0.0735871534749499,1.5940752146813626,1.5763357246793588,-1.105919771336673,197.82267142865732,47.49086433907816,-0.008278350745490982,-0.01730356614028056,0.053525531268537076,0.0,-0.19732226820240487,-0.09635056465531051,-10.366265735731462,-1.3900000000000002e-25,954.7405386621242,11.75924891016032,-0.1251064888577154,0.02541892911623244,-0.091530280743487,-0.17573121681563114,-0.07536529496993988,-10.427850037955912,-0.1149401263887775,0.03253796585971945,-0.0943274286472946,-1.3900000000000002e-25,100.04175,99.14336818498998,0.04491907333266533,-0.04741799484368735,15.366835896172345,16.678565817975954,-0.02623459117234469,-0.16835985115631263,-0.3220970906533066,59.02291461168337,498.9193871094187,11.759144682905811,95474.13623226453,1.1343906731663327,0.6761852597014003,0.2597744429498988,-0.45439680432464624,-0.16456775440480956,0.0388005732645291,-0.08167931852104213,-0.20341696547294585,0.0715018224488978,1.6595595936953909,0.668442596517034,-0.09472945007414828,-0.05085814269939879,0.7359501918997996,0.26057998570340685,398730512.39378756,327403852.16673344,499466.94035811623,16.91719253801603,-4.439937839533066,16.322807461983967,0.32877014791583153,1.8367250731703406,0.0,0.0,0.0,787999.0,39.8714138,32.7364368,181.20705818456915,340.05210202384774,-99.2026788756513,-4.185556140619238,16.179501983727455,0.3370553567414829,1.5780183118136277,0.2757935936112224,-0.3385187640981963,99.35154492901805,-0.1252487438977955,0.11835695132064128,-0.05873514691983969,0.25960444895791585,38909469.06212425,0.0,0.0,0.0,1.0,0.0
39127585.0,-0.020426048807615213,0.02793960163527054,0.029450782959919836,0.26019168523046093,0.0,1513.0,1500.0,1260.0,1509.6392785571143,1489.3607214428857,1513.0,16.528474490360722,16.93269272517034,11.75944018767535,16.41548232028056,16.334050916733467,16.733691435571142,16.159852591062123,16.555229921843686,166.38098886853703,166.38098886853703,11.759137647555109,-0.001732771639278557,-0.00620525651503006,0.0006252700300601202,-0.17868874002605212,0.1545956386492986,-0.07290883449498999,2.0,0.041877313663326685,1.0418773136633266,11.0,0.0,0.0,1.0,0.0,0.0,0.0,0.0,0.0,0.0,0.0,-0.09639150448496991,0.07379456290781564,1.5858723126833667,1.574445660741483,-0.7152888467094182,193.94188018697392,47.42811545549098,-0.008183778288577154,-0.016535351535070138,0.05424152861723447,0.0,-0.09721598601803617,-0.11253170041683393,-10.451757882144287,10.110254281282524,954.7459575533067,11.759503832144288,-0.07956553557515025,0.02799117005611217,-0.10720446597795591,-0.15862955765731418,-0.09514720568937918,-10.366694793046094,-0.07214197395591176,0.025747437955911823,-0.10843280192384772,10.110254281282524,100.04175,99.15684855236474,0.04424500821042084,-0.02159987351302603,15.366972208016032,16.693938631302604,-0.026539325298597195,-0.17360006383567136,-0.32263156420440886,59.73228168679359,498.86289726813624,11.75944018767535,95474.77151192386,1.1343982341643286,-0.07397598184969496,0.03938275857514917,0.12283142962524735,-0.11576885355511014,0.03819703265731466,-0.09848671691583168,-0.19239814177555103,0.07236057425450902,1.6418991181803606,0.6753884668857716,-0.09176657277154306,-0.04570478980360719,0.7303003134488978,0.2605167819779559,398730422.88476956,327404297.7270541,499411.17092124245,16.892000464248497,-4.073708206138276,16.401798228557112,0.21060198895190366,1.8145878758496994,0.0,0.0,0.0,787999.0,39.8714138,32.7364368,180.29588411322646,343.85527250340687,-99.16398169178356,-3.7748565470220434,16.251196826773548,0.24887440741883757,1.8600598504529058,0.24452917497995927,-0.29789366121643246,99.31284817987975,-0.07182180801402792,0.11495714855511022,-0.07324103674348699,0.2605947848296593,39127584.971943885,0.0,0.0,0.0,1.0,0.0
39362381.0,-0.016299487677354712,0.027744637184368738,0.027007066106212427,0.260686047006012,0.0,1512.0,1500.0,1260.0,1505.6984354308618,1493.3015645691382,1513.0,16.37202217719439,16.772466306172344,11.759638686793588,16.40704651775551,16.323376700440882,16.722714636673345,16.137914316913825,16.532714814168337,165.92988147234473,165.92988147234473,11.759350191863728,-0.0017447514288577153,-0.006179513599198397,0.0006067751983967935,-0.1795152309719439,0.15669376168537075,-0.07177879327655311,2.0,0.05750649097795591,1.057506490977956,11.0,0.0,0.0,1.0,0.0,0.0,0.0,0.0,0.0,0.0,0.0,-0.0806844914008016,0.07375070998196392,1.5776391109198398,1.5724460220841683,-0.32465792208216443,190.05909121402806,47.36904999024048,-0.008104670931863726,-0.01578826996392786,0.05488630729258517,0.0,-0.09894551357314625,-0.057107649887775565,-10.276414498717434,-1.3900000000000002e-25,954.7485477330662,11.759672093466934,-0.03919739701803608,0.03385808917835672,-0.10907158190380763,-0.11482551411623243,-0.04850428768737475,-10.293906553486973,-0.030501594875751513,0.031080521152304613,-0.10869834630661322,-1.3900000000000002e-25,100.04175,99.17222474595191,0.04347625089378757,-0.0052990249599198435,15.366964429579157,16.665438324909818,-0.025969484420841685,-0.18198003456513026,-0.3231307375250501,60.383904269779556,498.8426118204409,11.759638686793588,95475.00582945891,1.1344010670120241,0.16284793602204517,0.2539443685230462,-0.06141143389178334,-0.0689541183246493,0.03919515060921844,-0.10809695532464929,-0.17678524388376754,0.0726467950761523,1.625893645248497,0.6818954309999999,-0.08691340136472946,-0.03920912934669339,0.7252046894068136,0.26152915323046094,398730340.51543087,327404753.412024,499372.0471200401,16.869204957635272,-3.6549122373607217,16.47158816707415,0.1560295866472946,1.789457840797595,0.0,0.0,0.0,787999.0,39.8714138,32.7364368,179.48719910821643,347.6662452472947,-99.14112459801603,-3.323674663851704,16.319571738757514,0.18161062129258518,1.9744938896372746,0.1817908146172344,-0.20841991524048092,99.28998769354709,-0.034240049723446915,0.11291777046893788,-0.08234978128857715,0.2605163401002004,39362381.41482966,0.0,0.0,0.0,1.0,0.0
39581178.0,-0.007267836847695404,0.027509031523046092,0.025429891074148298,0.2604861932665331,0.0,1512.0,1500.0,1261.0,1501.4008016032064,1497.5991983967936,1513.0,16.397260918456915,16.79837815,11.75974118036072,16.398610723426856,16.312702474148296,16.711737843967935,16.11597604096192,16.510199706492987,165.47877417615229,165.47877417615229,11.759562728176352,-0.0017567313987975953,-0.006153770683366733,0.0005882803667334669,-0.18034172171743487,0.15879188392184368,-0.07064875123847696,2.0,0.07313566929258518,1.073135669292585,11.0,0.0,0.0,1.0,0.0,0.0,0.0,0.0,0.0,0.0,0.0,-0.06457683671543085,0.0736435456753507,1.5707964,1.5707841388156312,0.0,186.20838398917834,47.3134035250501,-0.008049256228456914,-0.015078685048096192,0.055494991551102206,0.0,-0.09721303771743488,0.05551673764929856,-10.311145394949898,0.21119956132264783,954.7493587851703,11.759758651683368,-0.0013972242665330461,0.025631392022044085,-0.10943413387775552,-0.06645847196593196,-0.07060185571342671,-10.247211188176353,0.004012087891783579,0.03416330968136273,-0.11593996044488977,0.21119956132264783,100.04175,99.19471486595191,0.04235166579559118,0.011799152919839686,15.366883710721444,16.625320710741484,-0.02516873767935872,-0.18168324133466934,-0.3236453508436874,61.062084428116236,498.9008508472946,11.75974118036072,95474.35183927855,1.13439322904008,-0.1397293076392784,0.09774373363927752,0.13530606037474946,-0.03175180572144286,0.03469278988376756,-0.11450534747695389,-0.1540754469579158,0.07303389187174349,1.6152863246192386,0.6866627709639279,-0.07946580797995992,-0.030419706002004002,0.7219777882264529,0.2611585384248497,398730269.5955912,327405198.6907816,499344.33480380767,16.844617041783568,-3.2146386109819636,16.520765914428857,0.05820568092785571,1.763097153,0.0,0.0,0.0,787999.0,39.8714138,32.7364368,178.78140079539077,351.50193932565134,-99.13074678266533,-2.8605591737094187,16.382248600501004,0.12114828546893786,1.9459585954368737,0.0984395350200401,-0.2277660407234469,99.2796159824449,-0.0008312285310620965,0.1087248035511022,-0.08791050950501,0.2615852213226453,39581177.85771543,0.0,0.0,0.0,1.0,0.0
39830058.0,-0.00334770239078158,0.026215923488977957,0.026366484955911818,0.2617420960521042,0.0,1514.0,1500.0,1261.0,1498.7895791583167,1500.2104208416833,1512.0,16.403630253927854,16.80484915975952,11.759766,16.38996191214429,16.301920741623245,16.700652516292585,16.09426549446894,16.487919424368737,165.02153263146295,165.02153263146295,11.759763215330661,-0.001768641607214429,-0.006128190438877755,0.0005695095410821643,-0.18117410086372746,0.16086904203206412,-0.06953266395591182,2.0,0.08876484760721444,1.0887648476072145,11.0,0.0,0.0,1.0,0.0,0.0,0.0,0.0,0.0,0.0,0.0,-0.04649759439078155,0.07322481555911824,1.5707964,1.5707843689959922,0.0,182.51555301863726,47.2745821791984,-0.008008078028056113,-0.014381510793587174,0.0563279181482966,0.0,-0.06385127376953896,-0.031024614412825433,-10.156083232184368,-1.3900000000000002e-25,954.7636566911823,11.759766,0.03281364581763524,0.025045146909819647,-0.109751960991984,-0.0677121585050097,0.03695285941082151,-10.168045248837675,0.035185221408817656,0.019153830118236487,-0.10736331822244491,-1.3900000000000002e-25,100.04175,99.21846668220441,0.04116405331062124,0.02678161995591184,15.366956332024047,16.577321573567136,-0.024207310935871744,-0.17666528134669338,-0.32412564990180365,61.69866627390782,498.76879743807615,11.759766,95475.85740488979,1.1344111803486974,0.14471200673547122,0.1350212408096166,-0.15765992317033772,0.009508572458917858,0.036476942122244504,-0.11225555881963929,-0.14162037817434867,0.07313240925851704,1.5975625066352706,0.6935133775310621,-0.07544992899398796,-0.02522138185971943,0.7160368864408817,0.260976461256513,398730206.3430862,327405657.98677355,499321.4041789579,16.813616804248497,-2.7455277467374746,16.579574791523044,0.034042016462925796,1.7348347368076154,0.0,0.0,0.0,787999.0,39.8714138,32.7364368,178.16493563346694,355.47137229318633,-99.1358356693988,-2.391674197901803,16.434028449458918,0.0703900815611222,1.8524399014428856,0.025964592130260342,-0.13393561743486992,99.2846986253507,0.03364698873747493,0.10221694487775551,-0.07582324725250501,0.26109666619238475,39830057.81763527,0.0,0.0,0.0,1.0,0.0
40075654.0,-0.0013646163747495154,0.025154643074148296,0.029492794683366727,0.2610852328657315,0.0,1515.0,1500.0,1260.2204408817636,1500.0,1499.0,1512.0,16.393988671763527,16.795006213947897,11.759735,16.376644128436872,16.28878255741483,16.687188328496994,16.07754634212425,16.47078609713427,164.4298364204409,164.4298364204409,11.759699408917836,-0.0017790269218436873,-0.0061061775250501,0.0005446741382765532,-0.18213554658917835,0.16248667298597194,-0.06872244414428857,2.0,0.10439402492184367,1.1043940249218436,11.0,0.0,0.0,1.0,0.0,0.0,0.0,0.0,0.0,0.0,0.0,-0.028597686316633276,0.07282196710621243,1.5707964,1.5707846006993988,0.0,178.8177690501002,47.2357399011022,-0.007985475799599198,-0.013687175346693387,0.05723819471543086,0.0,0.02077637010220448,0.037069157022043976,-10.13135057276553,-1.3900000000000002e-25,954.7423925729458,11.75972235509018,0.051209860092184374,0.016845340402805626,-0.10285427486172344,-0.031301268737474755,0.02376325141482947,-10.218584050220441,0.05630405066933864,0.007449317847695392,-0.09709985663927856,-1.3900000000000002e-25,100.04175,99.24154320004008,0.040010265084168335,0.03653549458917835,15.366986733006012,16.52492751773547,-0.023158811118236474,-0.17307148038677356,-0.32456510431062124,62.290028370240485,498.9134015248497,11.759735,95474.21286797595,1.1343916046933868,0.5706848984749525,-0.23637241842284712,0.14006576721442646,0.03132877189779558,0.034256641733466944,-0.108474868745491,-0.1204376196172345,0.07379277990581162,1.5886610766513025,0.6974319408496993,-0.06841284398597196,-0.01710169503807616,0.7131719509178357,0.2588202630480962,398730154.1805611,327406108.4346694,499320.29442204407,16.786233380961924,-2.301033925897796,16.632122115551102,-0.004588873458917828,1.708497247689379,0.0,0.0,0.0,787999.0,39.8714138,32.7364368,177.6776735815631,359.26900915571144,-99.14807195084168,-1.9697044818697398,16.46800544208417,0.036592054484969966,1.7546387625531064,0.005501555913827752,-0.08670986096392794,99.29693986629259,0.0457305845591182,0.09725517216032065,-0.06797657877755513,0.261025478496994,40075653.50701403,0.0,0.0,0.0,1.0,0.0
40294619.0,0.002344232537074177,0.02360358179759519,0.03295899377955914,0.2609827096192385,0.0,1517.0,1500.0,1258.1987350060122,1499.1987350060122,1499.8012649939878,1511.0,16.35855692985972,16.75865939204409,11.759673983867735,16.36332635472946,16.275644380901802,16.673724140701403,16.06082719537074,16.453652764308618,163.83814015350703,163.83814015350703,11.75963559480962,-0.0017894132364729457,-0.006084164821643287,0.0005198385050100199,-0.18309699175551103,0.16410430370941886,-0.0679122251022044,2.0,0.12002320323647298,1.120023203236473,11.0,0.0,0.0,1.0,0.0,0.0,0.0,0.0,0.0,0.0,0.0,-0.016733850773547068,0.07295366842284569,1.5707964,1.5707848756012024,0.0,174.95327630981964,47.19619336142284,-0.007983100569138276,-0.012975697064128254,0.0582285792004008,0.0,-0.15420547473947988,0.14897827628857746,-10.032541284048095,8.618837115162378,954.7438016430862,11.759651732044087,0.06084423574549115,0.013957083158316666,-0.09518685681563138,-0.08470927722645369,0.06014716658717442,-10.045941766813629,0.07163387147294598,0.009448567771543081,-0.09460014211222441,8.618837115162378,100.04175,99.27161641440883,0.03850669048897795,0.04622544737875752,15.366915486192385,16.471297764689382,-0.022087652048096193,-0.1601919523266533,-0.32501748881963927,62.91216793432866,498.97448088677356,11.759673983867735,95473.49981893787,1.134383139707415,-0.6081567814829559,-0.2578989789198335,0.328969244953897,0.05088507346492998,0.028745317699398813,-0.1022070569478958,-0.0966216898216433,0.07399235049298597,1.583785630755511,0.6999253884509018,-0.0601974532965932,-0.008388701046092193,0.711619413723447,0.25822111106012025,398730111.05591184,327406563.5915832,499327.19031382765,16.758027697034066,-1.856540045468937,16.664013848517033,-0.02795845298797603,1.6820408074208415,0.0,0.0,0.0,787999.0,39.8714138,32.7364368,177.2716278707415,363.167494301002,-99.16094590923848,-1.5738011448717426,16.487965277194387,0.016573348486973907,1.6293092965911817,-0.046820868436874004,-0.038331071304609395,99.30980961863727,0.05932965628256516,0.09438566175751503,-0.05570070478757513,0.25836334673346695,40294619.088176355,0.0,0.0,0.0,1.0,0.0
40529087.0,0.0035526300260521134,0.024110677541082166,0.03743657847695391,0.2583222398396794,0.0,1519.0,1500.0,1258.0,1498.20872698998,1500.79127301002,1511.0,16.334064716492986,16.733525373266534,11.759577574949901,16.350008581022045,16.262506196593186,16.66025995290581,16.044108040821644,16.436519436873745,163.24644396452902,163.24644396452902,11.759571786092184,-0.0017997995511022044,-0.006062151358717435,0.0004950030921843687,-0.18405843770140282,0.16572193465330662,-0.06710200528056112,2.0,0.13565238079158318,1.135652380791583,11.0,0.0,0.0,1.0,0.0,0.0,0.0,0.0,0.0,0.0,0.0,-0.0050676576332665275,0.07310287318036073,1.5707964,1.570785152062124,0.0,171.08332501663327,47.15662376777555,-0.00799942646492986,-0.012262511212424849,0.0592217143246493,0.0,0.00664377420641285,0.13053185559519037,-9.992984561490983,0.2733631612003998,954.7537686697394,11.759548206673346,0.06652933274148298,0.005982605553106228,-0.08174847078156312,-0.07362050411222437,0.11196806554509003,-9.967447035739479,0.06856298290981964,0.014093149555110217,-0.08568177351703404,0.2733631612003998,100.04175,99.29988270468938,0.037093187036072145,0.048190492995991985,15.366910669338676,16.481842562785573,-0.0222986263246493,-0.15206734106813627,-0.3254274026753507,63.46166801056113,498.9003625460922,11.759577574949901,95474.34741559118,1.1343932363326652,0.35574743193186187,-0.1912969489739463,-0.14267855173747543,0.06807437573346695,0.02705398398196393,-0.09295365011623247,-0.07467302604208416,0.07374252403206413,1.5797515713647294,0.7019871419498999,-0.05242265311422845,-0.0005637184388777514,0.7102567403206413,0.2585585203647295,398730076.3254509,327407016.46773547,499341.0751480962,16.72784971254509,-1.4563468306432865,16.66,-0.04738342604609219,1.6582905954408818,0.0,0.0,0.0,787999.0,39.8714138,32.7364368,176.95739320621243,367.04957923366726,-99.17914276046092,-1.215294824284569,16.495854249659317,-0.002280724098196399,1.3859110389218436,-0.1429760691302605,-0.05906298152705406,99.32800502871743,0.06474618250501002,0.09066475388176352,-0.046561487643286555,0.2582872674549098,40529087.2745491,0.0,0.0,0.0,1.0,0.0
40767162.0,0.0038711593306613107,0.023351741631262527,0.040646623058116234,0.2585373016733467,0.0,1521.250501002004,1500.0,1258.0,1496.179244238477,1502.820755761523,1511.0,16.259929286412824,16.657614166893786,11.759463738176352,16.33669079981964,16.24936801228457,16.64679576511022,16.027388896272544,16.419386104248495,162.65474777555113,162.65474777555113,11.75950797967936,-0.0018101851162324648,-0.00604013841482966,0.00047016767935871746,-0.18501988364729458,0.16733956559719437,-0.06629178570941884,2.0,0.15128155886573144,1.1512815588657315,11.0,0.0,0.0,1.0,0.0,0.0,0.0,0.0,0.0,0.0,0.0,0.0016049194288577083,0.07303185019639279,1.5707964,1.570785351765531,0.0,167.22252559579158,47.11306729128257,-0.008013739382765532,-0.011548815557114228,0.06024961493587174,0.0,-0.06789052950701395,0.11583899667334634,-9.916907086517034,-1.3900000000000002e-25,954.7600000476954,11.759436660701404,0.07705880784769539,0.006712567979959957,-0.06960308065531061,-0.14324273970942022,0.15582420091983953,-9.991126394488978,0.08361190900200406,0.002771509452905811,-0.06630689885771546,-1.3900000000000002e-25,100.04175,99.33039800026052,0.03556767573747495,0.05314953154709418,15.367056822885772,16.477337811162325,-0.022205610617234472,-0.15956493573346692,-0.3258721172164329,64.03026351446893,498.8840027174349,11.759463738176352,95474.54792817635,1.1343955487374748,0.6060805052184415,0.052727419829656806,0.6504946680020046,0.07432639617034066,0.022541669705410827,-0.0833800762765531,-0.06267289105010022,0.07360038850501002,1.5707964,0.7054656367715431,-0.04814258665931865,0.003863431841683357,0.7070959138356713,0.25831776996392786,398730049.6729459,327407469.38797593,499358.19131563127,16.693708495951903,-1.0893210747114233,16.660050611222445,-0.058730094617234455,1.6363348565270541,0.0,0.0,0.0,787999.0,39.8714138,32.7364368,176.7248889482966,370.91100071062124,-99.20314617771542,-0.900460211170341,16.497307623527053,-0.017412055595190358,1.2531085377374755,-0.11490562789779563,-0.022138806783567257,99.35201172541082,0.07784783946092183,0.08629593380160322,-0.03287837084168339,0.25862909551102203,40767162.072144285,0.0,0.0,0.0,1.0,0.0
40999001.0,0.006982149997995988,0.022527483801603205,0.04516592426052105,0.2585618238476954,0.0,1522.648973036072,1500.0,1258.0,1498.388451993988,1500.611548006012,1511.0,16.231044831763526,16.628134398737473,11.759330184368737,16.305061893527053,16.21858606733467,16.61528660707415,16.01408473753507,16.405781694288578,162.23572240801604,162.23572240801604,11.75938184210421,-0.0018158504228456913,-0.006021299286573147,0.000445894873747495,-0.18580977888777556,0.1686282231002004,-0.06545694340881764,2.0,0.16691073718036076,1.1669107371803609,11.0,0.0,0.0,1.0,0.0,0.0,0.0,0.0,0.0,0.0,0.0,0.007221194006012033,0.07291424212424849,1.5707964,1.5707855360761525,0.0,163.36366211162326,47.068667474328656,-0.008059543204408817,-0.010835470312625248,0.061123989535070145,0.0,-0.020230207671343238,0.13554143183366762,-9.943544533020042,3.4936792982404343,954.7279790216434,11.759295124729459,0.07937816527254506,0.006012884905811584,-0.06144984438476953,-0.009794994539079017,0.12460867139078148,-9.938154689851704,0.07769724390180362,-0.006722890707414862,-0.05823420446693382,3.4936792982404343,100.04175,99.362396547996,0.033967711452905815,0.056145671088176356,15.367057157815632,16.44087793933868,-0.021476412865731462,-0.1603560176272545,-0.3263228473507014,64.59706673138277,499.0047822715431,11.759330184368737,95473.16947396794,1.1343792172184368,0.1342096980861738,0.4947916666152317,-0.0009967163547036362,0.08595272341883768,0.015945645669338634,-0.0705426886733467,-0.042563027296593156,0.07327657579358718,1.5707964,0.705920808270541,-0.040932575470941875,0.01085844958717436,0.7070231705070141,0.2587081049639279,398730028.94869745,327407931.56092185,499379.2146703407,16.669644036212425,-0.7866075087274546,16.66770771074148,-0.0624702334268538,1.6179126134529058,0.0,0.0,0.0,787999.0,39.8714138,32.7364368,176.5605881789579,374.77497876873747,-99.22695629258517,-0.6311188419579153,16.491251207114228,-0.030666164597194408,1.0676223466412822,-0.15624634881162347,0.00598614354709438,99.37582064278557,0.0685508079739479,0.08435660366332665,-0.027859519603206397,0.2583853886452906,40999000.59919839,0.0,0.0,0.0,1.0,0.0
