timestamp,gyro_rad[0],gyro_rad[1],gyro_rad[2],accelerometer_m_s2[0],accelerometer_m_s2[1],accelerometer_m_s2[2]
9000000,-0.003731395,-0.002747726,2.46E-06,-0.2039415,0.20994374,-9.94355
9004000,0.001848897,-0.005576585,0.00454684,-0.15779883,0.19614722,-9.990882
9008000,-0.004541433,-0.006949008,0.003818513,-0.22212757,0.14486346,-9.910658
9012000,-0.007130684,-0.001842975,-0.001410499,-0.19487211,0.14048864,-9.906799
9020000,-0.006212375,0.00319875,0.000678003,-0.11860414,0.20790516,-9.947825
9028000,-0.006107546,-0.002483555,0.005946205,-0.148714,0.18699336,-9.902606
9036000,0.002149073,-0.005091241,0.000959728,-0.24066035,0.22041091,-10.001478
9040000,-0.0029541,-0.002149958,0.000409906,-0.2414058,0.2338669,-9.946447
9044000,-0.007225001,-0.006146387,0.002093704,-0.25877967,0.19339657,-9.849693
9048000,-0.002950217,-0.007241251,-0.004552378,-0.2662768,0.20539029,-9.837503
9056000,-0.000526348,-0.006096138,-0.002297723,-0.17673273,0.29647678,-9.89866
9060000,-0.00229737,-0.004237676,2.23E-05,-0.15500727,0.24448359,-9.861932
9064000,-0.008523224,-0.006800188,0.002253458,-0.15334001,0.19359213,-9.928309
9072000,-0.001906189,-0.000787399,0.001410728,-0.13707389,0.20362158,-9.989546
9076000,-0.000923745,-0.005109457,-0.002351659,-0.1688051,0.20418882,-9.9984665
9084000,-0.005960181,-0.00835502,-0.001815565,-0.14247106,0.28996283,-9.961025
9092000,-0.002840684,-0.008737754,-0.00092262,-0.15366682,0.20294952,-9.977421
9096000,-0.001898676,-0.005261005,0.000477264,-0.08917067,0.23357706,-9.8767805
9100000,0.001234217,-0.003553857,0.003711335,-0.06697498,0.14970377,-9.902164
9104000,-0.000465366,-0.00525928,-0.003935354,-0.17091034,0.1610446,-9.948257
9108000,0.00211697,-0.006976618,-0.006647373,-0.14871942,0.18976264,-9.938658
9112000,0.004429759,-0.010930735,-0.004703538,-0.12104767,0.17400733,-9.962283
9116000,0.001361319,-0.009588928,-0.008150894,-0.17332603,0.20699757,-9.88603
9120000,0.002428432,-0.001316462,-0.006978009,-0.12194712,0.1892742,-9.858575
9124000,0.001975841,0.001609592,-0.005763406,-0.09599521,0.2188363,-9.934414
9128000,0.000557854,-0.000586345,-0.001091552,-0.15209131,0.23619692,-9.905933
9136000,-0.003329948,-0.006986839,-0.000795799,-0.20421691,0.13761638,-9.895187
9140000,-0.006397296,-0.004117548,-0.004500676,-0.14738503,0.14201245,-9.901241
9144000,-0.004861564,-0.004485139,-0.007709875,-0.18524069,0.17986394,-9.91403
9148000,0.004593591,-0.005580773,-0.005938049,-0.20749946,0.18518253,-10.010718
9156000,-0.000715745,-0.007303332,-0.003610447,-0.12503445,0.23422356,-9.922144
9160000,-0.000626942,-0.008608319,0.003780698,-0.14890532,0.22356977,-9.970697
9164000,-0.002789355,-0.007307156,0.0042263,-0.25222197,0.21822506,-9.954631
9168000,-0.00335645,-0.00223034,0.007445018,-0.27594215,0.21820973,-9.953335
9172000,-0.006239918,-0.004447098,0.00136351,-0.1903811,0.24668674,-9.945197
9176000,-0.00496706,-0.004376018,-0.005291924,-0.16073099,0.30602977,-9.970355
9180000,-0.00100339,-0.006300873,0.000275437,-0.23025793,0.29446217,-10.003874
9184000,-0.002649278,-0.010711615,-0.003360836,-0.24042557,0.26192823,-9.97505
9188000,-0.000710482,-0.00483253,-0.001801596,-0.17392755,0.176598,-9.948963
9196000,-0.009725114,-0.003947531,-0.002714827,-0.17692472,0.18905742,-9.866597
9200000,-0.007228313,-0.005019902,-0.006841416,-0.23954302,0.28103617,-9.845475
9204000,0.001360041,-0.010619297,-0.00449012,-0.23512681,0.25197682,-9.898839
9208000,0.001079447,-0.015457952,0.000224793,-0.18744665,0.19122376,-9.95627
9212000,-0.00212919,-0.0135052,0.00584733,-0.19837172,0.2112524,-9.921519
9216000,-0.002168133,-0.012769945,0.006110771,-0.20319985,0.28573006,-9.975728
9224000,0.003299244,-0.004563333,-0.007583059,-0.24593273,0.23391023,-9.982793
9228000,0.005738308,-0.004272634,0.000945782,-0.17346808,0.21546985,-10.010983
9232000,-0.001105627,-0.00603938,0.000766053,-0.1617898,0.17207511,-9.928092
9236000,-0.003886135,-0.003000518,-0.002634342,-0.17507376,0.061992034,-9.894153
9240000,-0.002109027,-0.004801126,-0.003936937,-0.22103271,0.060340565,-9.888515
9244000,-0.008092917,-0.006822204,0.0043202,-0.22811903,0.12028562,-9.876121
9248000,-0.012744634,6.17E-05,0.003669026,-0.25789046,0.14400306,-9.896258
9252000,-0.005281408,-0.003020325,-0.000947166,-0.18164048,0.18768911,-9.934824
9256000,0.000696947,-0.003525613,0.000922693,-0.14442992,0.21339156,-9.945511
9264000,0.001956342,-0.005604412,-0.000787867,-0.21870683,0.14454985,-9.858661
9268000,-0.00195167,-0.008300649,-0.007191198,-0.118643686,0.13582572,-9.894309
9272000,6.90E-05,-0.008121458,-0.007571237,-0.10033669,0.18484932,-9.978125
9280000,-0.001229976,-0.013271974,0.00272236,-0.19964796,0.20309879,-9.937038
9284000,0.00077655,-0.004097247,-0.000702778,-0.15025955,0.19469006,-9.91392
9288000,-0.002722844,-0.003613793,0.001166102,-0.1730858,0.160308,-9.932074
9296000,-0.004012069,-0.001734094,0.000732122,-0.23164682,0.15216972,-9.974159
9300000,-0.006735627,-0.004772605,-0.001262326,-0.24206556,0.15072697,-9.986981
9304000,0.004250458,-0.008497652,0.004004867,-0.17227188,0.10467613,-9.858151
9312000,0.002403107,-0.008757792,0.010549864,-0.17903544,0.26488844,-9.94944
9316000,0.00160634,-0.008293087,0.005261905,-0.20227998,0.2310133,-9.963655
9324000,0.00240599,0.001451479,-0.005346682,-0.19315898,0.2087508,-9.933106
9328000,0.002364665,-0.000129662,-0.000408991,-0.21908073,0.19399853,-9.930001
9332000,0.00239372,-0.003852885,-0.003767023,-0.16092375,0.14235844,-9.903354
9336000,-0.000879504,-0.005298909,-0.004930042,-0.21423876,0.16778713,-9.958038
9344000,-0.0001817,-0.006661005,-0.005045294,-0.21564712,0.24408334,-10.01264
9348000,0.001653643,-0.007747601,2.89E-05,-0.19551767,0.23632568,-9.955651
9356000,0.003638329,-0.001881834,-0.001461819,-0.19057885,0.22747216,-9.910963
9360000,0.001790052,-0.003428231,-0.002668832,-0.19088961,0.2438702,-9.917789
9364000,-0.003406939,-0.009674279,-0.002057507,-0.147053,0.17987223,-9.924648
9372000,1.82E-05,-0.011666803,0.004573133,-0.14161113,0.24242713,-9.95632
9380000,0.003383141,-0.00831212,-0.00400854,-0.17950495,0.14375451,-9.897096
9388000,-0.006875547,-0.00296847,0.00671112,-0.17137966,0.16359934,-9.966839
9392000,0.002964256,-0.002608407,0.002026563,-0.26558575,0.1827364,-10.009658
9396000,0.000864743,-0.007311252,-0.000804708,-0.2634379,0.21279888,-10.025921
9404000,0.006378123,-0.008708195,-0.006325054,-0.19212368,0.20026827,-9.944708
9408000,0.004116243,-0.00842852,-0.00640943,-0.2136177,0.21548066,-9.890974
9416000,-0.003870183,-0.007075406,0.003604391,-0.20501803,0.19814144,-9.918186
9420000,0.004070959,-0.001234872,0.007112381,-0.15980041,0.16080266,-9.838879
9424000,0.005484795,0.000918425,0.002897216,-0.17413314,0.13342609,-9.913393
9428000,0.002372796,0.002316626,0.000521747,-0.2458968,0.12842055,-9.9518385
9432000,0.001920168,0.002473704,0.00176152,-0.24569587,0.21585019,-9.915402
9436000,0.000906696,-0.009135004,-0.003776195,-0.26181048,0.22147934,-10.003062
9440000,0.002851839,-0.014862138,-0.002897798,-0.2379301,0.22109276,-10.060012
9448000,-0.002231465,0.000914301,-0.004154663,-0.23724797,0.14615944,-9.955994
9452000,5.02E-05,-0.005769,-0.007273951,-0.26972649,0.13640714,-9.930814
9456000,0.001883099,-0.005838463,-0.006000435,-0.18207616,0.12520324,-10.003282
9460000,0.001575118,-0.00601074,0.001459733,-0.18489195,0.11156425,-9.967969
9468000,-0.001320611,-0.008492473,-0.001512339,-0.2698582,0.3182026,-9.891331
9472000,-0.004760754,-0.006115257,-0.004364281,-0.19676109,0.31625104,-9.827492
9480000,-0.000238476,-0.014076909,-0.000286796,-0.114342555,0.18099955,-9.957595
9484000,0.001345854,-0.013278532,-0.007152369,-0.12673119,0.17872989,-9.990539
9488000,-0.00328013,-0.006933035,-0.004464509,-0.1590291,0.082220525,-9.9690695
9496000,-0.001938435,0.003040724,-0.001671217,-0.21664646,0.10768207,-9.971795
9504000,-0.001158189,-0.004142434,-0.004985533,-0.1455524,0.19516861,-9.930343
9512000,0.000925747,-0.006407349,0.001175597,-0.20290662,0.2227785,-9.956707
9520000,0.000248428,-0.005903865,0.000833527,-0.18183525,0.1592895,-9.878301
9524000,-0.002502139,-0.008773018,0.001705497,-0.17557877,0.20912094,-9.933031
9528000,-0.006680974,-0.008671932,0.004062688,-0.13834962,0.16519848,-9.977114
9532000,-0.008697392,-0.003033533,-0.000600031,-0.14321852,0.17458758,-10.002168
9536000,-0.005224258,-0.004417514,-0.001364771,-0.1739453,0.19152218,-9.939519
9544000,-0.008023449,-0.014200106,-0.001325404,-0.11385192,0.21743067,-9.856706
9548000,-3.13E-05,-0.005916005,-0.002286695,-0.14034347,0.19619247,-9.857625
9552000,0.001463017,0.003730147,-0.000314068,-0.1491256,0.15931696,-9.909476
9560000,-0.001137886,-0.00764488,0.001627906,-0.209624,0.23079917,-9.905119
9564000,-0.002216033,-0.000735416,0.004451607,-0.1810694,0.19794229,-9.910087
9568000,-0.005351591,-0.00202145,-0.0016718,-0.16072775,0.16288412,-9.937675
9576000,-0.003338954,-0.000967126,0.006848268,-0.16363363,0.15029083,-9.977227
9580000,-0.006729784,0.003974661,0.001621495,-0.18483321,0.15621148,-9.951023
9584000,-0.002819149,-0.002362361,-0.001770523,-0.20690937,0.13646242,-9.927265
9588000,-0.00018442,-0.006772868,-0.002059363,-0.2148064,0.12357764,-9.968859
9592000,-0.001107846,-0.012679083,-0.003380152,-0.20032164,0.15110673,-9.881731
9600000,-0.001856285,-0.006022208,-0.00337054,-0.13823438,0.23307969,-9.966693
9604000,0.002561366,-0.000244187,-0.009715409,-0.1685327,0.21700291,-9.938727
9608000,0.008336677,-0.000936039,-0.006042308,-0.21373992,0.17182833,-9.847904
9612000,0.006854187,-0.00510116,0.004957133,-0.2142736,0.18501726,-9.862159
9616000,0.005348125,-0.007738362,0.008792538,-0.16216135,0.12751712,-9.904786
9620000,-0.000343645,-0.008267694,0.001054676,-0.10925596,0.19813386,-9.916242
9624000,-0.00278268,-0.009739834,-0.002263608,-0.11917594,0.32539073,-9.936019
9628000,0.001390923,-0.003291315,0.00394476,-0.20713222,0.2488324,-9.941628
9632000,0.002393315,-0.002742905,0.005255499,-0.215095,0.19378264,-9.957562
9640000,-0.002248652,-0.014701093,-0.002000826,-0.17411841,0.123268686,-9.882096
9644000,-0.004169034,-0.011346907,-0.003635677,-0.16783746,0.22588038,-9.906272
9652000,0.001689302,-0.013979772,0.003940991,-0.19808958,0.1409837,-9.985141
9660000,0.000981846,-0.000183161,0.00087992,-0.15745482,0.21371646,-9.904113
9668000,-0.003483186,-0.000241106,-0.000721844,-0.21604171,0.19837017,-9.933286
9672000,-0.000337419,-0.003383039,-0.001107456,-0.20303676,0.15295196,-9.9410095
9676000,0.002201668,-0.002269669,-0.004900661,-0.16318204,0.19624482,-9.9035635
9680000,-0.000813064,-0.002550692,-0.004857197,-0.13916796,0.22892846,-9.903192
9688000,0.002142389,-0.004850953,0.000480295,-0.18043178,0.157759,-9.960329
9692000,0.006384946,-0.00839346,0.001296902,-0.20802447,0.17115238,-9.994253
9696000,0.000195235,-0.005866811,0.005976414,-0.21236466,0.18946512,-9.946803
9700000,-0.003611233,-0.000832265,-0.000144059,-0.18236603,0.28483176,-9.933029
9704000,-0.005797606,-0.00469086,-0.002653953,-0.17059276,0.2624572,-9.965719
9708000,-0.003446386,-0.008372379,0.002795256,-0.18010604,0.20720471,-9.965513
9712000,-0.003596243,-0.005810875,0.001906904,-0.18609428,0.26789695,-9.931124
9720000,-0.000744017,-0.005084842,0.000474023,-0.19172202,0.22003989,-9.902497
9724000,-0.009179697,-0.005554352,-0.005182465,-0.23329899,0.24586448,-10.005269
9728000,-0.007302242,-0.006051298,-0.005263908,-0.27017272,0.28435913,-10.013016
9732000,0.003775996,-0.005259498,0.001277736,-0.22244054,0.24789327,-9.987656
9740000,0.000986153,-0.004364894,0.000597368,-0.14396106,0.13663776,-9.905547
9748000,-0.005374225,-0.005251237,0.000788752,-0.1456824,0.23115502,-9.932644
9752000,-0.001628507,-0.005416038,0.00334834,-0.13758826,0.19696042,-9.952181
9756000,-0.001605222,-0.001304915,0.00018619,-0.15901023,0.18201359,-9.970391
9764000,-0.004700347,-0.004089679,-0.000554169,-0.18327527,0.19689387,-9.961915
9768000,-0.002943084,-0.007056194,-0.003899946,-0.176646,0.17961413,-9.917483
9772000,-0.003601297,-0.008665753,-0.004299095,-0.22150794,0.21452567,-9.929043
9780000,-0.000605947,-0.008408911,-0.001576795,-0.22427253,0.16455089,-9.948913
9784000,0.00278262,-0.010660357,0.001581796,-0.1458177,0.17078519,-9.907457
9788000,0.002690975,-0.010063608,0.005431016,-0.11031446,0.17355202,-9.897643
9792000,-0.003521742,-0.009285921,0.003218693,-0.16265608,0.16902219,-9.874129
9796000,-0.005864001,-0.008226478,-0.002001258,-0.18922648,0.20201698,-9.8423
9800000,-0.002255664,-0.004318789,-0.009570199,-0.17448418,0.15108353,-9.893209
9804000,-0.000278375,-0.002054507,-0.005904752,-0.1936406,0.12830177,-9.891349
9808000,0.000184627,-0.002095043,-0.002369215,-0.20679595,0.17501223,-9.90246
9812000,-0.000175277,-0.009178253,0.000246703,-0.161522,0.17808603,-9.919069
9816000,0.000532125,-0.009830208,-0.000307763,-0.13826211,0.19147079,-9.906643
9820000,0.000642351,-0.004179139,-0.004517,-0.17280905,0.18667345,-9.933769
9828000,-0.007324924,-0.003663615,-0.001861142,-0.2248557,0.16608077,-9.921097
9836000,-0.000550339,-0.007918051,-0.010528022,-0.15339687,0.19652508,-9.9403715
9844000,-0.010317249,-0.006242061,0.002807448,-0.21863556,0.19883531,-9.98728
9848000,-0.007305377,-0.005317015,0.003133401,-0.20992033,0.16926481,-10.005343
9852000,-0.001631083,-0.004896315,0.001248942,-0.21362792,0.17441596,-9.994936
9856000,-0.000618229,-0.00935737,-0.001157206,-0.19047573,0.22764064,-9.9058695
9864000,-0.000872426,-0.006219046,0.0001977,-0.14901994,0.13613062,-9.963533
9868000,0.000902686,-0.007506077,-0.000301522,-0.23403974,0.20203586,-9.999311
9872000,-0.00199237,-0.004734531,0.001019574,-0.21606289,0.23057863,-9.913661
9876000,-0.000117187,-0.008348655,-0.001233714,-0.17127113,0.13680866,-9.892874
9880000,-0.001791959,-0.002969666,0.000806838,-0.12673278,0.162172,-9.938825
9884000,-0.004484675,0.00308633,0.008655779,-0.10576881,0.19717686,-9.982008
9888000,-0.003291218,0.004079843,0.011864815,-0.03697172,0.15713127,-10.020322
9892000,-0.005208566,0.003488594,0.008114707,-0.11643727,0.2044466,-10.010501
9896000,-0.008131635,-0.000772768,-0.007254035,-0.24569951,0.2510767,-9.969817
9900000,-0.003706341,-0.003444811,-0.011061197,-0.1967328,0.24760602,-9.986873
9908000,0.002722723,-0.00448936,0.00095564,-0.063303724,0.28870305,-10.005383
9912000,0.001225667,-0.009709328,-6.98E-05,-0.18061851,0.27420628,-9.914685
9916000,0.000696815,-0.006940793,-0.000738519,-0.24694414,0.21930538,-9.847873
9920000,-0.000373082,-0.005014339,0.000488581,-0.2371828,0.1600554,-9.863531
9928000,-0.010036893,-0.007272748,-0.011143743,-0.1737845,0.18582284,-9.964392
9932000,-0.005609056,-0.01125086,-0.007570412,-0.1737845,0.18582284,-9.964392
9940000,-0.00104655,-0.007816046,1.41E-05,-0.1960689,0.17260313,-9.949705
9944000,-0.002947763,-0.003043218,0.000586193,-0.2121939,0.16845891,-9.899021
9948000,-0.002349807,-0.004129611,0.003877855,-0.19625174,0.20801651,-9.862704
9952000,-0.006462214,-0.004940222,-0.001314588,-0.17593092,0.20041214,-9.902921
9960000,-0.008809349,-0.006459887,-4.34E-05,-0.14579341,0.28361583,-9.937692
9964000,-0.005910188,-0.005211039,0.003289644,-0.083625205,0.23777583,-9.886588
9972000,-0.000676195,0.000820055,0.005474394,-0.21215235,0.24312001,-9.97906
9976000,-9.88E-05,-0.009349065,0.003771492,-0.13973075,0.19014114,-9.930102
9984000,-0.005659137,-0.00784415,-0.003462556,-0.22662038,0.13649778,-9.936747
9988000,-0.006062876,-0.008117347,-0.002402173,-0.18600035,0.20545147,-9.96082
9992000,-0.002054139,-0.007810742,0.000160273,-0.14830013,0.2011104,-9.989599
9996000,0.002208383,-0.007240714,0.002726965,-0.14784582,0.21988459,-9.965494
10004000,-0.00313609,-0.006286048,-0.000205629,-0.114733495,0.1288905,-10.020619
10008000,-0.002786756,-0.001897372,0.004467265,-0.1612761,0.13346907,-10.001085
10012000,0.00317757,-0.006536281,0.002708424,-0.18330944,0.18006055,-9.890609
10016000,0.003646203,-0.010507101,0.001014836,-0.20036763,0.16238093,-9.873802
10024000,0.001307266,-0.013141292,-0.000423724,-0.18725373,0.15955427,-10.005274
10028000,-0.001884695,-0.008072879,0.004130437,-0.18418846,0.19169402,-10.044962
10032000,-0.006531819,-0.00494181,0.003875613,-0.18466407,0.21436636,-10.048431
10036000,-0.005409766,-0.010079755,0.002013856,-0.17577487,0.16911986,-10.002242
10040000,0.001131134,-0.01195866,-0.00125665,-0.20738047,0.13674968,-9.905014
10044000,0.00215146,-0.009273403,-0.001638867,-0.18214823,0.14397974,-9.923044
10052000,-0.00923,-0.005604808,-0.000400067,-0.18428455,0.242981,-9.887303
10056000,-0.004189481,-0.000571146,0.000984148,-0.17341863,0.20802484,-9.868212
10064000,-0.000340683,-0.007098456,-0.004335125,-0.11921766,0.23421188,-9.921502
10068000,0.001623766,-0.005208869,0.001653602,-0.16684714,0.15689339,-9.924573
10072000,0.000598057,-0.010901325,0.006595629,-0.18834862,0.16566426,-9.940433
10076000,0.001040408,-0.009512177,0.00637866,-0.18738937,0.2093301,-9.885476
10084000,0.001169588,-0.004768481,0.000507566,-0.1932029,0.15592888,-9.928078
10088000,0.002788835,0.000398793,0.002887732,-0.14949903,0.13389072,-9.933544
10092000,0.002116554,-0.002556018,0.002346711,-0.14846848,0.15827149,-9.928701
10096000,0.003473159,-0.00521002,-0.001554875,-0.1812245,0.1809808,-9.9142475
10100000,0.006279838,-0.005862408,-0.003093736,-0.16433978,0.20213035,-9.883495
10108000,-0.004930632,-0.003643109,0.000324191,-0.19269462,0.086403385,-9.972733
10116000,0.003441019,-0.00820928,0.005132427,-0.20716287,0.23473531,-9.926949
10120000,0.003010943,-0.004167093,0.00191206,-0.16094245,0.26931432,-9.961428
10124000,-0.000585119,-0.003284853,-0.00512344,-0.12182072,0.16797303,-10.0057335
10128000,0.004621502,-0.007513037,-0.002730933,-0.17464109,0.13863395,-9.979457
10132000,0.008383409,-0.00523052,0.003910332,-0.12731148,0.14301495,-9.905469
10140000,-0.002505744,-0.011462892,0.000157438,-0.24445157,0.08838837,-9.849404
10148000,-0.001155846,-0.011021582,-0.002981535,-0.22092322,0.19546054,-9.899713
10152000,0.005075504,-0.007425861,-0.000945237,-0.18612747,0.23741125,-9.944253
10156000,-0.001601641,-0.000307991,-0.006416277,-0.116051115,0.30970162,-9.987771
10164000,0.002926245,-0.006026431,-0.005936654,-0.15912616,0.20507576,-10.012102
10168000,-0.002154695,-0.006962389,-0.002425454,-0.1536279,0.21109313,-9.939559
10172000,-0.00022045,-0.011351899,0.003966961,-0.15366526,0.1896643,-9.939765
10176000,0.001329185,-0.005836525,0.002013506,-0.13568002,0.13754755,-10.004942
10184000,0.002463125,-0.010029356,-0.001388128,-0.17094897,0.19157447,-9.957787
10188000,-0.003453459,-0.007179221,-0.003032237,-0.20778961,0.23043244,-9.926242
10192000,-0.00480554,-0.001326804,-0.003699492,-0.22993493,0.18387629,-9.910476
10196000,0.002233179,-0.002772729,-0.006286686,-0.24306437,0.18530369,-9.924478
10200000,0.002875377,-0.012126196,-0.001202067,-0.24324392,0.172148,-9.961227
10204000,-0.000182622,-0.012599591,0.006412542,-0.24260303,0.12229412,-9.971496
10208000,5.78E-05,-0.005311152,0.003677478,-0.17223713,0.117737345,-9.942173
10212000,-0.005244196,-0.004569041,-0.000462464,-0.22286661,0.191898,-9.90659
10216000,-0.005973622,-0.007185805,-0.000174721,-0.22488089,0.22242692,-9.910781
10220000,-0.004073062,-0.006012743,0.001108802,-0.1778296,0.20063078,-9.906445
10224000,-0.001520324,-0.004992054,0.005926163,-0.26119548,0.1992402,-9.995185
10228000,0.005324515,-0.004438306,0.007423268,-0.2444952,0.2043888,-10.010941
10232000,0.003735114,-0.007126822,-0.003159723,-0.1473121,0.19515845,-9.944587
10236000,-0.001606412,-0.008073733,-0.000989444,-0.1870706,0.22873612,-9.917188
10240000,-0.004336421,-0.002377314,0.005668955,-0.22894664,0.23905633,-9.922802
10244000,-0.003027279,-0.000858859,0.002056699,-0.16835766,0.09902036,-10.009538
10248000,0.002409468,-0.007863099,0.001697291,-0.19213559,0.103449106,-9.990393
10252000,0.001357148,-0.007460507,0.000353804,-0.20236577,0.25494388,-9.890627
10260000,-0.00516834,-0.012681852,-0.00244039,-0.23080647,0.17269772,-9.890615
10264000,-0.000914943,-0.007178219,0.000263741,-0.28153643,0.22990742,-9.894376
10268000,-0.003984208,-0.000746853,-0.005324357,-0.24433923,0.1793529,-9.949202
10272000,-0.001353044,-0.007422616,-0.009563752,-0.2515576,0.17755407,-9.887389
10276000,-0.002858904,-0.005248013,-0.004352085,-0.27438313,0.2344194,-9.897252
10280000,-0.002913622,-0.00879451,-0.002776361,-0.27438313,0.2344194,-9.897252
10284000,-0.002939445,-0.007564453,-0.003786881,-0.13435067,0.21943352,-9.985738
10288000,-0.003238713,-0.001571486,-0.005653938,-0.18041548,0.15232757,-10.02217
10292000,-0.002699517,-0.004358952,-0.001097049,-0.17446108,0.13225189,-10.057517
10296000,-0.007540077,-0.00697809,-0.000505218,-0.21336517,0.17135262,-10.015267
10300000,-0.010378156,-0.007398775,-0.003698849,-0.26937345,0.15272982,-9.955745
10304000,-0.008816208,-0.006267925,-0.006203243,-0.2456682,0.18486509,-9.917985
10312000,0.003834602,0.001330191,0.000202627,7.9956203,0.14590205,-9.915767
10316000,-0.00220934,-0.00117603,0.003206672,18.455742,0.12362729,-9.845341
10320000,-0.004706432,-0.005506995,0.003368567,27.50178,0.1738162,-9.854337
10324000,-0.000585888,-0.006161524,-0.000521314,34.860546,0.19527733,-9.812011
10332000,-0.001196536,-0.007974562,-0.000920781,44.802773,0.18861043,-9.813915
10336000,-0.002416266,-0.005724925,-0.000161061,47.777508,0.1948448,-9.843876
10340000,-0.000717544,-0.01066597,-0.006851552,49.69701,0.20205936,-9.842064
10344000,0.000755624,-0.009720508,-0.003753602,50.93315,0.20930423,-9.763913
10348000,0.001980783,-0.004828181,-0.001260222,51.700073,0.18732555,-9.757379
10356000,-0.000491116,-0.004559021,-0.002586168,52.494534,0.16143808,-9.82452
10360000,0.006777886,-0.004670952,-0.004861882,52.310184,0.22964191,-9.810424
10368000,-0.002185562,-0.0084777,-0.000251914,51.819252,0.13719796,-9.934392
10372000,0.001843922,-0.003996863,0.001327591,51.510765,0.098008886,-9.886494
10376000,-0.000159933,-0.004240071,0.000812764,51.108936,0.07854124,-9.915495
10380000,-0.006564055,-0.00272746,-0.004972962,50.68004,0.11379427,-9.853153
10384000,-0.000536252,-0.001150911,-0.005244816,50.095066,0.11746882,-9.809535
10392000,-0.010148701,-0.007511862,-0.002177164,49.136787,0.27573705,-9.848528
10396000,-0.006206202,-0.00825255,0.004601406,48.67954,0.2162574,-9.874565
10400000,-0.007104601,-0.006995556,0.002365067,48.227673,0.16353846,-9.8824415
10408000,0.001822631,-0.005163862,0.00089879,47.094315,0.09579399,-9.78643
10412000,-0.004001724,-0.006362933,0.004923528,46.709393,0.16824347,-9.827207
10416000,-0.009738964,-0.005219897,0.002191153,46.254963,0.17887028,-9.850601
10420000,-0.008330953,-0.005409083,-0.002471872,45.82535,0.18369582,-9.826
10428000,-0.002324752,-0.010117785,0.001340031,44.700867,0.2822002,-9.784338
10432000,0.002566184,-0.006420017,-0.002830988,44.332138,0.19646192,-9.772754
10440000,0.004053767,-0.001875134,0.001207168,43.612617,0.16718668,-9.821626
10444000,0.003993506,-0.003049184,-3.42E-05,43.054768,0.20557109,-9.8385515
10448000,0.003797829,-0.010112786,0.001690582,42.63799,0.22469337,-9.789313
10456000,0.001333597,-0.005468763,0.005218906,41.941235,0.15836291,-9.843671
10460000,-0.00093962,-0.003268552,0.004870501,41.62714,0.15957053,-9.8402
10464000,-0.003426418,-0.008758019,-0.000623511,41.07442,0.16878223,-9.81309
10468000,-0.001928084,-0.00805652,-0.002282133,40.66326,0.10884593,-9.851499
10476000,-0.00641958,-0.00332221,0.001534172,40.013588,0.20929594,-9.889616
10480000,0.000876598,-0.002690607,0.004713185,39.684727,0.18999583,-9.809021
10484000,0.003737446,-0.005715406,0.005031328,39.23474,0.18524028,-9.8184185
10492000,-0.000720466,-0.004795644,0.006268736,38.342907,0.23028305,-9.873958
10500000,-0.008662786,0.00278911,-0.000986357,37.552166,0.21400791,-9.824821
10504000,-0.000121846,0.003232069,0.002313176,37.16176,0.20305139,-9.79984
10508000,-0.002515219,-0.012697448,0.002644471,36.803543,0.19424841,-9.815363
10512000,0.005430307,-0.016189214,-0.000270469,36.428677,0.18299979,-9.815337
10520000,0.002363076,-0.006211205,0.003133406,35.85877,0.22969386,-9.928507
10528000,-0.000230918,-0.005918557,0.003362269,35.00184,0.12109439,-9.854684
10532000,0.000313054,-0.007010371,-0.001076279,34.60258,0.16184652,-9.950776
10536000,0.002426226,-0.003335991,0.002841915,34.3161,0.19094105,-9.905393
10544000,0.00015471,-0.007102,0.002681006,33.690285,0.13530132,-9.853595
10548000,-0.005102594,-0.007160022,-0.000530848,33.248302,0.15567791,-9.905108
10552000,-0.010310618,-0.007284371,-0.000844975,32.910027,0.18339072,-9.858155
10560000,-0.007622296,-0.004313373,-0.003777985,32.495422,0.16548346,-9.887473
10564000,-0.002993158,-0.00221181,-0.000887566,32.150158,0.17676409,-9.862961
10572000,0.001479417,-0.000992396,0.006180683,31.410772,0.20471852,-9.829843
10576000,-0.001848639,0.003890584,0.001920488,31.152462,0.11112667,-9.859491
10580000,0.002449215,-0.000814696,-0.000846977,30.992891,0.07809711,-9.857363
10584000,0.004392935,-0.007111558,-0.001774033,30.756075,0.11188461,-9.872507
10592000,-0.007457807,-0.007862688,0.004014971,30.082613,0.15685475,-9.92546
10600000,0.001790171,-0.007784789,-0.003629762,29.60095,0.16386628,-9.934504
10604000,-0.00359497,-0.005810956,0.00157598,29.368864,0.17608376,-9.906313
10608000,-0.002062718,0.000127825,0.002896949,29.013992,0.18603705,-9.897406
10612000,0.00612684,-0.007972254,0.003674736,28.716373,0.18276997,-9.879349
10616000,0.00536823,-0.009563401,0.000147176,28.501575,0.25939947,-9.8477955
10624000,0.001160731,-0.006270197,-0.007405381,28.036036,0.089988954,-9.946124
10632000,-0.000137802,-0.009248934,0.00127476,27.49827,0.16994078,-9.954405
10636000,-0.003462576,-0.001825703,0.003875587,27.259874,0.20198092,-9.82177
10640000,-0.002955194,-0.003575961,9.96E-05,27.009571,0.19916816,-9.782433
10644000,-0.006465855,-0.009066038,-0.0025999,26.852684,0.16652858,-9.861656
10648000,-0.008672337,-0.001729082,-0.002112028,26.553015,0.13831972,-9.883364
10652000,0.002906726,-0.003203045,0.00358645,26.177736,0.21189661,-9.898982
10656000,0.004749318,-0.005020917,-0.000475892,25.924128,0.2763703,-9.919364
10660000,0.000336391,-0.003872925,-0.00453576,25.724247,0.27190068,-9.942915
10668000,0.002696827,-0.008511304,0.003327459,25.36777,0.15066579,-9.892894
10672000,0.000585073,-0.006403873,0.005664431,24.948065,0.13508058,-9.895319
10680000,0.000507834,-0.003614985,-0.001898746,24.559048,0.15274468,-9.932146
10684000,-0.005307137,-0.008190509,0.004024199,24.351568,0.13967083,-9.938051
10692000,0.005775984,-0.006796559,0.000544849,23.876009,-0.02152084,-9.816569
10700000,0.003907938,-0.010872415,0.005788498,23.466093,0.000341724,-9.892445
10704000,0.006106518,-0.007213833,0.007899864,23.257156,0.037424695,-9.899116
10708000,0.004655781,-0.001996085,0.014403979,23.154636,0.15044954,-9.865635
10712000,-0.000175187,0.000784245,0.012965793,22.939901,0.14598602,-9.837998
10716000,0.003388789,-0.006562695,0.017307172,22.592787,0.10212592,-9.897756
10724000,-0.00373005,-0.003460395,0.01610707,22.316648,0.10825571,-9.835667
10728000,-0.001341053,-0.001420446,0.019252185,22.227507,0.1232585,-9.8626
10732000,-0.004241875,-0.006206684,0.021043468,21.949076,0.12414271,-9.847213
10736000,-0.006989447,-0.010211274,0.029940404,22.19789,-0.3971727,-9.937169
10740000,-0.004976027,-0.007540652,0.04701865,22.463797,-0.8951721,-10.057655
10744000,-0.000990459,-0.005633319,0.06943488,22.316496,-0.84605247,-10.102284
10752000,0.014272418,-0.00255448,0.09373497,21.987253,-0.8012329,-10.126084
10760000,0.025095966,0.000285468,0.14469114,21.429436,-0.77244604,-10.158082
10764000,0.025756394,0.004839245,0.1651968,21.37541,-0.5708199,-10.201563
10768000,0.036849227,-0.002459407,0.17637105,21.250156,-0.52813715,-10.247831
10772000,0.03649313,-0.006880333,0.18557774,21.067343,-0.5745012,-10.2683525
10776000,0.03759026,-0.006520941,0.20045812,20.839666,-0.60642797,-10.272571
10780000,0.048090868,-0.001078809,0.21245952,20.561096,-0.5606225,-10.302961
10788000,0.065972716,-0.003549693,0.23722608,20.375414,-0.4483913,-10.282887
10792000,0.07220066,0.002638167,0.24765486,20.106173,-0.43515658,-10.360363
10796000,0.07834331,-0.003273738,0.25942877,19.825563,-0.4274361,-10.325115
10800000,0.0901409,-0.002358145,0.2684231,19.825563,-0.4274361,-10.325115
10808000,0.103709474,-0.001120159,0.27578115,19.403835,-0.11915648,-10.308085
10812000,0.10536426,-0.002108279,0.2814759,19.201649,-0.15526189,-10.279625
10816000,0.112177595,-0.006835538,0.28675234,19.014664,-0.2589861,-10.335484
10820000,0.11873619,-0.006114642,0.29035807,18.847103,-0.22066243,-10.347469
10824000,0.12292238,-0.002882578,0.2938237,18.835875,-0.1554217,-10.330928
10832000,0.13643613,-0.001988484,0.29778013,18.470472,-0.04060755,-10.34254
10836000,0.14485627,0.000489718,0.29604396,18.325115,-0.07580927,-10.311968
10840000,0.15390477,-0.001506297,0.29676637,18.191101,-0.00698826,-10.326787
10848000,0.1740516,-0.003361659,0.29450732,17.862883,0.11110735,-10.443993
10852000,0.17713232,-0.003002596,0.2882809,17.73989,0.053989213,-10.409848
10856000,0.18823963,-0.006723456,0.28008682,17.553013,0.06105606,-10.39934
10860000,0.20269313,-0.007054257,0.2768565,17.40913,0.11821006,-10.40297
10864000,0.2068019,-0.00382903,0.27462894,17.27876,0.11514161,-10.358328
10868000,0.21559067,-0.005925661,0.27070186,17.12615,0.088780485,-10.352722
10872000,0.22381178,-0.002920325,0.26127928,17.054848,0.09026951,-10.347741
10880000,0.24120823,0.003644176,0.24231529,16.846693,0.20766827,-10.272144
10884000,0.24718052,-0.003867761,0.2298407,16.619162,0.24309455,-10.221743
10888000,0.25178677,-0.00063451,0.21735017,16.559517,0.2948611,-10.3134575
10892000,0.258884,0.005217373,0.20809773,16.483637,0.38902682,-10.364368
10900000,0.27417415,-0.005809402,0.18305142,16.221148,0.6922631,-10.320552
10904000,0.28358948,-0.001589047,0.17148,16.01979,0.69439197,-10.264439
10908000,0.28726593,0.000633801,0.16289441,15.8322115,0.66708213,-10.298948
10912000,0.2892661,-0.002974838,0.15009296,15.791325,0.7523396,-10.3422785
10916000,0.30039117,-0.004334332,0.13830543,15.746709,0.8114168,-10.400933
10924000,0.3109414,-0.011750075,0.11809361,15.256586,0.85995877,-10.293765
10928000,0.31997663,-0.00420877,0.10868697,15.136479,0.8166833,-10.223762
10932000,0.323117,-0.00214242,0.094527416,15.154738,0.93467325,-10.207473
10940000,0.33071694,-0.001041846,0.07780747,14.835451,0.87579155,-10.075247
10944000,0.33768046,-0.000524959,0.06089444,14.677144,0.837226,-10.192295
10948000,0.33904532,-0.006649911,0.05279284,14.539982,0.84253764,-10.326365
10952000,0.34343648,-0.004197932,0.043177705,14.337448,0.81451446,-10.390619
10960000,0.35855812,-0.012449352,0.018194633,14.0870285,0.8729562,-10.234818
10964000,0.35974073,-0.009976318,0.00975617,13.846015,0.8387783,-10.267194
10968000,0.36188793,-0.004601718,0.001488051,13.642289,0.7905443,-10.421763
10972000,0.3646817,0.000779749,-0.003790697,13.532511,0.8399963,-10.490515
10976000,0.35821363,-0.009347595,-0.014218119,13.4170685,0.895447,-10.364004
10984000,0.3577291,-0.013213121,-0.03668371,12.9557705,0.87839967,-10.407774
10988000,0.35362357,-0.022108385,-0.047631968,12.919446,0.85040534,-10.414052
10992000,0.35640192,-0.022966059,-0.057658516,12.852291,0.8699965,-10.422801
10996000,0.35961837,-0.022742782,-0.067347184,12.708845,0.8329355,-10.444473
11000000,0.3620547,-0.03038497,-0.071483865,12.470984,0.71584517,-10.352614
11008000,0.36794007,-0.029703565,-0.0828056,12.216753,0.734149,-10.24509
11016000,0.37001863,-0.023720125,-0.110898785,11.901761,0.6728064,-10.391917
11020000,0.3641635,-0.022785936,-0.11466839,11.789296,0.72055334,-10.348026
11024000,0.36089283,-0.02610805,-0.11928672,11.6674385,0.73321724,-10.296826
11032000,0.36228168,-0.02780037,-0.13722962,11.379014,0.61590505,-10.296618
11036000,0.3659406,-0.032987166,-0.14400265,11.2684965,0.59065044,-10.288611
11040000,0.3648021,-0.030479116,-0.1429312,11.1205845,0.6274484,-10.25941
11044000,0.36131218,-0.025980737,-0.14781815,10.922515,0.6328058,-10.289136
11052000,0.351672,-0.021623945,-0.16817987,10.688804,0.59161514,-10.245831
11056000,0.3552196,-0.027908014,-0.16790366,10.640249,0.58474094,-10.192865
11060000,0.35429752,-0.029206747,-0.17206185,10.606878,0.5379644,-10.205246
11064000,0.34682733,-0.027608125,-0.1800638,10.378802,0.47330484,-10.26168
11068000,0.34470597,-0.031590395,-0.186998,10.230082,0.46882072,-10.19318
11072000,0.34916404,-0.030486653,-0.19054435,10.151724,0.5263418,-10.131971
11076000,0.34853646,-0.028920222,-0.19479333,10.039989,0.5033123,-10.120621
11080000,0.33991617,-0.033048823,-0.19232145,9.95138,0.429984,-10.140954
11084000,0.33343416,-0.029842025,-0.19408736,9.875648,0.45834127,-10.137234
11088000,0.33383623,-0.02633553,-0.1956246,9.737994,0.45861718,-10.114694
11092000,0.33556068,-0.030100636,-0.1944325,9.568291,0.38560694,-10.120689
11096000,0.3357584,-0.029547043,-0.19860364,9.490098,0.34211376,-10.034969
11100000,0.33639768,-0.0307571,-0.20125364,9.380293,0.32095435,-9.9187765
11108000,0.32968357,-0.02841144,-0.19741577,9.230732,0.25865024,-9.92245
11112000,0.33631048,-0.027097397,-0.20398755,9.183599,0.18675543,-9.957046
11116000,0.33083948,-0.02753277,-0.20589212,9.043023,0.21576893,-9.991307
11124000,0.32459706,-0.029225837,-0.20385677,8.758922,0.13424706,-9.835943
11128000,0.3210081,-0.024149833,-0.19847794,8.684103,0.19189535,-9.849788
11132000,0.3162168,-0.024008404,-0.19698279,8.67465,0.15064536,-9.93341
11140000,0.3178547,-0.025998158,-0.19360086,8.393724,0.17451987,-9.972739
11144000,0.3110853,-0.022900615,-0.19265011,8.22009,0.12633342,-9.984888
11148000,0.3131664,-0.020291783,-0.18802877,8.103173,0.06439615,-9.895906
11152000,0.31010288,-0.016014848,-0.18771704,8.099562,0.06725447,-9.875215
11156000,0.30960378,-0.015266422,-0.18643732,8.053632,0.03309621,-9.99532
11164000,0.3091598,-0.014784957,-0.17413078,7.763018,0.017601907,-9.814777
11168000,0.303916,-0.012080456,-0.1705856,7.6667733,0.014062724,-9.839154
11172000,0.30319533,-0.00372695,-0.17139968,7.4989686,0.011781608,-9.90553
11176000,0.3000965,0.001576864,-0.16618542,7.485233,0.012160295,-9.946579
11184000,0.29333946,0.003307611,-0.16637073,7.2831874,-0.024882011,-9.914888
11188000,0.29286733,0.004913708,-0.15527868,7.2601047,-0.06892189,-9.9488125
11192000,0.2883205,0.010173789,-0.14970696,7.241737,-0.06302701,-9.942631
11200000,0.28834775,0.027651373,-0.13250633,6.9069796,-0.1514564,-10.005773
11208000,0.28487825,0.024410434,-0.12858565,6.848372,-0.1206864,-10.069535
11216000,0.27318588,0.036223553,-0.12270827,6.655394,-0.18129788,-10.212778
11220000,0.27775767,0.037237596,-0.111316115,6.5632653,-0.17818883,-10.160844
11224000,0.28235793,0.03853935,-0.110744506,6.490405,-0.23682684,-10.252275
11232000,0.27459773,0.052238785,-0.08874976,6.381457,-0.20936996,-10.312386
11236000,0.2677945,0.058398847,-0.08225365,6.337508,-0.17278966,-10.30131
11244000,0.2539419,0.064047255,-0.06703243,6.0557427,-0.2233947,-10.479071
11248000,0.25837082,0.06651835,-0.055058863,5.9841814,-0.24841125,-10.460942
11252000,0.2601526,0.072602496,-0.05125196,6.012847,-0.24551493,-10.51198
11260000,0.25454748,0.07930741,-0.04286709,5.813039,-0.29477993,-10.780656
11264000,0.25025183,0.089706205,-0.030949282,5.6969495,-0.34496227,-10.818899
11268000,0.24485879,0.09300079,-0.023993602,5.6208906,-0.3079803,-10.73237
11276000,0.2447385,0.102338366,-0.021346422,5.5650125,-0.38492322,-11.016754
11280000,0.24506205,0.10078433,-0.011484928,5.499727,-0.3706982,-10.9732
11284000,0.2444934,0.09836762,-0.002484208,5.418137,-0.38222182,-11.042281
11292000,0.23691562,0.10427969,0.006975909,5.3267884,-0.38128045,-11.280709
11300000,0.22927868,0.11845791,0.02826062,5.1278663,-0.37895688,-11.396957
11304000,0.22849764,0.124034286,0.030157713,5.064988,-0.3944795,-11.475032
11312000,0.22455098,0.13120164,0.046452556,4.9213624,-0.3158161,-11.62364
11316000,0.22594567,0.13672651,0.04966947,4.8325405,-0.30413795,-11.646434
11320000,0.22776474,0.13556696,0.056559924,4.8437667,-0.37565932,-11.728267
11328000,0.22112416,0.15176319,0.06474626,4.6365876,-0.31800267,-12.003793
11336000,0.22129929,0.15975137,0.0755329,4.592324,-0.37794486,-12.072339
11344000,0.21638569,0.16692068,0.08130716,4.5615635,-0.2207633,-12.272773
11352000,0.21548182,0.16950075,0.09536558,4.4285765,-0.22062543,-12.352771
11356000,0.21680647,0.17564803,0.10295622,4.333566,-0.23233967,-12.488847
11364000,0.20777452,0.1844231,0.10613093,4.0947933,-0.32233623,-12.67151
11368000,0.19906348,0.18285899,0.11519892,4.1006155,-0.31676337,-12.70688
11372000,0.19941989,0.18414377,0.12022692,4.064132,-0.23098332,-12.791909
11376000,0.19916221,0.18896328,0.11685555,4.011867,-0.25066072,-12.939982
11380000,0.19467564,0.1884851,0.12279475,4.0067596,-0.3018767,-13.068621
11388000,0.19105104,0.19231749,0.136014,3.8456173,-0.3178538,-13.101665
11392000,0.19244395,0.20163597,0.13772093,3.7261362,-0.3078977,-13.249433
11400000,0.18391344,0.20757303,0.14126405,3.748422,-0.23128526,-13.418689
11408000,0.18701646,0.21240611,0.14205973,3.6298866,-0.2328481,-13.516482
11412000,0.18324666,0.21344696,0.1511742,3.5529764,-0.21154092,-13.596725
11416000,0.18365464,0.21407285,0.1531925,3.5083826,-0.13829425,-13.691812
11420000,0.1901951,0.22105916,0.1514517,3.4511592,-0.17651263,-13.759709
11428000,0.18301833,0.21838973,0.15144679,3.4921668,-0.1124108,-13.957483
11432000,0.17974201,0.21585906,0.15062481,3.307883,-0.14319369,-14.009149
11436000,0.1783959,0.22035372,0.1548205,3.244777,-0.17670019,-13.983629
11440000,0.1716174,0.22780512,0.1574068,3.2420623,-0.13049391,-14.064774
11448000,0.17035946,0.2246435,0.15781759,3.2056155,-0.10911143,-14.289496
11452000,0.17157523,0.21959792,0.1540599,3.1254623,-0.07650574,-14.358283
11456000,0.16827431,0.22050585,0.15093215,3.0869598,-0.05535349,-14.360611
11460000,0.16300182,0.2261943,0.15695609,3.1056857,-0.09917058,-14.402832
11464000,0.16552006,0.23439544,0.15723364,3.1051207,-0.17891502,-14.468928
11468000,0.16375306,0.23258032,0.15060872,3.0239186,-0.14603627,-14.481696
11472000,0.15824388,0.22885492,0.14338772,3.0239186,-0.14603627,-14.481696
11476000,0.15203694,0.22811815,0.14186321,2.8481395,-0.1194978,-14.642966
11480000,0.14759418,0.22629574,0.14385219,2.7703037,-0.09219997,-14.655646
11484000,0.1470707,0.22982988,0.14731582,2.7778296,-0.10136239,-14.666666
11488000,0.15323703,0.22712381,0.14812468,2.8502228,-0.084669076,-14.734331
11492000,0.15715131,0.2293301,0.14120156,2.8296344,-0.063323036,-14.795516
11496000,0.15376583,0.2361697,0.14222685,2.7619395,-0.07915061,-14.771298
11500000,0.15114664,0.23185845,0.13878605,2.6845026,-0.100108355,-14.784078
11504000,0.14610143,0.23220684,0.13388333,2.63351,-0.051645927,-14.855413
11508000,0.14457908,0.23273413,0.13607895,2.6389575,-0.012910968,-14.862256
11512000,0.14416274,0.22858159,0.13751577,2.679008,-0.042485915,-14.935494
11520000,0.14590168,0.22502308,0.1328653,2.5928898,-0.08914709,-14.979687
11528000,0.13506283,0.23183961,0.12324469,2.484999,0.016133958,-14.9515705
11532000,0.1366614,0.22486557,0.12590928,2.5141883,-0.029452048,-15.025318
11536000,0.13849117,0.22181414,0.12956978,2.56062,-0.056768175,-14.989409
11540000,0.13641182,0.22677961,0.12579617,2.5258617,0.024099434,-14.954015
11544000,0.13158172,0.22621123,0.119583726,2.3894327,0.007466423,-15.043786
11548000,0.12817265,0.22438912,0.11093001,2.3169744,-0.07204301,-15.042243
11552000,0.1271281,0.22887462,0.10561832,2.3280034,-0.042341724,-15.015415
11556000,0.13026895,0.22606559,0.10380994,2.3224783,-0.014076161,-15.096326
11560000,0.13229382,0.21229671,0.104095936,2.3012905,-0.000496452,-15.107821
11564000,0.12820058,0.21043287,0.103915155,2.2877007,0.002147823,-15.039596
11568000,0.1229405,0.2160516,0.09544099,2.2512724,-0.03346155,-15.08892
11576000,0.12250504,0.21968587,0.09112562,2.2069838,-0.002727061,-14.968556
11580000,0.118796565,0.21560442,0.08956777,2.197424,-0.021501744,-14.996279
11584000,0.11140572,0.2131144,0.089644745,2.1457076,0.015489103,-15.134055
11588000,0.11116336,0.21884094,0.09020815,2.1666255,-0.023956282,-15.169101
11592000,0.118577145,0.2189289,0.08195774,2.1869066,-0.08543341,-15.1339445
11596000,0.11171215,0.21645607,0.07185376,2.1231909,-0.0804977,-15.075671
11600000,0.10890159,0.211019,0.064220876,2.079764,-0.037727796,-15.029053
11604000,0.11042496,0.21050237,0.061171386,2.0257583,-0.034290537,-14.991769
11608000,0.10341885,0.2094916,0.06739999,2.0131981,-0.050469417,-15.024841
11612000,0.10233534,0.20561144,0.068954036,2.0614994,-0.0512148,-14.982356
11620000,0.10264647,0.20406297,0.055321965,2.033717,-0.003006311,-15.035852
11624000,0.10522105,0.20283195,0.05406515,1.9139583,-0.06013438,-14.994992
11628000,0.10376957,0.20850272,0.04995427,1.8416144,-0.10596503,-14.963819
11632000,0.09879827,0.20629027,0.04881381,1.8836809,-0.041532535,-14.895184
11636000,0.09721157,0.20130001,0.044711124,1.9078484,-0.005898868,-14.855187
11640000,0.089966044,0.19544467,0.040502124,1.8970934,0.020939045,-14.846404
11644000,0.0897126,0.19608063,0.04503954,1.9065298,-0.03557396,-14.81833
11648000,0.09838471,0.20083867,0.042784516,1.8971076,-0.04653387,-14.823137
11656000,0.09000894,0.19552314,0.032682918,1.8233994,-0.093890294,-14.714332
11660000,0.09359297,0.19479483,0.03721392,1.8082888,-0.08807976,-14.673015
11664000,0.09783942,0.19617715,0.04302482,1.8001202,-0.07637151,-14.682205
11672000,0.090708755,0.19400224,0.02844634,1.7321681,-0.043145172,-14.72029
11676000,0.09162668,0.19142887,0.02695754,1.7805097,-0.051774576,-14.622464
11680000,0.09091473,0.18593062,0.027298464,1.8458384,-0.09671,-14.576464
11684000,0.08620797,0.18872026,0.026843216,1.7885284,-0.05571406,-14.62469
11688000,0.08336867,0.18873027,0.022284698,1.704447,-0.086433746,-14.694367
11692000,0.08893,0.18624131,0.012605283,1.6974932,-0.15578742,-14.658668
11696000,0.08726257,0.18683743,0.012926116,1.6889291,-0.18967676,-14.586762
11700000,0.07786579,0.1846315,0.018298894,1.7074538,-0.19273613,-14.475488
11708000,0.07587775,0.18186207,0.020924872,1.7505232,-0.19017905,-14.382058
11712000,0.07426098,0.17765962,0.020973055,1.6869717,-0.24812366,-14.3037
11716000,0.07451914,0.17617097,0.010487297,1.6376169,-0.17740881,-14.3470125
11720000,0.07427439,0.1726464,0.012806688,1.68523,-0.11073866,-14.388606
11724000,0.070283085,0.17328693,0.018074116,1.7064648,-0.17382169,-14.365772
11728000,0.07073424,0.17416388,0.017160378,1.6784203,-0.15474331,-14.341466
11736000,0.07198006,0.168539,0.012099376,1.5500568,-0.2438817,-14.230907
11740000,0.07280742,0.16968885,0.014155784,1.6308218,-0.20527332,-14.238072
11744000,0.074350014,0.17502111,0.01372487,1.6717719,-0.26703572,-14.2607565
11748000,0.071209475,0.1752079,0.012527637,1.5833577,-0.26698557,-14.221206
11752000,0.067800164,0.17482626,0.01664574,1.5450996,-0.22205141,-14.16775
11760000,0.0649461,0.1769367,0.011137785,1.5649112,-0.18484513,-14.119407
11768000,0.06595337,0.1728078,0.016466668,1.493473,-0.21406212,-14.0231285
11772000,0.060967345,0.17146648,0.016457057,1.5451976,-0.18526515,-14.034827
11776000,0.05699937,0.17425479,0.020838346,1.5094216,-0.25525394,-14.139477
11784000,0.062381282,0.17372425,0.024408862,1.5852726,-0.21757296,-14.004887
11788000,0.058026046,0.16784261,0.025632001,1.4468704,-0.18055464,-14.003943
11792000,0.05894845,0.16616671,0.022879811,1.397744,-0.23901318,-13.995518
11796000,0.0645003,0.16922559,0.025086047,1.4804974,-0.29236987,-13.940119
11800000,0.055464886,0.17441817,0.021585455,1.4728726,-0.25588474,-13.899007
11808000,0.055503037,0.171729,0.023681572,1.4649054,-0.22141036,-13.865464
11816000,0.055668358,0.1694383,0.035053205,1.3952476,-0.24979337,-13.925722
11820000,0.057990573,0.16655883,0.036640268,1.3872007,-0.31533495,-13.929816
11824000,0.06019574,0.17103624,0.033999983,1.421807,-0.3182166,-13.908345
11828000,0.060599092,0.16828658,0.031851314,1.3683321,-0.3071911,-13.876634
11832000,0.06298739,0.17116512,0.030975789,1.284821,-0.3329414,-13.813153
11836000,0.053643033,0.17009646,0.04127849,1.3616021,-0.31643632,-13.804012
11844000,0.06344488,0.16562133,0.04405851,1.4030944,-0.31492022,-13.809134
11848000,0.054909945,0.16523448,0.041061725,1.3609165,-0.28110048,-13.715303
11856000,0.056437474,0.1683045,0.049161218,1.372136,-0.3194148,-13.790762
11860000,0.056385163,0.17163348,0.05420028,1.335953,-0.32917213,-13.768612
11864000,0.057212986,0.16583978,0.054262523,1.3610086,-0.29252905,-13.72882
11872000,0.048005603,0.16520733,0.047246408,1.2985761,-0.3469436,-13.7319565
11876000,0.04552132,0.16645311,0.047295548,1.3174455,-0.3464844,-13.794793
11880000,0.04644657,0.17363527,0.05327323,1.3841813,-0.41509855,-13.760179
11884000,0.045928594,0.16783892,0.058015827,1.3394486,-0.38996205,-13.684665
11888000,0.047573995,0.16583754,0.059071865,1.3312151,-0.34414804,-13.688753
11892000,0.0503222,0.17202777,0.058705706,1.29848,-0.39785877,-13.719315
11896000,0.052163962,0.17392763,0.063549146,1.2604533,-0.38475344,-13.729532
11904000,0.046436545,0.1772454,0.05813598,1.2269474,-0.31399122,-13.764092
11912000,0.04803161,0.17409381,0.06862411,1.2884716,-0.2685606,-13.724466
11920000,0.04950126,0.17374533,0.07392912,1.2580425,-0.39588186,-13.698943
11924000,0.050604813,0.17415656,0.075253405,1.266051,-0.39640918,-13.7689705
11932000,0.044749208,0.17393123,0.0799544,1.2823925,-0.3197218,-13.684984
11936000,0.043350913,0.17513095,0.072592594,1.275728,-0.37412018,-13.6666155
11940000,0.0462844,0.17812228,0.074078076,1.2461504,-0.35501674,-13.699218
11944000,0.047227703,0.17745999,0.07537512,1.2327558,-0.315963,-13.736051
11952000,0.038881186,0.18001515,0.0842848,1.2430505,-0.43440875,-13.694161
11956000,0.04064841,0.17676331,0.08568981,1.198969,-0.3504344,-13.700084
11960000,0.038566317,0.18118477,0.08280323,1.2188396,-0.29953158,-13.736262
11964000,0.034726135,0.18020494,0.0868564,1.3342733,-0.32880348,-13.77061
11968000,0.03586245,0.17906815,0.085451,1.356503,-0.33936337,-13.786118
11972000,0.043110378,0.18421301,0.080279134,1.2512797,-0.34012687,-13.857389
11976000,0.041294415,0.18365222,0.07897275,1.1789125,-0.31757626,-13.87407
11980000,0.043950737,0.18154176,0.08251782,1.2027597,-0.31972468,-13.802149
11988000,0.03532537,0.18002057,0.09345186,1.2476419,-0.3330833,-13.7427845
11996000,0.040370416,0.18366788,0.092376776,1.1760542,-0.39382264,-13.802271
12000000,0.039585963,0.18053077,0.08599586,1.1219776,-0.41330644,-13.827684
12004000,0.0438385,0.17839031,0.08393352,1.090177,-0.39735895,-13.80072
12008000,0.038256966,0.1789917,0.095081985,1.1809387,-0.39799157,-13.771035
12012000,0.032313794,0.17483868,0.09666523,1.1645977,-0.38460115,-13.830925
12020000,0.03888977,0.1856503,0.087044895,1.1121558,-0.44444263,-13.805693
12028000,0.032961853,0.18442357,0.087615944,1.1467546,-0.35360032,-13.820586
12032000,0.03386225,0.17821571,0.08760282,1.0786953,-0.33457455,-13.819144
12036000,0.042002596,0.18340562,0.094256945,1.0830514,-0.34571573,-13.762994
12044000,0.03831294,0.18895376,0.090902336,1.1191939,-0.46482202,-13.875081
12052000,0.03345713,0.18445863,0.08123081,1.0760863,-0.36706573,-13.88241
12056000,0.029073982,0.19443487,0.08266994,1.1023333,-0.42064786,-13.925419
12064000,0.030826675,0.18408564,0.08521412,1.0629835,-0.42273846,-13.84491
12068000,0.029177703,0.18974848,0.090918444,1.0617405,-0.40627098,-13.878755
12072000,0.02939088,0.19134766,0.09076364,1.0786788,-0.3983737,-13.941329
12076000,0.025235932,0.18608002,0.08620381,1.0458032,-0.33379158,-13.955165
12080000,0.023709621,0.18604034,0.086289674,0.9931911,-0.27034444,-13.927965
12084000,0.02785863,0.19150046,0.08838423,0.9716729,-0.31771594,-13.875488
12088000,0.03286458,0.1945329,0.087900884,0.988454,-0.2792497,-13.864462
12096000,0.026747743,0.1871788,0.08845634,1.1170171,-0.31051898,-13.851506
12104000,0.028632104,0.18451016,0.08188758,1.0146539,-0.399262,-13.912539
12108000,0.032168057,0.1843,0.084534444,1.0861831,-0.41447812,-13.889667
12112000,0.028750943,0.18223618,0.089176394,1.0889297,-0.32694882,-13.884227
12120000,0.025705233,0.18736257,0.08427146,1.023272,-0.36189708,-13.953582
12124000,0.01786201,0.18926108,0.08343518,1.0636953,-0.38206562,-14.01048
12132000,0.026129095,0.19481574,0.0806809,1.0405668,-0.3167081,-14.027739
12136000,0.02144917,0.19109641,0.078803994,1.0510576,-0.3188771,-13.897975
12140000,0.019600974,0.19211692,0.07091516,1.0841402,-0.28700244,-13.901957
12144000,0.021289255,0.18941456,0.066923626,1.1041821,-0.33133504,-13.978464
12148000,0.020072717,0.18085116,0.07404924,1.1616046,-0.3877548,-14.062105
12152000,0.018805,0.18770863,0.07418717,1.1456351,-0.3552898,-14.053143
12160000,0.023295186,0.19320175,0.07804321,1.1195371,-0.37065476,-13.968436
12168000,0.019301668,0.19442101,0.07429269,1.1184314,-0.3228303,-13.980816
12172000,0.011459744,0.19048211,0.069879375,1.1049945,-0.34591138,-13.972148
12180000,0.019647162,0.18615583,0.07119206,1.1275795,-0.39269578,-13.94906
12184000,0.019175043,0.18514536,0.06989292,1.1578847,-0.38562092,-13.972639
12188000,0.022133807,0.19109628,0.065085925,1.1299186,-0.32120314,-13.984681
12192000,0.02399027,0.19518252,0.06614963,1.1156801,-0.31813562,-13.921715
12196000,0.021715954,0.18984593,0.06691888,1.1097933,-0.307935,-13.941005
12204000,0.024642928,0.1916938,0.061802767,1.0209821,-0.41967478,-13.938934
12208000,0.01574545,0.19117868,0.07142798,1.0625091,-0.35145882,-13.987385
12212000,0.013756871,0.19128321,0.07405432,1.1494,-0.35542673,-14.012223
12220000,0.01856498,0.19101834,0.06539682,1.1157639,-0.3500755,-14.0171995
12224000,0.014197585,0.18354578,0.060233288,1.0551016,-0.39182642,-13.984929
12228000,0.009504238,0.18579802,0.057438027,1.0325797,-0.40364093,-13.958588
12236000,0.011858182,0.19214587,0.05959064,1.167576,-0.36108693,-13.9786825
12244000,0.017316973,0.1861797,0.06677133,1.0725724,-0.2957599,-13.909429
12248000,0.01349882,0.18276826,0.058674466,1.0854825,-0.43378782,-13.9432335
12256000,0.013713467,0.19274095,0.059315316,1.1701502,-0.46312663,-13.933906
12264000,0.01339943,0.18756478,0.05637734,1.2006222,-0.46643218,-13.946938
12268000,0.021685435,0.18423446,0.051702958,1.1854162,-0.3856116,-13.95522
12272000,0.019383367,0.18709883,0.04995601,1.1778355,-0.41873536,-13.965585
12276000,0.01600573,0.1850945,0.054214634,1.1191902,-0.46398243,-13.919751
12284000,0.010086332,0.18657249,0.056396168,1.2273703,-0.441692,-13.94497
12292000,0.010668555,0.18102498,0.049213577,1.2672051,-0.41771096,-13.911507
12296000,0.012129466,0.18189296,0.05133332,1.2963879,-0.45516673,-13.938994
12300000,0.013877529,0.18358316,0.049874213,1.2782774,-0.46803418,-13.954532
12304000,0.008914193,0.18659024,0.05302991,1.1855092,-0.42504445,-13.985033
12308000,0.005031382,0.18270798,0.0512228,1.1463829,-0.4473513,-13.948828
12312000,0.008445882,0.18082297,0.049146242,1.1372058,-0.511415,-13.906796
12320000,0.00399125,0.18332925,0.04849544,1.2284744,-0.4672967,-13.876359
12324000,0.007196866,0.18570162,0.053351864,1.1639466,-0.49482688,-13.876122
12328000,0.006735724,0.18768284,0.05700545,1.2004266,-0.48686203,-13.846537
12332000,0.00462271,0.18660581,0.054460693,1.2616953,-0.500033,-13.827917
12340000,0.001437625,0.18683724,0.052333504,1.1664971,-0.5397639,-13.826715
12344000,0.008476362,0.18424478,0.055492174,1.1574206,-0.4979578,-13.83241
12348000,0.002191781,0.18869856,0.04954202,1.147855,-0.48636568,-13.778271
12352000,-0.000210263,0.19373949,0.046261363,1.2200195,-0.53297794,-13.825061
12356000,0.002409017,0.1889727,0.048892513,1.2427483,-0.47002384,-13.859363
12364000,0.005245344,0.18118672,0.054769065,1.2669076,-0.44902557,-13.788676
12368000,0.002210998,0.18483993,0.057069093,1.2279327,-0.4381611,-13.739679
12376000,-0.005532617,0.18999998,0.05506161,1.1806093,-0.48708528,-13.784033
12380000,-0.003083921,0.18376799,0.059049543,1.2028944,-0.4614873,-13.760287
12388000,0.000426038,0.18388806,0.056728646,1.2448639,-0.51314306,-13.798979
12392000,-0.003571998,0.18585372,0.053823236,1.276164,-0.56894165,-13.784344
12396000,-0.000823598,0.18253398,0.055513326,1.3220578,-0.5018572,-13.794722
12400000,0.005184201,0.17958084,0.060768712,1.2313265,-0.499696,-13.80783
12404000,0.00224292,0.1809618,0.058643404,1.1675612,-0.4816892,-13.731613
12408000,-0.002825434,0.18726856,0.05720665,1.223444,-0.3901739,-13.795803
12412000,-0.004061968,0.18867758,0.06088338,1.2431043,-0.48735115,-13.8260565
12416000,-0.004476829,0.18951407,0.058296498,1.2138667,-0.49908203,-13.720257
12420000,-0.001904154,0.19085905,0.061785705,1.205658,-0.47410402,-13.665264
12424000,0.000499303,0.18230449,0.0618588,1.2517923,-0.53104365,-13.668077
12428000,-0.000908191,0.17930579,0.060411558,1.2946858,-0.54098135,-13.647507
12436000,9.85E-05,0.1847983,0.05947474,1.1906223,-0.47837877,-13.753733
12440000,-0.000537427,0.18172559,0.05731806,1.187267,-0.5353782,-13.668007
12444000,-0.002205579,0.18059593,0.052799206,1.2562021,-0.5093428,-13.650433
12448000,-0.001279272,0.1829102,0.056373794,1.3099737,-0.49355426,-13.722321
12452000,0.006347651,0.18557389,0.058029156,1.300317,-0.5062472,-13.756316
12456000,0.001007102,0.18966258,0.058415074,1.2762133,-0.53277266,-13.715807
12460000,-0.007409074,0.18555403,0.060633954,1.2535098,-0.5725732,-13.655992
12468000,0.000990743,0.18890332,0.059010495,1.2809445,-0.58266777,-13.711762
12472000,0.003607668,0.19310087,0.057715513,1.2491513,-0.6002996,-13.652598
12480000,0.000917867,0.19425759,0.054095156,1.3755268,-0.5075476,-13.79734
12484000,-0.003349736,0.19083598,0.054598182,1.371112,-0.49975783,-13.815023
12488000,-0.005582584,0.18587878,0.055436444,1.3868631,-0.49980602,-13.709497
12492000,-0.004317755,0.19140625,0.0577695,1.3461657,-0.5316988,-13.740217
12496000,-0.004728262,0.19599879,0.06003018,1.3001158,-0.48286864,-13.787665
12504000,0.00062511,0.18807763,0.06194184,1.3808826,-0.5049762,-13.702676
12508000,0.004334378,0.18899484,0.06490763,1.3915507,-0.48756415,-13.744636
12512000,0.001048945,0.19133428,0.06818027,1.3864665,-0.5508684,-13.799181
12520000,-0.003089396,0.19455506,0.068149254,1.2868763,-0.5363515,-13.726808
12524000,-0.003061926,0.19355913,0.070273645,1.3620064,-0.54155546,-13.754218
12528000,0.002845128,0.18830955,0.07427258,1.3853072,-0.5708828,-13.726634
12532000,0.001058697,0.18727225,0.06856983,1.3901678,-0.56273377,-13.736435
12536000,-0.005346859,0.19678922,0.06355017,1.3605627,-0.55797553,-13.742659
12540000,-0.005715882,0.1956804,0.070691645,1.3578109,-0.58506143,-13.713709
12544000,-0.002395407,0.19081447,0.06957621,1.402321,-0.53219724,-13.737381
12548000,-0.0027448,0.19668363,0.06689499,1.424047,-0.43220288,-13.784658
12556000,-0.004882274,0.19650194,0.06860343,1.4708787,-0.56527096,-13.741712
12560000,-0.004646086,0.19787201,0.0744139,1.4095911,-0.564098,-13.744917
12564000,-0.00476352,0.19307189,0.073873006,1.4177223,-0.5277741,-13.736816
12568000,-0.013218814,0.18964536,0.062526576,1.4783913,-0.550177,-13.778993
12576000,-0.008342118,0.18717492,0.066061646,1.419799,-0.5570435,-13.829935
12580000,-0.012597225,0.18663913,0.063484475,1.4678924,-0.6319563,-13.864576
12588000,-0.01279112,0.19976686,0.06983898,1.4123842,-0.6117249,-13.826489
12592000,-0.014680767,0.20580116,0.07066178,1.4297186,-0.5933548,-13.812888
12596000,-0.009056123,0.19819267,0.06890249,1.495857,-0.5390934,-13.877273
12600000,-0.008709764,0.18750636,0.063973635,1.4794582,-0.6020852,-13.885381
12604000,-0.005707737,0.19064339,0.0650046,1.4419526,-0.59323233,-13.89699
12608000,-0.004584038,0.19356358,0.068093374,1.4318477,-0.47417146,-13.877218
12616000,-0.002681733,0.19433737,0.066998854,1.3396432,-0.56595874,-13.836896
12620000,-0.004552942,0.19644135,0.06804308,1.4511398,-0.58117,-13.759055
12624000,-0.008911661,0.20226453,0.06254863,1.4480096,-0.591704,-13.723059
12628000,-0.007519261,0.20045663,0.06428197,1.4121395,-0.5508718,-13.795502
12632000,-0.002788591,0.2026577,0.062482946,1.4832429,-0.514096,-13.823714
12640000,-0.00419976,0.19562998,0.07078385,1.5181817,-0.5973279,-13.808709
12644000,-0.00533445,0.19469921,0.063628815,1.5024945,-0.5559532,-13.919438
12648000,-0.004171046,0.19800316,0.06448345,1.5006251,-0.51020485,-13.968805
12652000,-0.014887232,0.20221929,0.07462377,1.5780647,-0.49479473,-13.971427
12660000,-0.012578504,0.2084028,0.06910426,1.496685,-0.5768441,-13.904231
12664000,-0.01779562,0.20732778,0.07484286,1.4240623,-0.5693001,-13.925431
12672000,-0.015378628,0.2098732,0.06980032,1.5205339,-0.5843215,-13.828565
12676000,-0.016615901,0.20190577,0.070644155,1.5575278,-0.63229924,-13.893287
12680000,-0.014631686,0.2002346,0.0724923,1.6006339,-0.63124067,-13.918242
12684000,-0.005607387,0.20079915,0.06828798,1.5503633,-0.5640507,-13.960076
12688000,-0.003537903,0.19790448,0.06540445,1.532979,-0.56389016,-13.890588
12692000,-0.009400188,0.20205626,0.068032674,1.5520068,-0.5962174,-13.889642
12700000,-0.014281565,0.19613208,0.057376128,1.5184584,-0.6322109,-13.903754
12704000,-0.014868505,0.20378481,0.06080761,1.5305448,-0.5539204,-13.953484
12708000,-0.014279701,0.20712349,0.06674418,1.5365885,-0.55167437,-13.994907
12716000,-0.01597765,0.21515623,0.06052035,1.6186336,-0.53054625,-13.870801
12719999,-0.016516823,0.2099954,0.06262105,1.6189059,-0.5516293,-13.9187975
12728000,-0.014845249,0.20062286,0.061954763,1.5550444,-0.63433975,-13.960701
12731999,-0.011965795,0.2024619,0.06616527,1.604301,-0.58145416,-14.067398
12736000,-0.007677644,0.2001012,0.058729485,1.6704323,-0.601736,-14.031868
12740000,-0.012024274,0.20559983,0.05499666,1.6342515,-0.66291267,-13.989289
12744000,-0.015980406,0.20484054,0.0609094,1.584471,-0.650588,-14.031165
12748000,-0.017217547,0.20568097,0.062289048,1.6676322,-0.6487813,-14.017083
12751999,-0.012966037,0.21051486,0.060062215,1.6654851,-0.6631666,-13.9367075
12756000,-0.012582581,0.20595439,0.05973281,1.624933,-0.6699669,-13.918384
12760000,-0.020477653,0.20273025,0.060891684,1.6551944,-0.6847839,-14.033591
12768000,-0.017910823,0.21139386,0.058405437,1.6654153,-0.6015084,-13.995483
12772000,-0.015157217,0.21055174,0.057346366,1.666872,-0.623622,-14.0089855
12776000,-0.013600512,0.20948182,0.061614405,1.6155955,-0.57280934,-14.011657
12780000,-0.015702019,0.21185708,0.06319691,1.6553296,-0.5752055,-14.004299
12783999,-0.012307769,0.2101,0.061317924,1.7525306,-0.5925454,-14.101393
12788000,-0.006055513,0.2091927,0.064577006,1.6864533,-0.6436213,-14.04857
12792000,-0.011217267,0.21344197,0.06571024,1.6168722,-0.6438588,-14.039849
12800000,-0.02471272,0.20557785,0.06491418,1.7350997,-0.65197855,-14.034289
12808000,-0.016831482,0.20910947,0.061006363,1.6792053,-0.67471564,-14.102262
12812000,-0.015576863,0.20586804,0.06074742,1.6303729,-0.64592785,-14.022175
12820000,-0.017311305,0.20990936,0.056296796,1.6981375,-0.6236385,-14.074625
12824000,-0.011347664,0.2094686,0.056198467,1.6545378,-0.606546,-14.040143
12827999,-0.01118089,0.2049451,0.059470568,1.6798272,-0.617221,-14.072805
12832000,-0.014984902,0.2000611,0.06732454,1.7043341,-0.65051484,-14.06107
12836000,-0.018235737,0.1966874,0.065757774,1.700484,-0.68314934,-13.982065
12840000,-0.016617188,0.19492894,0.056745116,1.709994,-0.5719117,-13.86576
12844000,-0.01697865,0.18953098,0.05814495,1.6575812,-0.6204813,-13.883497
12847999,-0.01678478,0.18593848,0.0609888,1.7383595,-0.7160735,-13.981048
12852000,-0.020064645,0.18745336,0.06258579,1.8111944,-0.7202382,-13.971722
12856000,-0.019519994,0.18581109,0.054827165,1.7826823,-0.68085015,-13.970096
12859999,-0.013717495,0.18187611,0.050499257,1.8392366,-0.6250234,-13.945915
12864000,-0.013073324,0.17995495,0.05849039,1.8018109,-0.6570562,-13.8954115
12868000,-0.014146125,0.18322955,0.05929732,1.7267612,-0.6969724,-13.914644
12872000,-0.03131688,0.18489563,0.062489383,1.7713382,-0.72125715,-13.898749
12876000,-0.06319268,0.1824881,0.05929247,1.7928486,-0.6403263,-13.850151
