timestamp,roll_body,pitch_body,yaw_body,q_d[0],q_d[1],q_d[2],q_d[3],thrust_body[0]
9160000,0.007962049,0,2.4050531,0.35999888,0.001433172,0.003714093,0.93294424,0.15
9184000,0.007928477,0,2.4050531,0.3599989,0.001427129,0.003698433,0.9329443,0.15
9208000,0.007913636,0,2.4050531,0.35999894,0.001424458,0.00369151,0.93294436,0.15
9232000,0.007867409,0,2.4050531,0.35999894,0.001416137,0.003669947,0.9329444,0.15
9256000,0.007884262,0,2.3550196,0.38322312,0.001510724,0.003641158,0.9236474,0.15
9280000,0.007886454,0,2.3550196,0.38322312,0.001511144,0.00364217,0.9236474,0.15
9304000,0.007937334,0,2.3550196,0.3832231,0.001520893,0.003665668,0.9236473,0.15
9328000,0.007898822,0,2.3550196,0.38322312,0.001513513,0.003647882,0.92364734,0.15
9352000,0.007807578,0,2.292442,0.41193068,0.001608098,0.003557177,0.9112068,0.15
9376000,0.007702778,0,2.292442,0.41193077,0.001586513,0.00350943,0.911207,0.15
9400000,0.00774591,0,2.292442,0.4119307,0.001595397,0.003529081,0.9112069,0.15
9424000,0.007631158,0,2.2328331,0.4389019,0.001674673,0.003428417,0.89852685,0.15
9448000,0.007695708,0,2.2328331,0.43890184,0.001688839,0.003457417,0.8985268,0.15
9472000,0.00761422,0,2.1756206,0.46442235,0.001768115,0.003371614,0.88560563,0.15
9496000,0.007551898,0,2.1203663,0.4887088,0.001845348,0.0032943,0.8724387,0.15
9520000,0.007529785,0,2.1203663,0.48870882,0.001839945,0.003284654,0.8724388,0.15
9544000,0.007429994,0,2.1203663,0.4887089,0.001815561,0.003241123,0.87243897,0.15
9568000,0.007198663,0,2.0667312,0.51192725,0.001842604,0.003091916,0.8590212,0.15
9592000,0.00733077,0,2.0667312,0.5119271,0.001876419,0.003148657,0.859021,0.15
9616000,0.007289911,0,2.0667312,0.5119272,0.00186596,0.003131107,0.8590211,0.15
9640000,0.007041958,0,2.0144386,0.5342101,0.00188095,0.002976452,0.84534436,0.15
9664000,0.00701003,0,2.0144386,0.53421015,0.001872422,0.002962957,0.8453444,0.15
9688000,0.006800692,0,1.9632561,0.5556665,0.001889466,0.002827053,0.8313983,0.15
9712000,0.006644582,0,1.9632561,0.5556666,0.001846093,0.002762158,0.83139855,0.15
9736000,0.006224296,0,1.9129969,0.5763821,0.001793792,0.002543176,0.8171744,0.15
9760000,0.006101218,0,1.9129969,0.5763822,0.001758322,0.002492888,0.8171745,0.15
9784000,0.005899311,0,1.8634858,0.5964333,0.001759278,0.002367569,0.8026572,0.15
9808000,0.005705354,0,1.814578,0.6158813,0.001756915,0.002247441,0.78783375,0.15
9832000,0.0054785,0,1.7661377,0.63478047,0.001738827,0.00211659,0.7726877,0.15
9856000,0.005261619,0,1.7180433,0.6531763,0.001718386,0.001992057,0.75720125,0.15
9880000,0.004998542,0,1.6701794,0.67110914,0.001677287,0.00185285,0.7413544,0.15
9904000,0.004579606,0,1.6701794,0.67110944,0.001536711,0.001697559,0.74135476,0.15
9928000,0.0040278,0,1.6207169,0.6892374,0.001388057,0.001459139,0.7245328,0.15
9952000,0.004027882,0,1.6207169,0.6892374,0.001388085,0.001459168,0.7245328,0.15
9976000,0.003160519,0,1.5729882,0.70633054,0.001116186,0.001118636,0.7078804,0.15
10000000,0.003226259,0,1.5729882,0.7063305,0.001139404,0.001141904,0.7078803,0.15
10024000,0.003466115,0,1.5729882,0.70633036,0.001224112,0.001226798,0.7078802,0.15
10048000,0.00355827,0,1.5729882,0.7063303,0.001256658,0.001259416,0.70788014,0.15
10072000,0.003366304,0,1.5729882,0.7063304,0.001188863,0.001191471,0.70788026,0.15
10096000,0.003456268,0,1.5729882,0.70633036,0.001220635,0.001223313,0.7078802,0.15
10120000,0.003517608,0,1.5729882,0.70633036,0.001242298,0.001245024,0.7078802,0.15
10144000,0.003780369,0,1.5729882,0.7063302,0.001335096,0.001338025,0.70788,0.15
10168000,0.003449506,0,1.5729882,0.70633036,0.001218247,0.00122092,0.7078802,0.15
10192000,0.003480609,0,1.5729882,0.70633036,0.001229231,0.001231928,0.7078802,0.15
10216000,0.003713467,0,1.5729882,0.70633024,0.001311468,0.001314346,0.70788,0.15
10240000,0,0,1.6169364,0.6906071,0,0,0.7232302,0
10264000,0,0,1.6169364,0.6906071,0,0,0.7232302,1
10288000,0,0,1.6169364,0.6906071,0,0,0.7232302,1
10312000,0,0,1.6169364,0.6906071,0,0,0.7232302,1
10336000,0,0,1.6169364,0.6906071,0,0,0.7232302,1
10360000,0,0,1.6169364,0.6906071,0,0,0.7232302,1
10384000,0,0,1.6169364,0.6906071,0,0,0.7232302,1
10408000,0,0,1.6169364,0.6906071,0,0,0.7232302,1
10432000,0,0,1.6169364,0.6906071,0,0,0.7232302,1
10456000,0,0,1.6169364,0.6906071,0,0,0.7232302,1
10480000,0,0,1.6169364,0.6906071,0,0,0.7232302,1
10504000,0,0,1.6169364,0.6906071,0,0,0.7232302,1
10528000,0,0,1.6169364,0.6906071,0,0,0.7232302,1
10552000,0,0,1.6169364,0.6906071,0,0,0.7232302,1
10576000,0,0,1.6169364,0.6906071,0,0,0.7232302,1
10600000,0,0,1.6169364,0.6906071,0,0,0.7232302,1
10624000,0,0,1.6169364,0.6906071,0,0,0.7232302,1
10648000,0,0,1.6169364,0.6906071,0,0,0.7232302,1
10672000,0,0,1.6169364,0.6906071,0,0,0.7232302,1
10696000,0,0,1.6169364,0.6906071,0,0,0.7232302,1
10720000,0,-0.28805277,1.6169364,0.6834566,0.103804484,-0.09912212,0.71574193,1
10744000,0,-0.27313632,1.6169364,0.68417686,0.09846348,-0.094022036,0.7164962,1
10768000,0,-0.2591226,1.6169364,0.68481886,0.09344071,-0.089225836,0.71716857,1
10792000,0,-0.2460334,1.6169364,0.68538815,0.08874516,-0.08474209,0.71776474,1
10816000,0,-0.23370965,1.6169364,0.6858973,0.08432073,-0.08051723,0.7182979,1
10840000,0,-0.22202705,1.6169364,0.68635595,0.08012352,-0.07650935,0.7187782,1
10864000,0,-0.21088646,1.6169364,0.68677145,0.0761185,-0.07268498,0.71921337,1
10888000,0,-0.20028593,1.6169364,0.687147,0.07230542,-0.069043905,0.7196067,1
10912000,0,-0.19014435,1.6169364,0.6874883,0.06865553,-0.06555865,0.7199641,1
10936000,0,-0.1803954,1.6169364,0.68779975,0.065145284,-0.06220674,0.72029024,1
10960000,0,-0.17098404,1.6169364,0.68808484,0.061755117,-0.058969498,0.7205888,1
10984000,0,-0.16191289,1.6169364,0.68834525,0.05848621,-0.055848043,0.7208615,1
11008000,0,-0.15313509,1.6169364,0.6885837,0.05532187,-0.052826438,0.72111124,1
11032000,0,-0.14461105,1.6169364,0.6888026,0.052247982,-0.049891207,0.7213405,1
11056000,0,-0.13630693,1.6169364,0.6890038,0.04925249,-0.047030833,0.7215512,1
11080000,0,-0.12819365,1.6169364,0.6891889,0.04632502,-0.044235412,0.721745,1
11104000,0,-0.12028647,1.6169364,0.6893584,0.043471187,-0.04151031,0.7219226,1
11128000,0,-0.11255862,1.6169364,0.6895136,0.04068141,-0.038846374,0.7220851,1
11152000,0,-0.10498679,1.6169364,0.6896558,0.03794737,-0.03623566,0.72223395,1
11176000,0,-0.0975506,1.6169364,0.6897857,0.035261784,-0.03367121,0.72237,1
11200000,0,-0.09024888,1.6169364,0.6899041,0.032624286,-0.031152684,0.722494,1
11224000,0,-0.08306413,1.6169364,0.6900115,0.030028608,-0.028674092,0.7226065,1
11248000,0,-0.07598085,1.6169364,0.6901088,0.027469212,-0.026230145,0.72270834,1
11272000,0,-0.068985224,1.6169364,0.6901963,0.024941152,-0.023816118,0.7228,1
11296000,0,-0.06207844,1.6169364,0.6902744,0.022444895,-0.021432461,0.72288185,1
11320000,0,-0.055248328,1.6169364,0.69034356,0.019976089,-0.019075017,0.7229543,1
11344000,0,-0.048483964,1.6169364,0.6904041,0.017530816,-0.016740045,0.72301763,1
11368000,0,-0.04177546,1.6169364,0.6904564,0.015105539,-0.014424166,0.7230724,1
11392000,0,-0.035121728,1.6169364,0.69050056,0.012699894,-0.012127033,0.72311866,1
11416000,0,-0.028514147,1.6169364,0.6905369,0.010310796,-0.009845702,0.7231567,1
11440000,0,-0.021944877,1.6169364,0.69056547,0.007935439,-0.007577492,0.7231867,1
11464000,0,-0.015406787,1.6169364,0.69058657,0.005571272,-0.005319966,0.7232087,1
11488000,0,-0.008898943,1.6169364,0.6906002,0.003217981,-0.003072826,0.72322303,1
11512000,0,-0.002415093,1.6169364,0.6906066,0.000873334,-0.00083394,0.72322965,1
11536000,0,0.004050467,1.6169364,0.6906057,-0.001464709,0.00139864,0.7232287,1
11560000,0,0.010502978,1.6169364,0.69059753,-0.003798018,0.003626699,0.7232202,1
11584000,0,0.016943678,1.6169364,0.6905823,-0.006127016,0.005850642,0.72320426,1
11608000,0,0.02337712,1.6169364,0.6905599,-0.008453327,0.008072019,0.7231808,1
11632000,0,0.029807493,1.6169364,0.69053036,-0.01077844,0.010292252,0.7231499,1
11656000,0,0.03623862,1.6169364,0.6904937,-0.013103714,0.012512638,0.72311145,1
11680000,0,0.042674,1.6169364,0.6904499,-0.015430393,0.014734366,0.72306556,1
11704000,0,0.0491131,1.6169364,0.6903989,-0.017758252,0.016957222,0.72301215,1
11728000,0,0.055558953,1.6169364,0.69034064,-0.020088373,0.019182235,0.7229512,1
11752000,0,0.062014353,1.6169364,0.6902751,-0.022421733,0.021410344,0.7228825,1
11776000,0,0.06848184,1.6169364,0.6902023,-0.024759227,0.0236424,0.7228063,1
11800000,0,0.074963026,1.6169364,0.69012207,-0.027101414,0.025878936,0.72272223,1
11824000,0,0.08146004,1.6169364,0.69003433,-0.029449034,0.028120661,0.7226304,1
11848000,0,0.087974794,1.6169364,0.6899391,-0.031802755,0.030368213,0.7225306,1
11872000,0,0.09450902,1.6169364,0.68983614,-0.03416317,0.032622155,0.72242284,1
11896000,0,0.10106331,1.6169364,0.6897256,-0.03653047,0.03488267,0.722307,1
11920000,0,0.10763907,1.6169364,0.68960714,-0.038905125,0.03715021,0.722183,1
11944000,0,0.114237525,1.6169364,0.6894808,-0.041287553,0.039425176,0.7220507,1
11968000,0,0.12085976,1.6169364,0.6893465,-0.043678116,0.041707907,0.72191006,1
11992000,0,0.12750599,1.6169364,0.6892041,-0.046076864,0.04399845,0.7217609,1
12016000,0,0.13417704,1.6169364,0.6890535,-0.048484057,0.046297062,0.7216032,1
12040000,0,0.14087364,1.6169364,0.68889457,-0.050899923,0.048603956,0.7214368,1
12064000,0,0.14759637,1.6169364,0.6887273,-0.053324644,0.0509193,0.7212617,1
12088000,0,0.15434662,1.6169364,0.6885516,-0.055758677,0.05324354,0.7210776,1
12112000,0,0.1611247,1.6169364,0.6883672,-0.058202118,0.055576764,0.72088444,1
12136000,0,0.16793086,1.6169364,0.688174,-0.060654998,0.057919003,0.7206822,1
12160000,0,0.17476517,1.6169364,0.6879721,-0.063117325,0.06027026,0.7204708,1
12184000,0,0.18162903,1.6169364,0.6877612,-0.065589555,0.062630974,0.7202499,1
12208000,0,0.18852235,1.6169364,0.68754125,-0.06807162,0.06500108,0.7200196,1
12232000,0,0.19544496,1.6169364,0.6873121,-0.07056341,0.06738047,0.7197796,1
12256000,0,0.20239654,1.6169364,0.6870738,-0.07306478,0.06976901,0.71953005,1
12280000,0,0.20937672,1.6169364,0.6868261,-0.07557556,0.07216653,0.71927065,1
12304000,0,0.21638493,1.6169364,0.68656904,-0.07809549,0.074572794,0.7190014,1
12328000,0,0.22342066,1.6169364,0.6863024,-0.08062435,0.07698759,0.7187222,1
12352000,0,0.23048335,1.6169364,0.6860263,-0.0831619,0.07941067,0.718433,1
12376000,0,0.23757237,1.6169364,0.68574053,-0.085707866,0.0818418,0.71813375,1
12400000,0,0.24468845,1.6169364,0.68544495,-0.08826246,0.08428116,0.7178242,1
12424000,0,0.25183085,1.6169364,0.6851396,-0.09082539,0.08672848,0.71750444,1
12448000,0,0.25899878,1.6169364,0.6848244,-0.09339631,0.089183435,0.71717435,1
12472000,0,0.26619142,1.6169364,0.68449926,-0.09597489,0.09164571,0.71683383,1
12496000,0,0.27340832,1.6169364,0.68416405,-0.09856093,0.094115086,0.7164828,1
12520000,0,0.28064856,1.6169364,0.6838189,-0.10115403,0.09659122,0.7161214,1
12544000,0,0.28791118,1.6169364,0.68346363,-0.103753805,0.09907373,0.71574926,1
12568000,0,0.2951952,1.6169364,0.68309826,-0.10635988,0.10156225,0.71536666,1
12592000,0,0.30250105,1.6169364,0.68272275,-0.10897234,0.10405687,0.7149734,1
12616000,0,0.30982772,1.6169364,0.6823369,-0.11159079,0.106557205,0.7145694,1
12640000,0,0.31717414,1.6169364,0.6819409,-0.1142148,0.10906285,0.71415466,1
12664000,0,0.32453924,1.6169364,0.68153465,-0.11684394,0.1115734,0.7137292,1
12688000,0,0.33192393,1.6169364,0.6811181,-0.119478464,0.11408909,0.7132929,1
12712000,0,0.33932707,1.6169364,0.6806911,-0.12211794,0.1166095,0.7128458,1
12736000,0,0.34674755,1.6169364,0.68025374,-0.124761924,0.119134225,0.7123878,1
12760000,0,0.34906584,1.6169364,0.68011516,-0.1255876,0.11992266,0.71224266,1
12783999,0,0.34906584,1.6169364,0.68011516,-0.1255876,0.11992266,0.71224266,1
12808000,0,0.34906584,1.6169364,0.68011516,-0.1255876,0.11992266,0.71224266,1
12832000,0,0.34906584,1.6169364,0.68011516,-0.1255876,0.11992266,0.71224266,1
12856000,-0.34797478,0.34906584,1.5605102,0.6682227,-0.24147706,0.001627706,0.70367926,1
12879999,-0.32886124,0.34906584,1.5604571,0.67051864,-0.23507984,0.008358672,0.70361376,1
12904000,-0.3329654,0.34906584,1.5603508,0.6700722,-0.23645495,0.006927356,0.70359385,1
12928000,-0.34720045,0.34906584,1.5535012,0.6707781,-0.24121019,0.002745472,0.70133215,1
12952000,-0.35079384,0.34906584,1.5534343,0.6703672,-0.24241492,0.001493514,0.7013135,1
12975999,-0.35413262,0.34906584,1.5533139,0.67000365,-0.24353367,0.000337407,0.7012747,1
13000000,-0.35711753,0.34906584,1.5531931,0.6696818,-0.24453339,-0.000694461,0.7012339,1
13024000,-0.36967054,0.34906584,1.5463312,0.6705358,-0.24874784,-0.004242308,0.6989194,1
13048000,-0.37188527,0.34906584,1.546198,0.67030644,-0.24949053,-0.00499963,0.6988696,1
13071999,-0.3736952,0.34906584,1.5461192,0.67010784,-0.25009727,-0.005622238,0.6988384,1
13096000,-0.37556595,0.34906584,1.5459889,0.66991925,-0.25072438,-0.006259576,0.6987892,1
13120000,-0.3869577,0.34906584,1.5390725,0.67089266,-0.25456995,-0.009359367,0.6964263,1
13144000,-0.38813096,0.34906584,1.5389345,0.67079127,-0.25496414,-0.009750322,0.6963744,1
13167999,-0.3889404,0.34906584,1.538797,0.6707359,-0.2552363,-0.010014609,0.6963243,1
13192000,-0.38943616,0.34906584,1.5387142,0.6707014,-0.25540298,-0.010176629,0.69629395,1
13216000,-0.3995872,0.34906584,1.5317008,0.67183375,-0.2588503,-0.012802921,0.6938817,1
13240000,-0.39965653,0.34906584,1.531613,0.67185533,-0.25887418,-0.012815602,0.6938518,1
13263999,-0.39943916,0.34906584,1.5314714,0.67193264,-0.25880206,-0.012721874,0.6938057,1
13288000,-0.40877312,0.34906584,1.5244832,0.67313737,-0.26198927,-0.015044361,0.6913909,1
13312000,-0.40849093,0.34906584,1.5243415,0.6732233,-0.26189533,-0.014928259,0.69134533,1
13336000,-0.40801522,0.34906584,1.5241984,0.6733351,-0.26173627,-0.014745101,0.6913007,1
13359999,-0.40722808,0.34906584,1.5241114,0.67346805,-0.26147187,-0.014461651,0.6912771,1
13384000,-0.4160507,0.34906584,1.5170417,0.6747471,-0.26450044,-0.016576082,0.6888258,1
13408000,-0.41496474,0.34906584,1.5169476,0.6749231,-0.2641348,-0.016189627,0.68880296,1
13432000,-0.41362965,0.34906584,1.5167994,0.6751503,-0.26368535,-0.015710287,0.6887636,1
13455999,-0.41212404,0.34906584,1.5167077,0.67538023,-0.26317775,-0.015179701,0.6887442,1
13480000,-0.42005914,0.34906584,1.5096043,0.67677236,-0.26591718,-0.016967855,0.68627924,1
13504000,-0.4184041,0.34906584,1.5095125,0.6770237,-0.2653578,-0.016387768,0.68626195,1
13528000,-0.4167677,0.34906584,1.5093697,0.67728966,-0.2648049,-0.015807323,0.6862268,1
13552000,-0.4148499,0.34141994,1.5092819,0.6785728,-0.2617299,-0.017915234,0.686087,0.3991574
13576000,-0.42245194,0.33377612,1.502139,0.6810168,-0.26196337,-0.022363454,0.68344074,0.42169553
13600000,-0.41980734,0.32613066,1.5018,0.6824634,-0.25864553,-0.024200968,0.68319875,0.44330966
13624000,-0.41677627,0.3184826,1.5014476,0.6839466,-0.25518873,-0.025906913,0.6829528,0.46371356
13648000,-0.4136239,0.31083113,1.5010226,0.68545127,-0.2516836,-0.027564831,0.68268,0.48290652
13672000,-0.4198358,0.30317548,1.4935204,0.6881774,-0.25149733,-0.031530887,0.6798284,0.50085396
13696000,-0.416486,0.29550627,1.4930536,0.6896994,-0.24791889,-0.03313721,0.67952394,0.51866263
13720000,-0.41303432,0.2878234,1.4926486,0.69119406,-0.2442931,-0.034723304,0.6792392,0.53510696
13744000,-0.40956616,0.28012702,1.4921923,0.692689,-0.24065137,-0.036304094,0.67893356,0.55020136
13768000,-0.41553587,0.27241737,1.4845353,0.69547653,-0.24041814,-0.04022813,0.6759387,0.5639661
13792000,-0.41189662,0.2646869,1.4840755,0.6969709,-0.23670533,-0.041778356,0.6756157,0.57745594
13816000,-0.4082334,0.25693643,1.4836931,0.69842255,-0.23296922,-0.043338686,0.675317,0.58965445
13840000,-0.40461224,0.24916683,1.4832768,0.69986093,-0.22923559,-0.04491786,0.67500234,0.6006376
13864000,-0.4106956,0.24137917,1.4755583,0.7026348,-0.22906983,-0.04894243,0.6718899,0.61042994
13888000,-0.40723106,0.23356666,1.4751843,0.70401907,-0.22537589,-0.050610118,0.6715664,0.62009376
13912000,-0.4039669,0.22573073,1.474914,0.7053273,-0.22173601,-0.052366585,0.67127067,0.6286616
13936000,-0.40082625,0.21787293,1.4746196,0.7066115,-0.21812713,-0.0541709,0.6709593,0.63622004
13960000,-0.39772648,0.20999484,1.4744151,0.7078426,-0.21451777,-0.056007005,0.67067444,0.642842
13984000,-0.40433347,0.20209366,1.4667646,0.71051353,-0.2145598,-0.060306855,0.6674561,0.64911747
14008000,-0.40134656,0.19702648,1.4665513,0.7114244,-0.2118887,-0.061156362,0.66726184,0.65455776
14032000,-0.39837697,0.19832924,1.4664314,0.7116456,-0.21125153,-0.059672274,0.66736233,0.6592206
14056000,-0.39558703,0.1994857,1.4662851,0.711871,-0.21063206,-0.05829914,0.6674392,0.66315866
14080000,-0.39263088,0.20051004,1.4662243,0.712098,-0.20990843,-0.05692809,0.6675433,0.66643506
14104000,-0.39963412,0.201312,1.4586303,0.7138052,-0.21287873,-0.058161423,0.6646668,0.66986334
14128000,-0.39686146,0.2020238,1.4586172,0.7140313,-0.21211538,-0.05697497,0.6647707,0.67269284
14152000,-0.39415714,0.20265423,1.4585599,0.7142724,-0.2113516,-0.05583655,0.6648517,0.6749952
14176000,-0.39121884,0.20321375,1.4585652,0.71452355,-0.21047965,-0.05465302,0.66495675,0.6768107
14200000,-0.38828304,0.20367403,1.4585133,0.71480244,-0.20957829,-0.05350092,0.6650353,0.67840993
14224000,-0.39494392,0.20408924,1.4510452,0.71653575,-0.21229558,-0.054769367,0.6621989,0.6795889
14248000,-0.39166257,0.20445995,1.4510609,0.7168402,-0.21123652,-0.05354674,0.6623081,0.6803938
14272000,-0.3883198,0.20478866,1.451016,0.7171739,-0.2101433,-0.052312814,0.6623932,0.6808374
14296000,-0.3847936,0.2050668,1.4510232,0.7175129,-0.20896643,-0.051042244,0.66249764,0.68105614
14320000,-0.38138473,0.20531818,1.4509832,0.71785605,-0.20782378,-0.049815357,0.6625785,0.68097
14344000,-0.37774664,0.20554397,1.4509964,0.7182061,-0.20658886,-0.048527397,0.66268104,0.68064016
14368000,-0.38405514,0.20574595,1.4434879,0.7200127,-0.20910546,-0.04975766,0.6598338,0.6800723
14392000,-0.38023457,0.2059191,1.4434912,0.72039247,-0.20778419,-0.04843285,0.6599353,0.6793443
14416000,-0.37645373,0.20608029,1.443429,0.72078854,-0.2064743,-0.047118634,0.66000915,0.6784206
14440000,-0.3724957,0.20622946,1.4434249,0.72118235,-0.20509464,-0.045756303,0.660105,0.6773334
14464000,-0.3685891,0.2063649,1.4433575,0.7215906,-0.20372987,-0.044409417,0.66017354,0.6761058
14488000,-0.36456257,0.20648028,1.4433471,0.7219914,-0.2023134,-0.04303609,0.66026175,0.6748064
14512000,-0.3605986,0.20658918,1.443274,0.72240454,-0.20091799,-0.041679367,0.660323,0.6733969
14536000,-0.3667826,0.2066898,1.4358358,0.7242203,-0.20334356,-0.04292737,0.6575056,0.67187405
14560000,-0.3628819,0.20678373,1.4357744,0.7246266,-0.20196152,-0.041603543,0.65756905,0.6702678
14584000,-0.35884994,0.20687142,1.435773,0.72502434,-0.20052792,-0.040244803,0.657654,0.66855985
14608000,-0.35489288,0.20695846,1.435699,0.7254355,-0.19912192,-0.038903557,0.6577083,0.66679627
14632000,-0.35075316,0.20704216,1.4356804,0.7258443,-0.19764668,-0.037508897,0.6577833,0.664979
14656000,-0.34664595,0.20712155,1.4355991,0.7262679,-0.19618219,-0.03612028,0.6578319,0.66313344
14680000,-0.34241214,0.20719811,1.4355752,0.72668225,-0.19466889,-0.0346966,0.6579006,0.66124403
14704000,-0.33823743,0.2072385,1.4354858,0.72711265,-0.19316587,-0.033299483,0.6579403,0.6595676
14728000,-0.33399457,0.20728253,1.4354677,0.7275226,-0.19163711,-0.03188537,0.658004,0.65784305
14752000,-0.34024656,0.20732698,1.4279597,0.7293805,-0.19405045,-0.03319723,0.65516907,0.6561095
14776000,-0.33599573,0.20737623,1.427933,0.72979546,-0.19251567,-0.03178356,0.65522987,0.65436274
14800000,-0.33187565,0.2074354,1.4278438,0.7302142,-0.19103184,-0.030402906,0.65526307,0.65250844
14824000,-0.32761133,0.20750079,1.4278102,0.7306249,-0.18949556,-0.028977923,0.65531594,0.6506605
14848000,-0.32347837,0.2075655,1.4277104,0.7310417,-0.18800712,-0.027589917,0.6553397,0.64881486
14872000,-0.31918266,0.20762895,1.4276608,0.7314544,-0.18645716,-0.026153773,0.65538096,0.6469928
14896000,-0.31493926,0.20769708,1.4275534,0.7318774,-0.18492763,-0.024727605,0.6553974,0.64515233
14920000,-0.3106075,0.20776835,1.4275022,0.7322867,-0.1833651,-0.023276486,0.65543246,0.643325
14944000,-0.306424,0.20783824,1.4273957,0.7326973,-0.18185619,-0.021869421,0.6554423,0.6415072
14968000,-0.30213112,0.2079091,1.4273454,0.73309624,-0.18030599,-0.02043128,0.655471,0.63972026
14992000,-0.29794163,0.20795527,1.4272376,0.7335037,-0.17878556,-0.019031167,0.6554738,0.638113
15016000,-0.29368657,0.20800984,1.4271793,0.7338968,-0.17724237,-0.01761084,0.6554926,0.6365181
15040000,-0.28929076,0.20806208,1.4271237,0.7342983,-0.17564589,-0.016145512,0.65551037,0.6349193
15064000,-0.285099,0.20811722,1.4270005,0.73470044,-0.17412485,-0.014740095,0.65549856,0.6333449
15088000,-0.29165512,0.20817183,1.4195008,0.7365737,-0.17661162,-0.016206048,0.6526905,0.63180554
15112000,-0.28751087,0.20823148,1.4193673,0.7369766,-0.17510477,-0.014819309,0.65267473,0.6302734
15136000,-0.28340578,0.20828882,1.4193025,0.7373507,-0.17361021,-0.013452321,0.652681,0.6287477
15160000,-0.2794186,0.2083488,1.4191738,0.7377323,-0.17215958,-0.012117341,0.6526602,0.6272652
15184000,-0.2752814,0.2084032,1.419098,0.7381071,-0.17065072,-0.010740176,0.6526569,0.6258552
15208000,-0.27125213,0.2084587,1.4189562,0.73849106,-0.16918156,-0.009392299,0.6526258,0.62447006
15232000,-0.26724815,0.20851257,1.4188732,0.7388509,-0.16772011,-0.008058384,0.6526135,0.62308675
15256000,-0.2633158,0.20856687,1.4187306,0.7392213,-0.1662847,-0.006742805,0.6525762,0.6217179
15280000,-0.25931147,0.20862298,1.4186467,0.73957556,-0.16482228,-0.005408078,0.6525582,0.62036073
15304000,-0.25538483,0.20868799,1.4184958,0.7399418,-0.16339082,-0.004089944,0.6525127,0.6189288
15328000,-0.25143415,0.2087523,1.4183964,0.74029046,-0.16194934,-0.002768606,0.65248364,0.6175208
15352000,-0.24770318,0.20881425,1.4182419,0.74063677,-0.16058779,-0.001515538,0.65243125,0.6161403
15376000,-0.2439301,0.20887452,1.4181424,0.7409661,-0.15920934,-0.000253946,0.6523968,0.614801
15400000,-0.2401747,0.2088864,1.4179842,0.74131435,-0.15782145,0.000988036,0.6523376,0.61382073
15424000,-0.2364913,0.20891094,1.4178891,0.74163294,-0.15646358,0.002206177,0.6522997,0.61284435
15448000,-0.2329431,0.2089264,1.4177256,0.7419615,-0.15515222,0.00338196,0.6522343,0.61186814
15472000,-0.22927515,0.2089488,1.4176223,0.7422766,-0.15379807,0.004594564,0.6521888,0.61091065
15496000,-0.22571719,0.20895432,1.4174693,0.74259865,-0.15247867,0.005768552,0.6521229,0.61006
15520000,-0.22219053,0.20896684,1.4173769,0.74289554,-0.15117264,0.006930172,0.6520775,0.6091864
15544000,-0.21881516,0.20898224,1.4172299,0.74319637,-0.14992294,0.008047521,0.6520103,0.60830677
15568000,-0.21553595,0.20900044,1.4171416,0.74346864,-0.14870957,0.009130009,0.6519636,0.6074116
15592000,-0.21224503,0.20899904,1.416995,0.74376017,-0.14748481,0.010213062,0.65189314,0.6066436
15616000,-0.20895024,0.20900974,1.4169062,0.7440303,-0.14626224,0.011297517,0.6518425,0.60587454
15640000,-0.2057025,0.20902096,1.4167569,0.74431473,-0.1450565,0.012371101,0.65176773,0.6050918
15664000,-0.202521,0.20904091,1.4166625,0.74457383,-0.14387801,0.013422236,0.6517122,0.6043266
15688000,-0.1995025,0.20905551,1.4165066,0.74483985,-0.14275761,0.014422469,0.6516332,0.60352474
15712000,-0.19638069,0.20908053,1.416407,0.74509245,-0.141602,0.01545614,0.6515729,0.6027298
15736000,-0.19342789,0.20910585,1.416255,0.7453484,-0.14050859,0.016438384,0.6514928,0.6019258
15760000,-0.19047962,0.20913778,1.4161707,0.74557996,-0.13941914,0.01741673,0.6514365,0.6011056
15784000,-0.18758236,0.20915149,1.4160281,0.74582666,-0.13834196,0.018375471,0.6513574,0.60039574
15808000,-0.18468365,0.2091754,1.4159391,0.74605376,-0.13726759,0.01933467,0.651297,0.59967136
15832000,-0.18195984,0.20919938,1.4157903,0.74628663,-0.13625754,0.020240892,0.6512144,0.5989316
15856000,-0.17909127,0.2092263,1.4156942,0.74651086,-0.13519458,0.0211916,0.6511489,0.59818506
15880000,-0.1648275,0.20925593,1.423024,0.7450633,-0.12997046,0.025370032,0.6537161,0.5974423
15904000,-0.16221294,0.20926337,1.422923,0.7452652,-0.1289974,0.026233934,0.65364474,0.5969019
15928000,-0.15969768,0.2092724,1.4227688,0.7454765,-0.12806085,0.027069237,0.6535537,0.59633017
15952000,-0.15729089,0.20929177,1.4226863,0.74565583,-0.12716872,0.027868267,0.6534898,0.5957542
15976000,-0.15486647,0.20931241,1.4225386,0.74585634,-0.12626922,0.028677557,0.65340036,0.59516627
16000000,-0.15247533,0.20935196,1.4224509,0.74603283,-0.12538877,0.029479168,0.6533326,0.5944296
16024000,-0.15014441,0.20939668,1.4223038,0.7462237,-0.12453135,0.030266646,0.6532427,0.5936837
16048000,-0.14784546,0.20944378,1.4222229,0.74638987,-0.123687364,0.031040344,0.653177,0.5929115
16072000,-0.14563371,0.20949198,1.422132,0.74655277,-0.122875884,0.031786475,0.6531081,0.5921364
16096000,-0.14356206,0.2094909,1.4219773,0.74673027,-0.12209967,0.032471992,0.653017,0.59176314
16120000,-0.14146517,0.2094898,1.4218776,0.7468904,-0.12131469,0.03316225,0.6529454,0.59136665
16144000,-0.13952687,0.20949908,1.421725,0.7470569,-0.12059118,0.033807755,0.6528559,0.59096324
16168000,-0.13759974,0.2095063,1.4216391,0.74720037,-0.11987214,0.034444693,0.6527909,0.5905184
16192000,-0.13581564,0.20950235,1.4214935,0.74735475,-0.11920172,0.035034183,0.65270555,0.590183
16216000,-0.1339396,0.20949797,1.4214001,0.74749696,-0.118497565,0.035650298,0.6526374,0.5898127
16240000,-0.1322368,0.20950322,1.4212494,0.74764645,-0.117860064,0.036216803,0.6525505,0.5894279
16264000,-0.13051033,0.20950693,1.4211622,0.74777615,-0.1172142,0.036786605,0.6524864,0.5890016
16288000,-0.11707775,0.2095362,1.4285194,0.7461405,-0.11234944,0.040766094,0.6549734,0.58842546
16312000,-0.11545423,0.20956467,1.4284308,0.74625874,-0.11175109,0.041313447,0.6549067,0.58780557
16336000,-0.11391174,0.2096018,1.4282742,0.74639386,-0.111184224,0.041841242,0.6548157,0.5871897
16360000,-0.1124517,0.2096397,1.4281843,0.74650204,-0.11064965,0.04233852,0.65475094,0.58656454
16384000,-0.111068726,0.20965756,1.4280376,0.74662536,-0.11013606,0.042806074,0.65466654,0.5861059
16408000,-0.10965993,0.20968506,1.4279523,0.7467291,-0.109617144,0.043282256,0.65460396,0.5856019
16432000,-0.10829539,0.20971541,1.4278059,0.74684995,-0.10911425,0.04374829,0.65451926,0.58506924
16456000,-0.107002415,0.20974931,1.4277232,0.74694544,-0.10864052,0.044188693,0.65445936,0.5845118
16480000,-0.10582159,0.20978518,1.4275755,0.7470557,-0.108207785,0.04459661,0.6543775,0.5839392
16504000,-0.10467012,0.20982994,1.4274851,0.747145,-0.10779009,0.044995096,0.6543173,0.58332634
16528000,-0.103548616,0.2098778,1.4273317,0.74725276,-0.107383095,0.045388296,0.65423405,0.58270794
16552000,-0.102497146,0.209927,1.4272374,0.7473372,-0.10700396,0.04575584,0.6541741,0.58207595
16576000,-0.08967706,0.20997994,1.4346743,0.7455684,-0.102413535,0.049587645,0.6566433,0.58141667
16600000,-0.088859014,0.2099798,1.434521,0.7456605,-0.10210471,0.049864,0.6565657,0.58116496
16624000,-0.08798907,0.20998897,1.4344324,0.7457334,-0.101781115,0.050157532,0.65651083,0.58086467
16648000,-0.08724643,0.21000117,1.4342868,0.7458183,-0.10150449,0.05041328,0.65643764,0.5805368
16672000,-0.08651902,0.21002401,1.4341896,0.7458858,-0.10123819,0.050665542,0.6563825,0.58022606
16696000,-0.08588823,0.2100434,1.4340442,0.74596435,-0.10100553,0.050887182,0.6563119,0.5799028
16720000,-0.085136056,0.21006976,1.4339559,0.74603,-0.10073128,0.05114837,0.6562594,0.57953924
16744000,-0.08448974,0.21009883,1.4337988,0.74611247,-0.10049559,0.051379263,0.6561837,0.5791773
16768000,-0.08397281,0.2101313,1.4337132,0.74616474,-0.100311086,0.051565364,0.6561378,0.5787955
16792000,-0.08355004,0.21015167,1.4335743,0.74623036,-0.1001564,0.051718675,0.65607476,0.5785061
16816000,-0.0830133,0.21018016,1.4334953,0.7462817,-0.099963315,0.05190941,0.6560308,0.5781832
16840000,-0.082691245,0.21021278,1.4333482,0.7463443,-0.09984991,0.052034654,0.65596694,0.57783717
16864000,-0.07051183,0.2102511,1.4407953,0.7444901,-0.095523536,0.055687413,0.6584138,0.5774532
16888000,-0.07014309,0.21029952,1.4407138,0.74453205,-0.095399804,0.055830836,0.65837216,0.57698745
16912000,-0.06994583,0.21035741,1.440569,0.7445861,-0.09534122,0.055924363,0.6583115,0.5764996
16936000,-0.06961928,0.21041816,1.4404835,0.74462676,-0.095237084,0.05605869,0.65826917,0.5759938
16960000,-0.06945128,0.21048248,1.4403441,0.7446774,-0.09519161,0.05614472,0.6582112,0.575463
16984000,-0.06929874,0.21052146,1.4402566,0.7447115,-0.09514507,0.056213684,0.6581735,0.57512826
17008000,-0.069300584,0.21056616,1.4401118,0.74475676,-0.095156275,0.05623672,0.6581186,0.57476383
17032000,-0.06928528,0.21061325,1.4400287,0.74478245,-0.09516361,0.05626336,0.65808624,0.57436407
17056000,-0.06932124,0.21066286,1.4398834,0.74482596,-0.09518909,0.05627703,0.658032,0.5739388
17080000,-0.06930783,0.21071535,1.4397951,0.74485296,-0.09519875,0.056305327,0.65799767,0.57350045
17104000,-0.069445156,0.2107689,1.4396476,0.74489224,-0.0952632,0.056287237,0.6579454,0.5730481
17128000,-0.057529733,0.21082959,1.4471087,0.7429853,-0.09106757,0.059889495,0.66037333,0.5725628
17152000,-0.057716135,0.2108934,1.446966,0.7430207,-0.091153465,0.059858285,0.66032434,0.5720499
17176000,-0.05788997,0.21096124,1.4468837,0.7430367,-0.09123782,0.059829988,0.66029733,0.5715222
17200000,-0.058146037,0.21101077,1.4468018,0.74304956,-0.09134675,0.059767686,0.6602734,0.57111645
17224000,-0.058458924,0.21106838,1.4466567,0.7430804,-0.09147755,0.059692547,0.6602275,0.5706838
17248000,-0.05872679,0.21112944,1.4465744,0.7430923,-0.091594644,0.0596307,0.6602034,0.5702156
17272000,-0.05911195,0.21119383,1.4464327,0.7431183,-0.09175463,0.059534118,0.66016066,0.5697233
17296000,-0.059475526,0.21125378,1.4463447,0.7431276,-0.09190674,0.05944054,0.66013736,0.5692742
17320000,-0.059932537,0.21131954,1.4462061,0.74314916,-0.09209399,0.05932066,0.66009784,0.5687873
17344000,-0.060294095,0.21138756,1.4461287,0.7431547,-0.092248335,0.059230298,0.6600782,0.56827253
17368000,-0.048924528,0.21145977,1.453537,0.74121475,-0.08827865,0.06268214,0.66247904,0.5677661
17392000,-0.049355,0.2115411,1.4534545,0.7412192,-0.0884624,0.06257348,0.66245985,0.56721944
17416000,-0.0499864,0.21162637,1.4533101,0.74123496,-0.088719964,0.062402494,0.6624238,0.5666625
17440000,-0.05049051,0.21171388,1.4532324,0.7412342,-0.088933185,0.062271565,0.66240853,0.5660818
17464000,-0.050979596,0.21180403,1.4531507,0.7412352,-0.08914158,0.062146787,0.6623912,0.5654904
17488000,-0.051628567,0.2118794,1.4530056,0.7412506,-0.08940241,0.061966404,0.66235554,0.5650081
17512000,-0.052193448,0.21196228,1.4529177,0.74125046,-0.08963633,0.061814137,0.6623384,0.56451035
17536000,-0.052861784,0.21204889,1.4527725,0.74126434,-0.089908056,0.061631586,0.662303,0.5640067
17560000,-0.05338404,0.21213934,1.4526874,0.7412647,-0.09012876,0.06149617,0.66228527,0.56349486
17584000,-0.054152787,0.21220458,1.4525445,0.7412741,-0.09043077,0.061272357,0.6622542,0.5632022
17608000,-0.054742593,0.21227594,1.4524684,0.7412692,-0.09067051,0.06110709,0.6622423,0.56288046
17632000,-0.05557549,0.21234985,1.4523273,0.7412744,-0.09099922,0.06086525,0.6622135,0.56254363
17656000,-0.04439286,0.21242523,1.4598132,0.7392856,-0.08711911,0.06426937,0.6646326,0.56217605
17680000,-0.045136675,0.21250324,1.4597293,0.73927736,-0.08741715,0.06405481,0.6646234,0.5617886
17704000,-0.04596237,0.21260299,1.4595877,0.73928356,-0.08775079,0.06382366,0.6645947,0.56119794
17728000,-0.04669965,0.21271391,1.4595062,0.7392731,-0.088057384,0.06362343,0.6645851,0.56059945
17752000,-0.04754848,0.21282662,1.4593635,0.73927766,-0.08840386,0.063389525,0.66455626,0.5599936
17776000,-0.048322786,0.2129393,1.4592801,0.73926574,-0.08872465,0.06317777,0.66454697,0.5593901
17800000,-0.049273007,0.21300896,1.4591391,0.73926705,-0.089094445,0.06289418,0.66452295,0.55913085
17824000,-0.050152242,0.21308275,1.4590591,0.7392508,-0.08944129,0.062633015,0.664519,0.55885005
17848000,-0.051087197,0.21315867,1.4589186,0.739252,-0.08980756,0.062356878,0.66449434,0.5585397
17872000,-0.05196678,0.21323715,1.4588412,0.73923427,-0.09015618,0.062097277,0.6644911,0.5582004
17896000,-0.052821014,0.21331209,1.4587035,0.73923784,-0.0904924,0.061847515,0.6644648,0.55787444
17920000,-0.053655595,0.21339485,1.4586221,0.73922306,-0.09082569,0.061604686,0.6644583,0.55752736
17944000,-0.042583212,0.21348353,1.466129,0.73721254,-0.087005675,0.06498911,0.6668764,0.5571541
17968000,-0.043483235,0.21357527,1.4659885,0.73721594,-0.08736331,0.064729095,0.6668513,0.5567696
17992000,-0.044452384,0.21365505,1.4659102,0.7371958,-0.087744474,0.06443891,0.6668515,0.5564706
18016000,-0.045381963,0.21373795,1.4657729,0.73719686,-0.088110186,0.0641657,0.66682845,0.5561432
18040000,-0.04620069,0.21382825,1.4656976,0.7371815,-0.0884395,0.063929476,0.6668245,0.555793
18064000,-0.0471765,0.21391495,1.4655641,0.7371787,-0.08882366,0.06364215,0.66680413,0.555402
18088000,-0.048043158,0.21402211,1.4654886,0.7371602,-0.08917622,0.063396245,0.6668009,0.5549015
18112000,-0.04899241,0.21412636,1.4653499,0.737159,-0.08955627,0.063124575,0.666777,0.55438197
18136000,-0.04990065,0.2142355,1.4652715,0.73713917,-0.08992472,0.06286571,0.6667738,0.55385876
18160000,-0.050801925,0.21434656,1.4652014,0.73711663,-0.090291515,0.06260954,0.6667733,0.5533144
18184000,-0.051814947,0.21444042,1.4650619,0.7371127,-0.09069161,0.062312894,0.666751,0.5529169
18208000,-0.052859377,0.21454489,1.4649873,0.73708516,-0.09110883,0.0620068,0.6667533,0.5525004
18232000,-0.04202671,0.21465273,1.4724424,0.73507345,-0.0873951,0.06533184,0.6691493,0.55207694
18256000,-0.043011326,0.21476376,1.4723599,0.73505276,-0.08779125,0.065046996,0.6691479,0.5516592
18280000,-0.04401203,0.21487674,1.4722213,0.7350498,-0.088192135,0.06476,0.6691263,0.5512463
18304000,-0.04492135,0.21497531,1.4721371,0.73503315,-0.08855641,0.06449588,0.66912204,0.55095583
18328000,-0.045879263,0.21508016,1.4720554,0.735013,-0.08894071,0.064217724,0.6691199,0.5506428
18352000,-0.04689733,0.21518666,1.4719185,0.7350084,-0.08934591,0.06392255,0.6690993,0.55030715
18376000,-0.047840554,0.21529506,1.4718369,0.7349883,-0.089726,0.06365065,0.66909647,0.54995024
18400000,-0.04895389,0.2153887,1.4717013,0.7349791,-0.09016198,0.06331887,0.66907936,0.5496974
18424000,-0.049974646,0.21548845,1.4716231,0.7349543,-0.0905678,0.06301777,0.66908014,0.5494207
18448000,-0.051057518,0.21559036,1.4714799,0.7349482,-0.09099512,0.062699646,0.6690589,0.5491335
18472000,-0.05199598,0.21569574,1.4714011,0.73492664,-0.091372535,0.062428206,0.6690565,0.5488345
18496000,-0.053008415,0.21581537,1.4712653,0.7349199,-0.09178011,0.062139936,0.66903496,0.5483998
18520000,-0.05390636,0.21594143,1.4711856,0.73489904,-0.09214948,0.061889775,0.66903013,0.54794776
18544000,-0.054859694,0.2160686,1.4711065,0.73487526,-0.092539616,0.06162151,0.6690273,0.54749024
18568000,-0.05586596,0.2161979,1.4709696,0.73486805,-0.09294811,0.06133902,0.6690045,0.54703534
18592000,-0.04485086,0.21631597,1.4785151,0.73283535,-0.0891835,0.06473025,0.6714229,0.5466546
18616000,-0.045947947,0.21644288,1.4783822,0.7328249,-0.089623585,0.064414605,0.67140603,0.54625505
18640000,-0.04692272,0.21657188,1.478311,0.73279893,-0.09002152,0.06413805,0.6714077,0.5458345
18664000,-0.04794861,0.21670263,1.4781741,0.73279226,-0.09043667,0.06384797,0.67138666,0.5454138
18688000,-0.048850223,0.21682934,1.4780973,0.7327711,-0.09080686,0.06359543,0.6713838,0.5450366
18712000,-0.049893364,0.2169599,1.4779634,0.73276234,-0.091228366,0.06329943,0.67136425,0.5446402
18736000,-0.05082432,0.21709158,1.4778864,0.73273927,-0.09161095,0.063038915,0.6713619,0.54424626
18760000,-0.051706307,0.21722463,1.4778082,0.73271847,-0.09197601,0.062795445,0.6713574,0.54384446
18784000,-0.052745245,0.21733773,1.4776734,0.73271036,-0.09239014,0.06249456,0.6713375,0.5436046
18808000,-0.053646047,0.21746175,1.4775989,0.7326876,-0.092759185,0.062241316,0.671335,0.54335713
18832000,-0.05470344,0.21758954,1.4774605,0.73267865,-0.093184866,0.061939895,0.6713137,0.5431011
18856000,-0.055672973,0.21772067,1.4773856,0.73265195,-0.09358145,0.061666258,0.6713127,0.54282814
18880000,-0.05672071,0.2178536,1.477251,0.73264146,-0.09400544,0.061369862,0.6712922,0.54253656
18904000,-0.057602018,0.21799599,1.4771743,0.73261863,-0.09437339,0.061130125,0.6712873,0.5421479
18928000,-0.058419656,0.21814252,1.4770956,0.7325991,-0.094719335,0.060913406,0.67127967,0.54174924
18952000,-0.059366778,0.21829003,1.4769623,0.73259145,-0.09511137,0.060656186,0.67125577,0.5413181
18976000,-0.04840772,0.2184381,1.4845192,0.7305542,-0.091387734,0.06404313,0.6736744,0.5408789
19000000,-0.049373254,0.21855621,1.4843838,0.7305498,-0.09177564,0.063767456,0.67365247,0.54072934
19024000,-0.050204284,0.21868162,1.4843132,0.7305294,-0.092118934,0.06353682,0.6736497,0.54053897
19048000,-0.051132075,0.21880974,1.4841746,0.73052704,-0.09249632,0.063277766,0.67362493,0.54035354
19072000,-0.05197058,0.21894734,1.4841018,0.730506,-0.092846334,0.063049234,0.67362106,0.54015034
19096000,-0.05276159,0.21908833,1.4840251,0.73048806,-0.093180045,0.06283815,0.6736141,0.53974724
19120000,-0.05364617,0.21924086,1.4838915,0.73048437,-0.09354998,0.06260248,0.6735889,0.5393305
19144000,-0.05438205,0.21939594,1.4838184,0.7304668,-0.09386835,0.06241501,0.67358094,0.5389056
19168000,-0.055204812,0.21955422,1.4836868,0.7304645,-0.09421772,0.062202238,0.67355424,0.53846765
19192000,-0.056055393,0.21972732,1.4836146,0.7304402,-0.09458405,0.061982777,0.6735497,0.53788316
19216000,-0.056977484,0.21990578,1.4834803,0.73043275,-0.09497634,0.061744153,0.67352444,0.53729504
19240000,-0.057742443,0.22008617,1.4834127,0.73041004,-0.09531396,0.061556023,0.6735185,0.5366997
19264000,-0.058529913,0.220267,1.48334,0.7303879,-0.09565978,0.061360735,0.67351145,0.5361133
19288000,-0.059388317,0.22040941,1.4832067,0.73038447,-0.096016794,0.06113038,0.6734852,0.53584707
19312000,-0.060125753,0.220558,1.4831337,0.73036605,-0.09633354,0.060940154,0.6734772,0.5355682
19336000,-0.0609326,0.22070867,1.4829985,0.730365,-0.09667444,0.06073035,0.6734484,0.5352828
19360000,-0.061638717,0.22086139,1.4829205,0.73034936,-0.09698098,0.060552478,0.6734374,0.53499675
19384000,-0.06245723,0.22100553,1.4827831,0.73034847,-0.097323895,0.060336515,0.6734082,0.5347941
19408000,-0.063151225,0.22115381,1.482704,0.7303337,-0.09762449,0.0601612,0.67339647,0.5345832
19432000,-0.064025305,0.22130464,1.4825678,0.7303291,-0.09798998,0.059929006,0.67336905,0.5343634
19456000,-0.05284881,0.221456,1.4901515,0.7283005,-0.09419887,0.06338988,0.67578596,0.5341325
19480000,-0.05355518,0.22160886,1.4900818,0.72828317,-0.09450519,0.06321046,0.6757787,0.53386736
19504000,-0.054257907,0.22174788,1.4899498,0.72828764,-0.09480359,0.063030176,0.675749,0.5337011
19528000,-0.054968752,0.22189435,1.4898772,0.72827107,-0.095109314,0.06284708,0.6757409,0.5335156
19552000,-0.055724446,0.22204421,1.4897451,0.7282722,-0.09543064,0.06265293,0.67571235,0.5333241
19576000,-0.05630687,0.22219655,1.4896765,0.72825986,-0.09569168,0.06251523,0.6757014,0.53311515
19600000,-0.057021696,0.22234762,1.4895436,0.728263,-0.095998526,0.06233543,0.6756713,0.53290695
19624000,-0.05767856,0.22250837,1.4894713,0.7282477,-0.0962894,0.062175874,0.675661,0.53268266
19648000,-0.058390196,0.22267078,1.4893966,0.72823036,-0.09660067,0.06199856,0.6756515,0.5324537
19672000,-0.05910226,0.22283554,1.4892617,0.7282331,-0.09691103,0.06182488,0.67562,0.53221434
19696000,-0.05972219,0.22300388,1.4891887,0.7282192,-0.09719096,0.061680693,0.67560804,0.53195506
19720000,-0.060462963,0.2231749,1.4890544,0.72821975,-0.09751391,0.061499655,0.6755774,0.5316845
19744000,-0.06104052,0.22334743,1.488981,0.7282075,-0.09777979,0.061371356,0.6755639,0.53140193
19768000,-0.06158399,0.22352082,1.488906,0.72819734,-0.09803349,0.061254993,0.67554855,0.53111386
19792000,-0.06227662,0.22368656,1.4887713,0.7282003,-0.09833713,0.06108839,0.67551637,0.5308746
19816000,-0.06289342,0.22385718,1.4886963,0.7281865,-0.09861659,0.060946286,0.6755033,0.5306153
19840000,-0.06360751,0.22403124,1.4885625,0.72818744,-0.09893085,0.06077551,0.6754717,0.53034234
19864000,-0.064175434,0.22420838,1.4884857,0.728176,-0.09919466,0.060652427,0.67545635,0.530069
19888000,-0.06483087,0.22440222,1.4883518,0.72817856,-0.09949419,0.060508773,0.67542243,0.52960753
19912000,-0.065373726,0.22460009,1.488279,0.7281658,-0.09975593,0.0604016,0.6754072,0.5291237
19936000,-0.065898195,0.22480007,1.4882078,0.7281532,-0.10001172,0.06030135,0.6753919,0.52863145
19960000,-0.06654367,0.22500232,1.4880692,0.72815716,-0.100310296,0.060164474,0.6753557,0.5281562
19984000,-0.067081854,0.2251721,1.4879925,0.7281471,-0.1005608,0.060048837,0.6753395,0.52799606
20008000,-0.055781096,0.22534847,1.495544,0.7261409,-0.09674471,0.063563585,0.67773104,0.5278161
20032000,-0.056277357,0.22552896,1.4954714,0.72613233,-0.09698332,0.06346485,0.6777154,0.5276339
20056000,-0.0568457,0.22571133,1.495335,0.7261417,-0.097246714,0.06334551,0.6776788,0.5274527
20080000,-0.057443075,0.22589502,1.4952649,0.72612697,-0.09752318,0.063213594,0.67766714,0.5272533
20104000,-0.057956323,0.22607365,1.4951949,0.72611654,-0.09776743,0.063108355,0.677653,0.52708966
20128000,-0.058580786,0.22625552,1.495062,0.7261217,-0.09805113,0.06296972,0.6776194,0.5269083
20152000,-0.059089005,0.22643864,1.4949874,0.72611266,-0.098294884,0.06286809,0.6776032,0.5267169
20176000,-0.05968135,0.22662506,1.4948528,0.7261195,-0.098568425,0.06274214,0.67756784,0.5265142
20200000,-0.060126297,0.22680238,1.4947829,0.7261121,-0.0987874,0.062659636,0.6775515,0.5263656
20224000,-0.060669977,0.22698851,1.4946487,0.72612107,-0.099043176,0.0625501,0.6775147,0.5262035
20248000,-0.061133105,0.22717817,1.4945744,0.7261134,-0.099272765,0.062466204,0.677497,0.526042
20272000,-0.061656665,0.22736879,1.4945022,0.72610193,-0.09952468,0.06236209,0.6774819,0.525872
20296000,-0.06212465,0.22755878,1.4943705,0.7261134,-0.09975434,0.062279567,0.67744344,0.52570194
20320000,-0.06255376,0.22775441,1.4942969,0.7261067,-0.099973604,0.06220939,0.67742485,0.5255235
20344000,-0.06318246,0.22795123,1.4941638,0.72611004,-0.100263864,0.062075045,0.67739064,0.52533025
20368000,-0.06362041,0.22814922,1.4940867,0.7261037,-0.10048701,0.06200295,0.67737085,0.5251346
20392000,-0.06397488,0.22836348,1.4940145,0.72609913,-0.10068545,0.06196484,0.6773499,0.52476335
20416000,-0.064468674,0.22858222,1.4938792,0.72610855,-0.10093403,0.06188439,0.67731017,0.5243926
20440000,-0.06486333,0.2288034,1.4938049,0.7261022,-0.10114933,0.061835345,0.6772895,0.52401876
20464000,-0.06534177,0.22902428,1.4936719,0.7261113,-0.1013931,0.061760813,0.67724997,0.5236334
20488000,-0.065758534,0.2292414,1.4935969,0.72610396,-0.10161501,0.06170287,0.6772298,0.5232912
20512000,-0.06623811,0.22946195,1.4934573,0.7261151,-0.1018589,0.06162823,0.677188,0.5229492
20536000,-0.06652888,0.22968227,1.4933833,0.7261136,-0.10203616,0.061614107,0.67716414,0.522601
20560000,-0.066811174,0.22990312,1.493306,0.7261136,-0.10221042,0.061603226,0.6771389,0.5222595
20584000,-0.067268565,0.23009871,1.4931682,0.72612643,-0.10243791,0.061526947,0.67709774,0.5221763
20608000,-0.067520805,0.23030043,1.4930915,0.72612876,-0.10259485,0.06151925,0.6770722,0.5220868
20632000,-0.06797457,0.2305044,1.4929507,0.7261421,-0.10282373,0.061447464,0.6770296,0.52198875
20656000,-0.068306945,0.23071264,1.4928718,0.72614056,-0.10301188,0.061415166,0.6770056,0.52189666
20680000,-0.0687709,0.23092169,1.4927326,0.72615254,-0.10324621,0.061341763,0.6769638,0.52180153
20704000,-0.06919219,0.23115243,1.4926546,0.72614473,-0.1034742,0.061287604,0.6769422,0.5214241
20728000,-0.05769482,0.23139007,1.500308,0.7241208,-0.09962697,0.064884216,0.67934793,0.52104104
20752000,-0.05803919,0.2316285,1.5001743,0.72413665,-0.09982772,0.06486078,0.67930377,0.52065116
20776000,-0.058216188,0.23186661,1.5000979,0.72414136,-0.09996962,0.064891234,0.679275,0.52026194
20800000,-0.058574524,0.23206764,1.4999633,0.7241586,-0.100162774,0.06484952,0.67923206,0.5202471
20824000,-0.058825977,0.23227218,1.4998881,0.72416085,-0.10032034,0.064842425,0.67920715,0.5202049
20848000,-0.05919176,0.23247698,1.4998127,0.7241574,-0.100519374,0.06479663,0.6791858,0.5201469
20872000,-0.059597418,0.23268102,1.4996772,0.7241723,-0.10073064,0.064740054,0.679144,0.520079
20896000,-0.059792403,0.23288274,1.4996016,0.72417754,-0.10086678,0.06475116,0.6791172,0.5200282
20920000,-0.0601468,0.23308678,1.4994648,0.72419536,-0.10105944,0.0647121,0.6790732,0.5199549
20944000,-0.060374726,0.23329322,1.4993906,0.72419804,-0.101209134,0.06471371,0.6790478,0.519866
20968000,-0.0606902,0.2334998,1.4993172,0.7241962,-0.1013906,0.06468561,0.6790256,0.5197648
20992000,-0.060968652,0.23370405,1.4991815,0.72421724,-0.101555854,0.06467242,0.6789795,0.5196919
21016000,-0.061169744,0.2339115,1.499104,0.7242224,-0.10169605,0.06468372,0.6789521,0.51960754
21040000,-0.061493114,0.23411979,1.4989692,0.7242406,-0.10187894,0.064656734,0.6789077,0.5195039
21064000,-0.061693624,0.23433007,1.4988945,0.72424465,-0.102019966,0.06466915,0.67888117,0.5193862
21088000,-0.06204318,0.23453486,1.4987618,0.7242608,-0.10221122,0.06463193,0.6788385,0.51929325
21112000,-0.062342983,0.2347454,1.498689,0.72425896,-0.10238835,0.06461066,0.6788159,0.51916647
21136000,-0.06258551,0.23495823,1.4986161,0.7242599,-0.10254548,0.06460968,0.6787912,0.5190249
21160000,-0.062992744,0.2351729,1.49848,0.7242737,-0.10276084,0.06455674,0.678749,0.5188821
21184000,-0.06324299,0.23538677,1.498409,0.72427344,-0.102921166,0.064553455,0.6787253,0.5187174
21208000,-0.0635375,0.2356041,1.4982742,0.7242924,-0.103096634,0.064539716,0.67867976,0.5185493
21232000,-0.063709825,0.23582253,1.4981997,0.72429705,-0.103230156,0.064564735,0.67865217,0.5183755
21256000,-0.06393275,0.2360429,1.4981271,0.7242983,-0.103382714,0.06457321,0.6786268,0.5181897
21280000,-0.06425299,0.2362643,1.4979929,0.7243153,-0.103568874,0.064552255,0.67858225,0.51799166
21304000,-0.06444945,0.2364717,1.4979222,0.72431797,-0.10370753,0.06456491,0.67855704,0.5179442
21328000,-0.064763635,0.23668301,1.4977846,0.72433686,-0.103887975,0.06454253,0.6785114,0.5178822
21352000,-0.064907365,0.23689516,1.4977112,0.7243429,-0.10400903,0.06457498,0.6784834,0.5177992
21376000,-0.06510437,0.23710814,1.4976323,0.7243477,-0.10414949,0.06458995,0.6784551,0.5177139
21400000,-0.065337785,0.23732975,1.4974948,0.7243702,-0.10430413,0.06459878,0.6784066,0.51749223
21424000,-0.06549485,0.23755413,1.4974188,0.72437555,-0.10443404,0.06463133,0.67837775,0.51725495
21448000,-0.06575966,0.23778035,1.4972839,0.72439516,-0.10460167,0.06463108,0.678331,0.5170118
21472000,-0.06594736,0.23800819,1.4972092,0.72439826,-0.10474386,0.06465446,0.6783036,0.51675725
21496000,-0.0663108,0.23822974,1.4970733,0.72441316,-0.1049456,0.06461917,0.6782598,0.5165311
21520000,-0.06645614,0.23845641,1.4969974,0.7244188,-0.105072014,0.06465658,0.6782306,0.5162991
21544000,-0.054820683,0.23868495,1.5047107,0.7223863,-0.10119684,0.068294816,0.680627,0.516059
21568000,-0.05510992,0.2389144,1.5045758,0.7224053,-0.101374246,0.0682866,0.68058115,0.51581085
21592000,-0.0552931,0.23035255,1.5045038,0.7228666,-0.098544195,0.06511541,0.6808178,0.48722643
21616000,-0.05546327,0.2217904,1.5043668,0.72333795,-0.09570582,0.0619502,0.6810175,0.45610198
21640000,-0.05564846,0.21322785,1.504273,0.7237811,-0.092872776,0.05877614,0.68122023,0.42739975
21664000,-0.055858567,0.20466465,1.5041604,0.7242168,-0.09004669,0.05559283,0.6814037,0.40104
21688000,-0.056247797,0.19609797,1.5039597,0.72466236,-0.08728079,0.05234968,0.6815468,0.37715805
21712000,-0.0564968,0.18752737,1.5038005,0.72508764,-0.084462956,0.04914955,0.68168783,0.35540238
21736000,-0.056851972,0.17895237,1.5035636,0.72552264,-0.081679404,0.045913383,0.6817899,0.33563852
21760000,-0.05712763,0.17037244,1.5033746,0.7259324,-0.07886574,0.04269909,0.6818938,0.31771982
21784000,-0.057363402,0.16178173,1.5031759,0.72633487,-0.07603299,0.03949346,0.6819802,0.3020178
21808000,-0.05778928,0.15317984,1.5028994,0.7267446,-0.07326342,0.03622044,0.6820286,0.28788593
21832000,-0.058007963,0.14456649,1.5026824,0.7271295,-0.0704153,0.03301032,0.68208116,0.27517492
21856000,-0.05834395,0.13594145,1.5023996,0.7275205,-0.06760437,0.029756887,0.68209827,0.26375023
21880000,-0.05863484,0.12730448,1.5021724,0.72788185,-0.06477346,0.026511285,0.6821214,0.2534944
21904000,-0.058869537,0.11864981,1.5019433,0.7282334,-0.06191568,0.023277286,0.68212956,0.24480554
21928000,-0.059224334,0.109977566,1.5016534,0.7285898,-0.05909471,0.019996582,0.68210334,0.23702353
21952000,-0.059459005,0.1012879,1.5014243,0.7289165,-0.056224473,0.016747553,0.68208426,0.23006733
21976000,-0.059622988,0.092581026,1.5011954,0.7292326,-0.05332236,0.013515351,0.6820512,0.2238576
22000000,-0.05982553,0.08384737,1.5009081,0.7295549,-0.05042467,0.010260752,0.6819837,0.2191685
22024000,-0.059902813,0.07508756,1.5006814,0.7298468,-0.047472604,0.007036822,0.681924,0.21500482
22048000,-0.06002171,0.06630229,1.5004562,0.73012406,-0.04452691,0.003788548,0.68185174,0.21130933
22072000,-0.060174465,0.05749231,1.5001683,0.73040885,-0.04158505,0.000520268,0.6817429,0.20804392
22096000,-0.060303967,0.048648037,1.4999491,0.73065746,-0.038623095,-0.002754815,0.6816452,0.1973246
22120000,-0.060489893,0.03977061,1.4997354,0.73089,-0.035670448,-0.006061946,0.68153554,0.18672732
22144000,-0.060704622,0.031147411,1.4994574,0.7311259,-0.03281519,-0.009285325,0.68138963,0.1771941
22168000,-0.06069023,0.027899195,1.499248,0.7312486,-0.031705454,-0.010465565,0.6812934,0.16860631
22192000,-0.060732316,0.024690945,1.499032,0.73137015,-0.030630175,-0.011650519,0.68119293,0.16143334
22216000,-0.060832527,0.02168691,1.4987499,0.7315085,-0.029646251,-0.012779749,0.6810675,0.15505128
22240000,-0.0608576,0.018863477,1.498541,0.731619,-0.028696045,-0.013818596,0.68096936,0.14929762
22264000,-0.06083058,0.016215825,1.4983313,0.7317267,-0.027786756,-0.014775524,0.68087125,0.14415272
22288000,-0.060945056,0.013440598,1.4980588,0.73185414,-0.026886482,-0.015826635,0.68074673,0.14043735
22312000,-0.060996976,0.010835382,1.4978502,0.7319573,-0.02602086,-0.016795263,0.6806463,0.1371658
22336000,-0.060997233,0.008377126,1.497639,0.732059,-0.025186498,-0.017692624,0.68054557,0.134244
22360000,-0.060969133,0.006064179,1.4973631,0.7321803,-0.024391932,-0.018526493,0.6804218,0.13162293
22384000,-0.060983207,0.003640304,1.4971544,0.73227835,-0.023574632,-0.019416315,0.68032014,0.1301027
22408000,-0.061005514,0.001350339,1.4969418,0.7323753,-0.022806076,-0.02026,0.68021756,0.12873276
22432000,-0.061015688,-0.000806006,1.496665,0.7324918,-0.022079343,-0.021050049,0.68009204,0.12751184
22456000,-0.049074538,-0.002835518,1.5049058,0.729818,-0.0169421,-0.017802516,0.68319964,0.12641396
22480000,-0.049012925,-0.00474275,1.5047178,0.7298974,-0.01626979,-0.018475853,0.6831133,0.12541239
22504000,-0.04900939,-0.006762208,1.5044608,0.72999996,-0.015581114,-0.01920955,0.6829995,0.12520346
22528000,-0.048777536,-0.008668479,1.5042682,0.7300807,-0.014847282,-0.019824617,0.68291193,0.124986485
22552000,-0.04867534,-0.010455418,1.5040771,0.73015845,-0.014201625,-0.020440534,0.6828243,0.124801025
22576000,-0.04839964,-0.01212762,1.5038931,0.7302336,-0.013531827,-0.0209555,0.68274206,0.12461364
22600000,-0.048225574,-0.013837201,1.5036405,0.73033094,-0.0128872,-0.021518469,0.6826328,0.124754354
22624000,-0.04803273,-0.015428394,1.5034571,0.7304036,-0.012275504,-0.022032386,0.68254995,0.12489498
22648000,-0.047796685,-0.016918985,1.5032699,0.7304767,-0.011682496,-0.02249491,0.68246704,0.12498
22672000,-0.047600925,-0.018308135,1.5030184,0.73057044,-0.011139649,-0.022933885,0.6823611,0.12500262
22696000,-0.04729885,-0.019833421,1.5028348,0.73064184,-0.010510808,-0.023386791,0.68227935,0.12563626
22720000,-0.04696841,-0.021257078,1.5026563,0.73071045,-0.009906299,-0.023793042,0.6822008,0.126167
22744000,-0.04657674,-0.022574712,1.50248,0.73077774,-0.009315637,-0.024139797,0.68212485,0.12663896
22768000,-0.046321675,-0.023794638,1.5022346,0.7308671,-0.00880914,-0.024497248,0.6820231,0.12703256
22792000,-0.045924623,-0.025149338,1.5020584,0.7309335,-0.00820399,-0.024855925,0.6819466,0.12790072
22816000,-0.04554192,-0.026401358,1.5018839,0.7309984,-0.00763915,-0.025182089,0.68187165,0.1286687
22840000,-0.04511086,-0.02755501,1.5017129,0.73106146,-0.007090197,-0.025455937,0.6817997,0.12935936
22864000,-0.04483915,-0.028619032,1.501471,0.73114747,-0.006631024,-0.025751218,0.68170094,0.1299474
22888000,-0.044431653,-0.029786311,1.5013056,0.73120785,-0.006086065,-0.026038285,0.6816304,0.13091756
22912000,-0.04399591,-0.030854097,1.5011396,0.73126787,-0.00556476,-0.026279463,0.6815613,0.13180144
22936000,-0.043566354,-0.03184139,1.500973,0.73132753,-0.00507321,-0.026493412,0.6814928,0.13254924
22960000,-0.0432252,-0.032740522,1.5007403,0.73140895,-0.004644962,-0.02670519,0.68140024,0.1331785
22984000,-0.04283151,-0.033590473,1.5005773,0.7314665,-0.004213383,-0.026881345,0.6813344,0.13381512
23008000,-0.042373627,-0.034361627,1.5004176,0.73152256,-0.003785164,-0.027006902,0.68127173,0.13432477
23032000,-0.041941747,-0.0350438,1.5002568,0.7315787,-0.003396826,-0.02710886,0.6812094,0.13479273
23056000,-0.041568093,-0.035660416,1.5000311,0.73165655,-0.003053028,-0.027206643,0.68112344,0.13511235
23080000,-0.04115383,-0.036190614,1.4998802,0.73170877,-0.002722826,-0.027259182,0.68106663,0.1353967
23104000,-0.040691264,-0.036833245,1.4997298,0.7317608,-0.002336637,-0.027336434,0.6810091,0.13602376
23128000,-0.040211935,-0.037406478,1.499579,0.7318127,-0.001967979,-0.02738266,0.6809526,0.13654211
23152000,-0.07791105,-0.040385958,0.7707359,0.926064,-0.028497778,-0.033333264,0.3748097,0.31957322
23176000,-0.11561017,-0.030231897,0.7707359,0.925335,-0.047857344,-0.03569778,0.3744202,0.3505744
23200000,-0.15330929,-0.020064984,0.7707359,0.9241813,-0.06719961,-0.038054086,0.37406552,0.37902695
23224000,-0.1910084,-0.009888489,0.7707359,0.92260325,-0.086514324,-0.0404058,0.37374568,0.40484345
23248000,-0.22870752,0.000294275,0.7707359,0.92060155,-0.105791226,-0.042756516,0.3734606,0.42816588
23272000,-0.26640663,0.010479966,0.7707359,0.9181772,-0.12502009,-0.04510988,0.37321004,0.449193
23296000,-0.30410573,0.020659886,0.7707359,0.91533154,-0.1441897,-0.047471937,0.37299314,0.46777648
23320000,-0.34180483,0.030831005,0.7707359,0.9120663,-0.16329,-0.04984611,0.37280926,0.4843436
23344000,-0.37950394,0.040990464,0.7707359,0.9083834,-0.18231094,-0.052235715,0.37265754,0.49909633
23368000,-0.41720304,0.051135607,0.7707359,0.90428513,-0.2012427,-0.05464393,0.37253705,0.51218086
23392000,-0.45490214,0.06124987,0.7707359,0.8997747,-0.2200729,-0.057080183,0.37244517,0.5229404
23416000,-0.49260125,0.07133176,0.7707359,0.89485484,-0.23879209,-0.05954696,0.37238055,0.53237146
23440000,-0.5303004,0.08138004,0.7707359,0.889529,-0.257391,-0.062046602,0.3723416,0.54057145
23464000,-0.5679995,0.09139374,0.7707359,0.8838004,-0.27586037,-0.06458123,0.3723268,0.547671
23488000,-0.6056986,0.10135644,0.7707359,0.87767375,-0.2941885,-0.06715981,0.37233236,0.55287564
23512000,-0.6433977,0.11126861,0.7707359,0.8711532,-0.31236675,-0.0697836,0.37235647,0.55725443
23536000,-0.6810968,0.121130966,0.7707359,0.8642427,-0.3303868,-0.07245377,0.37239727,0.5609115
23560000,-0.7187959,0.13094446,0.7707359,0.8569464,-0.34824017,-0.07517123,0.37245274,0.563932
23584000,-0.756495,0.14069623,0.7707359,0.8492701,-0.36591652,-0.07794286,0.3725188,0.56558853
23608000,-0.771735,0.15038845,0.7707359,0.845471,-0.37393767,-0.07657985,0.37347707,0.5668221
23632000,-0.7726525,0.16002342,0.7707359,0.8442984,-0.3758675,-0.07257556,0.37498882,0.5676861
23656000,-0.7732915,0.16960354,0.7707359,0.84316325,-0.37766144,-0.06854235,0.37649646,0.5682949
23680000,-0.7753839,0.17908368,0.76762974,0.84232855,-0.38014224,-0.064236216,0.3766274,0.56869495
23704000,-0.78279775,0.1828221,0.7544556,0.8429679,-0.38426006,-0.0614824,0.37144214,0.5674823
23728000,-0.7940492,0.18628758,0.73342735,0.8442713,-0.390156,-0.05797015,0.36279985,0.5661787
23752000,-0.80004525,0.18951946,0.7213766,0.8449157,-0.39350182,-0.055283144,0.3580748,0.56485766
23776000,-0.80542195,0.19252838,0.70976657,0.8455906,-0.3965177,-0.052635707,0.35352483,0.56356597
23800000,-0.8143097,0.1954405,0.6906053,0.84685004,-0.4011703,-0.049097806,0.34568313,0.5614203
23824000,-0.81862295,0.19817024,0.67986315,0.8475306,-0.40362272,-0.046485417,0.3414963,0.5593828
23848000,-0.8262445,0.20072317,0.66175026,0.8487669,-0.40759525,-0.04298318,0.33408558,0.557493
23872000,-0.82974356,0.20311615,0.65159,0.8494802,-0.4095983,-0.040441215,0.3301166,0.55577826
23896000,-0.8327839,0.20542473,0.64186,0.8502037,-0.4113696,-0.037931986,0.32632795,0.5537431
23920000,-0.83908176,0.20759766,0.6248771,0.8514108,-0.41462067,-0.034488983,0.3193743,0.5519202
23944000,-0.8414282,0.20963667,0.6157191,0.8521592,-0.4160137,-0.032065004,0.31579912,0.55034494
23968000,-0.8468134,0.21157208,0.5995434,0.8533562,-0.4187784,-0.028680399,0.30916873,0.5490471
23992000,-0.84856486,0.21345967,0.59089327,0.85411847,-0.41985643,-0.02630619,0.30579445,0.547419
24016000,-0.8500321,0.21524467,0.58246994,0.8549021,-0.4207853,-0.023973674,0.3025019,0.54607344
24040000,-0.85452795,0.21692912,0.56696516,0.8560966,-0.42306143,-0.020633742,0.296128,0.5450011
24064000,-0.85553247,0.21853681,0.5588981,0.8569037,-0.4237375,-0.018365279,0.2929597,0.5442234
24088000,-0.85939074,0.2201393,0.5440275,0.858073,-0.4256781,-0.015059784,0.28684863,0.5429587
24112000,-0.8600198,0.22165813,0.53624773,0.8588916,-0.4261518,-0.012822211,0.28378767,0.5419792
24136000,-0.8604675,0.22310817,0.5286105,0.85972446,-0.42652884,-0.010616712,0.28077433,0.54128504
24160000,-0.86371326,0.2244916,0.5141692,0.860895,-0.42811978,-0.007370234,0.27480713,0.5408722
24184000,-0.86373985,0.22581169,0.50682294,0.8617589,-0.42827472,-0.005216837,0.2718919,0.5406644
24208000,-0.866483,0.22706443,0.4928739,0.8629199,-0.42959377,-0.002039343,0.26610938,0.5407031
24232000,-0.866172,0.22827442,0.4857753,0.8638046,-0.42956722,6.28E-05,0.26327488,0.54101354
24256000,-0.86578965,0.22943091,0.47860095,0.8647102,-0.42949557,0.002166688,0.2603942,0.54155076
24280000,-0.86802304,0.23053384,0.46505645,0.8658647,-0.430527,0.0052808,0.25474864,0.54231215
24304000,-0.86732405,0.23161171,0.45819113,0.8667785,-0.43028829,0.007325649,0.25197884,0.54305685
24328000,-0.86938345,0.23264427,0.4448149,0.8679004,-0.43120173,0.010408998,0.24638516,0.5439782
24352000,-0.86855227,0.23363385,0.43795052,0.8688242,-0.4308756,0.012430474,0.24359047,0.5450776
24376000,-0.8675136,0.234589,0.43128273,0.86976296,-0.43044925,0.014417321,0.24086922,0.54636973
24400000,-0.8691439,0.23553489,0.418219,0.87087643,-0.43112162,0.017458513,0.2353799,0.5474556
24424000,-0.86796093,0.23644245,0.41153935,0.8718263,-0.43060678,0.019440606,0.23263438,0.54869235
24448000,-0.86932564,0.23732431,0.39867547,0.8729278,-0.43112576,0.022448502,0.22720855,0.55008256
24472000,-0.867898,0.23817705,0.3922284,0.8738835,-0.43048143,0.024379209,0.22454204,0.5516336
24496000,-0.86645585,0.23902789,0.38568544,0.87484425,-0.42982122,0.026327565,0.2218285,0.55300933
24520000,-0.86768025,0.23984283,0.37296683,0.8758993,-0.43022943,0.02929248,0.21643737,0.5544899
24544000,-0.8661058,0.24063706,0.36658314,0.8768513,-0.4294891,0.031189248,0.2137711,0.55607486
24568000,-0.86450255,0.24141243,0.36011776,0.8778112,-0.42872578,0.033093877,0.21106026,0.5577522
24592000,-0.86548597,0.24213979,0.3475799,0.8788409,-0.42898074,0.036005765,0.20571303,0.5596961
24616000,-0.8637406,0.24285349,0.34118167,0.87980455,-0.4281325,0.03787511,0.20300722,0.56170094
