timestamp,roll,pitch,yaw,thrust_body[0]
9184000,0.040135752,0.049674913,-0.006798121,0.15
9188000,0.04008538,0.049661648,-0.006765594,0.15
9192000,0.04010024,0.049631994,-0.006765689,0.15
9196000,0.040148564,0.049613126,-0.006764405,0.15
9204000,0.040166687,0.04963827,-0.006763257,0.15
9208000,0.040153503,0.04971107,-0.006762212,0.15
9212000,0.04013502,0.04975885,-0.006746595,0.15
9216000,0.04013782,0.049801376,-0.006745619,0.15
9220000,0.040134214,0.049832627,-0.0067451,0.15
9224000,0.040104177,0.049811967,-0.006746571,0.15
9228000,0.04006154,0.049787898,-0.006748548,0.15
9232000,0.040057942,0.04977816,-0.006748875,0.15
9236000,0.040005032,0.04974422,-0.006703838,0.15
9240000,0.04000665,0.04972574,-0.006704163,0.15
9244000,0.040043686,0.049722597,-0.006702943,0.15
9248000,0.040107407,0.04966463,-0.006701929,0.15
9252000,0.04012784,0.049632195,-0.006701891,0.15
9256000,0.040114373,0.049603343,-0.006702954,0.15
9260000,0.040108517,0.04953947,-0.006721818,0.15
9264000,0.04008765,0.04952777,-0.00672278,0.15
9268000,0.04008824,0.04953908,-0.006722527,0.15
9272000,0.040077236,0.04954899,-0.006722703,0.15
9276000,0.040078674,0.049609814,-0.006721398,0.15
9280000,0.040076494,0.049659573,-0.006720447,0.15
9284000,0.04006581,0.049636815,-0.006723542,0.15
9288000,0.04007233,0.049609937,-0.006723871,0.15
9292000,0.04008195,0.04957855,-0.006724186,0.15
9296000,0.040095914,0.049537048,-0.006724559,0.15
9300000,0.040125176,0.049520534,-0.006723889,0.15
9304000,0.040092293,0.049532637,-0.006724775,0.15
9308000,0.04012453,0.049576342,-0.00677511,0.15
9316000,0.040085785,0.04960077,-0.006775946,0.15
9324000,0.040053427,0.049534522,-0.00677843,0.15
9332000,0.039954178,0.049457986,-0.006743807,0.15
9336000,0.03994977,0.049447246,-0.00674418,0.15
9340000,0.039948706,0.049448166,-0.006744199,0.15
9344000,0.039940335,0.04944856,-0.006744479,0.15
9348000,0.039922234,0.049457036,-0.00674493,0.15
9356000,0.03973723,0.04940262,-0.006658557,0.15
9360000,0.039718155,0.049377203,-0.006659735,0.15
9364000,0.03972876,0.049402017,-0.006658862,0.15
9368000,0.039731346,0.04946717,-0.00665744,0.15
9372000,0.039723333,0.049506962,-0.006656903,0.15
9380000,0.039535772,0.049530264,-0.006555084,0.15
9388000,0.039579727,0.049511395,-0.00655395,0.15
9392000,0.03955497,0.049479697,-0.006555453,0.15
9396000,0.039541814,0.049486488,-0.00655577,0.15
9400000,0.039541326,0.04950942,-0.006555317,0.15
9404000,0.039556578,0.049529392,-0.006598759,0.15
9408000,0.03952417,0.049546365,-0.006599534,0.15
9412000,0.03953462,0.04956275,-0.00659884,0.15
9416000,0.039547082,0.0495595,-0.006598475,0.15
9420000,0.03951495,0.04950913,-0.006600612,0.15
9424000,0.0394742,0.049442172,-0.006603383,0.15
9428000,0.03928989,0.04936259,-0.006493303,0.15
9432000,0.03926951,0.049283814,-0.006495604,0.15
9436000,0.039253943,0.049299113,-0.00649583,0.15
9440000,0.03922724,0.049360026,-0.006495514,0.15
9444000,0.039213546,0.049317256,-0.006496852,0.15
9448000,0.03921626,0.049252667,-0.006498068,0.15
9452000,0.039296094,0.04924356,-0.006561906,0.15
9456000,0.03927496,0.049233485,-0.006562836,0.15
9460000,0.039256755,0.04922392,-0.006563656,0.15
9464000,0.039250482,0.049215645,-0.006564038,0.15
9468000,0.03924846,0.04922678,-0.006563882,0.15
9472000,0.039265748,0.04921945,-0.006563436,0.15
9476000,0.039175384,0.04920982,-0.006482918,0.15
9480000,0.039167315,0.04926575,-0.006482063,0.15
9484000,0.039149355,0.049316637,-0.006481652,0.15
9488000,0.039158378,0.049316477,-0.006481344,0.15
9492000,0.039187122,0.049232516,-0.006482056,0.15
9496000,0.039189257,0.049152415,-0.006483605,0.15
9500000,0.03906818,0.049167994,-0.006423345,0.15
9504000,0.039065305,0.049146112,-0.006423886,0.15
9508000,0.039085083,0.049087767,-0.006424389,0.15
9512000,0.03907122,0.04908322,-0.006424956,0.15
9520000,0.03903797,0.04909205,-0.006425917,0.15
9524000,0.039012846,0.049106546,-0.006403742,0.15
9528000,0.039043,0.04912039,-0.006402429,0.15
9532000,0.03908428,0.04909021,-0.006401625,0.15
9536000,0.039105564,0.04907112,-0.006401283,0.15
9540000,0.039137244,0.049085587,-0.006399903,0.15
9548000,0.039025832,0.04913649,-0.006300055,0.15
9552000,0.03900945,0.04905241,-0.006302324,0.15
9556000,0.03901833,0.04902803,-0.006302516,0.15
9560000,0.039016876,0.049034916,-0.006302425,0.15
9564000,0.039022263,0.048986353,-0.006303227,0.15
9568000,0.039044667,0.04894912,-0.006303218,0.15
9572000,0.03872104,0.04895385,-0.006076295,0.15
9576000,0.038733255,0.048906997,-0.00607683,0.15
9580000,0.038764328,0.048821762,-0.006077503,0.15
9584000,0.038772415,0.04878765,-0.006077922,0.15
9588000,0.03876543,0.048789185,-0.006078129,0.15
9592000,0.03876339,0.04883819,-0.006077202,0.15
9596000,0.038944993,0.04890427,-0.006205501,0.15
9600000,0.03894753,0.048900437,-0.006205492,0.15
9604000,0.038924217,0.048851702,-0.006207279,0.15
9608000,0.038868405,0.04880775,-0.006210075,0.15
9612000,0.03882262,0.04879578,-0.006211878,0.15
9616000,0.03878591,0.048804324,-0.006212955,0.15
9620000,0.038720794,0.048807375,-0.006173101,0.15
9624000,0.038726624,0.04882403,-0.006172566,0.15
9628000,0.038709763,0.048788376,-0.006173861,0.15
9632000,0.038687367,0.048748117,-0.006175438,0.15
9636000,0.038666107,0.048795417,-0.006175207,0.15
9644000,0.038334623,0.048878346,-0.005929881,0.15
9652000,0.038321245,0.048962034,-0.005928649,0.15
9656000,0.038300026,0.048977956,-0.005929053,0.15
9660000,0.038285606,0.048919283,-0.005930728,0.15
9664000,0.038282853,0.048839547,-0.005932431,0.15
9668000,0.03824896,0.04878139,-0.005901931,0.15
9672000,0.03824181,0.048748966,-0.005902827,0.15
9676000,0.038219765,0.04870849,-0.005904393,0.15
9680000,0.03821494,0.04867032,-0.005905326,0.15
9684000,0.038244143,0.048646223,-0.00590482,0.15
9688000,0.038223222,0.048625838,-0.005905941,0.15
9692000,0.03788411,0.048629805,-0.005702171,0.15
9696000,0.037875146,0.048617046,-0.005702731,0.15
9700000,0.037887298,0.048565358,-0.005703358,0.15
9704000,0.037911512,0.048544995,-0.005702946,0.15
9708000,0.037923057,0.04855343,-0.005702385,0.15
9712000,0.03793539,0.048541516,-0.005702208,0.15
9720000,0.037710387,0.04850621,-0.005550071,0.15
9724000,0.037753835,0.048494056,-0.005548845,0.15
9728000,0.037786536,0.04848585,-0.005547903,0.15
9732000,0.03775695,0.048470296,-0.005549218,0.15
9740000,0.03713021,0.04843873,-0.005139062,0.15
9748000,0.037167072,0.048393458,-0.005138728,0.15
9756000,0.037170168,0.04833347,-0.005139831,0.15
9760000,0.037162103,0.048275582,-0.00514127,0.15
9764000,0.03700812,0.048249826,-0.005020493,0.15
9768000,0.0370165,0.04825069,-0.005020193,0.15
9772000,0.03702863,0.048264734,-0.005019501,0.15
9780000,0.03704753,0.04829943,-0.005018164,0.15
9784000,0.037024017,0.048328586,-0.005018369,0.15
9788000,0.03671798,0.048348635,-0.004820785,0.15
9792000,0.03673083,0.048366874,-0.004819983,0.15
9796000,0.03675649,0.04837798,-0.004818892,0.15
9800000,0.036760557,0.048358962,-0.004819138,0.15
9804000,0.03675401,0.048321657,-0.004820112,0.15
9808000,0.036745287,0.04828409,-0.004821163,0.15
9812000,0.03646648,0.048299465,-0.004630926,0.15
9816000,0.03645605,0.048323918,-0.004630785,0.15
9820000,0.03644393,0.048299816,-0.00463168,0.15
9824000,0.036460437,0.04827658,-0.004631591,0.15
9828000,0.036494367,0.048248686,-0.004631009,0.15
9836000,0.036176752,0.048228,-0.004408996,0.15
9840000,0.036195267,0.04822564,-0.00440842,0.15
9844000,0.03624711,0.0482185,-0.004406818,0.15
9852000,0.03628394,0.048186425,-0.004406226,0.15
9856000,0.03627986,0.04820504,-0.004405987,0.15
9860000,0.035979424,0.048206612,-0.004193197,0.15
9864000,0.03597715,0.048200324,-0.004193401,0.15
9868000,0.035964742,0.048204757,-0.004193729,0.15
9872000,0.035969112,0.04818686,-0.004193944,0.15
9876000,0.03596249,0.04819857,-0.00419393,0.15
9880000,0.03596582,0.04816696,-0.004194456,0.15
9884000,0.03561618,0.048080917,-0.003937624,0.15
9888000,0.035629805,0.04799154,-0.003938973,0.15
9892000,0.03565395,0.04790788,-0.003939856,0.15
9896000,0.03569262,0.0478608,-0.003939517,0.15
9900000,0.035705537,0.047835976,-0.003939588,0.15
9904000,0.035682946,0.047827587,-0.003940513,0.15
9908000,0.035072163,0.047801223,-0.00353109,0.15
9916000,0.035047676,0.047827132,-0.003531384,0.15
9920000,0.035043273,0.047813658,-0.003531804,0.15
9924000,0.035062883,0.04784893,-0.003530436,0.15
9928000,0.035112154,0.04785584,-0.003528648,0.15
9932000,0.034361273,0.047883376,-0.002986321,0.15
9936000,0.03433635,0.04792879,-0.002986236,0.15
9940000,0.034335945,0.04793874,-0.002986048,0.15
9944000,0.034346547,0.047910463,-0.002986265,0.15
9948000,0.03435425,0.047890652,-0.002986409,0.15
9952000,0.034384727,0.047878206,-0.00298564,0.15
9956000,0.034398668,0.047844686,-0.002985939,0.15
9960000,0.034442797,0.047844533,-0.002984466,0.15
9964000,0.03447091,0.047834117,-0.002983738,0.15
9968000,0.03445809,0.047778405,-0.002985298,0.15
9972000,0.034456737,0.04771964,-0.002986537,0.15
9976000,0.03445173,0.047742452,-0.002986241,0.15
9980000,0.033243965,0.04777409,-0.002134934,0.15
9984000,0.033269837,0.04778637,-0.00213382,0.15
9988000,0.033298217,0.047800973,-0.002132575,0.15
9992000,0.03330405,0.04781267,-0.002132142,0.15
9996000,0.03328596,0.047819715,-0.002132604,0.15
10000000,0.033269554,0.04783376,-0.002132867,0.15
10004000,0.03337406,0.04783531,-0.002196876,0.15
10008000,0.033384886,0.047799703,-0.002197237,0.15
10012000,0.03336142,0.047801763,-0.00219798,0.15
10016000,0.033334993,0.04783584,-0.002198172,0.15
10020000,0.033315036,0.047859084,-0.002198368,0.15
10024000,0.033301834,0.047914807,-0.002197681,0.15
10028000,0.03364216,0.047929645,-0.002432404,0.15
10032000,0.033672113,0.047914997,-0.002431697,0.15
10036000,0.03369542,0.047942027,-0.002430368,0.15
10040000,0.033680875,0.047984544,-0.002429992,0.15
10044000,0.033660535,0.04800593,-0.00243024,0.15
10052000,0.033852357,0.048006628,-0.002518474,0.15
10056000,0.033868775,0.04795835,-0.002518906,0.15
10060000,0.033871878,0.047953732,-0.002518896,0.15
10064000,0.03386556,0.047958743,-0.002519005,0.15
10068000,0.03384891,0.04794793,-0.002519784,0.15
10072000,0.033838738,0.047981855,-0.002519435,0.15
10076000,0.033556346,0.04800118,-0.00233128,0.15
10080000,0.033542927,0.048013538,-0.00233148,0.15
10084000,0.033528823,0.047999915,-0.00233223,0.15
10088000,0.033505842,0.04794458,-0.002334123,0.15
10092000,0.033486653,0.047913216,-0.002335402,0.15
10096000,0.033459146,0.04790369,-0.002336517,0.15
10100000,0.033541843,0.047901597,-0.002426217,0.15
10104000,0.033537325,0.047870968,-0.002426987,0.15
10108000,0.033558212,0.047849145,-0.00242673,0.15
10116000,0.03352206,0.047881693,-0.002427282,0.15
10124000,0.033579398,0.047841724,-0.002489186,0.15
10132000,0.03349072,0.04784245,-0.002492138,0.15
10136000,0.03348949,0.04784222,-0.002492184,0.15
10140000,0.033496562,0.047883783,-0.002491111,0.15
10148000,0.033893418,0.047972236,-0.002745991,0.15
10152000,0.033857096,0.0479818,-0.002747017,0.15
10156000,0.0338583,0.04793558,-0.002747907,0.15
10164000,0.033802506,0.04790656,-0.002750361,0.15
10168000,0.03380737,0.0479131,-0.002750066,0.15
10172000,0.033337135,0.047947377,-0.002425207,0.15
10176000,0.03332274,0.04794431,-0.002425751,0.15
10184000,0.0332728,0.047968693,-0.002426937,0.15
10188000,0.03328509,0.047977537,-0.002426348,0.15
10192000,0.033305064,0.047939703,-0.002426436,0.15
10196000,0.03332819,0.047914546,-0.002458121,0.15
10200000,0.03330454,0.047962762,-0.002457948,0.15
10204000,0.033299472,0.04801382,-0.002457095,0.15
10208000,0.03329274,0.048007037,-0.002457457,0.15
10212000,0.033315826,0.047995273,-0.002456918,0.15
10216000,0.033343095,0.048004393,-0.00245582,0.15
10220000,0.033686947,0.048008706,-0.002683446,0.15
10224000,0.033689704,0.04799951,-0.002683538,0.15
10228000,0.03365129,0.04797679,-0.002685283,0.15
10232000,0.033620555,0.047977637,-0.002686297,0.15
10236000,0.03362071,0.04798598,-0.002686125,0.15
10240000,0.033637453,0.047947746,-0.002686329,0.15
10244000,0.028341347,0.047898114,-0.002686329,0
10248000,0.028318997,0.0479045,-0.002686329,0
10252000,0.028302545,0.04790808,-0.002686329,0
10260000,0.028366718,0.04792893,-0.002686329,0
10264000,0.028363317,0.047930487,-0.002686329,0
10268000,0.028376834,0.047881722,-0.002686329,1
10272000,0.02837465,0.047886994,-0.002686329,1
10276000,0.028381875,0.04787425,-0.002686329,1
10280000,0.028389594,0.047889616,-0.002686329,1
10284000,0.028397392,0.047895476,-0.002686329,1
10288000,0.028406722,0.04785372,-0.002686329,1
10292000,0.02841363,0.04783369,-0.002686329,1
10296000,0.028448243,0.04783458,-0.002686329,1
10300000,0.028498692,0.047839515,-0.002686329,1
10304000,0.028539892,0.047835812,-0.002686329,1
10312000,0.028511181,0.04775066,-0.002686329,1
10316000,0.028516099,0.04770499,-0.002686329,1
10320000,0.028535262,0.047693964,-0.002686329,1
10324000,0.028530398,0.047688898,-0.002686329,1
10328000,0.028524013,0.04771712,-0.002686329,1
10332000,0.028522631,0.047726773,-0.002686329,1
10336000,0.028528346,0.047718313,-0.002686329,1
10340000,0.028523438,0.04775055,-0.002686329,1
10344000,0.028510546,0.047774713,-0.002686329,1
10348000,0.028491111,0.047759473,-0.002686329,1
10356000,0.02848189,0.04774901,-0.002686329,1
10360000,0.028434608,0.047733173,-0.002686329,1
10368000,0.028419256,0.047782417,-0.002686329,1
10372000,0.028401136,0.0477605,-0.002686329,1
10376000,0.028394384,0.047740635,-0.002686329,1
10380000,0.028423516,0.047709778,-0.002686329,1
10384000,0.028418187,0.047666293,-0.002686329,1
10388000,0.028407428,0.04763648,-0.002686329,1
10396000,0.028485842,0.047655623,-0.002686329,1
10400000,0.028519114,0.04765799,-0.002686329,1
10404000,0.028534109,0.047673725,-0.002686329,1
10408000,0.028516285,0.047661863,-0.002686329,1
10412000,0.028532399,0.04765938,-0.002686329,1
10416000,0.028580932,0.047648236,-0.002686329,1
10420000,0.02862088,0.04763965,-0.002686329,1
10428000,0.02864008,0.04770765,-0.002686329,1
10432000,0.028617792,0.047707383,-0.002686329,1
10436000,0.028590161,0.047682796,-0.002686329,1
10444000,0.028528934,0.04759634,-0.002686329,1
10448000,0.028499713,0.047614247,-0.002686329,1
10452000,0.028473891,0.0476508,-0.002686329,1
10460000,0.02845794,0.047594585,-0.002686329,1
10464000,0.028469888,0.04760266,-0.002686329,1
10468000,0.028473148,0.04760563,-0.002686329,1
10472000,0.028499566,0.04758238,-0.002686329,1
10476000,0.028529162,0.047547188,-0.002686329,1
10480000,0.028517503,0.047506366,-0.002686329,1
10484000,0.028489588,0.047489893,-0.002686329,1
10488000,0.028471202,0.047467567,-0.002686329,1
10492000,0.028469026,0.047443856,-0.002686329,1
10500000,0.028554011,0.047346476,-0.002686329,1
10504000,0.028548049,0.04725943,-0.002686329,1
10508000,0.02855571,0.0473,-0.002686329,1
10512000,0.028517526,0.04736887,-0.002686329,1
10516000,0.028456833,0.04734604,-0.002686329,1
10520000,0.028436836,0.047334865,-0.002686329,1
10528000,0.028416509,0.047308717,-0.002686329,1
10532000,0.028407812,0.047305096,-0.002686329,1
10536000,0.028387604,0.04727145,-0.002686329,1
10540000,0.028370071,0.04724577,-0.002686329,1
10544000,0.028362855,0.047242522,-0.002686329,1
10548000,0.028385323,0.04724053,-0.002686329,1
10552000,0.028437505,0.047239635,-0.002686329,1
10556000,0.028488483,0.0472489,-0.002686329,1
10560000,0.028525013,0.047224827,-0.002686329,1
10564000,0.028535575,0.047183678,-0.002686329,1
10568000,0.028505387,0.04716785,-0.002686329,1
10572000,0.02849143,0.047115996,-0.002686329,1
10576000,0.028495973,0.0470258,-0.002686329,1
10580000,0.028475598,0.046973836,-0.002686329,1
10584000,0.028443914,0.046972357,-0.002686329,1
10588000,0.028457768,0.04699493,-0.002686329,1
10592000,0.028494634,0.046998885,-0.002686329,1
10596000,0.028494611,0.04695788,-0.002686329,1
10600000,0.028477665,0.046962522,-0.002686329,1
10604000,0.028492289,0.04695105,-0.002686329,1
10608000,0.028498406,0.046891868,-0.002686329,1
10612000,0.028457798,0.046897672,-0.002686329,1
10616000,0.028421044,0.04691679,-0.002686329,1
10624000,0.02838432,0.04692102,-0.002686329,1
10628000,0.02837936,0.04692541,-0.002686329,1
10632000,0.028374374,0.046942867,-0.002686329,1
10640000,0.02853143,0.04684253,-0.002686329,1
10644000,0.028626755,0.04684472,-0.002686329,1
10648000,0.028734831,0.046788204,-0.002686329,1
10652000,0.028777493,0.04674281,-0.002686329,1
10656000,0.028809058,0.04671259,-0.002686329,1
10660000,0.028865427,0.04667431,-0.002686329,1
10664000,0.028920466,0.046649948,-0.002686329,1
10668000,0.028964465,0.046647847,-0.002686329,1
10672000,0.029020874,0.04662854,-0.002686329,1
10676000,0.02909907,0.046578724,-0.002686329,1
10680000,0.029155338,0.04653889,-0.002686329,1
10684000,0.029245699,0.046535123,-0.002686329,1
10692000,0.029349789,0.046519723,-0.002686329,1
10696000,0.029392123,0.046544258,-0.002686329,1
10700000,0.029430158,0.046562538,-0.002686329,1
10704000,0.029455958,0.046551183,-0.002686329,1
10708000,0.029491082,0.046497397,-0.002686329,1
10712000,0.029553656,0.046421677,-0.002686329,1
10716000,0.029596284,0.046404287,-0.002686329,1
10720000,0.02966262,0.04641419,-0.002686329,1
10724000,0.02974592,-0.5296073,-0.002686329,1
10728000,0.029816011,-0.52966505,-0.002686329,1
10732000,0.029902902,-0.5296844,-0.002686329,1
10736000,0.030006628,-0.529673,-0.002686329,1
10740000,0.030101238,-0.5296856,-0.002686329,1
10744000,0.030176064,-0.52971745,-0.002686329,1
10748000,0.030228704,-0.49993727,-0.002686329,1
10752000,0.030219637,-0.49999863,-0.002686329,1
10756000,0.030152706,-0.5000442,-0.002686329,1
10764000,0.030023897,-0.5002693,-0.002686329,1
10768000,0.029896954,-0.5003457,-0.002686329,1
10772000,0.029773274,-0.47236615,-0.002686329,1
10780000,0.029458899,-0.47250575,-0.002686329,1
10788000,0.028939303,-0.4726608,-0.002686329,1
10792000,0.028619744,-0.47278884,-0.002686329,1
10796000,0.028266583,-0.44669664,-0.002686329,1
10800000,0.027847122,-0.44678628,-0.002686329,1
10808000,0.026871962,-0.44699565,-0.002686329,1
10812000,0.02636538,-0.44708693,-0.002686329,1
10816000,0.025820434,-0.44714075,-0.002686329,1
10820000,0.025237001,-0.42255494,-0.002686329,1
10824000,0.024630072,-0.42263818,-0.002686329,1
10832000,0.023297686,-0.4228056,-0.002686329,1
10836000,0.022562584,-0.42291242,-0.002686329,1
10840000,0.02177577,-0.42300242,-0.002686329,1
10844000,0.021011015,-0.39985713,-0.002686329,1
10848000,0.02018213,-0.40006867,-0.002686329,1
10852000,0.019333126,-0.4002807,-0.002686329,1
10856000,0.018419452,-0.40046123,-0.002686329,1
10860000,0.01742127,-0.40063736,-0.002686329,1
10864000,0.01639925,-0.4008377,-0.002686329,1
10868000,0.015324976,-0.3787393,-0.002686329,1
10872000,0.014202489,-0.37894252,-0.002686329,1
10876000,0.013029021,-0.37920213,-0.002686329,1
10880000,0.011803042,-0.37945276,-0.002686329,1
10884000,0.010539781,-0.37964055,-0.002686329,1
10888000,0.009248638,-0.37985206,-0.002686329,1
10892000,0.007914389,-0.35890692,-0.002686329,1
10900000,0.00510893,-0.3592753,-0.002686329,1
10904000,0.003626781,-0.3594707,-0.002686329,1
10908000,0.002121148,-0.3596819,-0.002686329,1
10912000,0.000602479,-0.35986274,-0.002686329,1
10916000,-0.00098275,-0.33974805,-0.002686329,1
10924000,-0.004264837,-0.33997807,-0.002686329,1
10928000,-0.005966971,-0.34014332,-0.002686329,1
10932000,-0.007690212,-0.34032413,-0.002686329,1
10936000,-0.009406326,-0.34049204,-0.002686329,1
10940000,-0.011176426,-0.321183,-0.002686329,1
10944000,-0.012988238,-0.32137588,-0.002686329,1
10948000,-0.014810449,-0.32151914,-0.002686329,1
10952000,-0.01665879,-0.32168216,-0.002686329,1
10956000,-0.018555315,-0.3218329,-0.002686329,1
10960000,-0.020494595,-0.32193112,-0.002686329,1
10964000,-0.022443423,-0.30322984,-0.002686329,1
10968000,-0.02440532,-0.303393,-0.002686329,1
10972000,-0.026385311,-0.30359954,-0.002686329,1
10976000,-0.02832962,-0.30372658,-0.002686329,1
10980000,-0.03027135,-0.30380562,-0.002686329,1
10984000,-0.032217026,-0.30390537,-0.002686329,1
10988000,-0.03414266,-0.28579858,-0.002686329,1
10992000,-0.036085237,-0.28582504,-0.002686329,1
10996000,-0.03804884,-0.28585538,-0.002686329,1
11000000,-0.040026944,-0.2858262,-0.002686329,1
11004000,-0.04204068,-0.28578874,-0.002686329,1
11008000,-0.04405522,-0.28576857,-0.002686329,1
11012000,-0.04606966,-0.26822186,-0.002686329,1
11020000,-0.05010127,-0.26830134,-0.002686329,1
11024000,-0.052084032,-0.2683199,-0.002686329,1
11028000,-0.054072496,-0.26834962,-0.002686329,1
11036000,-0.058089007,-0.25129116,-0.002686329,1
11040000,-0.06010298,-0.25127998,-0.002686329,1
11044000,-0.062047504,-0.25137338,-0.002686329,1
11048000,-0.063956626,-0.25151026,-0.002686329,1
11052000,-0.06585309,-0.2516428,-0.002686329,1
11056000,-0.06776982,-0.25172684,-0.002686329,1
11060000,-0.06968444,-0.23521048,-0.002686329,1
11064000,-0.071557105,-0.23530184,-0.002686329,1
11068000,-0.07342147,-0.2353619,-0.002686329,1
11072000,-0.07531158,-0.23543414,-0.002686329,1
11076000,-0.07720142,-0.23551837,-0.002686329,1
11080000,-0.07904175,-0.23557103,-0.002686329,1
11084000,-0.08084923,-0.21944736,-0.002686329,1
11088000,-0.08265897,-0.21955621,-0.002686329,1
11092000,-0.08448129,-0.21963264,-0.002686329,1
11096000,-0.0863051,-0.21971759,-0.002686329,1
11100000,-0.08813555,-0.21979162,-0.002686329,1
11108000,-0.091734804,-0.20417914,-0.002686329,1
11112000,-0.093567535,-0.2042879,-0.002686329,1
11116000,-0.09537183,-0.20439187,-0.002686329,1
11120000,-0.09713556,-0.20446323,-0.002686329,1
11124000,-0.09890644,-0.20455241,-0.002686329,1
11128000,-0.10065607,-0.20468129,-0.002686329,1
11132000,-0.10238006,-0.18939212,-0.002686329,1
11140000,-0.10587221,-0.18961596,-0.002686329,1
11144000,-0.107568614,-0.1897519,-0.002686329,1
11148000,-0.10927874,-0.18990275,-0.002686329,1
11152000,-0.11097113,-0.19008945,-0.002686329,1
11156000,-0.112663426,-0.17518242,-0.002686329,1
11164000,-0.11605618,-0.1755459,-0.002686329,1
11168000,-0.117716245,-0.17575282,-0.002686329,1
11172000,-0.119374126,-0.17602348,-0.002686329,1
11176000,-0.121013515,-0.17633456,-0.002686329,1
11180000,-0.12262514,-0.16182792,-0.002686329,1
11188000,-0.12582794,-0.16248131,-0.002686329,1
11192000,-0.1274016,-0.1628483,-0.002686329,1
11196000,-0.1289652,-0.16327947,-0.002686329,1
11200000,-0.13053869,-0.16377063,-0.002686329,1
11204000,-0.13210733,-0.14974844,-0.002686329,1
11208000,-0.13366221,-0.15021092,-0.002686329,1
11212000,-0.13516307,-0.15067784,-0.002686329,1
11216000,-0.1366518,-0.15122762,-0.002686329,1
11220000,-0.13816856,-0.15177129,-0.002686329,1
11224000,-0.13971129,-0.15232554,-0.002686329,1
11228000,-0.14125016,-0.13862617,-0.002686329,1
11232000,-0.14274871,-0.13927034,-0.002686329,1
11236000,-0.14421052,-0.13995312,-0.002686329,1
11240000,-0.1456225,-0.14067446,-0.002686329,1
11244000,-0.14700638,-0.14138542,-0.002686329,1
11248000,-0.14841448,-0.1421064,-0.002686329,1
11252000,-0.14979894,-0.12885103,-0.002686329,1
11256000,-0.15114477,-0.1296744,-0.002686329,1
11260000,-0.15250003,-0.13054764,-0.002686329,1
11264000,-0.15382966,-0.1314934,-0.002686329,1
11268000,-0.15513034,-0.1324539,-0.002686329,1
11272000,-0.15644206,-0.1334551,-0.002686329,1
11276000,-0.15774377,-0.12057612,-0.002686329,1
11280000,-0.15904678,-0.121583655,-0.002686329,1
11284000,-0.16034849,-0.12255862,-0.002686329,1
11288000,-0.16163523,-0.12356005,-0.002686329,1
11292000,-0.16289538,-0.12456796,-0.002686329,1
11296000,-0.1641121,-0.12563126,-0.002686329,1
11300000,-0.16532981,-0.113005966,-0.002686329,1
11304000,-0.16654293,-0.11414513,-0.002686329,1
11312000,-0.16892862,-0.116465665,-0.002686329,1
11316000,-0.17013127,-0.11767557,-0.002686329,1
11320000,-0.17134431,-0.11886921,-0.002686329,1
11324000,-0.17253515,-0.10656557,-0.002686329,1
11328000,-0.17371248,-0.107875004,-0.002686329,1
11336000,-0.17608619,-0.11055175,-0.002686329,1
11340000,-0.17729367,-0.11193115,-0.002686329,1
11344000,-0.17844893,-0.113331914,-0.002686329,1
11348000,-0.17956352,-0.10132812,-0.002686329,1
11356000,-0.18187839,-0.104170725,-0.002686329,1
11364000,-0.184148,-0.10715764,-0.002686329,1
11372000,-0.18628211,-0.09681027,-0.002686329,1
11376000,-0.18735039,-0.09833057,-0.002686329,1
11380000,-0.18839583,-0.09983626,-0.002686329,1
11388000,-0.19046964,-0.10285698,-0.002686329,1
11392000,-0.19150665,-0.104443446,-0.002686329,1
11396000,-0.19251871,-0.092895634,-0.002686329,1
11400000,-0.19350983,-0.094521895,-0.002686329,1
11404000,-0.19452319,-0.09613849,-0.002686329,1
11412000,-0.1965291,-0.09944761,-0.002686329,1
11416000,-0.19752625,-0.101100646,-0.002686329,1
11420000,-0.19856335,-0.08971899,-0.002686329,1
11424000,-0.19958712,-0.091428675,-0.002686329,1
11428000,-0.20058735,-0.09310811,-0.002686329,1
11432000,-0.20156956,-0.09476747,-0.002686329,1
11436000,-0.20254782,-0.09645176,-0.002686329,1
11440000,-0.2034885,-0.098190606,-0.002686329,1
11444000,-0.2044184,-0.08692707,-0.002686329,1
11452000,-0.20627528,-0.090318635,-0.002686329,1
11460000,-0.2080514,-0.093734436,-0.002686329,1
11464000,-0.20894173,-0.09552129,-0.002686329,1
11468000,-0.20982443,-0.0843618,-0.002686329,1
11472000,-0.21067531,-0.086116984,-0.002686329,1
11476000,-0.21149346,-0.08786362,-0.002686329,1
11480000,-0.21228743,-0.089592814,-0.002686329,1
11484000,-0.213082,-0.09134102,-0.002686329,1
11488000,-0.21391274,-0.09306579,-0.002686329,1
11492000,-0.2147675,-0.08194333,-0.002686329,1
11496000,-0.21560402,-0.083742045,-0.002686329,1
11500000,-0.2164278,-0.0855069,-0.002686329,1
11504000,-0.21722257,-0.087279454,-0.002686329,1
11508000,-0.21801205,-0.08904938,-0.002686329,1
11512000,-0.21880014,-0.09078414,-0.002686329,1
11516000,-0.21959227,-0.079723336,-0.002686329,1
11520000,-0.22039205,-0.08143216,-0.002686329,1
11524000,-0.22115193,-0.0831416,-0.002686329,1
11528000,-0.22189125,-0.08491097,-0.002686329,1
11532000,-0.22264296,-0.086618766,-0.002686329,1
11536000,-0.22340654,-0.08829728,-0.002686329,1
11540000,-0.2241602,-0.077244975,-0.002686329,1
11544000,-0.22488545,-0.07896829,-0.002686329,1
11548000,-0.22559157,-0.0806847,-0.002686329,1
11552000,-0.2262912,-0.08244198,-0.002686329,1
11556000,-0.22701061,-0.084176086,-0.002686329,1
11560000,-0.22774199,-0.085801594,-0.002686329,1
11564000,-0.22845307,-0.074670516,-0.002686329,1
11568000,-0.22913252,-0.07633449,-0.002686329,1
11576000,-0.23049621,-0.07970329,-0.002686329,1
11580000,-0.23115546,-0.08136451,-0.002686329,1
11584000,-0.23177296,-0.08300586,-0.002686329,1
11588000,-0.23239172,-0.07197776,-0.002686329,1
11592000,-0.23305094,-0.07367191,-0.002686329,1
11596000,-0.23366983,-0.07535723,-0.002686329,1
11600000,-0.23427057,-0.07700959,-0.002686329,1
11604000,-0.23488104,-0.07865918,-0.002686329,1
11608000,-0.23545381,-0.08029256,-0.002686329,1
11612000,-0.23602258,-0.069201134,-0.002686329,1
11616000,-0.23660044,-0.07083775,-0.002686329,1
11620000,-0.23716864,-0.072441265,-0.002686329,1
11624000,-0.23775145,-0.0740363,-0.002686329,1
11628000,-0.23832719,-0.07567828,-0.002686329,1
11632000,-0.23887442,-0.077304296,-0.002686329,1
11636000,-0.23941296,-0.06621636,-0.002686329,1
11640000,-0.23990862,-0.06776926,-0.002686329,1
11644000,-0.24040678,-0.06931881,-0.002686329,1
11648000,-0.2409542,-0.070907675,-0.002686329,1
11652000,-0.24148934,-0.07247607,-0.002686329,1
11656000,-0.24198735,-0.07403468,-0.002686329,1
11660000,-0.24248783,-0.06290803,-0.002686329,1
11664000,-0.24301592,-0.064461455,-0.002686329,1
11668000,-0.24351002,-0.06602171,-0.002686329,1
11676000,-0.24448419,-0.06910955,-0.002686329,1
11680000,-0.24497047,-0.07060002,-0.002686329,1
11684000,-0.24543317,-0.05943116,-0.002686329,1
11688000,-0.2458779,-0.060949843,-0.002686329,1
11692000,-0.2463521,-0.062460467,-0.002686329,1
11700000,-0.24723233,-0.065463826,-0.002686329,1
11708000,-0.2480394,-0.055733055,-0.002686329,1
11712000,-0.24843724,-0.05716426,-0.002686329,1
11716000,-0.24883345,-0.058596797,-0.002686329,1
11720000,-0.24922925,-0.05999855,-0.002686329,1
11724000,-0.24960615,-0.06139677,-0.002686329,1
11728000,-0.2499855,-0.0628028,-0.002686329,1
11736000,-0.25076306,-0.05285348,-0.002686329,1
11740000,-0.25115663,-0.054226555,-0.002686329,1
11744000,-0.25155935,-0.0556413,-0.002686329,1
11748000,-0.25194505,-0.057057958,-0.002686329,1
11752000,-0.25231335,-0.058465764,-0.002686329,1
11756000,-0.25269353,-0.047198284,-0.002686329,1
11760000,-0.2530438,-0.048631437,-0.002686329,1
11764000,-0.25339437,-0.05003949,-0.002686329,1
11768000,-0.2537542,-0.05143182,-0.002686329,1
11772000,-0.25408673,-0.052812744,-0.002686329,1
11776000,-0.2543992,-0.05420907,-0.002686329,1
11780000,-0.25471967,-0.04289338,-0.002686329,1
11788000,-0.25538918,-0.045621227,-0.002686329,1
11792000,-0.25571615,-0.046951674,-0.002686329,1
11796000,-0.25607738,-0.04830165,-0.002686329,1
11800000,-0.25638583,-0.04969674,-0.002686329,1
11804000,-0.25667688,-0.03833156,-0.002686329,1
11808000,-0.25698787,-0.03970409,-0.002686329,1
11816000,-0.25763413,-0.042449262,-0.002686329,1
11820000,-0.25796846,-0.0437614,-0.002686329,1
11824000,-0.25831455,-0.045111567,-0.002686329,1
11828000,-0.25866303,-0.03366146,-0.002686329,1
11832000,-0.25902522,-0.035016168,-0.002686329,1
11836000,-0.25934118,-0.03634709,-0.002686329,1
11844000,-0.26006094,-0.038925327,-0.002686329,1
11848000,-0.26038566,-0.04021752,-0.002686329,1
11852000,-0.26071897,-0.028687304,-0.002686329,1
11856000,-0.26105925,-0.029991219,-0.002686329,1
11860000,-0.26141515,-0.031305984,-0.002686329,1
11864000,-0.26177529,-0.03257583,-0.002686329,1
11868000,-0.26210776,-0.03386213,-0.002686329,1
11876000,-0.26270422,-0.023572568,-0.002686329,1
11880000,-0.26300564,-0.024903663,-0.002686329,1
11884000,-0.26330772,-0.02618227,-0.002686329,1
11888000,-0.26362,-0.027443599,-0.002686329,1
11892000,-0.26394963,-0.028752474,-0.002686329,1
11896000,-0.2642934,-0.030068813,-0.002686329,1
11900000,-0.26463425,-0.018495854,-0.002686329,1
11904000,-0.26494464,-0.019846836,-0.002686329,1
11908000,-0.2652653,-0.021173673,-0.002686329,1
11912000,-0.26559272,-0.022484021,-0.002686329,1
11916000,-0.26591662,-0.023823468,-0.002686329,1
11920000,-0.2662574,-0.025122318,-0.002686329,1
11924000,-0.2666073,-0.013500792,-0.002686329,1
11932000,-0.2672698,-0.016120177,-0.002686329,1
11936000,-0.26757863,-0.017431628,-0.002686329,1
11940000,-0.26790676,-0.018763214,-0.002686329,1
11944000,-0.26824144,-0.02008754,-0.002686329,1
11948000,-0.26853487,-0.008485842,-0.002686329,1
11952000,-0.26882946,-0.009816743,-0.002686329,1
11960000,-0.26942953,-0.012460906,-0.002686329,1
11964000,-0.26970506,-0.013787784,-0.002686329,1
11968000,-0.26998642,-0.015107687,-0.002686329,1
11972000,-0.2703074,-0.003468665,-0.002686329,1
11976000,-0.27061743,-0.004834783,-0.002686329,1
11980000,-0.27094606,-0.006178619,-0.002686329,1
11984000,-0.2712805,-0.007501421,-0.002686329,1
11988000,-0.27156886,-0.008816225,-0.002686329,1
11992000,-0.27187338,-0.010157719,-0.002686329,1
11996000,-0.2721929,0.001548414,-0.002686329,1
12004000,-0.27283767,-0.001098284,-0.002686329,1
12008000,-0.2731486,-0.002402254,-0.002686329,1
12012000,-0.2734272,-0.003671057,-0.002686329,1
12020000,-0.27402738,0.006739923,-0.002686329,1
12024000,-0.27434292,0.005360173,-0.002686329,1
12028000,-0.27462304,0.004002532,-0.002686329,1
12032000,-0.27490795,0.00269301,-0.002686329,1
12036000,-0.2752457,0.001353845,-0.002686329,1
12040000,-0.27558208,-2.98E-05,-0.002686329,1
12044000,-0.27589846,0.01172518,-0.002686329,1
12048000,-0.27620628,0.010363322,-0.002686329,1
12052000,-0.2764881,0.008995333,-0.002686329,1
12056000,-0.27674785,0.00755314,-0.002686329,1
12060000,-0.27702072,0.006133785,-0.002686329,1
12068000,-0.27757874,0.016582096,-0.002686329,1
12072000,-0.2778666,0.015184009,-0.002686329,1
12076000,-0.27812696,0.013820044,-0.002686329,1
12080000,-0.27837917,0.012456856,-0.002686329,1
12084000,-0.27865803,0.011055124,-0.002686329,1
12088000,-0.27896616,0.009629533,-0.002686329,1
12092000,-0.2792611,0.02145452,-0.002686329,1
12096000,-0.27953506,0.020084996,-0.002686329,1
12100000,-0.27980068,0.018736543,-0.002686329,1
12108000,-0.2803835,0.016025813,-0.002686329,1
12112000,-0.28067076,0.014696804,-0.002686329,1
12116000,-0.28095952,0.02664086,-0.002686329,1
12120000,-0.2812267,0.02526393,-0.002686329,1
12124000,-0.28144908,0.023871763,-0.002686329,1
12132000,-0.2819558,0.021007402,-0.002686329,1
12136000,-0.2821966,0.019594759,-0.002686329,1
12140000,-0.28242087,0.031507853,-0.002686329,1
12144000,-0.2826515,0.030089168,-0.002686329,1
12148000,-0.2828804,0.028747745,-0.002686329,1
12152000,-0.2831036,0.027354095,-0.002686329,1
12156000,-0.28332606,0.025904618,-0.002686329,1
12160000,-0.28358003,0.024475085,-0.002686329,1
12164000,-0.28384644,0.03644261,-0.002686329,1
12168000,-0.28407502,0.034997303,-0.002686329,1
12172000,-0.28425458,0.033576258,-0.002686329,1
12180000,-0.28468886,0.030790823,-0.002686329,1
12184000,-0.28491277,0.029411303,-0.002686329,1
12188000,-0.28515008,0.04143192,-0.002686329,1
12192000,-0.28540012,0.03996855,-0.002686329,1
12196000,-0.28563732,0.038547825,-0.002686329,1
12200000,-0.2858811,0.03714171,-0.002686329,1
12204000,-0.28613126,0.03569944,-0.002686329,1
12212000,-0.2865399,0.046366807,-0.002686329,1
12220000,-0.28697848,0.04347752,-0.002686329,1
12224000,-0.28716788,0.042096786,-0.002686329,1
12228000,-0.28732845,0.040695056,-0.002686329,1
12236000,-0.28769046,0.05138293,-0.002686329,1
12244000,-0.2880814,0.048528235,-0.002686329,1
12248000,-0.28826737,0.047151037,-0.002686329,1
12252000,-0.28843233,0.045716584,-0.002686329,1
12256000,-0.28862217,0.044264175,-0.002686329,1
12264000,-0.2889719,0.055023506,-0.002686329,1
12268000,-0.28923467,0.053633545,-0.002686329,1
12272000,-0.2894824,0.052218977,-0.002686329,1
12276000,-0.2897145,0.050827075,-0.002686329,1
12280000,-0.28993076,0.049469594,-0.002686329,1
12284000,-0.2901316,0.06174264,-0.002686329,1
12288000,-0.29033574,0.06034319,-0.002686329,1
12292000,-0.2905318,0.058975454,-0.002686329,1
12296000,-0.29073876,0.05760447,-0.002686329,1
12300000,-0.29095438,0.056218382,-0.002686329,1
12304000,-0.2911459,0.054814696,-0.002686329,1
12308000,-0.29131225,0.06716324,-0.002686329,1
12312000,-0.29149595,0.065797865,-0.002686329,1
12316000,-0.29169503,0.06439302,-0.002686329,1
12320000,-0.29185328,0.063008055,-0.002686329,1
12324000,-0.292035,0.06161281,-0.002686329,1
12328000,-0.29221877,0.060208283,-0.002686329,1
12332000,-0.2923874,0.07258386,-0.002686329,1
12336000,-0.29254174,0.07116356,-0.002686329,1
12340000,-0.29269013,0.06975792,-0.002686329,1
12344000,-0.2928819,0.06837678,-0.002686329,1
12348000,-0.29303217,0.06695284,-0.002686329,1
12352000,-0.29316652,0.06548538,-0.002686329,1
12356000,-0.2933175,0.07788483,-0.002686329,1
12360000,-0.29346538,0.076514915,-0.002686329,1
12364000,-0.29363745,0.075156,-0.002686329,1
12368000,-0.29379582,0.07377304,-0.002686329,1
12372000,-0.29391178,0.0723314,-0.002686329,1
12380000,-0.29415512,0.0834134,-0.002686329,1
12384000,-0.2943077,0.082049064,-0.002686329,1
12388000,-0.29445556,0.08067285,-0.002686329,1
12392000,-0.29457814,0.079277426,-0.002686329,1
12396000,-0.2947174,0.07791028,-0.002686329,1
12400000,-0.29489654,0.07657376,-0.002686329,1
12404000,-0.29505673,0.08915067,-0.002686329,1
12408000,-0.29518813,0.087749034,-0.002686329,1
12412000,-0.29531673,0.08634283,-0.002686329,1
12416000,-0.2954406,0.08492628,-0.002686329,1
12420000,-0.29558337,0.08350507,-0.002686329,1
12424000,-0.29573843,0.082149364,-0.002686329,1
12428000,-0.29588285,0.09479053,-0.002686329,1
12432000,-0.29604003,0.09342456,-0.002686329,1
12436000,-0.2961907,0.09204433,-0.002686329,1
12440000,-0.296335,0.09068428,-0.002686329,1
12444000,-0.29646316,0.08932595,-0.002686329,1
12448000,-0.29660174,0.08795554,-0.002686329,1
12452000,-0.29678556,0.10059292,-0.002686329,1
12456000,-0.29694065,0.09917378,-0.002686329,1
12460000,-0.29704842,0.097790204,-0.002686329,1
12468000,-0.2973108,0.09502512,-0.002686329,1
12472000,-0.2974797,0.0935783,-0.002686329,1
12476000,-0.29766628,0.106230326,-0.002686329,1
12480000,-0.29786015,0.10478115,-0.002686329,1
12484000,-0.2980286,0.10335956,-0.002686329,1
12488000,-0.29818445,0.10197759,-0.002686329,1
12492000,-0.29835093,0.10055709,-0.002686329,1
12496000,-0.2985193,0.09910519,-0.002686329,1
12500000,-0.29869682,0.111802004,-0.002686329,1
12504000,-0.29889593,0.11041197,-0.002686329,1
12508000,-0.29911935,0.10901936,-0.002686329,1
12512000,-0.299329,0.10761465,-0.002686329,1
12516000,-0.29952213,0.10618838,-0.002686329,1
12524000,-0.29989725,0.11750179,-0.002686329,1
12528000,-0.30012372,0.11612871,-0.002686329,1
12532000,-0.3003318,0.11475475,-0.002686329,1
12536000,-0.3004999,0.1133007,-0.002686329,1
12540000,-0.30067396,0.1118669,-0.002686329,1
12544000,-0.3008648,0.110468365,-0.002686329,1
12548000,-0.30105114,0.123222485,-0.002686329,1
12552000,-0.3012279,0.12176871,-0.002686329,1
12556000,-0.30140394,0.120325126,-0.002686329,1
12560000,-0.3015897,0.11888054,-0.002686329,1
12564000,-0.3017723,0.117471956,-0.002686329,1
12568000,-0.30189142,0.116072334,-0.002686329,1
12572000,-0.30202866,0.12890773,-0.002686329,1
12576000,-0.3021794,0.12753043,-0.002686329,1
12580000,-0.30230162,0.1261537,-0.002686329,1
12584000,-0.30244792,0.12473445,-0.002686329,1
12588000,-0.30258083,0.12326788,-0.002686329,1
12596000,-0.30285874,0.13458245,-0.002686329,1
12600000,-0.30300424,0.1331988,-0.002686329,1
12604000,-0.30316854,0.13179259,-0.002686329,1
12608000,-0.3033447,0.13036923,-0.002686329,1
12612000,-0.30349806,0.12892014,-0.002686329,1
12616000,-0.30368376,0.1274891,-0.002686329,1
12620000,-0.3038603,0.14036286,-0.002686329,1
12628000,-0.30416223,0.13737857,-0.002686329,1
12632000,-0.3043435,0.13587451,-0.002686329,1
12640000,-0.30473825,0.13295136,-0.002686329,1
12644000,-0.304904,0.14586702,-0.002686329,1
12648000,-0.30507898,0.14440101,-0.002686329,1
12652000,-0.3052066,0.14292064,-0.002686329,1
12660000,-0.30545917,0.13989866,-0.002686329,1
12664000,-0.30557173,0.13838021,-0.002686329,1
12668000,-0.3056726,0.15126377,-0.002686329,1
12676000,-0.30594647,0.14824697,-0.002686329,1
12680000,-0.3061139,0.14679407,-0.002686329,1
12684000,-0.30632588,0.14532879,-0.002686329,1
12688000,-0.3065452,0.14388095,-0.002686329,1
12692000,-0.30673486,0.15683411,-0.002686329,1
12696000,-0.30688617,0.1553613,-0.002686329,1
12700000,-0.30703008,0.15391463,-0.002686329,1
12704000,-0.3071783,0.15241548,-0.002686329,1
12708000,-0.3073383,0.15090044,-0.002686329,1
12712000,-0.3075079,0.1493703,-0.002686329,1
12716000,-0.30765104,0.1622458,-0.002686329,1
12719999,-0.3077931,0.16070221,-0.002686329,1
12724000,-0.30794734,0.15925345,-0.002686329,1
12728000,-0.3080944,0.15777984,-0.002686329,1
12731999,-0.30826363,0.15629907,-0.002686329,1
12736000,-0.30844614,0.15482292,-0.002686329,1
12740000,-0.30859888,0.16779193,-0.002686329,1
12744000,-0.30873814,0.16628286,-0.002686329,1
12748000,-0.3088716,0.16476984,-0.002686329,1
12751999,-0.30902797,0.1632162,-0.002686329,1
12756000,-0.30918357,0.16169606,-0.002686329,1
12760000,-0.30929533,0.1602042,-0.002686329,1
12763999,-0.30939844,0.16318722,-0.002686329,1
12768000,-0.30952328,0.16162354,-0.002686329,1
12772000,-0.30966106,0.16006447,-0.002686329,1
12776000,-0.30981442,0.1585206,-0.002686329,1
12780000,-0.3099581,0.1569615,-0.002686329,1
12783999,-0.3101181,0.15541281,-0.002686329,1
12788000,-0.31031784,0.15387385,-0.002686329,1
12792000,-0.3104917,0.15230563,-0.002686329,1
12795999,-0.31059203,0.1507557,-0.002686329,1
12800000,-0.3106846,0.14924811,-0.002686329,1
12804000,-0.31081054,0.14774004,-0.002686329,1
12808000,-0.31094283,0.1461984,-0.002686329,1
12812000,-0.31108007,0.14467981,-0.002686329,1
12815999,-0.3111973,0.14316703,-0.002686329,1
12820000,-0.3113186,0.1416105,-0.002686329,1
12824000,-0.3114741,0.14005677,-0.002686329,1
12827999,-0.3116334,0.13854344,-0.002686329,1
12832000,-0.31178236,0.13708045,-0.002686329,1
12836000,-0.31190842,0.13564107,-0.002686329,1
12840000,-0.31202906,0.13420013,-0.002686329,1
12844000,-0.3121473,0.13280298,-0.002686329,1
12847999,-0.31227046,0.13143824,-0.002686329,1
12852000,-0.31237623,0.13006404,-0.002686329,1
12859999,-0.83649355,0.14737004,0.057788804,1
12864000,-0.836698,0.14605479,0.058074784,1
12868000,-0.8368978,0.1447152,0.058364622,1
12872000,-0.83699805,0.14335895,0.0586391,1
12876000,-0.8368916,0.14199516,0.058876075,1
12879999,-0.83655757,0.140653,0.059065703,1
12884000,-0.8089675,0.13945752,0.059869036,1
12888000,-0.80833465,0.13808163,0.0600051,1
12891999,-0.8075249,0.13669859,0.06010735,1
12896000,-0.8065334,0.1353401,0.060168587,1
12900000,-0.8053589,0.13396151,0.060196534,1
12904000,-0.8040609,0.13254611,0.060205482,1
12908000,-0.8084951,0.13113247,0.060186617,1
12916000,-0.80528367,0.12828103,0.06007752,1
12920000,-0.8034813,0.12686107,0.05997969,1
12923999,-0.8016042,0.12545238,0.059862576,1
12932000,-0.8179208,0.122562125,0.059580833,1
12936000,-0.81579036,0.121202976,0.05939662,1
12943999,-0.81131715,0.11835714,0.058999546,1
12948000,-0.80897367,0.11689387,0.05878202,1
12952000,-0.8065616,0.115488596,0.058537617,1
12955999,-0.80921084,0.11410167,0.05827249,1
12960000,-0.8066893,0.112662,0.05800545,1
12964000,-0.8041112,0.111196846,0.057727866,1
12968000,-0.8014524,0.10976149,0.057425555,1
12972000,-0.7987801,0.108391754,0.057106398,1
12975999,-0.7960596,0.10704105,0.056771055,1
12980000,-0.79806954,0.105729654,0.0564182,1
12984000,-0.7953166,0.10448364,0.05612623,1
12987999,-0.7925095,0.10319079,0.055753738,1
12992000,-0.7896578,0.10185082,0.055376172,1
12996000,-0.7867444,0.10057708,0.054972466,1
13000000,-0.78380865,0.09935406,0.054553248,1
13004000,-0.7851441,0.098113,0.05413515,1
13012000,-0.77918816,0.09571853,0.05325637,1
13016000,-0.77614367,0.09454294,0.05279556,1
13019999,-0.77309215,0.09334876,0.052332893,1
13028000,-0.7848842,0.0909999,0.051384993,1
13032000,-0.7818366,0.0898343,0.05091005,1
13036000,-0.7787581,0.08874397,0.050415404,1
13039999,-0.77565795,0.087654874,0.0499133,1
13044000,-0.77256554,0.08650149,0.049418535,1
13048000,-0.7694383,0.08535447,0.048912574,1
13051999,-0.76944095,0.08426005,0.048389696,1
13056000,-0.7662962,0.083215095,0.047861125,1
13060000,-0.76319164,0.08218565,0.0473364,1
13064000,-0.76008177,0.08117751,0.04680527,1
13068000,-0.7569353,0.08015421,0.04626566,1
13076000,-0.75320524,0.07816339,0.045167066,1
13083999,-0.74702597,0.07623621,0.044285774,1
13088000,-0.7439627,0.07524383,0.043744173,1
13092000,-0.7408705,0.07426589,0.043192208,1
13096000,-0.73774683,0.073316135,0.04262791,1
13100000,-0.7372701,0.07241893,0.042049967,1
13108000,-0.7310876,0.07065992,0.04090845,1
13115999,-0.72496206,0.06895343,0.039764952,1
13120000,-0.72186506,0.06814502,0.03917814,1
13124000,-0.7350226,0.06732616,0.03858614,1
13128000,-0.73196614,0.066514686,0.03800429,1
13132000,-0.7289106,0.06574856,0.037416346,1
13135999,-0.72581255,0.065021664,0.03681365,1
13140000,-0.7227518,0.06430441,0.036216356,1
13144000,-0.71971834,0.06356121,0.035625555,1
13147999,-0.7183422,0.06283066,0.035027713,1
13152000,-0.7153166,0.062153205,0.034429286,1
13156000,-0.71229345,0.061506614,0.033827126,1
13164000,-0.7062185,0.060190525,0.03261375,1
13167999,-0.70321685,0.059538774,0.03201197,1
13172000,-0.7014024,0.05887523,0.03141624,1
13180000,-0.6955011,0.057514206,0.0302312,1
13184000,-0.6926129,0.056889668,0.029765703,1
13188000,-0.68964124,0.056204397,0.029162116,1
13196000,-0.6844757,0.054861564,0.027963156,1
13199999,-0.6815496,0.054252308,0.027359376,1
13204000,-0.67863756,0.05363317,0.02675784,1
13208000,-0.675757,0.0529813,0.026163802,1
13212000,-0.6728916,0.052364115,0.025569338,1
13216000,-0.6700444,0.051762816,0.024976414,1
13219999,-0.6817079,0.051171232,0.024383474,1
13224000,-0.6788812,0.050608106,0.023789926,1
13228000,-0.6760547,0.050084375,0.023192864,1
13231999,-0.67324656,0.049593512,0.022596816,1
13236000,-0.67044073,0.049030118,0.022003971,1
13244000,-0.664983,0.047866195,0.020828161,1
13248000,-0.66220564,0.047320887,0.020236535,1
13252000,-0.65942675,0.046798196,0.019642178,1
13256000,-0.6566914,0.04624802,0.019057464,1
13260000,-0.6539665,0.045694612,0.018473897,1
13263999,-0.6512415,0.045182005,0.017887177,1
13268000,-0.6481983,0.044639446,0.017298713,1
13272000,-0.6454946,0.044101734,0.016715178,1
13276000,-0.642843,0.043567464,0.016141875,1
13280000,-0.6401722,0.043024343,0.015563265,1
13283999,-0.63749754,0.042532723,0.015003718,1
13288000,-0.6348455,0.042108733,0.01442171,1
13292000,-0.6455855,0.041682936,0.013851738,1
13295999,-0.6430203,0.041214284,0.013288655,1
13300000,-0.640472,0.04072818,0.012728764,1
13304000,-0.6379124,0.040291928,0.012163731,1
13308000,-0.63533324,0.039887555,0.01159235,1
13312000,-0.63276005,0.03943332,0.011022643,1
13315999,-0.62979865,0.038999107,0.010454701,1
13320000,-0.6272775,0.03856326,0.009894131,1
13324000,-0.6247931,0.03806853,0.009342132,1
13332000,-0.61977136,0.037117217,0.00822174,1
13336000,-0.61724716,0.036682248,0.007656024,1
13340000,-0.6140239,0.036255877,0.007084642,1
13344000,-0.6114875,0.035820995,0.006513981,1
13347999,-0.60902894,0.035400186,0.005959773,1
13356000,-0.60417014,0.03449574,0.004862295,1
13364000,-0.598253,0.033636253,0.003775085,1
13368000,-0.5958992,0.03316584,0.00323996,1
13376000,-0.59121364,0.032260016,0.002171154,1
13379999,-0.58886653,0.03181113,0.001634094,1
13384000,-0.5864577,0.031385183,0.001082955,1
13388000,-0.59669715,0.030993765,0.000539055,1
13391999,-0.59438473,0.030599058,6.12E-06,1
13396000,-0.5920614,0.030181922,-0.00053029,1
13400000,-0.58976495,0.029730586,-0.001061603,1
13404000,-0.58746576,0.029301323,-0.001594583,1
13408000,-0.5852048,0.02891191,-0.002119565,1
13411999,-0.58141387,0.028516248,-0.002640555,1
13416000,-0.57914764,0.028104786,-0.003168825,1
13420000,-0.57689625,0.027654843,-0.003694961,1
13423999,-0.57466483,0.02723354,-0.004217276,1
13428000,-0.5724377,0.02683735,-0.004739342,1
13432000,-0.57020694,0.02645894,-0.005263031,1
13436000,-0.5660799,0.026149692,-0.005784176,1
13440000,-0.56387806,0.025840215,-0.006301899,1
13443999,-0.561667,0.02549174,-0.006823147,1
13448000,-0.55945826,0.025155252,-0.007344518,1
13452000,-0.55725336,0.024854448,-0.007865191,1
13455999,-0.55505884,0.02453651,-0.008384538,1
13460000,-0.5507574,0.02418481,-0.008895022,1
13464000,-0.5486307,0.023847371,-0.009400491,1
13468000,-0.54650444,0.023497928,-0.009906956,1
13475999,-0.5422539,0.022806294,-0.010921756,1
13480000,-0.5401419,0.02247864,-0.011426865,1
13484000,-0.5493707,0.0221486,-0.011961872,1
13488000,-0.54730713,0.021824088,-0.012458289,1
13492000,-0.5452804,0.021452805,-0.012948141,1
13496000,-0.5432283,0.02110519,-0.013444141,1
13500000,-0.54122084,0.020843407,-0.013927763,1
13504000,-0.5392449,0.020591237,-0.01440426,1
13508000,-0.5348615,0.020264637,-0.014894028,1
13512000,-0.5328541,0.01985348,-0.0153847,1
13516000,-0.5308947,0.019510163,-0.015862532,1
13520000,-0.5289607,0.019244488,-0.01633231,1
13524000,-0.5269932,0.018948207,-0.016811846,1
13528000,-0.5250152,0.018633911,-0.017295288,1
13532000,-0.5207388,0.018374506,-0.017767945,1
13536000,-0.518819,0.018159265,-0.018234959,1
13540000,-0.5169125,0.017909724,-0.018700724,1
13544000,-0.51499474,0.017604794,-0.019172134,1
13548000,-0.5130705,0.0173208,-0.019644927,1
13552000,-0.5111669,0.017071152,-0.020111933,1
13560000,-0.5046472,0.001351153,-0.021897128,0.3991574
13564000,-0.50280267,0.001077927,-0.022370813,0.3991574
13568000,-0.5009867,0.000845945,-0.022836018,0.3991574
13572000,-0.4991244,0.000638684,-0.02331217,0.3991574
13580000,-0.50622725,-0.0150689,-0.025224032,0.42169553
13584000,-0.50425947,-0.01532312,-0.02586492,0.42169553
13588000,-0.5022805,-0.015635617,-0.026399717,0.42169553
13592000,-0.50025517,-0.015902618,-0.026944995,0.42169553
13596000,-0.49816808,-0.016169518,-0.027507238,0.42169553
13600000,-0.49601576,-0.016474519,-0.028089505,0.42169553
13604000,-0.49001187,-0.03206965,-0.02976255,0.44330966
13608000,-0.48770222,-0.03245861,-0.030415421,0.44330966
13612000,-0.48536164,-0.032887124,-0.03108027,0.44330966
13616000,-0.48300186,-0.033345733,-0.031753447,0.44330966
13620000,-0.48059607,-0.03381428,-0.03244124,0.44330966
13624000,-0.47815084,-0.03429672,-0.033142146,0.44330966
13628000,-0.4713215,-0.05005918,-0.03506944,0.46371356
13632000,-0.46873844,-0.05055537,-0.035837397,0.46371356
13636000,-0.46611822,-0.051071364,-0.036618948,0.46371356
13640000,-0.46348384,-0.05166669,-0.037411667,0.46371356
13644000,-0.4608167,-0.052282963,-0.038217213,0.46371356
13648000,-0.45813838,-0.052947685,-0.039031465,0.46371356
13652000,-0.4509309,-0.06886021,-0.041217923,0.48290652
13656000,-0.44818938,-0.069518454,-0.042080976,0.48290652
13660000,-0.44543383,-0.07017004,-0.042949982,0.48290652
13664000,-0.44267625,-0.07082218,-0.043821905,0.48290652
13668000,-0.4399106,-0.07147919,-0.044698916,0.48290652
13672000,-0.43714976,-0.072112486,-0.045574922,0.48290652
13676000,-0.4432588,-0.08800408,-0.047978964,0.50085396
13684000,-0.4376098,-0.089271605,-0.049835656,0.50085396
13692000,-0.43170998,-0.090534724,-0.05239156,0.50085396
13696000,-0.42886847,-0.09113588,-0.053340714,0.50085396
13700000,-0.42127866,-0.10699791,-0.055970587,0.51866263
13704000,-0.4184944,-0.10765332,-0.05693809,0.51866263
13708000,-0.4157359,-0.108290896,-0.05789794,0.51866263
13712000,-0.41297555,-0.10890619,-0.058858655,0.51866263
13716000,-0.4101982,-0.10953217,-0.059828207,0.51866263
13724000,-0.39967978,-0.12589529,-0.06362361,0.53510696
13728000,-0.39694622,-0.12633824,-0.06459424,0.53510696
13732000,-0.39424285,-0.12683058,-0.06556129,0.53510696
13736000,-0.39152676,-0.12730697,-0.066533,0.53510696
13740000,-0.38880965,-0.12774257,-0.067502774,0.53510696
13744000,-0.3861091,-0.12819545,-0.06847047,0.53510696
13748000,-0.37844393,-0.14390065,-0.071454935,0.55020136
13752000,-0.37575096,-0.1443017,-0.0724445,0.55020136
13756000,-0.3730931,-0.14467034,-0.07341992,0.55020136
13760000,-0.37045845,-0.14500998,-0.0743856,0.55020136
13764000,-0.36783928,-0.14535128,-0.07534749,0.55020136
13768000,-0.36524206,-0.1456518,-0.07629862,0.55020136
13772000,-0.3711898,-0.16114204,-0.07940443,0.5639661
13776000,-0.368618,-0.16133597,-0.08036229,0.5639661
13780000,-0.3660738,-0.16152212,-0.08131033,0.5639661
13784000,-0.36324403,-0.16155523,-0.08308272,0.5639661
13788000,-0.36073348,-0.16168334,-0.08402169,0.5639661
13792000,-0.3582285,-0.16173548,-0.08495061,0.5639661
13796000,-0.3505824,-0.17700832,-0.08817045,0.57745594
13800000,-0.3481844,-0.17697859,-0.089074984,0.57745594
13804000,-0.34576693,-0.17692295,-0.08998428,0.57745594
13808000,-0.34334597,-0.17684625,-0.09089281,0.57745594
13812000,-0.34093666,-0.17674322,-0.09179407,0.57745594
13816000,-0.3385512,-0.17659359,-0.09268083,0.57745594
13820000,-0.3309786,-0.1916723,-0.09600499,0.58965445
13824000,-0.32866797,-0.19136222,-0.096866176,0.58965445
13828000,-0.32633018,-0.19104885,-0.09773736,0.58965445
13832000,-0.32399598,-0.19069844,-0.09860226,0.58965445
13836000,-0.32172096,-0.19030502,-0.09943825,0.58965445
13844000,-0.31204405,-0.20485169,-0.10369682,0.6006376
13848000,-0.30987158,-0.20441476,-0.10450764,0.6006376
13852000,-0.30766022,-0.20390359,-0.105323635,0.6006376
13856000,-0.30550113,-0.20340998,-0.10612054,0.6006376
13860000,-0.30342132,-0.20287988,-0.10688023,0.6006376
13864000,-0.30134687,-0.2022802,-0.107627615,0.6006376
13868000,-0.3079791,-0.21697244,-0.11109601,0.61042994
13876000,-0.30387658,-0.21563144,-0.1125896,0.61042994
13880000,-0.3018781,-0.214941,-0.11331064,0.61042994
13884000,-0.29950207,-0.21396554,-0.11505306,0.61042994
13888000,-0.29754162,-0.21314445,-0.115744635,0.61042994
13892000,-0.2906226,-0.227694,-0.11930049,0.62009376
13896000,-0.288643,-0.22684892,-0.120014116,0.62009376
13900000,-0.2867137,-0.22599995,-0.120704845,0.62009376
13904000,-0.28478816,-0.2251101,-0.1213868,0.62009376
13908000,-0.28288066,-0.22413239,-0.122047,0.62009376
13916000,-0.27449527,-0.23750532,-0.12629716,0.6286616
13924000,-0.2709169,-0.23546284,-0.12753144,0.6286616
13928000,-0.2691613,-0.23441657,-0.12812823,0.6286616
13932000,-0.26743206,-0.23340106,-0.12871693,0.6286616
13936000,-0.26567233,-0.23235527,-0.12931274,0.6286616
13940000,-0.2594553,-0.24659216,-0.13296938,0.63622004
13948000,-0.2560768,-0.24429394,-0.13409549,0.63622004
13952000,-0.25437745,-0.24305095,-0.13464594,0.63622004
13956000,-0.25272316,-0.24180643,-0.13517468,0.63622004
13960000,-0.25111556,-0.24058497,-0.13568495,0.63622004
13964000,-0.24508835,-0.25476673,-0.13938709,0.642842
13968000,-0.24347812,-0.25347647,-0.1399008,0.642842
13972000,-0.2418917,-0.25213522,-0.14039399,0.642842
13980000,-0.23883006,-0.24947478,-0.14132899,0.642842
13984000,-0.23701894,-0.24797794,-0.14247298,0.642842
13988000,-0.24492614,-0.26208276,-0.146241,0.64911747
13992000,-0.2434644,-0.26070037,-0.14668146,0.64911747
13996000,-0.24200368,-0.2592517,-0.1471088,0.64911747
14004000,-0.23910193,-0.2564131,-0.14795876,0.64911747
14008000,-0.23771751,-0.25501332,-0.14835413,0.64911747
14012000,-0.23207305,-0.26347023,-0.15091228,0.65455776
14016000,-0.23067082,-0.26200247,-0.15131025,0.65455776
14020000,-0.22926944,-0.26050305,-0.15170066,0.65455776
14028000,-0.22649044,-0.2574401,-0.15245406,0.65455776
14032000,-0.22515066,-0.25593123,-0.15280902,0.65455776
14036000,-0.2195971,-0.2518683,-0.15257421,0.6592206
14040000,-0.21827424,-0.2503113,-0.1529072,0.6592206
14044000,-0.21693382,-0.24876675,-0.15324847,0.6592206
14048000,-0.21563403,-0.24721918,-0.1535689,0.6592206
14052000,-0.21440168,-0.24560858,-0.15384589,0.6592206
14060000,-0.20794927,-0.24020186,-0.15388739,0.66315866
14064000,-0.20670861,-0.23863277,-0.15416805,0.66315866
14068000,-0.20547266,-0.2370887,-0.15444924,0.66315866
14072000,-0.20430453,-0.23559444,-0.15470713,0.66315866
14080000,-0.20201246,-0.23258105,-0.15519376,0.66315866
14084000,-0.196221,-0.22883956,-0.15609334,0.66643506
14088000,-0.19507052,-0.2273437,-0.1563391,0.66643506
14092000,-0.19398856,-0.22589713,-0.15656154,0.66643506
14096000,-0.19290698,-0.22443387,-0.1567793,0.66643506
14100000,-0.19182003,-0.22294639,-0.15699357,0.66643506
14104000,-0.19076031,-0.22151823,-0.157205,0.66643506
14108000,-0.19972816,-0.21858262,-0.15703973,0.66986334
14112000,-0.19871701,-0.21714856,-0.15722455,0.66986334
14116000,-0.197739,-0.2157246,-0.1573952,0.66986334
14120000,-0.19675986,-0.21432137,-0.15756886,0.66986334
14124000,-0.19576481,-0.21290636,-0.15774602,0.66986334
14128000,-0.19479555,-0.21151812,-0.15791544,0.66986334
14132000,-0.18987514,-0.20874974,-0.15774176,0.67269284
14136000,-0.18890648,-0.20740369,-0.15791532,0.67269284
14140000,-0.18792549,-0.20608722,-0.15809865,0.67269284
14144000,-0.18697277,-0.20474827,-0.15826409,0.67269284
14148000,-0.18606864,-0.2033986,-0.15840498,0.67269284
14152000,-0.18518746,-0.20213155,-0.15855035,0.67269284
14156000,-0.18044417,-0.19968836,-0.15839921,0.6749952
14160000,-0.17954543,-0.19843921,-0.15855277,0.6749952
14164000,-0.178671,-0.19719511,-0.15869564,0.6749952
14172000,-0.17693596,-0.19472271,-0.15897524,0.6749952
14176000,-0.17606911,-0.1935213,-0.15911993,0.6749952
14180000,-0.17104769,-0.19123784,-0.15897198,0.6768107
14184000,-0.17012386,-0.18995571,-0.15946394,0.6768107
14188000,-0.1693113,-0.18882926,-0.15959713,0.6768107
14192000,-0.16850622,-0.18774423,-0.15973428,0.6768107
14196000,-0.16775,-0.18668577,-0.15985468,0.6768107
14200000,-0.16702741,-0.18559478,-0.15995342,0.6768107
14208000,-0.16130762,-0.18254007,-0.15995875,0.67840993
14212000,-0.16058573,-0.18147731,-0.16005991,0.67840993
14216000,-0.15983576,-0.1804398,-0.16017744,0.67840993
14220000,-0.15909971,-0.17945434,-0.16029853,0.67840993
14224000,-0.15839878,-0.17853291,-0.16041659,0.67840993
14228000,-0.16719344,-0.1768367,-0.1603405,0.6795889
14232000,-0.16648322,-0.17590211,-0.1604583,0.6795889
14236000,-0.16582943,-0.17497829,-0.16055347,0.6795889
14244000,-0.16456735,-0.17314918,-0.16072635,0.6795889
14252000,-0.15858436,-0.17069736,-0.1607427,0.6803938
14256000,-0.15797909,-0.16985123,-0.16082974,0.6803938
14260000,-0.1573793,-0.16901973,-0.16091688,0.6803938
14264000,-0.15677093,-0.1682209,-0.16101383,0.6803938
14268000,-0.15618768,-0.16741005,-0.16109718,0.6803938
14272000,-0.15560442,-0.1666183,-0.16118398,0.6803938
14276000,-0.15026222,-0.16524018,-0.1611056,0.6808374
14280000,-0.1496938,-0.16446094,-0.16118753,0.6808374
14284000,-0.14906116,-0.16359517,-0.16141836,0.6808374
14288000,-0.14850494,-0.16285023,-0.16150154,0.6808374
14292000,-0.14795545,-0.16218276,-0.16159737,0.6808374
14296000,-0.14748254,-0.16152987,-0.16166346,0.6808374
14300000,-0.14198159,-0.16029154,-0.16157229,0.68105614
14304000,-0.14147556,-0.15957507,-0.1616385,0.68105614
14308000,-0.14098017,-0.15891042,-0.1617105,0.68105614
14312000,-0.14050934,-0.15823106,-0.16176882,0.68105614
14316000,-0.14005509,-0.1575467,-0.1618188,0.68105614
14320000,-0.13960251,-0.15686914,-0.16186918,0.68105614
14324000,-0.13432673,-0.155709,-0.16176997,0.68097
14328000,-0.13388367,-0.15508084,-0.16182587,0.68097
14332000,-0.1334295,-0.15449001,-0.1618939,0.68097
14336000,-0.13300812,-0.15387133,-0.16194214,0.68097
14340000,-0.13257773,-0.15320717,-0.1619844,0.68097
14344000,-0.13217902,-0.15259853,-0.16202466,0.68097
14348000,-0.1265873,-0.15156437,-0.16194734,0.68064016
14352000,-0.12618552,-0.1509341,-0.16198374,0.68064016
14356000,-0.12580839,-0.15032922,-0.16201493,0.68064016
14360000,-0.12545314,-0.14978394,-0.16204923,0.68064016
14364000,-0.12511872,-0.14925629,-0.16207834,0.68064016
14368000,-0.12479384,-0.14869156,-0.16209547,0.68064016
14372000,-0.13348122,-0.1477346,-0.16200595,0.6800723
14376000,-0.13314529,-0.14719304,-0.16203211,0.6800723
14380000,-0.13278997,-0.14661983,-0.16205949,0.6800723
14388000,-0.13207766,-0.14547145,-0.1621691,0.6800723
14392000,-0.13174917,-0.1449713,-0.16220023,0.6800723
14396000,-0.12599383,-0.14410613,-0.16212043,0.6793443
14400000,-0.12568857,-0.14357561,-0.16213503,0.6793443
14404000,-0.12541093,-0.14308748,-0.16214699,0.6793443
14408000,-0.12512824,-0.14259264,-0.16215944,0.6793443
14412000,-0.124849685,-0.1421238,-0.1621756,0.6793443
14416000,-0.12455851,-0.14163578,-0.16219279,0.6793443
14420000,-0.11886493,-0.14078757,-0.16211446,0.6784206
14424000,-0.11859974,-0.14022487,-0.16210459,0.6784206
14428000,-0.11831264,-0.1397187,-0.1621157,0.6784206
14432000,-0.11803238,-0.13923134,-0.16212781,0.6784206
14436000,-0.11777157,-0.13869578,-0.16212143,0.6784206
14440000,-0.117502496,-0.13812064,-0.16210985,0.6784206
14444000,-0.11156535,-0.13726425,-0.16202585,0.6773334
14448000,-0.11130771,-0.13677284,-0.16202709,0.6773334
14452000,-0.1110921,-0.13628873,-0.16201243,0.6773334
14456000,-0.11085808,-0.1357336,-0.16198999,0.6773334
14460000,-0.110650465,-0.13519499,-0.16196007,0.6773334
14464000,-0.11043796,-0.13468021,-0.16193713,0.6773334
14468000,-0.10462217,-0.13391557,-0.16185346,0.6761058
14476000,-0.10421554,-0.1328916,-0.16180055,0.6761058
14480000,-0.10402087,-0.1323823,-0.16177091,0.6761058
14484000,-0.10379457,-0.13184917,-0.16183883,0.6761058
14488000,-0.103619725,-0.13133064,-0.16179891,0.6761058
14492000,-0.097689226,-0.13061029,-0.16170299,0.6748064
14496000,-0.097500816,-0.13008302,-0.16166651,0.6748064
