timestamp,control[0],control[1],control[2],control[3],control[4],output[2],output[3],output[4],output[5],output[6],output[7],indicated_airspeed_m_s,true_airspeed_m_s,air_temperature_celsius,indicated_airspeed_m_s.1,equivalent_airspeed_m_s,true_airspeed_m_s.1,equivalent_ground_minus_wind_m_s,true_ground_minus_wind_m_s,differential_pressure_raw_pa,differential_pressure_filtered_pa,temperature,gyro_bias[0],gyro_bias[1],gyro_bias[2],accel_bias[0],accel_bias[1],accel_bias[2],instance_count,seq_reached,seq_current,seq_total,item_changed_index,item_do_jump_remaining,valid,warning,finished,failure,stay_in_failsafe,flight_termination,item_do_jump_changed,execution_mode,nav_roll,nav_pitch,nav_bearing,target_bearing,xtrack_error,wp_dist,acceptance_radius,rollspeed_integ,pitchspeed_integ,yawspeed_integ,additional_integ1,x,y,z,temperature.1,pressure,temperature.2,gyro_rad[0],gyro_rad[1],gyro_rad[2],accelerometer_m_s2[0],accelerometer_m_s2[1],accelerometer_m_s2[2],x.1,y.1,z.1,temperature.3,altitude_sp,altitude_filtered,height_rate_setpoint,height_rate,airspeed_sp,airspeed_filtered,airspeed_derivative_sp,airspeed_derivative,throttle_integ,pitch_integ,baro_alt_meter,baro_temp_celcius,baro_pressure_pa,rho,xyz[0],xyz[1],xyz[2],xyz[0].1,xyz[1].1,xyz[2].1,roll_body,pitch_body,yaw_body,q_d[0],q_d[1],q_d[2],q_d[3],thrust_body[0],lat,lon,alt,vel_m_s,vel_n_m_s,vel_e_m_s,vel_d_m_s,cog_rad,ground_contact,maybe_landed,landed,ref_timestamp,ref_lat,ref_lon,x.2,y.2,z.2,vx,vy,vz,ax,ay,az,dist_bottom,roll,pitch,yaw,thrust_body[0].1,timestamp.1,isTakeoff,isClimbing,isDescending,isCruise,isLand
166534832.0,-0.00080423,0.49615674,-0.048609168,0.055300146,1.0,1475.0,2000.0,1021.0,1501.0,1498.0,1735.0,10.15691384,10.3801759,12.08325573,10.6699286,10.70312022,10.93842606,10.64440078,10.87841482,66.99064821,66.99064821,12.08299981,-0.000512642,-0.0061021980000000005,1.99e-05,-0.242631343,0.21191221,-0.037976965,2.0,8.576315263,9.576315263,11.0,0.0,0.0,1.0,0.0,0.0,0.0,0.0,0.0,0.0,0.0,-0.007995735,0.090811219,-1.577890768,-1.5744803580000002,0.100877033,349.2614792,29.76674134,-0.008903233,0.4,-0.019980838,0.0,-0.597853735,0.287612493,-7.847534491,-1.3900000000000002e-25,960.4545146,12.08318915,-0.017042097,-0.232724678,0.000458628,-0.571522775,0.190926734,-7.770327704,-0.014437282,-0.228741026,0.003172673,-1.3900000000000002e-25,50.04178,49.52197799,0.025990071,0.08577475300000001,10.21997092,10.90987313,-0.013798041,-0.07688544,-0.399399356,180.9569137,448.9583862,12.08325573,96047.43756,1.141202414,0.336843224,0.91863256,0.062287993,-0.010579071,-0.142282593,-0.00732449,-0.008495549,0.098121716,-1.577838834,0.7039061320000001,0.031809502,0.037565268,-0.708585337,0.027175447,398688580.7,327345465.1,449600.1274,10.55336041,0.0,-10.54593419,0.162980591,4.712867649,0.0,0.0,0.0,787999.0,39.8714138,32.7364368,-284.1135193,-162.81035459999995,-49.50809149,0.034168644,-10.37790784,0.4156046470000001,0.002212746,0.931702817,2.155208702,49.65695249,0.007143276,0.133594972,-0.005156063,0.053630337,166534832.0,0.0,0.0,0.0,0.0,1.0
166603812.0,-0.0004552835871743492,0.49310399739679356,-0.048560483533066134,0.03982670398797595,1.0,1475.0,2000.0,1036.058116232465,1500.0,1499.0,1741.9531689659318,10.029842058857716,10.2503418198998,12.08348404244489,10.615589778817636,10.648402966933869,10.882479276673347,10.60520664997996,10.838331946733467,66.4768849843487,66.4768849843487,12.083343118456913,-0.000512095753507014,-0.00610162273747495,2.054709418837676e-05,-0.24263143451903807,0.21196775458517034,-0.038073983519038075,2.0,8.581172346446893,9.581172346446893,11.0,0.0,0.0,1.0,0.0,0.0,0.0,0.0,0.0,0.0,0.0,-0.007730439118236471,0.0931286930981964,-1.5780028273927857,-1.5744824900861722,0.10363321848296593,348.5088239292586,29.588392913486974,-0.008869545987975952,0.4,-0.01995442133667335,0.0,-0.5326287543286573,0.18521684682765532,-7.720604964611223,-1.3900000000000002e-25,960.4594901605211,12.08343143264529,-0.014048042344689378,-0.20414521065130262,-0.00125908098997996,-0.5817272185751503,0.21047249341282565,-7.760328568881764,-0.007583674250501002,-0.18001129206813626,-0.0027426206713426857,-1.3900000000000002e-25,50.04178,49.52530009967936,0.02582399109018036,0.08553389939278558,10.219939281583168,10.88337252476954,-0.013268659863727454,-0.07781420896192386,-0.39942770190180366,181.04359707615228,449.0729810725451,12.08348404244489,96046.06799719439,1.1411861930641283,-0.28307978345090185,0.40761871339679356,-0.10996865516833668,-0.008972962597194389,-0.10615609666332665,-0.010310568152304609,-0.008121755523046092,0.09958959861723447,-1.5779441906733467,0.7038391659879759,0.032463315164328654,0.037947513324649296,-0.7086013638557114,0.038926154306613225,398688580.4264529,327345374.4148297,449582.4177190381,10.475437496252505,0.0,-10.47155355731463,0.30465797706012027,4.712805806410821,0.0,0.0,0.0,787999.0,39.8714138,32.7364368,-284.11500194128257,-163.58766581563123,-49.46877653272545,0.028990826268537075,-10.319340094529059,0.576761054751503,0.003217965220440882,0.7409460591563126,2.160097718288577,49.61763682430862,0.008200767224448898,0.13630052629258518,-0.004699735681362726,0.04602359679759519,166603811.8957916,0.0,0.0,0.0,0.0,1.0
166669851.0,-0.0021335829559118243,0.5039809154629259,-0.047452019501002,0.05235450305410822,1.0,1475.0745914629258,2000.0,1052.018111503006,1499.2645290581163,1499.7354709418837,1747.7354709418837,9.99305542456513,10.212684836352706,12.083811738016033,10.56125094763527,10.593685713867735,10.826532493346694,10.56601251995992,10.798249066112225,65.96312176869739,65.96312176869739,12.083686434268538,-0.0005115485070140281,-0.0061010474749499,2.122064128256513e-05,-0.24263152703807617,0.21202329917034068,-0.038171003038076155,2.0,8.586029429893788,9.586029429893788,11.0,0.0,0.0,1.0,0.0,0.0,0.0,0.0,0.0,0.0,0.0,-0.007465143971943887,0.09544616719639279,-1.578114886785571,-1.5744846229078155,0.10638940396593186,347.756168658517,29.41004448697395,-0.00884401612224449,0.4,-0.019921207551102205,0.0,-0.5276426421382766,0.14349814154108215,-7.851797070787575,-1.3900000000000002e-25,960.4740109368737,12.083748526492986,-0.01188214863727455,-0.15945960761322645,-0.007656985845691382,-0.5377777454749498,0.23612995765330663,-7.745503387649298,-0.009220285052104208,-0.14524227248496993,-0.003796717857715431,-1.3900000000000002e-25,50.04178,49.528153796292585,0.02568128599198397,0.08512730330260522,10.219950127715432,10.881975714248497,-0.013240511084168337,-0.0783725697254509,-0.39945613007414826,181.13604306112225,448.89723640060123,12.083811738016033,96048.09129539078,1.1412102076693387,0.11540255535470934,0.5253445434088175,-0.2127420695651302,-0.010101710563126254,-0.0783668976993988,-0.008775776691382766,-0.007810375358717435,0.0994114837014028,-1.5780590623507014,0.7037961524028056,0.03251192471342685,0.037772659593186375,-0.708650939527054,0.04473471766533066,398688580.0529058,327345283.82965934,449563.6488128257,10.398456188597194,-0.00011769888577154312,-10.398114526012025,0.44621766523446893,4.712719314042085,0.0,0.0,0.0,787999.0,39.8714138,32.7364368,-284.11663805511023,-164.32723789659318,-49.421968970721444,0.023892057679358716,-10.270755891362725,0.7228629939298596,-0.034483874054108216,0.6259681873607214,2.014715881567134,49.57082983438878,0.009250107364729459,0.15437844853707414,-0.004021050302605211,0.05879346520440882,166669850.6432866,0.0,0.0,0.0,0.0,1.0
166735360.0,0.0013146957895791586,0.5107970198016032,-0.045608823258517034,0.05544741428456913,1.0,1475.6032064128256,2000.0,1047.0480961923847,1499.703694785571,1499.296305214429,1749.0160320641282,10.012570566432867,10.232627060721443,12.084191855230461,10.50691212248497,10.538968450801605,10.770585703987976,10.52681838993988,10.7581661902004,65.4493585530461,65.4493585530461,12.084029745370742,-0.0005110012605210421,-0.00610047121242485,2.194128256513026e-05,-0.24263161955711424,0.212078844755511,-0.03826802155711423,2.0,8.590886514340681,9.590886514340681,11.0,0.0,0.0,1.0,0.0,0.0,0.0,0.0,0.0,0.0,0.0,-0.007159931170340682,0.09725739910621242,-1.5782237769318639,-1.5744867578777555,0.10914559467134269,347.00732396332666,29.26639905018036,-0.008813533018036073,0.4,-0.019856106671342685,0.0,-0.44819422575150303,0.1681777570521042,-8.039398484250501,-1.3900000000000002e-25,960.4756249513026,12.0841096148497,-0.011915415991983968,-0.12246706300400802,-0.0062311194068136256,-0.4481912202304609,0.2392355984749499,-7.949138468242484,-0.00922858821242485,-0.11614559374348697,-0.0038681060761523046,-1.3900000000000002e-25,50.04178,49.53098209943888,0.025539847987975952,0.08471172255711423,10.219963270541083,10.881939826372744,-0.013239535126252505,-0.07891084948496994,-0.3994845616112224,181.22880144168337,448.95198818136276,12.084191855230461,96047.47175408818,1.1412028641122245,0.13346148794188378,-0.13776220318036064,0.2540597087194388,-0.0045129166072144285,-0.06827919704208417,-0.01137747880761523,-0.007368884655310622,0.0991723539739479,-1.5781726841783568,0.7037526925951904,0.03258464525450902,0.0375302745490982,-0.7087037096633267,0.049621576108216436,398688580.0,327345195.6492986,449518.19549198396,10.345194850561123,-0.003200319577154308,-10.348395169138277,0.5848124312064128,4.7120118475190385,0.0,0.0,0.0,787999.0,39.8714138,32.7364368,-284.1185919745491,-165.05556188937874,-49.365532947575154,0.018264008328657315,-10.231346620240481,0.8552177866693387,-0.08362388193787575,0.5590740033667335,1.7496954603587174,49.5143945101002,0.0102261604749499,0.16888436749298597,-0.0033358045350701405,0.06383712195991983,166735359.86172345,0.0,0.0,0.0,0.0,1.0
166816134.0,-0.0011318820581162317,0.5229904535330662,-0.04543501557915832,0.061751530783567134,1.0,1476.0,2000.0,1048.1743486973949,1499.5871743486973,1499.4128256513027,1751.862834408818,9.970605867044089,10.189736100460923,12.084640769318638,10.45257329527054,10.484251197735471,10.714638916693387,10.48762425521042,10.718083316933868,64.93559533210421,64.93559533210421,12.084373053827655,-0.0005104550140280561,-0.0060998959498998,2.258837675350701e-05,-0.2426317115470942,0.21213438934068135,-0.0383650410761523,2.0,8.595743597787575,9.595743597787575,11.0,0.0,0.0,1.0,0.0,0.0,0.0,0.0,0.0,0.0,0.0,-0.006730808104208417,0.09749717528256513,-1.5783228318276554,-1.5744889035831664,0.11190179764128257,346.2703078861724,29.230477087034068,-0.00878820422244489,0.4,-0.019772590615230463,0.0,-0.2962265980460922,0.24038953565531063,-8.246784344785572,-1.3900000000000002e-25,960.4681928955912,12.08451756008016,-0.011735817238476956,-0.09364579708216432,-0.012526146669338684,-0.34477331702204406,0.23902756977755513,-8.187531423647295,-0.005357128859719438,-0.09242876823647295,-0.005130252865731464,-1.3900000000000002e-25,50.03374266997996,49.534252169158314,-0.10443791253106219,0.0847194507775551,10.219980955631263,10.882172222024048,-0.01324383108016032,-0.08498547298997997,-0.39580000184769537,181.3171002917836,448.8780678727455,12.084640769318638,96048.32824282565,1.141212958507014,0.07216774107815599,-0.060225841492986126,0.027295514404809568,-0.006421697851703406,-0.06693979511422846,-0.015018284448897795,-0.006890633320641283,0.0979876500260521,-1.578278448771543,0.7037262888697395,0.03233493921242485,0.03694234435470942,-0.7087719936713427,0.050037210591182366,398688580.0,327345107.76573145,449468.6084226453,10.29560811741483,-0.006742254298597195,-10.30235037218437,0.7229478829418838,4.7112081823587175,0.0,0.0,0.0,787999.0,39.8714138,32.7364368,-284.12114970801605,-165.82007981523049,-49.29577311176352,0.011063374963927855,-10.199488828777556,0.9765036919218437,-0.09243056744088177,0.4760630973206413,1.4406770503026052,49.444633472164334,0.010885862671342686,0.17959740879158317,-0.0028078315891783565,0.06303556129058116,166816133.56513026,0.0,0.0,0.0,0.0,1.0
166891733.0,0.00016026188977955857,0.5332586676112224,-0.045388961250501,0.06486813143086173,1.0,1476.995799723447,2000.0,1060.306613226453,1499.3386773547095,1499.6613226452905,1757.6773547094188,10.01220814636072,10.23218311795591,12.085123469358718,10.39823446747495,10.429533944669338,10.658692133366733,10.448430119899799,10.678000443667335,64.42183211174348,64.42183211174348,12.084716362284569,-0.0005099077675350701,-0.006099320687374749,2.3301603206412828e-05,-0.2426318039338677,0.21218993392585173,-0.03846205959519038,2.0,8.60060068123447,9.60060068123447,11.0,0.0,0.0,1.0,0.0,0.0,0.0,0.0,0.0,0.0,0.0,-0.0062908334689378755,0.09759932360320642,-1.5784210252845692,-1.5744910501402807,0.11465800180160321,345.53432769158314,29.203989516292584,-0.008762590026052104,0.4,-0.019696037507014028,0.0,-0.24123082929458917,0.2440788508917836,-8.472765231012025,-1.3900000000000002e-25,960.4912259797595,12.084974680961924,-0.004794967655310624,-0.08150751997995992,-0.006989809805611229,-0.4108948169859719,0.19426167330861732,-8.398404688084169,0.00019643357114228666,-0.07598734251503005,-0.012171606138276557,-1.3900000000000002e-25,50.00982432747495,49.538395133947894,-0.4909600669138278,0.08556359997194389,10.220007602925852,10.88293473503006,-0.013258544100200402,-0.1019993910761523,-0.38477891847094187,181.39658769859722,448.7440672368737,12.085123469358718,96049.86656839678,1.1412312983246493,-0.08906212680561068,-0.019416477929859455,0.20316648522845715,-0.0002520085370741494,-0.07071011739078156,-0.01530262455711422,-0.0064655981262525045,0.09774617751703407,-1.5783855525851704,0.7036853629639278,0.03240085163126252,0.0367050493507014,-0.708822016258517,0.05198151672945893,398688579.9322645,327345020.38857716,449415.42653026053,10.250189249398797,-0.010805178707414832,-10.259431462224448,0.856394427983968,4.7104590960701405,0.0,0.0,0.0,787999.0,39.8714138,32.7364368,-284.1237190282565,-166.5420939450902,-49.221419995310626,0.004916397062124245,-10.175411747014028,1.0765998766372744,-0.08989588701803608,0.30953730784368727,1.3117227391182364,49.370280594008015,0.011789095276553106,0.19364642071142285,-0.0019969978797595186,0.062274415142284587,166891733.47895792,0.0,0.0,0.0,0.0,1.0
166965539.0,0.001319904426853708,0.5432122778236473,-0.04416615601603206,0.06766750938276553,1.0,1477.0,2000.0,1064.3807615230462,1499.0,1500.0,1763.2064128256513,9.959194810647295,10.177986231683366,12.085654153707413,10.343895642905812,10.374816691603206,10.60274535004008,10.40923598987976,10.637917570400802,63.90806889609218,63.90806889609218,12.085059680741484,-0.0005093605210420842,-0.0060987454248497,2.3982565130260522e-05,-0.24263189632064128,0.21224547871743488,-0.03855907911422846,2.0,8.605457764681363,9.605457764681363,11.0,0.0,0.0,1.0,0.0,0.0,0.0,0.0,0.0,0.0,0.0,-0.005850859156312626,0.09770147192384769,-1.578519218741483,-1.5744931963747495,0.11741420596192385,344.7983475292585,29.177501945551104,-0.00873739050501002,0.4,-0.01962295848496994,0.0,-0.22483774218236474,0.2021224873727455,-8.653890894943888,-1.3900000000000002e-25,960.4968384901804,12.085466303567134,-0.010516481452905813,-0.0776776866753507,-0.014870941260521041,-0.28309886070941886,0.2575647848436874,-8.536177358234468,-0.004481748551102203,-0.0754994965991984,-0.014546236991983968,-1.3900000000000002e-25,49.98590598496994,49.5425381008016,-0.8774822222965931,0.08640774816633266,10.220034253446894,10.883697238036072,-0.013273257913827654,-0.11901330969138277,-0.3737578347715431,181.4760750583166,448.7376442633267,12.085654153707413,96049.93012799599,1.1412321146452906,-0.3980815194889781,-0.2685834220941882,-0.3297718252484974,0.0010257082525050108,-0.07356955349699398,-0.018823042873747496,-0.0060055920460921845,0.09922970808617235,-1.578484300947896,0.7036190767895791,0.03309047395991984,0.03706220077154309,-0.7088379580521043,0.05813892880160321,398688579.65871745,327344935.2082164,449343.0339721443,10.227043257074149,-0.017652247895791583,-10.233217131983968,0.9647836937394789,4.710001677042084,0.0,0.0,0.0,787999.0,39.8714138,32.7364368,-284.12677373326653,-167.2755897757515,-49.139285963346694,-0.0015089242044088163,-10.157092809238478,1.1667050803246493,-0.12253813646492984,0.18015972900601201,1.203570533529058,49.28814760228458,0.012155303022044088,0.20949362743086172,-0.0014424977955911824,0.06605870774749499,166965539.02605212,0.0,0.0,0.0,0.0,1.0
167037991.0,0.00020602910821643277,0.5544667401803608,-0.0433235373507014,0.07164329739478957,1.0,1477.045951478958,2000.0,1055.186372745491,1499.954048521042,1499.045951478958,1765.4448897795592,9.733470441809619,9.947280471226453,12.086237308136273,10.28955681246493,10.320099438537076,10.546798565971944,10.37004185985972,10.597834687134268,63.394305671182366,63.394305671182366,12.085402989198398,-0.0005088142745490982,-0.00609817016232465,2.4629659318637278e-05,-0.24263198863326652,0.2123010240961924,-0.03865609855911824,2.0,8.610314848202403,9.610314848202403,11.0,0.0,0.0,1.0,0.0,0.0,0.0,0.0,0.0,0.0,0.0,-0.005410884182364729,0.09780362031863728,-1.578617412198397,-1.5744953431963928,0.1201704111222445,344.06236740080163,29.151014374809616,-0.008714527138276553,0.4,-0.01953692779759519,0.0,-0.20717623377154307,0.17656605818837676,-8.735952934749498,-1.3900000000000002e-25,960.5020933669339,12.085992590160322,-0.00283058201002004,-0.08270249884168338,-0.014386828513026051,-0.24966873291783567,0.27129513390981963,-8.694926356204409,-0.008673922933867735,-0.08499742419238476,-0.014936090066132264,-1.3900000000000002e-25,49.904628601142285,49.54622698448898,-1.1502625946352705,0.07139048171543086,10.220050150240482,10.872135922164329,-0.013041709749498998,-0.21333100332064128,-0.332348967004008,181.54474968316634,448.5826355018036,12.086237308136273,96051.70123256513,1.1412531565511022,0.2699505995851703,0.40824959765931856,-0.22425077920841685,-0.003345102452905811,-0.07745834790781564,-0.012161742859719438,-0.005535336066132265,0.1010559760280561,-1.5785765454088176,0.7035482345330661,0.03390507510420842,0.037536270717434865,-0.7088448621242485,0.0660367498016032,398688579.2851704,327344850.12625253,449269.00758416834,10.205791649919838,-0.02473611761923848,-10.20842358731463,1.0710417532885772,4.70956906547495,0.0,0.0,0.0,787999.0,39.8714138,32.7364368,-284.13045037014035,-168.03798864428856,-49.04874286410821,-0.008625409038076152,-10.143668313827655,1.2514660837575151,-0.19113308723847694,0.13170543241282565,1.053674847753507,49.197605748096194,0.012956997488977957,0.22358129106012023,-0.0005886018877755511,0.06664958830060119,167037990.86372745,0.0,0.0,0.0,0.0,1.0
167115564.0,-0.00013727900801603198,0.5644689450460921,-0.042377028589178356,0.0723176683767535,1.0,1477.0360160240482,2000.0,1059.476865771543,1499.0221002084168,1499.9778997915832,1770.4884544488978,9.943161122374748,10.161465991523045,12.086852463486974,10.235217990541083,10.265382176052103,10.490851773386773,10.330847729839679,10.557751813867736,62.88054245478958,62.88054245478958,12.08574629765531,-0.0005082670280561123,-0.006097594899799599,2.537675350701403e-05,-0.24263208109418838,0.21235656868136274,-0.0387531171523046,2.0,8.61517193257515,9.61517193257515,11.0,0.0,0.0,1.0,0.0,0.0,0.0,0.0,0.0,0.0,0.0,-0.004970909208416834,0.09790576956513025,-1.5787156046553106,-1.574497489224449,0.12292661528256514,343.3263872665332,29.124526804068136,-0.008692980697394789,0.4,-0.019449377168336675,0.0,-0.15767475993987976,0.22780470250100202,-8.648515711142284,-1.3900000000000002e-25,960.5293145849699,12.086565135050101,-0.0018788752284569134,-0.0848148896513026,-0.020178927166332676,-0.2005694712785571,0.32883408500400807,-8.821242833991983,-0.0005275098396793554,-0.10043898136272546,-0.016699233276553108,-1.3900000000000002e-25,49.77074757617235,49.549499425130264,-1.3187310556412826,0.04182680481763526,10.22005619228457,10.849272505330662,-0.012584318142284568,-0.37854352699599203,-0.26307164386172344,181.60350798657316,448.45853636192385,12.086852463486974,96053.16392603207,1.14127042851503,-0.34863745764529097,-0.1781569604609219,0.42494870493988024,0.005667864961923853,-0.08187746970340681,-0.01424049802204409,-0.005152215348697395,0.10169778735871744,-1.578663376302605,0.7035000628857716,0.03426901659519038,0.03762469991983968,-0.7088705582725451,0.06904657898797596,398688578.91162324,327344764.2965932,449189.98440861725,10.188383690881764,-0.032780900781563135,-10.185551778096192,1.1686515859338678,4.708985455018036,0.0,0.0,0.0,787999.0,39.8714138,32.7364368,-284.1340793801603,-168.7436018278557,-48.957407723266535,-0.013753299186372747,-10.138694543527054,1.3225799698657315,-0.05316021627254505,0.10518550781563124,0.974985477004008,49.10626844068136,0.013484586370741482,0.24175962933266534,0.00011597938677354748,0.07230450515030061,167115564.24649298,0.0,0.0,0.0,0.0,1.0
167187654.0,0.0007938573226452905,0.5690417498917836,-0.041833098160320645,0.06051118895791582,1.0,1478.0,2000.0,1066.9519038076153,1499.0,1500.0,1777.6192384769538,9.940992495166332,10.159171145851703,12.087495353767535,10.180879159358717,10.210664922404808,10.43490499006012,10.29165359981964,10.517668940601203,62.366779239138275,62.366779239138275,12.086089606112225,-0.0005077197815631263,-0.006097019637274549,2.6023847695390782e-05,-0.24263217348096192,0.21241211326653306,-0.03885013667134268,2.0,8.620029016022043,9.620029016022043,11.0,0.0,0.0,1.0,0.0,0.0,0.0,0.0,0.0,0.0,0.0,-0.004530934234468938,0.09800791788577154,-1.5788137981122243,-1.5744996360621242,0.12568281944288578,342.5904070438878,29.098039233326652,-0.008670555759519038,0.4,-0.019358735430861723,0.0,-0.11855055357314626,0.3108060210841684,-8.78185643982966,-1.3900000000000002e-25,960.5408084158316,12.087177629559118,-0.005533589937875758,-0.08873357225851704,-0.012583282989979964,-0.18888978946092178,0.29265877118637285,-8.850402843376752,-0.0013759596232464939,-0.10302278236673346,-0.015909938899799598,-1.3900000000000002e-25,49.63686655004008,49.55277187386774,-1.4871995175310624,0.012263127919839658,10.220062233166333,10.826409098496994,-0.012126926535070139,-0.5437560515551103,-0.19379432171943883,181.66226637835672,448.3287347248498,12.087495353767535,96054.6382124449,1.1412879970541083,-0.3931209827555105,-0.6232718615911839,0.1890847010060126,0.0016826986032064107,-0.08709112122845691,-0.014544868008016028,-0.004633542454909819,0.10027526754709419,-1.5787662234208417,0.7034784695931864,0.03394901771142285,0.036938847440881765,-0.7089427601703407,0.06518512770941884,398688578.53807616,327344676.1859719,449097.804690982,10.181096138537074,-0.04335578557515031,-10.167739915611223,1.2434904974068135,4.708004265649299,0.0,0.0,0.0,787999.0,39.8714138,32.7364368,-284.1386110781563,-169.48881673787574,-48.85639155561122,-0.020621766236472952,-10.139043813266532,1.3938616189739477,-0.04037797995591186,0.025410186879759454,0.9359598690681362,49.005251555611224,0.013891044118236474,0.25505894863527057,0.0006796493507014033,0.07021156302805613,167187654.06212425,0.0,0.0,0.0,0.0,1.0
167263344.0,0.0015140781683366678,0.5810184970781563,-0.04167356298396793,0.06344241997194386,1.0,1478.0,2000.0,1072.6773547094188,1499.3226452905812,1499.6773547094188,1783.3547094188377,9.97761170454509,10.196628166092184,12.088159804008015,10.1265403349499,10.155947669338678,10.378958206733468,10.2524594597996,10.47758606733467,61.85301602026052,61.85301602026052,12.086432921342684,-0.0005071732124248497,-0.006096444374749499,2.6703206412825653e-05,-0.24263226519038075,0.21246765852905813,-0.038947155190380764,2.0,8.624886099468938,9.624886099468938,11.0,0.0,0.0,1.0,0.0,0.0,0.0,0.0,0.0,0.0,0.0,-0.004075586695390781,0.09839193043486974,-1.5789071349358716,-1.574501755186373,0.12839807886573146,341.85339333987974,29.093370510881766,-0.008646433915831662,0.4,-0.019291007833667335,0.0,-0.09307571489779558,0.3213929384348697,-8.854448105348698,-1.3900000000000002e-25,960.5557102659319,12.08790023953908,0.0017235608396793762,-0.09320523550300601,-0.013176509845691376,-0.1611779520300602,0.23266594884769548,-8.94406397515431,-0.0015519603146292576,-0.09758727684769537,-0.016022866406813628,-1.3900000000000002e-25,49.50340214893787,49.54526929633266,-1.4913209768957916,-0.08526581027855723,10.220070784829659,10.74423005236473,-0.010483175440881762,-0.6541298439639279,-0.1735695398056112,181.69516513186372,448.3030435755511,12.088159804008015,96054.94974513026,1.1412916911302606,-0.12864659549098298,-0.06397549110220456,0.11464776400200409,0.0024228206713426837,-0.08390580657915832,-0.010910526541082145,-0.004245783867735471,0.09983900625651303,-1.5788648708456914,0.7034444096953908,0.03393253324849699,0.036646319507014025,-0.7089926853326654,0.06397546241683365,398688578.1645291,327344587.9288577,449005.36018997995,10.174012276152306,-0.05398158973947897,-10.150029881683366,1.317871129240481,4.7070150737214425,0.0,0.0,0.0,787999.0,39.8714138,32.7364368,-284.14356249799596,-170.23545006893787,-48.75088338519038,-0.028060748909819643,-10.144211501683367,1.4629045781062127,-0.0684578225791583,-0.05836320622444893,0.9180578606192386,48.899743608717436,0.013901915164328657,0.26180777246292586,0.0010586101462925854,0.061929956456913814,167263344.3767535,0.0,0.0,0.0,0.0,1.0
167335434.0,-0.0017611012444889796,0.594983822737475,-0.04143890760721443,0.06998565763126252,1.0,1478.5450901803608,2000.0,1066.003306741483,1498.8911826533067,1500.1088173466933,1786.8840086693385,10.00575541626453,10.22529862014028,12.088878500360721,10.072201506993988,10.101230416272545,10.323011423406813,10.21326532977956,10.437503194068135,61.33925279783567,61.33925279783567,12.086776233026052,-0.0005066262885771543,-0.006095869112224449,2.7418036072144292e-05,-0.24263235770941885,0.21252320343687375,-0.03904417470941884,2.0,8.629743182915831,9.629743182915831,11.0,0.0,0.0,1.0,0.0,0.0,0.0,0.0,0.0,0.0,0.0,-0.003574782813627254,0.09960941462324649,-1.578986110739479,-1.5745037940581164,0.13099226373547093,341.11332335350704,29.15322013713427,-0.00862391351503006,0.4,-0.019224924204408817,0.0,-0.10122490303406821,0.27893258138276555,-8.884190587186373,-1.3900000000000002e-25,960.5705461272545,12.088691256953908,0.0017054781122244494,-0.0974591492204409,-0.01555794404408817,-0.11125138126653296,0.29110651670340687,-8.895922061611222,-0.0012281492505010036,-0.09054958703406814,-0.01509830359919839,-1.3900000000000002e-25,49.37011023583166,49.53330586296593,-1.4274027676853707,-0.21093237120641298,10.220080376312625,10.637494330601204,-0.008348271939879756,-0.7418003976152305,-0.17365251263126252,181.71735807054108,448.2335006759519,12.088878500360721,96055.74485961923,1.1413011519478957,0.39964233799799675,0.1739458692404812,-0.0037535539859691047,0.0015049561963928022,-0.08767339269939879,-0.009115146110220436,-0.003650169496993987,0.10208225490581162,-1.5789429461883768,0.7033684828997997,0.0349388503507014,0.03722263895991984,-0.7089896866132265,0.06980345056312624,398688577.845491,327344500.6713427,448906.4653547094,10.173071596232464,-0.06153579811623247,-10.14614219246493,1.3861085684348697,4.706186756777555,0.0,0.0,0.0,787999.0,39.8714138,32.7364368,-284.1486160026052,-170.9475652983968,-48.64475597713427,-0.0349967412725451,-10.154476586593187,1.5273020039078158,-0.05017212379759516,-0.09646775484969945,0.9026734466492986,48.79361690426854,0.01426203635270541,0.27949275534268536,0.0016916221442885774,0.07048781321643285,167335434.49298596,0.0,0.0,0.0,0.0,1.0
167402595.0,0.0013060257775551112,0.5998187688416834,-0.04109437358316633,0.06519101399198396,1.0,1479.0,2000.0,1069.064128256513,1499.9943017675353,1499.0056982324647,1793.554047156313,10.007675210168337,10.227263740420842,12.089614531322646,10.01786267993988,10.046513163206413,10.26706463008016,10.174071199759519,10.397420310801603,60.82548958218437,60.82548958218437,12.087119541482966,-0.0005060790420841684,-0.006095293849699399,2.8065130260521045e-05,-0.24263245022845692,0.2125787480220441,-0.03914119322845692,2.0,8.634600266362725,9.634600266362725,11.0,0.0,0.0,1.0,0.0,0.0,0.0,0.0,0.0,0.0,0.0,-0.00307012774749499,0.10089750686172345,-1.5790638691703407,-1.5745058261543086,0.13357619171142285,340.3729944765531,29.21853540274549,-0.008607538891783567,0.4,-0.019164031985971944,0.0,-0.1802434674809619,0.27360897641082166,-8.99090151281563,-1.3900000000000002e-25,960.5717723953908,12.089403645210421,0.0011382264348697403,-0.09689405850901804,-0.014438007050100204,-0.18195257220440883,0.16547035128456905,-8.93108748346092,-0.00301258806012024,-0.09777893283767534,-0.007650115210420845,-1.3900000000000002e-25,49.23909125406814,49.519134076573145,-1.3663480575531062,-0.33815379371342685,10.220086248236473,10.53292432523046,-0.0062567569178356725,-0.8221594090440881,-0.1737345730220441,181.73630715811623,448.06621000360724,12.089614531322646,96057.66153533067,1.1413238829318637,-0.35721217937074173,0.4389530286713422,0.470432415048096,0.004136808581162325,-0.08456603381563126,-0.00856952905811623,-0.003063782957915832,0.10238771666533066,-1.5790291149098197,0.70332190297996,0.03525496402204409,0.037120633993987975,-0.7090249307935872,0.06921034151503005,398688577.5174349,327344414.61002004,448799.14471422846,10.180155468617235,-0.06507773289579159,-10.16030993310621,1.4463214608797597,4.70556858303006,0.0,0.0,0.0,787999.0,39.8714138,32.7364368,-284.15521802765534,-171.70312092725447,-48.526480901362724,-0.04309539714629258,-10.168650169418838,1.5949910844889779,-0.02021002752705412,-0.1567029176833667,0.880194569264529,48.67534254823647,0.014348215915831661,0.28833417307214426,0.002072000773547094,0.067890826498998,167402595.16232464,0.0,0.0,0.0,0.0,1.0
167470453.0,-0.00103962319238477,0.6086111245671343,-0.04051048575951904,0.06939874168336674,1.0,1479.0,2000.0,1064.7555110220442,1500.2582521603208,1498.7417478396792,1797.099302709419,10.015439752124248,10.235070225370743,12.090387026833668,9.963523853470942,9.991795908456913,10.211117846753506,10.13487706973948,10.35733743753507,60.31172635933868,60.31172635933868,12.087462849939879,-0.0005055317955911824,-0.006094718587174349,2.8784168336673347e-05,-0.242632542747495,0.21263429260721445,-0.03923821274749499,2.0,8.63945735080962,9.63945735080962,11.0,0.0,0.0,1.0,0.0,0.0,0.0,0.0,0.0,0.0,0.0,-0.0025654725070140285,0.10218559910020039,-1.5791416286012026,-1.574507858250501,0.13616011996793587,339.6326655995992,29.283850666613226,-0.008586416833667336,0.4,-0.019107480847695393,0.0,-0.1555143451763527,0.2188713920621243,-8.918378265609219,-1.3900000000000002e-25,960.5782555673347,12.09014011486974,0.0005077567154308621,-0.10010805688777555,-0.014266787975951906,-0.2000751418997996,0.23190742890581162,-8.940397172162324,0.0022213902384769536,-0.09465600898597194,-0.0039632342284569135,-1.3900000000000002e-25,49.127252391823646,49.48632712086172,-1.329456953551102,-0.4784958990440882,10.220060702204409,10.446629697875752,-0.004531377218436874,-0.8408200482164329,-0.17380893208216436,181.72788323727454,447.9212134190381,12.090387026833668,96059.32379368738,1.1413436849218437,0.2702148311943889,0.17705375137474935,0.13501851259719436,0.009316094769539079,-0.07919859848296594,-0.006029885258517034,-0.0026363202084168334,0.10120079408216433,-1.5791243786753506,0.7033012286693388,0.03498617605611222,0.036550085018036076,-0.709088316705411,0.06386981277154308,398688577.14388776,327344328.56613225,448691.8240737475,10.187239338196393,-0.06861966822044088,-10.174477672004008,1.5065343531503008,4.704950409282565,0.0,0.0,0.0,787999.0,39.8714138,32.7364368,-284.1619366162325,-172.44010806733468,-48.4069553855511,-0.050240134122244484,-10.185443720681363,1.6604488650801603,-0.031462050761523044,-0.21260220066533067,0.8645568307775552,48.55581664671343,0.014527511178356713,0.2962631261543086,0.0024989431823647297,0.06308848482164328,167470453.4008016,0.0,0.0,0.0,0.0,1.0
167539963.0,-0.0012850849458917828,0.6139018543006012,-0.03950117433867736,0.07147562081362725,1.0,1479.0,2000.0,1072.1102204408817,1499.1482965931864,1499.8517034068136,1802.1482965931864,10.168708131923848,10.391695916553106,12.091180383486973,9.945225930951903,9.973307481833666,10.192181468517035,10.123428726553106,10.345595603146291,60.17467239785571,60.17467239785571,12.08800486222445,-0.0005049145711422846,-0.006093973436873747,2.9574148296593184e-05,-0.2426329079539078,0.21268489651903807,-0.039342387519038076,2.0,8.644314434256513,9.644314434256513,11.0,0.0,0.0,1.0,0.0,0.0,0.0,0.0,0.0,0.0,0.0,-0.0020608178537074146,0.10347369048697394,-1.5792193878837675,-1.574509890198397,0.13874404866332665,338.89233672264527,29.349165936352705,-0.008566492222444889,0.4,-0.019045951743486975,0.0,-0.10023461638276553,0.2189445587655311,-8.869704378517033,-1.3900000000000002e-25,960.590816087976,12.090896747134268,0.004204695691382765,-0.0978162023246493,-0.006736803494989983,-0.174729806248497,0.2653965911803607,-8.980917688887775,0.004978758454909818,-0.09065531464128257,-0.003936789521042085,-1.3900000000000002e-25,49.02053514344689,49.44854405779559,-1.2990182043627254,-0.6223415915090181,10.220026775450902,10.365215100020041,-0.00290376601002004,-0.8430055086232465,-0.17388123485771542,181.71214989398797,447.80464309318637,12.091180383486973,96060.69632581162,1.1413599793426854,0.25282352180160306,-0.2575972715490983,0.10444362804008009,0.003927029945891784,-0.07611897533266533,-0.007825143064128258,-0.0021541658336673344,0.10280532007214428,-1.5792044810260522,0.7032365506152304,0.035726153022044085,0.036941876462925856,-0.7090958960841685,0.06735528495591182,398688576.7703407,327344243.152505,448580.82873987977,10.200808013466935,-0.07432320409018037,-10.19080723016032,1.5818784639719439,4.704407631761523,0.0,0.0,0.0,787999.0,39.8714138,32.7364368,-284.168631501002,-173.1567516024048,-48.2870487293988,-0.05649741263927856,-10.204757036312625,1.7231911767855712,-0.07976116585971943,-0.2666491608977956,0.8531582516673346,48.43590881723447,0.014566114032064127,0.3078601662985972,0.0028936768316633267,0.06603175974549098,167539962.503006,0.0,0.0,0.0,0.0,1.0
167605601.0,-0.0017186475771543092,0.6193416482505011,-0.03829864499599198,0.07291594705410821,1.0,1480.0,2000.0,1073.0,1499.0143836312625,1499.9856163687375,1805.0304156953907,10.117173214589178,10.338958946432866,12.092012747875751,9.98668161780561,10.014884241923848,10.234606089839678,10.157981197895792,10.380841479639278,60.66217928841684,60.66217928841684,12.08887630008016,-0.0005041786833667334,-0.00609294718236473,3.05064128256513e-05,-0.24263372603807615,0.21272730805611223,-0.03945842805611222,2.0,8.649171517703406,9.649171517703406,11.0,0.0,0.0,1.0,0.0,0.0,0.0,0.0,0.0,0.0,0.0,-0.0015561622004008012,0.10476178257715431,-1.5792971464629257,-1.5745119214428858,0.14132797663927854,338.15200784569146,29.414481196092186,-0.00854785825250501,0.4,-0.018997754456913825,0.0,-0.06558187368937878,0.34219363435070144,-8.979403070236474,-1.3900000000000002e-25,960.6092269753507,12.091667234589178,0.009689465735470937,-0.09303569651703406,-0.004846452302605211,-0.14146048477154308,0.23014418059318634,-8.968435088821643,-0.0009215983066132257,-0.09257241865931863,-0.007093115036072141,-1.3900000000000002e-25,48.91413282450902,49.4086914958517,-1.269915964450902,-0.7635872163006012,10.219995231142283,10.285507787154309,-0.0013102525330661316,-0.8417239180120241,-0.17395281778757515,181.69452054188375,447.6755492318637,12.092012747875751,96062.14293266533,1.1413772166112224,0.12717610215831632,0.21270932545290552,0.4112920974028049,0.006523121176352703,-0.06776347962925851,-0.005543112322645293,-0.0016188082064128254,0.10483001359519038,-1.5792793271462926,0.7031640982364729,0.03663369819839679,0.037462529202404816,-0.7090942035511022,0.07190333118036071,398688576.39679354,327344158.0705411,448467.48680861725,10.218517684428859,-0.08140707273947896,-10.208517257474949,1.6668848999859718,4.7039130012284565,0.0,0.0,0.0,787999.0,39.8714138,32.7364368,-284.1768893583166,-173.92795244869737,-48.153159789118234,-0.06484593531663327,-10.230210828376752,1.7874786209779558,-0.09510167102805613,-0.37555966298196397,0.8137108378817636,48.30202060216433,0.014580361615230462,0.3144318921543086,0.0031770713346693387,0.06326616496192385,167605600.56513026,0.0,0.0,0.0,0.0,1.0
167678981.0,-0.0011803713366733445,0.6133657346032064,-0.03749966899799599,0.05356906249498996,1.0,1480.0,2000.0,1060.627254509018,1499.1042813266533,1499.8957186733467,1805.2205137915832,10.178456795891783,10.401508210400802,12.092875194468938,10.028137309078158,10.056460994889779,10.277030702324648,10.192533678917837,10.416087356452907,61.14968616897796,61.14968616897796,12.089747738256513,-0.0005034427955911823,-0.006091919927855711,3.134188376753507e-05,-0.24263454509018037,0.21276971970941883,-0.03957446770941884,2.0,8.654028601150301,9.654028601150301,11.0,0.0,0.0,1.0,0.0,0.0,0.0,0.0,0.0,0.0,0.0,-0.001051507547094188,0.10604987469939879,-1.5793749058937876,-1.574513953539078,0.14391190461523046,337.4116789687375,29.47979646583166,-0.008530468841683366,0.4,-0.01893207603006012,0.0,-0.12166774297194394,0.2923702683346693,-9.046210287967936,-1.3900000000000002e-25,960.6184897871746,12.092480516593186,0.007619431525050104,-0.09042426648296593,-0.0067601704468937904,-0.2050800458196394,0.21796129448296597,-9.037504898963928,0.0006826992845691396,-0.08565121298196392,0.0018470266673346765,-1.3900000000000002e-25,48.811432765971944,49.344509997575145,-1.2565256234809619,-0.8742666774368738,10.219991860380762,10.225871114468937,-0.00011761768336673254,-0.7996839624128257,-0.17401593604008014,181.65460095971943,447.5978122436874,12.092875194468938,96063.0666687976,1.1413881456212427,-0.05398977075350678,0.10598917414428892,0.17926389356312705,0.004464780266533066,-0.053796275959919836,-0.0035470464248496926,-0.0011762080541082162,0.10558644999198398,-1.5793523208496996,0.7031160253246493,0.03705888206613226,0.03757016847294589,-0.7091137961002004,0.07198183415230464,398688576.1116233,327344073.08857715,448354.14487414825,10.236227365390782,-0.08849094138877757,-10.226227284468937,1.751891335967936,4.703418369727455,0.0,0.0,0.0,787999.0,39.8714138,32.7364368,-284.18464132605214,-174.65698234589178,-48.02254010779559,-0.07135838140681362,-10.258975488016032,1.8454272036813628,-0.1027164920981964,-0.46747123631663334,0.7450056338557114,48.17140110779559,0.014437287819639278,0.31581917456713426,0.002882818184368737,0.05409360539879758,167678981.26252505,0.0,0.0,0.0,0.0,1.0
167744491.0,-0.00180727439078157,0.6206200942184369,-0.036676946953907816,0.062421732172344674,1.0,1480.0,2000.0,1068.4909819639279,1500.2650333166334,1498.7349666833666,1809.314941452906,10.16539926755511,10.388083571222445,12.093766306993988,10.069592987755511,10.09803775769539,10.31945532248497,10.2270861501002,10.451333233106213,61.63719305953908,61.63719305953908,12.090619176272545,-0.0005027069078156313,-0.006090893424849699,3.2275751503006016e-05,-0.24263536315831663,0.2128121313787575,-0.039690508130260524,2.0,8.658885684597195,9.658885684597195,11.0,0.0,0.0,1.0,0.0,0.0,0.0,0.0,0.0,0.0,0.0,-0.0005808005390781559,0.10703475713627254,-1.5794527965891783,-1.5745160517675352,0.1465794413066132,336.6672954324649,29.55646649509018,-0.008511408975951904,0.4,-0.018866499743486975,0.0,-0.15940831550701406,0.2483436241863727,-9.093339540300601,-1.3900000000000002e-25,960.6288488617234,12.093453680020039,0.004199535951903811,-0.08293738462925851,-0.005538988521042079,-0.16368780804609215,0.21642251349298605,-9.095347619,0.002543736250501004,-0.07815464461523045,-0.001742354322645303,-1.3900000000000002e-25,48.70873270759519,49.28032849929859,-1.243135282511022,-0.9849461375891785,10.21998848729459,10.166234441623246,0.0010750772625250514,-0.7576440068136272,-0.17407905429258516,181.6146813759519,447.4215507647295,12.093766306993988,96065.08034472946,1.1414120884849699,-0.13403458755310657,0.39714552383166457,0.18331945721442966,0.005097154675350692,-0.04383191458717432,-0.0050140272785571096,-0.0007537807294589173,0.1053914812985972,-1.5794326188597194,0.7030831846392787,0.03713974670541082,0.03735035686773547,-0.7091534767695391,0.06847058553306613,398688575.3993988,327343984.7781563,448224.3572747495,10.26508666743487,-0.09836221830861724,-10.25787407270541,1.8145985150621242,4.7024373363386776,0.0,0.0,0.0,787999.0,39.8714138,32.7364368,-284.19293904929856,-175.39363926733472,-47.88689040713427,-0.07754680264729459,-10.290572644008016,1.9005804589238477,-0.1043079780741483,-0.5188637904028056,0.7106197085851703,48.03575140713427,0.014636021633266534,0.32750352996192383,0.002512385671342685,0.06150862370741482,167744490.96793586,0.0,0.0,0.0,0.0,1.0
167814000.0,0.0005379377414829654,0.6255476763486973,-0.03682888382164329,0.05976670780961927,1.0,1480.8113330460922,2000.0,1059.3673416432866,1499.3807615230462,1499.6192384769538,1808.2316217234468,10.162816136452905,10.3854188401002,12.094677623486975,10.111048675270542,10.139614510501001,10.361879933807616,10.261638621282565,10.486579103567134,62.1246999401002,62.1246999401002,12.091490614288578,-0.0005019720200400801,-0.006089866418837675,3.320961923847695e-05,-0.24263618184569138,0.2128545430480962,-0.03980654766733467,2.0,8.663742768663328,9.663742768663328,11.0,0.0,0.0,1.0,0.0,0.0,0.0,0.0,0.0,0.0,0.0,-0.00020864734468937826,0.107139387997996,-1.5795310709539077,-1.5745183411402806,0.1494897012965932,335.91114075511024,29.666100796593188,-0.00849298770541082,0.4,-0.01879583871543086,0.0,-0.19417400952505015,0.21736490046693385,-9.15018762376954,-1.3900000000000002e-25,960.6430535470942,12.094480354809619,0.001754878034068137,-0.06768792562124247,-0.00207763647094186,-0.16200655020040103,0.2553738604308619,-9.16119757619038,0.004317709484969942,-0.06695081256713425,-0.009033599362725448,-1.3900000000000002e-25,48.60292145268537,49.20770948046092,-1.2332090940981963,-1.0891368380060122,10.219948103486974,10.11674241216433,0.0020641099218436884,-0.7079197735751501,-0.17414374417234468,181.56948105030062,447.3464582943888,12.094677623486975,96065.93627246493,1.1414221796773547,0.0917247309739475,0.09578390160520933,0.24424396059519038,0.004099633727454899,-0.037739546887775546,-0.003385008416833668,-0.0003816061002004005,0.1049794435771543,-1.5795198499378758,0.7030530466853708,0.03712609476553106,0.03707194135671343,-0.7091987979438877,0.06392722865330658,398688574.7523046,327343895.50040084,448090.11795871746,10.296964076973948,-0.1089880247695391,-10.293293418436873,1.8712694725951904,4.701324636915831,0.0,0.0,0.0,787999.0,39.8714138,32.7364368,-284.20239267414837,-176.16345862985972,-47.741328813587174,-0.08423203778957918,-10.32502238220441,1.95350508796994,-0.10425422045891786,-0.5112577888657315,0.7349133404809619,47.89018981358717,0.014708047987975953,0.33451615966332665,0.0020694132484969934,0.06373275771543088,167814000.1703407,0.0,0.0,0.0,0.0,1.0
167887405.0,-0.0003187496112224452,0.6305335261543087,-0.03739607577955911,0.06358071629258516,1.0,1481.0,2000.0,1054.5962989018037,1500.0260521042085,1498.9739478957915,1809.5130260521041,10.32098949276553,10.54698753496994,12.095611118757516,10.152504362785571,10.181191273306613,10.404304550260521,10.296191102464931,10.521824981543086,62.61220683066132,62.61220683066132,12.09236204743487,-0.0005012361322645291,-0.006088839164328657,3.4143486973947896e-05,-0.24263700029458918,0.21289695471743486,-0.03992258771743487,2.0,8.668599852490983,9.668599852490983,11.0,0.0,0.0,1.0,0.0,0.0,0.0,0.0,0.0,0.0,0.0,0.00015611185571142276,0.10717804538677356,-1.5796093728957914,-1.5745206449258518,0.15241815324448896,335.1541038637274,29.77820568264529,-0.00847111358717435,0.4,-0.01873553988777555,0.0,-0.25299161143286575,0.20638208536673347,-9.262387879230461,-1.3900000000000002e-25,960.6653391743487,12.09537173012024,0.002672645743486977,-0.05851914240480962,-0.004902664541082165,-0.23919754653106218,0.19048206892184366,-9.11177877103006,0.005801086629258516,-0.04766216715230461,-0.004206243645290582,-1.3900000000000002e-25,48.48975862238477,49.1151531211022,-1.231468485725451,-1.177994997314629,10.219820274428859,10.091221561683366,0.002571971152304609,-0.640038063004008,-0.17421214845691382,181.51180278356713,447.20130244308615,12.095611118757516,96067.61009492986,1.1414421916713429,-0.1637245337174351,0.05997132191583179,0.31931638449699373,0.006094067212424854,-0.029235627256513033,-0.0073634454168336645,3.6075553106212276e-05,0.1049129079258517,-1.5795929443166332,0.7030203824088176,0.03725066761122244,0.03689906806412826,-0.7092333587154308,0.05990279556913827,398688574.0052104,327343806.36873746,447954.6453573147,10.329252538997995,-0.11838056554709418,-10.32830168288577,1.927118253507014,4.700341081787575,0.0,0.0,0.0,787999.0,39.8714138,32.7364368,-284.2112386675351,-176.89120755210425,-47.60051815569138,-0.09029336093186373,-10.360059112765532,1.9964612438396794,-0.1315505719579158,-0.4993954396713427,0.6320213244308617,47.74937915569138,0.014734226358717436,0.3315846715971944,0.0015781434589178358,0.05223408403807616,167887405.4028056,0.0,0.0,0.0,0.0,1.0
167958438.0,-0.00023278361923848446,0.6301898371182364,-0.03688060743486974,0.062448311442885734,1.0,1481.0,2000.0,1062.4782919959919,1499.261189216433,1499.738810783567,1813.8129599498998,10.279177857134268,10.504149776673346,12.096572975651302,10.193960050300602,10.222768026112226,10.446729166452906,10.330743573647295,10.557070853066133,63.09971371476954,63.09971371476954,12.093233486773547,-0.000500500244488978,-0.0060878129098196395,3.5077354709418836e-05,-0.24263781836272544,0.21293936638677355,-0.040038627741482966,2.0,8.673456935937876,9.673456935937876,11.0,0.0,0.0,1.0,0.0,0.0,0.0,0.0,0.0,0.0,0.0,0.0005208853947895798,0.10721670342084169,-1.5796876758376752,-1.5745229493567134,0.15534660521843688,334.3970669723447,29.890310574889778,-0.008452328360721443,0.4,-0.018676582733466934,0.0,-0.26347697793386776,0.21394911305210423,-9.321368088192385,-1.3900000000000002e-25,960.6885699246493,12.096286423426854,0.00442820003206412,-0.05232288247294588,-0.003956544869739484,-0.17883122804408835,0.27488207340881793,-9.314825804026052,0.00926524140280562,-0.04406516640681363,-0.0058497910901803675,-1.3900000000000002e-25,48.37631954198397,49.02184757182365,-1.2300354665531064,-1.2662770046332668,10.219689169398798,10.06660147492986,0.0030617501603206424,-0.5714740482284568,-0.17428069212625252,181.45365560901803,447.04715714348697,12.096572975651302,96069.37926963928,1.1414631558356714,-0.2948303094228459,0.1337346277274552,0.1867419550480958,0.0026705341262525228,-0.022888483386773528,-0.004539046719438869,0.00034520915831663413,0.10527373093587176,-1.5796720052765532,0.7029798495971944,0.037488745384769546,0.03691478941282566,-0.709260108521042,0.056810114889779606,398688573.35811627,327343718.0222445,447811.39966352703,10.36413177753507,-0.12,-10.360718904629259,1.977784963965932,4.7001715,0.0,0.0,0.0,787999.0,39.8714138,32.7364368,-284.2213506599199,-177.64941206853706,-47.451849484428855,-0.09587625280761525,-10.397858540781563,2.0356180399078156,-0.10125214341482952,-0.4907464227775551,0.5155668471482964,47.60071048442885,0.014671633084168337,0.3392716085631262,0.0012576881442885762,0.05805718175751501,167958437.91583166,0.0,0.0,0.0,0.0,1.0
168028308.0,0.0010773729418837663,0.6270005323507014,-0.036570348569138274,0.05598617288176353,1.0,1481.0,2000.0,1065.5914650561122,1499.4544941803608,1499.5455058196392,1815.8738041222446,10.222105926412826,10.445689088196392,12.097535268637275,10.235415737815632,10.264344788917835,10.489153777775552,10.365296047054109,10.592316729719439,63.587220601783564,63.587220601783564,12.094104926112225,-0.0004997643567134268,-0.006086785655310622,3.591122244488978e-05,-0.24263863743086173,0.21298177805611224,-0.040154668056112224,2.0,8.67831401938477,9.67831401938477,11.0,0.0,0.0,1.0,0.0,0.0,0.0,0.0,0.0,0.0,0.0,0.0008856522645290582,0.10725536094188377,-1.579765978779559,-1.574525253274549,0.1582750569018036,333.6400300809619,30.002415459358716,-0.008433218320641284,0.4,-0.01861905121242485,0.0,-0.2618359818396794,0.23041038958917837,-9.386471863697395,3.8584214095551124,960.7102429741483,12.09722043501002,0.00489889528857715,-0.04202516300601202,-0.008261053120240478,-0.24676757529859716,0.2739216519038077,-9.366245715947896,0.01022887115230461,-0.037937158174348694,-0.0052245020581162295,3.8584214095551124,48.269479518176354,48.92680276509018,-1.227251152046092,-1.3440871291042085,10.219602784008016,10.05292109026052,0.0033336309418837678,-0.5016667023466933,-0.17434506973346692,181.39648440440882,446.78112064989983,12.097535268637275,96072.46749274549,1.1414998393867735,0.22919287748096173,0.616863988220441,0.07287239358116233,0.005429477809619238,-0.012563040486973945,-0.00686316879759519,0.0007806091482965934,0.10756223921843687,-1.5797422685551104,0.7029039863527055,0.03845464802004008,0.03756343486372745,-0.7092502244729458,0.06063236361523046,398688572.61102206,327343629.80060124,447666.5345294589,10.399550768136272,-0.12,-10.392596318136272,2.0273720513366733,4.7001715,0.0,0.0,0.0,787999.0,39.8714138,32.7364368,-284.23222257835675,-178.4240336931864,-47.29868652148297,-0.10143919674148297,-10.43732427282565,2.0713234831362723,-0.05090466538276555,-0.496947705741483,0.4195505374649299,47.44754738472946,0.014492258468937876,0.34489493507815633,0.0010525422885771542,0.062044319124248494,168028307.59118235,0.0,0.0,0.0,0.0,1.0
168105555.0,-0.0002844871442885751,0.625012689755511,-0.036118936042084174,0.048743603342685446,1.0,1481.0,2000.0,1054.288003517034,1499.9098196392786,1499.0901803607214,1812.6448749759518,10.40744088462926,10.635033256432866,12.09851272995992,10.276871425330661,10.305921541723448,10.531578398196393,10.399848526012024,10.627562605470942,64.07472748324649,64.07472748324649,12.0949763654509,-0.0004990285591182365,-0.006085759400801603,3.684509018036072e-05,-0.24263945549899799,0.2130241897254509,-0.04027070781563127,2.0,8.683171102831663,9.683171102831663,11.0,0.0,0.0,1.0,0.0,0.0,0.0,0.0,0.0,0.0,0.0,0.0012504190440881773,0.10729401855310622,-1.5798442817214426,-1.5745275571923847,0.1612035091402806,332.88299318056113,30.11452034937876,-0.008412207581162323,0.4,-0.018565174178356715,0.0,-0.26208821768136265,0.2482322883226452,-9.483500349112223,11.613976235360699,960.7293863022045,12.09816649995992,0.005216105480961886,-0.04127713544889781,-0.007686388525050099,-0.26754594135270526,0.21618438048096197,-9.423557200196393,0.007481066130260522,-0.02288237050100199,0.00045578393987974843,11.613976235360699,48.170718831422846,48.82962855242485,-1.222812422757515,-1.4090763621142286,10.219571163246492,10.052634354609216,0.003338734372745491,-0.43033712641082145,-0.1744043470541082,181.34050818557117,446.55537851963925,12.09851272995992,96075.03743134269,1.1415304036813627,-0.267401347939878,0.18201620684568756,-0.03148035387575084,0.006134170178356714,-0.004972441593186381,-0.007079894673346673,0.0012383466312625262,0.11016791488376752,-1.5798078183046091,0.7028214491122244,0.03954072924849699,0.03831560864729459,-0.7092320862665331,0.06563373638076146,398688571.8458918,327343541.6795591,447521.2717272545,10.435964031022044,-0.12149124333667337,-10.42646206012024,2.073479564462926,4.700067386631263,0.0,0.0,0.0,787999.0,39.8714138,32.7364368,-284.24216163547095,-179.15372343186374,-47.15275398250501,-0.10797306226653308,-10.475887294248498,2.098404452402806,-0.10237762931863727,-0.5512881547214429,0.37560591854508996,47.30161415701403,0.014653164312625252,0.33977759357515036,0.00062889339278557,0.050191749014028085,168105554.61122245,0.0,0.0,0.0,0.0,1.0
168177547.0,0.0023605676052104244,0.629518964749499,-0.03649436594589178,0.058060382252505004,1.0,1481.0,2000.0,1059.8818966312626,1499.9579158316633,1499.0420841683367,1813.978280234469,10.482387719659318,10.71160577987976,12.099523094769538,10.31832711242485,10.347498304529058,10.57400301042084,10.43440099719439,10.662808483026051,64.5622343729058,64.5622343729058,12.095847794789579,-0.0004982935811623247,-0.0060847321462925855,3.777895791583166e-05,-0.24264027356713427,0.21306660135270541,-0.040386747394789584,2.0,8.688028187236473,9.688028187236473,11.0,0.0,0.0,1.0,0.0,0.0,0.0,0.0,0.0,0.0,0.0,0.0016151850040080162,0.10733267598396794,-1.5799225846633265,-1.5745298610681362,0.16413196055911825,332.1259561981964,30.226625241202406,-0.008389490330661324,0.4,-0.01852165461923848,0.0,-0.2279212163066132,0.2116618783827655,-9.620525496523046,2.8901458849158246,960.7417529523046,12.099112573106211,-8.759821442885394e-05,-0.03264348026252503,-0.003249907454909812,-0.24134469358917837,0.20045066067334663,-9.530630787102206,0.00833933631462926,-0.01646007147494989,-0.003979916929859724,2.8901458849158246,48.0719581442485,48.732454337955915,-1.2183736942885772,-1.4740655953046091,10.219539532905811,10.052347610761522,0.0033438370260521046,-0.35900755047494987,-0.17446362337474947,181.28453196673348,446.50551109759516,12.099523094769538,96075.62293390783,1.1415373136292584,-0.04396943843687394,-0.028938968312624325,0.4556783326773553,0.004094277765531059,0.0022891534649298753,-0.006858811262525057,0.0015904153807615234,0.10693363564529058,-1.5798894788737476,0.7028477852805611,0.038519051509018035,0.03705246471543086,-0.7093285241262526,0.05135766173547093,398688570.8210421,327343454.2695391,447373.5729781563,10.478467601523047,-0.13211704444288577,-10.472507211943888,2.098273072983968,4.699325527705411,0.0,0.0,0.0,787999.0,39.8714138,32.7364368,-284.25365880020036,-179.93332256372744,-46.995643716853714,-0.1137124839458918,-10.519234764669338,2.1191645073887777,-0.0815315575831663,-0.5478442591342685,0.2657024500761522,47.144504300861726,0.014682272364729458,0.3433132596032064,0.00016980742885771503,0.05209609420440881,168177546.93987975,0.0,0.0,0.0,0.0,1.0
168261329.0,-0.0013381960881763523,0.6236418578456914,-0.03552001759118237,0.05333133906813625,1.0,1481.0,2000.0,1059.0982115671343,1499.1743486973949,1499.8256513026051,1814.4769539078156,10.495845891342686,10.725202930420842,12.100533549759518,10.359782798617234,10.389075057334669,10.616427631743488,10.468953476633267,10.698054351422845,65.04974125346693,65.04974125346693,12.096719234128257,-0.0004975576933867736,-0.006083704891783568,3.871282565130261e-05,-0.24264109246092183,0.21310901288977957,-0.04050278788977956,2.0,8.69288527072545,9.69288527072545,11.0,0.0,0.0,1.0,0.0,0.0,0.0,0.0,0.0,0.0,0.0,0.0019607926352705413,0.10747576518436873,-1.579998820174349,-1.5745321367815632,0.1670184656733467,331.37285625991984,30.337506351763526,-0.008369893466933868,0.4,-0.0184936185751503,0.0,-0.22883412696392785,0.2664295297394789,-9.669562558348698,-1.3900000000000002e-25,960.7626835282565,12.1000735902004,0.005017228414829659,-0.020823017583166355,-0.00816027595991984,-0.2714349316272545,0.26460711360521033,-9.485354214054107,0.004964950074148301,-0.010827455262525053,-0.0033624298837675376,-1.3900000000000002e-25,47.97363708603206,48.626904091623246,-1.2151586015971945,-1.5369302388356714,10.219499342264529,10.073744144569138,0.0029151028236472955,-0.2918575606693387,-0.17452574460721443,181.23162280420843,446.3318282611222,12.100533549759518,96077.62325751504,1.1415611214208417,0.09339474265330636,-0.5386688086152297,-0.5025075715651285,0.004829726861723445,0.0074783762965931816,-0.008129599216432854,0.0018792731823647293,0.10845340489178357,-1.5799645527074149,0.7027866886633267,0.03916093430661322,0.037482685617234474,-0.709332122523046,0.05178976766733468,398688569.7046092,327343366.75951904,447225.87432064133,10.520971172024048,-0.1427428455490982,-10.518552363767535,2.12306658150501,4.698583669779559,0.0,0.0,0.0,787999.0,39.8714138,32.7364368,-284.26506560721447,-180.70254033667334,-46.83952996312625,-0.11831464440881763,-10.5619690501002,2.1348449206412825,-0.04224720048296596,-0.5257029442885772,0.1730861954128257,46.98839096138276,0.0146258841002004,0.34116424391382766,-0.0002493966092184366,0.04980982253306612,168261329.31863728,0.0,0.0,0.0,0.0,1.0
168335415.0,0.0004893794749499022,0.6216672788476953,-0.03747375963727455,0.038324120945891764,1.0,1481.693386773547,2000.0,1045.2124248496993,1499.0,1500.0,1810.5330661322646,10.525000522104207,10.754915901242486,12.101543953426853,10.40123848480962,10.43065182014028,10.658852243066132,10.503505949559118,10.733300229398798,65.53724814402807,65.53724814402807,12.097590673466934,-0.0004968218056112224,-0.006082678637274549,3.964669338677354e-05,-0.24264191070340682,0.2131514244268537,-0.04061882742685371,2.0,8.697742354172345,9.697742354172345,11.0,0.0,0.0,1.0,0.0,0.0,0.0,0.0,0.0,0.0,0.0,0.0022501882925851707,0.107925257002004,-1.580068993490982,-1.5745343306492985,0.16978189778156316,330.631307385972,30.44479689446894,-0.008350542865731463,0.4,-0.018471221016032064,0.0,-0.23267854206613223,0.32245948652304607,-9.720795436132265,-1.3900000000000002e-25,960.7830124202405,12.101042017975951,0.0033716823627254443,-0.016994774304609224,-0.009149050498998026,-0.2756998073246496,0.24942711506613235,-9.669812953853707,1.5802991983962077e-05,-0.0063193616012024,-0.000682989597194386,-1.3900000000000002e-25,47.87556854336673,48.51654274737475,-1.2126463507054108,-1.5985745424388778,10.219454217775551,10.107595299759518,0.0022371781763527044,-0.2271082789739478,-0.17458949875751503,181.18047531122247,446.2232881519038,12.101543953426853,96078.84964501002,1.141575704507014,0.4557616843266536,-0.20938758599398827,-0.06396007997996028,0.005998442979959925,0.013415091164328676,-0.0029010879398797553,0.00211207215230461,0.11215610736272545,-1.58002173049499,0.7026887407915832,0.0405568670501002,0.03870015038076152,-0.7092854681663325,0.059682495725450896,398688568.68396795,327343277.86272544,447073.6849478958,10.563474624649299,-0.1486415794008016,-10.563415748777555,2.14076949746493,4.698130575935872,0.0,0.0,0.0,787999.0,39.8714138,32.7364368,-284.27609057194394,-181.44791622765533,-46.68719979913828,-0.12206421474549099,-10.602692554128256,2.145027011913828,-0.01669273613026051,-0.5070127518016032,0.1170217874288576,46.83606079913828,0.014569557016032065,0.3368863014669339,-0.0005013169418837682,0.04525960699799596,168335414.51503006,0.0,0.0,0.0,0.0,1.0
168406075.0,-0.00030526231062124237,0.6234670296553106,-0.03652699925250501,0.050594598256513024,1.0,1481.438877755511,2000.0,1052.194388777555,1499.438877755511,1499.561122244489,1812.561122244489,10.54259928218437,10.772830675891784,12.102554377575151,10.442694171002005,10.472228572945891,10.701276858777556,10.538058420741482,10.76854610737475,66.0247550302004,66.0247550302004,12.098462112805612,-0.0004960859178356713,-0.006081651382765531,4.052444889779559e-05,-0.24264272877154308,0.2131938364028056,-0.040734867963927855,2.0,8.702599437619238,9.702599437619238,11.0,0.0,0.0,1.0,0.0,0.0,0.0,0.0,0.0,0.0,0.0,0.002536286144288577,0.10839272604208418,-1.5801388103106213,-1.5745365201963928,0.17253810941282566,329.8904361492986,30.551876783847693,-0.008328814472945893,0.4,-0.01844648446693387,0.0,-0.20954697728056113,0.2867303519198397,-9.859419887376752,-1.3900000000000002e-25,960.7937506430862,12.102029710821645,0.0036697858777555107,-0.01065209016232465,-0.005594510515030062,-0.2674648690260521,0.28449492872545085,-9.745124939507015,-0.003404404539078156,-0.00327441316232465,0.00014784008016032087,-1.3900000000000002e-25,47.7771328852505,48.405332353967935,-1.2096267542805612,-1.6603581358356714,10.219407999098197,10.141480561182366,0.00155854849498998,-0.16223777596993988,-0.1746536698216433,181.12949224448897,446.1019836012024,12.102554377575151,96080.27262176354,1.1415925591182363,0.23912647779759522,0.09853732336472934,-0.022597756653306683,0.006411982004008016,0.018978105805611222,-0.0021811507454909825,0.002455690014028056,0.11105885482765532,-1.5800959645511023,0.7026770286212425,0.040289906478957915,0.03819120195190381,-0.7093391718737475,0.05085399825851703,398688567.6194388,327343186.1488978,446912.7506549098,10.605977846412825,-0.14533517368136273,-10.605977846412825,2.1446647204408817,4.698239802314629,0.0,0.0,0.0,787999.0,39.8714138,32.7364368,-284.28898227835674,-182.24440346753505,-46.524638160921846,-0.1277928226012024,-10.647024428517033,2.148975847194389,-0.04807448090581162,-0.5217560957815631,-0.005135339697394763,46.67349916092184,0.014632694408817636,0.3341607429759519,-0.0009253645370741483,0.04377584504408817,168406074.8016032,0.0,0.0,0.0,0.0,1.0
