,timestamp,control[0],control[1],control[2],control[3],control[4],output[2],output[3],output[4],output[5],output[6],output[7],indicated_airspeed_m_s,true_airspeed_m_s,indicated_airspeed_m_s.1,equivalent_airspeed_m_s,true_airspeed_m_s.1,equivalent_ground_minus_wind_m_s,true_ground_minus_wind_m_s,differential_pressure_raw_pa,differential_pressure_filtered_pa,temperature,gyro_bias[0],gyro_bias[1],gyro_bias[2],accel_bias[0],accel_bias[1],accel_bias[2],instance_count,seq_reached,seq_current,seq_total,item_changed_index,item_do_jump_remaining,valid,warning,finished,failure,stay_in_failsafe,flight_termination,item_do_jump_changed,execution_mode,nav_roll,nav_pitch,nav_bearing,target_bearing,xtrack_error,wp_dist,acceptance_radius,rollspeed_integ,pitchspeed_integ,yawspeed_integ,additional_integ1,x,y,z,temperature.1,pressure,temperature.2,gyro_rad[0],gyro_rad[1],gyro_rad[2],accelerometer_m_s2[0],accelerometer_m_s2[1],accelerometer_m_s2[2],x.1,y.1,z.1,temperature.3,altitude_sp,altitude_filtered,height_rate_setpoint,height_rate,airspeed_sp,airspeed_filtered,airspeed_derivative_sp,airspeed_derivative,throttle_integ,pitch_integ,baro_alt_meter,baro_temp_celcius,baro_pressure_pa,rho,xyz[0],xyz[1],xyz[2],xyz[0].1,xyz[1].1,xyz[2].1,roll_body,pitch_body,yaw_body,q_d[0],q_d[1],q_d[2],q_d[3],thrust_body[0],lat,lon,alt,vel_m_s,vel_n_m_s,vel_e_m_s,vel_d_m_s,cog_rad,ground_contact,maybe_landed,landed,ref_lat,ref_lon,x.2,y.2,z.2,vx,vy,vz,ax,ay,az,dist_bottom,roll,pitch,yaw,thrust_body[0].1,timestamp.1,isTakeoff,isClimbing,isDescending,isCruise,isLand
3982,152512314,-0.006431353000000001,0.46914434200000005,0.026412984,0.09799158,1.0,1513.3354669999999,2000.0,1078.0,1501.3354669999999,1497.6645330000001,1729.0,10.21222349,10.43659629,11.01697592,11.07109072,11.31433429,11.14181552,11.38661317,69.78912431,69.78912431,12.08395702,-0.000648922,-0.005887341999999999,2.92e-06,-0.253282529,0.17985425300000002,-0.017691174,2.0,8.355271054,9.355271054,11,0,0,1,0,0.0,0,0,0,0,0,-0.006048991,0.09759336,-1.578256242,-1.5744900819999998,0.113462584,345.8640374,30.15281117,-0.008308023000000001,0.381962491,0.013925064,0.0,-0.10215250599999999,0.22888044800000001,-8.361183238999999,2.2000000000000002e-23,960.5002927999999,12.0854034,-0.00460156,-0.040533051,-0.01028518,0.126383495,0.24176509899999998,-9.011358983,-0.0077491109999999995,-0.07140416599999999,0.001155079,2.2000000000000002e-23,49.998405,49.40475294,0.029682622999999998,0.080135498,10.21990859,11.04216495,-0.016445122,-0.043062964,-0.397677538,183.7318005,448.7228956,12.08540682,96050.10295,1.141234122,-0.673820115,1.226319488,0.23504541199999998,-0.017387644,-0.190275976,0.0013412460000000001,-0.006109633000000001,0.102875496,-1.57844735,0.703573117,0.034345631,0.038381887999999996,-0.708753856,0.120720135,398688593.0,327345187.4,449395.0758,10.53933987,-0.01019804,-10.53927385,0.452838568,4.71045287,0,0,0.0,39.871413700000005,32.7364368,-284.01036600000003,-166.55348830000003,-49.14139265,-0.001254675,-10.5024246,0.97257635,-0.038603353,0.046353372999999996,1.411798495,49.29706265,0.001663229,0.164087374,-0.004693849,0.12131497,152512314,0,0,0,0,1
3983,152544947,-0.004239882,0.470933882,0.026021517,0.09632345,1.0,1513.0,2000.0,1093.0,1500.0,1499.0,1733.8159629999998,10.09974082,10.32161229,11.01539397,11.06960522,11.31281474,11.13935161,11.38409373,69.63496029,69.63496029,12.08407568,-0.000648935,-0.005887951,2.59e-06,-0.253286313,0.17986511600000002,-0.017741768999999998,2.0,8.357871573999999,9.357871573999999,11,0,0,1,0,0.0,0,0,0,0,0,-0.0060023030000000005,0.09796230800000001,-1.578299289,-1.574491141,0.114822682,345.49037430000004,30.167830300000002,-0.008304499,0.382555765,0.013949261000000001,0.0,-0.012303298,0.23978493399999998,-8.475701167,2.2000000000000002e-23,960.5028478,12.08568517,-0.000745172,-0.050675776,-0.014319003,0.10733680599999999,0.19772114100000002,-9.009027187000001,-0.005449334,-0.063405331,-0.00098591,2.2000000000000002e-23,49.998405,49.40594418,0.029623062000000002,0.08030185,10.21992121,11.04068562,-0.016415281,-0.043044227000000004,-0.397697106,183.7867752,448.608525,12.08563246,96051.43814,1.141249978,-0.523083295,0.81284106,-0.592600338,-0.018679026,-0.16767769800000001,0.001099306,-0.006106276999999999,0.10120610599999999,-1.578503811,0.703581085,0.033756086,0.037792644,-0.708805798,0.11592517,398688593.0,327345144.6,449370.7109,10.52193639,-0.015419084,-10.52012985,0.527673535,4.7100276160000005,0,0,0.0,39.871413700000005,32.7364368,-284.010847,-166.9196594,-49.10567687,-0.0015013329999999999,-10.50250465,1.016991927,-0.036795511,-0.058318305,1.277431739,49.26134687,0.001938696,0.164133065,-0.004677618,0.11697226,152544947,0,0,0,0,1
3984,152581580,-0.0035919090000000003,0.47787646899999997,0.025769268999999997,0.10920503,1.0,1512.703541,2000.0,1097.0,1501.703541,1497.296459,1735.0,10.13738968,10.36006097,11.01381202,11.06811971,11.31129519,11.13688769,11.38157428,69.4778276,69.4778276,12.08423883,-0.0006488959999999999,-0.00588854,2.25e-06,-0.253289643,0.179875665,-0.017779765,2.0,8.360472094,9.360472094,11,0,0,1,0,0.0,0,0,0,0,0,-0.005955614000000001,0.09833125599999999,-1.578342335,-1.5744922,0.116182781,345.1167112,30.18284943,-0.008296645,0.38318586299999996,0.013961017,0.0,0.07754590900000001,0.25068942,-8.590219095,2.2000000000000002e-23,960.5054028999999,12.08596693,-0.010768541999999999,-0.052149337000000004,-0.007096504,0.145196471,0.21427112199999998,-9.132635685,-0.003149556,-0.055406496,-0.0031268990000000003,2.2000000000000002e-23,49.97688796,49.40741334,-0.19498101899999998,0.07920644,10.21989876,11.04413185,-0.016484655,-0.06798949,-0.369876981,183.8360268,448.6713964,12.08585886,96050.68923999999,1.14124105,0.06627232599999999,0.6430972220000001,0.636313955,-0.0159396,-0.136781835,0.0021935839999999997,-0.006033201,0.102253624,-1.578534596,0.703550922,0.034153714,0.03813459,-0.7087975670000001,0.119386854,398688593.0,327345101.8,449346.3461,10.50453291,-0.020640128,-10.50098584,0.6025085020000001,4.709602362,0,0,0.0,39.871413700000005,32.7364368,-284.01134410000003,-167.27682180000002,-49.06945607,-0.001893683,-10.50483356,1.056141475,-0.02168598,-0.172177368,1.146077783,49.22512607,0.002407016,0.17296462,-0.0044248479999999995,0.12515125,152581580,0,0,0,0,1
3985,152614212,-0.0040563990000000005,0.48281148399999996,0.02666599,0.11283238,1.0,1513.0,2000.0,1091.0,1502.0,1497.0,1734.0,10.15232242,10.37534095,11.01223007,11.0666342,11.30977564,11.13442378,11.37905483,69.3206949,69.3206949,12.08440199,-0.000648856,-0.00588913,1.91e-06,-0.25329297300000003,0.17988621300000002,-0.01781776,2.0,8.363072615,9.363072615,11,0,0,1,0,0.0,0,0,0,0,0,-0.005908926,0.098700204,-1.5783853819999998,-1.574493259,0.11754288,344.7430481,30.19786856,-0.008291011,0.383751144,0.01396819,0.0,0.134560544,0.259226636,-8.714798199999999,2.2000000000000002e-23,960.5092704,12.08623382,-0.0035211659999999996,-0.05599283099999999,-0.009204747,0.13588408400000002,0.209554455,-9.109720322000001,-0.001658129,-0.049319519000000006,-0.005771383000000001,2.2000000000000002e-23,49.94925024,49.40896154,-0.483458468,0.077752113,10.21986634,11.048979199999998,-0.016582252,-0.10003594800000001,-0.334137645,183.8836505,448.6744234,12.08611469,96050.67553,1.141240945,0.35995041899999997,0.34713503799999995,-0.088479815,-0.010129768,-0.115699593,-0.002049793,-0.005955719,0.104417712,-1.578575085,0.703498715,0.034948938,0.03886746,-0.708771708,0.12602466,398688593.0,327345058.9,449321.9812,10.48712943,-0.025861172,-10.48184184,0.6773434690000001,4.7091771080000004,0,0,0.0,39.871413700000005,32.7364368,-284.0118412,-167.6339842,-49.03323528,-0.002286034,-10.50716247,1.095291023,-0.006576449,-0.28603643,1.014723828,49.18890528,0.002554014,0.177201343,-0.004359415,0.12649375,152614212,0,0,0,0,1
3986,152650845,-0.004251709,0.48093543200000005,0.027158956,0.10580737900000001,1.0,1512.257451,2000.0,1109.0,1502.0,1497.0,1739.2574510000002,10.207105699999998,10.43130816,11.01064812,11.06514869,11.30825609,11.13195986,11.37653539,69.1635622,69.1635622,12.08456514,-0.000648816,-0.005889719,1.56e-06,-0.25329630399999997,0.17989676100000002,-0.017855756,2.0,8.365673135,9.365673135,11,0,0,1,0,0.0,0,0,0,0,0,-0.0058622380000000005,0.099069151,-1.578428428,-1.5744943180000002,0.118902978,344.369385,30.21288769,-0.008288393,0.384371943,0.01397987,0.0,0.15196133,0.264907819,-8.851515792,2.2000000000000002e-23,960.5147212000002,12.08648277,-0.001456153,-0.06345632400000001,-0.007831679,0.19411836100000002,0.146756887,-9.234464055,-0.001141949,-0.045539138,-0.009023319,2.2000000000000002e-23,49.92161252,49.41050974,-0.7719359179999999,0.076297785,10.21983392,11.05382656,-0.016679848,-0.13208240599999999,-0.29839831,183.9312741,448.59628039999996,12.08635478,96051.57663,1.1412516240000001,-0.473753944,0.19056753899999998,0.572785773,-0.013773512,-0.103248639,-0.001787486,-0.005783428,0.101652425,-1.578629492,0.703523597,0.034030257,0.037833048,-0.70884749,0.117136036,398688593.0,327345016.1,449297.6163,10.46972595,-0.031082216,-10.46269784,0.7521784359999999,4.708751853,0,0,0.0,39.871413700000005,32.7364368,-284.0128079,-168.01764419999998,-48.99094796,-0.003107892,-10.51267929,1.1280450579999999,0.020558649,-0.293279776,0.9199725959999999,49.14661796,0.002965743,0.17295184,-0.004178249,0.11380711,152650845,0,0,0,0,1
3987,152691478,-0.0058765,0.48907857600000004,0.027378554,0.12044408,1.0,1513.0,2000.0,1109.0,1502.737948,1496.262052,1740.0,10.14856605,10.37144554,11.00906618,11.06366319,11.30673653,11.12949595,11.37401594,69.00642951,69.00642951,12.084728300000002,-0.000648776,-0.005890309,1.22e-06,-0.253299634,0.179907309,-0.017893752,2.0,8.368273655,9.368273655,11,0,0,1,0,0.0,0,0,0,0,0,-0.00581555,0.099438099,-1.578471474,-1.5744953780000002,0.120263077,343.9957219,30.22790682,-0.008284299,0.38496991399999997,0.013982195,0.0,0.169362116,0.27058900199999997,-8.988233382999999,2.2000000000000002e-23,960.5201720000001,12.08673171,0.001680329,-0.059464714,-0.005669222,0.245029195,0.22681245100000003,-9.179478017000001,-0.000625769,-0.041758757,-0.012275254,2.2000000000000002e-23,49.893974799999995,49.41205794,-1.060413367,0.074843458,10.21980151,11.05867391,-0.016777444,-0.164128864,-0.262658975,183.9788977,448.5755,12.08662586,96051.82,1.1412545,-0.096516655,0.452799151,0.6744650190000001,-0.009004166999999999,-0.08178224099999999,0.002099099,-0.00572309,0.098164954,-1.57868199,0.703561855,0.032815994,0.036584346000000004,-0.708932498,0.10584084,398688593.0,327344973.3,449273.2515,10.45232246,-0.036303261,-10.44355383,0.8270134029999999,4.708326598999999,0,0,0.0,39.871413700000005,32.7364368,-284.0138376,-168.40485980000003,-48.9478466,-0.003987383,-10.51862389,1.15994091,0.0493074,-0.28621686,0.830132911,49.103516600000006,0.003109167,0.171137802,-0.0041043220000000005,0.105295755,152691478,0,0,0,0,1
3988,152724111,-0.003340376,0.490380111,0.027249001000000002,0.11884059,1.0,1513.0,2000.0,1104.0,1502.2184439999999,1496.7815560000001,1740.0,10.20109826,10.42512457,11.00748423,11.06217768,11.30521698,11.12703204,11.3714965,68.84929681,68.84929681,12.08489145,-0.000648736,-0.005890898,8.75e-07,-0.25330296399999996,0.179917857,-0.017931746999999998,2.0,8.370874175,9.370874175,11,0,0,1,0,0.0,0,0,0,0,0,-0.005768861,0.099807047,-1.578514521,-1.5744964369999999,0.121623175,343.6220588,30.24292595,-0.008281065,0.385552945,0.013989871000000001,0.0,0.175487865,0.244474629,-9.05849089,2.2000000000000002e-23,960.5265427000002,12.0869944,-0.0007421610000000001,-0.061382269,-0.013833335,0.22489746100000002,0.231963227,-9.229132506000001,-0.000323276,-0.041738503999999996,-0.01339499,2.2000000000000002e-23,49.86633708,49.41360614,-1.348890816,0.073389131,10.21976909,11.06352126,-0.016875041,-0.196175323,-0.22691964,184.0265214,448.56295480000006,12.08689764,96051.94565,1.141255965,0.30887573100000004,-0.0057253669999999994,-0.37029632,-0.014221086,-0.068078384,0.001510998,-0.005588727,0.103028834,-1.5786979280000002,0.7034726859999999,0.034588031,0.03824688,-0.708848982,0.120170427,398688593.0,327344930.2,449245.7872,10.440508099999999,-0.038475695,-10.43152336,0.893210642,4.708176244,0,0,0.0,39.871413700000005,32.7364368,-284.014865,-168.79213169999997,-48.90454953,-0.004930917,-10.52479142,1.191448102,0.073966056,-0.282627012,0.7447806220000001,49.06021953,0.003321267,0.184125078,-0.0038656359999999996,0.119637236,152724111,0,0,0,0,1
3989,152756744,-0.007742428000000001,0.48925626299999997,0.02685547,0.11205931,1.0,1513.0,2000.0,1121.39788,1502.0,1497.0,1744.6989399999998,10.11716785,10.33937522,11.00590228,11.06069217,11.30369743,11.12456812,11.36897705,68.69216411,68.69216411,12.08505461,-0.0006486969999999999,-0.005891488,5.31e-07,-0.253306294,0.179928405,-0.017969743,2.0,8.373474695,9.373474695,11,0,0,1,0,0.0,0,0,0,0,0,-0.0057221730000000005,0.100175995,-1.5785575669999998,-1.574497496,0.122983274,343.2483957,30.25794508,-0.0082821,0.386147222,0.014000644,0.0,0.175140723,0.20010672899999998,-9.090594292999999,2.2000000000000002e-23,960.5334412999998,12.08726499,-0.009825234,-0.059590235,-0.006038394,0.132021051,0.163078985,-9.302191288,-0.000143459,-0.043876902999999995,-0.013290652,2.2000000000000002e-23,49.83528185,49.41496334,-1.616432769,0.070505392,10.21974133,11.06604457,-0.016926063,-0.230978173,-0.19257137800000002,184.0731576,448.48188939999994,12.08716901,96052.87726000001,1.141267067,0.653969771,1.262818397,-0.192702572,-0.006563589,-0.057143041,-0.0062076169999999995,-0.005511806,0.101874174,-1.5787521580000001,0.703471827,0.034206744,0.037812665,-0.708891671,0.11575317,398688593.0,327344886.6,449210.8062,10.44224845,-0.033254651,-10.43674457,0.938459692,4.70869257,0,0,0.0,39.871413700000005,32.7364368,-284.01585919999997,-169.1802102,-48.858453499999996,-0.006790366,-10.53414719,1.217396798,0.040129289,-0.328708032,0.72360582,49.0141235,0.003683396,0.186884262,-0.0037361820000000002,0.11566587,152756744,0,0,0,0,1
3990,152793377,-0.006426800999999999,0.489747919,0.027591131,0.109513615,1.0,1513.0,2000.0,1118.0,1502.0,1497.0,1745.0,10.20265721,10.42666752,11.00432033,11.05920667,11.30217788,11.12210421,11.3664576,68.53503141,68.53503141,12.08521777,-0.000648657,-0.005892078,1.87e-07,-0.253309624,0.179938953,-0.018007739,2.0,8.376075215,9.376075215,11,0,0,1,0,0.0,0,0,0,0,0,-0.005675485,0.10054494300000001,-1.578600613,-1.574498555,0.12434337300000001,342.8747326,30.27296421,-0.008279459,0.386736549,0.014012702,0.0,0.174793581,0.155738829,-9.122697695,2.2000000000000002e-23,960.54034,12.08753558,-0.002993456,-0.063672038,-0.00125688,0.160946851,0.217449478,-9.226546211,3.64e-05,-0.046015303,-0.013186313,2.2000000000000002e-23,49.76012459,49.41385568,-1.613807117,0.04917543,10.21977375,11.03857665,-0.016376057,-0.301351602,-0.176174578,184.10705149999998,448.4190385,12.08745125,96053.59008,1.141275518,0.544619115,-0.26128319699999997,-0.33653155799999995,-0.003921174,-0.047423167999999995,-0.00892946,-0.005417411,0.101813253,-1.578788099,0.703457953,0.034219003,0.037757145,-0.708906805,0.11484371,398688593.0,327344842.9,449175.8252,10.443988800000001,-0.028033607000000002,-10.44196579,0.983708742,4.709208897,0,0,0.0,39.871413700000005,32.7364368,-284.0168534,-169.5682886,-48.81235747,-0.008649816,-10.54350295,1.243345495,0.006292521999999999,-0.374789053,0.702431018,48.96802747,0.003961569,0.19369206,-0.003612766,0.119845589,152793377,0,0,0,0,1
3991,152826010,-0.006185517,0.49816678200000003,0.027907415,0.12131497,1.0,1513.0,2000.0,1112.0,1503.0,1496.0,1744.0,10.31845273,10.54495911,11.00273838,11.05772116,11.30065833,11.11964029,11.36393816,68.37789872,68.37789872,12.08538092,-0.000648617,-0.005892667,-1.57e-07,-0.253312954,0.179949501,-0.018045735,2.0,8.378675735,9.378675735,11,0,0,1,0,0.0,0,0,0,0,0,-0.005628797,0.10091389099999999,-1.57864366,-1.574499614,0.12570347099999998,342.50106949999997,30.28798334,-0.008275967,0.38729466,0.014012636,0.0,0.191965346,0.20386935,-9.132970897,3.506331176,960.5434854,12.08781531,-0.004695955,-0.053331166,-0.007213939,0.11169195900000001,0.152508004,-9.198019785,-0.000145571,-0.048868503,-0.014563901,3.506331176,49.68496733,49.41274802,-1.611181465,0.027845468999999998,10.21980617,11.01110873,-0.015826051,-0.37172503100000004,-0.159777778,184.14094550000002,448.36893,12.08774202,96054.19045,1.141282727,0.014373572,-0.186029912,0.26208838,-0.0032575940000000004,-0.03734034,-0.012352132,-0.005294318,0.104869361,-1.5788199569999999,0.7033924309999999,0.035346446000000004,0.038787559,-0.708861941,0.12404757699999999,398688593.0,327344799.2,449140.8442,10.44572915,-0.022812562999999998,-10.44718701,1.028957792,4.709725223,0,0,0.0,39.871413700000005,32.7364368,-284.0178626,-169.94913799999998,-48.76660786,-0.010461183,-10.55325792,1.268088686,-0.027014515,-0.40318576,0.674279836,48.92227795,0.004085755,0.200335715,-0.0034576679999999997,0.12413399,152826010,0,0,0,0,1
3992,152858643,-0.0029764009999999996,0.498776755,0.027597571,0.11697226,1.0,1513.0,2000.0,1119.0,1501.859572,1497.140428,1747.1404280000002,10.23097708,10.45553598,11.00115643,11.05623565,11.29913877,11.11717638,11.36141871,68.22076602,68.22076602,12.08554408,-0.000648577,-0.005893257,-5.01e-07,-0.253316284,0.17996005,-0.01808373,2.0,8.381276255,9.381276255,11,0,0,1,0,0.0,0,0,0,0,0,-0.005582109,0.101282839,-1.578686706,-1.574500674,0.12706357,342.1274064,30.30300247,-0.008269459,0.38786496600000003,0.014015191000000001,0.0,0.21305168,0.272668484,-9.138366178,7.796146007999999,960.545792,12.08809707,-0.000697835,-0.047423493,-0.009488784,0.208843125,0.19322130399999998,-9.27949546,-0.00040833300000000004,-0.051881425,-0.016272622,7.796146007999999,49.60981007,49.41164036,-1.6085558130000002,0.006515508000000001,10.21983859,10.98364081,-0.015276045,-0.442098461,-0.14338097800000002,184.1748395,448.3143916,12.08802328,96054.82002,1.141290135,0.73158505,0.56485241,0.20508039100000003,-0.007074663,-0.035665424,-0.008226054,-0.0051194759999999995,0.10240817199999999,-1.5788724219999999,0.703413266,0.034536334,0.037859302000000004,-0.70893113,0.11590781,398688593.0,327344755.5,449105.8632,10.44746949,-0.017591518,-10.45240823,1.0742068409999999,4.710241549,0,0,0.0,39.871413700000005,32.7364368,-284.0189172,-170.3081858,-48.721903000000005,-0.012127542,-10.56421684,1.289196273,-0.058723972,-0.37824946,0.625089029,48.87757344,0.004356135,0.19596672899999998,-0.003304251,0.11124966,152858643,0,0,0,0,1
3993,152895276,-0.003920331,0.504944678,0.027399094,0.12515125,1.0,1513.0,2000.0,1121.0,1502.0,1497.0,1749.0,10.27590613,10.50149962,10.99957448,11.05475014,11.29761922,11.11471247,11.35889927,68.06363332,68.06363332,12.08570723,-0.0006485369999999999,-0.0058938459999999995,-8.440000000000001e-07,-0.25331961399999997,0.179970598,-0.018121726,2.0,8.383876775,9.383876775,11,0,0,1,0,0.0,0,0,0,0,0,-0.00553542,0.101651786,-1.5787297530000002,-1.5745017330000002,0.128423669,341.75374320000003,30.3180216,-0.008261931,0.388440503,0.014015561000000001,0.0,0.23413801399999998,0.341467618,-9.143761459,12.08596084,960.5480987,12.08837884,-0.002161192,-0.043003063,-0.008560839,0.178569969,0.23328533199999998,-9.303640474,-0.0006710939999999999,-0.054894347,-0.017981343,12.08596084,49.53465281,49.410532700000005,-1.6059301609999999,-0.014814454,10.21987101,10.95617289,-0.014726039,-0.51247189,-0.126984178,184.2087334,448.33419860000004,12.08833962,96054.56891,1.141287229,0.203775718,0.182922033,-0.325615838,0.000760267,-0.035013121,-0.004851113,-0.005075253,0.09870857400000001,-1.5789244480000002,0.7034562409999999,0.033241064,0.036541865,-0.7090196320000001,0.103756271,398688593.0,327344711.8,449070.8822,10.44920984,-0.012370474,-10.45762945,1.1194558909999999,4.710757876000001,0,0,0.0,39.871413700000005,32.7364368,-284.0199717,-170.6672336,-48.67719814,-0.013793901,-10.57517575,1.31030386,-0.09043343,-0.35331316,0.5758982229999999,48.83286894,0.004338084,0.20293489399999998,-0.003169402,0.117162675,152895276,0,0,0,0,1
3994,152927909,-0.006519043,0.508823009,0.027560649,0.12649375,1.0,1513.0,2000.0,1109.0,1502.0,1497.0,1748.0,10.29085261,10.51671031,10.99799253,11.05326464,11.29609967,11.11224855,11.35637982,67.90650063,67.90650063,12.08587039,-0.0006484980000000001,-0.005894435999999999,-1.19e-06,-0.253322944,0.179981146,-0.018159722,2.0,8.386477295,9.386477295,11,0,0,1,0,0.0,0,0,0,0,0,-0.005477091,0.101918026,-1.578770768,-1.574502795,0.129783767,341.37742180000004,30.34415513,-0.008258773,0.388956763,0.014012092,0.0,0.197455865,0.302453009,-9.168838848,7.800982327000001,960.5550053999999,12.08867125,0.0067638030000000005,-0.041747228,-0.008308191999999999,0.103016315,0.245208604,-9.339842532,-0.002686633,-0.059164975999999994,-0.01285919,7.800982327000001,49.45949555,49.40942504,-1.60330451,-0.036144415,10.21990342,10.92870498,-0.014176033000000001,-0.582845319,-0.11058737699999999,184.2426274,448.2052523,12.08862561,96056.05403,1.1413048270000001,-0.422608618,-0.6254223560000001,-0.081580817,-4.96e-05,-0.029692957000000002,-0.011718262,-0.004981396,0.10328352199999999,-1.578937852,0.703372703,0.034896512000000005,0.038116998,-0.7089401340000001,0.117569359,398688592.9,327344667.8,449030.4851,10.45380076,-0.01,-10.46475095,1.157103411,4.710992299999999,0,0,0.0,39.871413700000005,32.7364368,-284.0210432,-171.0398839,-48.62983562,-0.015626222,-10.58658664,1.331843472,-0.107227295,-0.35601048799999996,0.549534075,48.78550647,0.004171747,0.20640847,-0.003147267,0.11834466,152927909,0,0,0,0,1
3995,152964542,-0.005493304,0.506182491,0.027769099999999998,0.11380711,1.0,1513.0,2000.0,1125.0,1502.0,1497.0,1752.0,10.32818711,10.55479924,10.99641058,11.05177913,11.29458012,11.10978464,11.35386037,67.74936793,67.74936793,12.08603355,-0.000648458,-0.005895025,-1.53e-06,-0.25332627399999996,0.17999169399999998,-0.018197718,2.0,8.389077816,9.389077816,11,0,0,1,0,0.0,0,0,0,0,0,-0.005405346,0.10206590199999999,-1.578809444,-1.5745038619999998,0.131143866,340.9980369,30.38309734,-0.008257094,0.389496171,0.014003115,0.0,0.160741134,0.263377591,-9.193927339,3.511167495,960.5619148,12.08896366,-0.005345219,-0.033629993,-0.00799496,0.167452132,0.221811203,-9.394319207,-0.004703161,-0.063436315,-0.007733184000000001,3.511167495,49.38661465,49.40485454,-1.5855695769999998,-0.076206224,10.21991539,10.896562199999998,-0.013532938000000001,-0.638235141,-0.10019992800000001,184.2696649,448.06365250000005,12.08894183,96057.68891,1.141324191,0.06323501200000001,-0.273559226,-0.077376894,-0.005548345,-0.039163587,-0.013343161000000001,-0.004949272,0.102436027,-1.5789903809999999,0.7033681759999999,0.034608308,0.037806728,-0.708975393,0.11438457199999999,398688592.7,327344623.4,448985.5841,10.46076215,-0.01,-10.47345269,1.188429659,4.710992299999999,0,0,0.0,39.871413700000005,32.7364368,-284.0221368,-171.4303697,-48.57898838,-0.01767615,-10.59859017,1.353949555,-0.10446386699999999,-0.39494097100000003,0.553100195,48.73465888,0.00409872,0.200887155,-0.003070592,0.10549467,152964542,0,0,0,0,1
3996,152997175,-0.004420244,0.504934372,0.027588893,0.105295755,1.0,1513.0,2000.0,1121.0,1502.0,1497.0,1753.0,10.23262804,10.45708023,10.99482864,11.05029362,11.29306057,11.10732072,11.35134093,67.59223523,67.59223523,12.086196699999999,-0.000648418,-0.005895615,-1.88e-06,-0.253329604,0.18000224199999998,-0.018235713,2.0,8.391678336,9.391678336,11,0,0,1,0,0.0,0,0,0,0,0,-0.005333602,0.10221377699999999,-1.578848119,-1.574504928,0.132503964,340.6186519,30.42203954,-0.008253541,0.390035695,0.014011853000000001,0.0,0.135321793,0.22980545600000002,-9.225049932000001,2.2000000000000002e-23,960.5680550000001,12.08926001,-0.002903422,-0.028072869,0.001429591,0.16375930800000002,0.272440421,-9.412017417000001,-0.006458386,-0.065054473,-0.003829367,2.2000000000000002e-23,49.31768893,49.39426736,-1.5415822680000002,-0.148814619,10.21989182,10.85629687,-0.012728102,-0.667590944,-0.10025372699999999,184.2847895,448.1569766,12.08925848,96056.60929,1.141311407,0.275920926,0.272683685,0.024283838999999998,-0.006228988,-0.041518743,-0.0073776580000000005,-0.004963155,0.101475716,-1.579030603,0.703370061,0.034263651,0.037473289,-0.709007142,0.1096145,398688592.6,327344579.0,448940.6831,10.46772354,-0.01,-10.48215443,1.2197559070000001,4.710992299999999,0,0,0.0,39.871413700000005,32.7364368,-284.02323039999993,-171.8208554,-48.52814115,-0.019726078,-10.610593699999999,1.3760556369999999,-0.101700438,-0.433871454,0.556666315,48.68381129,0.004269037,0.21246637899999998,-0.0029254629999999997,0.11976704,152997175,0,0,0,0,1
3997,153031615,-0.0061912059999999994,0.514470388,0.027809097,0.120109395,1.0,1513.0,2000.0,1113.0,1503.0,1496.0,1753.0,10.23669939,10.46132021,10.99324669,11.04880812,11.29154101,11.10485681,11.34882148,67.43510253,67.43510253,12.08635986,-0.000648378,-0.005896205,-2.22e-06,-0.253332934,0.18001279,-0.018273709,2.0,8.394278856,9.394278856,11,0,0,1,0,0.0,0,0,0,0,0,-0.005261856999999999,0.10236165300000001,-1.578886794,-1.5745059940000001,0.133864063,340.23926689999996,30.46098175,-0.008247068,0.39052235399999996,0.014006891,0.0,0.160836945,0.22104936600000002,-9.283382203,2.2000000000000002e-23,960.5707272,12.08957407,-0.007851239,-0.02466972,-0.004869212,0.091177613,0.284223499,-9.462153633,-0.0070353130000000005,-0.054708599000000004,-0.005436786999999999,2.2000000000000002e-23,49.248763200000006,49.38368019,-1.4975949590000002,-0.22142301399999997,10.21986825,10.81603153,-0.011923266,-0.696946746,-0.100307526,184.299914,448.13606150000004,12.08957474,96056.88038999999,1.141314675,0.167973509,-0.323420723,-0.022446347999999998,-0.004735998,-0.044404785999999995,-0.008185918,-0.00496957,0.105419069,-1.57905499,0.703293683,0.035660109,0.03886154,-0.708940198,0.120263896,398688592.4,327344534.6,448895.7822,10.47468494,-0.01,-10.49085617,1.251082155,4.710992299999999,0,0,0.0,39.871413700000005,32.7364368,-284.024405,-172.19386880000002,-48.47836406,-0.021333577000000003,-10.62352163,1.3956347740000001,-0.08275433,-0.417661595,0.542834853,48.63403406,0.0043403420000000005,0.211822328,-0.0029643259999999998,0.11482765,153031615,0,0,0,0,1
3998,153074440,-0.004290735,0.516968496,0.027731396000000002,0.11566587,1.0,1513.0234050000001,2000.0,1105.327666,1502.0,1497.0,1752.0936190000002,10.35919809,10.58644551,10.99166474,11.04732261,11.29002146,11.1023929,11.34630204,67.27796984,67.27796984,12.08652301,-0.000648338,-0.005896794,-2.56e-06,-0.253336264,0.180023338,-0.018311705,2.0,8.396879376000001,9.396879376000001,11,0,0,1,0,0.0,0,0,0,0,0,-0.005190112,0.102509528,-1.57892547,-1.57450706,0.13522416199999998,339.85988199999997,30.49992395,-0.008241669,0.39103746100000003,0.014001638,0.0,0.186352098,0.212293276,-9.341714474,2.2000000000000002e-23,960.5733993999999,12.08988813,-0.00512501,-0.01809362,0.002594748,0.12254341099999999,0.26189677899999997,-9.517947844,-0.007612241,-0.044362724000000006,-0.007044206999999999,2.2000000000000002e-23,49.17983747,49.37309301,-1.45360765,-0.294031408,10.21984468,10.7757662,-0.011118428999999999,-0.726302549,-0.100361324,184.31503859999998,447.97197029999995,12.08989828,96058.73076,1.1413365629999999,0.016648282,-0.118035156,-0.19318117399999998,-0.002278053,-0.046111217,-0.008105884,-0.004983829,0.103657549,-1.5791066169999999,0.7033064729999999,0.035031492000000004,0.038246407999999996,-0.7089921690000001,0.112906885,398688592.2,327344490.3,448850.8812,10.48164633,-0.01,-10.49955791,1.282408403,4.710992299999999,0,0,0.0,39.871413700000005,32.7364368,-284.02563,-172.5560057,-48.42925312,-0.022665669,-10.63702498,1.413640922,-0.053734727999999995,-0.367127629,0.518173633,48.58492312,0.0045082709999999995,0.208418818,-0.002913619,0.10659274,153074440,0,0,0,0,1
3999,153114147,-0.004990359000000001,0.5254683929999999,0.028272225,0.12294723,1.0,1513.0,2000.0,1120.0,1501.496099,1497.503901,1758.0,10.36955333,10.59701171,10.99008279,11.0458371,11.28850191,11.09992898,11.34378259,67.12083714,67.12083714,12.08668617,-0.000648299,-0.005897384,-2.91e-06,-0.253339594,0.180033886,-0.0183497,2.0,8.399479896,9.399479896,11,0,0,1,0,0.0,0,0,0,0,0,-0.005118368,0.10265740400000001,-1.578964145,-1.5745081269999999,0.13658426,339.480497,30.53886616,-0.008235626999999999,0.391560904,0.013991813,0.0,0.19839775399999998,0.21121030899999998,-9.366769571,2.2000000000000002e-23,960.5792546,12.09023367,-0.005113383,-0.01717882,0.00032007,0.11943068,0.23280121199999998,-9.594332392,-0.007584803,-0.035846468,-0.00723702,2.2000000000000002e-23,49.11091175,49.36250584,-1.409620342,-0.366639803,10.21982111,10.73550087,-0.010313593000000001,-0.7556583509999999,-0.10041512300000001,184.3301631,447.872984,12.09023825,96059.86048999999,1.141350039,-0.041983140999999995,-0.245177652,0.196137632,-0.000292455,-0.04814022,-0.011749057,-0.004893785,0.10024201,-1.5791578530000001,0.703344923,0.033852949,0.037012787000000005,-0.709076568,0.10017532900000001,398688592.0,327344445.9,448805.9802,10.48860772,-0.01,-10.50825965,1.31373465,4.710992299999999,0,0,0.0,39.871413700000005,32.7364368,-284.02685499999995,-172.9181426,-48.38014219,-0.023997762000000002,-10.65052833,1.43164707,-0.024715125,-0.316593663,0.493512414,48.53581219,0.004481901,0.20422494600000002,-0.0029016,0.09773795,153114147,0,0,0,0,1
4000,153155413,-0.0031639909999999997,0.526747438,0.028220049,0.11938295199999999,1.0,1513.0,2000.0,1108.109222,1502.0,1497.0,1757.015603,10.35482441,10.5818388,10.98850084,11.04435159,11.28698236,11.09746507,11.34126314,66.96370444,66.96370444,12.08684932,-0.000648259,-0.005897973000000001,-3.25e-06,-0.25334292399999997,0.18004443399999998,-0.018387696000000002,2.0,8.402080416,9.402080416,11,0,0,1,0,0.0,0,0,0,0,0,-0.005046623,0.102805279,-1.57900282,-1.5745091930000001,0.13794435900000002,339.101112,30.57780836,-0.008231806999999999,0.392100991,0.013995351999999999,0.0,0.186866573,0.223558283,-9.333576715,2.2000000000000002e-23,960.5906815,12.09063432,0.001723451,-0.015638219,-0.003923753,0.07145325799999999,0.2529751,-9.621561689,-0.006499491,-0.030532752000000003,-0.0049537240000000005,2.2000000000000002e-23,49.04198602,49.35191866,-1.3656330330000002,-0.439248198,10.21979754,10.69523553,-0.009508757,-0.7850141540000001,-0.100468921,184.3452876,448.0437716,12.09056015,96057.88962,1.14132665,0.21727325,-0.027074589,0.28051487,0.001560781,-0.048937040999999994,-0.013120933000000001,-0.0047372809999999994,0.10440067199999999,-1.579170049,0.70326665,0.035382912999999995,0.038419136,-0.7090048729999999,0.111634416,398688592.0,327344402.5,448759.5477,10.49974581,-0.014176835,-10.51696125,1.3408840770000001,4.7105306339999995,0,0,0.0,39.871413700000005,32.7364368,-284.0279579,-173.2812879,-48.32967431,-0.024841362999999998,-10.66383341,1.4465629359999999,-0.011382958,-0.323655301,0.454966373,48.48534431,0.004681658,0.215057805,-0.0026606190000000004,0.11224498,153155413,0,0,0,0,1
4001,153200339,-0.004844281,0.525430799,0.028219101,0.11052061099999999,1.0,1514.0,2000.0,1122.0,1502.0,1497.0,1762.464893,10.43426279,10.66312154,10.98691889,11.04286609,11.28546281,11.09500115,11.338743699999998,66.80657175,66.80657175,12.08701248,-0.000648219,-0.005898563000000001,-3.59e-06,-0.253346254,0.180054983,-0.018425692,2.0,8.404680936,9.404680936,11,0,0,1,0,0.0,0,0,0,0,0,-0.004974878,0.102953155,-1.5790414959999999,-1.574510259,0.13930445800000002,338.7217271,30.61675057,-0.00822608,0.392554786,0.013995921000000001,0.0,0.17533539199999998,0.235906256,-9.300383858,2.2000000000000002e-23,960.6021082999998,12.09103497,0.0046305090000000005,-0.009144572,-0.008605899,0.06292845400000001,0.226302342,-9.611704527,-0.005414179,-0.025219035,-0.002670428,2.2000000000000002e-23,48.98247651,49.33283704,-1.346141077,-0.509524816,10.21978506,10.65514241,-0.008707144,-0.782907928,-0.100517886,184.34824890000002,447.8400113,12.0909016,96060.26101,1.141354859,0.19991219600000001,-0.159422216,0.132587716,-0.007132541,-0.046837425999999995,-0.005667081,-0.004640081,0.10405249,-1.57922235,0.703252435,0.03529463,0.038261355,-0.70903189,0.108827181,398688592.0,327344359.3,448712.7323,10.51192807,-0.01939788,-10.52566282,1.366989298,4.709953552,0,0,0.0,39.871413700000005,32.7364368,-284.02903019999997,-173.64468540000001,-48.2788672,-0.02556284,-10.67708892,1.4607062309999999,-0.001972649,-0.345115839,0.412949126,48.4345372,0.004880205,0.208962194,-0.002628219,0.100470663,153200339,0,0,0,0,1
4002,153236972,-0.008313362,0.530431774,0.028298647000000003,0.117162675,1.0,1514.0,2000.0,1119.0,1501.945389,1497.054611,1763.0,10.49211455,10.72211616,10.98533694,11.04138058,11.28394325,11.09253724,11.33622425,66.64943905,66.64943905,12.08717564,-0.000648179,-0.0058991519999999995,-3.94e-06,-0.25334958399999996,0.18006553100000003,-0.018463688,2.0,8.407281456,9.407281456,11,0,0,1,0,0.0,0,0,0,0,0,-0.004903133,0.10310103,-1.579080171,-1.5745113259999999,0.140664556,338.3423421,30.65569278,-0.00821937,0.393056829,0.014002263999999999,0.0,0.163893998,0.236055481,-9.337936717,2.2000000000000002e-23,960.6090234,12.09139437,-0.000875288,-0.002219993,-0.000631888,0.15227929699999998,0.279062113,-9.736371921,-0.007520577,-0.024913575,-0.002141697,2.2000000000000002e-23,48.92784646,49.30935361,-1.339342553,-0.578593114,10.21977831,10.61513853,-0.007907200999999999,-0.7644981540000001,-0.100564345,184.3449071,447.78004339999995,12.09124859,96060.96768,1.141363149,0.138176207,0.500762202,0.043848736,-0.002653477,-0.039257448,-0.0050169609999999995,-0.004591016,0.10121567,-1.5792734730000002,0.703282418,0.034306855,0.037245786,-0.7091047109999999,0.098230314,398688592.0,327344316.2,448665.917,10.52411033,-0.024618924,-10.53436439,1.3930945190000001,4.70937647,0,0,0.0,39.871413700000005,32.7364368,-284.0301025,-174.0080828,-48.22806009,-0.026284317,-10.69034443,1.4748495259999999,0.00743766,-0.366576377,0.37093187899999996,48.38373009,0.0050011909999999994,0.203732162,-0.002641713,0.090729214,153236972,0,0,0,0,1
4003,153273605,-0.005105139,0.53201972,0.028618957,0.11639809400000001,1.0,1514.0,2000.0,1102.0,1502.0,1497.0,1761.0,10.40664992,10.63473763,10.98375499,11.03989507,11.282423699999999,11.09007333,11.333704800000001,66.49230635,66.49230635,12.08733879,-0.000648139,-0.0058997419999999995,-4.28e-06,-0.253352914,0.18007607899999997,-0.018501683,2.0,8.409881976,9.409881976,11,0,0,1,0,0.0,0,0,0,0,0,-0.004831389,0.103248906,-1.5791188459999999,-1.574512392,0.142024655,337.96295710000004,30.69463498,-0.008213288000000001,0.39356307700000004,0.014007117,0.0,0.152527363,0.226047485,-9.434395616,2.2000000000000002e-23,960.6121817,12.09171943,0.0037589890000000003,-0.010692678,-0.004099938,0.14827669400000001,0.22084625100000002,-9.68704823,-0.012284535,-0.028778211,-0.003073894,2.2000000000000002e-23,48.8732164,49.28587019,-1.3325440290000001,-0.647661412,10.21977156,10.57513464,-0.007107258000000001,-0.746088381,-0.100610804,184.3415654,447.8223775,12.09158446,96060.4658,1.141357273,-0.852365693,-0.368723061,0.27025545100000004,0.001694722,-0.039996847,-0.010767842,-0.004529025,0.10199959,-1.5793019590000001,0.703257433,0.034607175,0.037498883,-0.709100755,0.099412554,398688592.0,327344273.0,448619.1016,10.5362926,-0.029839967999999998,-10.54306595,1.41919974,4.708799388,0,0,0.0,39.871413700000005,32.7364368,-284.0316777,-174.40202040000003,-48.1714516,-0.027786089,-10.70578672,1.485858055,-0.00093916,-0.36665466700000005,0.317497207,48.3271216,0.005365526,0.21472470000000002,-0.002356488,0.106664665,153273605,0,0,0,0,1
4004,153310238,-0.005452825,0.524112453,0.02651525,0.10549467,1.0,1514.0,2000.0,1117.0,1504.0,1495.0,1765.0,10.38084539,10.60848403,10.98217305,11.03840957,11.28090415,11.08760941,11.33118536,66.33517365,66.33517365,12.08750195,-0.0006481,-0.0059003319999999995,-4.63e-06,-0.253356244,0.180086627,-0.018539679,2.0,8.412482496,9.412482496,11,0,0,1,0,0.0,0,0,0,0,0,-0.004759644,0.103396781,-1.5791575219999998,-1.5745134580000002,0.143384753,337.5835722,30.73357719,-0.008208046,0.394048351,0.014004301,0.0,0.141160729,0.216039488,-9.530854515,2.2000000000000002e-23,960.6153401,12.0920445,-0.0024343679999999997,-0.009279239,-0.0069137619999999995,0.073066985,0.20243221399999997,-9.717936808,-0.017048493,-0.032642847999999995,-0.004006092,2.2000000000000002e-23,48.81858635,49.26238677,-1.325745505,-0.71672971,10.21976482,10.53513076,-0.006307315,-0.727678607,-0.10065726400000001,184.3382237,447.6291215,12.091915,96062.68828,1.141383635,-0.308697115,0.33608128,0.010665322,-0.000603263,-0.034701397,-0.007008736,-0.004381492,0.104518754,-1.579338879,0.703198443,0.03555313,0.038331527000000004,-0.709068844,0.10633350400000001,398688592.0,327344229.8,448572.2863,10.54847486,-0.035061012,-10.55176752,1.445304961,4.708222306000001,0,0,0.0,39.871413700000005,32.7364368,-284.03326139999996,-174.79646519999997,-48.11474676,-0.02930082,-10.72126533,1.4968145169999998,-0.009611414,-0.366377811,0.263872898,48.27041676,0.005414257,0.21216024,-0.002315721,0.10172295599999999,153310238,0,0,0,0,1
4005,153346871,-0.002888591,0.532875146,0.026858887,0.12023568300000001,1.0,1514.0,2000.0,1113.0,1502.0,1497.0,1765.0,10.52702369,10.75774142,10.97636788,11.03274237,11.27511441,11.08317301,11.3266535,66.17804096,66.17804096,12.0876651,-0.00064806,-0.005900921,-4.97e-06,-0.253359574,0.180097175,-0.018577675,2.0,8.415083017,9.415083017,11,0,0,1,0,0.0,0,0,0,0,0,-0.004687899000000001,0.103544657,-1.579196197,-1.574514524,0.14474485199999998,337.2041872,30.77251939,-0.00820035,0.394530114,0.01401605,0.0,0.12222114099999999,0.233040255,-9.586473756,2.2000000000000002e-23,960.6220881,12.09237731,0.0006803860000000001,-0.008257305,-0.006365437,0.087947098,0.22698285899999998,-9.768267963,-0.012987243,-0.027174969,-0.003884271,2.2000000000000002e-23,48.7639563,49.23890334,-1.3189469809999999,-0.785798008,10.21975807,10.49512688,-0.005507372,-0.7092688340000001,-0.10070372300000001,184.334882,447.68767980000007,12.09227733,96062.01836,1.141375673,0.465558046,0.48887858100000003,0.12910486599999998,-0.00012472200000000002,-0.033122351,-0.00510258,-0.004316706,0.102304614,-1.579390984,0.703217325,0.034791688,0.037529308,-0.709130644,0.097677443,398688592.0,327344186.6,448525.17,10.56075115,-0.040282056000000004,-10.56037508,1.470187939,4.707655068999999,0,0,0.0,39.871413700000005,32.7364368,-284.0348337,-175.1860906,-48.05862547,-0.030792833999999998,-10.73629633,1.507013495,-0.014327211999999999,-0.36391574600000004,0.214528489,48.21429547,0.005533427,0.20317455199999998,-0.002341095,0.08591938,153346871,0,0,0,0,1
4006,153379504,-0.0037424470000000003,0.5317685520000001,0.026741082000000003,0.11482765,1.0,1513.0,2000.0,1105.0,1502.0,1497.0,1762.0,10.47262453,10.70214943,10.96484265,11.02141136,11.263541,11.07606501,11.31939596,66.02090826,66.02090826,12.08782826,-0.00064802,-0.005901511,-5.31e-06,-0.253362904,0.180107723,-0.018615671,2.0,8.417683537,9.417683537,11,0,0,1,0,0.0,0,0,0,0,0,-0.004616154,0.10369253199999999,-1.5792348719999998,-1.574515591,0.14610495099999998,336.82480219999997,30.811461600000005,-0.008194024,0.395029095,0.01403321,0.0,0.100448295,0.260145772,-9.626813713999999,2.2000000000000002e-23,960.6301792000002,12.09271301,-0.007413376,0.002176012,-0.0009169569999999999,0.092457125,0.17470269100000002,-9.776673288,-0.0056242309999999995,-0.018215528999999998,-0.003368112,2.2000000000000002e-23,48.70932625,49.21541992,-1.312148457,-0.8548663059999999,10.21975132,10.45512299,-0.004707428,-0.69085906,-0.100750182,184.33154019999998,447.7089044,12.09263651,96061.79058,1.141372964,-0.408292606,-0.054761912999999995,0.001393666,0.0070473359999999995,-0.028073642000000003,-0.0041753,-0.004306361,0.09918678,-1.579442255,0.7032519309999999,0.033690508,0.036428721000000004,-0.709206971,0.08609032300000001,398688591.8,327344141.5,448472.7856,10.57467393,-0.045503101,-10.56733647,1.473668652,4.707260219,0,0,0.0,39.871413700000005,32.7364368,-284.03634980000004,-175.5517321,-48.00540813,-0.032171795,-10.74909984,1.513442908,0.0006460190000000001,-0.35057913700000004,0.18648270399999997,48.16107813,0.005787269,0.212446115,-0.002142443,0.10065292,153379504,0,0,0,0,1
4007,153416137,-0.003796651,0.52908658,0.026574313,0.106281604,1.0,1513.0,2000.0,1120.0,1500.6521300000002,1498.3478699999998,1766.0,10.48826327,10.71815157,10.95331742,11.01008036,11.25196759,11.06895702,11.31213843,65.86377556,65.86377556,12.08799142,-0.00064798,-0.0059021,-5.66e-06,-0.25336623399999997,0.18011827100000002,-0.018653666,2.0,8.420284057,9.420284057,11,0,0,1,0,0.0,0,0,0,0,0,-0.00454441,0.10384040800000001,-1.5792735480000002,-1.574516657,0.14746504900000001,336.4454173,30.85040381,-0.008188355999999999,0.39550046,0.014045257,0.0,0.07867544900000001,0.28725128899999997,-9.667153672000001,2.2000000000000002e-23,960.6382702999999,12.09304872,-0.002060925,-0.002909976,5.3200000000000006e-05,-0.001317185,0.20526484,-9.855895813,0.0017387820000000001,-0.00925609,-0.002851952,2.2000000000000002e-23,48.65801718,49.18187878,-1.301986806,-0.899760683,10.219753,10.43526958,-0.004310329,-0.651207545,-0.100794929,184.3191194,447.5908204,12.09296976,96063.13307000001,1.1413889590000001,0.29755386899999997,0.266207586,0.202903998,0.0061296680000000004,-0.024298469,-0.005312761,-0.004158262,0.104271948,-1.579455724,0.7031574070000001,0.035546324,0.038163543,-0.7091189370000001,0.101443878,398688591.6,327344096.4,448420.4011,10.58859672,-0.050724145,-10.57429786,1.477149366,4.706865369,0,0,0.0,39.871413700000005,32.7364368,-284.037866,-175.9173735,-47.9521908,-0.033550755,-10.76190334,1.51987232,0.015619248999999998,-0.337242527,0.158436919,48.1078608,0.005947546999999999,0.211098872,-0.002068266,0.09780114,153416137,0,0,0,0,1
4008,153452770,-0.005409746,0.533254164,0.026739906,0.11150235,1.0,1513.0,2000.0,1114.0,1501.0,1498.0,1765.828366,10.50253374,10.73263428,10.94179219,10.99874935,11.24039418,11.06184902,11.30488089,65.70664287,65.70664287,12.08815457,-0.00064794,-0.00590269,-6e-06,-0.253369564,0.180128819,-0.018691662,2.0,8.422884577,9.422884577,11,0,0,1,0,0.0,0,0,0,0,0,-0.004470056,0.103953935,-1.579312504,-1.574517725,0.14882514800000002,336.0698705,30.88531047,-0.008181731999999999,0.39596554799999995,0.014056928,0.0,0.048887522999999995,0.249763247,-9.691291963,3.904741902,960.6387966,12.09339412,0.001711179,0.001783092,-0.003085247,0.082738617,0.251642019,-9.880740347,-0.000876777,-0.009095124,-0.0051522009999999995,3.904741902,48.60687536,49.14783113,-1.291655788,-0.943437668,10.219755099999999,10.41643094,-0.003933516,-0.610486303,-0.10083959,184.3062414,447.5309188,12.09333164,96063.82002,1.141397149,-0.12309612699999999,-0.07621164799999999,-0.39351632799999997,0.003311916,-0.017549693999999998,-0.00453386,-0.004075031,0.103485825,-1.579508049,0.703151163,0.035297786,0.037856786,-0.709153977,0.097997681,398688591.5,327344051.3,448368.0166,10.602519500000001,-0.055945189000000006,-10.58125925,1.480630079,4.706470519,0,0,0.0,39.871413700000005,32.7364368,-284.0397161,-176.29409040000002,-47.89732979,-0.035044588,-10.77438843,1.5252169359999999,0.02647663,-0.33609364,0.125566971,48.05299979,0.005959461,0.206511732,-0.002089395,0.090712346,153452770,0,0,0,0,1
4009,153493403,-0.00532151,0.532623341,0.027275092999999997,0.10698788,1.0,1513.0,2000.0,1097.0,1502.3088619999999,1496.6911380000001,1762.0,10.53105082,10.76172826,10.93026696,10.98741835,11.22882076,11.05474102,11.29762336,65.54951017,65.54951017,12.08831773,-0.000647901,-0.005903279,-6.35e-06,-0.25337289399999996,0.180139368,-0.018729658,2.0,8.425485097000001,9.425485097000001,11,0,0,1,0,0.0,0,0,0,0,0,-0.004389704,0.10398849199999999,-1.579352104,-1.574518799,0.150185247,335.7031481,30.91093916,-0.008176276,0.396442918,0.01406364,0.0,0.018305041,0.20587187899999998,-9.713824141,8.196570982,960.6385730000001,12.09374047,0.004679128,0.005515786999999999,0.002334821,0.030779465,0.18540014100000002,-9.841857713,-0.0044815359999999995,-0.009806373,-0.0077316469999999995,8.196570982,48.55573354,49.11378349,-1.281324771,-0.987114653,10.21975721,10.39759229,-0.0035567040000000004,-0.56976506,-0.10088425,184.2933634,447.3649789,12.09369308,96065.72615,1.141419745,-0.342938346,0.10362414199999999,0.10032163699999999,0.0014214079999999999,-0.019375855,-0.002758345,-0.004034231,0.10047713300000001,-1.5795600969999999,0.7031836659999999,0.034246002000000005,0.036783822,-0.7092294809999999,0.087317096,398688591.3,327344006.3,448315.6321,10.61644229,-0.061166233,-10.58822064,1.4841107930000002,4.706075668,0,0,0.0,39.871413700000005,32.7364368,-284.04218389999994,-176.6912871,-47.83942942,-0.036750832000000004,-10.78628473,1.528555633,0.029723323,-0.357481279,0.083776577,47.99509942,0.00627102,0.211142952,-0.00186481,0.09774717,153493403,0,0,0,0,1
4010,153530036,-0.0020865470000000002,0.530671274,0.026742508999999998,0.09927674,1.0,1513.0,2000.0,1111.0,1502.0,1497.0,1766.0,10.54957293,10.78063083,10.91874173,10.97608734,11.21724735,11.04763302,11.29036583,65.39237747,65.39237747,12.08848088,-0.000647861,-0.005903869,-6.69e-06,-0.253376224,0.18014991600000002,-0.018767653000000002,2.0,8.428085617,9.428085617,11,0,0,1,0,0.0,0,0,0,0,0,-0.004309352,0.104023048,-1.579391704,-1.574519872,0.151545347,335.3364256,30.93656785,-0.008167968000000001,0.396916451,0.01407075,0.0,-0.00597765,0.167719696,-9.73706926,11.69970994,960.6389369999999,12.09408585,-0.004105328,0.0016378529999999999,-0.0033086979999999997,-0.018076918,0.241261258,-9.841516791,-0.007499851,-0.010049565,-0.009563304,11.69970994,48.50459171,49.07973585,-1.270993754,-1.030791638,10.21975931,10.37875365,-0.003179891,-0.529043817,-0.10092891,184.2804853,447.5282482,12.09405451,96063.83927000001,1.141397239,0.192052465,-0.5097854079999999,-0.168009885,-0.0025399529999999997,-0.009626331,-0.005745386,-0.003921677,0.103553719,-1.579577978,0.7031223190000001,0.035377093,0.037825028,-0.70918,0.096262974,398688591.1,327343961.2,448263.2476,10.63036507,-0.06638727700000001,-10.59518204,1.487591506,4.705680818,0,0,0.0,39.871413700000005,32.7364368,-284.0446516,-177.08848369999998,-47.78152906,-0.038457076,-10.79818103,1.53189433,0.032970015,-0.378868917,0.041986184,47.93719906,0.006412566999999999,0.212326773,-0.001792207,0.09937126,153530036,0,0,0,0,1
4011,153566669,-0.004254349,0.535171739,0.026990475,0.10532996,1.0,1513.0,2000.0,1106.0,1502.0,1497.0,1766.0,10.47127809,10.70061527,10.90721651,10.96475634,11.20567394,11.04052502,11.28310829,65.36198348,65.36198348,12.08873206,-0.000647763,-0.005904586999999999,-6.91e-06,-0.25337918800000003,0.18016305,-0.018813138,2.0,8.430686137,9.430686137,11,0,0,1,0,0.0,0,0,0,0,0,-0.004229,0.104057605,-1.579431305,-1.574520945,0.152905446,334.96970319999997,30.96219654,-0.008159323000000001,0.397376282,0.014086472,0.0,0.032003235,0.186290381,-9.767360692,7.4078808579999995,960.6451082000001,12.09442155,0.00128152,-0.004362935,-0.008445963,0.034507239,0.307727458,-9.878123496,-0.00472207,-0.0056667440000000005,-0.004004231,7.4078808579999995,48.45344989,49.0456882,-1.260662737,-1.074468623,10.21976141,10.359914999999999,-0.0028030790000000004,-0.488322574,-0.100973571,184.2676073,447.2760063999999,12.09438595,96066.75463,1.141431949,0.8578054079999999,0.681598905,-0.236159315,0.00210973,-0.006026914,0.000752458,-0.003860096,0.10434096400000001,-1.5796278559999999,0.703089847,0.0356789,0.038079019,-0.709183797,0.097693357,398688590.9,327343916.3,448210.1126,10.64428786,-0.07,-10.60589623,1.492680536,4.705388858,0,0,0.0,39.871413700000005,32.7364368,-284.0469143,-177.4700776,-47.72602938,-0.040120512000000004,-10.80948181,1.533698112,0.022281022,-0.373317238,0.028954668,47.88169938,0.006378204,0.209243715,-0.001836851,0.09487376,153566669,0,0,0,0,1
4012,153607301,-0.003934073,0.5346127079999999,0.026181735,0.106664665,1.0,1513.0,2000.0,1099.0,1501.0,1498.0,1765.0,10.52616754,10.75670779,10.89569128,10.95342533,11.19410053,11.03341703,11.27585076,65.45690416,65.45690416,12.08907027,-0.000647609,-0.0059054319999999995,-7e-06,-0.25338178899999997,0.180178741,-0.018866029,2.0,8.433286657,9.433286657,11,0,0,1,0,0.0,0,0,0,0,0,-0.004148648,0.10409216199999999,-1.579470905,-1.574522019,0.154265545,334.6029807,30.98782523,-0.008149144,0.39787627600000003,0.014095536,0.0,0.06998412,0.20486106699999998,-9.797652122999999,3.116051778,960.6512794,12.09475726,0.000117993,0.007279176,-0.002981875,-0.0028333890000000004,0.28018769600000004,-9.907206828,-0.001944288,-0.001283922,0.001554843,3.116051778,48.40092186,49.00868974,-1.252397276,-1.114561022,10.21975569,10.34551416,-0.002515178,-0.446609487,-0.101019867,184.25309330000002,447.2020451,12.09474738,96067.59217,1.1414419740000001,-0.32043500199999997,0.057068062999999995,-0.23518005,0.00547978,-0.002359141,0.002371094,-0.003810923,0.10198485199999999,-1.579680311,0.703111513,0.034861517,0.037232528,-0.709247891,0.08887263699999999,398688590.5,327343871.7,448155.2917,10.65821064,-0.07,-10.62504024,1.501382276,4.705328015,0,0,0.0,39.871413700000005,32.7364368,-284.0489986,-177.8380909,-47.67261925,-0.04174669,-10.82026425,1.534165918,-0.00053745,-0.34431785,0.040954588,47.82828925,0.006663128000000001,0.200102163,-0.001754994,0.07980517,153607301,0,0,0,0,1
4013,153639934,-0.005241961,0.530393474,0.026890109,0.09422165,1.0,1513.0,2000.0,1093.462693,1502.0,1497.0,1764.6925390000001,10.43248618,10.66092822,10.88416605,10.94209433,11.18252712,11.02630903,11.26859322,65.55182485,65.55182485,12.08940848,-0.000647455,-0.005906277,-7.09e-06,-0.25338439100000004,0.18019443300000001,-0.018918919,2.0,8.435887177,9.435887177,11,0,0,1,0,0.0,0,0,0,0,0,-0.004068296,0.104126719,-1.5795105059999999,-1.574523092,0.155625645,334.23625830000003,31.01345392,-0.008140214,0.398299031,0.014101178,0.0,0.087424661,0.216337157,-9.832725293,2.2000000000000002e-23,960.6597207000001,12.09509598,-0.000841552,0.0043998909999999995,-0.00869384,0.026741200000000003,0.22288811100000003,-9.849495559,0.000517555,0.001804144,0.004684862,2.2000000000000002e-23,48.34413203,48.96261922,-1.250482202,-1.143632901,10.2197259,10.34475697,-0.002500629,-0.40184705600000004,-0.10107119199999999,184.2335493,447.3181281,12.09510882,96066.26051000001,1.141426042,-0.514846006,0.029695804,0.048777759000000004,0.000573115,0.004401457,-0.001300262,-0.003697497,0.101022816,-1.579720611,0.7031113659999999,0.034560885,0.03685344,-0.7092816940000001,0.084604537,398688590.2,327343827.2,448100.4707,10.67213343,-0.07,-10.64418424,1.5100840169999998,4.705267173,0,0,0.0,39.871413700000005,32.7364368,-284.0510829,-178.2061043,-47.61920911,-0.043372867999999995,-10.83104669,1.534633724,-0.023355921,-0.31531846199999997,0.052954508,47.77487911,0.006824256999999999,0.210112616,-0.001551638,0.09638144800000001,153639934,0,0,0,0,1
4014,153680567,-0.0035283859999999997,0.528323719,0.027156428,0.08800901400000001,1.0,1512.288658,2000.0,1106.0,1501.0,1498.0,1767.0,10.47877495,10.70822331,10.87264082,10.93076332,11.1709537,11.01920103,11.26133569,65.64674553,65.64674553,12.08974668,-0.000647301,-0.0059071209999999996,-7.18e-06,-0.253386992,0.18021012399999997,-0.018971809,2.0,8.438487698,9.438487698,11,0,0,1,0,0.0,0,0,0,0,0,-0.003987943,0.104161276,-1.579550106,-1.574524165,0.156985744,333.86953589999996,31.03908261,-0.008132482,0.39874114200000005,0.014120717,0.0,0.050429062000000004,0.209011108,-9.880471052999999,2.2000000000000002e-23,960.6741781999999,12.09544269,0.00169497,0.00584297,-0.004994045999999999,-0.147123957,0.17278604600000003,-9.945015151,0.0021420989999999997,0.001460841,0.0013773879999999998,2.2000000000000002e-23,48.28734221,48.9165487,-1.248567129,-1.172704781,10.21969611,10.34399978,-0.00248608,-0.357084625,-0.10112251800000001,184.2140053,447.1381148,12.09547072,96068.3146,1.141450509,-0.416555477,-0.13759343400000001,0.11382843599999999,-0.000341493,0.005692895,-0.0021866060000000002,-0.003583313,0.10486892699999999,-1.5797480069999998,0.703032894,0.035965741,0.038164271,-0.709221158,0.096339909,398688589.8,327343782.6,448045.6497,10.68605621,-0.07,-10.66332824,1.5187857569999998,4.70520633,0,0,0.0,39.871413700000005,32.7364368,-284.05375380000004,-178.5966565,-47.5625106,-0.044676045,-10.84077781,1.5339292130000002,-0.021643262000000003,-0.295922002,0.035385865,47.718180600000004,0.007036555999999999,0.20739417699999999,-0.001493588,0.09238279,153680567,0,0,0,0,1
4015,153713200,-0.0038125209999999997,0.536615975,0.02764995,0.10228748,1.0,1513.0,2000.0,1094.0,1502.1918380000002,1496.8081619999998,1765.0,10.512929,10.74306646,10.86111559,10.91943231,11.15938029,11.01209303,11.25407815,65.74166622,65.74166622,12.09008489,-0.0006471469999999999,-0.005907966,-7.27e-06,-0.253389593,0.180225815,-0.019024699,2.0,8.441088217999999,9.441088217999999,11,0,0,1,0,0.0,0,0,0,0,0,-0.003907591,0.104195833,-1.579589706,-1.574525239,0.15834584300000001,333.5028134,31.064711300000003,-0.008125915,0.399167293,0.014126867,0.0,0.013433463999999999,0.20168505899999997,-9.928216813999999,2.2000000000000002e-23,960.6886356000001,12.0957894,-0.00225335,0.0045076859999999995,-0.001730164,0.065515539,0.218052663,-9.977617025,0.003766643,0.001117538,-0.0019300860000000001,2.2000000000000002e-23,48.23055239,48.87047818,-1.246652055,-1.201776661,10.21966632,10.34324259,-0.00247153,-0.312322193,-0.10117384300000001,184.1944614,447.1212246,12.09583269,96068.56616,1.141453477,-0.41052079399999997,-0.082350917,0.32442124699999997,-0.0014215089999999998,0.005379734000000001,-0.000918843,-0.003516806,0.103372626,-1.579800815,0.703039412,0.035459396000000004,0.037613867,-0.70926955,0.09056328,398688589.5,327343738.1,447990.8288,10.699978999999999,-0.07,-10.68247224,1.5274874969999999,4.705145487,0,0,0.0,39.871413700000005,32.7364368,-284.05665469999997,-178.9960475,-47.50452253,-0.045852555999999996,-10.85009665,1.532764971,-0.010310551,-0.280291396,0.006221708,47.66019253,0.007221425,0.199769947,-0.0015255779999999999,0.080557411,153713200,0,0,0,0,1
4016,153753833,-0.0043111009999999995,0.533317862,0.027625327,0.094552405,1.0,1513.0,2000.0,1085.0,1501.0,1498.0,1763.0,10.60742764,10.839567599999999,10.84959037,10.90810131,11.14780688,11.00498503,11.24682062,65.8365869,65.8365869,12.0904231,-0.000646992,-0.005908811,-7.36e-06,-0.253392195,0.180241507,-0.019077589,2.0,8.443688737999999,9.443688737999999,11,0,0,1,0,0.0,0,0,0,0,0,-0.003827239,0.10423039,-1.5796293069999998,-1.574526312,0.15970594300000002,333.136091,31.09033999,-0.008121712,0.39961210700000005,0.014145423,0.0,-0.017560617,0.202956768,-9.95091238,2.2000000000000002e-23,960.6986686,12.09617058,-0.003798667,0.003723115,-0.001229386,-0.021567817000000003,0.23965186600000002,-9.862099831,0.003417832,0.001622744,-0.0026370459999999997,2.2000000000000002e-23,48.17376256,48.82440766,-1.244736981,-1.2308485409999999,10.21963653,10.342485400000001,-0.002456981,-0.267559762,-0.101225169,184.1749174,447.2174602,12.09616667,96067.39127000001,1.1414395609999999,-0.160501077,0.13588822,1.094183621,-0.00019857900000000002,0.006176879000000001,9.36e-06,-0.003458503,0.10031315800000001,-1.57985367,0.703072535,0.034395627000000005,0.036516968999999996,-0.7093463409999999,0.079843526,398688589.2,327343693.5,447936.0078,10.71390178,-0.07,-10.70161625,1.5361892380000002,4.705084645,0,0,0.0,39.871413700000005,32.7364368,-284.0595556,-179.39543840000002,-47.44653446,-0.047029067,-10.85941549,1.531600729,0.00102216,-0.26466079,-0.02294245,47.60220446,0.007474904,0.206830138,-0.001348176,0.09318614,153753833,0,0,0,0,1
4017,153786466,-0.0032417059999999996,0.5287105879999999,0.027399774,0.08278851,1.0,1513.0,2000.0,1102.0,1501.0,1498.0,1768.0,10.60242588,10.83457258,10.83806514,10.8967703,11.13623347,10.99787704,11.23956308,65.93150759,65.93150759,12.09076131,-0.0006468380000000001,-0.005909656,-7.46e-06,-0.25339479600000003,0.180257198,-0.019130479,2.0,8.446289258,9.446289258,11,0,0,1,0,0.0,0,0,0,0,0,-0.003746887,0.104264946,-1.5796689069999998,-1.574527385,0.161066042,332.7693685,31.11596868,-0.008113321,0.399962663,0.014162806000000002,0.0,-0.041395905,0.214484144,-9.943727307,2.2000000000000002e-23,960.7034238,12.09659288,-0.0030415890000000004,0.011854728,-0.00542281,-0.010280199,0.211249176,-9.978865134,0.000715143,0.003140076,-0.000242033,2.2000000000000002e-23,48.11697274,48.77833714,-1.242821908,-1.259920421,10.21960674,10.34172821,-0.002442432,-0.22279733100000002,-0.10127649400000001,184.15537340000003,447.0987113,12.09652557,96068.7739,1.14145593,-0.191885799,0.177731412,0.540575368,0.00040191300000000005,0.009446418,-0.003910856,-0.003343596,0.10457195,-1.5798689119999998,0.702990995,0.035946972,0.037972717,-0.709273901,0.09361782800000001,398688588.9,327343649.3,447881.7738,10.72586827,-0.06804360799999999,-10.71684737,1.536087217,4.705245843,0,0,0.0,39.871413700000005,32.7364368,-284.0620786,-179.7681258,-47.39291928,-0.048891467,-10.86747217,1.529251926,0.004893307,-0.22711382,-0.049725227000000004,47.54858928,0.007736469,0.206937233,-0.001264443,0.09527319,153786466,0,0,0,0,1
4018,153823099,-0.002213334,0.534325629,0.027570077000000002,0.09774717,1.0,1513.0,2000.0,1097.0,1501.633327,1497.366673,1767.0,10.58276813,10.81438346,10.82653991,10.885439300000002,11.12466006,10.99076904,11.23230555,66.02642827,66.02642827,12.09109952,-0.000646684,-0.005910500999999999,-7.55e-06,-0.253397398,0.180272889,-0.019183369,2.0,8.448889778,9.448889778,11,0,0,1,0,0.0,0,0,0,0,0,-0.003666535,0.104299503,-1.5797085080000002,-1.5745284590000002,0.162426141,332.4026461,31.14159737,-0.008103645,0.4,0.014171406000000001,0.0,-0.06523119200000001,0.22601152100000002,-9.936542235,2.2000000000000002e-23,960.7081791000002,12.09701517,-0.0055261419999999995,0.004901153,-0.001002083,-0.048811578,0.24182016899999997,-9.899232885,-0.001987546,0.004657409,0.00215298,2.2000000000000002e-23,48.06381106,48.73256517,-1.2392275940000002,-1.2842668240000001,10.21958091,10.34891193,-0.002586621,-0.184799837,-0.101328123,184.1374006,446.9776487,12.096886999999999,96070.15205,1.141472354,-0.648894878,0.010795299999999999,-0.425316884,0.00566385,0.010411258,-8.01e-05,-0.0032657370000000003,0.104300549,-1.579922413,0.702975493,0.035879085,0.03784877,-0.709299383,0.092521053,398688588.7,327343605.5,447827.99700000003,10.73631053,-0.064562912,-10.72902981,1.529125825,4.705580042,0,0,0.0,39.871413700000005,32.7364368,-284.0645606,-180.137911,-47.33977935,-0.05082841,-10.87539167,1.526774382,0.007953515999999999,-0.187184934,-0.07624919,47.49544935,0.007973679000000001,0.199732191,-0.001146006,0.08414693,153823099,0,0,0,0,1
4019,153855732,-0.0031812529999999998,0.532950639,0.027653412000000002,0.09487376,1.0,1513.0,2000.0,1082.0,1501.0,1498.0,1764.0,10.63607447,10.86880331,10.81501468,10.87410829,11.11308664,10.98366104,11.22504801,66.12134896,66.12134896,12.09143773,-0.00064653,-0.005911346,-7.64e-06,-0.253399999,0.180288581,-0.019236259,2.0,8.451490298,9.451490298,11,0,0,1,0,0.0,0,0,0,0,0,-0.0035861829999999997,0.10433406,-1.5797481080000002,-1.574529532,0.163786241,332.0359236,31.16722606,-0.008095591,0.4,0.01417904,0.0,-0.034795855,0.238277619,-9.928181797999999,2.2000000000000002e-23,960.7152079,12.09738222,-0.000546763,0.006472088000000001,-0.011431386000000002,-0.055745275,0.18527062600000002,-9.911162333,-0.0038410420000000002,0.004673399999999999,0.0019877370000000003,2.2000000000000002e-23,48.01375482,48.68704874,-1.234195965,-1.30456854,10.21955848,10.36289253,-0.0028666790000000004,-0.15259267099999999,-0.10138001099999999,184.12077250000002,446.86693319999995,12.09724844,96071.44164,1.141487741,-0.10273267300000001,-0.59500666,-0.059509772999999995,-0.00013126200000000002,0.012891971,-0.002261176,-0.003162555,0.101710881,-1.579975636,0.703000128,0.034997729,0.036901129,-0.70936878,0.08294274,398688588.6,327343561.6,447774.2202,10.746752800000001,-0.061082215,-10.74121224,1.5221644330000001,4.705914241,0,0,0.0,39.871413700000005,32.7364368,-284.0670778,-180.5103779,-47.28633537,-0.052731525999999994,-10.88330817,1.524189566,0.010872436999999999,-0.14959797800000002,-0.10352003800000001,47.44200537,0.008045618000000001,0.196887315,-0.001104578,0.080681986,153855732,0,0,0,0,1
