,timestamp,control[0],control[1],control[2],control[3],control[4],output[2],output[3],output[4],output[5],output[6],output[7],indicated_airspeed_m_s,true_airspeed_m_s,indicated_airspeed_m_s.1,equivalent_airspeed_m_s,true_airspeed_m_s.1,equivalent_ground_minus_wind_m_s,true_ground_minus_wind_m_s,differential_pressure_raw_pa,differential_pressure_filtered_pa,temperature,gyro_bias[0],gyro_bias[1],gyro_bias[2],accel_bias[0],accel_bias[1],accel_bias[2],instance_count,seq_reached,seq_current,seq_total,item_changed_index,item_do_jump_remaining,valid,warning,finished,failure,stay_in_failsafe,flight_termination,item_do_jump_changed,execution_mode,nav_roll,nav_pitch,nav_bearing,target_bearing,xtrack_error,wp_dist,acceptance_radius,rollspeed_integ,pitchspeed_integ,yawspeed_integ,additional_integ1,x,y,z,temperature.1,pressure,temperature.2,gyro_rad[0],gyro_rad[1],gyro_rad[2],accelerometer_m_s2[0],accelerometer_m_s2[1],accelerometer_m_s2[2],x.1,y.1,z.1,temperature.3,altitude_sp,altitude_filtered,height_rate_setpoint,height_rate,airspeed_sp,airspeed_filtered,airspeed_derivative_sp,airspeed_derivative,throttle_integ,pitch_integ,baro_alt_meter,baro_temp_celcius,baro_pressure_pa,rho,xyz[0],xyz[1],xyz[2],xyz[0].1,xyz[1].1,xyz[2].1,roll_body,pitch_body,yaw_body,q_d[0],q_d[1],q_d[2],q_d[3],thrust_body[0],lat,lon,alt,vel_m_s,vel_n_m_s,vel_e_m_s,vel_d_m_s,cog_rad,ground_contact,maybe_landed,landed,ref_lat,ref_lon,x.2,y.2,z.2,vx,vy,vz,ax,ay,az,yaw,dist_bottom,roll,pitch,yaw.1,thrust_body[0].1,timestamp.1,isTakeoff,isClimbing,isDescending,isCruise,isLand
4063,213579537,-0.009462499000000001,0.178251615,-0.26277064,0.17429182,1.0,1367.0,2000.0,1173.905581,1504.905581,1494.094419,1588.0,13.33246355,13.6249677,13.31877077,13.41551984,13.71001883,14.60100501,14.92152871,108.6511675,108.6511675,12.08771264,-0.00039857300000000005,-0.006031046,0.000239911,-0.244819213,0.213009379,-0.014972786,2.0,8.565913183,9.565913183,11,0,0,1,0,0.0,0,0,0,0,0,-0.057158094000000007,0.097659892,1.220080117,1.2829451,2.5302544869999997,349.6688568,39.06336669,-0.002593981,0.08505714699999999,-0.2,0.0,0.145382294,0.765937733,-9.914843,-6.64e-34,960.5398759,12.08818728,-0.003921691,0.011178978999999999,0.0026869479999999998,0.062265362000000005,0.731094968,-9.961302472,0.006500796999999999,0.002575206,0.004429204,-6.64e-34,50.04639,48.94757583,0.054940758,-0.46670523700000005,10.23004343,13.77683829,-0.070935896,-0.022883924,-0.363673598,73.71964208,448.3971,12.08826244,96053.86793,1.141278909,0.11599098599999999,-0.087161475,0.353312074,-0.001218885,0.020414834,0.008892895,-0.062067428,0.118255965,1.21701954,0.8176134209999999,-0.059175365,0.030763264,0.571877022,0.025013603,398717133.4,327282665.5,448853.4059,13.6790149,4.018031606,13.059999000000001,0.316063213,1.271784304,0,0,0.0,39.871413700000005,32.7364371,33.88792703,-695.6774538999999,-48.70792491,4.035174255,13.09484174,0.356022985,-0.073410113,-0.009108568000000001,-0.110558191,1.311985489,48.94868524,-0.016477475,0.136485097,-0.027329507000000003,0.0,213579537,0,0,0,0,1
4064,213619755,-0.01552241,0.17877222399999998,-0.262861262,0.17450610000000003,1.0,1368.0,2000.0,1174.0,1507.452691,1491.547309,1588.452691,13.35080062,13.64390224,13.31879822,13.41526,13.70974003,14.59313149,14.91346801,108.6516152,108.6516152,12.08780075,-0.00039868099999999996,-0.00603055,0.00024045900000000002,-0.24478889399999998,0.21295809699999999,-0.014818513,2.0,8.568513702999999,9.568513702999999,11,0,0,1,0,0.0,0,0,0,0,0,-0.057495990999999996,0.083659468,1.219710053,1.282936701,2.540553706,349.0906095,39.00174408,-0.002617967,0.085477739,-0.2,0.0,0.164349523,0.759257139,-9.926016642,-6.64e-34,960.5351043,12.08825526,0.003285113,0.006500118,0.000212215,0.061060837,0.7651025220000001,-9.970364041,0.008411739,0.004747837,0.004711621,-6.64e-34,50.04639,48.93010108,0.05581449,-0.459767196,10.23029505,13.77464014,-0.070886901,-0.024368972000000003,-0.36391412799999995,73.94350743,448.4533627,12.08832005,96053.17922,1.141270601,-0.238951424,0.02945945,0.41049880000000005,-0.0015047029999999998,0.018723405,0.007084587,-0.061702267000000005,0.095685528,1.217323694,0.818238747,-0.052610869000000005,0.021599623,0.57205007,0.0,398717149.7,327282735.2,448838.8104,13.67683668,4.013674735,13.059999000000001,0.30734947,1.272088435,0,0,0.0,39.871413700000005,32.7364371,34.05852419,-695.1187236000001,-48.69564408,4.030301668,13.09223316,0.349348783,-0.036110803,-0.030116143999999997,-0.076334451,1.312249633,48.93640485,-0.019973031000000002,0.11173283699999999,-0.02865002,0.0,213619755,0,0,0,0,1
4065,213667974,-0.008302436,0.17901403300000002,-0.262847062,0.17461425,1.0,1368.0,2000.0,1174.0,1504.0,1495.0,1589.0,13.34552236,13.63835769,13.31882566,13.41500017,13.70946123,14.58525797,14.9054073,108.6520628,108.6520628,12.08788886,-0.000398788,-0.0060300530000000005,0.000241008,-0.244758576,0.21290681399999997,-0.01466424,2.0,8.571114223,9.571114223,11,0,0,1,0,0.0,0,0,0,0,0,-0.057833888,0.069659044,1.21933999,1.2829283009999999,2.550852925,348.5123623,38.94012146,-0.0026394590000000002,0.085898881,-0.2,0.0,0.181658005,0.751839151,-9.935739898,-6.64e-34,960.5318651,12.088325300000001,-0.002413245,0.007750177,0.008645871,0.123919766,0.779010526,-9.891678837999999,0.009756202,0.0068313390000000005,0.005135923,-6.64e-34,50.04639,48.91318766,0.056660151,-0.452925533,10.23023945,13.77112571,-0.070817724,-0.02554497,-0.364152171,74.16871464,448.21441500000003,12.08840558,96055.94789,1.14130357,0.399290401,-0.630172808,-0.672354514,-0.001744814,0.023658194,0.005495858,-0.06638143,0.07309231,1.212767234,0.820020236,-0.048062758,0.011107438,0.570198495,0.0,398717166.1,327282804.9,448824.2148,13.67465847,4.009317864,13.059999000000001,0.298635727,1.272392567,0,0,0.0,39.871413700000005,32.7364371,34.23595427,-694.5370732000001,-48.68333186,4.025215552,13.08979634,0.34285815799999997,-0.051616753,-0.035427018,-0.065946199,1.312469811,48.92409263,-0.026701161,0.065463677,-0.031005462999999997,0.0,213667974,0,0,0,0,1
4066,213712192,-0.01363578,0.17975407100000002,-0.26338341,0.17486697,1.0,1368.0,2000.0,1174.0,1507.0,1492.0,1589.0,13.32315192,13.61552674,13.31885311,13.41474033,13.70918243,14.57738446,14.897346599999999,108.65251049999999,108.65251049999999,12.08797696,-0.000398896,-0.006029557,0.00024155700000000002,-0.244728257,0.21285553100000001,-0.014509967,2.0,8.573714743,9.573714743,11,0,0,1,0,0.0,0,0,0,0,0,-0.058171785,0.055658619000000006,1.218969927,1.2829199009999999,2.5611521440000002,347.9341151,38.87849884,-0.002660723,0.086259325,-0.2,0.0,0.179080934,0.735581048,-9.928075471,-6.64e-34,960.5469975999999,12.08842016,-0.002532821,0.005206669000000001,0.000306181,0.02804735,0.7549444359999999,-9.921088052,0.004309543,0.007846319000000001,0.00726117,-6.64e-34,50.04639,48.89627423,0.057505812,-0.44608386899999997,10.23018385,13.76761128,-0.070748546,-0.026720967,-0.364390214,74.39392186,448.1257612,12.08849289,96056.96157999999,1.141315585,-0.39224033799999997,0.09779046699999999,-0.667709216,0.005403013000000001,0.017312323,0.008931986,-0.059592513,0.050473714,1.2186763409999999,0.818970887,-0.0388585,0.003638135,0.5725039239999999,0.0,398717182.4,327282874.6,448809.6193,13.67248025,4.004960992,13.059999000000001,0.28992198399999997,1.272696698,0,0,0.0,39.871413700000005,32.7364371,34.42027911,-693.9322952,-48.67098796,4.019913975,13.08753282,0.33655277200000006,-0.12040584,-0.024899137000000002,-0.07960914200000001,1.312645626,48.91174829999999,-0.016663426999999998,0.022109392999999998,-0.033405866,0.0,213712192,0,0,0,0,1
4067,213760410,-0.01810971,0.179812508,-0.26382172,0.17516288,1.0,1368.0,2000.0,1174.0,1504.0,1495.0,1589.0,13.38355948,13.67716645,13.31888055,13.41448049,13.70890363,14.56951094,14.889285899999999,108.6529581,108.6529581,12.08806507,-0.00039900300000000004,-0.006029061,0.000242106,-0.24469793899999998,0.212804248,-0.014355695,2.0,8.576315263,9.576315263,11,0,0,1,0,0.0,0,0,0,0,0,-0.058509682,0.041658195,1.218599863,1.282911502,2.571451363,347.35586780000006,38.81687623,-0.0026756690000000003,0.086535343,-0.2,0.0,0.17650386399999998,0.7193229459999999,-9.920411044,-6.64e-34,960.56213,12.08851501,-0.00176262,0.006393151,7.99e-05,0.065416648,0.7817444459999999,-9.983202235,-0.001137117,0.008861299,0.009386416,-6.64e-34,50.04639,48.87936081,0.058351474,-0.439242206,10.23012824,13.76409686,-0.07067936799999999,-0.027896965,-0.36462825600000004,74.61912907,448.1753614,12.08856783,96056.37958,1.141308778,0.300603957,-0.213033318,0.191607394,-0.005527926,0.017264452,0.003374127,-0.064072838,0.02783404,1.214110279,0.820575246,-0.034240655,-0.006846293000000001,0.570467982,0.0,398717198.7,327282944.3,448795.0238,13.67030203,4.000604121,13.059999000000001,0.281208242,1.2730008290000001,0,0,0.0,39.871413700000005,32.7364371,34.60106177,-693.3389397000001,-48.65902744,4.014982748,13.08540976,0.330443315,-0.171118217,-0.010286068,-0.090571195,1.3128332040000001,48.89978755,-0.022588671,-0.018059056,-0.035910001000000004,0.0,213760410,0,0,0,0,1
4068,213800629,-0.012040818,0.180331832,-0.26567657,0.1754385,1.0,1368.0,2000.0,1174.0,1506.0,1493.0,1589.0,13.345389,13.63829768,13.31890799,13.41422066,13.70862483,14.56163742,14.881225199999998,108.65340570000001,108.65340570000001,12.08815318,-0.000399111,-0.006028565,0.00024265400000000003,-0.24466762,0.212752965,-0.014201422,2.0,8.578915783,9.578915783,11,0,0,1,0,0.0,0,0,0,0,0,-0.058847579000000004,0.02765777,1.2182298,1.2829031020000001,2.5817505819999997,346.77762060000003,38.75525361,-0.002694092,0.086764687,-0.2,0.0,-0.12222471300000001,0.716639006,-9.945260511,-6.64e-34,960.5586188999999,12.08858748,0.0041057540000000005,0.005257556,0.006608801,0.157461815,0.710700126,-9.961288557,-0.004599244000000001,0.0028677959999999997,0.006653045,-6.64e-34,50.04639,48.86244907,0.059197050999999994,-0.43239325,10.23007383,13.760602800000003,-0.07061057400000001,-0.029070312999999997,-0.364866442,74.84453614,448.3535888,12.08863674,96054.36988,1.141284837,-0.271232956,-0.111161811,-0.005890243000000001,0.0021065999999999997,0.021018452000000003,0.002200526,-0.05808511400000001,0.005174163,1.219291567,0.8194482559999999,-0.025285742000000003,-0.014498655,0.572395741,0.0,398717214.5,327283011.6,448782.4923,13.66812362,3.994370874,13.06187556,0.274370874,1.2735015109999999,0,0,0.0,39.871413700000005,32.7364371,34.77098437,-692.7806046000001,-48.64824229999999,4.011186988,13.08371733,0.324934561,-0.16640859300000002,0.016851918,-0.09325249699999999,1.3130568470000001,48.88900285,-0.008825336999999999,-0.053867055,-0.038919300000000004,0.0,213800629,0,0,0,0,1
4069,213840847,-0.015099208000000001,0.180762426,-0.265372567,0.17565978,1.0,1368.0,2000.0,1175.0,1508.0,1491.0,1589.1882380000002,13.23849278,13.529018599999999,13.31893544,13.41396082,13.70834603,14.55376391,14.8731645,108.6538534,108.6538534,12.08824128,-0.000399218,-0.0060280690000000005,0.000243203,-0.244637302,0.212701682,-0.014047148999999998,2.0,8.581516302999999,9.581516302999999,11,0,0,1,0,0.0,0,0,0,0,0,-0.059185475999999994,0.013657346,1.217859737,1.282894702,2.592049801,346.19937339999996,38.69363099,-0.00270345,0.086975312,-0.2,0.0,-0.483250009,0.7168104479999999,-9.976949414,-6.64e-34,960.5511859,12.08865523,0.00588959,0.004749476,0.007395559,0.117542334,0.790054932,-9.91238388,-0.007643916,-0.004599971,0.002897642,-6.64e-34,50.04639,48.84579795,0.060029612,-0.42441600700000004,10.23020335,13.76026047,-0.07060113900000001,-0.029833791000000002,-0.365126779,75.10086385,448.26959589999996,12.08870202,96055.30107999999,1.141295909,-0.23685258899999997,0.275810267,-0.14875159400000001,0.001748811,0.014546176000000001,0.009809615,-0.05909444,-0.017543101999999998,1.217901402,0.8200041779999999,-0.019218108,-0.024090322,0.571518535,0.0,398717230.2,327283078.5,448770.2931,13.66594519,3.987835567,13.06405422,0.267835567,1.2740338340000001,0,0,0.0,39.871413700000005,32.7364371,34.94090696,-692.2222695,-48.63745716,4.007391227,13.08202491,0.31942580800000003,-0.161698969,0.043989904,-0.095933799,1.31328049,48.87821815,-0.015009786,-0.087894294,-0.041144876000000004,0.0,213840847,0,0,0,0,1
4070,213885066,-0.009504892,0.155758963,-0.266479803,0.0,1.0,1367.264653,2000.0,1175.0,1505.0,1494.0,1589.0,13.237107,13.52752603,13.31896288,13.41370099,13.70806723,14.54589039,14.8651038,108.654301,108.654301,12.08832939,-0.000399325,-0.006027571999999999,0.00024375200000000002,-0.244606983,0.212650399,-0.013892877,2.0,8.584116822999999,9.584116822999999,11,0,0,1,0,0.0,0,0,0,0,0,-0.059523373,-0.000343078,1.217489673,1.282886303,2.60234902,345.6211262,38.63200838,-0.002706983,0.087201059,-0.2,0.0,-0.6625981639999999,0.698863992,-9.901164243,-6.64e-34,960.5528029999999,12.08872311,-0.006073917,9.04e-06,0.002759727,0.117318935,0.6945672940000001,-9.981313014,-0.008952948,-0.02087038,-0.006693047,-6.64e-34,50.04639,48.82914683,0.060862174000000005,-0.41643876399999996,10.23033287,13.75991814,-0.07059170299999999,-0.030597267999999997,-0.36538711700000004,75.35719155,448.12822989999995,12.08878043,96056.95485,1.141315555,-0.7447922490000001,0.152800551,0.110763164,-0.002028184,0.012664976000000001,0.006792849,-0.063552138,-0.040334487999999995,1.213338888,0.821331812,-0.014606216000000002,-0.034669351,0.569199924,0.0,398717245.9,327283145.4,448758.0938,13.66376675,3.98130026,13.06623287,0.26130026,1.274566156,0,0,0.0,39.871413700000005,32.7364371,35.12452054,-691.6181343999999,-48.62649763,3.998373985,13.05844571,0.314724568,-0.19793014,-0.39418132200000006,-0.094828245,1.313421399,48.86725863,-0.019473208,-0.10648573800000001,-0.042588189000000005,0.0,213885066,0,0,0,0,1
4071,213929284,-0.013953712,0.13233265,-0.26837674699999997,0.0,1.0,1367.0,2000.0,1175.0,1507.2824560000001,1491.7175439999999,1590.0,13.31909798,13.61139746,13.31899033,13.41344115,13.70778843,14.53801687,14.857043099999999,108.6547487,108.6547487,12.0884175,-0.00039943300000000004,-0.006027076,0.000244301,-0.244576665,0.212599116,-0.013738604,2.0,8.586717343,9.586717343,11,0,0,1,0,0.0,0,0,0,0,0,-0.05986127,-0.014343503,1.21711961,1.282877903,2.612648239,345.0428789,38.57038576,-0.00271127,0.087455058,-0.199999485,0.0,-0.7078919020000001,0.667548852,-9.746076998,-6.64e-34,960.5610979,12.08879109,0.004607536,0.00245564,0.007011331,0.163911916,0.782119234,-9.822348088,-0.0089813,-0.04363601,-0.020589428,-6.64e-34,50.04639,48.81249571,0.061694735,-0.40846152,10.23046239,13.75957582,-0.070582267,-0.031360746,-0.365647454,75.61351926,448.1529575,12.08883701,96056.66991,1.141312099,0.213040482,0.023544483999999997,-0.166634702,-0.001150054,0.024109803,0.000300266,-0.056670563,-0.063191376,1.21940588,0.8195898890000001,-0.005134306,-0.042103592999999995,0.571371029,0.0,398717261.6,327283212.2,448745.8946,13.66158832,3.974764953,13.06841152,0.254764953,1.275098479,0,0,0.0,39.871413700000005,32.7364371,35.30821477,-691.0137295,-48.61553707,3.9893259860000003,13.03473758,0.310028085,-0.234402466,-0.835093382,-0.093700386,1.313561819,48.85629807,-0.008690714,-0.12837936,-0.044186598,0.0,213929284,0,0,0,0,1
4072,213973503,-0.014409203,0.11092166,-0.268444009,0.0,1.0,1366.0,2000.0,1000.0,1504.0,1495.0,1577.0,13.21060054,13.500463199999999,13.31901777,13.41318131,13.70750964,14.53014335,14.848982399999999,108.6551963,108.6551963,12.08850561,-0.00039954,-0.00602658,0.000244849,-0.244546347,0.212547834,-0.013584331000000002,2.0,8.589317864,9.589317864,11,0,0,1,0,0.0,0,0,0,0,0,-0.059799650999999995,-0.02246856,1.217069432,1.282878113,2.6113475,344.457342,38.51966597,-0.00270961,0.087681475,-0.2,0.0,-0.7410379229999999,0.627768256,-9.539015014,1.743585401,960.5647918999999,12.08886339,-0.0027251370000000003,0.006340663000000001,0.007538461999999999,0.12982180000000001,0.744368802,-9.83459459,-0.01060131,-0.072903183,-0.031855235,1.743585401,50.04639,48.79584459,0.062527297,-0.40048427700000006,10.2305919,13.75923349,-0.070572831,-0.032124223,-0.365907792,75.86984696,448.07442549999996,12.08892358,96057.54355,1.141322517,-0.428717525,0.662556672,-0.135370104,-0.001182048,0.013973046999999999,0.005410409000000001,-0.061254588,-0.086104098,1.2148731640000001,0.820719112,-0.000568558,-0.052785358,0.568883977,0.0,398717277.3,327283279.4,448734.1674,13.65173832,3.9682296339999996,13.06232847,0.24822964600000003,1.2754556959999999,0,0,0.0,39.871413700000005,32.7364371,35.4806196,-690.4465934,-48.60468135,3.980309141,12.9998429,0.31374632399999997,-0.209654938,-0.925266342,0.083150334,1.312994678,48.84544202,-0.014639226000000002,-0.150457279,-0.045886167,0.0,213973503,0,0,0,0,1
4073,214021721,-0.007370296,0.09264521,-0.267108158,0.0,1.0,1365.0,2000.0,1000.0,1505.376675,1493.623325,1569.7399480000001,13.08259179,13.369683300000002,13.31904522,13.41292148,13.70723084,14.52226984,14.8409217,108.6556439,108.6556439,12.08859371,-0.000399648,-0.006026084,0.00024539799999999997,-0.244516028,0.212496551,-0.013430058,2.0,8.591918384,9.591918384,11,0,0,1,0,0.0,0,0,0,0,0,-0.059177840999999995,-0.022355332000000002,1.217467789,1.282890394,2.593781603,343.8615836,38.48423382,-0.002714178,0.087962666,-0.2,0.0,-0.7489112990000001,0.570375754,-9.223822503,7.1146022879999995,960.5589139,12.088944699999999,-0.003909391,-0.007691852,0.001952961,-0.694988315,0.6461184289999999,-9.904220241,-0.015532677,-0.11569645199999999,-0.037648281,7.1146022879999995,50.04639,48.78053413,0.063292824,-0.393036689,10.23055752,13.75740456,-0.07053694,-0.033349865,-0.36615324299999996,76.11506045,448.27670830000005,12.089002,96055.22198,1.1412949540000001,-0.245536305,0.278109541,-0.323309928,0.0029437609999999996,0.01484581,0.00120252,-0.054943532999999996,-0.101380027,1.2206486090000002,0.818897765,0.006548307,-0.05722721,0.571040444,0.0,398717293.2,327283347.4,448723.7109,13.62124011,3.961694283,13.0340088,0.24169433899999998,1.275341611,0,0,0.0,39.871413700000005,32.7364371,35.64910601,-689.8923927999999,-48.59386201,3.9713031080000003,12.96106551,0.32038520800000003,-0.16365877199999998,-0.893702187,0.320992241,1.312181951,48.83462224,-0.005346288,-0.164170845,-0.046867034,0.0,214021721,0,0,0,0,1
4074,214061940,-0.010315814,0.08107778,-0.267812522,0.0,1.0,1365.0,2000.0,1000.0,1506.076215,1492.923785,1561.0,13.17012406,13.45905918,13.31907266,13.41266164,13.70695204,14.51439632,14.832861,108.6560916,108.6560916,12.08868182,-0.000399755,-0.006025587,0.000245947,-0.24448571,0.21244526800000002,-0.013275786000000001,2.0,8.594518904,9.594518904,11,0,0,1,0,0.0,0,0,0,0,0,-0.058556032,-0.022242103,1.217866146,1.282902675,2.576215706,343.2658253,38.44880167,-0.002713555,0.08819738,-0.2,0.0,-0.756981465,0.5203348720000001,-8.900858692,11.69242082,960.5543449999999,12.08902699,-0.005494306,-0.038439331,-0.011461311,-0.791650458,0.670029047,-9.822734463,-0.019627709,-0.157775385,-0.042540996,11.69242082,50.04639,48.76707364,0.06396585,-0.38631997799999995,10.23029695,13.75352426,-0.070464543,-0.035213252,-0.366378153,76.34493729,448.13925109999997,12.089084,96056.81682000001,1.141313882,0.381407885,-0.321571746,-0.486020193,0.002132415,0.017151983,0.006637717,-0.0591564,-0.08494706099999999,1.21649759,0.8202669029999999,5.41e-06,-0.051713653,0.5696352960000001,0.0,398717309.1,327283415.3,448713.2545,13.5907419,3.9551589330000003,13.00568914,0.235159032,1.275227526,0,0,0.0,39.871413700000005,32.7364371,35.82396412,-689.3174687000001,-48.58162669,3.96306101,12.92316603,0.343189587,-0.127775706,-0.873397929,0.62483877,1.311119249,48.82238735,-0.009994643000000001,-0.11783763800000001,-0.044914149,0.0,214061940,0,0,0,0,1
4075,214114158,-0.004426974,0.060393217,-0.279752443,0.0,1.0,1366.0,2000.0,1000.0,1503.0,1496.0,1551.0,13.1200137,13.40788428,13.31910011,13.412401800000001,13.70667324,14.5065228,14.8248003,108.6565392,108.6565392,12.08876993,-0.00039986300000000003,-0.006025091,0.000246495,-0.24445539100000002,0.212393985,-0.013121513000000001,2.0,8.597119424,9.597119424,11,0,0,1,0,0.0,0,0,0,0,0,-0.057934222,-0.022128874,1.2182645029999999,1.282914956,2.5586498090000003,342.6700669,38.41336952,-0.0027124809999999997,0.088434513,-0.2,0.0,-0.7675199079999999,0.562503016,-8.480421926,6.321403937,960.5661941,12.08912162,-0.017599036000000002,-0.072648938,-0.021781488999999998,-0.751092407,0.585914226,-9.723298105,-0.013232873999999999,-0.19089462199999999,-0.036141142,6.321403937,50.04639,48.75361315,0.064638875,-0.379603266,10.23003639,13.74964395,-0.070392146,-0.03707664,-0.36660306299999995,76.57481412,448.06053269999995,12.08919699,96057.72084,1.141324558,0.186170273,0.318467769,0.173287038,-0.003719901,0.017806823,0.009259782,-0.063772727,-0.06991845099999999,1.2119974359999999,0.821646375,-0.0062893440000000005,-0.046860545,0.568029741,0.0,398717325.0,327283483.3,448702.79799999995,13.56024369,3.9486235819999997,12.97736947,0.228623725,1.275113441,0,0,0.0,39.871413700000005,32.7364371,36.00543968,-688.7210219,-48.56792078,3.955612308,12.88617831,0.382782926,-0.102395777,-0.864787833,0.9972355540000001,1.30979693,48.80868277,-0.01630357,-0.065192556,-0.042483957999999995,0.0,214114158,0,0,0,0,1
4076,214154376,-0.006003053,0.058138199,-0.28053749899999997,0.0,1.0,1366.0,2000.0,1000.0,1504.018004,1494.981996,1542.018004,13.03459261,13.3205018,13.31637156,13.40933881,13.703525899999999,14.49906495,14.81716012,108.6217139,108.6217139,12.08891238,-0.00039997,-0.006024595,0.00024704400000000003,-0.24442507300000002,0.212342702,-0.01296724,2.0,8.599719944,9.599719944,11,0,0,1,0,0.0,0,0,0,0,0,-0.057312412,-0.022015646,1.21866286,1.282927237,2.541083912,342.0743086,38.37793737,-0.0027127109999999996,0.08865847,-0.2,0.0,-0.778058351,0.60467116,-8.059985159,0.950387049,960.5780433,12.08921625,-0.021754582999999997,-0.115306307,-0.027223134,-0.707957726,0.6349443020000001,-9.314274711,-0.006838039000000001,-0.22401386,-0.029741287999999998,0.950387049,50.04639,48.74015267,0.06531190099999999,-0.372886555,10.22977583,13.74576365,-0.070319749,-0.038940027,-0.366827973,76.80469096,448.1211103,12.08931811,96057.03931000001,1.141316472,0.008168214,-0.28437523,-0.046511646,-0.005401258000000001,0.014895542,0.003555063,-0.05704131,-0.059757230999999994,1.2181926490000001,0.819951799,-0.006292732,-0.04079892,0.570939833,0.0,398717340.9,327283551.3,448692.3415,13.52974548,3.9420882319999997,12.94904981,0.222088418,1.274999357,0,0,0.0,39.871413700000005,32.7364371,36.18349511,-688.1362066,-48.55311956,3.948814099,12.8518054,0.430102172,-0.081211467,-0.830396606,1.371354415,1.308552834,48.79388224,-0.006179911,-0.024543315,-0.040832594,0.0,214154376,0,0,0,0,1
4077,214198595,-0.010088646,0.04396923,-0.279908465,0.0,1.0,1360.0,2000.0,1000.0,1501.0,1498.0,1534.565113,13.05792464,13.34439386,13.30485505,13.39733744,13.691231699999998,14.49293253,14.81086085,108.47441459999999,108.47441459999999,12.08922813,-0.000400077,-0.006024099000000001,0.000247593,-0.244394754,0.21229141899999998,-0.012812967,2.0,8.602320464,9.602320464,11,0,0,1,0,0.0,0,0,0,0,0,-0.056690602,-0.021902417,1.219061217,1.2829395190000001,2.523518015,341.4785502,38.34250522,-0.002710093,0.088987165,-0.2,0.0,-0.767911798,0.624073829,-7.776595736,-6.64e-34,960.579906,12.0893449,-0.013588356000000001,-0.153629356,-0.034570411,-0.8212322329999999,0.55517376,-8.977131262,-0.006940872,-0.242796417,-0.026023644,-6.64e-34,50.04639,48.72669218,0.065984927,-0.36616984399999997,10.22951527,13.74188334,-0.070247352,-0.040803415,-0.367052883,77.03456779,448.140058,12.08945753,96056.80761,1.141313762,-0.516235477,0.168408809,-0.035453637999999996,-0.005185034,0.010859022,0.005055719,-0.061786475,-0.049858291,1.213712293,0.821235763,-0.011156262,-0.038075102,0.56920611,0.0,398717357.0,327283619.5,448678.1792,13.49776513,3.937035207,12.91628326,0.261504301,1.274600716,0,0,0.0,39.871413700000005,32.7364371,36.35064481,-687.5884808,-48.53482577,3.944090105,12.82577025,0.502056862,-0.07340564,-0.7137976229999999,1.750964423,1.307558164,48.77558712,-0.013125191999999999,0.010899216000000002,-0.039283937000000005,0.0,214198595,0,0,0,0,1
4078,214245627,-0.004065287,0.031288766,-0.28106408899999996,0.0,1.0,1359.0,2000.0,1000.0,1503.0,1496.0,1527.112222,13.10812132,13.39564147,13.29333854,13.38533607,13.6789375,14.48680011,14.80456159,108.3271152,108.3271152,12.08954388,-0.000400185,-0.006023603000000001,0.000248142,-0.24436443600000002,0.21224013600000002,-0.012658695,2.0,8.604920984,9.604920984,11,0,0,1,0,0.0,0,0,0,0,0,-0.056068793,-0.021789189,1.219459574,1.2829518,2.505952118,340.8827919,38.30707307,-0.002720452,0.089398332,-0.2,0.0,-0.753318197,0.638582171,-7.522669992999999,-6.64e-34,960.5796216,12.08948085,-0.016540111,-0.182810022,-0.035607006000000004,-0.7617599159999999,0.564092598,-8.580587547,-0.008440633000000001,-0.258496746,-0.022882646,-6.64e-34,50.04639,48.71456692,0.06659119,-0.359712851,10.22944463,13.7411519,-0.070234135,-0.042662475,-0.36727355899999997,77.26608934,448.0629706,12.08965695,96057.65996,1.14132392,0.033817695,-0.5444006229999999,-0.583784272,-0.0033273029999999998,-0.0057734330000000006,0.00235477,-0.052568195,-0.03731854,1.222357409,0.8188271540000001,-0.010816428999999999,-0.030353107,0.573133529,0.0,398717373.1,327283687.9,448662.2767,13.465088699999999,3.9326783360000004,12.88142829,0.3225005,1.274068437,0,0,0.0,39.871413700000005,32.7364371,36.51779451,-687.040755,-48.51653197,3.93936611,12.7997351,0.574011551,-0.06559981299999999,-0.59719864,2.130574431,1.306563493,48.75729199,-8.87e-05,0.046753864000000006,-0.036629815,0.0,214245627,0,0,0,0,1
4079,214287032,-0.009446000999999999,0.017308491999999998,-0.282807543,0.0,1.0,1359.0,2000.0,1000.0,1505.0,1494.0,1520.659332,13.0322368,13.31813794,13.28182203,13.37333471,13.666643300000002,14.48066769,14.79826232,108.1798158,108.1798158,12.08985962,-0.00040029199999999995,-0.006023105999999999,0.00024869,-0.244334117,0.21218885399999998,-0.012504422,2.0,8.607521504,9.607521504,11,0,0,1,0,0.0,0,0,0,0,0,-0.055446983,-0.02167596,1.219857931,1.282964081,2.488386221,340.2870335,38.27164092,-0.002718064,0.08982037699999999,-0.2,0.0,-0.76518493,0.621359193,-7.245039297999999,-6.64e-34,960.5782287000001,12.08966307,-0.010044851,-0.21578366899999998,-0.037351,-0.758970044,0.583120698,-8.175995597,-0.00744871,-0.261187735,-0.014573221,-6.64e-34,50.04639,48.70270753,0.06718415900000001,-0.35330757399999996,10.22941182,13.74104746,-0.070232703,-0.044520673,-0.36749339299999995,77.49793838,448.0897698,12.08985194,96057.39383,1.141320766,0.208650568,-0.129063213,-1.0535158409999998,-0.012497699,-0.035628577,-0.015897693,-0.057136444,-0.028174794,1.217902054,0.820062477,-0.015372965,-0.027887408,0.571387151,0.0,398717389.2,327283756.3,448646.3741,13.43241227,3.9283214639999997,12.84657331,0.383496699,1.273536158,0,0,0.0,39.871413700000005,32.7364371,36.698262899999996,-686.4500638,-48.48740502,3.9353506510000003,12.78076032,0.685810402,-0.036220162,-0.492004967,2.4344880840000003,1.306189219,48.72816546,-0.00697377,0.07210401400000001,-0.03664461,0.0,214287032,0,0,0,0,1
4080,214327250,-0.002563725,0.03236351,-0.280461535,0.0,1.0,1359.0,2000.0,1000.0,1501.0,1498.0,1514.0,13.11185541,13.39949958,13.27030552,13.36133334,13.654349100000001,14.47453526,14.79196305,108.0325164,108.0325164,12.09017537,-0.00040038599999999997,-0.0060225980000000005,0.00024922400000000004,-0.24430484,0.21213873800000002,-0.012352489,2.0,8.610122023999999,9.610122023999999,11,0,0,1,0,0.0,0,0,0,0,0,-0.054825173,-0.021562732,1.220256288,1.282976362,2.470820324,339.6912752,38.23620877,-0.00272065,0.090203971,-0.2,0.0,-0.796829253,0.580418863,-6.949690505,-6.64e-34,960.5760072999999,12.08987989,-0.012651278,-0.23535122,-0.036137462999999995,-0.79228568,0.485545381,-8.013438555,-0.004594395,-0.254154984,-0.0024006920000000003,-6.64e-34,50.04639,48.69084814,0.067777129,-0.346902296,10.229379,13.74094301,-0.07023127,-0.046378870999999995,-0.36771322700000003,77.72978742,448.003702,12.09012907,96058.37672,1.141332413,-0.090304151,-0.582147695,-0.322498471,-0.016018896,-0.074536188,-0.032574437000000005,-0.06160688,-0.022125712000000002,1.213452791,0.8212728909999999,-0.018995263000000002,-0.026643278,0.56959591,0.0,398717405.3,327283824.8,448630.4715,13.39973585,3.923964593,12.81171834,0.444492899,1.273003879,0,0,0.0,39.871413700000005,32.7364371,36.87890757,-685.858804,-48.45813468,3.93134457,12.761878999999999,0.798136629,-0.006554961,-0.386962254,2.737399823,1.305823157,48.69889557,-0.010456347,0.080305485,-0.036341156,0.0,214327250,0,0,0,0,1
4081,214367469,-0.0062388719999999995,0.054098577,-0.280006073,0.0,1.0,1358.0,2000.0,1000.0,1503.753551,1495.246449,1508.4786960000001,13.13127405,13.41920507,13.25878901,13.34933197,13.6420549,14.46840284,14.78566379,107.88521709999999,107.88521709999999,12.09049112,-0.000400355,-0.006021976,0.000249618,-0.24428507100000002,0.21209928399999997,-0.012221928,2.0,8.612722545,9.612722545,11,0,0,1,0,0.0,0,0,0,0,0,-0.054203363,-0.021449502999999998,1.220654645,1.282988643,2.453254427,339.0955168,38.20077663,-0.002719023,0.090539675,-0.2,0.0,-0.802716798,0.554081516,-6.787400803,-6.64e-34,960.5787706,12.09014469,-0.012802165,-0.25645561899999997,-0.024532497,-0.767877182,0.557165962,-7.590232492,-0.003277262,-0.23389524899999997,0.007260805,-6.64e-34,50.04639,48.67898874,0.068370098,-0.340497019,10.22934619,13.74083857,-0.070229838,-0.048237069,-0.36793306,77.96163646,447.9141954,12.09041216,96059.41699999999,1.141344827,-0.250560472,-1.214357097,0.421851275,-0.014285103,-0.11640986199999999,-0.032199709,-0.054799118,-0.020230607,1.219711481,0.8195394009999999,-0.016665068,-0.023978517999999997,0.572277705,0.0,398717421.4,327283892.9,448612.9026,13.36882375,3.9196077239999996,12.77882375,0.5113702720000001,1.272533187,0,0,0.0,39.871413700000005,32.7364371,37.04930548,-685.3019731,-48.42166154,3.92871343,12.74916101,0.922223083,-0.014471148999999999,-0.308160975,2.922528957,1.305989657,48.66242287,-0.00096949,0.08585403,-0.035271058,0.0,214367469,0,0,0,0,1
4082,214415374,-0.007458348,0.080549785,-0.281182979,0.0,1.0,1359.0,2000.0,1000.0,1500.0,1499.0,1511.0,13.00704852,13.29227033,13.247272500000001,13.33733061,13.629760699999999,14.46227042,14.77936452,107.73791770000001,107.73791770000001,12.09080686,-0.000400324,-0.0060213540000000005,0.00025001200000000003,-0.24426530300000002,0.212059831,-0.012091368,2.0,8.615323065,9.615323065,11,0,0,1,0,0.0,0,0,0,0,0,-0.053581554,-0.021336274,1.221053002,1.283000925,2.43568853,338.4997585,38.16534448,-0.0027208759999999997,0.09081310199999999,-0.2,0.0,-0.754240947,0.55856587,-6.90595151,-6.64e-34,960.5920548,12.09051078,-0.007934219000000001,-0.266398458,-0.019077845,-0.76832662,0.548212293,-7.402956757999999,-0.005204573,-0.185718053,0.011622407,-6.64e-34,50.04052486,48.66717758,-0.005635647,-0.334272958,10.22934043,13.7388791,-0.070190763,-0.054217752,-0.360346695,78.20072564,447.8155055,12.09073686,96060.55227,1.14135831,-0.405791667,-0.838656498,-0.37419855,-0.012138992,-0.146167518,-0.038566948999999996,-0.05922577,-0.01690928,1.215287244,0.8207487290000001,-0.019482706000000002,-0.023841569,0.570458198,0.0,398717436.6,327283958.2,448578.4833,13.35575291,3.915250874,12.76575291,0.63771952,1.272685286,0,0,0.0,39.871413700000005,32.7364371,37.21601154,-684.7575469,-48.38259327,3.926577674,12.73866364,1.050546676,-0.03592769,-0.23881433,3.0652217110000004,1.306348037,48.62335504,-0.00775389,0.089396318,-0.03566795,0.0,214415374,0,0,0,0,1
4083,214455906,-0.0048653590000000005,0.096984208,-0.28043174,0.0,1.0,1359.0,2000.0,1000.0,1503.0,1496.0,1526.0,13.10186436,13.38906735,13.23575599,13.32532924,13.6174665,14.456138000000001,14.77306525,107.5906183,107.5906183,12.09112261,-0.000400293,-0.006020731999999999,0.000250407,-0.244245534,0.21202037699999998,-0.011960807,2.0,8.617923585,9.617923585,11,0,0,1,0,0.0,0,0,0,0,0,-0.053032205,-0.021039298999999997,1.221360158,1.283010347,2.421948783,337.90407369999997,38.13513422,-0.002731017,0.091024175,-0.2,0.0,-0.7118300190000001,0.561961453,-7.043363942999999,-6.64e-34,960.6043843,12.09087782,-0.01704025,-0.268045227,-0.010414818000000001,-0.73359579,0.43829126399999996,-7.088147612,-0.006917591999999999,-0.137397024,0.015295062,-6.64e-34,50.01684707,48.65551291,-0.30620045100000004,-0.328599256,10.22941686,13.73128584,-0.07003737,-0.07271857400000001,-0.32905261399999997,78.46180343,447.673963,12.09110607,96062.18323,1.141377612,-0.480949467,-1.2913387040000002,-0.11902549,-0.010919557,-0.18194335600000003,-0.035653619,-0.052288405999999996,-0.015798701999999998,1.2215551340000002,0.81901487,-0.016885641,-0.021460171,0.5731214379999999,0.0,398717451.9,327284023.6,448544.064,13.34268208,3.9108940239999996,12.75268208,0.764068768,1.272837384,0,0,0.0,39.871413700000005,32.7364371,37.38930327,-684.1915662,-48.33540163,3.924869723,12.730707,1.179340875,-0.031099794,-0.182375875,2.9985937139999996,1.306834365,48.57616363,0.0018533170000000002,0.089787409,-0.033510016000000004,0.0,214455906,0,0,0,0,1
4084,214496124,-0.009761869,0.11135318300000001,-0.283041178,0.0,1.0,1359.0,2000.0,1000.0,1503.605121,1495.394879,1539.394879,13.04897683,13.33507325,13.22423948,13.31332787,13.6051723,14.45000557,14.76676599,107.44331890000001,107.44331890000001,12.09143836,-0.00040026300000000004,-0.00602011,0.000250801,-0.244225766,0.211980924,-0.011830247,2.0,8.620524105,9.620524105,11,0,0,1,0,0.0,0,0,0,0,0,-0.053091835999999996,-0.01919807,1.220900837,1.28299574,2.440364975,337.3090077,38.14881005,-0.002733823,0.091171095,-0.2,0.0,-0.749151571,0.551043507,-7.428742009,-6.64e-34,960.6041622000001,12.09125724,-0.005101889,-0.24952955699999999,-0.0029806740000000004,-0.718256929,0.55529428,-6.720186237,-0.005813424,-0.08718507699999999,0.009910481,-6.64e-34,49.99316928,48.64384823,-0.606765255,-0.322925554,10.22949328,13.72369258,-0.069883976,-0.091219395,-0.297758533,78.72288122,447.6736642,12.09150926,96062.17834,1.14137762,-0.39106418200000004,-0.870763835,-0.061827577,-0.010854046000000001,-0.214693882,-0.035030774,-0.056708663,-0.013380804,1.217131419,0.820228719,-0.019436916999999998,-0.021694098,0.571293002,0.0,398717467.1,327284088.9,448509.6447,13.32961125,3.906537175,12.73961125,0.8904180159999999,1.272989483,0,0,0.0,39.871413700000005,32.7364371,37.56963486,-683.6025446000001,-48.27952637,3.92361908,12.72546631,1.308638134,0.00182526,-0.13973583,2.708209055,1.307457467,48.52028837,-0.004165022,0.090962005,-0.035595744,0.0,214496124,0,0,0,0,1
4085,214544342,-0.00244915,0.12682739199999998,-0.282277295,0.0,1.0,1359.0,2000.0,1000.0,1502.0,1497.0,1548.0,13.12258498,13.41029093,13.21272296,13.30132651,13.59287811,14.44387315,14.76046672,107.2960195,107.2960195,12.09175411,-0.000400232,-0.006019488000000001,0.000251195,-0.244205998,0.21194147,-0.011699686,2.0,8.623124625,9.623124625,11,0,0,1,0,0.0,0,0,0,0,0,-0.053151468,-0.01735684,1.220441516,1.2829811340000001,2.4587811669999997,336.71394169999996,38.16248587,-0.002739668,0.091292365,-0.2,0.0,-0.786473124,0.5401255620000001,-7.814120075,-6.64e-34,960.6039400000001,12.09163667,-0.014205575,-0.204483844,-0.00019769999999999998,-0.7565871279999999,0.568411378,-6.689105566,-0.004709255999999999,-0.03697313,0.004525899999999999,-6.64e-34,49.96949148,48.63218355,-0.9073300590000001,-0.317251852,10.229569699999999,13.71609932,-0.069730582,-0.109720216,-0.266464452,78.983959,447.77642230000004,12.09190474,96060.98737,1.141363487,-0.11644753,-0.8117947240000001,-0.18873719,-0.016825538,-0.22772820300000002,-0.028446446,-0.060154364,-0.01048306,1.2135149459999999,0.8212071040000001,-0.021717641,-0.021450208999999998,0.569810821,0.0,398717482.4,327284154.3,448475.2254,13.31654042,3.902180325,12.72654042,1.016767264,1.273141581,0,0,0.0,39.871413700000005,32.7364371,37.74679186,-683.0240271,-48.22229594,3.9232414039999997,12.72113177,1.4266888169999998,0.030391509,-0.10571130599999999,2.373464684,1.30801104,48.46305794,-0.008296944,0.093035188,-0.035349679,0.0,214544342,0,0,0,0,1
4086,214588561,-0.005927545,0.130844397,-0.282305527,0.0,1.0,1358.0,2000.0,1000.0,1504.0,1495.0,1555.0,13.0597671,13.34596986,13.20120645,13.28932514,13.58058391,14.43774073,14.75416745,107.1487202,107.1487202,12.09206985,-0.000400201,-0.006018865,0.00025159,-0.24418622899999998,0.211902017,-0.011569126,2.0,8.625725145,9.625725145,11,0,0,1,0,0.0,0,0,0,0,0,-0.0532111,-0.015515611,1.219982195,1.2829665270000001,2.4771973590000003,336.1188756,38.1761617,-0.0027405859999999997,0.09140465099999999,-0.2,0.0,-0.741318712,0.603505921,-8.304458409,4.405024499,960.6069235,12.0920496,-0.01007214,-0.161343595,0.012179798,-0.7589520190000001,0.646952716,-6.884289087000001,-0.004702648,-0.00881285,0.002827987,4.405024499,49.94581369,48.62051887,-1.207894863,-0.31157815,10.22964613,13.70850606,-0.069577189,-0.128221038,-0.23517037100000002,79.24503679,447.53555650000004,12.09235472,96063.78219,1.141396672,-0.012688207,-0.48013981200000005,-0.185193754,-0.013817423999999998,-0.247862945,-0.02338779,-0.053889624000000004,-0.01043257,1.218975303,0.8197130009999999,-0.019105278,-0.019697786999999998,0.572116553,0.0,398717497.8,327284220.2,448428.2917,13.30782267,3.901088107,12.71891089,1.127881487,1.273084742,0,0,0.0,39.871413700000005,32.7364371,37.91341221,-682.4803735,-48.1605676,3.925761164,12.71980483,1.507411375,0.04449059599999999,-0.100282267,1.8914874959999999,1.308333848,48.401329600000004,0.001505879,0.09418779099999999,-0.033404777000000004,0.0,214588561,0,0,0,0,1
4087,214628779,-0.008768609,0.135388062,-0.282986484,0.0,1.0,1358.0,2000.0,1000.0,1501.0,1498.0,1563.0,13.05638769,13.34254438,13.18968994,13.27732377,13.56828971,14.43160831,14.74786819,107.00142079999999,107.00142079999999,12.0923856,-0.00040017,-0.006018243,0.000251984,-0.244166461,0.211862563,-0.011438565,2.0,8.628325665,9.628325665,11,0,0,1,0,0.0,0,0,0,0,0,-0.053270730999999995,-0.013674381000000001,1.2195228740000001,1.28295192,2.495613552,335.52380960000005,38.18983753,-0.0027428290000000004,0.091534805,-0.2,0.0,-0.678047669,0.68320661,-8.817852267000001,9.777654599,960.6106110999999,12.092469900000001,-0.008925572,-0.108264731,0.008613958,-0.693309882,0.55149259,-7.1832016770000005,-0.004937129,0.014503572,0.001939886,9.777654599,49.85754359,48.60922659,-1.528837099,-0.320394336,10.229427099999999,13.69490322,-0.069309514,-0.17137548100000002,-0.20660882100000003,79.47614165,447.64473169999997,12.09280702,96062.52178,1.141381643,0.31605343199999997,-0.302837016,0.462215734,-0.014241232,-0.252240817,-0.013799716,-0.056133212,-0.00433405,1.216392267,0.820388846,-0.021792885,-0.017812493999999998,0.571111056,0.0,398717513.5,327284286.6,448368.8204,13.30346602,3.9032665210000004,12.71673267,1.223732679,1.27281858,0,0,0.0,39.871413700000005,32.7364371,38.08003256,-681.93672,-48.09883925,3.9282809239999996,12.718477900000002,1.5881339319999999,0.058589683,-0.09485322800000001,1.4095103080000002,1.308656657,48.33960125,-0.005281027,0.09772387699999999,-0.035348579,0.0,214628779,0,0,0,0,1
4088,214672998,-0.003882138,0.1351509,-0.282641217,0.0,1.0,1358.0,2000.0,1000.0,1502.416683,1496.583317,1565.0,13.1362486,13.42411301,13.17817343,13.265322400000002,13.55599551,14.42547588,14.74156892,106.85412140000001,106.85412140000001,12.09270135,-0.00040013900000000004,-0.006017621,0.000252378,-0.244146692,0.21182311,-0.011308005,2.0,8.630926185,9.630926185,11,0,0,1,0,0.0,0,0,0,0,0,-0.053330363,-0.011833152,1.219063553,1.282937314,2.514029744,334.9287435,38.20351336,-0.0027505109999999998,0.091711267,-0.2,0.0,-0.654480209,0.692277948,-9.175073046,12.09290562,960.6204682,12.09290562,-0.004839957,-0.051285232,-2.9100000000000003e-05,-0.722800178,0.500781621,-7.633565557000001,-0.001968923,0.023464156,-0.004417502,12.09290562,49.73621584,48.5981249,-1.860208285,-0.33662628899999997,10.22905686,13.67822474,-0.068983351,-0.22714738199999998,-0.17944575100000001,79.69190671,447.56716090000003,12.0932744,96063.41236,1.14139225,0.170977315,-0.43547622,-0.222961276,-0.009236173,-0.247754872,-0.007735698,-0.048348484000000004,-0.000868785,1.2232274029999999,0.8184888659999999,-0.019540782,-0.014234443000000001,0.574012863,0.0,398717529.2,327284353.1,448309.3491,13.29910937,3.905444935,12.71455446,1.3195838709999999,1.2725524190000002,0,0,0.0,39.871413700000005,32.7364371,38.26044256,-681.3485571,-48.02519213,3.932281024,12.7209062,1.628156579,0.082576499,-0.011431543,0.9739411720000001,1.30847385,48.265953700000004,0.008202496,0.11450465,-0.028990742000000003,0.0,214672998,0,0,0,0,1
4089,214717216,-0.007771491,0.136195967,-0.278133846,0.0,1.0,1358.0,2000.0,1000.0,1504.0,1495.0,1567.0,13.16837288,13.45686757,13.16665692,13.25332104,13.54370131,14.41934346,14.73526965,106.706822,106.706822,12.09301709,-0.000400109,-0.006016999,0.000252773,-0.244126924,0.211783657,-0.011177444,2.0,8.633526705,9.633526705,11,0,0,1,0,0.0,0,0,0,0,0,-0.053389994,-0.009991922,1.2186042320000001,1.282922707,2.532445936,334.33367749999996,38.21718919,-0.0027510309999999997,0.0919105,-0.2,0.0,-0.660973135,0.647874373,-9.414052024,12.09335302,960.6349964999999,12.09335302,0.001929533,-0.013464493000000001,0.01254821,-0.745306523,0.585037444,-8.140387032000001,0.0034241009999999997,0.021555644,-0.014915797,12.09335302,49.61488809,48.58702321,-2.19157947,-0.35285824299999996,10.22868662,13.66154625,-0.068657188,-0.282919283,-0.15228268,79.90767176,447.4271034,12.093742,96065.00773,1.141411237,0.546916119,0.473236985,0.5417343410000001,-0.014892892,-0.21588784100000002,-0.0033002290000000004,-0.052649205,0.000459481,1.218818693,0.819698327,-0.021714887000000002,-0.014877369,0.572189746,0.0,398717544.9,327284419.5,448249.8778,13.29475271,3.907623348,12.71237624,1.415435063,1.272286258,0,0,0.0,39.871413700000005,32.7364371,38.44113786,-680.7594732999999,-47.95129842,3.936311752,12.72341219,1.667337158,0.106767888,0.07360378299999999,0.539332203,1.308280583,48.19205954,0.001417343,0.11939239800000001,-0.032246161,0.0,214717216,0,0,0,0,1
4090,214757435,-0.0014232420000000001,0.135280607,-0.276759823,0.0,1.0,1358.0,2000.0,1000.0,1501.0,1498.0,1567.0,13.18421586,13.47294927,13.15514041,13.24131967,13.53140711,14.41321104,14.72897039,106.5595227,106.5595227,12.09333284,-0.00040007800000000005,-0.006016377,0.000253167,-0.244107155,0.21174420300000002,-0.011046884,2.0,8.636127225,9.636127225,11,0,0,1,0,0.0,0,0,0,0,0,-0.05344962599999999,-0.008150693,1.218144911,1.2829081009999999,2.5508621280000003,333.73861150000005,38.23086502,-0.0027561509999999997,0.092164458,-0.2,0.0,-0.67383148,0.61393171,-9.600630691000001,10.38327268,960.6465052000001,12.09380056,-0.0043378,0.021951593,0.001925225,-0.73764828,0.621699036,-8.64189854,0.004968144,0.015126131000000001,-0.023080074,10.38327268,49.49356034,48.57592152,-2.522950656,-0.36909019600000004,10.22831639,13.64486777,-0.068331026,-0.338691184,-0.12511961,80.12343681,447.36546500000003,12.094200500000001,96065.73565,1.141419918,0.209372363,1.11144095,-0.05940138,-0.010310385,-0.178541665,-2.78e-05,-0.053531317,0.000804189,1.217473627,0.8200672379999999,-0.022186531000000002,-0.01497026,0.571634105,0.0,398717560.6,327284486.0,448190.4065,13.29039606,3.909801762,12.71019802,1.511286255,1.2720200959999999,0,0,0.0,39.871413700000005,32.7364371,38.61213942,-680.2036372,-47.8799197,3.941153421,12.72583058,1.684805862,0.129301268,0.094181855,0.323186155,1.30762996,48.12068038,-0.005611273000000001,0.123304635,-0.033779345,0.0,214757435,0,0,0,0,1
4091,214801653,-0.005724438,0.136413511,-0.274000917,0.0,1.0,1360.775355,2000.0,1000.0,1503.0,1496.0,1568.0,13.08263844,13.36913265,13.1436239,13.229318300000003,13.51911291,14.40707862,14.72267112,106.4122233,106.4122233,12.09364859,-0.00040004699999999995,-0.006015755,0.00025356099999999997,-0.244087387,0.21170475,-0.010916323,2.0,8.638727746,9.638727746,11,0,0,1,0,0.0,0,0,0,0,0,-0.053509257000000005,-0.006309463,1.21768559,1.282893494,2.56927832,333.1435454,38.24454084,-0.0027527709999999998,0.092496015,-0.199993528,0.0,-0.700321003,0.602390489,-9.674997093,5.010195183,960.6515479000001,12.0942484,-0.003363187,0.033692742000000005,-0.006455376999999999,-0.7148500640000001,0.693220594,-9.079358759,-0.0017301870000000002,-0.000984847,-0.026246183,5.010195183,49.36889892,48.56414523,-2.8322119860000003,-0.389984094,10.22795765,13.626922899999999,-0.067979305,-0.391163296,-0.1,80.33668445,447.3697989,12.09467762,96065.66808999999,1.141419109,0.053055371,1.135693233,0.476695528,-0.007667511,-0.128714608,0.010121757,-0.0495758,-0.00086612,1.220678637,0.819207811,-0.020062397,-0.014560255,0.5729605729999999,0.0,398717576.7,327284553.6,448121.4293,13.29396059,3.913960592,12.7080196,1.529901961,1.271719377,0,0,0.0,39.871413700000005,32.7364371,38.77951783,-679.6602279,-47.809481,3.94629819,12.72821622,1.6941594819999999,0.151214947,0.09066823199999999,0.18869332800000002,1.3068083959999999,48.05024123,0.004191026,0.120315774,-0.030537076,0.0,214801653,0,0,0,0,1
4092,214841872,-0.00900775,0.14020476,-0.273784824,0.0,1.0,1361.0,2000.0,1000.0,1500.0,1499.0,1567.0,13.04699839,13.33271447,13.13210739,13.21731694,13.50681871,14.40094619,14.71637185,106.2649239,106.2649239,12.09396434,-0.000400016,-0.006015133000000001,0.000253955,-0.24406761800000001,0.211665296,-0.010785763,2.0,8.641328266,9.641328266,11,0,0,1,0,0.0,0,0,0,0,0,-0.053568889,-0.004468234000000001,1.217226269,1.282878887,2.5876945119999997,332.54847939999996,38.25821667,-0.00275037,0.092792555,-0.2,0.0,-0.727193577,0.59127628,-9.741425917,-6.64e-34,960.6571127000001,12.09469622,-0.007266791999999999,0.029776845,-0.009159288,-0.7172783209999999,0.61826583,-9.424435687999999,-0.008076372,-0.016177079,-0.029002543,-6.64e-34,49.20325773,48.54407627,-2.86968387,-0.468185798,10.22774026,13.59341069,-0.06731340599999999,-0.403072155,-0.1,80.51898636,447.0402716,12.09515659,96069.43694,1.1414638590000001,-0.190165047,1.325778868,-0.13202053,-0.01230714,-0.068712443,0.008989396,-0.053637563,-0.00042127699999999996,1.216281351,0.820419826,-0.021887562000000003,-0.01549365,0.5711323429999999,0.0,398717592.8,327284621.3,448051.5015,13.29831725,3.918317464,12.70584117,1.540794117,1.271415202,0,0,0.0,39.871413700000005,32.7364371,38.9537605,-679.0952452,-47.73632526,3.9526442260000003,12.7307114,1.699279796,0.168620584,0.091981649,0.09341928199999999,1.305759024,47.97708547,-0.00268378,0.122346354,-0.033641051,0.0,214841872,0,0,0,0,1
4093,214886090,-0.0038874390000000003,0.140988539,-0.273657669,0.0,1.0,1362.318864,2000.0,1000.0,1502.0,1497.0,1568.0,13.0718352,13.35794042,13.12059088,13.20531557,13.49452451,14.39481377,14.71007259,106.1176245,106.1176245,12.09428008,-0.000399985,-0.006014511,0.00025435,-0.24404785,0.211625843,-0.010655201999999999,2.0,8.643928786,9.643928786,11,0,0,1,0,0.0,0,0,0,0,0,-0.05362852,-0.002627004,1.216766948,1.282864281,2.6061107040000002,331.95341329999997,38.2718925,-0.002758076,0.09312491199999999,-0.2,0.0,-0.7593548040000001,0.5860576670000001,-9.698263254,-6.64e-34,960.6698859999999,12.09514361,0.002886986,0.023413502000000003,-0.019071979,-0.7147658159999999,0.622673874,-9.592062667,-0.009560595,-0.018684489,-0.026101642,-6.64e-34,49.03761654,48.52400732,-2.907155755,-0.5463875029999999,10.22752287,13.55989847,-0.066647508,-0.414981015,-0.1,80.70128826,447.125924,12.09561233,96068.49257,1.141452601,0.706568544,0.9890619190000001,-0.037409306,-0.001269578,-0.022585957,0.006657164,-0.046547737,-0.002384661,1.222535698,0.818714451,-0.018373774,-0.014331803,0.573727477,0.0,398717608.9,327284689.1,447981.5737,13.3026739,3.922674335,12.70366273,1.5516862740000001,1.2711110270000001,0,0,0.0,39.871413700000005,32.7364371,39.1355558,-678.5065255,-47.66018001,3.960311997,12.73332708,1.69974227,0.181066098,0.098606181,0.041297027,1.3044589979999999,47.90094067,0.008989645,0.11886824,-0.02775192,0.0,214886090,0,0,0,0,1
4094,214934308,-0.00537977,0.150818266,-0.276958812,0.0,1.0,1363.0,2000.0,1000.0,1504.0,1495.0,1570.0,13.06758245,13.3536392,13.10907437,13.1933142,13.48223031,14.38868135,14.70377332,105.9703252,105.9703252,12.09459583,-0.000399954,-0.0060138890000000006,0.000254744,-0.24402808199999998,0.21158638899999999,-0.010524641999999999,2.0,8.646529306,9.646529306,11,0,0,1,0,0.0,0,0,0,0,0,-0.053688152,-0.000785775,1.216307627,1.2828496740000002,2.624526897,331.35834730000005,38.28556833,-0.002755102,0.093447117,-0.2,0.0,-0.79151603,0.580839055,-9.655100592,-6.64e-34,960.6826593000001,12.09559101,0.001578669,0.01078089,-0.021428916,-0.679167428,0.589773039,-9.709699264,-0.011044818,-0.021191897999999997,-0.02320074,-6.64e-34,48.87197536,48.50393837,-2.9446276389999997,-0.624589207,10.22730548,13.52638626,-0.06598160900000001,-0.426889874,-0.1,80.88359016,447.0999633,12.09609455,96068.78052999999,1.1414560329999999,-0.318481298,0.209169025,-0.322151562,0.00046094,0.009071406,0.0063237269999999995,-0.050720564,-0.0016891879999999999,1.218138897,0.819928667,-0.020314835,-0.015199374,0.571902647,0.0,398717625.0,327284756.8,447911.6459,13.30703055,3.927031206,12.7014843,1.562578431,1.270806852,0,0,0.0,39.871413700000005,32.7364371,39.3144445,-677.9278286,-47.58536151,3.967826751,12.73591636,1.70111789,0.198466544,0.090650011,0.016683067,1.303178229,47.82612241,0.003269345,0.11979616400000001,-0.030258702000000002,0.0,214934308,0,0,0,0,1
4095,214981054,0.000101351,0.154407866,-0.275114985,0.0,1.0,1363.0,2000.0,1000.0,1501.586917,1497.413083,1570.0,13.09039226,13.37686631,13.09755786,13.18131283,13.46993611,14.38254893,14.69747405,105.8230258,105.8230258,12.09491158,-0.000399924,-0.006013266999999999,0.00025513799999999997,-0.244008313,0.21154693600000002,-0.010394081,2.0,8.649129826,9.649129826,11,0,0,1,0,0.0,0,0,0,0,0,-0.052962941,-0.000314641,1.216602215,1.282856572,2.614287543,330.7611139,38.30163324,-0.002760885,0.093770175,-0.2,0.0,-0.736200835,0.5721280910000001,-9.657064763,-6.64e-34,960.6845645999999,12.09613784,0.005264756999999999,-0.003173063,-0.025578242,-0.72858145,0.661129686,-9.900657772999999,-0.007756178000000001,-0.02271942,-0.025705255,-6.64e-34,48.70633417,48.48386942,-2.982099523,-0.702790912,10.22708809,13.49287405,-0.06531571,-0.43879873399999997,-0.1,81.06589206,447.0148892,12.09656124,96069.72806000001,1.141467321,-0.381801636,0.530458907,-0.217863136,-0.004251409,0.033462423,0.000848821,-0.049242379,-0.001456667,1.219054766,0.81967579,-0.019770489,-0.014686398,0.572289645,0.0,398717641.0,327284823.7,447841.4405,13.31138735,3.933470508,12.70208242,1.574858879,1.270393649,0,0,0.0,39.871413700000005,32.7364371,39.48328263,-677.3837887,-47.51513064,3.974812402,12.73841436,1.705651016,0.233000312,0.032276227000000005,0.08718815199999999,1.301964046,47.75589109,-0.003664712,0.122848667,-0.032824942,0.0,214981054,0,0,0,0,1
4096,215026745,-0.005670814000000001,0.15730755800000001,-0.277524486,0.0,1.0,1361.0,2000.0,1000.0,1502.0,1497.0,1575.0,13.12556042,13.41286987,13.08604134,13.16931147,13.45764191,14.376416500000001,14.69117479,105.6757264,105.6757264,12.09522732,-0.000399893,-0.006012645,0.000255533,-0.243988545,0.211507482,-0.010263521,2.0,8.651730346,9.651730346,11,0,0,1,0,0.0,0,0,0,0,0,-0.05203706,-0.00019381599999999998,1.217089565,1.282868968,2.596721486,330.1633264,38.31830899,-0.0027584370000000003,0.094061586,-0.2,0.0,-0.6612589010000001,0.562633563,-9.669153863,-6.64e-34,960.6840314,12.09670697,-0.00105556,-0.018217288999999998,-0.025812422,-0.701942363,0.531813627,-9.71510662,-0.003396669,-0.024027088999999998,-0.029422561,-6.64e-34,48.55131886,48.45060896,-2.903588305,-0.8093911020000001,10.22689053,13.46739277,-0.064810037,-0.42948535,-0.1,81.24340133,447.0469815,12.0970391,96069.38849,1.141463238,0.266387121,0.20588891899999998,-0.18790303100000003,-0.0024066170000000002,0.045052290999999994,-0.007367156999999999,-0.046976218,-0.00033527300000000003,1.220813487,0.8191904329999999,-0.019148663,-0.013599479,0.573038839,0.0,398717656.7,327284888.6,447770.6413,13.31574444,3.94436273,12.70861772,1.59010795,1.269747307,0,0,0.0,39.871413700000005,32.7364371,39.65212075,-676.8397487999999,-47.44489977,3.981798052,12.74091236,1.710184141,0.267534079,-0.026097556,0.157693238,1.300749863,47.68565978,0.005883586,0.11984412,-0.028685465,0.0,215026745,0,0,0,0,1
4097,215069928,-0.00013643299999999999,0.157204441,-0.276162584,0.0,1.0,1362.0,2000.0,1000.0,1499.4926990000001,1499.5073009999999,1577.0,13.0889933,13.37532385,13.07452483,13.1573101,13.44534771,14.37028408,14.68487552,105.52842700000001,105.52842700000001,12.09554307,-0.00039986199999999996,-0.006012023000000001,0.00025592700000000003,-0.24396877600000003,0.21146802899999997,-0.01013296,2.0,8.654330866,9.654330866,11,0,0,1,0,0.0,0,0,0,0,0,-0.05111118,-7.3e-05,1.2175769140000001,1.282881364,2.57915543,329.5655388,38.33498474,-0.0027593120000000003,0.094361857,-0.2,0.0,-0.6615782020000001,0.554339315,-9.679869038,-6.64e-34,960.6946627,12.09721501,-0.005182374,-0.024058622999999998,-0.030990909,-0.72376865,0.586402454,-9.743044306,-0.000344758,-0.022018227999999997,-0.026321762999999998,-6.64e-34,48.407407899999995,48.403563,-2.7038714789999996,-0.94566851,10.2267137,13.45030404,-0.064471803,-0.397994125,-0.1,81.41590217,446.86134180000005,12.0975175,96071.51137000001,1.141488456,0.001659648,0.308901448,0.45904659999999997,-0.006755208,0.04285601,-0.011041852,-0.047493482999999996,0.006221158,1.219953673,0.81938144,-0.0212451,-0.011050588,0.572743311,0.0,398717672.4,327284953.5,447699.8422,13.32010153,3.9552549519999998,12.71515303,1.605357022,1.269100965,0,0,0.0,39.871413700000005,32.7364371,39.83557521,-676.2509094,-47.36851538,3.9911171839999997,12.74501266,1.7178528480000002,0.237281508,0.030277516,0.141610033,1.299693491,47.60927581,0.002458775,0.137362271,-0.029355142,0.0,215069928,0,0,0,0,1
4098,215111182,-0.00023669700000000001,0.157062132,-0.27720596,0.0,1.0,1361.0,2000.0,1000.0,1502.0,1497.0,1578.0,13.16975291,13.45782371,13.06300832,13.14530873,13.43305352,14.36415166,14.67857625,105.3811277,105.3811277,12.09585882,-0.00039983099999999996,-0.0060114009999999996,0.000256321,-0.243949008,0.211428575,-0.0100024,2.0,8.656931386,9.656931386,11,0,0,1,0,0.0,0,0,0,0,0,-0.050185299,4.7799999999999996e-05,1.2180642640000001,1.282893761,2.561589374,328.96775130000003,38.35166049,-0.002765309,0.094655951,-0.2,0.0,-0.7196157440000001,0.546965568,-9.689530544,-6.64e-34,960.7138559,12.09767618,-0.006218673,-0.021530733,-0.029296974,-0.662441852,0.564596424,-9.601118731,0.0017043479999999998,-0.017465901000000002,-0.017992125,-6.64e-34,48.26349694,48.35651703,-2.504154654,-1.081945918,10.22653686,13.433215300000002,-0.06413357,-0.3665029,-0.1,81.58840301,446.75854000000004,12.09799591,96072.695,1.1415024999999999,-0.007300149000000001,0.24862107100000003,-0.580578246,0.002419184,0.034821494,-0.02122054,-0.04246595,0.005375934000000001,1.224237208,0.8182122820000001,-0.018920573,-0.010000114000000001,0.574517725,0.0,398717688.1,327285018.4,447629.04299999995,13.32445861,3.9661471739999996,12.72168834,1.620606094,1.268454623,0,0,0.0,39.871413700000005,32.7364371,40.01944264,-675.6608042,-47.29195713,4.000502247,12.74915823,1.7256101469999998,0.20519847600000002,0.08989468099999999,0.123080379,1.298641578,47.53271801,0.014996612,0.135344212,-0.022941427,0.0,215111182,0,0,0,0,1
4099,215159401,-0.006799868000000001,0.158298346,-0.27907573399999996,0.0,1.0,1361.60152,2000.0,1000.0,1500.195439,1498.804561,1578.39848,13.10824355,13.39494154,13.06678636,13.14888171,13.43666067,14.36597939,14.68039637,105.42487870000001,105.42487870000001,12.09628691,-0.0003998,-0.006010779,0.000256716,-0.243929239,0.21138912199999998,-0.009871839,2.0,8.659531906,9.659531906,11,0,0,1,0,0.0,0,0,0,0,0,-0.049259419000000006,0.000168659,1.218551613,1.282906157,2.5440233180000003,328.36996380000005,38.36833624,-0.002763615,0.09495261199999999,-0.2,0.0,-0.750695357,0.543497617,-9.690293619,1.694203041,960.7294168999999,12.09813735,-0.002122464,-0.020067705,-0.02288069,-0.7330619140000001,0.525300205,-9.586542909,0.003183521,-0.013850205,-0.011054207,1.694203041,48.11958597,48.30947107,-2.3044378290000003,-1.218223327,10.22636003,13.41612657,-0.063795336,-0.335011675,-0.1,81.76090385,446.85618550000004,12.09847844,96071.58492000001,1.141489415,0.00658223,-0.656879719,0.221780604,0.0005306919999999999,0.022318168,-0.022497876,-0.046709685,0.0055046109999999995,1.219858015,0.819425062,-0.020718081,-0.011121053999999998,0.572703554,0.0,398717703.7,327285083.4,447558.2438,13.3288157,3.9770393960000003,12.72822364,1.635855165,1.267808282,0,0,0.0,39.871413700000005,32.7364371,40.19385121,-675.1033135,-47.21895832,4.008646869,12.75294949,1.7318674019999998,0.197779077,0.08491539699999999,0.11830903400000001,1.2979910890000002,47.459719,0.00753615,0.134180505,-0.026350606000000002,0.0,215159401,0,0,0,0,1
4100,215203619,-0.001981007,0.155734461,-0.271605654,0.0,1.0,1361.0,2000.0,1000.0,1500.1486300000001,1498.8513699999999,1578.0,13.16296125,13.4507832,13.07649103,13.15848975,13.4464296,14.37089168,14.68536275,105.54266170000001,105.54266170000001,12.09675853,-0.000399769,-0.0060101569999999995,0.00025711,-0.24390947100000002,0.21134966800000002,-0.009741279,2.0,8.662132426,9.662132426,11,0,0,1,0,0.0,0,0,0,0,0,-0.048333537999999995,0.000289483,1.219038963,1.282918553,2.526457262,327.7721762,38.385011999999996,-0.002766493,0.09527236800000001,-0.2,0.0,-0.723199239,0.5485164020000001,-9.671721679,7.069667259,960.7370853,12.09859852,-0.0036226390000000004,-0.014825303,-0.02185164,-0.742766004,0.503339685,-9.655737404,0.003424312,-0.012269671000000001,-0.007140298000000001,7.069667259,47.97567501,48.26242511,-2.1047210030000003,-1.354500735,10.2261832,13.39903784,-0.063457102,-0.30352044899999997,-0.1,81.93340469,446.5977435,12.09896114,96074.55507,1.141524618,-0.961228298,-0.490792474,-0.115307485,0.0029810540000000003,0.011553631000000002,-0.026842102000000003,-0.039590734,0.0031147590000000004,1.226085865,0.817721826,-0.017085673,-0.010114964,0.575270514,0.0,398717719.6,327285149.4,447484.4307,13.33317248,3.981586317,12.73317263,1.64793157,1.267494178,0,0,0.0,39.871413700000005,32.7364371,40.36459448,-674.5584609,-47.14733878,4.01631082,12.75660345,1.73754339,0.199916837,0.05490499,0.118869034,1.2974961520000001,47.38809902,0.016727723,0.129560795,-0.021677468,0.0,215203619,0,0,0,0,1
4101,215243838,-0.004189667,0.157586323,-0.27343374800000003,0.0,1.0,1360.0,2000.0,1000.0,1503.0,1496.0,1579.0,13.1493336,13.43684217,13.0861957,13.16809779,13.45619854,14.37580396,14.69032913,105.6604447,105.6604447,12.09723015,-0.00039973900000000003,-0.006009535,0.00025750400000000003,-0.24388970199999999,0.211310215,-0.009610718,2.0,8.664732947000001,9.664732947000001,11,0,0,1,0,0.0,0,0,0,0,0,-0.047407657,0.000410308,1.219526312,1.282930949,2.508891206,327.1743887,38.40168775,-0.0027631120000000003,0.095588445,-0.2,0.0,-0.693849368,0.55341853,-9.657459562,12.09906055,960.7448258,12.09906055,0.009101224,-0.016319576000000002,-0.013156544,-0.694827205,0.46649015899999996,-9.687674465,0.0038719159999999996,-0.010549724,-0.002868773,12.09906055,47.87460811,48.20128821,-2.022323709,-1.426691634,10.22663113,13.38929082,-0.06325320400000001,-0.272575198,-0.1,82.07565998,446.6029477,12.0994434,96074.48066,1.141523771,-0.5589650589999999,-0.515837676,-0.720244625,0.0009992760000000001,-0.004721727,-0.027286968999999998,-0.043929749000000004,0.002956212,1.2217009859999999,0.818943095,-0.018839046,-0.011386417,0.5734518120000001,0.0,398717735.5,327285215.8,447409.4925,13.33752913,3.983764753,12.73752951,1.658823727,1.267304088,0,0,0.0,39.871413700000005,32.7364371,40.5423582,-673.9922843999999,-47.07298087,4.023993368,12.76056165,1.742533909,0.178101829,0.059224188,0.112568402,1.297142757,47.31374087,0.009170122,0.127180287,-0.025324435,0.0,215243838,0,0,0,0,1
