,timestamp,control[0],control[1],control[2],control[3],control[4],output[2],output[3],output[4],output[5],output[6],output[7],indicated_airspeed_m_s,true_airspeed_m_s,indicated_airspeed_m_s.1,equivalent_airspeed_m_s,true_airspeed_m_s.1,equivalent_ground_minus_wind_m_s,true_ground_minus_wind_m_s,differential_pressure_raw_pa,differential_pressure_filtered_pa,temperature,gyro_bias[0],gyro_bias[1],gyro_bias[2],accel_bias[0],accel_bias[1],accel_bias[2],instance_count,seq_reached,seq_current,seq_total,item_changed_index,item_do_jump_remaining,valid,warning,finished,failure,stay_in_failsafe,flight_termination,item_do_jump_changed,execution_mode,nav_roll,nav_pitch,nav_bearing,target_bearing,xtrack_error,wp_dist,acceptance_radius,rollspeed_integ,pitchspeed_integ,yawspeed_integ,additional_integ1,x,y,z,temperature.1,pressure,temperature.2,gyro_rad[0],gyro_rad[1],gyro_rad[2],accelerometer_m_s2[0],accelerometer_m_s2[1],accelerometer_m_s2[2],x.1,y.1,z.1,temperature.3,altitude_sp,altitude_filtered,height_rate_setpoint,height_rate,airspeed_sp,airspeed_filtered,airspeed_derivative_sp,airspeed_derivative,throttle_integ,pitch_integ,baro_alt_meter,baro_temp_celcius,baro_pressure_pa,rho,xyz[0],xyz[1],xyz[2],xyz[0].1,xyz[1].1,xyz[2].1,roll_body,pitch_body,yaw_body,q_d[0],q_d[1],q_d[2],q_d[3],thrust_body[0],lat,lon,alt,vel_m_s,vel_n_m_s,vel_e_m_s,vel_d_m_s,cog_rad,ground_contact,maybe_landed,landed,ref_timestamp,ref_lat,ref_lon,x.2,y.2,z.2,vx,vy,vz,ax,ay,az,dist_bottom,roll,pitch,yaw,thrust_body[0].1,timestamp.1,isTakeoff,isClimbing,isDescending,isCruise,isLand
3554,143720495,0.031148271,0.26866257,-0.00894736,0.17712682,1.0,1496.0,2000.0,1177.0,1486.0,1513.0,1636.0,12.03689082,12.30251833,12.3407508,12.30915462,12.58074985,11.16772975,11.41414019,93.23391081,93.23391081,12.07132401,-0.000792937,-0.006220275,-0.000135291,-0.262416532,0.187505426,-0.0034053620000000003,2.0,7.24224845,8.24224845,11,0,0,1,0,0.0,0,0,0,0,0,-0.071845405,0.132040676,-1.677572615,-1.576700358,3.657057206,582.7896653,35.52827281,0.000300127,0.13985445800000001,-0.00980298,0.0,-0.35384551200000003,0.149410607,-9.254433047000001,82382296.0,960.2806537999999,12.07315487,0.12509488300000002,-0.02981504,-0.128787369,-0.298143704,0.09136057800000001,-9.185549283,0.125763038,-0.027800704,-0.122952675,82382296.0,50.111397,51.37292013,-0.063076176,-0.331538796,10.26328371,12.51198562,-0.044974022999999995,-1.008615219,-0.35287690299999996,114.5146264,450.73651849999993,12.07293394,96026.95732,1.14095914,0.296621462,-0.187822433,0.060841612,0.12168738800000001,-0.020429965,-0.128907865,-0.041016041,0.133821591,-1.673606775,0.669218262,0.035928746,0.059968823,-0.739769935,0.176068627,398688992.0,327372574.8,451257.9386,12.42226045,-0.47640728,-12.38907168,0.586377241,4.673694398,0,0,0.0,756000,39.871413700000005,32.7364371,-280.8909522,88.97258536,-51.55003566,2.562346216,-13.65566025,0.296452344,-2.063612714,0.10309423599999999,0.17674520000000002,51.60933523,0.117507381,0.241261593,0.006701821,0.17802596,143720495,0,0,0,0,1
3555,143762961,0.029307819,0.271742267,-0.00705443,0.177335403,1.0,1497.0,2000.0,1177.0,1486.892779,1512.107221,1638.0,12.10658788,12.373714900000001,12.32790814,12.29631717,12.56761621,11.15551912,11.40164839,93.07446801,93.07446801,12.07148755,-0.0007928439999999999,-0.006219845999999999,-0.000135095,-0.262477988,0.18754768300000002,-0.0033202870000000003,2.0,7.24484897,8.24484897,11,0,0,1,0,0.0,0,0,0,0,0,-0.066588479,0.132327306,-1.6768384630000002,-1.576681721,3.626391791,582.3315190000001,35.48304459,0.000287198,0.140534054,-0.009358594,0.0,-0.348902083,0.104834471,-9.260097715,82382296.0,960.2832163999999,12.07334152,0.12157295300000001,-0.030670755,-0.12640464099999998,-0.30687923100000003,0.12136647699999999,-9.203781529,0.119854041,-0.02885293,-0.11818379400000001,82382296.0,50.111397,51.36027111,-0.062443737,-0.355028085,10.26029457,12.47202843,-0.044234666,-0.987308933,-0.353115611,114.5587467,450.63299169999993,12.07312859,96028.12642,1.140972979,-0.047830272,-0.084115334,0.150992535,0.127819334,-0.017138208999999998,-0.119975272,-0.037289722000000004,0.134257344,-1.6737129130000001,0.669104126,0.037340227999999996,0.058733823,-0.7399023090000001,0.176738185,398688990.4,327372519.5,451234.2885,12.40640128,-0.534394876,-12.36742949,0.60873971,4.668985268,0,0,0.0,756000,39.871413700000005,32.7364371,-280.796053,88.45236717,-51.541151299999996,2.480462513,-13.62816711,0.304195765,-2.19285634,0.808048385,0.226473218,51.60045048,0.11551242699999999,0.244931607,0.009150211,0.1785714,143762961,0,0,0,0,1
3556,143805427,0.027502109,0.275705388,-0.006297635,0.1774734,1.0,1498.0,2000.0,1178.0,1486.917784,1512.082216,1640.0,12.08133831,12.34787426,12.31506549,12.28347973,12.55448257,11.1433085,11.38915658,92.91502521,92.91502521,12.0716511,-0.000792752,-0.006219417,-0.000134898,-0.262539444,0.18758994,-0.003235213,2.0,7.24744949,8.24744949,11,0,0,1,0,0.0,0,0,0,0,0,-0.061331552000000004,0.132613936,-1.676104311,-1.5766630830000001,3.5957263760000004,581.8733727000001,35.43781637,0.000273564,0.14110324800000001,-0.009004712,0.0,-0.336612973,0.085708275,-9.261170255,82382296.0,960.2873777000001,12.07352826,0.120958808,-0.033208703,-0.126136146,-0.28916384100000003,0.130261985,-9.25796998,0.117553011,-0.029696185,-0.113047556,82382296.0,50.111397,51.34754022,-0.061807205,-0.37856180799999994,10.25732549,12.43229504,-0.043499384,-0.9658022279999999,-0.353353927,114.6027239,450.5974795,12.07330327,96028.51682,1.140977635,0.626923451,-0.082104562,-0.156082614,0.123083068,-0.022268198,-0.12186015,-0.033659029,0.1347491,-1.67381074,0.668991082,0.03873997,0.05755275,-0.7400254209999999,0.177123333,398688988.1,327372462.8,451206.1428,12.39326665,-0.586933375,-12.35804761,0.6406380970000001,4.664728016000001,0,0,0.0,756000,39.871413700000005,32.7364371,-280.7018203,87.91129508,-51.53140705,2.392049911,-13.59139746,0.307594493,-2.285902634,1.130727092,0.140075364,51.59070627,0.114167431,0.24832315300000002,0.011101343999999999,0.178573943,143805427,0,0,0,0,1
3557,143851787,0.026223463,0.27921257899999996,-0.004430808,0.17802596,1.0,1498.942789,2000.0,1178.0,1487.0,1512.0,1640.0,12.10436855,12.37141639,12.30222283,12.27064228,12.54134893,11.13109787,11.37666477,92.75558241,92.75558241,12.07181465,-0.0007926589999999999,-0.006218987,-0.000134702,-0.2626009,0.187632197,-0.003150138,2.0,7.25005001,8.25005001,11,0,0,1,0,0.0,0,0,0,0,0,-0.056074625,0.132900566,-1.675370159,-1.576644445,3.5650609610000004,581.4152263999999,35.39258815,0.000258359,0.141748024,-0.008627633000000001,0.0,-0.299158102,0.15377169300000001,-9.246510505,82382296.0,960.2970161000001,12.07371529,0.123589346,-0.029932547,-0.11628891599999999,-0.294701375,0.095119755,-9.204306276,0.127612613,-0.029823517,-0.106652784,82382296.0,50.111397,51.33480933,-0.061170672,-0.402095531,10.25435642,12.39256165,-0.042764102000000005,-0.944295524,-0.353592244,114.64670109999999,450.58432980000003,12.0735179,96028.68733,1.140979687,0.7419252359999999,-0.1053721,0.338594257,0.127120645,-0.02037229,-0.12022433099999999,-0.030061146,0.135280315,-1.6739185619999999,0.66887133,0.040143353,0.05639649099999999,-0.74014793,0.177315766,398688985.9,327372406.1,451177.9972,12.38013203,-0.639471873,-12.34866573,0.6725364840000001,4.660470763999999,0,0,0.0,756000,39.871413700000005,32.7364371,-280.6081684,87.35204774,-51.52091337,2.297947041,-13.54654285,0.307206602,-2.347401111,1.12023329,-0.064963119,51.58021298,0.11015837099999999,0.251929326,0.012092786000000001,0.17858896,143851787,0,0,0,0,1
3558,143890360,0.024282552000000002,0.280559166,-0.0028739259999999997,0.1785714,1.0,1499.0,2000.0,1178.0,1488.0,1511.0,1641.0,12.02601299,12.29129931,12.28938018,12.25780483,12.52821529,11.11888725,11.36417297,92.59613961,92.59613961,12.07197819,-0.000792567,-0.006218558000000001,-0.000134505,-0.262662357,0.187674455,-0.003065064,2.0,7.25265053,8.25265053,11,0,0,1,0,0.0,0,0,0,0,0,-0.050817699,0.133187195,-1.6746360059999998,-1.5766258080000002,3.5343955460000003,580.9570801,35.34735993,0.000247074,0.14240195,-0.008263523,0.0,-0.26170323,0.22183511,-9.231850754,82382296.0,960.3066545,12.07390232,0.12318744699999999,-0.029632977999999997,-0.117254765,-0.22854053600000002,0.155085684,-9.221515998,0.137672215,-0.029950848999999998,-0.100258013,82382296.0,50.111397,51.32207844,-0.06053414,-0.425629254,10.25138735,12.35282826,-0.04202882,-0.9227888190000001,-0.35383056,114.6906783,450.631228,12.07371255,96028.15733999999,1.140973388,0.499395243,-0.089932665,-0.058146792,0.126673127,-0.022150403,-0.11664870599999999,-0.026592375,0.13582367,-1.6740218180000002,0.668752851,0.04150767,0.055291902000000004,-0.7402631190000001,0.177518095,398688983.6,327372349.5,451149.8516,12.3669974,-0.692010371,-12.33928386,0.704434872,4.656213513,0,0,0.0,756000,39.871413700000005,32.7364371,-280.51451660000004,86.79280041,-51.51041969,2.203844171,-13.50168825,0.306818711,-2.408899588,1.109739489,-0.27000160100000004,51.56971969,0.108660225,0.25574572100000004,0.014075028,0.17899829,143890360,0,0,0,0,1
3559,143924826,0.023557219,0.282442999,-0.0017395120000000001,0.17856991,1.0,1500.0,2000.0,1178.0,1488.992799,1510.007201,1643.0,12.01295555,12.277996400000001,12.27653752,12.24496738,12.51508165,11.10667662,11.35168116,92.43669681,92.43669681,12.07214174,-0.0007924739999999999,-0.006218129,-0.000134309,-0.26272381300000003,0.18771671199999998,-0.00297999,2.0,7.25525105,8.25525105,11,0,0,1,0,0.0,0,0,0,0,0,-0.045560772,0.133473825,-1.6739018540000001,-1.57660717,3.503730131,580.4989337999999,35.30213171,0.000245805,0.143058925,-0.007906030999999999,0.0,-0.263604787,0.22423414600000002,-9.252681811,63117465.05,960.3118498,12.07410338,0.128390581,-0.039446499999999995,-0.11589466699999999,-0.269509449,0.187476664,-9.293147994,0.139480974,-0.030106789,-0.09568789999999999,63117465.05,50.111397,51.30934755,-0.059897608,-0.449162977,10.24841828,12.31309486,-0.041293537000000005,-0.901282114,-0.354068877,114.73465559999998,450.4760757,12.0739082,96029.92308,1.1409943409999999,-0.08790248,0.036228122,0.12164807400000001,0.131884312,-0.019809208000000002,-0.116224391,-0.023365258,0.136359055,-1.6741332619999998,0.668633867,0.04278817099999999,0.054273666,-0.7403729790000001,0.17795829300000002,398688981.4,327372292.8,451121.7059,12.35386277,-0.74454887,-12.32990198,0.736333259,4.6519562610000005,0,0,0.0,756000,39.871413700000005,32.7364371,-280.4368903,86.28037038,-51.50160748,2.110943145,-13.45899175,0.287857789,-2.400248056,1.1352163999999998,-0.441112051,51.56090748,0.10528791300000001,0.25855672399999996,0.014634336000000001,0.17940193,143924826,0,0,0,0,1
3560,143967292,0.022448838999999998,0.285310833,-0.000483227,0.17858896,1.0,1500.0,2000.0,1178.0,1488.0,1511.0,1645.0,12.14767726,12.41552928,12.26369487,12.23212994,12.50194801,11.09446599,11.33918935,92.27725401,92.27725401,12.07230529,-0.0007923180000000001,-0.00621762,-0.00013421399999999999,-0.262780749,0.18776268399999999,-0.002914633,2.0,7.25785157,8.25785157,11,0,0,1,0,0.0,0,0,0,0,0,-0.040900645,0.133900094,-1.673113651,-1.5765884559999999,3.473064709,580.0326177999999,35.27334282,0.00024187400000000002,0.143720444,-0.00758177,0.0,-0.290520736,0.18489782300000002,-9.296070327,31608177.82,960.3142212000001,12.07431336,0.130507214,-0.030691767000000002,-0.11008824699999999,-0.23021671800000001,0.10300121599999999,-9.347181121,0.13604561199999998,-0.030280911,-0.09227751599999999,31608177.82,50.111397,51.29102354,-0.058981399999999996,-0.47651174799999996,10.24590542,12.28796427,-0.040841182999999996,-0.876139184,-0.354314287,114.7801355,450.4094472,12.07413286,96030.68541,1.1410033590000002,0.501636446,0.036174491,-0.466562221,0.132443296,-0.018741783,-0.109507404,-0.020228391000000002,0.13691092300000002,-1.674224559,0.668521565,0.044043835,0.053294564,-0.7404717959999999,0.178394837,398688979.1,327372236.1,451093.5603,12.34072815,-0.797087368,-12.3205201,0.7682316459999999,4.64769901,0,0,0.0,756000,39.871413700000005,32.7364371,-280.35937889999997,85.76827596,-51.49280733,2.018050734,-13.41631072,0.26876372800000004,-2.391093656,1.160951166,-0.61197929,51.55210733,0.120542749,0.26221353399999997,0.014403947,0.1802096,143967292,0,0,0,0,1
3561,144005758,0.023036051000000002,0.290426069,0.000530309,0.17899829,1.0,1501.0,2000.0,1179.0,1484.0,1515.0,1646.0,12.02737354,12.29258215,12.25085222,12.21929249,12.48881437,11.08225537,11.32669755,92.11781121,92.11781121,12.07246883,-0.0007921,-0.006217033,-0.00013422,-0.262833213,0.18781233100000003,-0.0028687879999999997,2.0,7.26045209,8.26045209,11,0,0,1,0,0.0,0,0,0,0,0,-0.036831101,0.134464546,-1.6722719590000001,-1.576569665,3.442399279,579.5582172000001,35.26082203,0.00023219900000000002,0.144385538,-0.007299150999999999,0.0,-0.317436686,0.1455615,-9.339458844,98890.59094,960.3165926,12.07452334,0.12902081,-0.032036239,-0.113711484,-0.24218893600000002,0.088583686,-9.257998716,0.13261025,-0.030455034,-0.08886713199999999,98890.59094,50.111397,51.26993848,-0.05792713,-0.505743819,10.24361776,12.27004235,-0.040528496000000004,-0.8492012290000001,-0.354563199,114.82635719999999,450.428091,12.07434746,96030.47933999999,1.141000971,-0.045877376,0.37504825299999994,-0.185234626,0.132175017,-0.0197989,-0.111937915,-0.017135103999999998,0.137509977,-1.67430739,0.668410162,0.045301972,0.05234733900000001,-0.740564103,0.17856999199999998,398688976.2,327372181.8,451063.4651,12.33291058,-0.835447048,-12.30759352,0.7894958990000001,4.644431388,0,0,0.0,756000,39.871413700000005,32.7364371,-280.28344500000003,85.23906777,-51.4847648,1.921351948,-13.37206402,0.24588792,-2.4063724719999997,1.17053007,-0.6917103370000001,51.5440648,0.11627774,0.264961079,0.01207639,0.18078905,144005758,0,0,0,0,1
3562,144040224,0.021156707,0.292436929,0.001416115,0.17940193,1.0,1500.0,2000.0,1180.0,1485.932186,1513.067814,1648.0,12.14388301,12.411695199999999,12.23800956,12.20645504,12.47568073,11.07004474,11.31420574,91.9583684,91.9583684,12.07263238,-0.0007918819999999999,-0.006216446,-0.000134226,-0.262885677,0.187861978,-0.002822943,2.0,7.263052611,8.263052611,11,0,0,1,0,0.0,0,0,0,0,0,-0.032761557000000004,0.135028998,-1.6714302680000002,-1.576550875,3.4117338489999995,579.0838166,35.24830123,0.00022037400000000001,0.14504878300000001,-0.007048925,0.0,-0.29555856199999997,0.1047278,-9.381448457000001,12.07475658,960.3235774,12.07475658,0.12486994800000001,-0.033068699,-0.100669781,-0.267557675,0.161281493,-9.303918303,0.130520024,-0.029884375,-0.090108854,31410420.79,50.111397,51.24885341,-0.05687286,-0.534975891,10.24133011,12.25212043,-0.040215809,-0.822263273,-0.35481211100000004,114.872579,450.33011339999996,12.07456045,96031.62175,1.141014446,0.031857982,-0.18095737899999997,0.189991112,0.12613769800000002,-0.021549972,-0.09983122800000001,-0.014114156000000001,0.138141848,-1.6743688330000002,0.6683053170000001,0.046547309,0.051438171,-0.740645201,0.178582811,398688973.2,327372127.6,451033.2555,12.32540508,-0.872974563,-12.29445889,0.810136027,4.641221848,0,0,0.0,756000,39.871413700000005,32.7364371,-280.2094277,84.68906482,-51.47764283,1.820028076,-13.32591487,0.21841694899999997,-2.451339847,1.160478145,-0.6607026999999999,51.53694283,0.114746129,0.26817898100000004,0.008676943000000001,0.18194336,144040224,0,0,0,0,1
3563,144078690,0.031477495,0.29521082600000004,0.0017886479999999999,0.1802096,1.0,1499.0,2000.0,1181.0,1486.0,1513.0,1649.0,12.07679221,12.34306354,12.22516691,12.19361759,12.46254709,11.05783412,11.30171393,91.79892559999999,91.79892559999999,12.07279593,-0.0007916630000000001,-0.006215859000000001,-0.000134232,-0.26293814,0.18791162600000003,-0.0027770990000000003,2.0,7.2656531310000005,8.265653131,11,0,0,1,0,0.0,0,0,0,0,0,-0.028692013,0.13559345,-1.670588577,-1.5765320840000001,3.381068418,578.609416,35.23578043,0.00020674799999999998,0.145712057,-0.00681624,0.0,-0.273526838,0.063889387,-9.423433667000001,12.07498989,960.3305767,12.07498989,0.126264299,-0.030594191,-0.10068038300000001,-0.16658534,0.11510289300000001,-9.277219522000001,0.128434031,-0.029311371,-0.09136522,62919708.02,50.111397,51.22776835,-0.05581859,-0.564207963,10.23904246,12.23419851,-0.039903122,-0.795325318,-0.355061024,114.91880079999999,450.4231083000001,12.07480377,96030.56529,1.141001984,0.37038206799999995,0.27261777,-0.297391062,0.128469077,-0.020987755,-0.101553031,-0.011201528999999998,0.138781717,-1.674421875,0.668203708,0.047759007,0.050571842,-0.740719417,0.178668064,398688970.2,327372073.3,451003.0458,12.31789958,-0.9105020779999999,-12.28132426,0.830776155,4.638012308,0,0,0.0,756000,39.871413700000005,32.7364371,-280.13541039999996,84.13906188,-51.47052087,1.7187042030000002,-13.27976572,0.19094597800000002,-2.496307222,1.15042622,-0.629695064,51.52982087,0.11020250599999999,0.270538056,0.0065144619999999995,0.18252325,144078690,0,0,0,0,1
3564,144117156,0.028058836,0.298475919,0.000336525,0.18078905,1.0,1498.0,2000.0,1181.117824,1487.0,1512.0,1650.0,12.0528414,12.31862877,12.21232425,12.18078015,12.44941344,11.04562349,11.28922213,91.6394828,91.6394828,12.07295947,-0.000791445,-0.006215273,-0.00013423799999999998,-0.26299060399999996,0.187961273,-0.0027312540000000002,2.0,7.268253651,8.268253651,11,0,0,1,0,0.0,0,0,0,0,0,-0.024622468999999998,0.136157902,-1.669746885,-1.576513293,3.350402988,578.1350154,35.22325964,0.00019135,0.146384347,-0.006612555,0.0,-0.264553198,0.048228365,-9.426826347,12046711.32,960.3349804,12.07522335,0.125729109,-0.022672859,-0.10226273400000001,-0.226404964,0.063897034,-9.325241262999999,0.127517351,-0.02894815,-0.089944705,82382296.0,50.111397,51.20668328,-0.05476432,-0.593440035,10.23675481,12.21627659,-0.039590435,-0.768387362,-0.355309936,114.9650225,450.2580868,12.07504737,96032.43566,1.1410241620000001,0.014062638,-0.165541284,-0.240788458,0.128343521,-0.013007713,-0.097513131,-0.008422713,0.139377472,-1.674496555,0.668096127,0.048910000999999995,0.049739693,-0.740797679,0.17929155300000002,398688967.2,327372019.1,450972.8362,12.31039408,-0.948029593,-12.26818964,0.8514162829999999,4.634802768,0,0,0.0,756000,39.871413700000005,32.7364371,-280.0750428,83.63153195,-51.46588034,1.624793559,-13.23528053,0.17083837100000002,-2.445402641,1.1601185790000001,-0.5359794920000001,51.52518034,0.10840180199999999,0.273553515,0.0033619009999999996,0.18305698,144117156,0,0,0,0,1
3565,144151622,0.025125797999999998,0.300730199,-0.0019324770000000002,0.18194336,1.0,1498.0,2000.0,1182.0,1488.142829,1510.857171,1650.0,12.07873766,12.34493921,12.199481599999999,12.1679427,12.436279800000001,11.03341286,11.27673032,91.48004,91.48004,12.07312302,-0.0007912269999999999,-0.006214686,-0.000134244,-0.263043068,0.18801092100000003,-0.002685409,2.0,7.270854171,8.270854171,11,0,0,1,0,0.0,0,0,0,0,0,-0.020552925,0.136722355,-1.6689051940000001,-1.5764945030000002,3.319737558,577.6606148,35.21073884,0.00017417599999999998,0.147072967,-0.006425309000000001,0.0,-0.27667613399999996,0.073243814,-9.367869125,43555998.56,960.3351908,12.07545704,0.125161098,-0.029140011,-0.09176265199999999,-0.146652914,0.127962043,-9.404080326,0.128489805,-0.02892385,-0.084199434,82382296.0,50.111397,51.18456992,-0.053658642,-0.621298479,10.23461697,12.20060552,-0.039319769,-0.741852217,-0.35554431200000003,115.00994879999999,450.3247067,12.07529089,96031.67356,1.141015082,0.42021830600000004,0.071536523,0.28596141,0.126564677,-0.019313623000000002,-0.093149935,0.006086533000000001,0.139987251,-1.662427546,0.67216889,0.053711407,0.044892840999999996,-0.7370810990000001,0.179934062,398688964.2,327371964.9,450942.6265,12.30288858,-0.985557108,-12.25505501,0.872056411,4.631593228,0,0,0.0,756000,39.871413700000005,32.7364371,-280.016025,83.12820187,-51.46148518,1.531615954,-13.19095988,0.151458872,-2.385017984,1.171763305,-0.436063191,51.52078518,0.104565126,0.275775107,0.001247506,0.18333685,144151622,0,0,0,0,1
3566,144190088,0.023502929,0.301537034,-0.003038998,0.18252325,1.0,1497.0,2000.0,1183.0,1489.0,1510.0,1651.167834,12.12243347,12.38968221,12.18663894,12.15510525,12.42314616,11.02120224,11.26423852,91.32059720000001,91.32059720000001,12.07328657,-0.000791008,-0.006214099,-0.00013425,-0.263095531,0.188060568,-0.002639564,2.0,7.273454691,8.273454691,11,0,0,1,0,0.0,0,0,0,0,0,-0.01648338,0.13728680699999998,-1.6680635019999999,-1.576475712,3.289072128,577.1862142000001,35.19821804,0.000155916,0.147758845,-0.006271479,0.0,-0.288799071,0.09825926300000001,-9.308911903,75065285.79,960.3354012,12.07569073,0.12225818199999999,-0.028830707,-0.08509883,-0.20463830600000002,0.10742789800000001,-9.299876351,0.129462259,-0.02889955,-0.078454163,82382296.0,50.111397,51.16060501,-0.052460399000000005,-0.646683576,10.2327489,12.1889873,-0.039124767000000005,-0.7160423690000001,-0.35575251399999996,115.0525425,450.19151469999997,12.07553403,96033.19734,1.141033253,-0.389226169,-0.874213276,-0.27630398300000003,0.127111204,-0.018200577,-0.09035792599999999,0.00861387,0.140592619,-1.662485855,0.6720637709999999,0.054785049,0.044163347,-0.7371421159999999,0.18073943899999997,398688960.6,327371910.2,450909.5313,12.29884577,-1.023084605,-12.25,0.892696534,4.628544957,0,0,0.0,756000,39.871413700000005,32.7364371,-279.958746,82.61123037,-51.45740429999999,1.4375439269999999,-13.146034599999998,0.136667571,-2.329448638,1.162951401,-0.32670841300000003,51.516704299999994,0.101026806,0.278946242,-0.002247186,0.18393084,144190088,0,0,0,0,1
3567,144224555,0.022923071,0.302715092,-0.004207893,0.18305698,1.0,1496.0,2000.0,1183.0,1489.192839,1509.807161,1652.192839,11.94730096,12.21060763,12.17379629,12.1422678,12.41001252,11.00899161,11.25174671,91.16115440000002,91.16115440000002,12.07345011,-0.00079079,-0.006213511999999999,-0.000134256,-0.263147995,0.188110215,-0.00259372,2.0,7.276055211,8.276055211000001,11,0,0,1,0,0.0,0,0,0,0,0,-0.012413836000000001,0.137851259,-1.6672218109999999,-1.576456922,3.258406698,576.7118136,35.18569725,0.000142817,0.148439687,-0.006140061,0.0,-0.249736768,0.091798923,-9.345760549,82382296.0,960.3410736,12.07597787,0.12015117800000001,-0.033347095,-0.080385284,-0.268022424,0.128085428,-9.367283081,0.126815537,-0.028133237000000002,-0.071907049,82382296.0,50.111397,51.1366401,-0.051262157,-0.672068672,10.23088083,12.17736909,-0.038929764,-0.6902325220000001,-0.355960716,115.0951361,450.1837654,12.07577793,96033.30519,1.1410344190000001,-0.46268084200000004,-0.271909251,-0.139780102,0.120975617,-0.020927753,-0.078532793,0.011072776000000001,0.141198792,-1.662538469,0.67196087,0.055835685999999995,0.043459408,-0.737198833,0.18165909,398688956.6,327371855.2,450874.6307,12.29696939,-1.060612092,-12.25,0.913336652,4.625597585,0,0,0.0,756000,39.871413700000005,32.7364371,-279.9044459,82.07088968,-51.45386182,1.3419396609999998,-13.10007353,0.129736329,-2.282128418,1.11909517,-0.20118454600000002,51.51316182,0.096723049,0.28194211,-0.005484475999999999,0.18566644,144224555,0,0,0,0,1
3568,144259021,0.020026764,0.304663532,-0.005644267,0.18333685,1.0,1495.0,2000.0,1184.0,1490.0,1509.0,1655.217844,11.97239604,12.23632192,12.16095363,12.12943036,12.39687888,10.99678099,11.2392549,91.0017116,91.0017116,12.07361366,-0.000790572,-0.006212925,-0.000134262,-0.263200459,0.188159863,-0.002547875,2.0,7.278655731000001,8.278655731,11,0,0,1,0,0.0,0,0,0,0,0,-0.008344292,0.138415711,-1.66638012,-1.576438131,3.227741268,576.237413,35.17317645,0.000133241,0.149111417,-0.006067048,0.0,-0.195193371,0.075818657,-9.411585901,82382296.0,960.3483980000001,12.07628118,0.12204937800000001,-0.021709564,-0.077494942,-0.216003673,0.073160598,-9.266688281,0.123074186,-0.0271425,-0.065117416,82382296.0,50.111397,51.11267519,-0.050063914,-0.6974537690000001,10.22901276,12.16575087,-0.038734761,-0.664422674,-0.35616891799999995,115.13772979999999,450.17333080000003,12.07602126,96033.42708,1.141035939,-0.118740333,0.246717396,0.016567811,0.121449689,-0.016745325,-0.082514457,0.013352408,0.14182425199999998,-1.6625788069999998,0.671865505,0.056832793,0.042828309,-0.73724645,0.182549818,398688952.7,327371800.2,450839.7301,12.29509302,-1.0981395790000001,-12.25,0.933976771,4.622650212,0,0,0.0,756000,39.871413700000005,32.7364371,-279.8501459,81.530549,-51.45031933,1.2463353940000002,-13.05411246,0.122805086,-2.234808197,1.07523894,-0.07566067900000001,51.50961933,0.092137522,0.283618731,-0.007384176,0.18652934,144259021,0,0,0,0,1
3569,144302973,0.019256746,0.310449414,-0.0077295,0.18393084,1.0,1494.0,2000.0,1186.0,1490.0,1509.0,1656.0,11.97619353,12.24013724,12.14811098,12.11659291,12.38374524,10.98457036,11.2267631,90.8422688,90.8422688,12.07377721,-0.000790353,-0.006212338,-0.000134268,-0.263252922,0.18820951,-0.00250203,2.0,7.281256251,8.281256251,11,0,0,1,0,0.0,0,0,0,0,0,-0.004274748,0.13898016300000002,-1.665538428,-1.576419341,3.197075837,575.7630125,35.16065565,0.00012298,0.149786096,-0.006005665,0.0,-0.149344717,0.062524955,-9.470021487,82382296.0,960.3549341,12.07657915,0.11919964300000001,-0.024615168,-0.073994956,-0.19875947,0.063488574,-9.385930162000001,0.11998400099999999,-0.026397717999999997,-0.05849147,82382296.0,50.111397,51.08871028,-0.048865671,-0.7228388659999999,10.22714469,12.15413266,-0.038539759,-0.638612827,-0.356377121,115.18032340000002,450.2242131,12.07629517,96032.83817999999,1.141029025,0.288500038,-0.092592485,0.388658446,0.11757893900000001,-0.016180777,-0.082339285,0.015602865,0.142515271,-1.662594484,0.6717767920000001,0.057843566,0.042230642,-0.7372831320000001,0.182973777,398688948.8,327371745.2,450804.8296,12.29321664,-1.135667066,-12.25,0.9546168890000001,4.6197028389999995,0,0,0.0,756000,39.871413700000005,32.7364371,-279.80639410000003,81.028125,-51.44705869,1.159906575,-13.01293574,0.126185992,-2.2213022380000003,1.074946635,0.058685583,51.50635869,0.10651665199999999,0.28594574100000003,-0.019378358999999998,0.18781418,144302973,0,0,0,0,1
3570,144347953,0.017192672,0.313620857,-0.009538228000000001,0.18566644,1.0,1491.0,2000.0,1187.0,1487.0,1512.0,1655.267854,12.09853151,12.36533304,12.13526832,12.10375546,12.3706116,10.97235973,11.21427129,90.682826,90.682826,12.07394075,-0.000790135,-0.006211751,-0.000134274,-0.26330538600000003,0.188259158,-0.002456186,2.0,7.283856771,8.283856771,11,0,0,1,0,0.0,0,0,0,0,0,-0.000205204,0.13954461599999998,-1.6646967369999999,-1.57640055,3.166410407,575.2886119,35.14813485,0.000106179,0.150513952,-0.005950989,0.0,-0.151539716,0.064076126,-9.487624203,82382296.0,960.3571142000001,12.07684764,0.12393512300000001,-0.02464346,-0.06487976200000001,-0.204982885,0.038667243999999996,-9.410318843999999,0.12049189099999999,-0.027011986,-0.052769988,82382296.0,50.111397,51.06454567,-0.047657443,-0.7480744970000001,10.225332400000001,12.14305082,-0.038354368,-0.612796528,-0.356584816,115.2230845,449.9937907,12.07653859,96035.45573,1.141060049,0.334917687,0.6721357020000001,-0.368400354,0.119575474,-0.01465675,-0.073141582,0.017778507,0.143217385,-1.6626285630000002,0.671681786,0.058833555,0.041663717999999995,-0.7373237690000001,0.183420778,398688944.8,327371690.3,450769.929,12.29134027,-1.173194552,-12.25,0.9752570079999999,4.616755466,0,0,0.0,756000,39.871413700000005,32.7364371,-279.76484669999996,80.53362458,-51.44385695,1.075395181,-12.97275881,0.131721865,-2.214862566,1.08375804,0.194875493,51.50315695,0.10174418,0.287127696,-0.017521153,0.1882191,144347953,0,0,0,0,1
3571,144382419,0.015737586,0.314958208,-0.01046975,0.18652934,1.0,1491.0,2000.0,1188.0,1488.0,1511.0,1657.0,11.95009406,12.2134166,12.12242567,12.09091802,12.35747796,10.96014911,11.20177948,90.52338320000001,90.52338320000001,12.0741043,-0.000789917,-0.006211164,-0.00013428,-0.26335785,0.188308805,-0.002410341,2.0,7.2864572910000005,8.286457291,11,0,0,1,0,0.0,0,0,0,0,0,0.00386434,0.140109068,-1.663855045,-1.57638176,3.135744977,574.8142113,35.13561406,8.8e-05,0.151147998,-0.005907452,0.0,-0.153734714,0.065627296,-9.505226919,82382296.0,960.3592943,12.07711614,0.120522895,-0.023125837000000003,-0.059958650999999995,-0.149686866,0.083146857,-9.446177273,0.12099978199999999,-0.027626254,-0.047048507,82382296.0,50.111397,51.03610653,-0.046235486,-0.770110849,10.22471394,12.14345007,-0.038374723,-0.586842137,-0.356781656,115.26942939999999,450.0058484,12.07683057,96035.34578999999,1.1410587890000001,-0.120313134,-0.342607984,0.53626482,0.126158511,-0.011442965,-0.06279069999999999,0.019703689,0.143925844,-1.662658438,0.6715941,0.05974155900000001,0.041191341,-0.737357116,0.183895495,398688940.7,327371635.0,450733.0984,12.29,-1.209649835,-12.24839162,0.9958971320000001,4.613817453999999,0,0,0.0,756000,39.871413700000005,32.7364371,-279.7248665,80.02853847,-51.44029738,0.989861305,-12.93251094,0.139754477,-2.199990218,1.079534692,0.312759065,51.49959715,0.09886181699999999,0.289188589,-0.015473737,0.18905991,144382419,0,0,0,0,1
3572,144416885,0.022442606,0.31325528,-0.017126963000000002,0.18781418,1.0,1492.0,2000.0,1188.0,1489.0,1510.0,1657.0,11.91339983,12.17582661,12.10958302,12.07808057,12.34434432,10.94793848,11.18928768,90.3639404,90.3639404,12.07426785,-0.000789698,-0.0062105780000000005,-0.000134286,-0.263410313,0.18835845199999998,-0.0023644960000000002,2.0,7.289057812,8.289057812000001,11,0,0,1,0,0.0,0,0,0,0,0,0.007933884,0.14067352,-1.663013354,-1.576362969,3.105079547,574.3398107,35.12309326,6.6e-05,0.151832637,-0.00587977,0.0,-0.161383847,0.066709308,-9.543693572999999,82382296.0,960.3633082,12.07738464,0.116102371,-0.020292183999999998,-0.060813739000000006,-0.199920375,0.09419696,-9.488878782,0.11845873400000001,-0.026181144,-0.044915708,82382296.0,50.111397,51.0076674,-0.044813528,-0.792147202,10.22409549,12.14384932,-0.038395077,-0.560887745,-0.35697849600000003,115.3157743,449.9540142,12.07709255,96035.91719,1.14106553,0.211330522,-0.38816793200000005,0.32800887,0.123732381,-0.008761471,-0.059659855,0.021535717000000003,0.144555822,-1.6626960030000002,0.671507425,0.060589427,0.040726643,-0.7373926390000001,0.185211515,398688936.0,327371578.9,450691.4429,12.29,-1.243424609,-12.24276231,1.01653727,4.610902843,0,0,0.0,756000,39.871413700000005,32.7364371,-279.6888042,79.4969881,-51.4358432,0.901771223,-12.89208572,0.154028936,-2.1640361809999997,1.042724465,0.384876793,51.49514219,0.093777333,0.290013499,-0.013392466,0.18975821,144416885,0,0,0,0,1
3573,144455351,0.021707721,0.314424631,-0.016197395,0.1882191,1.0,1492.0,2000.0,1189.0,1490.3428689999998,1508.6571310000002,1659.0,12.06360165,12.32935016,12.09674036,12.06524312,12.33121068,10.93572785,11.17679587,90.2044976,90.2044976,12.07443139,-0.00078948,-0.006209991,-0.00013429299999999998,-0.263462777,0.18840810000000002,-0.002318652,2.0,7.291658332000001,8.291658332,11,0,0,1,0,0.0,0,0,0,0,0,0.01137602,0.141291768,-1.6621450880000002,-1.5763441180000002,3.074414117,573.8660818,35.12139356,4.18e-05,0.152548238,-0.005850079,0.0,-0.173703415,0.06738957400000001,-9.600026241,82382296.0,960.3688924,12.07765314,0.120551119,-0.020403846,-0.050850542,-0.13342853300000002,0.093906078,-9.55631793,0.113306848,-0.022972568,-0.045855937,82382296.0,50.111397,50.97922827,-0.043391571,-0.814183555,10.22347703,12.14424858,-0.038415431,-0.534933354,-0.357175336,115.36211909999999,449.9093688,12.07736083,96036.44857000001,1.141071875,0.033197546,-0.235222767,0.253745158,0.12051464199999999,-0.007967693,-0.060316762999999995,0.024012371,0.145181358,-1.661861244,0.6717199890000001,0.061636185,0.040051312,-0.7371463859999999,0.186594058,398688931.3,327371522.8,450649.7874,12.29,-1.277199383,-12.237133,1.037177407,4.607988231,0,0,0.0,756000,39.871413700000005,32.7364371,-279.6527418,78.96543773,-51.43138902,0.81368114,-12.85166051,0.168303394,-2.128082144,1.005914238,0.45699452,51.49068722,0.09065913,0.29172337600000003,-0.011362981000000001,0.19117382,144455351,0,0,0,0,1
3574,144489817,0.018611421,0.317315097,-0.015786836000000002,0.18905991,1.0,1492.367874,2000.0,1190.0,1491.367874,1507.632126,1659.0,12.03410934,12.29919603,12.08389771,12.05240567,12.31807704,10.92351723,11.16430406,90.04505479999999,90.04505479999999,12.07459494,-0.000789262,-0.006209404,-0.000134299,-0.263515241,0.18845774699999998,-0.002272807,2.0,7.2942588520000005,8.294258852,11,0,0,1,0,0.0,0,0,0,0,0,0.013938207,0.141985464,-1.6612395519999998,-1.576325183,3.043748687,573.3932951,35.13487062,2.2800000000000002e-05,0.15316929099999999,-0.005817861999999999,0.0,-0.186022983,0.06806984099999999,-9.65635891,82382296.0,960.3744765,12.07792164,0.119173911,-0.016266851000000002,-0.052632183,-0.185851906,0.134185249,-9.503457587,0.108154963,-0.019763991,-0.04679616599999999,82382296.0,50.111397,50.95078914,-0.041969612999999996,-0.836219907,10.22285858,12.14464783,-0.038435785,-0.508978963,-0.35737217600000004,115.408464,449.87298930000003,12.07764651,96036.88181,1.141077022,-0.06611308099999999,0.912756435,0.497958044,0.120705849,-0.008042222,-0.05394212599999999,0.036636769,0.145831289,-1.6506510540000001,0.675421402,0.065911659,0.035984615,-0.7335984870000001,0.187685939,398688926.6,327371466.7,450608.1318,12.29,-1.310974156,-12.23150368,1.0578175440000002,4.60507362,0,0,0.0,756000,39.871413700000005,32.7364371,-279.6247624,78.46688666,-51.42617341,0.732685015,-12.81639254,0.186014013,-2.093250458,0.9530348790000001,0.506102865,51.48547141,0.08566765900000001,0.29255738800000003,-0.008949203000000001,0.1918838,144489817,0,0,0,0,1
3575,144528283,0.015980065,0.318991774,-0.014736611,0.18980791100000002,1.0,1493.0,2000.0,1191.0,1493.0,1506.0,1660.0,12.05536035,12.32077992,12.07105505,12.03956823,12.3049434,10.9113066,11.15181226,89.885612,89.885612,12.07475849,-0.000789043,-0.006208816999999999,-0.000134305,-0.26356770399999996,0.188507395,-0.0022269620000000003,2.0,7.296859372,8.296859372,11,0,0,1,0,0.0,0,0,0,0,0,0.016500393000000002,0.14267916,-1.660334015,-1.5763062469999998,3.0130832560000003,572.9205084,35.14834768,1.09e-05,0.153894199,-0.005783735999999999,0.0,-0.19305112,0.074903859,-9.651549631,53262572.92,960.3801137,12.07819014,0.115021204,-0.019387477,-0.047532943,-0.156885546,-0.024884217,-9.548648502,0.10875794400000001,-0.018610658999999998,-0.040520588999999996,53262572.92,50.111397,50.92235001,-0.040547656,-0.85825626,10.22224012,12.14504708,-0.038456139,-0.48302457200000004,-0.357569016,115.4548088,449.8178968,12.07793849,96037.50466,1.141084446,0.5797746429999999,-0.421430245,0.33074744699999997,0.118102443,-0.000246685,-0.050038842,0.038143587,0.14655658,-1.650660189,0.675345124,0.066686037,0.035677263,-0.7336136440000001,0.188326606,398688921.9,327371410.6,450566.4763,12.29,-1.34474893,-12.22587437,1.078457682,4.602159009,0,0,0.0,756000,39.871413700000005,32.7364371,-279.5995601,77.97967347,-51.42069619,0.654126226,-12.78289648,0.204905224,-2.058804388,0.894634499,0.547305664,51.47999419,0.080398183,0.293990961,-0.006418002,0.19258785,144528283,0,0,0,0,1
3576,144562749,0.015223868,0.32057952100000003,-0.014196186999999999,0.19117382,1.0,1494.0,2000.0,1192.0,1493.0,1506.0,1659.0,12.02666886,12.29160036,12.0582124,12.02673078,12.29180976,10.89909598,11.13932045,89.7261692,89.7261692,12.07492203,-0.000788825,-0.00620823,-0.000134311,-0.263620168,0.18855704199999998,-0.002181117,2.0,7.299459892000001,8.299459892,11,0,0,1,0,0.0,0,0,0,0,0,0.01906258,0.143372857,-1.659428479,-1.576287311,2.9824178260000003,572.4477217,35.16182473,-2.06e-06,0.154504546,-0.005763994000000001,0.0,-0.19964504100000002,0.082242854,-9.641723045,21753285.69,960.3857552000001,12.07845863,0.10981872599999999,-0.007664771,-0.043252578,-0.191376783,0.13241809400000001,-9.613968392,0.10983316900000001,-0.017625979,-0.033652884,21753285.69,50.111397,50.88801902,-0.038831108999999996,-0.879476886,10.22186383,12.15357802,-0.038634284,-0.4568362,-0.357777588,115.51207179999999,449.8256346,12.07820025,96037.40913,1.1410832640000002,-0.301656092,-0.140487211,0.5547725,0.11749539699999999,-0.008675667,-0.041873046000000004,0.039538179,0.147289649,-1.650646516,0.675279935,0.067424864,0.03541446,-0.73361888,0.188997418,398688917.2,327371354.5,450524.8208,12.29,-1.378523704,-12.22024506,1.099097819,4.599244398,0,0,0.0,756000,39.871413700000005,32.7364371,-279.57565560000006,77.48485621,-51.41467414,0.574916041,-12.74929922,0.224478454,-2.0205552,0.85902466,0.587161079,51.4739723,0.09216187599999999,0.295226631,-0.003937399,0.193412,144562749,0,0,0,0,1
3577,144605215,0.013473173,0.319163848,-0.012497973999999999,0.19223312,1.0,1494.0,2000.0,1193.0,1490.0,1509.0,1660.0,12.02278348,12.28750586,12.04536974,12.01389333,12.27867612,10.88688535,11.12682865,89.56672640000001,89.56672640000001,12.07508558,-0.000788607,-0.0062076430000000005,-0.000134317,-0.263672632,0.188606689,-0.002135273,2.0,7.302060412,8.302060412000001,11,0,0,1,0,0.0,0,0,0,0,0,0.021624767000000003,0.144066553,-1.6585229430000001,-1.576268376,2.9517523960000003,571.974935,35.17530179,-2.3e-05,0.155173074,-0.00574436,0.0,-0.17023193600000003,0.07673046900000001,-9.64461682,12.07873069,960.3913493999999,12.07873069,0.119243962,-0.008141128000000001,-0.03885798,-0.078140393,0.061438100999999995,-9.622907344,0.110879387,-0.015891794,-0.028052137,9756025.697999999,50.111397,50.85153311,-0.037006817000000004,-0.900399162,10.22157611,12.16508311,-0.038870141000000004,-0.430562251,-0.357990451,115.5733281,449.89122599999996,12.07849245,96036.67184,1.141074471,0.37798087799999996,0.040728156,0.549806696,0.11315259,-0.005202345,-0.044259308,0.040766917,0.147990839,-1.65066073,0.6752103709999999,0.068096468,0.035200765,-0.733631165,0.190072281,398688912.3,327371300.5,450482.6269,12.29358854,-1.399737948,-12.22179354,1.1089717940000001,4.59758241,0,0,0.0,756000,39.871413700000005,32.7364371,-279.5568512,76.96015631,-51.40651103,0.49314598200000004,-12.71530423,0.246731902,-1.9673604219999998,0.9129776490000001,0.621721513,51.46580998,0.08725237300000001,0.296605986,-0.001746535,0.19422111,144605215,0,0,0,0,1
3578,144651363,0.018492738,0.320850183,-0.011028528000000001,0.192999022,1.0,1494.467894,2000.0,1193.0,1490.532106,1508.467894,1660.467894,12.04566628,12.31090172,12.03252709,12.00105588,12.26554247,10.87467472,11.11433684,89.40728359999999,89.40728359999999,12.07524913,-0.0007883889999999999,-0.006207056,-0.000134323,-0.263725095,0.18865633699999998,-0.002089428,2.0,7.304660932000001,8.304660932,11,0,0,1,0,0.0,0,0,0,0,0,0.024186952999999997,0.14476025,-1.657617406,-1.57624944,2.9210869660000003,571.5021482999999,35.18877885,-4.9e-05,0.155834587,-0.005732921,0.0,-0.060532895,0.042562981,-9.675873565,12.07901066,960.3968379,12.07901066,0.110474432,-0.009217589,-0.033241278,-0.073222711,0.071686305,-9.655522142999999,0.111860923,-0.012486411000000001,-0.025276366,41265312.93,50.111397,50.81504719,-0.035182525,-0.921321437,10.22128839,12.17658819,-0.039105997999999996,-0.40428830200000004,-0.358203314,115.63458440000001,449.7505659,12.07878443,96038.27937999999,1.141093589,0.03044739,-0.066928904,0.807105308,0.11898900000000001,0.00046612199999999997,-0.036565817,0.042014255,0.148695198,-1.650672549,0.6751403559999999,0.068775397,0.034981389,-0.733642778,0.19120321899999998,398688907.5,327371246.6,450440.4085,12.297341099999999,-1.420378076,-12.2236701,1.118353671,4.595977678,0,0,0.0,756000,39.871413700000005,32.7364371,-279.5380469,76.4354564,-51.39834792,0.411375923,-12.68130925,0.268985349,-1.914165643,0.966930637,0.656281947,51.45764765,0.082263691,0.297028905,0.000272249,0.19463569,144651363,0,0,0,0,1
3579,144690148,0.017900757,0.321735151,-0.010327878,0.193412,1.0,1495.0,2000.0,1194.0,1492.492899,1506.507101,1661.0,12.10808653,12.37470368,12.03561578,12.00429368,12.26883382,10.87695075,11.1166469,89.39333624,89.39333624,12.07550181,-0.00078817,-0.00620647,-0.000134329,-0.263777559,0.188705984,-0.002043583,2.0,7.3072614520000005,8.307261452,11,0,0,1,0,0.0,0,0,0,0,0,0.02674914,0.145453946,-1.65671187,-1.576230504,2.8904215360000003,571.0293616,35.20225591,-7.56e-05,0.156549728,-0.005720963000000001,0.0,0.049166145999999994,0.008395494,-9.707130309,12.07929063,960.4023265000001,12.07929063,0.11514903800000001,-0.012710636,-0.025800784,-0.12422726,0.083513621,-9.701854503,0.112842459,-0.009081029000000001,-0.022500595,72774600.16,50.111397,50.77856128,-0.033358234,-0.942243713,10.22100067,12.18809328,-0.039341855,-0.37801435200000005,-0.358416177,115.69584070000002,449.7321442,12.07907641,96038.52433,1.141096597,0.37533385399999997,-0.11064309900000001,0.353239972,0.11505872699999999,0.001192627,-0.034181808,0.043088903,0.14942650300000002,-1.6506767619999998,0.67507749,0.069405699,0.034834741,-0.733648209,0.192105732,398688902.6,327371192.8,450398.19,12.30109366,-1.4410182040000001,-12.22554666,1.1277355470000001,4.594372946,0,0,0.0,756000,39.871413700000005,32.7364371,-279.5248015,75.93994792,-51.38905063,0.336028294,-12.65093099,0.29213179699999997,-1.881929171,0.91463248,0.655202529,51.44835063,0.077315146,0.29800819100000003,0.0022926129999999998,0.19569895,144690148,0,0,0,0,1
3580,144732614,0.015365503999999999,0.323475509,-0.009045987,0.19422111,1.0,1496.0,2000.0,1195.0,1494.0,1505.0,1662.0,12.09589421,12.36226049,12.043505699999999,12.01237607,12.27707516,10.88359262,11.12341781,89.42323682,89.42323682,12.07578135,-0.000787952,-0.006205883000000001,-0.000134335,-0.263830023,0.188755631,-0.001997739,2.0,7.309861972,8.309861972,11,0,0,1,0,0.0,0,0,0,0,0,0.029311327,0.146147642,-1.655806334,-1.5762115680000002,2.8597561060000003,570.5565749,35.21573297,-0.00010185,0.157200548,-0.005712798000000001,0.0,0.075615666,-0.005334156,-9.763843291,21901603.46,960.4034948999999,12.07957087,0.111275099,-0.007209736,-0.025718002,-0.090207303,0.081079178,-9.759997028999999,0.11177302800000001,-0.004795613,-0.019737662,82382296.0,50.111397,50.74207536,-0.031533942,-0.9631659890000001,10.22071295,12.19959836,-0.039577712,-0.351740403,-0.35862904,115.757097,449.57455989999994,12.07936839,96040.3043,1.141117664,-0.28056927,0.630283471,0.7398043059999999,0.113285124,-0.001043485,-0.026835426000000002,0.046682935999999994,0.150182029,-1.647909686,0.6759360759999999,0.070852375,0.033874729,-0.732756162,0.192690263,398688897.7,327371138.9,450355.9716,12.30484623,-1.4616583319999998,-12.22742323,1.137117423,4.592768213,0,0,0.0,756000,39.871413700000005,32.7364371,-279.5144019,75.45938295,-51.37917274,0.263968396,-12.62240417,0.315735384,-1.8604215469999998,0.807942884,0.635878574,51.43847274,0.071963878,0.298716912,0.004456774,0.1969836,144732614,0,0,0,0,1
3581,144771080,0.011217491999999999,0.324633515,-0.008016661,0.19496928800000002,1.0,1496.0,2000.0,1195.0,1495.0,1504.0,1663.0,12.11815857,12.38492354,12.05139563,12.02045847,12.285316499999999,10.89023448,11.13018871,89.4531374,89.4531374,12.0760609,-0.0007877339999999999,-0.006205296,-0.000134341,-0.263882486,0.188805279,-0.001951894,2.0,7.312462492000001,8.312462492,11,0,0,1,0,0.0,0,0,0,0,0,0.031873514,0.14684133900000002,-1.6549007969999998,-1.576192633,2.829090675,570.0837882000001,35.22921002,-0.000124655,0.157850548,-0.00570457,0.0,0.065545643,-0.010098223,-9.831723307,53410890.69,960.4027682,12.07985123,0.108983502,-0.004759789,-0.014882392,-0.048212635999999996,-0.001002844,-9.706818004,0.109803888,-0.00012414700000000002,-0.01698036,82382296.0,50.111397,50.70565187,-0.02971277,-0.9818102470000001,10.22059618,12.20763655,-0.039740812,-0.32733636899999996,-0.358827804,115.81901859999999,449.5769022,12.07966037,96040.27747,1.141117368,0.18310020100000002,0.5163443,0.09737868599999999,0.117713444,0.00695388,-0.02385998,0.05675224,0.150916032,-1.638623676,0.678944471,0.074376238,0.030775436,-0.7297638879999999,0.19334526100000002,398688892.8,327371085.1,450313.7532,12.30859879,-1.48229846,-12.22929979,1.1464993,4.591163481000001,0,0,0.0,756000,39.871413700000005,32.7364371,-279.5047991,74.9743835,-51.36890868,0.191639802,-12.59396593,0.339537266,-1.8418305080000001,0.713950469,0.620483401,51.42820868,0.066978468,0.29863459800000003,0.006293895,0.19764009,144771080,0,0,0,0,1
3582,144809546,0.009709429,0.326507952,-0.007577512,0.19569895,1.0,1496.0,2000.0,1196.0,1495.0,1504.0,1663.0,12.08596918,12.35192665,12.05928555,12.02854086,12.29355784,10.89687635,11.13695961,89.48303798,89.48303798,12.07634045,-0.000787515,-0.006204709,-0.00013434700000000002,-0.26393495,0.188854926,-0.001906049,2.0,7.315063013,8.315063013,11,0,0,1,0,0.0,0,0,0,0,0,0.0344357,0.147535035,-1.653995261,-1.576173697,2.798425245,569.6110014999999,35.24268708,-0.000140143,0.158502101,-0.005708269,0.0,0.054046937,-0.012763377,-9.891792976,82382296.0,960.4027919,12.08013719,0.108312638,0.003597467,-0.016497899,5.65e-05,0.043663445,-9.809482284,0.10776175,0.004339073,-0.014212427,82382296.0,50.111397,50.66931466,-0.02789591,-0.99730565,10.22071571,12.21088252,-0.039803341,-0.30551707899999997,-0.35900708,115.88185990000001,449.5130568,12.07995335,96041.03505,1.141126382,0.232026218,0.310363838,0.638515708,0.113391732,0.00637678,-0.018477715,0.057464804,0.151676907,-1.638594184,0.678901174,0.07489417599999999,0.030776029,-0.729751257,0.193983665,398688887.6,327371030.4,450269.888,12.31470394,-1.498233647,-12.23117624,1.151176235,4.589948859,0,0,0.0,756000,39.871413700000005,32.7364371,-279.50104139999996,74.45685828,-51.35581214,0.117340397,-12.56617728,0.36479359299999997,-1.844631879,0.713088644,0.633904853,51.41511214,0.078381788,0.29920579,0.008272785999999999,0.19894168,144809546,0,0,0,0,1
3583,144848024,0.008955535,0.327470358,-0.006864935,0.1969836,1.0,1497.0,2000.0,1198.0,1497.0,1502.0,1663.0,12.06528214,12.33084436,12.06717547,12.03662325,12.30179918,10.90351822,11.14373051,89.51293856,89.51293856,12.07661999,-0.000787297,-0.006204121999999999,-0.000134353,-0.263987414,0.188904574,-0.001860205,2.0,7.317663532999999,8.317663533,11,0,0,1,0,0.0,0,0,0,0,0,0.036997887,0.148228732,-1.653089724,-1.576154761,2.767759815,569.1382147999999,35.25616414,-0.000159198,0.159118667,-0.005709285,0.0,0.026238964,0.00853178,-9.862702961,82382296.0,960.4113822999999,12.08048715,0.104304424,0.002018462,-0.014917953999999999,0.049786435999999996,0.071097971,-9.719406382,0.104886299,0.006425052,-0.011323129,82382296.0,50.111397,50.63297745,-0.02607905,-1.012801053,10.22083524,12.21412849,-0.039865871000000004,-0.283697789,-0.359186355,115.94470109999999,449.4590262,12.08024533,96041.6552,1.141133734,0.041462603,-0.139568838,0.285558495,0.110364634,0.012117261,-0.013604487,0.058118240999999994,0.152435333,-1.638594924,0.67884873,0.075391585,0.030796234,-0.7297479590000001,0.194640457,398688882.1,327370975.3,450225.0426,12.32220944,-1.511368274,-12.23305261,1.153052611,4.588966445,0,0,0.0,756000,39.871413700000005,32.7364371,-279.49728369999997,73.93933307,-51.34271559,0.043040990999999994,-12.53838864,0.39004992,-1.847433251,0.7122268190000001,0.647326305,51.40201559,0.071802255,0.299683128,0.01065145,0.20004463,144848024,0,0,0,0,1
3584,144888956,0.006241629,0.32761031399999996,-0.00574076,0.198054533,1.0,1497.0,2000.0,1198.6179240000001,1492.0,1507.0,1663.6179240000001,12.17959452,12.44754935,12.07506539,12.04470564,12.31004052,10.91016008,11.15050141,89.54283914,89.54283914,12.07689954,-0.000787079,-0.006203535,-0.000134359,-0.264039877,0.188954221,-0.00181436,2.0,7.320264053,8.320264052999999,11,0,0,1,0,0.0,0,0,0,0,0,0.039560074,0.148922428,-1.652184188,-1.576135826,2.737094385,568.6654281000001,35.2696412,-0.000182032,0.159772564,-0.005712386,0.0,-0.001569008,0.029826937,-9.833612946,82382296.0,960.4199728,12.08083712,0.10448746099999999,0.0024877989999999997,-0.015343316000000001,0.02023736,0.064430167,-9.765908362000001,0.102010849,0.008511031,-0.008433831999999999,82382296.0,50.111397,50.59664025,-0.02426219,-1.0282964559999999,10.22095477,12.21737446,-0.039928399999999996,-0.261878499,-0.359365631,116.0075424,449.361676,12.08053731,96042.7655,1.141146959,-0.09448612599999999,0.179134975,0.5084463929999999,0.108916101,0.012878645,-0.014030883999999999,0.058483072000000004,0.153184225,-1.63860073,0.6788052929999999,0.075787619,0.030918297,-0.729742131,0.19545005399999998,398688876.7,327370920.1,450180.1972,12.32971494,-1.524502901,-12.23492899,1.154928986,4.587984031,0,0,0.0,756000,39.871413700000005,32.7364371,-279.497635,73.44625379,-51.32828982,-0.025367481,-12.51357554,0.41612612200000004,-1.8050698859999998,0.693021323,0.6723882390000001,51.3875896,0.065798825,0.300018695,0.012393386000000001,0.20082244,144888956,0,0,0,0,1
3585,144928944,0.014048103000000001,0.327877353,-0.004866282,0.19894168,1.0,1498.0,2000.0,1200.0,1495.0,1504.0,1664.0,12.024742800000002,12.289309900000001,12.08295531,12.05278804,12.31828186,10.91680195,11.15727232,89.57273972,89.57273972,12.07717908,-0.00078686,-0.006202948000000001,-0.000134365,-0.264092341,0.18900386800000002,-0.001768515,2.0,7.3228645729999995,8.322864573,11,0,0,1,0,0.0,0,0,0,0,0,0.04212226,0.14961612400000002,-1.6512786519999998,-1.57611689,2.706428955,568.1926414,35.28311825,-0.000207347,0.160390545,-0.005730766,0.0,-0.00459675,0.045401804000000004,-9.828258038,82382296.0,960.4270731,12.08115465,0.100020064,-0.000788321,-0.005753571,0.082660403,0.054504549000000006,-9.875730065,0.098637026,0.009319351,-0.0039572290000000005,82382296.0,50.111397,50.56030304,-0.02244533,-1.0437918590000002,10.2210743,12.22062043,-0.03999093,-0.240059209,-0.359544906,116.07038370000001,449.4156191000001,12.08082929,96042.1248,1.1411393509999999,-0.003144282,0.49378356100000004,0.31484882399999997,0.10475581699999999,0.015079813999999999,-0.0115245,0.058782746,0.153918413,-1.638602499,0.67876628,0.0761561,0.031059272000000002,-0.7297341279999999,0.19646428800000001,398688871.3,327370864.9,450135.3519,12.33722044,-1.537637528,-12.23680536,1.156805361,4.587001617,0,0,0.0,756000,39.871413700000005,32.7364371,-279.5009796,72.97098268,-51.31289576,-0.08948457900000001,-12.49093006,0.44279957799999997,-1.72980532,0.6604529929999999,0.705929925,51.37219514,0.061122395999999996,0.299947767,0.013895979,0.20111997,144928944,0,0,0,0,1
3586,144979410,0.010352843,0.328679114,-0.0037423879999999997,0.20004463,1.0,1498.0,2000.0,1200.0,1496.0,1503.0,1663.0,12.09467539,12.36078436,12.09084524,12.06087043,12.326523199999999,10.92344381,11.16404322,89.60264029999999,89.60264029999999,12.07745863,-0.0007866110000000001,-0.006202427,-0.00013429299999999998,-0.264146733,0.189051601,-0.0017397329999999998,2.0,7.325465092999999,8.325465093,11,0,0,1,0,0.0,0,0,0,0,0,0.044494469,0.150330026,-1.6500663930000001,-1.5760910609999998,2.66507226,567.7187978,35.30203905,-0.00023589900000000003,0.16102202699999998,-0.005754043,0.0,0.020771259,0.054421770999999994,-9.85010127,82382296.0,960.432466,12.081435,0.098619446,0.0042502009999999995,-0.01051004,0.077813464,0.08422690199999999,-9.834328844,0.094692118,0.008663598,0.002338273,82382296.0,50.111397,50.52369576,-0.020614968,-1.058715472,10.22123224,12.22363094,-0.040047982,-0.218488492,-0.359722996,116.13410559999998,449.30041229999995,12.08112127,96043.45986,1.141155159,0.004903827,-0.05612515,0.815773752,0.101838754,0.012161182,-0.006800696,0.059059988,0.154653121,-1.638604172,0.6787278179999999,0.07651715,0.031208611,-0.7297257420000001,0.19750403800000002,398688865.8,327370809.8,450090.5065,12.34472595,-1.5507721540000001,-12.23868174,1.158681736,4.586019203,0,0,0.0,756000,39.871413700000005,32.7364371,-279.5046001,72.49429772,-51.29733373,-0.153660433,-12.46831283,0.46956062,-1.656349588,0.627108676,0.739135975,51.35663273,0.056057927,0.300270768,0.01573373,0.20157874,144979410,0,0,0,0,1
3587,145021876,0.007385300000000001,0.32672592899999997,-0.002830212,0.20082244,1.0,1498.0,2000.0,1201.0,1496.692939,1502.307061,1663.0,12.1447994,12.4118909,12.09873516,12.06895282,12.33476454,10.93008568,11.17081412,89.63254088,89.63254088,12.07773818,-0.000786298,-0.006202037,-0.000134064,-0.26420504300000003,0.189095443,-0.0017456179999999998,2.0,7.328065613,8.328065613,11,0,0,1,0,0.0,0,0,0,0,0,0.04648069,0.15108498,-1.648230951,-1.576051225,2.601993629,567.2428070000001,35.33202012,-0.000261217,0.161649662,-0.0057776880000000004,0.0,0.046139268,0.063441738,-9.871944503,82382296.0,960.437859,12.08171536,0.104203289,0.008467566999999999,0.00115853,-0.015270917,0.10151970099999999,-9.925711259,0.09074720900000001,0.008007845,0.008633774,82382296.0,50.111397,50.48484238,-0.018672301999999998,-1.068883599,10.22170961,12.22468319,-0.040059477999999996,-0.198985122,-0.35989122,116.20515209999999,449.28452230000005,12.08141331,96043.63974,1.141157327,-0.14090076199999998,-0.706021647,0.32110859199999997,0.105169852,0.013303448999999998,-0.002135207,0.06377417,0.155375755,-1.6339791259999998,0.6801982670000001,0.078315487,0.029921839,-0.728208383,0.19855368,398688860.3,327370754.3,450045.6053,12.35334773,-1.56334867,-12.24390673,1.16,4.585095207,0,0,0.0,756000,39.871413700000005,32.7364371,-279.51538139999997,71.98093,-51.27741387,-0.219360735,-12.44642872,0.49859406700000003,-1.629824402,0.5736312179999999,0.76363388,51.33671287,0.050573929000000004,0.300059552,0.017556286,0.20290959,145021876,0,0,0,0,1
3588,145060342,0.006093391,0.327779539,-0.002584709,0.201303,1.0,1499.0,2000.0,1201.0,1498.0,1501.0,1665.0,12.1184185,12.38499277,12.10662508,12.07703521,12.34300588,10.93672755,11.17758502,89.66244146,89.66244146,12.07801772,-0.000785986,-0.006201648000000001,-0.000133834,-0.264263354,0.189139285,-0.001751503,2.0,7.330666132999999,8.330666133,11,0,0,1,0,0.0,0,0,0,0,0,0.048466912,0.151839934,-1.646395509,-1.57601139,2.538914998,566.7668162,35.3620012,-0.000283989,0.16227374,-0.005800486999999999,0.0,0.07233426400000001,0.069718942,-9.945964175,82382296.0,960.4382497000001,12.08198545,0.097811071,0.012482676000000002,0.001629419,-0.011737933999999998,0.026227431000000002,-9.861626196,0.09192037300000001,0.008831761,0.011351358,82382296.0,50.111397,50.44598901,-0.016729636000000003,-1.0790517259999999,10.22218698,12.22573544,-0.040070974,-0.17948175100000002,-0.360059444,116.2761987,449.28002230000004,12.08170609,96043.70075,1.141157975,0.114617866,-0.593046889,0.141808823,0.10430428900000001,0.017532626000000003,-0.0038305270000000002,0.071101045,0.156101977,-1.6266491159999998,0.6825485240000001,0.08096337599999999,0.027793437,-0.7258098709999999,0.199477242,398688854.7,327370698.0,450000.5723,12.36460616,-1.574606921,-12.25704116,1.16,4.584309193,0,0,0.0,756000,39.871413700000005,32.7364371,-279.5261628,71.46756228,-51.25749401,-0.285061038,-12.42454462,0.527627514,-1.603299216,0.520153761,0.788131785,51.31679301,0.045946932,0.299150102,0.019054492,0.20357919,145060342,0,0,0,0,1
3589,145094809,0.003389842,0.330571894,-0.0019521789999999999,0.20157874,1.0,1499.0,2000.0,1202.0,1498.0,1501.0,1665.0,12.09146843,12.35742019,12.114514999999999,12.08511761,12.35124722,10.94336941,11.18435593,89.69234204,89.69234204,12.07829727,-0.000785674,-0.006201258,-0.000133605,-0.264321664,0.18918312699999998,-0.001757388,2.0,7.333266653,8.333266652999999,11,0,0,1,0,0.0,0,0,0,0,0,0.050453133,0.152594888,-1.644560068,-1.575971555,2.475836367,566.2908254,35.39198228,-0.000303948,0.162896453,-0.0058371180000000005,0.0,0.098673525,0.075517678,-10.02908588,82382296.0,960.4377677000001,12.08225376,0.089989706,0.014991032,0.004515986,0.00015800700000000002,0.122375144,-9.936557896,0.093986369,0.009913802,0.013444785,82382296.0,50.111397,50.40713563,-0.014786971000000001,-1.089219853,10.22266435,12.22678769,-0.04008247,-0.159978381,-0.360227669,116.3472452,449.22897710000007,12.08199821,96044.28946,1.141165008,-0.16852596399999997,-0.658916772,0.244020373,0.103952272,0.017468719,0.0027491770000000002,0.071068805,0.156854376,-1.626626664,0.6825280579999999,0.081223668,0.028064337999999998,-0.7257895999999999,0.200372086,398688849.1,327370641.7,449955.5393,12.3758646,-1.5858651730000002,-12.2701756,1.16,4.58352318,0,0,0.0,756000,39.871413700000005,32.7364371,-279.5393528,70.97505788,-51.23685329,-0.346636269,-12.40461851,0.555915526,-1.5545307480000001,0.484953144,0.790868895,51.29615229,0.057946190999999994,0.298821088,0.020075298000000002,0.204762685,145094809,0,0,0,0,1
3590,145137275,0.0028733079999999998,0.330781444,-0.000967585,0.20290959,1.0,1499.0,2000.0,1203.0,1500.0,1499.0,1665.0,12.15332839,12.42059819,12.12240492,12.0932,12.35948856,10.95001128,11.19112683,89.72224262,89.72224262,12.07857681,-0.000785361,-0.006200869,-0.000133375,-0.26437997399999996,0.18922697,-0.0017632729999999999,2.0,7.335867173,8.335867172999999,11,0,0,1,0,0.0,0,0,0,0,0,0.052439354,0.153349842,-1.642724626,-1.575931719,2.4127577369999997,565.8148346,35.42196336,-0.00032899,0.163488634,-0.00587197,0.0,0.11820770900000001,0.06963919,-10.08311445,74916968.01,960.4397706,12.08252488,0.09535629300000001,0.0033877959999999998,0.006298929,0.092258816,0.031922222,-9.901020125,0.094281909,0.012060228999999999,0.015930812,74916968.01,50.111397,50.36828225,-0.012844305,-1.09938798,10.22314172,12.22783993,-0.040093966,-0.14047501,-0.36039589299999997,116.4182918,449.1476756,12.08226186,96045.22227,1.141176081,0.426783786,0.466570128,-0.10442445199999999,0.09488002300000001,0.015756681,0.003723875,0.07083189200000001,0.157639515,-1.626636151,0.682503034,0.081426366,0.028419445,-0.725776669,0.200861333,398688843.4,327370585.4,449910.5063,12.38712304,-1.597123425,-12.28331004,1.16,4.582737166,0,0,0.0,756000,39.871413700000005,32.7364371,-279.55499360000005,70.50378058,-51.21547913,-0.404014505,-12.38668454,0.583445106,-1.4831311669999998,0.46834804,0.771465792,51.27477813,0.052852372,0.297718675,0.021618215,0.20528322,145137275,0,0,0,0,1
3591,145175741,-0.001020572,0.331116817,-0.000298863,0.20357919,1.0,1499.0,2000.0,1204.0,1496.0,1503.0,1664.0,12.18381818,12.4517784,12.13029485,12.10128239,12.3677299,10.95665315,11.19789773,89.7521432,89.7521432,12.07885636,-0.0007850489999999999,-0.006200479,-0.000133146,-0.26443828399999997,0.18927081199999998,-0.0017691579999999998,2.0,7.338467693999999,8.338467694,11,0,0,1,0,0.0,0,0,0,0,0,0.054425575999999996,0.154104796,-1.640889185,-1.575891884,2.349679106,565.3388438,35.45194444,-0.000355028,0.164083789,-0.005918776999999999,0.0,0.115824434,0.026151276,-10.04344131,43407680.78,960.4497762,12.08280504,0.09286034,0.013220811,0.011193485,0.036431152,0.081439027,-9.941205797,0.08887525,0.017634776,0.019681308999999998,43407680.78,50.111397,50.32942887,-0.01090164,-1.109556107,10.22361909,12.22889218,-0.040105462,-0.12097164,-0.360564117,116.48933829999999,449.31091619999995,12.08255192,96043.33486,1.141153765,-0.188681243,-0.270314424,0.095739793,0.095764239,0.020347449,0.0062801409999999995,0.070553814,0.158430588,-1.62664491,0.682479607,0.081617147,0.028791552999999998,-0.7257625809999999,0.201243671,398688837.8,327370529.1,449865.4733,12.39838148,-1.608381676,-12.29644448,1.16,4.581951153,0,0,0.0,756000,39.871413700000005,32.7364371,-279.57063439999996,70.03250327,-51.19410497,-0.461392741,-12.36875057,0.610974685,-1.411731585,0.45174293600000004,0.752062688,51.25340397,0.048103857,0.29722650899999997,0.02295175,0.20608124,145175741,0,0,0,0,1
