timestamp,control[0],control[1],control[2],control[3],control[4],output[2],output[3],output[4],output[5],output[6],output[7],indicated_airspeed_m_s,true_airspeed_m_s,indicated_airspeed_m_s.1,equivalent_airspeed_m_s,true_airspeed_m_s.1,equivalent_ground_minus_wind_m_s,true_ground_minus_wind_m_s,differential_pressure_raw_pa,differential_pressure_filtered_pa,temperature,gyro_bias[0],gyro_bias[1],gyro_bias[2],accel_bias[0],accel_bias[1],accel_bias[2],instance_count,seq_reached,seq_current,seq_total,item_changed_index,item_do_jump_remaining,valid,warning,finished,failure,stay_in_failsafe,flight_termination,item_do_jump_changed,execution_mode,nav_roll,nav_pitch,nav_bearing,target_bearing,xtrack_error,wp_dist,acceptance_radius,rollspeed_integ,pitchspeed_integ,yawspeed_integ,additional_integ1,x,y,z,temperature.1,pressure,temperature.2,gyro_rad[0],gyro_rad[1],gyro_rad[2],accelerometer_m_s2[0],accelerometer_m_s2[1],accelerometer_m_s2[2],x.1,y.1,z.1,temperature.3,altitude_sp,altitude_filtered,height_rate_setpoint,height_rate,airspeed_sp,airspeed_filtered,airspeed_derivative_sp,airspeed_derivative,throttle_integ,pitch_integ,baro_alt_meter,baro_temp_celcius,baro_pressure_pa,rho,xyz[0],xyz[1],xyz[2],xyz[0].1,xyz[1].1,xyz[2].1,roll_body,pitch_body,yaw_body,q_d[0],q_d[1],q_d[2],q_d[3],thrust_body[0],lat,lon,alt,vel_m_s,vel_n_m_s,vel_e_m_s,vel_d_m_s,cog_rad,ground_contact,maybe_landed,landed,ref_lat,ref_lon,x.2,y.2,z.2,vx,vy,vz,ax,ay,az,yaw,dist_bottom,roll,pitch,yaw.1,thrust_body[0].1,timestamp.1,isTakeoff,isClimbing,isDescending,isCruise,isLand
156586605,-0.011742434,0.30747263399999997,-0.270386955,0.19214535,1.0,1366.0,2000.0,1001.0,1503.0,1496.0,1628.0,12.60482822,12.88258669,12.40358454,12.52736254,12.80335157,13.82896125,14.13362658,94.64637655,94.64637655,12.07652974,-0.000724171,-0.00582417,-0.000112184,-0.250593736,0.19057710600000002,-0.022390768,2.0,8.025005001,9.025005001,11,0,0,1,0,0.0,0,0,0,0,0,-0.00041117199999999996,0.150428116,1.587672186,1.58570209,-0.071076693,357.7292749,37.06309147,-0.0042096370000000004,0.21573147899999998,-0.192192972,0.0,-0.40626363200000004,0.20678601100000002,-9.826837366,645681000000000.0,960.3506768999999,12.07658722,0.012650179,0.01759419,0.00121624,0.086280463,0.127371257,-10.43951961,-0.010887801,-0.087989641,0.001515465,3344830000000000.0,50.05997,50.58989623,-0.026496263,-0.106963319,10.22041174,12.94086539,-0.054409075,-0.06338582799999999,-0.340113701,140.55100430000002,450.04832450000004,12.076599,96034.86743,1.141053073,-0.389275582,-1.262565694,-0.257201389,0.015616955,0.061280939000000006,-0.002436013,0.000613561,0.08485541,1.588747787,0.70010987,-0.030045089,0.029940189,0.712773552,0.0,398723602.5,327392210.0,450587.0,12.92513051,-0.17460692100000003,12.92460692,0.0061792340000000005,1.5848163730000002,0,0,0.0,39.8714138,32.7364372,105.17532450000002,238.98791380000003,-50.51752037,-0.222069343,12.97597495,-0.040652491,-0.044910599,-1.014644319,-0.26624857399999996,1.5862125519999999,50.64365634,-0.0044322829999999995,0.056535194000000004,-0.00010520000000000001,0.0,156586605,0,0,0,0,1
156624955,-0.011397402,0.292796889,-0.268425294,0.144427064,1.0,1366.0,2000.0,1000.0,1503.311462,1495.688538,1625.311462,12.51146326,12.78715425,12.39546581,12.51924381,12.79505865,13.82155961,14.12606709,94.52426115,94.52426115,12.07654014,-0.000723624,-0.005825011999999999,-0.000111687,-0.250607293,0.19060995,-0.022375966,2.0,8.027605521,9.027605521,11,0,0,1,0,0.0,0,0,0,0,0,-0.000244463,0.142276571,1.58787835,1.585707587,-0.078452356,357.238399,36.98017394,-0.004202789,0.216071171,-0.192212635,0.0,-0.418020265,0.196687878,-9.569847828,1916970000000000.0,960.3486625,12.07656404,0.001911454,-0.011222942,0.00642271,-0.2315242,0.243123783,-10.38679866,-0.011343361000000001,-0.111860475,0.005187049,3344830000000000.0,50.05997,50.58646165,-0.026324537000000002,-0.105517347,10.22037466,12.94757644,-0.05454404,-0.063088021,-0.340353943,140.64526619999998,450.1815494,12.076569000000001,96033.34575,1.14103505,-0.097475108,-1.241520194,-0.148025557,0.010906701000000001,0.039150232,-0.0012470089999999999,0.0007356610000000001,0.07910299999999999,1.588966076,0.700116044,-0.027955173,0.027966919,0.712933183,0.0,398723602.0,327392266.8,450587.0,12.92326433,-0.180206041,12.93020604,-0.010618125,1.5852398159999999,0,0,0.0,39.8714138,32.7364372,105.1689308,239.46277,-50.51959367,-0.22190473600000002,12.93755858,-0.043066590999999994,-0.056229502,-1.0253133540000001,-0.048507113,1.586360507,50.64573036,-0.003954691,0.048031374,-8.149999999999999e-05,0.0,156624955,0,0,0,0,1
156663306,-0.011028856,0.274425133,-0.26881006399999996,0.07381534599999999,1.0,1366.0,2000.0,1000.0,1502.0,1497.0,1621.0,12.45303695,12.727398800000001,12.38734709,12.51112509,12.78676574,13.81415797,14.11850761,94.40214575,94.40214575,12.07655054,-0.000723078,-0.005825853000000001,-0.000111189,-0.25062085,0.190642793,-0.022361165,2.0,8.030206041,9.030206041,11,0,0,1,0,0.0,0,0,0,0,0,-7.780000000000001e-05,0.134125025,1.588084515,1.585713084,-0.085828018,356.7475232,36.89725641,-0.004193176,0.216341447,-0.192228567,0.0,-0.42977689799999996,0.186589745,-9.31285829,3188260000000000.0,960.3466481,12.07654086,0.00276992,-0.046489168,-0.0009546380000000001,-0.456730323,0.230652241,-10.14095984,-0.011798921,-0.135731308,0.008858632,3344830000000000.0,50.05997,50.58302491,-0.026152705,-0.10423718300000001,10.220342599999999,12.95303416,-0.054653837000000004,-0.062991147,-0.340594492,140.7399164,450.05789730000004,12.076569000000001,96034.76699999999,1.141051962,-0.504335976,-1.1484482790000001,0.36499574,0.007885537,0.015386457,-0.0017744529999999998,0.00091699,0.074129227,1.58918523,0.700106208,-0.02612143,0.026287571000000003,0.71307601,0.0,398723601.4,327392323.5,450587.0,12.92139814,-0.18580516100000002,12.93580516,-0.027415484,1.585663258,0,0,0.0,39.8714138,32.7364372,105.16258400000001,239.93358219999996,-50.52176809,-0.221770148,12.89822663,-0.043466868,-0.070700682,-0.9988764859999999,0.17207343100000003,1.586524672,50.64790554,-0.003135389,0.031843416,0.00017276,0.0,156663306,0,0,0,0,1
156705657,-0.007315643,0.25733727,-0.266371445,0.001547515,1.0,1362.0,2000.0,1000.0,1501.0,1498.0,1619.346669,12.50985706,12.78551445,12.37922836,12.50300636,12.77847282,13.80675633,14.11094813,94.28003035,94.28003035,12.07656093,-0.0007225310000000001,-0.005826695,-0.000110691,-0.25063440800000003,0.19067563699999998,-0.022346362999999998,2.0,8.032806561000001,9.032806561000001,11,0,0,1,0,0.0,0,0,0,0,0,8.9e-05,0.12597348,1.588290679,1.58571858,-0.093203681,356.2566473,36.81433888,-0.0041862029999999995,0.216604028,-0.192236904,0.0,-0.44933900200000004,0.19719408600000002,-9.077267138,3344830000000000.0,960.3458001,12.07654833,-0.007494142,-0.077068963,0.004937958,-0.44471199899999997,0.12898317199999998,-9.909218857,-0.011327471,-0.13876984,0.009972839,3344830000000000.0,50.05997,50.5795779,-0.025980367999999997,-0.103748431,10.2203345,12.95250973,-0.054643511,-0.06385333,-0.340836509,140.8364202,450.0613887,12.07656155,96034.71142,1.141051212,-0.19782819399999998,-1.256399999,-0.54124956,0.000722348,-0.012617096999999999,-0.0006020019999999999,0.001077758,0.07059652200000001,1.589381308,0.7000825140000001,-0.024808001,0.025105815,0.7131888190000001,0.0,398723600.9,327392380.4,450587.1872,12.91017003,-0.188127625,12.92876575,-0.037659532,1.5858416169999998,0,0,0.0,39.8714138,32.7364372,105.15604499999999,240.41406580000003,-50.52356801,-0.221798038,12.85931161,-0.036006904,-0.077505722,-0.964650358,0.400333208,1.5867247969999998,50.6497058,-0.002518872,0.023664914,0.00033199300000000005,0.0,156705657,0,0,0,0,1
156756008,-0.007794596,0.24567899,-0.26605378399999996,0.0,1.0,1363.0,2000.0,1000.0,1501.0,1498.0,1618.334267,12.46558721,12.74026285,12.37110963,12.49488763,12.7701799,13.79935469,14.10338864,94.15791495,94.15791495,12.07657133,-0.000721985,-0.0058275359999999995,-0.000110194,-0.250647965,0.19070848,-0.022331562000000003,2.0,8.035407081,9.035407081,11,0,0,1,0,0.0,0,0,0,0,0,0.000255665,0.117821934,1.5884968430000002,1.5857240769999998,-0.100579343,355.76577139999995,36.73142136,-0.004178455,0.216851282,-0.192237823,0.0,-0.469997434,0.210706218,-8.844681521,3344830000000000.0,960.345116,12.07656011,-0.009727992,-0.10561116,0.005702245,-0.520658256,0.16961947100000002,-9.660023067000001,-0.010725816,-0.138882347,0.010727845,3344830000000000.0,50.05997,50.57613089,-0.025808032,-0.10325967800000001,10.22032641,12.9519853,-0.054633185,-0.064715513,-0.341078526,140.93292399999999,450.0568813,12.076538000000001,96034.77635,1.141052035,-0.83709009,0.047010857999999996,-0.23085399199999998,-0.000541823,-0.03607569,-0.001154557,0.001054574,0.073255146,1.589490848,0.700010424,-0.025765613,0.026026714,0.71319302,0.0,398723600.3,327392437.7,450587.9338,12.8709762,-0.18066213,12.88397279,-0.028327666,1.585287864,0,0,0.0,39.8714138,32.7364372,105.1490023,240.91989759999998,-50.52438636,-0.222251772,12.82148935,-0.007945624,-0.064218173,-0.910008948,0.648719887,1.587019168,50.65052339,-0.0016944479999999999,0.02520452,0.00039955300000000003,0.0,156756008,0,0,0,0,1
156790359,-0.004492877,0.24431288399999998,-0.273811541,0.0,1.0,1361.0,2000.0,1000.0,1500.0,1499.0,1617.341868,12.37657778,12.64932579,12.3629909,12.4867689,12.76188699,13.79195306,14.09582916,94.03579955,94.03579955,12.07658173,-0.000721438,-0.005828376999999999,-0.000109696,-0.25066152199999997,0.190741324,-0.02231676,2.0,8.038007602,9.038007602,11,0,0,1,0,0.0,0,0,0,0,0,0.000422374,0.10967038900000001,1.588703007,1.585729573,-0.10795500599999999,355.2748955,36.64850383,-0.0041683829999999995,0.217112229,-0.19224040899999997,0.0,-0.493431555,0.220447449,-8.651075316,3344830000000000.0,960.3445906999999,12.076577499999999,-0.00410543,-0.123746469,0.006989421,-0.507296439,0.098178023,-9.364631521,-0.010699898000000001,-0.13875422699999998,0.010764707,3344830000000000.0,50.05997,50.57268389,-0.025635695,-0.102770926,10.22031832,12.95146087,-0.054622859,-0.06557769599999999,-0.341320544,141.0294278,450.1242757,12.07655079,96033.97449,1.14104244,-0.35830359700000003,-0.8700270290000001,-0.057762161,-0.006779086,-0.07224673599999999,0.003976157,0.001236616,0.070893807,1.5897111369999999,0.699963269,-0.024862567000000002,0.025262434,0.7132984809999999,0.0,398723599.7,327392495.0,450588.6803,12.83178236,-0.173196635,12.83917984,-0.018995799,1.584734111,0,0,0.0,39.8714138,32.7364372,105.14195959999999,241.42572940000002,-50.52520471,-0.22270550600000003,12.7836671,0.020115656000000003,-0.050930624,-0.855367538,0.8971065659999999,1.58731354,50.65134098,-0.0009474139999999999,0.020726434,0.00054492,0.0,156790359,0,0,0,0,1
156828710,-0.003761985,0.237932041,-0.273939339,0.0,1.0,1361.0,2000.0,1000.0,1501.0,1498.0,1617.0,12.31817941,12.58962924,12.35487217,12.47865017,12.75359407,13.78455142,14.08826967,93.91368415,93.91368415,12.07659212,-0.0007208910000000001,-0.005829219,-0.000109199,-0.25067508,0.190774167,-0.022301959,2.0,8.040608122,9.040608122,11,0,0,1,0,0.0,0,0,0,0,0,0.000589083,0.10151884300000001,1.5889091709999998,1.58573507,-0.11533066900000001,354.7840196,36.56558629999999,-0.004160509000000001,0.21731610199999998,-0.192233189,0.0,-0.525382946,0.21861758899999997,-8.577078317,3344830000000000.0,960.3445527000001,12.07661209,-0.013300989,-0.141167219,0.005441303000000001,-0.439595743,0.22326359199999998,-9.204014693,-0.012440642,-0.137887741,0.008597928000000001,3344830000000000.0,50.05997,50.56923688,-0.025463358,-0.102282173,10.22031022,12.95093644,-0.054612533,-0.06643987900000001,-0.34156256100000004,141.1259316,450.08261969999995,12.076569000000001,96034.45975,1.141048297,0.25050575199999997,-0.864573822,-0.077719207,-0.007361606,-0.09545415900000001,0.007418945,0.0014166729999999998,0.067068849,1.589931675,0.69993217,-0.023437931000000002,0.023985417999999998,0.713421511,0.0,398723599.2,327392552.3,450589.4269,12.79258852,-0.16573114,12.79438688,-0.009663933000000001,1.584180358,0,0,0.0,39.8714138,32.7364372,105.1347915,241.92910759999998,-50.52328898,-0.223142443,12.74933074,0.06266750900000001,-0.047527335,-0.830008967,1.10429469,1.5876521890000002,50.64942522,-0.000110609,0.020852801,0.00074912,0.0,156828710,0,0,0,0,1
156867061,-0.00334883,0.23536486399999998,-0.273956462,0.0,1.0,1359.5717140000002,2000.0,1000.0,1501.0,1498.0,1617.6429289999999,12.39770475,12.67094704,12.34675345,12.47053145,12.74530116,13.77714978,14.08071019,93.74863012,93.74863012,12.07665643,-0.000720345,-0.00583006,-0.000108701,-0.250688637,0.19080701100000003,-0.022287157000000002,2.0,8.043208642,9.043208642,11,0,0,1,0,0.0,0,0,0,0,0,0.0007557919999999999,0.093367298,1.589115335,1.585740567,-0.122706331,354.2931437,36.48266877,-0.004151327,0.217564827,-0.192228395,0.0,-0.557334336,0.216787728,-8.503081318,3344830000000000.0,960.3445146,12.07664667,-0.010180599,-0.141824007,0.010683206,-0.473122359,0.225283633,-8.874213697,-0.014181385,-0.137021255,0.006431149000000001,3344830000000000.0,50.05997,50.56578987,-0.025291022000000003,-0.101793421,10.22030213,12.95041201,-0.054602208,-0.067302062,-0.34180457799999997,141.2224354,450.1569329,12.076599,96033.63394,1.141038377,-0.033225416,-0.51899073,0.06650018099999999,-0.0071588780000000005,-0.11431840800000001,0.007768235,0.0016312339999999999,0.063150898,1.590153362,0.699898997,-0.021967652999999997,0.022688402000000003,0.713543073,0.0,398723598.6,327392609.6,450590.1734,12.75339468,-0.158265645,12.74959392,-0.000332066,1.583626605,0,0,0.0,39.8714138,32.7364372,105.1275548,242.4311443,-50.51987828,-0.223570197,12.71690041,0.11314260400000001,-0.049528622,-0.820661842,1.28895602,1.588015049,50.64601491,0.000532935,0.033753771,0.000465164,0.0,156867061,0,0,0,0,1
156909411,-0.0014344470000000002,0.23684485100000002,-0.276838484,0.0,1.0,1357.0,2000.0,1000.0,1500.364673,1498.635327,1619.729346,12.31765925,12.58913672,12.33863472,12.46241272,12.73700824,13.76974814,14.07315071,93.49971156,93.49971156,12.07682604,-0.000719798,-0.005830902,-0.000108204,-0.250702194,0.19083985399999998,-0.022272356,2.0,8.045809162000001,9.045809162000001,11,0,0,1,0,0.0,0,0,0,0,0,0.000922501,0.08521575199999999,1.5893215,1.5857460630000002,-0.130081994,353.80226780000004,36.39975125,-0.004141339,0.217866012,-0.19221623,0.0,-0.595842069,0.224953295,-8.500485824,2563320000000000.0,960.3448037,12.07670276,-0.00937792,-0.146055212,0.01324048,-0.523405502,0.25750711600000004,-8.61975253,-0.011973167,-0.125160529,0.00549832,2563320000000000.0,50.05997,50.56160043,-0.025081537,-0.101302524,10.22030926,12.94775021,-0.054548828,-0.06809491200000001,-0.34206969299999995,141.32914069999998,450.12932350000005,12.07663513,96033.93506,1.141041964,0.15420425699999998,0.29097459600000003,0.11677607300000001,-0.014305328,-0.13008794199999998,0.0068280319999999995,0.0018780079999999998,0.059438869000000005,1.5903750380000001,0.699861341,-0.020559234,0.021475169,0.7136597109999999,0.0,398723598.1,327392666.9,450590.92,12.71420084,-0.15080015,12.70480096,0.008999799999999999,1.583072852,0,0,0.0,39.8714138,32.7364372,105.12033229999999,242.9324833,-50.51638403,-0.223991912,12.684586999999999,0.16367504300000002,-0.051524079,-0.810414238,1.470868149,1.588375163,50.64252103,0.0013278860000000001,0.042818714,0.00016355799999999998,0.0,156909411,0,0,0,0,1
156943762,-0.002011276,0.234650489,-0.276997095,0.0,1.0,1356.627726,2000.0,1000.0,1500.0,1499.0,1624.0,12.29903172,12.57005486,12.33051599,12.45429399,12.72871532,13.7623465,14.06559122,93.250793,93.250793,12.07699564,-0.000719252,-0.005831743,-0.000107706,-0.25071575100000004,0.190872698,-0.022257554,2.0,8.048409682,9.048409682,11,0,0,1,0,0.0,0,0,0,0,0,0.001089211,0.077064207,1.589527664,1.58575156,-0.13745765599999998,353.3113919,36.31683372,-0.004131275,0.21814142399999997,-0.192196742,0.0,-0.6384587420000001,0.239383121,-8.542638535,1292030000000000.0,960.3452978,12.07677231,-0.011449498999999998,-0.153883224,0.010514748,-0.531692375,0.21747975100000003,-8.520272754,-0.007290087,-0.106409578,0.005338823,1292030000000000.0,50.05997,50.55729092,-0.024866044,-0.10081128,10.22031886,12.94474274,-0.054488485,-0.068876548,-0.342338543,141.437496,450.0470536,12.07668347,96034.86511,1.14105302,-0.068038408,0.166718757,-0.14578664,-0.008422223000000001,-0.133378058,0.012407494,0.002032007,0.056080202,1.590597315,0.699816213,-0.019309028,0.020352718,0.713771629,0.0,398723597.3,327392724.5,450586.3343,12.68333867,-0.14999999,12.67167233,0.053324662,1.583042611,0,0,0.0,39.8714138,32.7364372,105.1139322,243.3930775,-50.50800959,-0.224060955,12.65910166,0.21755666899999998,-0.05317908,-0.7475729879999999,1.4922098119999998,1.58857496,50.63414659,0.001929253,0.046129655,-3.02e-05,0.0,156943762,0,0,0,0,1
156990113,-0.00218012,0.235681015,-0.285874005,0.0,1.0,1354.0,2000.0,1000.0,1500.620124,1498.379876,1624.0,12.24394852,12.51374623,12.32239726,12.44617526,12.72042241,13.75494486,14.05803174,93.00187444,93.00187444,12.07716525,-0.000718705,-0.005832584,-0.000107208,-0.250729309,0.190905541,-0.022242752999999997,2.0,8.051010202,9.051010202,11,0,0,1,0,0.0,0,0,0,0,0,0.000972471,0.07094934,1.589430725,1.5857490109999999,-0.133973487,352.8252817,36.24316714,-0.004123667,0.218399003,-0.192175732,0.0,-0.681075415,0.25381294600000004,-8.584791245,20742100000000.0,960.3457919,12.07684187,-0.014375271,-0.12876111099999998,0.00928385,-0.536163152,0.314813651,-8.405690264,-0.002607007,-0.08765862699999999,0.005179326,20742100000000.0,50.05997,50.5529814,-0.024650551,-0.100320036,10.22032846,12.94173526,-0.054428142,-0.069658184,-0.342607394,141.5458512,450.1032801,12.07676229,96034.23101,1.14104549,0.162958383,0.6906433129999999,-0.169029205,-0.008402719,-0.13683636300000002,0.012534726000000001,0.002241709,0.053085289,1.590819964,0.6997662590000001,-0.018168886999999998,0.01937763,0.7138777959999999,0.0,398723596.6,327392782.2,450581.1084,12.653476699999999,-0.14999999,12.63994399,0.10185036300000001,1.583075216,0,0,0.0,39.8714138,32.7364372,105.1075322,243.8536716,-50.49963515,-0.224129998,12.63361632,0.271438295,-0.05483408,-0.6847317390000001,1.513551475,1.588774757,50.62577215,0.0026231759999999996,0.043230019,-0.00023453299999999999,0.0,156990113,0,0,0,0,1
157036464,-0.002388449,0.243162958,-0.285936966,0.0,1.0,1354.0,2000.0,1000.0,1500.0,1499.0,1623.612523,12.12690534,12.39416109,12.31427854,12.43805654,12.71212949,13.74754323,14.05047226,92.75295589,92.75295589,12.07733485,-0.000718158,-0.005833426,-0.000106711,-0.250742866,0.190938385,-0.022227952000000002,2.0,8.053610722,9.053610722,11,0,0,1,0,0.0,0,0,0,0,0,0.000299908,0.068828272,1.5887394190000002,1.5857306869999999,-0.109193866,352.3485165,36.1876411,-0.004117796,0.21868375,-0.19216110600000003,0.0,-0.62096476,0.255678616,-8.617986664,12.07694582,960.3419303999999,12.07694582,-0.010259021,-0.130646863,0.004893700999999999,-0.5682280510000001,0.22915813399999999,-8.434137134,-0.00429317,-0.080597889,0.005784041,1250550000000000.0,50.05997,50.54867189,-0.024435058,-0.09982879300000001,10.22033806,12.93872779,-0.054367799,-0.07043982,-0.342876244,141.6542064,450.0768597,12.07683868,96034.54337,1.141049197,0.286641625,0.679237471,-0.042427226,-0.011139617,-0.131143937,0.009155044000000001,0.002420862,0.050465787000000005,1.591042386,0.6997110329999999,-0.017173196,0.018523187,0.7139792340000001,0.0,398723595.8,327392839.8,450575.8826,12.62361472,-0.14999999,12.60821564,0.150376064,1.5831078219999999,0,0,0.0,39.8714138,32.7364372,105.1011675,244.3133633,-50.48940106,-0.22402844600000002,12.60894869,0.323973328,-0.043215473,-0.644938526,1.486641278,1.588936216,50.61553806,0.00330138,0.043735842999999996,-0.00042428800000000004,0.0,157036464,0,0,0,0,1
157078815,-0.000818887,0.248537998,-0.285999122,0.0,1.0,1352.0,2000.0,1000.0,1500.0,1499.0,1623.0,12.18831113,12.4568814,12.30615981,12.42993781,12.70383657,13.74014159,14.04291277,92.50403733,92.50403733,12.07750446,-0.000717612,-0.005834267,-0.000106213,-0.250756423,0.19097122800000002,-0.02221315,2.0,8.056211242,9.056211242,11,0,0,1,0,0.0,0,0,0,0,0,-0.00037265599999999996,0.066707205,1.588048114,1.585712362,-0.084414245,351.8717513,36.13211506,-0.00411044,0.21895307,-0.19214539100000003,0.0,-0.559150227,0.257335892,-8.651033513,12.07705034,960.3379966,12.07705034,-0.009426178,-0.10540926699999999,0.005961925,-0.47641895799999995,0.253907141,-8.399741614,-0.006084976,-0.07373105099999999,0.00640143,2521840000000000.0,50.05997,50.54436238,-0.024219565,-0.099337549,10.22034766,12.93572032,-0.054307457,-0.071221456,-0.343145094,141.7625617,450.06396320000005,12.07693543,96034.70362,1.141051133,0.235260472,0.34629606700000004,-0.201227207,-0.009335799,-0.12322792800000001,0.008172877,0.002614538,0.050592263,1.5912099130000001,0.69965144,-0.017152146,0.018635116,0.714034368,0.0,398723595.1,327392897.5,450570.6567,12.59375275,-0.14999999,12.5764873,0.198901766,1.5831404269999998,0,0,0.0,39.8714138,32.7364372,105.0948587,244.77162630000004,-50.47622335,-0.223656863,12.5855754,0.37437686600000003,-0.010586333,-0.6416276,1.383354156,1.589036989,50.60236035,0.003840229,0.040275038,-0.000562826,0.0,157078815,0,0,0,0,1
157117166,-0.00221922,0.24885443899999998,-0.291665903,0.0,1.0,1352.0,2000.0,1000.0,1499.0,1500.0,1622.597319,12.14664924,12.41428454,12.29594352,12.41974306,12.69341593,13.73056133,14.03312001,92.25511877,92.25511877,12.07767406,-0.000717053,-0.0058350730000000005,-0.00010560700000000001,-0.25076854600000004,0.19100366,-0.022198117000000003,2.0,8.058811762000001,9.058811762000001,11,0,0,1,0,0.0,0,0,0,0,0,-0.00104522,0.064586137,1.587356809,1.5856940380000002,-0.059634623,351.39498619999995,36.07658902,-0.004110142,0.21922729600000002,-0.192127197,0.0,-0.516973526,0.24203581,-8.684661503,448297000000000.0,960.3377083999999,12.07716303,-0.010244783,-0.104639049,0.005293251999999999,-0.569089587,0.297339788,-8.377672386,-0.006284895,-0.069500773,0.004763547,3344830000000000.0,50.07203278,50.54036439,0.05298516599999999,-0.09816866099999999,10.22035757,12.93234042,-0.05423966,-0.056407742000000004,-0.34339498799999996,141.86531609999997,449.9936467,12.07703533,96035.49992,1.141060573,0.117314616,0.20996445100000002,-0.000122167,-0.008471681,-0.114543564,0.004456521,0.002829872,0.054530756,1.591351217,0.699569054,-0.018484417,0.020088354,0.7140433159999999,0.0,398723594.3,327392955.2,450565.4309,12.56389078,-0.14999999,12.54475895,0.24742746699999998,1.5831730330000002,0,0,0.0,39.8714138,32.7364372,105.0885499,245.2298894,-50.46304565,-0.22328528,12.56220211,0.424780403,0.022042807999999997,-0.638316673,1.280067034,1.5891377619999998,50.58918265,0.004251945,0.040907833,-0.000674558,0.0,157117166,0,0,0,0,1
157155517,-0.000270902,0.247289967,-0.29170714600000003,0.0,1.0,1352.0,2000.0,1000.0,1500.0,1499.0,1622.0,12.20316597,12.47213229,12.28187649,12.40573711,12.67908915,13.71698152,14.01922736,92.00620021,92.00620021,12.07784367,-0.000716473,-0.005835815,-0.000104802,-0.250778034,0.19103533600000003,-0.022182661,2.0,8.061412282000001,9.061412282000001,11,0,0,1,0,0.0,0,0,0,0,0,-0.001717784,0.062465069000000005,1.586665503,1.585675713,-0.034855002,350.918221,36.02106298,-0.00411633,0.219528038,-0.192120125,0.0,-0.510848369,0.195605055,-8.719356362000001,1719590000000000.0,960.3441126,12.07729074,-0.009009767,-0.086244902,0.00298717,-0.49118934700000005,0.179290405,-8.538872536,-0.003562398,-0.070110751,-0.0010146139999999998,3344830000000000.0,50.09403098,50.53662297,0.19360157600000003,-0.096441635,10.22036774,12.92865379,-0.054165724000000005,-0.028749021,-0.34362926899999996,141.9634576,449.9977829,12.07715994,96035.4476,1.14105992,-0.291717753,0.362026966,-0.118085571,-0.002567886,-0.101128765,0.006755825,0.00323302,0.053287596,1.591574981,0.699503862,-0.017901735,0.019795489,0.7141301959999999,0.0,398723593.7,327393011.3,450554.6151,12.5390198,-0.15299458900000001,12.520017900000001,0.296951368,1.583397243,0,0,0.0,39.8714138,32.7364372,105.0818033,245.7153163,-50.44538087,-0.223201784,12.54062803,0.472873828,0.033968364,-0.5728613920000001,1.234898618,1.589094564,50.57151729,0.0050283440000000006,0.03975577,-0.00087677,0.0,157155517,0,0,0,0,1
157189868,-0.001094697,0.246461326,-0.294810894,0.0,1.0,1353.582116,2000.0,1000.0,1499.417884,1499.582116,1621.0,12.12557753,12.39266237,12.26780946,12.39173115,12.66476238,13.70340171,14.00533471,91.75728166,91.75728166,12.07801327,-0.000715892,-0.005836556,-0.000103996,-0.250787521,0.191067013,-0.022167204,2.0,8.064012802999999,9.064012802999999,11,0,0,1,0,0.0,0,0,0,0,0,-0.002390348,0.060344002,1.5859741980000002,1.585657389,-0.010075381,350.4414558,35.96553694,-0.004117954,0.219856373,-0.19211031,0.0,-0.504723213,0.14917429999999998,-8.754051221000001,2990880000000000.0,960.3505169,12.07741844,-0.0064223069999999995,-0.08117827799999999,0.003647145,-0.521689738,0.230832827,-8.524779061,-0.0008399010000000001,-0.07072072900000001,-0.0067927740000000006,3344830000000000.0,50.11602919,50.53288156,0.334217986,-0.094714609,10.2203779,12.92496716,-0.054091787999999995,-0.0010902999999999998,-0.34386355,142.0615991,449.96073160000003,12.07729554,96035.8996,1.141065301,-0.5319067510000001,0.619134514,0.167013696,-0.005385332,-0.090886673,0.004636576,0.0035254229999999998,0.050910368,1.591798148,0.699446938,-0.016952683,0.019066625,0.714228882,0.0,398723593.1,327393066.2,450538.9376,12.5184897,-0.158593709,12.50135398,0.347343443,1.583788099,0,0,0.0,39.8714138,32.7364372,105.0749165,246.20943939999998,-50.4262796,-0.223210515,12.51962995,0.520227696,0.039265897,-0.487511288,1.20833626,1.589005275,50.55241526,0.005711496999999999,0.038879666,-0.001066246,0.0,157189868,0,0,0,0,1
157228218,0.000383821,0.244538653,-0.294895807,0.0,1.0,1353.0,2000.0,1000.0,1499.0,1500.0,1622.0,12.08386221,12.35017177,12.25374243,12.377725199999999,12.6504356,13.68982189,13.99144205,91.5083631,91.5083631,12.07818287,-0.000715312,-0.005837298,-0.00010319100000000001,-0.25079700899999996,0.191098689,-0.022151747000000003,2.0,8.066613323,9.066613323,11,0,0,1,0,0.0,0,0,0,0,0,-0.0030629109999999998,0.058222934000000004,1.585282892,1.585639064,0.01470424,349.96469069999995,35.9100109,-0.004114346,0.220184922,-0.192097601,0.0,-0.474162955,0.149651121,-8.785590504,3344830000000000.0,960.3526017,12.077562599999998,-0.0011051519999999999,-0.073954248,-0.003495522,-0.533772021,0.203510849,-8.567905451,-0.001683918,-0.071443816,-0.009745583,3344830000000000.0,50.13802739,50.52914015,0.474834396,-0.09298758300000001,10.22038807,12.92128052,-0.054017852000000005,0.026568422,-0.34409783,142.1597405,450.03004739999994,12.0774411,96035.07996,1.141055605,0.133995944,0.41094284,-0.283565572,-0.006308052,-0.07134258,-0.00107047,0.003802448,0.04841169,1.592021506,0.69938952,-0.015965431999999998,0.018289995,0.7143282240000001,0.0,398723592.6,327393121.1,450523.2601,12.49795959,-0.164192829,12.48269007,0.39773551799999995,1.584178955,0,0,0.0,39.8714138,32.7364372,105.068133,246.69846040000002,-50.40686106,-0.222994047,12.49919287,0.566432367,0.042662445,-0.41042560100000003,1.177302142,1.588905351,50.53299616,0.006184052,0.054947024000000004,-0.00118974,0.0,157228218,0,0,0,0,1
157262569,-0.001353306,0.24479201899999997,-0.294514772,0.0,1.0,1354.0,2000.0,1000.0,1499.0,1500.0,1625.433087,12.12702596,12.39423003,12.23967539,12.36371925,12.63610883,13.67624208,13.977549400000001,91.25944454,91.25944454,12.07835248,-0.000714731,-0.005838039000000001,-0.000102385,-0.250806497,0.191130365,-0.02213629,2.0,8.069213843,9.069213843,11,0,0,1,0,0.0,0,0,0,0,0,-0.003735475,0.056101867,1.5845915869999998,1.58562074,0.039483862,349.4879255,35.85448486,-0.0041111609999999995,0.220520758,-0.192100145,0.0,-0.43417442,0.168227218,-8.815912208,3344830000000000.0,960.3530197999999,12.07771312,-0.003394361,-0.067746485,0.0020351379999999997,-0.403203765,0.316454677,-8.67613187,-0.0039040740000000004,-0.072210545,-0.01160823,3344830000000000.0,50.1600256,50.52539874,0.615450806,-0.09126055699999999,10.22039823,12.91759389,-0.053943915999999995,0.054227143,-0.344332111,142.257882,449.9174206,12.07758602,96036.39511,1.14107117,0.271076166,-0.045717042,-0.00186436,-0.005270151999999999,-0.068095204,0.003317079,0.003938046,0.046067370999999996,1.5922445369999998,0.699328618,-0.015082574,0.017517013,0.714426314,0.0,398723592.0,327393176.0,450507.5825,12.47742949,-0.169791948,12.46402615,0.448127592,1.584569811,0,0,0.0,39.8714138,32.7364372,105.0620543,247.15266969999996,-50.38527773,-0.221241035,12.48258356,0.604796007,0.033088484,-0.389728411,1.115757011,1.5887328569999999,50.51141359,0.007012183000000001,0.060609933,-0.001343391,0.0,157262569,0,0,0,0,1
157308920,-0.000145818,0.24407909,-0.29234165300000003,0.0,1.0,1351.0,2000.0,1000.0,1499.0,1500.0,1628.0,12.10087282,12.36735639,12.22560836,12.34971329,12.62178205,13.66266227,13.96365675,91.01052598,91.01052598,12.07852208,-0.0007141510000000001,-0.00583878,-0.00010158,-0.250815985,0.191162042,-0.022120833,2.0,8.071814363,9.071814363,11,0,0,1,0,0.0,0,0,0,0,0,-0.004408039,0.053980799,1.5839002819999999,1.585602415,0.064263483,349.01116030000003,35.79895882,-0.004103486,0.22082850699999998,-0.192111329,0.0,-0.40574175100000004,0.184687758,-8.851095192,3344830000000000.0,960.3541242999999,12.07787102,-0.005246355,-0.071695354,0.001032701,-0.433729408,0.191982775,-8.749624292,-0.005963736,-0.072708475,-0.013042142,3344830000000000.0,50.17714264,50.52221208,0.671758538,-0.08536208099999999,10.22040436,12.91857174,-0.05396335,0.08031502900000001,-0.344565123,142.35725980000004,449.934774,12.07776191,96036.16751,1.1410684770000001,0.009381879000000001,0.30495368100000003,-0.185039547,-0.004863682,-0.061048548,0.000879468,-0.0063670409999999995,0.043846695,1.581862575,0.702959222,-0.017827086000000002,0.013153908999999998,0.7108803579999999,0.0,398723591.5,327393230.8,450491.905,12.45689938,-0.175391068,12.44536223,0.49851966700000006,1.5849606669999998,0,0,0.0,39.8714138,32.7364372,105.05597549999999,247.6068791,-50.36369439999999,-0.219488023,12.46597424,0.6431596470000001,0.023514523,-0.369031221,1.0542118790000001,1.5885603640000001,50.48983102,0.007759777,0.059655635,-0.0014348229999999998,0.0,157308920,0,0,0,0,1
157347271,0.000525513,0.24399644199999998,-0.292228916,0.0,1.0,1351.0,2000.0,1000.0,1499.0,1500.0,1628.0,12.09149417,12.35790361,12.21154133,12.33570734,12.60745527,13.64908246,13.9497641,90.76160743,90.76160743,12.07869169,-0.00071357,-0.005839522,-0.000100774,-0.250825473,0.191193718,-0.022105377000000002,2.0,8.074414883,9.074414883,11,0,0,1,0,0.0,0,0,0,0,0,-0.0050806029999999995,0.051859731,1.5832089759999999,1.5855840909999999,0.089043104,348.5343952,35.74343278,-0.0040949720000000005,0.221148359,-0.192124498,0.0,-0.49340522,0.179894319,-8.935117076000001,3344830000000000.0,960.3621249,12.07810325,-0.002392969,-0.075380344,-0.002506216,-0.45471628700000005,0.15742698300000002,-8.754460349,-0.006410984000000001,-0.070505914,-0.010168766999999999,3344830000000000.0,50.17845089,50.52082214,0.455012491,-0.065953365,10.22039739,12.93465665,-0.054285186,0.10131538699999999,-0.344794025,142.46064180000002,449.84206389999997,12.07792541,96037.23611,1.141081262,-0.304374718,0.17021070800000002,-0.382809334,-0.002287046,-0.057769209,-0.002833074,-0.007599196999999999,0.044735458,1.580678245,0.703362341,-0.018565611,0.013037315,0.710468203,0.0,398723590.9,327393285.8,450474.3461,12.43702937,-0.17933985800000002,12.42735847,0.546931348,1.585236319,0,0,0.0,39.8714138,32.7364372,105.04958810000001,248.07915319999998,-50.33921078,-0.21831201100000003,12.44972163,0.682017387,0.010711893,-0.343820945,1.009209127,1.5883474069999999,50.46534778,0.008131332,0.060258316,-0.001431419,0.0,157347271,0,0,0,0,1
157389622,0.000263903,0.253283031,-0.296665163,0.0,1.0,1353.0,2000.0,1000.0,1499.455891,1499.544109,1628.0,12.01640533,12.28103145,12.1974743,12.32170139,12.5931285,13.63550265,13.93587144,90.51268887,90.51268887,12.07886129,-0.00071299,-0.005840263,-0.0001,-0.250834961,0.191225394,-0.02208992,2.0,8.077015402999999,9.077015402999999,11,0,0,1,0,0.0,0,0,0,0,0,-0.005753166999999999,0.049738664,1.582517671,1.585565766,0.113822725,348.05762999999996,35.68790674,-0.004088305,0.221445172,-0.19213767199999998,0.0,-0.581068688,0.17510088,-9.01913896,3344830000000000.0,960.3701255000001,12.07833548,-0.0036016140000000004,-0.07021532700000001,-0.011045065,-0.405426367,0.188200576,-8.806597977000001,-0.006858232,-0.068303352,-0.007295393000000001,3344830000000000.0,50.17975915,50.51943219,0.238266444,-0.046544649,10.22039043,12.95074155,-0.054607021,0.122315746,-0.34502292799999995,142.5640238,449.8753371,12.07811952,96036.83806000001,1.141076495,-0.019239169,-0.038998902,-0.108241432,-0.004582101,-0.06324123,-2.5e-05,-0.007460631999999999,0.048820367999999996,1.5808172530000002,0.703275743,-0.019968726000000003,0.014521963999999998,0.710488225,0.0,398723590.3,327393341.2,450448.0302,12.42023183,-0.17560711399999998,12.41242749,0.586125194,1.584975755,0,0,0.0,39.8714138,32.7364372,105.0428895,248.5696256,-50.31180543,-0.217717263,12.43382838,0.7213728779999999,-0.00534327,-0.314064222,0.980871031,1.588093687,50.43794243,0.008263491,0.06044523,-0.001390954,0.0,157389622,0,0,0,0,1
157427946,0.0019678,0.256955257,-0.296208466,0.0,1.0,1353.0,2000.0,1000.0,1500.0,1499.0,1628.0,12.10372101,12.3702242,12.18340727,12.30769543,12.57880172,13.62192283,13.92197879,90.26377031,90.26377031,12.079030900000001,-0.0007124089999999999,-0.005841004,-9.92e-05,-0.250844448,0.19125707,-0.022074463,2.0,8.079615922999999,9.079615922999999,11,0,0,1,0,0.0,0,0,0,0,0,-0.006425731,0.047617596,1.581826365,1.585547441,0.138602346,347.58086480000003,35.632380700000006,-0.004079391,0.221745567,-0.19215163300000002,0.0,-0.605912125,0.17633036,-9.030353623,3344830000000000.0,960.3781435000001,12.07855155,-0.0029847759999999997,-0.07043606,-0.005656972,-0.516410424,0.168344883,-8.775447698999999,-0.007673794,-0.069658215,-0.0067060309999999995,3344830000000000.0,50.1810674,50.51804224,0.021520397,-0.027135932999999998,10.22038346,12.96682646,-0.054928857000000005,0.143316104,-0.34525183,142.6674058,449.85219309999997,12.07831342,96037.11704,1.141079857,0.122564221,0.145161067,-0.11766158199999999,-0.002794218,-0.064801309,-0.001861105,-0.00721556,0.047898304,1.581030265,0.703211551,-0.019556563,0.014282653999999999,0.710568118,0.0,398723589.8,327393396.7,450421.7143,12.40343428,-0.17187436899999997,12.397496499999999,0.62531904,1.584715191,0,0,0.0,39.8714138,32.7364372,105.0361909,249.0600981,-50.28440007,-0.217122515,12.41793512,0.76072837,-0.021398432999999998,-0.28430749899999996,0.952532935,1.5878399669999999,50.41053707,0.006279165,0.061317812,-0.001489774,0.0,157427946,0,0,0,0,1
157470324,0.0006684999999999999,0.25678396,-0.296292451,0.0,1.0,1353.0,2000.0,1000.0,1499.0,1500.0,1628.0,12.096649099999999,12.36307456,12.16934024,12.29368948,12.56447495,13.60834302,13.90808614,90.01485175,90.01485175,12.0792005,-0.000711829,-0.005841746,-9.84e-05,-0.250853936,0.19128874699999998,-0.022059006000000003,2.0,8.082216443,9.082216443,11,0,0,1,0,0.0,0,0,0,0,0,-0.007098294000000001,0.045496528,1.58113506,1.5855291169999999,0.16338196800000002,347.1040997,35.57685466,-0.004067604,0.222085859,-0.192161725,0.0,-0.556853874,0.184645223,-8.955917636,3344830000000000.0,960.3861821,12.07874862,-0.001507916,-0.068387459,-0.005351654,-0.448984248,0.1924455,-8.892103276,-0.008922641,-0.075198044,-0.00880359,3344830000000000.0,50.18237565,50.5166523,-0.19522565100000003,-0.007727217,10.2203765,12.98291137,-0.055250692000000004,0.164316463,-0.345480733,142.7707878,449.8155341,12.07850693,96037.54477000001,1.141084867,-0.009997206,0.216890957,0.45203900399999997,-0.00455785,-0.060447836,-0.009546663,-0.006864353,0.045809965,1.581243774,0.703158866,-0.018692693,0.013671031,0.7106555040000001,0.0,398723589.2,327393452.1,450395.3985,12.38663673,-0.168141624,12.38256551,0.664512886,1.5844546259999999,0,0,0.0,39.8714138,32.7364372,105.02990020000001,249.51670180000002,-50.25585067,-0.21713380899999998,12.40563747,0.7943844729999999,-0.026271556,-0.272964284,0.918790908,1.5876265390000002,50.38198701,-0.007924361999999999,0.060602964,-0.00152696,0.0,157470324,0,0,0,0,1
157508675,0.000372311,0.257633889,-0.29329715100000003,0.0,1.0,1351.0,2000.0,1000.0,1504.0,1495.0,1629.0,12.06397246,12.32963983,12.15527321,12.27968353,12.55014817,13.59476321,13.89419349,89.76593319,89.76593319,12.07937011,-0.000711248,-0.0058424869999999995,-9.76e-05,-0.250863424,0.19132042300000002,-0.022043549,2.0,8.084816963,9.084816963,11,0,0,1,0,0.0,0,0,0,0,0,-0.0076308240000000005,0.04362502099999999,1.580574839,1.585514268,0.18346490199999999,346.6282401,35.52678931,-0.004057539000000001,0.22241380800000002,-0.19216442,0.0,-0.5077956229999999,0.192960085,-8.881481648,3344830000000000.0,960.3942207,12.07894569,-0.002519701,-0.07148771,-0.0038765920000000003,-0.385602815,0.22451349899999998,-8.877850626,-0.010171488000000001,-0.080737872,-0.010901148000000001,3344830000000000.0,50.1836839,50.51526235,-0.411971698,0.011681499,10.22036953,12.99899627,-0.055572527999999996,0.18531682100000002,-0.34570963600000004,142.8741698,449.7331046,12.07870044,96038.48585,1.1410961370000001,-0.24619978399999998,-0.161079663,-0.190115717,-7.63e-05,-0.057797636,-0.009370972,-0.006541305999999999,0.04352673,1.581458384,0.703106219,-0.017769321,0.012981039,0.710744169,0.0,398723588.7,327393507.5,450369.0826,12.36983919,-0.16440888,12.36763453,0.703706733,1.584194062,0,0,0.0,39.8714138,32.7364372,105.0236713,249.96817689999997,-50.22712804,-0.21723687100000003,12.39388428,0.827177556,-0.029451458,-0.264409305,0.8842305979999999,1.587419212,50.35326362,-0.007718266,0.075162112,-0.0016108510000000002,0.0,157508675,0,0,0,0,1
157546051,0.0005335159999999999,0.257593284,-0.293381322,0.0,1.0,1351.0,2000.0,1000.0,1503.0,1496.0,1633.0,12.03525994,12.30026474,12.14120618,12.26567757,12.535821400000001,13.5811834,13.88030083,89.51701464,89.51701464,12.07953971,-0.000710668,-0.005843229,-9.67e-05,-0.250872912,0.191352099,-0.022028092000000003,2.0,8.087417483,9.087417483,11,0,0,1,0,0.0,0,0,0,0,0,-0.0073556590000000005,0.043192941,1.580770692,1.585519469,0.17645802100000002,346.1576038,35.50822044,-0.004047129,0.222763202,-0.192173973,0.0,-0.46478230000000004,0.196789028,-8.862825841,2291670000000000.0,960.3944193,12.07917172,-0.007380811,-0.06633612700000001,-0.0077334990000000004,-0.560632875,0.19983453699999998,-9.080805194,-0.01214214,-0.074853223,-0.009102494000000001,2291670000000000.0,50.14435845,50.51694546,-0.548697454,0.013119456000000002,10.22036535,13.0024121,-0.055640929000000006,0.111063988,-0.331768145,142.9883017,449.68576720000004,12.07892422,96039.03199,1.141102582,0.36967029700000004,0.156006583,0.340166064,0.0007828039999999999,-0.05764532,-0.006841821,-0.006265422,0.041427093,1.5816733840000001,0.7030502470000001,-0.016927602,0.012339019,0.7108315390000001,0.0,398723588.1,327393563.0,450342.7668,12.35304164,-0.160676135,12.35270354,0.7429005790000001,1.5839334980000002,0,0,0.0,39.8714138,32.7364372,105.01728349999999,250.42834700000003,-50.19692163,-0.217095642,12.382370300000002,0.860570313,-0.029214973999999998,-0.24763655699999998,0.864697033,1.58722243,50.32305672,-0.00689849,0.083018254,-0.001835461,0.0,157546051,0,0,0,0,1
157581376,0.001745749,0.258241286,-0.293097012,0.0,1.0,1350.012202,2000.0,1000.0,1502.0,1497.0,1635.493899,12.12391978,12.39081935,12.12713914,12.25167162,12.52149462,13.56760359,13.86640818,89.26809608,89.26809608,12.07970932,-0.000710087,-0.00584397,-9.590000000000001e-05,-0.2508824,0.191383776,-0.022012636000000002,2.0,8.090018004,9.090018004,11,0,0,1,0,0.0,0,0,0,0,0,-0.0070804940000000005,0.042760862000000004,1.580966545,1.58552467,0.16945114,345.6869675,35.48965156,-0.004037491,0.223039648,-0.192179233,0.0,-0.423020977,0.199688867,-8.85572298,1020380000000000.0,960.3929939999999,12.07940376,-0.0042731570000000005,-0.078339258,-0.003251141,-0.47003901600000003,0.218257285,-8.970151823,-0.014262289,-0.066602387,-0.006496873,1020380000000000.0,50.10166634,50.51888317,-0.678793221,0.013068467,10.2203614,13.00477825,-0.055688333,0.028919061,-0.316652583,143.1033243,449.66074419999995,12.07915263,96039.28696,1.141105568,-0.349808854,1.1895002270000001,-0.131840836,0.000662724,-0.06520723099999999,-0.003502711,-0.005928437,0.039538621,1.5818887380000002,0.7029919840000001,-0.016139302,0.011793106000000001,0.710916777,0.0,398723587.5,327393619.0,450310.1848,12.34082932,-0.16,12.34082932,0.774452886,1.5838863,0,0,0.0,39.8714138,32.7364372,105.01038909999998,250.91622969999997,-50.16198605,-0.21617579999999997,12.37161875,0.8958743659999999,-0.018089702,-0.20467193399999997,0.893057074,1.587059253,50.28812152,-0.005868236,0.083709939,-0.002129277,0.0,157581376,0,0,0,0,1
157615727,-0.008961819000000001,0.258422812,-0.296419348,0.0,1.0,1349.0,2000.0,1000.0,1502.0,1497.0,1636.0,11.96177365,12.22501273,12.11307211,12.23766567,12.50716785,13.55402377,13.85251553,89.01917752,89.01917752,12.07987892,-0.000709507,-0.005844711,-9.51e-05,-0.250891888,0.19141545199999999,-0.021997179,2.0,8.092618524,9.092618524,11,0,0,1,0,0.0,0,0,0,0,0,-0.006805329000000001,0.042328782,1.581162399,1.5855298709999999,0.162444258,345.21633130000004,35.47108268,-0.00403039,0.223344607,-0.192191417,0.0,-0.38775967299999997,0.203492845,-8.859027101,12.07963808,960.3940104000001,12.07963808,-0.007166443000000001,-0.071227948,-0.0006243819999999999,-0.45019937299999996,0.20966025100000002,-8.945118407,-0.01614616,-0.059857546,-0.00343934,12.07963808,50.05897423,50.52082089,-0.808888988,0.013017478,10.22035744,13.0071444,-0.055735735999999994,-0.053225866,-0.301537021,143.218347,449.6295927,12.07939458,96039.67346,1.141110183,0.270871338,0.215647664,0.19082014600000002,-0.002343773,-0.056463512,-0.005331748000000001,-0.005719721999999999,0.041236437,1.582030964,0.702928718,-0.016670242,0.012462939,0.7109544609999999,0.0,398723587.0,327393675.2,450276.2168,12.32963127,-0.16,12.32963127,0.8043148529999999,1.5838863,0,0,0.0,39.8714138,32.7364372,105.00349469999999,251.4041125,-50.12705046,-0.215255957,12.36086721,0.9311784190000001,-0.00696443,-0.161707311,0.921417115,1.5868960769999998,50.25318632,-0.004731895,0.08445488599999999,-0.002466837,0.0,157615727,0,0,0,0,1
157650078,-0.007115683,0.267173999,-0.296571817,0.0,1.0,1349.0,2000.0,1000.0,1501.0,1498.0,1636.0,12.036806,12.30181136,12.09900508,12.22365971,12.49284107,13.54044396,13.83862288,88.77025896,88.77025896,12.08004853,-0.000708926,-0.0058454530000000005,-9.429999999999999e-05,-0.250901375,0.191447128,-0.021981722000000002,2.0,8.095219044,9.095219044,11,0,0,1,0,0.0,0,0,0,0,0,-0.006530164000000001,0.041896702,1.5813582519999998,1.5855350719999999,0.155437377,344.745695,35.4525138,-0.004021358,0.223643591,-0.192192975,0.0,-0.37893178,0.21097364899999999,-8.904652946,12.07988171,960.4049566,12.07988171,-0.012244961,-0.067669565,-0.008070345999999999,-0.41745841200000006,0.175889446,-8.904368363,-0.017069171,-0.059237088,0.00145597,12.07988171,50.01628212,50.52275861,-0.938984754,0.012966489,10.22035349,13.00951054,-0.055783139,-0.13537079400000002,-0.286421459,143.3333696,449.62223660000006,12.07963667,96039.77956,1.14111147,-0.331707785,0.023326884,0.141509093,-0.0029951979999999997,-0.063159744,-0.003574714,-0.0054676709999999995,0.045286784000000004,1.582183466,0.702842517,-0.018022342,0.013974868,0.71097984,0.0,398723586.4,327393731.4,450242.2488,12.31843321,-0.16,12.31843321,0.83417682,1.5838863,0,0,0.0,39.8714138,32.7364372,104.99719329999999,251.8684554,-50.09178502,-0.21415205399999998,12.35234897,0.963013879,0.001152854,-0.155790758,0.878250918,1.586826995,50.21792125,-0.003429008,0.083406365,-0.002881801,0.0,157650078,0,0,0,0,1
157692429,-0.005392274,0.27272113800000003,-0.300128819,0.0,1.0,1350.0,2000.0,1000.0,1500.516703,1498.483297,1636.0,12.06139865,12.32682919,12.08493805,12.20965376,12.4785143,13.52686415,13.82473022,88.52134041,88.52134041,12.08021813,-0.0007083460000000001,-0.005846194,-9.350000000000001e-05,-0.250910863,0.19147880399999997,-0.021966265,2.0,8.097819564,9.097819564,11,0,0,1,0,0.0,0,0,0,0,0,-0.006254999,0.041464622,1.581554105,1.5855402730000001,0.148430496,344.2750587,35.43394493,-0.0040103809999999995,0.22395040800000002,-0.19218409,0.0,-0.370103888,0.21845445300000002,-8.950278791,12.08012534,960.4159027999999,12.08012534,-0.011309396999999999,-0.06482859099999999,-0.004681258,-0.40729887600000003,0.209317933,-8.934855964,-0.017992182,-0.058616629,0.006351280999999999,12.08012534,49.97359001,50.52469633,-1.0690805209999998,0.0129155,10.22034954,13.01187669,-0.055830542999999996,-0.21751572100000002,-0.271305897,143.44839219999997,449.5428489,12.07987866,96040.70807000001,1.141122466,-0.093938334,-0.7228449570000001,-0.120680311,-0.0065005409999999994,-0.059281777,-0.004776881,-0.005061213,0.044588978,1.5824001719999998,0.702775205,-0.017632968,0.013872198999999998,0.7110580790000001,0.0,398723585.9,327393787.5,450208.2809,12.30723516,-0.16,12.30723516,0.864038786,1.5838863,0,0,0.0,39.8714138,32.7364372,104.99127240000001,252.3176945,-50.05630792,-0.21293005199999998,12.34526366,0.9926238079999999,0.007340144,-0.17364511800000001,0.7891918059999999,1.5868182869999998,50.18244454,-0.002375307,0.083375292,-0.003184567,0.0,157692429,0,0,0,0,1
157729560,-0.00513172,0.272989534,-0.300698374,0.0,1.0,1350.0,2000.0,1000.0,1500.5243050000001,1498.4756949999999,1636.0,12.06302606,12.32852671,12.07087102,12.19564781,12.46418752,13.51328434,13.81083757,88.27242185,88.27242185,12.08038774,-0.000707765,-0.005846935,-9.27e-05,-0.25092035100000004,0.191510481,-0.021950808,2.0,8.100420084,9.100420084,11,0,0,1,0,0.0,0,0,0,0,0,-0.005979834,0.041032542000000005,1.5817499590000001,1.5855454740000001,0.141423614,343.8044224,35.41537605,-0.004002689,0.22428392800000002,-0.19217403,0.0,-0.395284005,0.212119015,-9.033737907,719951000000000.0,960.41825,12.08037543,-0.012628933,-0.064307565,0.0029378779999999997,-0.42439225,0.194620066,-9.027709871,-0.018034991,-0.054535024,0.005895895,719951000000000.0,49.9235875,50.52355212,-1.13642307,-0.01399652,10.2203495,12.99489171,-0.055490845,-0.273285251,-0.25900933800000003,143.5469263,449.4890614,12.08013571,96041.29977,1.141129592,0.882661438,-0.975351678,0.294315007,-0.011001278,-0.055627740999999994,-0.007466528,-0.004712093,0.042676108,1.5826170880000001,0.702717452,-0.016831717,0.013322258,0.7111450909999999,0.0,398723585.3,327393843.7,450174.3129,12.29603711,-0.16,12.29603711,0.8939007529999999,1.5838863,0,0,0.0,39.8714138,32.7364372,104.9853515,252.76693360000002,-50.02083083,-0.21170805,12.33817836,1.022233737,0.013527434,-0.19149947899999997,0.7001326940000001,1.586809579,50.14696782,-0.00133233,0.08391951800000001,-0.003507138,0.0,157729560,0,0,0,0,1
157774261,-0.0028709559999999996,0.27326740899999996,-0.301248502,0.0,1.0,1349.5319060000002,2000.0,1000.0,1499.4680939999998,1499.5319060000002,1636.0,12.04474503,12.30976074,12.05680399,12.18164185,12.44986075,13.49970453,13.79694492,88.02350329,88.02350329,12.08055734,-0.000707185,-0.005847677,-9.19e-05,-0.250929839,0.191542157,-0.021935352,2.0,8.103020604,9.103020604,11,0,0,1,0,0.0,0,0,0,0,0,-0.005704669,0.040600462999999996,1.5819458119999998,1.585550675,0.134416733,343.33378619999996,35.39680717,-0.003996294,0.224616785,-0.19215857100000003,0.0,-0.446507431,0.19520310899999999,-9.146169714,1991240000000000.0,960.4140122000001,12.08063046,-0.009856214,-0.057090895,0.004697117,-0.425883122,0.22453728,-9.010751978,-0.017403741,-0.047802875,0.001342949,1991240000000000.0,49.86893175,50.52044620000001,-1.163821831,-0.058006170999999995,10.22035194,12.96558932,-0.054904749,-0.312266267,-0.24850713600000002,143.634965,449.4456346,12.08039497,96041.79077,1.1411353709999998,0.109919966,0.535273408,-0.23673908100000002,-0.007824042,-0.056865577,-0.002100529,-0.00445721,0.040558622999999995,1.582834464,0.702659446,-0.015990688,0.012667069,0.711233797,0.0,398723584.7,327393898.9,450138.0224,12.287419400000001,-0.16,12.28655931,0.928063585,1.583901301,0,0,0.0,39.8714138,32.7364372,104.97884950000001,253.25273109999998,-49.97902912,-0.210346363,12.33306456,1.0517253309999999,0.025073795,-0.157775671,0.691953994,1.586805489,50.10516538,-0.000291365,0.101484815,-0.0037880920000000003,0.0,157774261,0,0,0,0,1
157815481,-0.002662065,0.27260423300000003,-0.300080697,0.0,1.0,1349.0,2000.0,1000.0,1500.0,1499.0,1640.0,12.08538037,12.351324900000002,12.04273696,12.1676359,12.43553397,13.48612471,13.78305227,87.77458473,87.77458473,12.08072695,-0.0007066039999999999,-0.005848418,-9.109999999999999e-05,-0.250939327,0.191573833,-0.021919895,2.0,8.105621123999999,9.105621123999999,11,0,0,1,0,0.0,0,0,0,0,0,-0.005429504,0.040168382999999995,1.582141665,1.585555876,0.127409852,342.8631499,35.3782383,-0.003987538,0.22493213399999998,-0.192150555,0.0,-0.497730857,0.178287202,-9.25860152,3262530000000000.0,960.4097742999999,12.08088549,-0.003685377,-0.054165345,0.003301298,-0.35294932799999995,0.199067123,-9.096558279,-0.016772492,-0.041070726,-0.003209997,3262530000000000.0,49.81427601,50.51734028,-1.191220593,-0.102015823,10.22035439,12.93628693,-0.054318653,-0.35124728299999997,-0.23800493399999997,143.72300380000001,449.39722080000007,12.08068556,96042.34605,1.141142003,0.37588475600000004,0.146604111,-0.609221544,-0.011280258,-0.053095352,0.00290616,-0.004174196,0.038614311,1.58305196,0.702599286,-0.015201188000000001,0.012082902,0.7113206320000001,0.0,398723584.2,327393952.8,450099.0152,12.28182009,-0.16,12.27909382,0.96725743,1.5839338509999998,0,0,0.0,39.8714138,32.7364372,104.9723354,253.73929429999998,-49.93709494,-0.20898175,12.32799206,1.081214446,0.036732403,-0.12297154800000001,0.685469351,1.5868014959999999,50.06323043,0.000680614,0.10454254,-0.0036849770000000003,0.0,157815481,0,0,0,0,1
157853832,-0.003096685,0.272543738,-0.300172761,0.0,1.0,1349.0,2000.0,1000.0,1500.0,1499.0,1642.0,11.93279164,12.19535894,12.02866992,12.15362995,12.42120719,13.472544899999999,13.76915961,87.52566618,87.52566618,12.08089655,-0.000706024,-0.00584916,-9.03e-05,-0.250948815,0.19160551,-0.021904438,2.0,8.108221644,9.108221644,11,0,0,1,0,0.0,0,0,0,0,0,-0.005154339,0.039736303,1.582337519,1.585561077,0.12040297,342.39251360000003,35.35966942,-0.003976625,0.22524135899999997,-0.192128562,0.0,-0.42757900200000004,0.186355042,-9.232631367,3344830000000000.0,960.4210883999999,12.08123828,-0.020265283999999998,-0.058401355999999995,-0.0038860929999999998,-0.41188183700000003,0.192319438,-9.038963853,-0.01574635,-0.039772516,0.001737564,3344830000000000.0,49.75962027,50.51423436,-1.218619354,-0.14602547400000002,10.22035684,12.90698454,-0.053732558,-0.3902283,-0.22750273199999999,143.8110425,449.4701068,12.08094549,96041.51179,1.141132025,-0.15113744099999998,-0.703649883,-0.029756171,-0.010153301,-0.046282065,0.0016692170000000002,-0.003747634,0.03692959,1.5832698219999999,0.70253735,-0.014453462,0.01164114,0.7114048070000001,0.0,398723583.6,327394006.7,450060.008,12.27622078,-0.16,12.27162833,1.006451274,1.5839664009999999,0,0,0.0,39.8714138,32.7364372,104.96612590000001,254.2127518,-49.8953434,-0.20749986199999998,12.32363032,1.108682142,0.04093643,-0.092936636,0.6659924079999999,1.586770565,50.02147867,0.001827971,0.103098644,-0.0032856120000000003,0.0,157853832,0,0,0,0,1
157892183,-0.001969957,0.273820816,-0.300705279,0.0,1.0,1347.0,2000.0,1000.0,1500.0,1499.0,1642.0,11.89342785,12.15505601,12.01460289,12.13962399,12.40688042,13.45896509,13.75526696,87.27674762,87.27674762,12.08106616,-0.000705443,-0.005849900999999999,-8.950000000000001e-05,-0.25095830199999997,0.19163718600000001,-0.021888981000000002,2.0,8.110822164,9.110822164,11,0,0,1,0,0.0,0,0,0,0,0,-0.004879174,0.039304223,1.5825333719999999,1.5855662780000002,0.113396089,341.92187739999997,35.34110054,-0.00396691,0.225540784,-0.19210590600000002,0.0,-0.349025818,0.19615220000000003,-9.197081337,3344830000000000.0,960.4334787999999,12.08159783,-0.02020619,-0.054403938,-0.00515474,-0.407440395,0.253570419,-9.135231791,-0.014692874,-0.03885043,0.007342728000000001,3344830000000000.0,49.70496453,50.51112844,-1.246018115,-0.190035125,10.22035928,12.87768215,-0.053146462,-0.429209316,-0.21700053,143.8990813,449.50215180000004,12.08123575,96041.15526,1.1411277340000001,-0.514527019,0.317972247,0.262121122,-0.004799509,-0.044546305999999994,0.002449373,-0.003350305,0.039240025,1.5834046999999998,0.702474858,-0.015136495,0.012593068999999998,0.7114349459999999,0.0,398723583.1,327394060.7,450021.0008,12.27062148,-0.16,12.26416283,1.045645118,1.58399895,0,0,0.0,39.8714138,32.7364372,104.96048259999999,254.66185019999998,-49.85393134,-0.205800001,12.32058963,1.132392734,0.031285022999999995,-0.071766003,0.6223673670000001,1.5866895669999999,49.98006737,0.00295135,0.100818465,-0.002987006,0.0,157892183,0,0,0,0,1
157934534,0.000243777,0.28440395,-0.300887138,0.0,1.0,1347.0,2000.0,1000.0,1499.0,1500.0,1641.437688,11.98539096,12.249057400000002,12.00053586,12.12561804,12.39255364,13.44538528,13.74137431,87.30945997,87.30945997,12.08138447,-0.000704863,-0.005850642,-8.87e-05,-0.25096779,0.191668862,-0.021873524,2.0,8.113422685,9.113422685,11,0,0,1,0,0.0,0,0,0,0,0,-0.004604009,0.038872143,1.582729225,1.585571479,0.10638920800000001,341.4512411,35.32253166,-0.003956773,0.22583620699999998,-0.192078904,0.0,-0.317041654,0.21832510800000002,-9.194883259,3344830000000000.0,960.4429024,12.08193622,-0.013195806000000001,-0.041715393999999996,-0.004864399,-0.330058421,0.178843114,-9.145236545,-0.01293556,-0.038277305,0.009686048000000001,3344830000000000.0,49.64883262,50.50518694,-1.275021449,-0.235832882,10.22036139,12.84391637,-0.052471103,-0.46026883399999996,-0.207761707,143.98139540000003,449.1821585,12.08152621,96044.82987999999,1.141171478,-0.309286477,-0.44994853700000004,-0.347845181,-0.010762849,-0.045651465999999995,0.001041768,-0.003062076,0.043101377999999996,1.583567486,0.7023896620000001,-0.016409853999999998,0.014050587,0.7114647940000001,0.0,398723582.5,327394114.6,449981.9936,12.26502217,-0.16,12.25669734,1.084838963,1.5840315,0,0,0.0,39.8714138,32.7364372,104.95483929999999,255.1109486,-49.81251928,-0.204100141,12.31754894,1.156103327,0.021633616,-0.050595369,0.578742326,1.5866085680000002,49.93865607,0.0035132320000000002,0.10051942800000001,-0.0028361190000000002,0.0,157934534,0,0,0,0,1
157968885,-7.58e-05,0.285402395,-0.300490679,0.0,1.0,1347.0,2000.0,1000.0,1499.4300859999998,1499.5699140000002,1641.0,12.04202453,12.30680774,11.98646883,12.11161209,12.37822687,13.43180547,13.72748166,87.37737619,87.37737619,12.08172137,-0.000704283,-0.005851384,-8.79e-05,-0.250977278,0.19170053899999998,-0.021858067000000002,2.0,8.116023205,9.116023205,11,0,0,1,0,0.0,0,0,0,0,0,-0.004328844,0.038440063999999996,1.5829250780000002,1.58557668,0.09938232599999999,340.9806048,35.30396279,-0.003949021,0.226158041,-0.192042436,0.0,-0.391570023,0.268803794,-9.268967676,3344830000000000.0,960.4455402000001,12.08222622,-0.009711139,-0.046072046,0.001905891,-0.371409627,0.226721852,-9.11321791,-0.009568427,-0.038502319,0.00456889,3344830000000000.0,49.58923357,50.49258537,-1.307793529,-0.28583046100000004,10.22036271,12.79966716,-0.051586089,-0.472722697,-0.20149025,144.0502641,449.23708789999995,12.08184715,96044.21484,1.141164158,0.41622141,0.724858155,-0.448343664,-0.015628809,-0.041322405,-0.003170826,-0.0026804909999999997,0.042383625999999994,1.583785249,0.7023209840000001,-0.016022041,0.013932499999999999,0.711543632,0.0,398723581.9,327394168.6,449942.3527,12.25961494,-0.15923184599999998,12.24961592,1.122880576,1.584007075,0,0,0.0,39.8714138,32.7364372,104.9487387,255.5868054,-49.7665804,-0.202168298,12.31589314,1.178769601,0.033976291,-0.034394575,0.548428971,1.5865349080000002,49.89271712,0.004444153,0.098734507,-0.0023910389999999998,0.0,157968885,0,0,0,0,1
158007236,-0.000954282,0.285656024,-0.30548111,0.0,1.0,1349.0,2000.0,1000.0,1499.0,1500.0,1641.0,12.08509767,12.3509689,11.972401800000002,12.09760614,12.36390009,13.41822565,13.713589,87.44529241,87.44529241,12.08205828,-0.000703702,-0.005852125,-8.71e-05,-0.25098676600000003,0.191732215,-0.021842611,2.0,8.118623725,9.118623725,11,0,0,1,0,0.0,0,0,0,0,0,-0.004053678,0.038007984,1.583120932,1.58558188,0.092375445,340.5099685,35.28539391,-0.0039422220000000004,0.226497411,-0.192006603,0.0,-0.466098391,0.31928248,-9.343052092999999,3344830000000000.0,960.4481778999999,12.08251622,-0.009985468,-0.033421054,-0.00033288800000000004,-0.384369422,0.23262685600000002,-9.260908741,-0.006201294,-0.038727332999999996,-0.000548269,3344830000000000.0,49.52963452,50.4799838,-1.34056561,-0.335828041,10.22036403,12.75541794,-0.050701075,-0.48517656,-0.195218792,144.1191327,449.2037965,12.08213753,96044.58292,1.141168489,-0.053638517999999996,-0.05480922,0.322664619,-0.010435845,-0.032608996,-0.003765802,-0.002216717,0.040586483,1.5840033919999998,0.702260898,-0.0152213,0.013464718,0.711629515,0.0,398723581.4,327394223.3,449897.1864,12.25588238,-0.15176635300000002,12.24588318,1.150876175,1.583485909,0,0,0.0,39.8714138,32.7364372,104.9424603,256.0730605,-49.71888237,-0.200146305,12.31477551,1.201030049,0.054865971,-0.020125083999999998,0.523288602,1.586464101,49.84501872,0.005378789,0.099533371,-0.002097139,0.0,158007236,0,0,0,0,1
158053587,0.001021105,0.284147236,-0.305231076,0.0,1.0,1349.0,2000.0,1000.0,1499.0,1500.0,1642.755351,11.96935004,12.23251457,11.95833477,12.08360018,12.34957332,13.40464584,13.69969635,87.51320863,87.51320863,12.08239518,-0.0007031219999999999,-0.005852866,-8.63e-05,-0.250996254,0.19176389100000002,-0.021827153999999998,2.0,8.121224245,9.121224245,11,0,0,1,0,0.0,0,0,0,0,0,-0.003687893,0.038036359,1.5833093930000002,1.5855868709999998,0.085721811,340.0618413,35.28803908,-0.003936394,0.226810447,-0.19197959,0.0,-0.44137094600000004,0.287896879,-9.370823866,3344830000000000.0,960.4492728,12.08281415,-0.004976739,-0.037678646,-6.890000000000001e-05,-0.363904005,0.208782045,-9.286334238,-0.0036700459999999997,-0.035730847999999996,-0.004138436,3344830000000000.0,49.47003547,50.46738223,-1.37333769,-0.38582562,10.22036535,12.71116873,-0.049816062,-0.497630423,-0.188947335,144.1880013,449.1374203,12.082433,96045.34252,1.141177557,-0.0074386769999999994,0.45311720000000005,-0.130581122,-0.005411116999999999,-0.029285255,-0.0027517440000000004,-0.001852575,0.038645625,1.584221651,0.7022001409999999,-0.014404288000000001,0.012911177,0.711716714,0.0,398723580.8,327394278.0,449852.0202,12.25214982,-0.14430086,12.24215043,1.178871774,1.5829647430000002,0,0,0.0,39.8714138,32.7364372,104.93627690000001,256.55587369999995,-49.67135542,-0.19813022800000002,12.313672500000001,1.222776148,0.074966059,-0.004358169,0.49584725399999996,1.5863803769999998,49.79749148,0.006083678,0.11585796,-0.001705211,0.0,158053587,0,0,0,0,1
