,timestamp,control[0],control[1],control[2],control[3],control[4],output[2],output[3],output[4],output[5],output[6],output[7],indicated_airspeed_m_s,true_airspeed_m_s,indicated_airspeed_m_s.1,equivalent_airspeed_m_s,true_airspeed_m_s.1,equivalent_ground_minus_wind_m_s,true_ground_minus_wind_m_s,differential_pressure_raw_pa,differential_pressure_filtered_pa,temperature,gyro_bias[0],gyro_bias[1],gyro_bias[2],accel_bias[0],accel_bias[1],accel_bias[2],instance_count,seq_reached,seq_current,seq_total,item_changed_index,item_do_jump_remaining,valid,warning,finished,failure,stay_in_failsafe,flight_termination,item_do_jump_changed,execution_mode,nav_roll,nav_pitch,nav_bearing,target_bearing,xtrack_error,wp_dist,acceptance_radius,rollspeed_integ,pitchspeed_integ,yawspeed_integ,additional_integ1,x,y,z,temperature.1,pressure,temperature.2,gyro_rad[0],gyro_rad[1],gyro_rad[2],accelerometer_m_s2[0],accelerometer_m_s2[1],accelerometer_m_s2[2],x.1,y.1,z.1,temperature.3,altitude_sp,altitude_filtered,height_rate_setpoint,height_rate,airspeed_sp,airspeed_filtered,airspeed_derivative_sp,airspeed_derivative,throttle_integ,pitch_integ,baro_alt_meter,baro_temp_celcius,baro_pressure_pa,rho,xyz[0],xyz[1],xyz[2],xyz[0].1,xyz[1].1,xyz[2].1,roll_body,pitch_body,yaw_body,q_d[0],q_d[1],q_d[2],q_d[3],thrust_body[0],lat,lon,alt,vel_m_s,vel_n_m_s,vel_e_m_s,vel_d_m_s,cog_rad,ground_contact,maybe_landed,landed,ref_lat,ref_lon,x.2,y.2,z.2,vx,vy,vz,ax,ay,az,yaw,dist_bottom,roll,pitch,yaw.1,thrust_body[0].1,timestamp.1,isTakeoff,isClimbing,isDescending,isCruise,isLand
4188,215027393,-0.000771931,0.345302536,-0.011995472,0.0,1.0,1494.0,2000.0,1000.0,1500.0,1499.0,1670.0,11.81824181,12.07382866,11.80923412,11.93573739,12.19406823,13.07202939,13.35495141,86.06555935,86.06555935,12.12824165,-0.00038836400000000004,-0.005858116,0.00036940800000000005,-0.26265231,0.219074792,-0.014123906,2.0,8.890978196,9.890978196,11,0,0,1.0,0.0,0.0,0,0,0,0,0,0.006433426,0.045831444000000006,1.574582116,1.570052157,-0.158071089,285.45034960000004,34.59961577,-0.0035285140000000004,0.292148872,-0.008375211,0.0,-0.247354877,0.27420062,-9.806162173999999,-1.05e+21,961.2969334,12.1305032,-0.000510169,-0.008617389,-0.0014929329999999999,-0.304468939,0.190457026,-9.857294228999999,-0.008940374000000001,-0.002430687,-0.003876272,-1.05e+21,41.5203021,43.43746775,-1.4469400469999998,-1.338300716,10.21704909,12.23325486,-0.040324125,-0.023294278999999998,-0.120905634,154.7528375,441.83995530000004,12.13042052,96129.32562999999,1.142175422,-0.321157663,0.554745304,-0.06267474599999999,-7.69e-05,0.005557671,-0.0015553379999999999,0.006416916,0.044739309000000005,1.574518691,0.70566009,-0.013581818,0.018059237,0.708190029,0.0,398704021.0,327432414.9,442653.1882,12.07,0.00569914,12.07139785,1.2370974190000001,1.569799793,0,0,0.0,39.8714138,32.7364372,-112.41974990000001,583.5552853999999,-42.1981588,0.035508562,12.07936124,1.353604777,0.060931842,-0.008985261999999999,-0.026570519,1.566912981,42.281324,0.005212169,0.09017653099999999,0.0020498120000000002,0.0,215027393,0,0,0,0,1
4189,215071275,0.000478274,0.343759985,-0.012193175,0.0,1.0,1493.0,2000.0,1000.0,1500.0,1499.0,1673.0,11.82707996,12.08282588,11.80206562,11.9284602,12.18659465,13.07185874,13.35473463,85.99351490000001,85.99351490000001,12.128643499999999,-0.000388447,-0.005857668000000001,0.000369248,-0.262633683,0.219032781,-0.013943311000000002,2.0,8.893578716,9.893578716,11,0,0,1.0,0.0,0.0,0,0,0,0,0,0.006443558,0.045250345,1.5745683480000001,1.570051886,-0.157602251,284.8589508,34.60129549,-0.003520091,0.29241074899999997,-0.008345985,0.0,-0.223766548,0.22809069399999998,-9.839125294,-1.05e+21,961.2981921,12.13088709,-0.00733422,-0.003430491,0.000896579,-0.27231476600000004,0.199058266,-9.819046703,-0.00389319,-0.003443414,-0.005078389,-1.05e+21,41.43341944,43.37255224,-1.4474220969999998,-1.339283871,10.21700067,12.22724083,-0.040204811,-0.024592047000000002,-0.121292544,154.7694394,441.696279,12.13082011,96130.95776,1.142194876,0.02329424,0.25308235100000004,-0.306799373,-0.0015379629999999998,0.004657595,-0.002482091,0.006549929,0.041874384,1.574503305,0.7056849829999999,-0.012520139,0.017095731,0.7082086890000001,0.0,398704021.0,327432484.9,442593.114,12.07,0.003324665,12.06664866,1.229973995,1.569924121,0,0,0.0,39.8714138,32.7364372,-112.4193916,584.1189193,-42.1383893,0.035856897,12.08008255,1.3532750580000001,0.111349725,-0.009100803000000001,-0.005985599,1.566778257,42.22155354,0.005581769,0.084678252,0.002015618,0.0,215071275,0,0,0,0,1
4190,215122315,0.001421846,0.33978636100000004,-0.012027453,0.0,1.0,1494.0,2000.0,1000.0,1499.187037,1499.812963,1674.0,11.83252194,12.08842457,11.79489711,11.92118302,12.17912107,13.0716881,13.35451785,85.92147045,85.92147045,12.12904535,-0.00038852900000000003,-0.005857219,0.000369087,-0.262615056,0.21899077,-0.013762715,2.0,8.896179236,9.896179236,11,0,0,1.0,0.0,0.0,0,0,0,0,0,0.006453691,0.044669245999999996,1.57455458,1.570051615,-0.157133413,284.267552,34.60297521,-0.003512108,0.292669109,-0.008324044000000001,0.0,-0.24563979600000002,0.218197224,-9.842884296,-1.05e+21,961.3080624,12.13127134,0.005113302,-0.003642114,-0.002878264,-0.266882928,0.137754031,-9.813127631,-0.004443321,-0.006487491,-0.003113842,-1.05e+21,41.34539274,43.30664903,-1.446855079,-1.34039111,10.2169454,12.22019498,-0.040064996,-0.025989426,-0.12168578699999999,154.7857321,441.82809000000003,12.1312207,96129.44375,1.142176766,-0.050299601,-0.034216157999999997,-0.227006381,0.005436936,0.0031976999999999995,0.000257588,0.006647131,0.03927513,1.57448768,0.70570671,-0.011565172,0.016213226,0.708224106,0.0,398704021.0,327432555.0,442533.0398,12.07,0.00095019,12.06189948,1.22285057,1.570048448,0,0,0.0,39.8714138,32.7364372,-112.4192148,584.7180126000001,-42.07518174,0.037172297,12.08188332,1.3520151040000001,0.106710434,0.007771701999999999,-0.040683382000000004,1.566641339,42.15834501,0.0058439930000000005,0.079745597,0.001967918,0.0,215122315,0,0,0,0,1
4191,215171040,0.001304752,0.347301295,-0.012242562,0.0,1.0,1493.677536,2000.0,1000.0,1499.0,1500.0,1673.0,11.77794879,12.0325312,11.78772861,11.91390583,12.17164748,13.07151746,13.35430107,85.849426,85.849426,12.12944719,-0.00038861099999999997,-0.005856771,0.000368926,-0.26259642899999996,0.218948759,-0.013582118999999998,2.0,8.898779756,9.898779756,11,0,0,1.0,0.0,0.0,0,0,0,0,0,0.006463824,0.044088147,1.574540813,1.5700513440000001,-0.156664575,283.6761531,34.60465493,-0.0035038870000000002,0.292895941,-0.008297914,0.0,-0.282235831,0.22003249800000002,-9.837185508,-1.05e+21,961.3207215,12.13165572,-0.003873728,-0.0059013830000000005,-0.006756698,-0.207501651,0.19003466800000002,-9.852192529,-0.006806148000000001,-0.010189422,-0.000123766,-1.05e+21,41.25736604,43.24074582,-1.4462880619999998,-1.341498349,10.21689013,12.21314913,-0.039925181000000004,-0.027386804,-0.12207903,154.80202490000002,441.61713160000005,12.13159525,96131.87706,1.142205712,-0.6605949179999999,0.31879178,0.265527124,0.002107802,0.0012509469999999999,-0.00198259,0.00673991,0.044954469000000004,1.574479405,0.705674715,-0.013543693999999998,0.018249776000000002,0.708171267,0.0,398704021.1,327432624.2,442471.9686,12.07,0.001424285,12.05857486,1.22284857,1.570023624,0,0,0.0,39.8714138,32.7364372,-112.4190967,585.3285893,-42.01086077,0.038800881,12.08403368,1.350453892,0.084240811,0.030145807,-0.093284534,1.56650371,42.09402307,0.00589726,0.093341916,0.00191722,0.0,215171040,0,0,0,0,1
4192,215214922,0.000687597,0.34731936399999996,-0.012250406,0.0,1.0,1493.0,2000.0,1000.0,1499.0,1500.0,1671.0,11.85387666,12.11008031,11.780560099999999,11.90662865,12.1641739,13.07134681,13.35408429,85.77738155,85.77738155,12.12984904,-0.00038869400000000003,-0.005856322,0.000368765,-0.262577801,0.218906748,-0.013401524,2.0,8.901380276,9.901380276,11,0,0,1.0,0.0,0.0,0,0,0,0,0,0.0064739559999999995,0.043507048,1.574527045,1.5700510730000001,-0.156195737,283.0847543,34.60633465,-0.0034974620000000002,0.29316416300000003,-0.008279452,0.0,-0.310239384,0.204348875,-9.780572037,-1.05e+21,961.3305094000001,12.13210085,0.0008440569999999999,-0.0054770090000000006,0.0007304410000000001,-0.234151348,0.131273619,-9.91774656,-0.006507346999999999,-0.008042863,0.000211887,-1.05e+21,41.16933934,43.174842600000005,-1.445721045,-1.342605588,10.21683487,12.20610328,-0.039785366,-0.028784182999999998,-0.122472273,154.8183177,441.5308329,12.13199644,96132.87767,1.142217605,0.167518935,0.205718619,-0.282827037,-0.0027082879999999997,8.04e-05,-0.001568325,0.006697818,0.044736304000000005,1.574464221,0.705681309,-0.013481148,0.018158009,0.708168345,0.0,398704021.4,327432692.8,442410.2322,12.07,0.00379876,12.05620062,1.22759752,1.5698992969999999,0,0,0.0,39.8714138,32.7364372,-112.41866770000001,585.9064873,-41.9498818,0.039587155,12.08528126,1.349860059,0.06592659299999999,0.015405148,-0.052785047,1.566433489,42.03304446,0.005954689,0.091394167,0.0018669329999999999,0.0,215214922,0,0,0,0,1
4193,215262805,0.000826264,0.34527113200000004,-0.012105221999999999,0.0,1.0,1493.658532,2000.0,1000.0,1499.0,1500.0,1670.0,11.79385764,12.04877715,11.7733916,11.89935146,12.15670031,13.07117617,13.35386752,85.7053371,85.7053371,12.13025089,-0.00038877599999999997,-0.0058558740000000005,0.000368604,-0.262559174,0.218864737,-0.013220928,2.0,8.903980796,9.903980796,11,0,0,1.0,0.0,0.0,0,0,0,0,0,0.006484089,0.042925948,1.5745132769999999,1.570050802,-0.155726899,282.4933555,34.60801437,-0.003488925,0.293436104,-0.008266721999999999,0.0,-0.334376577,0.180782272,-9.701048485,-1.05e+21,961.3390052999999,12.13257333,0.0011637239999999999,-0.011290966000000001,-0.00103692,-0.31081846399999996,0.174693026,-9.784970452,-0.005010892,-0.0032646570000000002,-0.0006468719999999999,-1.05e+21,41.08820068,43.11387901,-1.456513177,-1.3434948290000002,10.21681501,12.20863562,-0.039836412,-0.028790036,-0.122839855,154.8305511,441.6017593,12.13239744,96132.05626,1.14220791,-0.04868219,-0.512140079,-0.367745469,0.000146461,0.001352677,0.00023167900000000002,0.006786858000000001,0.042265298,1.574449178,0.705703181,-0.012574513999999998,0.017317878000000002,0.7081841740000001,0.0,398704021.6,327432761.4,442348.4959,12.07,0.006173235,12.05382638,1.232346469,1.569774969,0,0,0.0,39.8714138,32.7364372,-112.4180989,586.4696807,-41.89040663,0.039994416,12.08612262,1.349701517,0.049482182,-0.016036043,0.02960694,1.5663936,41.97357026,0.006239656,0.08632321300000001,0.001797684,0.0,215262805,0,0,0,0,1
4194,215306687,-0.000443062,0.342814389,-0.012283711000000001,0.0,1.0,1493.0,2000.0,1000.0,1500.0,1499.0,1673.0,11.84373812,12.09960991,11.77460877,11.90085016,12.15819339,13.07179475,13.35445808,85.71030304,85.71030304,12.13064812,-0.000388696,-0.005855693,0.000368547,-0.262539711,0.218818987,-0.013023626000000002,2.0,8.906581316,9.906581316,11,0,0,1.0,0.0,0.0,0,0,0,0,0,0.006523767,0.04243357,1.57449983,1.570050543,-0.15527346,281.91950760000003,34.61071433,-0.00347922,0.293688381,-0.008247963,0.0,-0.361547004,0.179228663,-9.695810649,-1.05e+21,961.3465497000001,12.13299084,-0.005628555,-0.011152226000000001,0.0005017590000000001,-0.26108048899999997,0.135080656,-9.762442572000001,-0.003749109,-0.003313006,-0.003217024,-1.05e+21,41.01008745,43.05508505,-1.472294587,-1.3442883190000001,10.216810699999998,12.215375,-0.039971289,-0.02818469,-0.123196166,154.8410014,441.4181156,12.13279783,96134.14122,1.142232581,0.569441245,-0.22407210800000002,-0.33276358899999997,-0.001602779,0.003577801,-0.001903229,0.006771935,0.039649992,1.574433706,0.7057243390000001,-0.011653453000000001,0.016389988,0.708200956,0.0,398704021.9,327432830.0,442286.7596,12.07,0.00854771,12.05145215,1.237095419,1.5696506419999998,0,0,0.0,39.8714138,32.7364372,-112.4175923,587.0624458,-41.82827605,0.040259567999999996,12.08725003,1.349691287,0.034060874,-0.016994006000000002,0.044923705999999994,1.5663334119999999,41.91144005,0.006240417,0.08153642400000001,0.0017825439999999998,0.0,215306687,0,0,0,0,1
4195,215350569,0.000135787,0.340228242,-0.011938843999999999,0.0,1.0,1494.0,2000.0,1000.0,1500.0,1499.0,1673.0,11.79039484,12.04516425,11.78087957,11.90763763,12.16509022,13.07288895,13.355535199999998,85.76167922,85.76167922,12.13104256,-0.00038851699999999995,-0.005855674,0.000368551,-0.262519743,0.21877098399999997,-0.012816257,2.0,8.909181836,9.909181836,11,0,0,1.0,0.0,0.0,0,0,0,0,0,0.006581251,0.041994659000000004,1.574486575,1.570050291,-0.154829301,281.35623680000003,34.61402913,-0.003471287,0.293932437,-0.008233363,0.0,-0.39054540600000004,0.190941163,-9.735341027,-1.05e+21,961.3535207,12.13337521,-0.0005087059999999999,-0.01032506,-0.000623851,-0.24874719,0.18732485899999998,-9.762467852,-0.0026287520000000003,-0.006270073,-0.0068185469999999995,-1.05e+21,40.93197422,42.99629109,-1.488075998,-1.3450818080000002,10.21680639,12.22211437,-0.040106167000000005,-0.027579344,-0.123552477,154.8514518,441.3865127,12.13319903,96134.52621,1.14223713,0.27268085,0.150063521,0.239724735,0.000576813,0.0031932279999999998,-0.001847616,0.0067502709999999995,0.041833492,1.574423928,0.7057141509999999,-0.012434279,0.017152727,0.7081789190000001,0.0,398704022.0,327432898.2,442225.2999,12.07,0.01,12.05276655,1.2446109220000001,1.5695906830000002,0,0,0.0,39.8714138,32.7364372,-112.4171232,587.6730322999999,-41.76454519,0.040439077000000004,12.08854983,1.3497704369999999,0.019256139,0.00041871800000000005,0.019817657,1.566260991,41.84770919,0.006299823,0.089884955,0.001727185,0.0,215350569,0,0,0,0,1
4196,215398452,0.0001237,0.349084258,-0.012054068000000001,0.0,1.0,1493.0,2000.0,1000.0,1499.0,1500.0,1672.0,11.81557468,12.07079108,11.78715036,11.91442511,12.17198706,13.07398316,13.35661232,85.81305539,85.81305539,12.131437,-0.000388338,-0.005855654,0.00036855599999999997,-0.262499776,0.21872298,-0.012608887,2.0,8.911782356,9.911782356,11,0,0,1.0,0.0,0.0,0,0,0,0,0,0.006638735,0.041555747999999997,1.57447332,1.570050039,-0.154385142,280.7929659,34.61734394,-0.003462476,0.29418484100000003,-0.008213551,0.0,-0.377764504,0.210385693,-9.762719702,-7.66e+20,961.3607483999999,12.13375931,-0.0014216270000000002,-0.006244436,-0.004301221,-0.301658295,0.199393813,-9.813006075,-0.000232757,-0.00901578,-0.006143747,-7.66e+20,40.853861,42.93749712,-1.5038574080000002,-1.3458752969999999,10.21680209,12.22885374,-0.040241044,-0.026973998,-0.12390878699999999,154.8619021,441.25129060000006,12.13360022,96136.09133,1.142255858,-0.391380205,-0.804423841,-0.19830568199999998,0.005847051999999999,0.007963688,-0.004615705,0.006803985,0.044644262000000004,1.57441105,0.705701508,-0.013410611999999999,0.018163487,0.7081494709999999,0.0,398704022.0,327432965.6,442164.2759,12.07,0.01,12.05988998,1.256483297,1.5696320940000001,0,0,0.0,39.8714138,32.7364372,-112.41645220000001,588.257096,-41.70349065,0.040997897,12.08941858,1.350042332,0.023794447000000003,0.011338453,0.02348372,1.5661894619999999,41.78665438,0.006375761,0.092880802,0.001728306,0.0,215398452,0,0,0,0,1
4197,215442334,-0.0013526389999999999,0.347456008,-0.012217333,0.0,1.0,1493.0,2000.0,1000.0,1500.0,1499.0,1671.0,11.86869131,12.12498295,11.79342116,11.92121258,12.17888389,13.07507736,13.35768943,85.86443157,85.86443157,12.13183145,-0.00038816,-0.005855635,0.00036856,-0.262479808,0.218674977,-0.012401516999999999,2.0,8.914382877000001,9.914382877000001,11,0,0,1.0,0.0,0.0,0,0,0,0,0,0.006696219000000001,0.041116837999999996,1.5744600659999999,1.5700497880000002,-0.153940983,280.229695,34.62065874,-0.003456547,0.294462125,-0.008200176,0.0,-0.331925071,0.235948314,-9.780483151,-2.58e+20,961.3681793,12.134143199999999,-0.0017785370000000002,-0.009912504,-0.005593535,-0.284210381,0.18727362600000003,-9.771974913,0.003172607,-0.011594245,-0.0020852410000000003,-2.58e+20,40.77573237,42.87865017,-1.509232879,-1.346695995,10.21676956,12.23104403,-0.040285502,-0.026020767,-0.124269325,154.87084299999998,441.2695601,12.13400114,96135.8758,1.142253233,0.232038288,0.32288275,-0.52707252,-8.669999999999999e-05,0.003292321,0.0019094729999999999,0.006899071999999999,0.042608220999999995,1.574395428,0.705720852,-0.012655893999999999,0.017478937,0.708161235,0.0,398704022.0,327433033.1,442103.2519,12.07,0.01,12.0670134,1.268355671,1.569673505,0,0,0.0,39.8714138,32.7364372,-112.41562150000001,588.8201732000001,-41.6445538,0.041856853,12.08994624,1.350466739,0.043638243,0.017120508,0.04991617,1.566118638,41.72771704,0.006267314,0.089511787,0.0018563820000000002,0.0,215442334,0,0,0,0,1
4198,215486216,0.00029210099999999996,0.345057861,-0.011952912,0.0,1.0,1493.888978,2000.0,1000.0,1499.0,1500.0,1670.0,11.79563031,12.050383,11.79969196,11.92800005,12.18578072,13.07617156,13.35876655,85.91580775,85.91580775,12.13222589,-0.00038798099999999997,-0.005855616,0.000368565,-0.262459841,0.218626973,-0.012194148,2.0,8.916983397000001,9.916983397000001,11,0,0,1.0,0.0,0.0,0,0,0,0,0,0.006753703000000001,0.040677927,1.5744468109999998,1.570049536,-0.153496824,279.6664242,34.62397355,-0.003453405,0.294723888,-0.008166568,0.0,-0.325171793,0.23777854199999998,-9.793269719,-2.5e+20,961.3751571,12.13453448,0.001951627,-0.003475919,-0.009356122,-0.164835617,0.19873020800000002,-9.791965229,0.003240228,-0.009713828,-0.00091482,-2.5e+20,40.69758923,42.81975333,-1.50481055,-1.34754231,10.21671047,12.22895109,-0.040244824,-0.02473998,-0.12463384300000001,154.8783625,441.13734360000007,12.13440161,96137.37781,1.1422711,0.414401731,0.078591575,-0.5770814870000001,-0.0022602860000000002,0.006195656,0.001696865,0.007054629000000001,0.039813001,1.5743804209999999,0.705743969,-0.011610988999999999,0.016547911000000002,0.7081784790000001,0.0,398704022.0,327433100.5,442042.2278,12.07,0.01,12.07413683,1.280228046,1.569714915,0,0,0.0,39.8714138,32.7364372,-112.41489479999998,589.4062964,-41.58317906,0.042970705,12.09086329,1.3508869030000001,0.039764055,0.023225532000000004,0.065163755,1.566029884,41.66634206,0.006431469,0.08509864800000001,0.001866993,0.0,215486216,0,0,0,0,1
4199,215538099,0.001030219,0.341815524,-0.012114928,0.0,1.0,1494.0,2000.0,1000.0,1499.0,1500.0,1674.0,11.82530601,12.08064794,11.80596275,11.93478752,12.19267755,13.07726577,13.35984366,85.96718393,85.96718393,12.13262033,-0.00038780199999999997,-0.005855595999999999,0.00036857,-0.262439873,0.21857897,-0.011986778,2.0,8.919583917,9.919583917,11,0,0,1.0,0.0,0.0,0,0,0,0,0,0.0068111859999999995,0.040239016,1.5744335569999999,1.570049284,-0.153052665,279.10315330000003,34.62728835,-0.003445415,0.29496850399999996,-0.008152056,0.0,-0.358685123,0.21515962600000002,-9.800929099,-7.59e+20,961.3816682,12.13493338,-0.0066620590000000006,-0.005936461,0.002213573,-0.21293808,0.16334004800000002,-9.787564866,-0.000130698,-0.0032398640000000003,-0.00271971,-7.59e+20,40.6194461,42.76085649,-1.500388221,-1.348388626,10.21665138,12.22685815,-0.040204147,-0.023459193,-0.124998361,154.8858821,441.1678286,12.13480281,96137.0262,1.142266939,-0.482895287,0.328445339,-0.259407738,0.001798186,0.0029225320000000003,-0.005738704,0.007077409000000001,0.037178269,1.574365223,0.70576406,-0.010669761000000002,0.015626453999999998,0.708194138,0.0,398704022.0,327433168.4,441980.5317,12.07,0.010420084,12.07957992,1.287479496,1.5697196780000002,0,0,0.0,39.8714138,32.7364372,-112.4142751,590.0161616,-41.519292799999995,0.044347152,12.09218149,1.351302693,0.011455566,0.029663281,0.068888677,1.565922656,41.602455799999994,0.006607386,0.077893665,0.001849867,0.0,215538099,0,0,0,0,1
4200,215581981,0.000758572,0.33959975200000003,-0.011881023999999999,0.0,1.0,1493.092018,2000.0,1000.0,1500.907982,1498.092018,1673.0,11.72696534,11.98013036,11.81223355,11.941575,12.19957438,13.07835997,13.36092078,86.01856011,86.01856011,12.13301477,-0.00038762400000000004,-0.005855577,0.00036857400000000004,-0.26241990600000004,0.21853096600000002,-0.011779409,2.0,8.922184437,9.922184437,11,0,0,1.0,0.0,0.0,0,0,0,0,0,0.00686867,0.039800105,1.5744203019999998,1.570049033,-0.152608507,278.53988250000003,34.63060316,-0.00343642,0.295191937,-0.008138959,0.0,-0.35269979700000004,0.17777199100000002,-9.796909937999999,-1.05e+21,961.3870593,12.13532607,-0.005225945,-0.004803067,0.004177596,-0.329596679,0.175076066,-9.754416543,-0.002072184,-0.00013247200000000002,-0.0033030240000000003,-1.05e+21,40.54130297,42.70195965,-1.4959658919999999,-1.349234941,10.21659228,12.22476521,-0.040163469,-0.022178406,-0.125362879,154.89340159999998,441.0479444,12.13522357,96138.40878,1.1422833190000001,0.092789698,-0.21538359399999998,-0.330393127,-0.002090914,0.00379366,-0.001406189,0.0071461219999999995,0.039944303,1.5743562180000001,0.70575196,-0.011624996,0.016626769,0.7081677679999999,0.0,398704022.3,327433238.4,441915.7085,12.07,0.012794558999999999,12.07720544,1.273232647,1.56955394,0,0,0.0,39.8714138,32.7364372,-112.413453,590.6062863,-41.45730103,0.045314165,12.09308702,1.3517294780000002,0.001451113,0.039029867,0.075006906,1.5658208219999998,41.54046444,0.006684318000000001,0.08586502,0.001864808,0.0,215581981,0,0,0,0,1
4201,215631727,-0.0007924539999999999,0.348504417,-0.012487041,0.0,1.0,1493.0,2000.0,1000.0,1499.0,1500.0,1672.0,11.74063058,11.99408151,11.81850435,11.94836247,12.20647121,13.07945418,13.36199789,86.06993629,86.06993629,12.13340921,-0.000387445,-0.005855558,0.000368579,-0.262399938,0.218482963,-0.011572039,2.0,8.924784957,9.924784957,11,0,0,1.0,0.0,0.0,0,0,0,0,0,0.006926154,0.039361194,1.574407048,1.570048781,-0.152164348,277.9766116,34.63391796,-0.0034298759999999997,0.29543032199999997,-0.008112848,0.0,-0.29367997100000004,0.120554526,-9.777210102,-1.05e+21,961.3909466,12.13571045,-0.000514441,-0.010869726000000001,-0.0035009,-0.239899909,0.161625561,-9.719233936,-0.002094375,-0.001545348,-0.002246138,-1.05e+21,40.45991189,42.64025148,-1.49305456,-1.350317765,10.21654923,12.224740800000001,-0.04016384,-0.020682787,-0.12574507,154.8997123,440.93742599999996,12.13562416,96139.70242999999,1.142298709,0.09621553599999999,0.873658823,0.217100198,-0.000248761,0.000964082,9.159999999999999e-05,0.007152363,0.042123395999999994,1.574342471,0.7057442629999999,-0.012394365,0.017397901,0.7081445829999999,0.0,398704022.5,327433308.5,441850.8854,12.07,0.015169034,12.07483097,1.258985797,1.569388201,0,0,0.0,39.8714138,32.7364372,-112.41235890000002,591.1699057,-41.39785297,0.045731434,12.09343848,1.3521710219999998,0.016023326,0.052328974,0.08433860800000001,1.56572623,41.48101736,0.006723280999999999,0.08861223300000001,0.001843669,0.0,215631727,0,0,0,0,1
4202,215685746,0.000886042,0.34681514799999996,-0.012210788,0.0,1.0,1493.0,2000.0,1000.0,1499.0,1500.0,1670.0,11.82107204,12.07620101,11.82477514,11.95514994,12.21336804,13.08054838,13.36307501,86.12131247,86.12131247,12.13380366,-0.000387266,-0.005855538,0.000368583,-0.262379971,0.21843495899999998,-0.011364668999999999,2.0,8.927385477,9.927385477,11,0,0,1.0,0.0,0.0,0,0,0,0,0,0.006983638,0.038922282999999995,1.574393793,1.5700485290000001,-0.151720189,277.4133408,34.63723276,-0.003421236,0.295695989,-0.008099351,0.0,-0.240526018,0.110601627,-9.785891051,-1.05e+21,961.3981802999999,12.13609464,-0.004265663,-0.008392791,0.000523748,-0.25627984600000003,0.20818982600000002,-9.743192603999999,-0.002491326,-0.004124562,-0.001744852,-1.05e+21,40.37208161,42.57296973,-1.493138847,-1.351869479,10.21653799,12.22881735,-0.040245592000000004,-0.018761253000000002,-0.126162299,154.9036264,440.904931,12.13602475,96140.035,1.142302627,-0.881342847,-0.242641544,-0.401626472,0.00628738,0.007778197,0.00036463699999999996,0.007266791,0.039941667,1.57432671,0.705763496,-0.01158124,0.016668742,0.708156661,0.0,398704022.8,327433378.5,441786.0622,12.07,0.017543509,12.07245649,1.244738948,1.569222463,0,0,0.0,39.8714138,32.7364372,-112.41129109999999,591.7508092999999,-41.33671129,0.04638885400000001,12.09420359,1.352474815,0.022357258999999997,0.053509934,0.070778682,1.565663999,41.41987612,0.00695811,0.08411327699999999,0.001794541,0.0,215685746,0,0,0,0,1
4203,215729628,-0.000541816,0.343178152,-0.011847492,0.0,1.0,1494.0,2000.0,1000.0,1499.0,1500.0,1669.563513,11.74782154,12.00131665,11.83104594,11.96193742,12.22026487,13.08164258,13.36415212,86.17268865,86.17268865,12.1341981,-0.000387088,-0.005855519,0.00036858800000000004,-0.262360003,0.21838695600000002,-0.011157299999999998,2.0,8.929985997000001,9.929985997000001,11,0,0,1.0,0.0,0.0,0,0,0,0,0,0.0070411219999999995,0.038483373,1.5743805380000002,1.570048277,-0.15127603,276.85006989999994,34.64054757,-0.0034136170000000003,0.295942247,-0.008090936,0.0,-0.19774808100000002,0.184254015,-9.844774167999999,-1.05e+21,961.4113332000001,12.13647853,-0.000390096,-0.014931375,0.00046296699999999995,-0.20033926300000002,0.161645074,-9.733777597000001,-0.00355118,-0.008766888,-0.002226355,-1.05e+21,40.28425133,42.50568797,-1.493223134,-1.3534211930000002,10.21652674,12.23289389,-0.040327343,-0.01683972,-0.126579529,154.9075405,440.8918616,12.13642534,96140.19429,1.14230453,0.420160091,-0.040674888,-0.223679947,0.000150141,0.005255315,-0.0017774000000000002,0.007294249,0.037244293,1.574311765,0.705783835,-0.010616203000000001,0.015726814,0.708173066,0.0,398704023.0,327433448.6,441721.239,12.07,0.019917984,12.07008202,1.230492098,1.569056725,0,0,0.0,39.8714138,32.7364372,-112.41026969999999,592.3622865,-41.27257379,0.047471072999999996,12.09570042,1.352534939,0.014118674,0.033255361000000004,0.016726243999999998,1.565659013,41.35573813,0.006859776,0.078596426,0.0018790410000000001,0.0,215729628,0,0,0,0,1
4204,215777511,0.00043127599999999997,0.34060492,-0.011862996,0.0,1.0,1493.0,2000.0,1000.0,1499.0,1500.0,1674.0,11.78772567,12.04206182,11.83731674,11.96872489,12.2271617,13.08273679,13.36522924,86.22406483,86.22406483,12.13459254,-0.000386909,-0.0058555,0.000368592,-0.262340035,0.218338952,-0.01094993,2.0,8.932586517,9.932586517,11,0,0,1.0,0.0,0.0,0,0,0,0,0,0.007084868,0.038191047,1.574367307,1.570048023,-0.15083187,276.2783938,34.6437511,-0.003406685,0.296171156,-0.008075513000000001,0.0,-0.177377824,0.23655515300000002,-9.869839744,-1.05e+21,961.4211921,12.13688874,0.005244389,-0.003064115,-0.002277628,-0.26803413600000003,0.212811428,-9.751038596,-0.002661365,-0.012103806000000002,-0.0034162,-1.05e+21,40.19642105,42.43840621,-1.493307421,-1.354972906,10.2165155,12.23697043,-0.040409095,-0.014918186000000002,-0.12699675800000002,154.91145459999998,440.69507239999996,12.13682492,96142.47281,1.142331596,0.11306083800000001,0.037858682000000005,0.168798657,-0.001671749,0.005736508,-0.005198660999999999,0.0072494230000000005,0.034697448,1.574296032,0.705802045,-0.009729972,0.014812367,0.7081873759999999,0.0,398704023.0,327433517.3,441661.4593,12.07,0.024584917,12.06312262,1.2322924579999999,1.5684908380000002,0,0,0.0,39.8714138,32.7364372,-112.4091366,592.9596282000001,-41.20982666,0.048469291,12.09719195,1.352276096,0.013314415,0.013187026999999999,-0.014320626999999999,1.5656291969999998,41.29299066,0.006675394,0.073784897,0.00196256,0.0,215777511,0,0,0,0,1
4205,215833393,0.00109614,0.34587080600000003,-0.011860683,0.0,1.0,1493.0,2000.0,1000.0,1499.0,1500.0,1673.0,11.89830423,12.15496629,11.84358753,11.97551236,12.23405853,13.08383099,13.36630635,86.275441,86.275441,12.13498698,-0.00038673099999999997,-0.00585548,0.00036859699999999997,-0.262320068,0.21829094899999998,-0.010742561000000001,2.0,8.935187037,9.935187037,11,0,0,1.0,0.0,0.0,0,0,0,0,0,0.007095855999999999,0.038248269,1.57435413,1.5700477609999999,-0.150387709,275.6866746,34.64668928,-0.003401093,0.296401238,-0.008055344,0.0,-0.210441264,0.23794177,-9.814263493,-1.05e+21,961.4231963,12.1373617,-0.001994891,-0.005183912,0.000610409,-0.21915613399999997,0.185399242,-9.822355788,0.00287766,-0.012327827,-0.006295169000000001,-1.05e+21,40.11015423,42.37237484,-1.49290768,-1.3561795769999998,10.21650072,12.23994043,-0.040468787,-0.013019511000000001,-0.12740805800000002,154.91485930000002,440.76855149999994,12.13722551,96141.61862000001,1.142321497,0.41963344399999997,-0.07910251,-0.505830971,0.003285488,0.003451252,0.00047021599999999997,0.007389501999999999,0.04107167,1.57428835,0.705771212,-0.011937773999999998,0.017111118,0.708132531,0.0,398704023.0,327433585.9,441601.86,12.07,0.029333867000000003,12.0559992,1.234666933,1.567910635,0,0,0.0,39.8714138,32.7364372,-112.40773759999999,593.5232621,-41.15039507,0.049267197,12.09867087,1.3512566369999999,0.030238162000000002,-0.0064371969999999995,0.009491931,1.565540172,41.23355907,0.006866438000000001,0.08716425400000001,0.001941125,0.0,215833393,0,0,0,0,1
4206,215877275,-0.000518675,0.34783810299999995,-0.011906011000000001,0.0,1.0,1493.964993,2000.0,1000.0,1500.0,1499.0,1671.0,11.88356359,12.13986171,11.84985833,11.98229984,12.24095536,13.084925199999999,13.36738347,86.32681718,86.32681718,12.13538142,-0.00038655199999999997,-0.005855461,0.000368601,-0.2623001,0.218242945,-0.010535191000000001,2.0,8.937787558,9.937787558,11,0,0,1.0,0.0,0.0,0,0,0,0,0,0.007106843000000001,0.038305491000000004,1.574340953,1.5700475,-0.14994354699999998,275.09495530000004,34.64962745,-0.003394605,0.29663590000000006,-0.008037958000000001,0.0,-0.23116773399999999,0.232227285,-9.783117541000001,-1.05e+21,961.4270156,12.13781765,-0.000213905,-0.006206118,-0.00158558,-0.232509233,0.134333023,-9.781103047,0.006351982,-0.011478641999999999,-0.008596738,-1.05e+21,40.03237715,42.31313325,-1.4898796159999999,-1.3555126259999999,10.21646674,12.23690174,-0.040408694,-0.011244966,-0.127787163,154.91549809999998,440.61270319999994,12.1376261,96143.43534,1.142343055,-0.504967814,0.010115929000000001,0.609345855,0.000247448,0.003425867,-0.003744753,0.007427916,0.040008482000000005,1.5742730180000002,0.7057830159999999,-0.011547596,0.016749678,0.708135836,0.0,398704023.0,327433654.5,441542.2607,12.07,0.034082817,12.04887578,1.237041408,1.5673304319999999,0,0,0.0,39.8714138,32.7364372,-112.4063486,594.0975734,-41.08984635,0.049805054,12.10001398,1.350649311,0.035393385,-0.017818098,0.025469723,1.5654548169999998,41.17301035,0.006672366,0.084790128,0.0020655260000000003,0.0,215877275,0,0,0,0,1
4207,215921158,0.001021195,0.345264379,-0.011656432,0.0,1.0,1493.0,2000.0,1000.0,1499.0,1500.0,1670.0,11.73509703,11.98826363,11.85612913,11.98908731,12.24785219,13.0860194,13.36846058,86.37819336,86.37819336,12.13577587,-0.000386373,-0.005855442,0.000368606,-0.262280133,0.218194942,-0.010327821,2.0,8.940388078,9.940388078,11,0,0,1.0,0.0,0.0,0,0,0,0,0,0.00711783,0.038362713,1.574327775,1.570047239,-0.149499385,274.503236,34.65256563,-0.0033907509999999996,0.296886123,-0.008012916,0.0,-0.210534293,0.202706224,-9.833874609,-1.05e+21,961.4369201999999,12.13821654,0.00656327,-0.010726399,-0.0037115890000000004,-0.29772829300000003,0.21856450800000002,-9.752652498,0.00290435,-0.0070315130000000005,-0.008962558,-1.05e+21,39.95460007,42.25389165,-1.4868515519999999,-1.354845674,10.21643277,12.23386305,-0.0403486,-0.00947042,-0.128166268,154.9161369,440.6495785,12.13802616,96142.99766000001,1.14233789,-0.008552773,0.107766346,0.371987822,-0.002487586,0.004419221,0.002438003,0.007296886,0.03728007,1.574258072,0.705802655,-0.010627518999999998,0.015740656999999998,0.708153798,0.0,398704023.0,327433723.1,441482.6613,12.07,0.038831766000000004,12.04175235,1.239415883,1.5667502290000002,0,0,0.0,39.8714138,32.7364372,-112.40499309999998,594.7076806,-41.02555248,0.049471095,12.10090182,1.351423672,0.001094419,-0.001563111,0.01518132,1.565381766,41.10871648,0.006584203,0.080718661,0.00204002,0.0,215921158,0,0,0,0,1
4208,215965040,0.0014732410000000001,0.34227143600000004,-0.011877532,0.0,1.0,1494.0,2000.0,1000.0,1499.0,1500.0,1672.016003,11.89788395,12.1544647,11.86239992,11.99587478,12.25474902,13.0871136,13.369537699999999,86.42956954,86.42956954,12.13617031,-0.000386195,-0.005855423,0.00036861099999999997,-0.262260165,0.218146938,-0.010120452,2.0,8.942988598,9.942988598,11,0,0,1.0,0.0,0.0,0,0,0,0,0,0.007128818,0.038419935,1.5743145980000002,1.5700469769999998,-0.14905522300000001,273.9115167,34.65550381,-0.0033807570000000003,0.297125662,-0.007992049000000001,0.0,-0.202799289,0.17953007399999998,-9.871986285,-1.05e+21,961.4457909,12.13861298,-0.005260093,-0.008282053000000001,0.002806061,-0.268477545,0.205426837,-9.770074037999999,-0.000241008,-0.003178002,-0.007532815,-1.05e+21,39.87682298,42.19465006,-1.4838234869999998,-1.3541787230000002,10.2163988,12.23082437,-0.040288506,-0.007695874,-0.12854537300000002,154.9167757,440.57833150000005,12.13844157,96143.81878,1.142347641,-0.64275312,-0.023534017,-0.16847741800000002,-0.0017286410000000002,0.006253985,-0.0015669420000000002,0.007217569,0.034663001,1.5742426459999999,0.705820931,-0.00972862,0.014789195,0.7081689959999999,0.0,398704023.2,327433790.7,441420.3765,12.07,0.038209642,12.04537107,1.2435807159999999,1.56682621,0,0,0.0,39.8714138,32.7364372,-112.40359790000001,595.3100289,-40.96195986,0.049114904,12.1017632,1.352193983,-0.029497548999999998,0.007462478000000001,0.008834637,1.5653210340000001,41.04512402,0.006547102,0.076197636,0.001987355,0.0,215965040,0,0,0,0,1
4209,216008923,-0.000626854,0.34009826299999996,-0.01169947,0.0,1.0,1494.0,2000.0,1000.0,1500.506501,1498.493499,1673.0,11.77660328,12.03054932,11.86867072,12.00266226,12.26164585,13.08820781,13.37061482,86.48094572,86.48094572,12.13656475,-0.000386016,-0.005855403,0.000368615,-0.262240198,0.218098935,-0.009913082,2.0,8.945589118,9.945589118,11,0,0,1.0,0.0,0.0,0,0,0,0,0,0.007139805,0.038477157000000005,1.574301421,1.570046716,-0.148611062,273.31979739999997,34.65844198,-0.00337294,0.297344616,-0.007983166,0.0,-0.260791077,0.18868580699999998,-9.845660616,-1.05e+21,961.4493925,12.13899687,-0.0006694730000000001,-0.005961735,0.0013170920000000002,-0.216851541,0.214567046,-9.707312616,-0.001846061,-0.002349408,0.003046611,-1.05e+21,39.799045899999996,42.13540846,-1.4807954230000002,-1.3535117719999998,10.21636482,12.22778568,-0.040228412000000005,-0.005921328000000001,-0.128924478,154.9174145,440.48395539999996,12.13884276,96144.914,1.142360586,-0.132230932,0.334668867,0.465598409,0.0032800679999999997,0.0035780459999999997,0.0011076060000000001,0.007195567,0.038696728,1.5742351030000001,0.70580255,-0.011164758,0.016204777,0.708135173,0.0,398704023.4,327433857.9,441357.2154,12.07,0.035835167,12.0524945,1.2483296659999998,1.567116276,0,0,0.0,39.8714138,32.7364372,-112.40200039999999,595.8728399,-40.90194057,0.048645425,12.10248983,1.3529436559999999,-0.041199699,-0.020350906000000002,0.022573847,1.5653230669999998,40.985105700000005,0.006515508000000001,0.08276460000000001,0.001955961,0.0,216008923,0,0,0,0,1
4210,216056805,-0.00097207,0.346459636,-0.011294452,0.0,1.0,1494.0,2000.0,1000.0,1499.0,1500.0,1672.0,11.82113348,12.07599377,11.87494151,12.00944973,12.26854268,13.08930201,13.37169193,86.5323219,86.5323219,12.13695919,-0.000385837,-0.005855384,0.00036862,-0.26222023,0.218050931,-0.009705713000000001,2.0,8.948189637999999,9.948189637999999,11,0,0,1.0,0.0,0.0,0,0,0,0,0,0.0071507919999999996,0.03853438,1.5742882440000001,1.570046454,-0.1481669,272.72807810000006,34.66138016,-0.003366251,0.29756869399999997,-0.007970442,0.0,-0.309607407,0.199468628,-9.817509407000001,-1e+21,961.4537122000002,12.1393808,-0.005294855,-0.004275525,0.0011761760000000001,-0.24687200899999998,0.250643022,-9.778389443,-0.0032660140000000002,-0.00196341,0.011995886,-1e+21,39.72046879,42.07663352,-1.476405851,-1.352484286,10.21633715,12.2205139,-0.040083531,-0.0033164229999999998,-0.129306547,154.912523,440.4860502,12.13924342,96144.90323,1.142360552,0.629936917,0.05962545599999999,-0.14795217900000002,0.0030216870000000003,0.006104123,-0.002450266,0.007244541,0.040214845,1.574219952,0.705799651,-0.011684936000000002,0.016757875,0.7081168320000001,0.0,398704023.7,327433925.1,441294.0544,12.07,0.033460692,12.05961792,1.253078616,1.567406342,0,0,0.0,39.8714138,32.7364372,-112.4004381,596.4402947000001,-40.84145651,0.048330352,12.1033212,1.353719609,-0.047397256,-0.041673556,0.035522922,1.565322972,40.92462246,0.006415915,0.086336736,0.002028931,0.0,216056805,0,0,0,0,1
4211,216100687,0.0013613070000000002,0.34789692200000005,-0.011366929,0.0,1.0,1494.0,2000.0,1000.0,1499.0,1500.0,1671.0,11.82667215,12.0816174,11.88121231,12.016237199999999,12.27543951,13.09039622,13.37276905,86.58369808,86.58369808,12.13735363,-0.000385659,-0.005855365,0.000368624,-0.262200263,0.21800292699999999,-0.009498343000000001,2.0,8.950790158,9.950790158,11,0,0,1.0,0.0,0.0,0,0,0,0,0,0.00716178,0.038591602,1.5742750669999999,1.570046193,-0.14772273800000002,272.1363588,34.66431834,-0.0033598129999999997,0.297817412,-0.007963172,0.0,-0.274302521,0.225168698,-9.77262153,-4.92e+20,961.4646140000001,12.13976517,0.002224305,-0.0050803820000000005,0.00042698,-0.208485455,0.16685064900000002,-9.723948846,-0.002988955,-0.005635165,0.00599983,-4.92e+20,39.64187181,42.01787019,-1.471982445,-1.35144784,10.21630964,12.21313694,-0.039936543,-0.0006908839999999999,-0.129688691,154.90749399999999,440.26446039999996,12.13964415,96147.44397000001,1.142390676,0.20238420399999998,0.14959942699999998,0.543664392,0.002527575,0.007918618,0.002329304,0.007322828000000001,0.037924065,1.574204205,0.705818453,-0.01084599,0.015977368999999998,0.708129549,0.0,398704023.9,327433992.3,441230.8934,12.07,0.031086217000000003,12.06674135,1.257827566,1.5676964080000002,0,0,0.0,39.8714138,32.7364372,-112.3991988,597.0503244,-40.77671147,0.049430889000000006,12.10511285,1.354736502,-0.003128327,-0.003488723,0.041227981000000004,1.565303366,40.85987694,0.006435651,0.0841288,0.002049114,0.0,216100687,0,0,0,0,1
4212,216148570,0.00133358,0.34525127299999997,-0.011452448,0.0,1.0,1494.0,2000.0,1000.0,1498.022004,1500.977996,1669.0,11.744615,11.99777394,11.88748311,12.02302467,12.28233634,13.09149042,13.37384616,86.63507426,86.63507426,12.13774808,-0.00038548,-0.005855345,0.00036862900000000004,-0.262180295,0.217954924,-0.009290973000000001,2.0,8.953390678,9.953390678,11,0,0,1.0,0.0,0.0,0,0,0,0,0,0.007172766999999999,0.038648824,1.57426189,1.570045931,-0.147278577,271.5446395,34.66725652,-0.003353335,0.298050417,-0.007943153,0.0,-0.239957945,0.250244907,-9.730392565,-1.66e+19,961.4754608999999,12.14014953,0.004230695,-0.004453611,-0.000585593,-0.283733261,0.176940828,-9.751233911,-0.0028434090000000003,-0.009131661,0.000316166,-1.66e+19,39.56327482,41.95910685,-1.46755904,-1.350411394,10.21628213,12.20575997,-0.039789555,0.001934655,-0.130070834,154.90246499999998,440.3685506,12.14004535,96146.22429,1.142376225,-0.47000113200000004,0.208836734,0.055730537000000004,-0.0016960220000000002,0.009422181,-0.00280756,0.007368719,0.035167114,1.574188674,0.7058383309999999,-0.009853391999999999,0.015020863,0.708145143,0.0,398704024.0,327434061.0,441168.3765,12.07,0.033864773,12.07128826,1.2638647729999999,1.5675143269999998,0,0,0.0,39.8714138,32.7364372,-112.3979426,597.6588301,-40.71212863,0.050515400999999995,12.10690721,1.3557364109999999,0.039714216000000004,0.03260131,0.045664848,1.5652823569999998,40.79529359,0.006557962,0.078730222,0.0020679270000000002,0.0,216148570,0,0,0,0,1
4213,216196452,-0.000636501,0.34329693,-0.011694626000000001,0.0,1.0,1494.0,2000.0,1000.0,1500.0,1499.0,1673.0,11.80884978,12.063290199999999,11.8937539,12.02981215,12.28923318,13.09258462,13.37492328,86.68645044,86.68645044,12.13814252,-0.00038530199999999996,-0.005855326,0.00036863300000000005,-0.262160328,0.21790692,-0.009083604,2.0,8.955991198,9.955991198,11,0,0,1.0,0.0,0.0,0,0,0,0,0,0.0071837540000000005,0.038706046,1.574248713,1.57004567,-0.146834415,270.9529203,34.67019469,-0.003348165,0.298269679,-0.007930139000000001,0.0,-0.23407013100000001,0.25683424899999996,-9.766954946,-5.25e+20,961.4846781,12.14053342,-0.00058925,-0.007798115,0.003816151,-0.199854775,0.185671033,-9.791994335,-0.006594956999999999,-0.007434709,0.003889593,-5.25e+20,39.48467784,41.90034351,-1.4631356340000001,-1.349374949,10.21625461,12.198383,-0.039642567000000004,0.004560195,-0.130452978,154.897436,440.2846121,12.14045821,96147.22197,1.1423879909999999,0.352374212,-0.072352505,0.18094621600000002,0.002206449,0.0037819670000000002,-0.005379969,0.007395963,0.032354914,1.5741733269999998,0.705856967,-0.008847809,0.014038211,0.708159937,0.0,398704024.0,327434131.1,441106.4027,12.07,0.040988197999999997,12.07366273,1.270988198,1.566934148,0,0,0.0,39.8714138,32.7364372,-112.39618540000001,598.2221736,-40.65235235,0.051125039000000004,12.10878211,1.3562329969999998,0.04028876,0.006616336,0.012521493,1.5652197630000002,40.73551635,0.006532179,0.073025239,0.002177304,0.0,216196452,0,0,0,0,1
4214,216248334,0.001612497,0.340218815,-0.011331104,0.0,1.0,1494.0,2000.0,1000.0,1500.0,1499.0,1673.0,11.76995607,12.02361226,11.9000247,12.03659962,12.29613001,13.09367883,13.37600039,86.73782661,86.73782661,12.13853696,-0.000385123,-0.005855307,0.000368638,-0.26214036,0.21785891699999999,-0.008876234,2.0,8.958591718,9.958591718,11,0,0,1.0,0.0,0.0,0,0,0,0,0,0.007194742,0.038763268,1.574235536,1.570045409,-0.146390253,270.361201,34.67313287,-0.003338275,0.298473655,-0.007900111999999999,0.0,-0.228182318,0.263423591,-9.803517326,-1.03e+21,961.4938953,12.14091731,0.004070632,-0.005253007,-0.0016573520000000002,-0.242958913,0.20627483,-9.765784401,-0.010346505,-0.005737757,0.007463019,-1.03e+21,39.39867357,41.83623057,-1.462132611,-1.349452699,10.21622462,12.19913088,-0.039658125,0.005438475,-0.13087960699999998,154.8883659,440.14824189999996,12.1408588,96148.77802,1.142406535,-0.13506262900000002,0.07129176599999999,0.806887945,0.0027644740000000003,0.004530943,0.004461673,0.0074354930000000005,0.036411628,1.574165385,0.705840665,-0.010270351,0.015483778,0.7081268559999999,0.0,398704024.0,327434201.1,441044.4289,12.07,0.048111622,12.07603721,1.278111622,1.5663539690000001,0,0,0.0,39.8714138,32.7364372,-112.3944281,598.7855171,-40.59257608,0.051734677,12.11065702,1.356729584,0.040863303999999996,-0.019368638,-0.020621862,1.5651571690000001,40.67573911,0.006761135,0.07834368400000001,0.002064352,0.0,216248334,0,0,0,0,1
4215,216300217,-0.000296953,0.346560205,-0.011423942,0.0,1.0,1494.0,2000.0,1000.0,1499.0,1500.0,1671.0,11.87107855,12.12681585,11.89440386,12.03122303,12.29059895,13.09496523,13.37727219,86.71282096,86.71282096,12.13894428,-0.00038497,-0.005855609,0.000368854,-0.262125595,0.21782152300000002,-0.008671235,2.0,8.961192237999999,9.961192237999999,11,0,0,1.0,0.0,0.0,0,0,0,0,0,0.007288307,0.038532272,1.574221581,1.5700451290000002,-0.145922239,269.7695481,34.67695762,-0.0033298909999999998,0.298691374,-0.007874089,0.0,-0.244746312,0.18081525199999998,-9.767312681,-1.05e+21,961.4997983999999,12.14131571,0.001366432,-0.008049138,-0.00535581,-0.27254646,0.151133447,-9.795853702999999,-0.0013128279999999998,-0.008706677,0.003530846,-1.05e+21,39.3107708,41.77074652,-1.46200624,-1.3498160209999999,10.216194,12.20196118,-0.039715344,0.005868928000000001,-0.131317639,154.8782601,440.1347936000001,12.14125939,96148.94489,1.142408551,0.168505348,-1.015276566,-0.266951965,0.00252662,0.008343351,0.000551753,0.00754952,0.037464542,1.574150163,0.705841169,-0.010602833999999998,0.015895771,0.708112337,0.0,398704024.0,327434271.1,440982.4551,12.07,0.055235047,12.07841168,1.285235047,1.56577379,0,0,0.0,39.8714138,32.7364372,-112.39255379999999,599.3948272999999,-40.52820406,0.053109767,12.11163553,1.3568887219999999,0.081244513,-0.033764973,0.022246784,1.5651180269999998,40.61136752,0.006714783,0.081041693,0.002146657,0.0,216300217,0,0,0,0,1
4216,216344099,0.000998161,0.346513324,-0.011335345,0.0,1.0,1494.0,2000.0,1000.0,1500.0,1499.0,1670.0,11.74887051,12.00201195,11.88837647,12.02543057,12.28464301,13.09625821,13.37855064,86.68520396,86.68520396,12.13935203,-0.00038481800000000004,-0.0058559219999999995,0.000369077,-0.262111009,0.217784492,-0.008466318,2.0,8.963792759,9.963792759,11,0,0,1.0,0.0,0.0,0,0,0,0,0,0.007384696,0.038291422,1.574207601,1.5700448480000002,-0.14545341,269.17789760000005,34.68081267,-0.0033251490000000003,0.298926239,-0.007870925,0.0,-0.262077888,0.09515742,-9.728620275,-1.05e+21,961.5055882000001,12.141714599999998,0.001975166,-0.00392749,0.0091285,-0.270135522,0.18146663,-9.765857808,0.00815795,-0.011835115,-0.0006579289999999999,-1.05e+21,39.22286803,41.70526247,-1.461879869,-1.3501793430000002,10.21616338,12.20479149,-0.039772562000000004,0.006299381999999999,-0.131755671,154.8681542,440.055683,12.14167948,96149.84819,1.142419233,-0.438905881,0.644856329,-0.372226758,0.001245965,0.003101215,0.001422941,0.00776607,0.035049064,1.574135012,0.7058598559999999,-0.00967095,0.015120156000000001,0.708124112,0.0,398704024.1,327434340.4,440920.4027,12.07,0.059213842999999995,12.07842761,1.2915723140000002,1.565468034,0,0,0.0,39.8714138,32.7364372,-112.39067549999999,600.0057091,-40.46367492,0.054511027000000004,12.11258339,1.3570363230000002,0.122986634,-0.047765115,0.06771413,1.5650796869999999,40.54683887,0.006960565,0.07623326400000001,0.002207909,0.0,216344099,0,0,0,0,1
4217,216395982,0.000288479,0.342779868,-0.011649313,0.0,1.0,1494.0,2000.0,1000.0,1499.0,1500.0,1669.0,11.82425049,12.07894454,11.88234907,12.0196381,12.27868707,13.09755118,13.37982909,86.65758697,86.65758697,12.13975978,-0.000384665,-0.005856235,0.000369301,-0.262096422,0.217747461,-0.008261399999999999,2.0,8.966393279,9.966393279,11,0,0,1.0,0.0,0.0,0,0,0,0,0,0.007481084,0.038050571,1.57419362,1.5700445669999998,-0.14498458,268.58624710000004,34.68466773,-0.003318067,0.29914382,-0.007858366,0.0,-0.244559981,0.090134688,-9.767097486,-1.05e+21,961.5160812,12.14218025,0.0025181920000000003,0.002047303,0.0018996170000000001,-0.259907436,0.165386368,-9.774580693999999,0.006396708,-0.011526071,0.0007905589999999999,-1.05e+21,39.13496526,41.63977842,-1.4617534980000002,-1.350542665,10.21613275,12.20762179,-0.039829781,0.006729835,-0.132193703,154.85804840000003,440.0428552,12.14208032,96150.00625,1.142421068,-0.132147879,-0.279661643,-0.42304426,0.0055324530000000005,0.000761029,0.00108109,0.007980685999999999,0.032086617000000005,1.574120085,0.705879582,-0.008546056,0.014150798999999999,0.708138959,0.0,398704024.3,327434408.1,440858.1914,12.07,0.056839367,12.07367842,1.2963212640000001,1.565716713,0,0,0.0,39.8714138,32.7364372,-112.38843940000001,600.5739482000001,-40.4034816,0.056806428,12.11319902,1.358065748,0.043358107,-0.043723242999999995,0.063995941,1.565090385,40.48664604,0.007319160999999999,0.070499588,0.0022048479999999997,0.0,216395982,0,0,0,0,1
4218,216443864,-0.000507537,0.339494165,-0.011564113999999999,0.0,1.0,1493.079016,2000.0,1000.0,1500.0,1499.0,1673.0,11.88548824,12.14146347,11.87632168,12.01384564,12.27273113,13.09884415,13.38110754,86.62996997,86.62996997,12.14016754,-0.000384513,-0.0058565480000000005,0.00036952400000000004,-0.262081835,0.21771043,-0.008056483,2.0,8.968993799,9.968993799,11,0,0,1.0,0.0,0.0,0,0,0,0,0,0.007577473,0.037809721,1.574179639,1.570044286,-0.144515751,267.9945965,34.68852279,-0.003310134,0.299354603,-0.007849046,0.0,-0.223223172,0.09394817300000001,-9.814031157,-1.05e+21,961.5270895,12.14265322,-0.005351346,-0.0035583109999999998,0.00117052,-0.235852726,0.102626891,-9.699721255,0.003404631,-0.010840337,0.002856794,-1.05e+21,39.05257871,41.57858088,-1.46171563,-1.350914891,10.21610346,12.20471753,-0.039772278,0.006831969,-0.132427021,154.8460378,439.9833203,12.14248152,96150.67272,1.1424290959999999,-0.3811974,0.029657292999999998,0.047612152000000005,0.004440285,0.00010093399999999999,-0.00820901,0.008061021,0.03039381,1.5741061680000001,0.705891465,-0.007918152,0.013581906999999999,0.7081449409999999,0.0,398704024.6,327434475.8,440795.9802,12.07,0.054464890999999994,12.06892923,1.3010702140000001,1.5659653919999998,0,0,0.0,39.8714138,32.7364372,-112.3861642,601.1375142999999,-40.34376342,0.059199812000000004,12.11377824,1.359191805,-0.049570552000000004,-0.037704276,0.054887865999999993,1.565106457,40.42692834,0.007095604,0.06531068599999999,0.002397572,0.0,216443864,0,0,0,0,1
4219,216499493,-0.00029234,0.34433073299999994,-0.010992068,0.0,1.0,1494.0,2000.0,1000.0,1499.411482,1499.588518,1671.588518,11.89027423,12.14625138,11.87029429,12.00805318,12.26677519,13.10013713,13.38238599,86.60235297,86.60235297,12.14057529,-0.000384361,-0.005856861,0.00036974699999999997,-0.26206724800000003,0.217673399,-0.007851565,2.0,8.971594319,9.971594319,11,0,0,1.0,0.0,0.0,0,0,0,0,0,0.007673861999999999,0.037568871000000004,1.5741656590000002,1.570044005,-0.144046922,267.402946,34.69237784,-0.00330768,0.299555771,-0.007838304,0.0,-0.20816694300000002,0.134114903,-9.77197175,-1.05e+21,961.53269,12.14306429,0.009262002,-0.009541316,0.00228587,-0.271554416,0.146876702,-9.750449499,-0.0020715720000000003,-0.011936663,-0.00039284599999999997,-1.05e+21,38.97362764,41.52005296,-1.4617328790000002,-1.351292664,10.21607499,12.1982418,-0.039643329,0.006729629,-0.132532845,154.8328409,439.87100939999993,12.142882,96151.97547,1.142444582,-0.016784821999999998,-0.122073902,0.06427390200000001,-0.0026761690000000004,0.004846593,-0.00017398900000000002,0.008183691,0.036400857,1.5740972009999998,0.7058687020000001,-0.010001944,0.015745226,0.7080970809999999,0.0,398704024.8,327434543.4,440733.769,12.07,0.052090415999999994,12.06418005,1.305819164,1.5662140709999999,0,0,0.0,39.8714138,32.7364372,-112.38388090000001,601.7402302,-40.27993895,0.060710415,12.11513002,1.358769915,-0.010659131,0.006373477,-3.21e-05,1.565053969,40.36310435,0.007190012,0.079703625,0.002363156,0.0,216499493,0,0,0,0,1
4220,216543629,0.0018023079999999999,0.346528526,-0.011273271000000001,0.0,1.0,1494.0,2000.0,1000.0,1499.0,1500.0,1671.0,11.75392406,12.00703625,11.8642669,12.00226072,12.26081925,13.1014301,13.38366444,86.57473597,86.57473597,12.14098305,-0.000384209,-0.005857174000000001,0.00036997099999999997,-0.262052661,0.217636368,-0.0076466469999999995,2.0,8.974194838999999,9.974194838999999,11,0,0,1.0,0.0,0.0,0,0,0,0,0,0.00777025,0.037328021,1.5741516780000002,1.570043725,-0.143578092,266.8112954,34.6962329,-0.003300447,0.299795036,-0.007815668000000001,0.0,-0.194346952,0.181437216,-9.712395406,-1.05e+21,961.537226,12.14346319,0.005290249,-0.014959478,-0.0015454520000000001,-0.233079405,0.129567299,-9.850613656,-0.008036737,-0.01338376,-0.004688834,-1.05e+21,38.89467657,41.46152504,-1.4617501290000001,-1.351670436,10.21604651,12.19176608,-0.039514379,0.006627288,-0.13263866900000001,154.81964399999998,439.97901669999993,12.14329132,96150.71472999999,1.142429546,-0.35306217700000003,0.164610586,0.011534463,0.003058112,0.009112857,0.001925528,0.008131178000000001,0.035112104,1.5740818509999999,0.705880113,-0.00956401,0.015271927,0.7081020370000001,0.0,398704025.0,327434611.2,440671.5577,12.07,0.04971594,12.06028309,1.309715943,1.566442914,0,0,0.0,39.8714138,32.7364372,-112.38159590000001,602.3506521,-40.21530621,0.062047255999999995,12.11663387,1.358043334,0.054203007000000004,0.057942525,-0.06396942,1.5649879869999999,40.298472100000005,0.007240619,0.07790747,0.002294899,0.0,216543629,0,0,0,0,1
4221,216587511,0.00109416,0.344115109,-0.011259086000000001,0.0,1.0,1494.0,2000.0,1000.0,1499.392478,1499.607522,1669.0,11.83730309,12.09211077,11.8582395,11.99646826,12.25486331,13.10272308,13.3849429,86.54711898,86.54711898,12.141390800000002,-0.00038405599999999997,-0.005857487,0.000370194,-0.262038075,0.217599337,-0.00744173,2.0,8.976795359,9.976795359,11,0,0,1.0,0.0,0.0,0,0,0,0,0,0.007866639,0.037087171,1.5741376969999998,1.570043444,-0.14310926300000001,266.2196449,34.70008796,-0.003290564,0.300029906,-0.00780711,0.0,-0.193824205,0.203356252,-9.725830104,-6.59e+20,961.5410911,12.14385053,0.000365914,-0.013784764,-0.002258177,-0.214889575,0.140551822,-9.816303257000001,-0.004911261,-0.01327973,-0.006158698000000001,-6.59e+20,38.81572549,41.40299713,-1.461767379,-1.352048208,10.21601804,12.18529036,-0.039385429,0.006524947,-0.13274449300000002,154.80644709999999,439.80966680000006,12.14369191,96152.70778,1.142453183,0.628596606,0.224244103,0.755962075,-0.00010988299999999999,-0.00015910799999999998,-0.005771561,0.008244629,0.032609177,1.574066323,0.705897469,-0.008637558,0.014428891999999999,0.708114347,0.0,398704025.3,327434679.8,440609.3465,12.07,0.047341466,12.0626578,1.307341468,1.5665257830000001,0,0,0.0,39.8714138,32.7364372,-112.37918429999999,602.9246487,-40.15465513,0.06299634700000001,12.11830449,1.3576686690000002,0.057888947,0.036014763,-0.044173657000000005,1.565006713,40.23782076,0.00717678,0.073211393,0.0024092939999999998,0.0,216587511,0,0,0,0,1
4222,216635393,0.000631949,0.340875958,-0.011186328,0.0,1.0,1494.0,2000.0,1000.0,1498.0,1501.0,1672.0,11.77506361,12.02855663,11.85221211,11.9906758,12.24890737,13.10401605,13.38622135,86.51950198,86.51950198,12.14179856,-0.000383904,-0.005857800000000001,0.000370418,-0.262023488,0.217562306,-0.007236812,2.0,8.979395879,9.979395879,11,0,0,1.0,0.0,0.0,0,0,0,0,0,0.007963028,0.036846321,1.574123716,1.570043163,-0.142640434,265.6279943,34.70394301,-0.003286473,0.300240147,-0.00779806,0.0,-0.19727706899999997,0.21768021199999998,-9.761093653,-1.5e+20,961.5447558000001,12.14423442,-0.006365484,-0.004579853,-0.0005123080000000001,-0.174978944,0.09870064,-9.763478707,0.0009321360000000001,-0.012711944,-0.006783607,-1.5e+20,38.73697063,41.34443255,-1.4636185830000001,-1.35210261,10.21598602,12.17941945,-0.039268651,0.007068596,-0.132843803,154.790744,439.7273487,12.144115300000001,96153.64614,1.14246442,0.039376367,-0.333144648,-0.33784297399999996,0.004496842,0.0024123829999999997,0.004997931,0.008321304,0.030179565,1.574051021,0.7059130490000001,-0.007750049,0.013598677,0.708125405,0.0,398704025.5,327434748.5,440547.1352,12.07,0.044966992000000004,12.06503251,1.304966993,1.566608652,0,0,0.0,39.8714138,32.7364372,-112.3767347,603.487755,-40.09519449,0.063829508,12.12002497,1.3573992209999999,0.043284419000000005,-0.007887085,0.000656639,1.565050766,40.17835963,0.007171376,0.068243012,0.002505751,0.0,216635393,0,0,0,0,1
4223,216683276,0.000472462,0.33988448,-0.010773681,0.0,1.0,1494.0,2000.0,1000.0,1498.0,1501.0,1673.0,11.86607011,12.12142203,11.84618472,11.98488334,12.24295143,13.10530902,13.387499800000002,86.49188498,86.49188498,12.14220631,-0.00038375199999999995,-0.005858113000000001,0.000370641,-0.262008901,0.217525275,-0.007031894,2.0,8.981996399,9.981996399,11,0,0,1.0,0.0,0.0,0,0,0,0,0,0.008059416,0.03660547,1.574109736,1.5700428819999999,-0.142171604,265.0363438,34.70779807,-0.003280523,0.300436839,-0.007776265,0.0,-0.230219945,0.21680399399999997,-9.780034729,-3.58e+20,961.5495214,12.14462888,0.005483778000000001,0.00155896,0.002397083,-0.266524698,0.162654516,-9.745603937,0.004089258,-0.01409381,-0.000874338,-3.58e+20,38.6584691,41.28582066,-1.4678377669999998,-1.35173948,10.21594942,12.17432945,-0.039167587999999996,0.00844634,-0.13293470000000002,154.7718052,439.63082130000004,12.14451649,96154.73875,1.14247739,0.48488034,-0.42019211,0.215393355,0.0025479129999999997,0.000787582,0.001490434,0.008274603,0.029456579,1.5740374730000002,0.7059200390000001,-0.007510421999999999,0.013327034,0.708125364,0.0,398704025.7,327434817.1,440484.924,12.07,0.042592517999999996,12.06740722,1.302592519,1.5666915209999999,0,0,0.0,39.8714138,32.7364372,-112.3744747,604.0837312000001,-40.03240458,0.064257603,12.12181055,1.357003583,0.028057277000000002,-0.0012526619999999999,0.010988116000000001,1.5651061019999999,40.1155689,0.00699121,0.063900964,0.002598201,0.0,216683276,0,0,0,0,1
4224,216727158,-0.000510335,0.338263862,-0.011603281000000002,0.0,1.0,1494.0,2000.0,1000.0,1500.0,1499.0,1671.0,11.86288632,12.11808887,11.84015733,11.97909088,12.23699549,13.106602,13.38877825,86.46426798,86.46426798,12.14261407,-0.00038360000000000005,-0.005858426,0.000370864,-0.261994314,0.217488244,-0.006826977,2.0,8.984596919,9.984596919,11,0,0,1.0,0.0,0.0,0,0,0,0,0,0.008155805,0.03636462,1.574095755,1.5700426019999998,-0.141702775,264.4446932,34.71165313,-0.0032745509999999997,0.300630288,-0.0077798730000000005,0.0,-0.275554165,0.209540848,-9.792117301000001,-8.66e+20,961.5547495999999,12.14502777,-0.002325121,-0.015096925,-0.008903127,-0.203312338,0.22234356100000002,-9.761811772,0.00611764,-0.016294897,0.007780512,-8.66e+20,38.57996758,41.22720876,-1.472056951,-1.3513763490000001,10.21591281,12.16923945,-0.039066526000000004,0.009824084,-0.133025597,154.75286630000002,439.6088431,12.14491729,96154.98832,1.142480366,-0.19459090699999998,0.6820034070000001,0.41935504,0.0036708970000000002,0.002332444,-0.00096847,0.008428116999999999,0.03480778,1.574027305,0.705902258,-0.00935103,0.01526992,0.7080828640000001,0.0,398704026.0,327434885.7,440422.7127,12.07,0.040218044,12.06978193,1.300218044,1.56677439,0,0,0.0,39.8714138,32.7364372,-112.37229440000002,604.6935189,-39.96821577,0.064515494,12.12362349,1.356554922,0.01256852,0.026616485,0.006823612,1.5651661780000001,40.05137912,0.007149979,0.077789183,0.002599131,0.0,216727158,0,0,0,0,1
4225,216771041,0.0016225870000000002,0.346826821,-0.011072377,0.0,1.0,1494.0,2000.0,1000.0,1500.0,1499.0,1670.0,11.86460674,12.11987738,11.83412993,11.97329842,12.23103955,13.10789497,13.390056699999999,86.43665099,86.43665099,12.14302182,-0.000383447,-0.005858739,0.00037108800000000005,-0.261979727,0.217451213,-0.0066220590000000005,2.0,8.987197439,9.987197439,11,0,0,1.0,0.0,0.0,0,0,0,0,0,0.008225251,0.035983945,1.574081756,1.5700423209999999,-0.141233938,263.8530087,34.71594847,-0.003266426,0.30087804100000004,-0.007764216,0.0,-0.277757093,0.163734776,-9.808311014,-1.05e+21,961.5566894,12.1454174,0.003309832,-0.010160516999999999,0.007290126,-0.274170713,0.111615254,-9.825273825,0.004425063,-0.013116517,0.007365984,-1.05e+21,38.50146605,41.16859687,-1.4762761340000001,-1.3510132190000002,10.21587621,12.16414945,-0.038965464,0.011201828999999998,-0.133116495,154.7339275,439.5788609,12.14532326,96155.30858,1.142484102,-0.343291477,-0.215986961,-0.41617027799999995,0.0015221820000000002,0.008434582,-0.000234628,0.008505012,0.033335225,1.5740120169999998,0.705914675,-0.008802353,0.014777546,0.7080879440000001,0.0,398704026.2,327434955.6,440359.4233,12.07,0.037843569,12.07,1.2935307059999999,1.56693254,0,0,0.0,39.8714138,32.7364372,-112.36973940000001,605.3036651000001,-39.90428903,0.06558248900000001,12.12523524,1.3565038999999999,0.024048113,0.032771334,-0.002595918,1.565192196,39.98745203,0.007184608,0.075770453,0.002638587,0.0,216771041,0,0,0,0,1
4226,216818923,0.000837539,0.345632179,-0.010784845,0.0,1.0,1494.0,2000.0,1000.0,1500.0,1499.0,1669.0,11.92876977,12.18534114,11.82810254,11.96750596,12.22508361,13.10918795,13.39133515,86.40903399,86.40903399,12.14342958,-0.000383295,-0.005859051999999999,0.000371311,-0.261965141,0.21741418199999998,-0.0064171409999999995,2.0,8.98979796,9.98979796,11,0,0,1.0,0.0,0.0,0,0,0,0,0,0.008279439,0.035524082,1.5740677459999999,1.57004204,-0.140765097,263.2613049,34.72049317,-0.003260941,0.301087906,-0.007754341,0.0,-0.255532915,0.09610018599999999,-9.826833042,-1.05e+21,961.5567669,12.14580177,-0.002049144,-0.012759335,-0.0023539010000000003,-0.21109730300000001,0.18283339,-9.816502786000001,0.000625145,-0.006891513,0.001815077,-1.05e+21,38.42058744,41.10800615,-1.479507888,-1.35091994,10.21584286,12.16143328,-0.038911811,0.01233514,-0.13305083,154.71316399999998,439.439392,12.14572385,96156.9623,1.142503808,-0.151699375,-0.140947438,-0.399224356,-0.002053403,0.003697413,-0.0013549220000000002,0.008529817,0.030649702,1.573996968,0.705931187,-0.007842557,0.013838632,0.70810167,0.0,398704026.5,327435025.7,440296.0248,12.07,0.035469094,12.07,1.286407281,1.567098303,0,0,0.0,39.8714138,32.7364372,-112.3669723,605.9140143999999,-39.84051073,0.067107713,12.12673303,1.356678078,0.050801044000000004,0.026628441,-0.014991595,1.565198925,39.92367373,0.007073912,0.070879951,0.002734015,0.0,216818923,0,0,0,0,1
