timestamp,control[0],control[1],control[2],control[3],control[4],output[2],output[3],output[4],output[5],output[6],output[7],indicated_airspeed_m_s,true_airspeed_m_s,air_temperature_celsius,indicated_airspeed_m_s.1,equivalent_airspeed_m_s,true_airspeed_m_s.1,equivalent_ground_minus_wind_m_s,true_ground_minus_wind_m_s,differential_pressure_raw_pa,differential_pressure_filtered_pa,temperature,gyro_bias[0],gyro_bias[1],gyro_bias[2],accel_bias[0],accel_bias[1],accel_bias[2],instance_count,seq_reached,seq_current,seq_total,item_changed_index,item_do_jump_remaining,valid,warning,finished,failure,stay_in_failsafe,flight_termination,item_do_jump_changed,execution_mode,nav_roll,nav_pitch,nav_bearing,target_bearing,xtrack_error,wp_dist,acceptance_radius,rollspeed_integ,pitchspeed_integ,yawspeed_integ,additional_integ1,x,y,z,temperature.1,pressure,temperature.2,gyro_rad[0],gyro_rad[1],gyro_rad[2],accelerometer_m_s2[0],accelerometer_m_s2[1],accelerometer_m_s2[2],x.1,y.1,z.1,temperature.3,altitude_sp,altitude_filtered,height_rate_setpoint,height_rate,airspeed_sp,airspeed_filtered,airspeed_derivative_sp,airspeed_derivative,throttle_integ,pitch_integ,baro_alt_meter,baro_temp_celcius,baro_pressure_pa,rho,xyz[0],xyz[1],xyz[2],xyz[0].1,xyz[1].1,xyz[2].1,roll_body,pitch_body,yaw_body,q_d[0],q_d[1],q_d[2],q_d[3],thrust_body[0],lat,lon,alt,vel_m_s,vel_n_m_s,vel_e_m_s,vel_d_m_s,cog_rad,ground_contact,maybe_landed,landed,ref_timestamp,ref_lat,ref_lon,x.2,y.2,z.2,vx,vy,vz,ax,ay,az,dist_bottom,roll,pitch,yaw,thrust_body[0].1,timestamp.1,isTakeoff,isClimbing,isDescending,isCruise,isLand
166534832,-0.00080423,0.49615674,-0.048609168,0.055300145999999994,1.0,1475.0,2000.0,1021.0,1501.0,1498.0,1735.0,10.15691384,10.380175900000001,12.08325573,10.669928599999999,10.70312022,10.93842606,10.64440078,10.87841482,66.99064821,66.99064821,12.08299981,-0.000512642,-0.0061021980000000005,1.99e-05,-0.242631343,0.21191221,-0.037976965,2.0,8.576315263,9.576315263,11,0,0,1,0,0.0,0,0,0,0,0,-0.007995735,0.090811219,-1.577890768,-1.5744803580000002,0.100877033,349.2614792,29.76674134,-0.008903233,0.4,-0.019980838,0.0,-0.597853735,0.287612493,-7.847534491,-1.3900000000000002e-25,960.4545145999999,12.08318915,-0.017042097,-0.23272467800000002,0.00045862800000000004,-0.571522775,0.190926734,-7.770327704,-0.014437282,-0.22874102600000001,0.003172673,-1.3900000000000002e-25,50.041779999999996,49.52197799,0.025990071,0.08577475300000001,10.21997092,10.90987313,-0.013798041,-0.07688544,-0.39939935600000004,180.9569137,448.95838619999995,12.08325573,96047.43756,1.141202414,0.336843224,0.91863256,0.062287993,-0.010579071,-0.142282593,-0.00732449,-0.008495549,0.098121716,-1.577838834,0.7039061320000001,0.031809502,0.037565268,-0.708585337,0.027175447000000002,398688580.7,327345465.1,449600.1274,10.55336041,0.0,-10.54593419,0.162980591,4.712867649,0,0,0.0,787999,39.8714138,32.7364368,-284.1135193,-162.81035459999998,-49.50809149,0.034168644,-10.37790784,0.41560464700000005,0.0022127460000000002,0.931702817,2.155208702,49.65695249,0.007143276,0.133594972,-0.005156063,0.053630337,166534832,0,0,0,0,1
166569906,0.001634364,0.49636102600000004,-0.048147077,0.05171527,1.0,1475.0,2000.0,1043.0,1500.0,1499.0,1741.645929,10.08668019,10.30840666,12.08337489,10.64083518,10.67382418,10.90847172,10.62341594,10.85695414,66.71557541,66.71557541,12.08318362,-0.00051235,-0.00610189,2.02e-05,-0.242631392,0.211941949,-0.038028909,2.0,8.578915783,9.578915783,11,0,0,1,0,0.0,0,0,0,0,0,-0.007853694,0.092052013,-1.577950765,-1.5744815,0.102352716,348.8585018,29.67125221,-0.008886118,0.4,-0.019972333999999998,0.0,-0.562931776,0.232789073,-7.7795754420000005,-1.3900000000000002e-25,960.4571786,12.08331887,-0.016229433,-0.21394785600000002,0.002162531,-0.549862877,0.264400468,-7.792954836,-0.010767806999999999,-0.20265075,5.58e-06,-1.3900000000000002e-25,50.041779999999996,49.5238195,0.025898015,0.085668027,10.21994828,10.89231768,-0.013447383,-0.077432388,-0.399414521,181.00255180000002,449.02331119999997,12.08337489,96046.644,1.141193069,-0.052876537,0.711192418,-0.045191502,-0.009792255,-0.12642077,-0.005635993000000001,-0.008304544,0.095497031,-1.5779142,0.703917224,0.03094779,0.036573016,-0.708664266,0.022795627000000002,398688580.6,327345416.5,449590.6455,10.51163988,0.0,-10.50611022,0.238835758,4.712834538,0,0,0.0,787999,39.8714138,32.7364368,-284.1143081,-163.2261739,-49.4871595,0.031414434,-10.34649959,0.501770203,0.0026426540000000004,0.830395397,2.159049624,49.63602013,0.0076255609999999995,0.13614928,-0.004902043,0.05189562,166569906,0,0,0,0,1
166608980,-0.000773798,0.492607545,-0.048623497,0.03801459,1.0,1475.0,2000.0,1035.0,1500.0,1499.0,1742.0,10.02117851,10.24149129,12.08350068,10.61174175,10.64452814,10.87851738,10.6024311,10.83549346,66.44050261,66.44050261,12.08336743,-0.000512057,-0.0061015819999999995,2.0600000000000003e-05,-0.242631441,0.21197168800000002,-0.038080854,2.0,8.581516302999999,9.581516302999999,11,0,0,1,0,0.0,0,0,0,0,0,-0.007711651999999999,0.09329280599999999,-1.5780107630000002,-1.574482641,0.103828399,348.45552430000004,29.57576309,-0.00886702,0.4,-0.019951691,0.0,-0.528009818,0.177965653,-7.711616393,-1.3900000000000002e-25,960.4598425,12.08344859,-0.013715544,-0.202651043,-0.00178062,-0.586584139,0.202252525,-7.755355512,-0.007098333,-0.176560474,-0.003161515,-1.3900000000000002e-25,50.041779999999996,49.52552578,0.025812707999999997,0.085513455,10.21993791,10.88200906,-0.013241418000000001,-0.077872408,-0.399429711,181.0498534,449.08055199999995,12.08350068,96045.9802,1.141185145,-0.3181685,0.361346509,-0.11984230900000001,-0.008848082,-0.103067255,-0.01102309,-0.008093894,0.100213408,-1.577948762,0.703827268,0.032694319,0.038157021,-0.7085917759999999,0.041384849,398688580.4,327345368.0,449581.1636,10.46991935,0.0,-10.46628626,0.314690925,4.712801427,0,0,0.0,787999,39.8714138,32.7364368,-284.1151077,-163.64276619999998,-49.46597451,0.028621407999999997,-10.31520031,0.588191531,0.003305657,0.7273117490000001,2.1602574740000002,49.61483475,0.008288443000000001,0.13632358,-0.004668899000000001,0.045128554,166608980,0,0,0,0,1
166644054,-0.00035883199999999996,0.502800186,-0.047730813,0.053630337,1.0,1475.0,2000.0,1054.8487699999998,1500.0,1499.0,1747.0,10.18211606,10.40599646,12.08366952,10.58264832,10.6152321,10.84856304,10.58144626,10.81403278,66.16542982,66.16542982,12.08355124,-0.0005117640000000001,-0.006101274,2.1e-05,-0.242631491,0.212001427,-0.038132799,2.0,8.584116822999999,9.584116822999999,11,0,0,1,0,0.0,0,0,0,0,0,-0.0075696109999999995,0.0945336,-1.57807076,-1.574483783,0.105304082,348.0525469,29.48027396,-0.008854273000000001,0.4,-0.019940446,0.0,-0.525658799,0.155950036,-7.783222781,-1.3900000000000002e-25,960.4676675000001,12.08361876,-0.013261253,-0.174799125,-0.007777391999999999,-0.5477963379999999,0.18667607,-7.681670212,-0.008019489,-0.158018706,-0.0037001770000000002,-1.3900000000000002e-25,50.041779999999996,49.52704008,0.025736981000000003,0.08529095,10.21994495,10.88198985,-0.013240895,-0.078160607,-0.399444934,181.099517,448.7760505,12.08366952,96049.49895,1.141226997,0.408500859,0.730631266,-0.433125054,-0.00947975,-0.086005051,-0.0071639730000000006,-0.007996298,0.09897832,-1.578023595,0.703819066,0.032292305,0.037686761,-0.708643487,0.041046047,398688580.2,327345319.5,449571.6817,10.42819881,0.0,-10.42646229,0.390546093,4.712768317,0,0,0.0,787999,39.8714138,32.7364368,-284.11595619999997,-164.0461423,-49.44230511,0.02586883,-10.28728969,0.669358845,-0.009394428,0.650842681,2.110800484,49.5911654,0.009051756,0.152021298,-0.004117169,0.062103689000000004,166644054,0,0,0,0,1
166679129,-0.002771913,0.504405592,-0.047351745,0.05189562,1.0,1475.10142,2000.0,1051.0,1499.0,1500.0,1748.0,9.925055414,10.14315586,12.08386289,10.55355489,10.58593606,10.8186087,10.56046142,10.79257209,65.89035702,65.89035702,12.08373506,-0.000511471,-0.006100965999999999,2.13e-05,-0.24263154,0.21203116600000002,-0.038184744,2.0,8.586717343,9.586717343,11,0,0,1,0,0.0,0,0,0,0,0,-0.00742757,0.09577439300000001,-1.5781307580000001,-1.574484925,0.106779765,347.64956939999996,29.38478484,-0.008840327,0.4,-0.019914288,0.0,-0.528356177,0.139019531,-7.876461393,-1.3900000000000002e-25,960.4762925000001,12.083795199999999,-0.011386122,-0.15394239699999998,-0.007613679,-0.534174328,0.253917187,-7.768462458999999,-0.009652179,-0.140646934,-0.0038314409999999997,-1.3900000000000002e-25,50.041779999999996,49.52855437,0.025661253999999998,0.08506844400000001,10.21995199,10.88197063,-0.013240373,-0.078448807,-0.39946015700000004,181.1491805,448.94082369999995,12.08386289,96047.585,1.141204169,0.009983002,0.45150844700000003,-0.133476255,-0.010325413,-0.07561966,-0.009355499,-0.007743504,0.099567281,-1.578071819,0.7037879109999999,0.032590916,0.037803555,-0.70865362,0.046061433,398688580.0,327345271.0,449560.7596,10.38775857,-0.000160032,-10.3879186,0.46624122799999995,4.712701689,0,0,0.0,787999,39.8714138,32.7364368,-284.1168833,-164.4283404,-49.41465461,0.023181066,-10.26480913,0.7421069929999999,-0.043507871,0.6170215029999999,1.980156842,49.56351568,0.009321449,0.15522625199999998,-0.003986479,0.057602867,166679129,0,0,0,0,1
166714203,0.002688838,0.503961761,-0.046161373,0.045128554,1.0,1475.0,2000.0,1038.0,1499.253251,1499.746749,1746.0,9.95086097,10.16954485,12.08405956,10.52446146,10.55664001,10.78865436,10.53947658,10.77111141,65.61528423,65.61528423,12.08391887,-0.000511178,-0.006100657,2.17e-05,-0.24263159,0.21206090600000002,-0.038236688,2.0,8.589317864,9.589317864,11,0,0,1,0,0.0,0,0,0,0,0,-0.007285529000000001,0.09701518699999999,-1.578190755,-1.574486066,0.108255449,347.24659199999996,29.28929571,-0.008823124,0.4,-0.019882205,0.0,-0.5045548670000001,0.13974762,-7.973920515,-1.3900000000000002e-25,960.4803711000001,12.08398153,-0.010612238000000001,-0.13421351199999998,-0.0028218040000000002,-0.427309189,0.25796926,-7.802690748,-0.010331036,-0.12432561800000001,-0.0039082,-1.3900000000000002e-25,50.041779999999996,49.53006867,0.025585527,0.08484593900000001,10.21995903,10.88195142,-0.01323985,-0.078737006,-0.39947537899999996,181.19884409999997,448.97202699999997,12.08405956,96047.24674,1.141200134,0.232969578,0.143975411,-0.08923751099999999,-0.001404714,-0.06774322099999999,-0.011133103,-0.007534048000000001,0.101282256,-1.5781292690000002,0.70373659,0.033273624,0.038331659,-0.708645379,0.05447044,398688580.0,327345224.0,449534.2102,10.36120945,-0.002056411,-10.36326586,0.540200016,4.7122714000000006,0,0,0.0,787999,39.8714138,32.7364368,-284.1178104,-164.8105386,-49.38700411,0.020493303,-10.24232856,0.8148551409999999,-0.077621314,0.583200326,1.849513201,49.53586595,0.009965819,0.166954338,-0.003501743,0.065863311,166714203,0,0,0,0,1
166749277,0.000410775,0.515293303,-0.045245352,0.062235236,1.0,1476.0,2000.0,1053.0,1500.0,1499.0,1751.0,10.05316359,10.274123,12.08427888,10.49536804,10.52734397,10.75870001,10.51849174,10.74965073,65.34021143,65.34021143,12.08410268,-0.000510885,-0.006100349000000001,2.2100000000000002e-05,-0.24263163899999998,0.212090645,-0.038288632999999996,2.0,8.591918384,9.591918384,11,0,0,1,0,0.0,0,0,0,0,0,-0.007077312,0.09741672800000001,-1.578245499,-1.574487213,0.109731139,346.84993169999996,29.25133746,-0.008807224,0.4,-0.019838939,0.0,-0.411119784,0.186879309,-8.082470371,-1.3900000000000002e-25,960.4725028999999,12.08419387,-0.012772656,-0.114740163,-0.008473791999999999,-0.461927573,0.22691245899999998,-8.045472849,-0.00850339,-0.110764714,-0.003841732,-1.3900000000000002e-25,50.041779999999996,49.53158296,0.0255098,0.084623434,10.21996606,10.881932199999998,-0.013239328,-0.079025205,-0.39949060200000003,181.24850759999998,448.93880650000006,12.08427888,96047.61977,1.14120466,0.068004339,-0.323091265,0.47988312899999996,-0.006557515,-0.068631766,-0.011538231000000001,-0.007260239,0.097784445,-1.578201243,0.703763285,0.03213143,0.037003118,-0.70874208,0.046431957999999995,398688580.0,327345177.0,449507.6609,10.33466033,-0.003952791,-10.33861312,0.614158804,4.711841112,0,0,0.0,787999,39.8714138,32.7364368,-284.1191061,-165.21674,-49.35140906,0.016797562,-10.22412262,0.88176863,-0.087572415,0.543203532,1.684034621,49.50027044,0.010397415,0.170153955,-0.0032266490000000003,0.06250428,166749277,0,0,0,0,1
166792351,-0.001863673,0.518297812,-0.046033885999999996,0.056992129,1.0,1476.0,2000.0,1051.0,1501.0,1498.0,1752.0,10.03083059,10.25133682,12.08452496,10.46627461,10.49804793,10.72874567,10.497506900000001,10.72819005,65.06513863,65.06513863,12.08428649,-0.000510593,-0.006100041,2.24e-05,-0.242631688,0.212120384,-0.038340578,2.0,8.594518904,9.594518904,11,0,0,1,0,0.0,0,0,0,0,0,-0.006841746,0.097471419,-1.578298073,-1.5744883619999999,0.11120683199999999,346.45588230000004,29.23715582,-0.008794018,0.4,-0.019788143,0.0,-0.31768470000000004,0.234010998,-8.191020227000001,-1.3900000000000002e-25,960.4646346000001,12.08440622,-0.008444638,-0.101099731,-0.0071107769999999995,-0.383497841,0.21745345600000002,-8.0966881,-0.006675744,-0.09720381,-0.003775265,-1.3900000000000002e-25,50.03977358,49.53320754,-0.006977926999999999,0.08450660199999999,10.21997424,10.88197996,-0.013240121,-0.080695483,-0.398578923,181.29705790000003,448.9674825,12.08452496,96047.31397999999,1.141200925,0.467452207,0.135388815,0.096230737,-0.008212752,-0.06453089299999999,-0.014388905,-0.0069862430000000005,0.096648272,-1.5782550180000001,0.7037574040000001,0.031826038,0.036505477,-0.708786688,0.04507432,398688580.0,327345129.9,449481.1116,10.30811121,-0.00584917,-10.31396038,0.688117592,4.7114108230000005,0,0,0.0,787999,39.8714138,32.7364368,-284.1204967,-165.6291142,-49.31377098,0.012842608,-10.20701594,0.947181671,-0.09130989199999999,0.501618607,1.509597839,49.46263159,0.010656157,0.172343393,-0.003037347,0.056480240999999994,166792351,0,0,0,0,1
166842851,-0.000309785,0.528262187,-0.044762242,0.06709826299999999,1.0,1476.0,2000.0,1045.0,1498.0,1501.0,1751.7087420000003,9.902949157,10.12053359,12.08477087,10.43718118,10.46875189,10.69879133,10.47652205,10.70672937,64.79006584,64.79006584,12.084470300000001,-0.0005103,-0.006099733,2.2800000000000002e-05,-0.242631738,0.212150123,-0.038392523,2.0,8.597119424,9.597119424,11,0,0,1,0,0.0,0,0,0,0,0,-0.00660618,0.09752611,-1.5783506459999999,-1.574489512,0.112682525,346.06183280000005,29.22297417,-0.008781673,0.4,-0.019755118999999998,0.0,-0.272120475,0.247555212,-8.309429992,-1.3900000000000002e-25,960.4721902999999,12.08464264,-0.015433142,-0.08527201599999999,-0.018609796,-0.30127002199999997,0.263264021,-8.2895852,-0.003875791,-0.087064466,-0.006652452,-1.3900000000000002e-25,50.02696752,49.53542571,-0.213924875,0.084958566,10.2199885,10.88238821,-0.013247999,-0.089804866,-0.39267815,181.33961599999998,448.77761910000004,12.08477087,96049.46767,1.141226477,-0.37189651,-0.279980179,-0.050146607999999995,-0.00440962,-0.06964596599999999,-0.015725331999999998,-0.006783225,0.09949231300000001,-1.578304771,0.7036913340000001,0.032906641,0.037433123,-0.7087554859999999,0.055612543,398688580.0,327345082.9,449454.5623,10.28156209,-0.007745549,-10.28930764,0.76207638,4.710980535,0,0,0.0,787999,39.8714138,32.7364368,-284.12188330000004,-166.03461140000002,-49.27555423,0.009064576999999999,-10.19103284,1.009444175,-0.093689539,0.447353929,1.363251143,49.42441431,0.011143915,0.187746601,-0.002549993,0.070399836,166842851,0,0,0,0,1
166878500,0.000355147,0.530700328,-0.045531518,0.06250428,1.0,1477.0,2000.0,1062.0,1499.0,1500.0,1757.0,10.05295039,10.27383203,12.08503394,10.40808775,10.43945585,10.66883699,10.45553721,10.68526869,64.51499304,64.51499304,12.08465411,-0.0005100069999999999,-0.006099425,2.3199999999999998e-05,-0.242631787,0.212179862,-0.038444467,2.0,8.599719944,9.599719944,11,0,0,1,0,0.0,0,0,0,0,0,-0.006370614,0.097580801,-1.57840322,-1.574490661,0.114158218,345.6677833,29.20879252,-0.008767426,0.4,-0.019706251,0.0,-0.248519675,0.24568930100000003,-8.432363541,-1.3900000000000002e-25,960.4868227,12.08489012,-0.0036688579999999997,-0.08239625,-0.004459702,-0.421317069,0.165178655,-8.353219195,-0.000629738,-0.07849495299999999,-0.010880205,-1.3900000000000002e-25,50.01416145,49.53764389,-0.420871822,0.08541053,10.22000277,10.88279647,-0.013255876000000002,-0.09891424900000001,-0.38677737700000003,181.38217419999998,448.7610832,12.08503394,96049.67063,1.141228954,-0.29902180300000003,-0.125327367,0.10483470800000001,0.00014678100000000002,-0.070435193,-0.018238584,-0.006563251,0.09632489699999999,-1.5783757980000002,0.703713377,0.031862441,0.036239917999999996,-0.708843146,0.047343181,398688580.0,327345035.9,449428.013,10.25501297,-0.009641928000000001,-10.2646549,0.836035168,4.710550246,0,0,0.0,787999,39.8714138,32.7364368,-284.1232546,-166.4137039,-49.23511563,0.005965862,-10.17936379,1.0596098859999998,-0.090855658,0.344404088,1.324759117,49.3839761,0.011660849,0.18828068899999997,-0.0021679489999999997,0.057162642,166878500,0,0,0,0,1
166917574,-0.000220283,0.538254242,-0.045110595999999996,0.069483936,1.0,1476.987598,2000.0,1057.0,1500.0,1499.0,1759.0,9.932652286,10.15085684,12.08529829,10.37899433,10.41015981,10.63888265,10.43455237,10.66380801,64.23992024,64.23992024,12.08483792,-0.000509714,-0.006099116999999999,2.35e-05,-0.242631837,0.21220960100000003,-0.038496412,2.0,8.602320464,9.602320464,11,0,0,1,0,0.0,0,0,0,0,0,-0.006135049,0.09763549199999999,-1.578455793,-1.57449181,0.11563391099999999,345.27373389999997,29.19461087,-0.008753147,0.4,-0.019676093999999998,0.0,-0.226998172,0.240934185,-8.551656105,-1.3900000000000002e-25,960.4998241000001,12.0851398,-0.00699388,-0.07977213,-0.011930257,-0.390543674,0.251050999,-8.486636716,0.001809668,-0.071090825,-0.014693277,-1.3900000000000002e-25,50.00135539,49.53986206,-0.62781877,0.085862494,10.22001704,10.88320472,-0.013263753999999999,-0.10802363300000001,-0.380876603,181.4247324,448.71084079999997,12.08529829,96050.24917000001,1.1412358759999999,0.32091830600000004,0.187391767,0.395175281,-0.00103071,-0.071246952,-0.009569685999999999,-0.006274915,0.10052145900000001,-1.5784046,0.7036306609999999,0.033452186,0.037613294,-0.708780757,0.061038622,398688579.8,327344990.1,449390.8494,10.24077015,-0.013076615,-10.24923185,0.896149196,4.7102811110000005,0,0,0.0,787999,39.8714138,32.7364368,-284.12462589999996,-166.79279640000001,-49.19467704,0.0028671459999999997,-10.16769474,1.109775598,-0.08802177800000001,0.241454246,1.28626709,49.34353789,0.012039517,0.204123885,-0.001663188,0.07225598400000001,166917574,0,0,0,0,1
166956648,0.0016001729999999999,0.543425339,-0.04419515,0.070399836,1.0,1477.0,2000.0,1065.0,1499.0,1500.0,1763.0,9.962929808,10.18179177,12.085593199999998,10.3499009,10.38086377,10.60892831,10.41356753,10.64234733,63.96484745,63.96484745,12.08502174,-0.000509421,-0.006098809,2.3899999999999998e-05,-0.24263188600000002,0.21223934,-0.038548357000000005,2.0,8.604920984,9.604920984,11,0,0,1,0,0.0,0,0,0,0,0,-0.0058994830000000005,0.09769018300000001,-1.578508367,-1.574492959,0.117109604,344.8796844,29.18042922,-0.008740593,0.4,-0.019633127,0.0,-0.22520738399999998,0.208763027,-8.636398896000001,-1.3900000000000002e-25,960.4973492999999,12.08541044,-0.010905588,-0.076886258,-0.013372166999999999,-0.301545198,0.264957087,-8.52501114,-0.00340531,-0.074745189,-0.014571395,-1.3900000000000002e-25,49.98854932,49.54208024,-0.834765718,0.086314457,10.22003131,10.88361297,-0.013271632,-0.11713301599999999,-0.37497583,181.4672905,448.73657360000004,12.085593199999998,96049.94178,1.141232287,-0.459499039,-0.15993907699999999,-0.596465108,0.001464287,-0.07194497,-0.020552565,-0.006055861,0.099308069,-1.578474273,0.703622283,0.033100389,0.037107747,-0.7088321240000001,0.058096775999999996,398688579.7,327344944.6,449351.215,10.22939188,-0.016869374,-10.23595719,0.9530405820000001,4.710049487,0,0,0.0,787999,39.8714138,32.7364368,-284.1263671,-167.1909664,-49.14928722,-0.000709599,-10.15863101,1.157249554,-0.113622905,0.18565635600000002,1.220596262,49.298148700000006,0.01208823,0.20673878199999998,-0.001541114,0.064341178,166956648,0,0,0,0,1
166999722,0.000242367,0.54239313,-0.044054684000000004,0.057162642,1.0,1477.0,2000.0,1062.0,1499.0,1500.0,1764.0,9.944835015,10.16335523,12.0858885,10.32080747,10.35156773,10.57897397,10.39258269,10.62088665,63.68977465,63.68977465,12.08520555,-0.0005091280000000001,-0.006098501,2.4299999999999998e-05,-0.24263193600000002,0.21226908,-0.038600302,2.0,8.607521504,9.607521504,11,0,0,1,0,0.0,0,0,0,0,0,-0.005663916999999999,0.09774487400000001,-1.57856094,-1.574494109,0.11858529699999999,344.4856349,29.16624757,-0.008725078,0.4,-0.019583864,0.0,-0.223416595,0.17659186899999998,-8.721141687000001,-1.3900000000000002e-25,960.4948745999999,12.08568108,-0.009020499,-0.080720461,-0.020633218999999998,-0.212178962,0.229143895,-8.579107673,-0.008620289,-0.078399553,-0.014449513,-1.3900000000000002e-25,49.97574326,49.54429842,-1.041712666,0.086766421,10.22004557,10.88402122,-0.013279508999999998,-0.1262424,-0.36907505700000004,181.5098487,448.7417606000001,12.0858885,96049.88532999999,1.141231452,-0.161952027,-0.6862840109999999,0.695573223,-0.000660478,-0.079815525,-0.012173618,-0.005812325,0.098928437,-1.578522855,0.70360675,0.033052354,0.036887091000000004,-0.708860388,0.058300992,398688579.5,327344899.1,449311.5807,10.218013599999999,-0.020662132,-10.22268254,1.009931968,4.709817864,0,0,0.0,787999,39.8714138,32.7364368,-284.1283371,-167.6009379,-49.10083453,-0.004582058,-10.15117895,1.203058366,-0.156814172,0.159027066,1.1381123929999999,49.24969678,0.012413176000000001,0.220085072,-0.001063352,0.07266202599999999,166999722,0,0,0,0,1
167034797,0.000241515,0.554193833,-0.043317045,0.07203625,1.0,1477.0,2000.0,1054.0,1500.0,1499.0,1765.0,9.717300559,9.930759486,12.08621401,10.29171404,10.32227169,10.54901963,10.37159785,10.59942596,63.41470185,63.41470185,12.08538936,-0.000508836,-0.006098193000000001,2.46e-05,-0.242631985,0.21229881899999997,-0.038652247,2.0,8.610122023999999,9.610122023999999,11,0,0,1,0,0.0,0,0,0,0,0,-0.005428351,0.097799565,-1.5786135140000002,-1.574495258,0.12006099099999999,344.0915855,29.15206592,-0.008715499,0.4,-0.019540645,0.0,-0.20914142100000002,0.17453190600000001,-8.739424155,-1.3900000000000002e-25,960.5010127,12.08596986,-0.002870088,-0.082908377,-0.01476823,-0.253693971,0.27260458,-8.69219533,-0.008997332,-0.084384401,-0.014866094,-1.3900000000000002e-25,49.90994362,49.54609707,-1.143574469,0.072564147,10.22004991,10.87304359,-0.013059868,-0.206772137,-0.335099247,181.542417,448.58934180000006,12.08621401,96051.62319,1.141252236,0.279110549,0.449725421,-0.223913205,-0.003566761,-0.07709399,-0.012256899,-0.00554637,0.101314541,-1.578571512,0.703545926,0.033992772000000004,0.037631199,-0.708838078,0.066761223,398688579.3,327344853.5,449271.9464,10.20663533,-0.024454891,-10.20940788,1.066823354,4.70958624,0,0,0.0,787999,39.8714138,32.7364368,-284.13030630000003,-168.0099761,-49.05236883,-0.008421834,-10.14386577,1.248642893,-0.19661055100000002,0.132758262,1.056798782,49.201231799999995,0.012942745,0.223429309,-0.000604217,0.067268446,167034797,0,0,0,0,1
167077871,-0.000237065,0.557874392,-0.043404604000000006,0.0667367,1.0,1477.6197240000001,2000.0,1070.0,1499.3802759999999,1499.6197240000001,1771.0,9.935375465,10.15356953,12.08652822,10.26262062,10.29297565,10.51906528,10.35061301,10.57796528,63.13962906,63.13962906,12.08557317,-0.0005085430000000001,-0.006097885,2.5e-05,-0.242632034,0.212328558,-0.038704191,2.0,8.612722545,9.612722545,11,0,0,1,0,0.0,0,0,0,0,0,-0.005192785,0.09785425699999999,-1.5786660869999998,-1.5744964069999998,0.121536684,343.697536,29.13788427,-0.008702392,0.4,-0.019490513,0.0,-0.18263795,0.20196547199999998,-8.69260959,-1.3900000000000002e-25,960.5155871,12.08627641,-0.002337291,-0.080131804,-0.009624464000000001,-0.199407652,0.254944753,-8.729027278,-0.00463568,-0.09265193,-0.015810095,-1.3900000000000002e-25,49.83826269,49.54784916,-1.233773785,0.056735525999999994,10.22005315,10.86080234,-0.012814977,-0.29522819899999997,-0.298007633,181.5738767,448.4988973999999,12.08652822,96052.67571,1.141264651,0.155575015,-0.10963771,-0.228465895,-0.000577366,-0.082007898,-0.010973577,-0.0053975609999999995,0.097827408,-1.578639395,0.70357706,0.032810049,0.03635095,-0.7089295720000001,0.056990625,398688579.1,327344808.0,449232.3121,10.19525705,-0.02824765,-10.19613323,1.123714739,4.709354616000001,0,0,0.0,787999,39.8714138,32.7364368,-284.1322493,-168.3877669,-49.00346729,-0.011167346000000002,-10.14120278,1.286717817,-0.12273881,0.11855929,1.014667885,49.1523291,0.013134961,0.225479013,-0.000393624,0.05892223,167077871,0,0,0,0,1
167117890,-0.000131122,0.5648758429999999,-0.042313625,0.07266202599999999,1.0,1477.0,2000.0,1058.827566,1499.0,1500.0,1770.456891,9.943641514,10.16195322,12.08687247,10.23352719,10.2636796,10.48911094,10.32962817,10.5565046,62.86455626,62.86455626,12.08575698,-0.00050825,-0.006097577,2.54e-05,-0.242632084,0.212358297,-0.038756136000000004,2.0,8.615323065,9.615323065,11,0,0,1,0,0.0,0,0,0,0,0,-0.0049572190000000006,0.09790894800000001,-1.57871866,-1.5744975559999999,0.12301237699999999,343.30348660000004,29.12370262,-0.0086924,0.4,-0.019446839,0.0,-0.15613447800000002,0.229399038,-8.645795025,-1.3900000000000002e-25,960.5301616,12.08658295,-0.00185059,-0.085103846,-0.02083016,-0.20064115800000001,0.333393214,-8.82693273,-0.000274027,-0.100919459,-0.016754095,-1.3900000000000002e-25,49.76658175,49.54960125,-1.3239731000000001,0.040906905,10.22005638,10.84856109,-0.012570086000000001,-0.38368426,-0.260916019,181.6053363,448.456046,12.08687247,96053.19405,1.141270785,-0.37974844,-0.182384744,0.465265776,0.006053209,-0.081869422,-0.014442074,-0.005137077,0.101936598,-1.5786648559999998,0.703495312,0.034359038,0.037703293,-0.708866917,0.069790457,398688578.9,327344761.6,449187.3727,10.18795959,-0.033060612,-10.18489888,1.171424285,4.708962677,0,0,0.0,787999,39.8714138,32.7364368,-284.1341923,-168.7655576,-48.95456575,-0.013912858,-10.13853978,1.324792741,-0.048867069000000006,0.104360317,0.972536988,49.1034264,0.013506158999999998,0.242764178,0.000147423,0.07313022,167117890,0,0,0,0,1
167156019,0.0008642439999999999,0.567768048,-0.042761342,0.067268446,1.0,1478.0,2000.0,1071.0,1499.0,1500.0,1776.0,10.05330268,10.27399082,12.08721695,10.20443376,10.23438356,10.4591566,10.30864333,10.53504392,62.58948347,62.58948347,12.08594079,-0.000507957,-0.006097269000000001,2.57e-05,-0.242632133,0.212388036,-0.038808081,2.0,8.617923585,9.617923585,11,0,0,1,0,0.0,0,0,0,0,0,-0.004721653,0.097963639,-1.578771234,-1.574498705,0.12448807,342.90943710000005,29.10952097,-0.008680676,0.4,-0.019391036,0.0,-0.135136759,0.273684575,-8.716116177,-1.3900000000000002e-25,960.5363917000001,12.08691069,-0.000993965,-0.087309299,-0.009719816,-0.230600495,0.22620605800000002,-8.845498318999999,-0.00068468,-0.102365191,-0.016343877,-1.3900000000000002e-25,49.69490081,49.55135334,-1.414172416,0.025078284,10.22005961,10.83631985,-0.012325195,-0.47214032200000006,-0.223824406,181.636796,448.2884471,12.08721695,96055.11843,1.141293598,-0.7356625370000001,0.42801549,-0.204087342,0.003121073,-0.08050963900000001,-0.016335732,-0.004846631,0.10039505800000001,-1.578731545,0.7034928290000001,0.033915914,0.037057115,-0.708924751,0.065383129,398688578.7,327344714.4,449137.8772,10.18416683,-0.03874975,-10.17541679,1.21124825,4.708433057,0,0,0.0,787999,39.8714138,32.7364368,-284.13645319999995,-169.1572962,-48.90225451,-0.017271408000000002,-10.13775158,1.362926752,-0.019087958000000002,0.071404587,0.944375823,49.05111451,0.013788233,0.24186982699999998,0.00036397800000000004,0.058827817000000004,167156019,0,0,0,0,1
167195093,0.0007773060000000001,0.569341259,-0.041614822999999995,0.05892223,1.0,1478.0,2000.0,1066.0,1499.0,1500.0,1778.0,9.914582922000001,10.13217147,12.08756082,10.17534033,10.20508752,10.42920226,10.28765849,10.51358324,62.31441067,62.31441067,12.0861246,-0.000507664,-0.006096961,2.61e-05,-0.242632183,0.212417775,-0.038860026,2.0,8.620524105,9.620524105,11,0,0,1,0,0.0,0,0,0,0,0,-0.004486087,0.09801833,-1.5788238069999998,-1.574499855,0.125963763,342.5153876,29.09533932,-0.008668176,0.4,-0.01935114,0.0,-0.114650332,0.319535074,-8.797315165,-1.3900000000000002e-25,960.5418470000001,12.0872404,-0.006601076,-0.089068488,-0.013256623,-0.179081579,0.308285028,-8.851556135,-0.0015385129999999998,-0.10317741400000001,-0.015807899,-1.3900000000000002e-25,49.62321988,49.55310544,-1.5043717319999999,0.009249663,10.22006285,10.8240786,-0.012080303999999998,-0.560596384,-0.18673279199999998,181.66825569999997,448.3382083000001,12.08756082,96054.52528999999,1.14128668,-0.312572845,-0.870480521,0.281538523,0.001344467,-0.08863874699999999,-0.014123749,-0.004583435,0.100247099,-1.578774378,0.703475093,0.033956802,0.036911037,-0.708946995,0.065138568,398688578.5,327344667.2,449088.3817,10.18037407,-0.044438887999999996,-10.16593471,1.2510722140000001,4.7079034360000005,0,0,0.0,787999,39.8714138,32.7364368,-284.1391185,-169.5667733,-48.84560695,-0.021409598,-10.13934768,1.4011359069999998,-0.045384297000000004,0.014594672,0.93398087,48.99446695,0.01391522,0.258160351,0.0007538789999999999,0.072888434,167195093,0,0,0,0,1
167234168,0.0035718959999999998,0.581464124,-0.042378800999999994,0.07313022,1.0,1478.0,2000.0,1072.0,1500.0,1499.0,1782.0,9.94500819,10.1632976,12.08790774,10.1462469,10.17579148,10.39924792,10.26667364,10.49212256,62.03933787,62.03933787,12.08630841,-0.000507371,-0.0060966530000000005,2.65e-05,-0.242632232,0.21244751399999998,-0.03891197,2.0,8.623124625,9.623124625,11,0,0,1,0,0.0,0,0,0,0,0,-0.004250521,0.098073021,-1.578876381,-1.574501004,0.127439456,342.12133819999997,29.08115767,-0.008656368000000001,0.4,-0.019305489,0.0,-0.09830925,0.34105827899999996,-8.852884791000001,-1.3900000000000002e-25,960.5488299000001,12.08760473,-0.005149321,-0.09085261800000001,-0.016036401000000002,-0.135789397,0.211335877,-8.85443509,-0.001932465,-0.101735983,-0.015633021,-1.3900000000000002e-25,49.55174192,49.54960797,-1.514501615,-0.039691457,10.22006731,10.78293893,-0.011257421,-0.6223351579999999,-0.17353944899999998,181.6871166,448.38512419999995,12.08790774,96054.00978,1.14128055,0.23816614,-0.004769778,0.087235985,0.0032369990000000004,-0.08262950299999999,-0.01831265,-0.004346474,0.10226211199999999,-1.578821342,0.7034206000000001,0.034755463,0.037534826,-0.7089305990000001,0.07134180799999999,398688578.3,327344619.9,449038.8862,10.17658132,-0.050128026,-10.15645262,1.290896179,4.707373815,0,0,0.0,787999,39.8714138,32.7364368,-284.14178389999995,-169.9762504,-48.78895939,-0.025547788,-10.14094378,1.4393450630000002,-0.071680637,-0.042215242,0.923585917,48.93781939,0.013864767,0.261396883,0.000965503,0.06756312,167234168,0,0,0,0,1
167277242,0.000533875,0.5808062310000001,-0.041337636000000004,0.058827817000000004,1.0,1478.0,2000.0,1073.0,1499.0,1500.0,1784.0,9.993141781,10.21250456,12.08827987,10.11715348,10.14649544,10.36929358,10.2456888,10.47066188,61.76426508,61.76426508,12.08649223,-0.000507079,-0.006096345,2.68e-05,-0.242632281,0.21247725399999998,-0.038963915,2.0,8.625725145,9.625725145,11,0,0,1,0,0.0,0,0,0,0,0,-0.00399226,0.098543837,-1.578921784,-1.574502113,0.128854701,341.7257628,29.09918787,-0.008641702,0.4,-0.01928411,0.0,-0.09058281800000001,0.31202572,-8.855192761,-1.3900000000000002e-25,960.5589876,12.088041,0.00499733,-0.094325861,-0.011814254,-0.17327131699999998,0.24282613100000003,-8.986757024,-0.0013707139999999999,-0.09561111800000001,-0.016208562,-1.3900000000000002e-25,49.4803764,49.54320265,-1.480279312,-0.106974304,10.22007244,10.7257918,-0.010114378,-0.66927465,-0.173583873,181.6989989,448.263946,12.08827987,96055.39748,1.141296998,-0.303371005,-0.09217702900000001,0.127704854,0.002035002,-0.08451375,-0.0073846630000000005,-0.004197822,0.098684805,-1.578885605,0.7034557509999999,0.033540546,0.036223096,-0.709022259,0.060466640999999995,398688578.1,327344572.7,448989.3907,10.17278856,-0.055817162999999996,-10.14697053,1.330720144,4.706844193999999,0,0,0.0,787999,39.8714138,32.7364368,-284.1444097,-170.358915,-48.73274659,-0.029257751000000002,-10.14576802,1.474126714,-0.066922695,-0.066054988,0.915424674,48.88160692,0.01391961,0.262003492,0.00110296,0.059246704000000004,167277242,0,0,0,0,1
167316316,-0.0014187470000000002,0.593635534,-0.041460896000000004,0.072888434,1.0,1478.0,2000.0,1058.0,1498.0,1501.0,1783.5307059999998,10.0784149,10.29955075,12.08866416,10.08806005,10.1171994,10.33933924,10.22470396,10.4492012,61.48919228,61.48919228,12.08667604,-0.000506786,-0.0060960369999999995,2.72e-05,-0.242632331,0.212506993,-0.03901586,2.0,8.628325665,9.628325665,11,0,0,1,0,0.0,0,0,0,0,0,-0.003722064,0.099233491,-1.578963417,-1.574503201,0.130238156,341.329385,29.13415817,-0.0086289,0.4,-0.019246718,0.0,-0.08285638599999999,0.28299316199999996,-8.85750073,-1.3900000000000002e-25,960.5691453,12.08847726,0.0015628460000000001,-0.092745447,-0.017049386,-0.135211852,0.276867961,-8.94219276,-0.0008089639999999999,-0.089486254,-0.016784103999999998,-1.3900000000000002e-25,49.40901088,49.53679734,-1.446057009,-0.174257152,10.22007758,10.66864467,-0.008971334000000001,-0.716214142,-0.173628297,181.7108812,448.1320359,12.08866416,96056.90709,1.1413149459999998,0.22628163899999998,0.121096629,-0.654722837,-0.002249166,-0.087982751,-0.010128919,-0.003838593,0.102954826,-1.5789084119999999,0.7033688770000001,0.035181318999999996,0.037596851,-0.708957692,0.072817373,398688577.9,327344525.8,448937.7864,10.171004199999999,-0.060502099999999996,-10.1420074,1.368535707,4.706367168,0,0,0.0,787999,39.8714138,32.7364368,-284.1470287,-170.7368989,-48.67660969,-0.032892957,-10.15115581,1.50831001,-0.056743477,-0.08413899400000001,0.907653378,48.82547041,0.014295203999999999,0.27836460399999996,0.00163907,0.073645785,167316316,0,0,0,0,1
167351390,-0.002046816,0.596109049,-0.041420557000000004,0.06756312,1.0,1479.0,2000.0,1072.682537,1499.634927,1499.365073,1789.6825370000001,9.945116803,10.16333085,12.08905738,10.05896662,10.08790336,10.3093849,10.20371912,10.42774052,61.21411948,61.21411948,12.08685985,-0.000506493,-0.006095729,2.7600000000000003e-05,-0.24263238,0.212536732,-0.039067805,2.0,8.630926185,9.630926185,11,0,0,1,0,0.0,0,0,0,0,0,-0.003451868,0.099923145,-1.57900505,-1.574504289,0.131621611,340.93300719999996,29.16912847,-0.008619752,0.4,-0.019206736000000002,0.0,-0.116554511,0.275543788,-8.906464843,-1.3900000000000002e-25,960.5717152000001,12.08886985,0.0018245129999999998,-0.10139301099999999,-0.014313248,-0.09125495900000001,0.302989429,-8.857306442,-0.001577984,-0.09143700099999999,-0.013691403999999999,-1.3900000000000002e-25,49.33764536,49.53039202,-1.411834706,-0.24153999899999998,10.22008271,10.61149754,-0.00782829,-0.7631536329999999,-0.173672722,181.72276340000002,448.318179,12.08905738,96054.77491000001,1.14128964,0.544322039,0.21805166899999998,0.539518605,0.0046379920000000005,-0.087415215,-0.008269093,-0.003492919,0.101354043,-1.5789717669999999,0.7033681540000001,0.034736496,0.036910337,-0.709016388,0.067288155,398688577.8,327344479.7,448880.3261,10.17479696,-0.06239848,-10.14959292,1.400774155,4.706036193,0,0,0.0,787999,39.8714138,32.7364368,-284.14994069999995,-171.1233788,-48.61817218,-0.036752473,-10.15724797,1.54315194,-0.044687943,-0.106756831,0.898517401,48.76703328,0.014234356,0.280434264,0.00173548,0.0678523,167351390,0,0,0,0,1
167386464,0.0019182070000000001,0.5952931020000001,-0.04124281,0.059246704000000004,1.0,1479.0,2000.0,1067.0,1500.0,1499.0,1791.8343670000002,10.01981651,10.23969911,12.08945059,10.02987319,10.05860732,10.27943055,10.18273428,10.40627983,60.93904669,60.93904669,12.08704366,-0.0005062,-0.006095421,2.7899999999999997e-05,-0.24263243,0.212566471,-0.039119749,2.0,8.633526705,9.633526705,11,0,0,1,0,0.0,0,0,0,0,0,-0.003181672,0.1006128,-1.579046682,-1.574505377,0.133005066,340.5366294,29.20409877,-0.008612731,0.4,-0.019176077,0.0,-0.165209881,0.275887497,-8.972275179,-1.3900000000000002e-25,960.5715453,12.08924666,0.001592745,-0.097542852,-0.017157096,-0.19080218399999999,0.11844755900000001,-8.933564889,-0.002827508,-0.096303624,-0.009274206,-1.3900000000000002e-25,49.26627984,49.52398671,-1.377612403,-0.308822847,10.22008785,10.55435041,-0.006685246,-0.810093125,-0.17371714600000002,181.7346457,448.11299119999995,12.08945059,96057.11379,1.141317409,-0.490433082,0.126597325,0.37804270100000004,0.00449841,-0.085691186,-0.00646366,-0.003169958,0.101653022,-1.5790097859999999,0.7033432890000001,0.034956759,0.036900285,-0.7090297720000001,0.06735039599999999,398688577.6,327344433.6,448822.8658,10.17858972,-0.06429485900000001,-10.15717844,1.433012603,4.705705218,0,0,0.0,787999,39.8714138,32.7364368,-284.15367599999996,-171.53372109999998,-48.55327296,-0.041242004,-10.16531846,1.57984376,-0.02736244,-0.14210874199999998,0.885548475,48.70213445,0.014305126000000001,0.283488819,0.001955676,0.063870199,167386464,0,0,0,0,1
167425539,0.000435302,0.606255761,-0.040883248,0.073645785,1.0,1479.0,2000.0,1072.0,1499.9861970000002,1499.0138029999998,1796.0,9.990406274,10.20957654,12.08984771,10.00077977,10.02931128,10.24947621,10.16174944,10.38481915,60.66397389,60.66397389,12.08722747,-0.000505907,-0.006095113,2.8300000000000003e-05,-0.24263247899999998,0.21259621,-0.039171694,2.0,8.636127225,9.636127225,11,0,0,1,0,0.0,0,0,0,0,0,-0.002911475,0.101302454,-1.579088315,-1.574506465,0.13438852099999998,340.14025160000006,29.23906906,-0.008600154,0.4,-0.0191469,0.0,-0.20162619,0.270368168,-9.017394308,-1.3900000000000002e-25,960.5720954,12.08962693,0.000491751,-0.09597126,-0.010570565,-0.169365503,0.232352284,-8.927563795,-0.0032758329999999997,-0.099877309,-0.005340121999999999,-1.3900000000000002e-25,49.20042011,49.51223203,-1.35032644,-0.37987208200000006,10.22008397,10.50244936,-0.0056473040000000006,-0.839321648,-0.17375936,181.73867030000002,447.9996717,12.08984771,96058.44061,1.141333091,-0.16772808,0.883225947,0.601841086,0.003622492,-0.08296569599999999,-0.01156477,-0.002912767,0.103432695,-1.5790566069999998,0.703291485,0.03567911,0.037434043,-0.709018045,0.071855798,398688577.4,327344387.6,448765.4055,10.18238248,-0.066191238,-10.16476395,1.46525105,4.7053742430000005,0,0,0.0,787999,39.8714138,32.7364368,-284.1574113,-171.9440634,-48.48837375,-0.045731534000000004,-10.17338896,1.61653558,-0.010036936,-0.177460653,0.8725795479999999,48.63723562,0.014409503999999998,0.295225866,0.002237453,0.073609486,167425539,0,0,0,0,1
167460613,-0.001789287,0.607619621,-0.040989086,0.0678523,1.0,1479.0,2000.0,1067.0,1500.8619720000002,1498.1380279999998,1797.138028,10.01511709,10.23473934,12.09026801,9.971686338,10.00001524,10.21952187,10.140764599999999,10.36335847,60.38890109,60.38890109,12.08741128,-0.000505614,-0.006094805,2.8699999999999996e-05,-0.24263252899999999,0.21262594899999998,-0.039223639,2.0,8.638727746,9.638727746,11,0,0,1,0,0.0,0,0,0,0,0,-0.0026412790000000003,0.101992109,-1.579129948,-1.5745075530000001,0.135771976,339.7438738,29.27403936,-0.00858906,0.4,-0.019114597,0.0,-0.165617097,0.23015394100000003,-8.940071921,-1.3900000000000002e-25,960.5769059,12.09002768,0.001128299,-0.101359293,-0.01686892,-0.202610552,0.204622256,-8.923312771,0.001016991,-0.09579995599999999,-0.004264899999999999,-1.3900000000000002e-25,49.14328288,49.49200269,-1.334029298,-0.456888177,10.2200658,10.45885936,-0.004775868,-0.84049176,-0.17379807100000003,181.73024660000002,447.89965989999996,12.09026801,96059.57335,1.141346644,0.5361574339999999,-0.006556516,0.083255194,0.01060045,-0.08060547700000001,-0.005698216,-0.002717936,0.09995611300000001,-1.579118761,0.7033264340000001,0.034516028,0.036141496,-0.7091079240000001,0.060282487,398688577.2,327344341.5,448707.9452,10.18617524,-0.068087618,-10.17234947,1.4974894980000002,4.705043268,0,0,0.0,787999,39.8714138,32.7364368,-284.1609645,-172.3336324,-48.42466701,-0.049345253,-10.18267378,1.651057965,-0.02350135,-0.205661628,0.8656715220000001,48.57352849,0.014529862,0.292442029,0.0024215720000000003,0.059220314,167460613,0,0,0,0,1
167495687,0.000882729,0.611153623,-0.039283217999999995,0.07336426,1.0,1479.0,2000.0,1059.0,1498.710142,1500.289858,1797.0,10.01626715,10.23591871,12.09069222,9.942592911,9.970719193999999,10.18956753,10.11977976,10.34189779,60.113828299999994,60.113828299999994,12.08759509,-0.000505321,-0.006094497,2.8999999999999997e-05,-0.24263257800000002,0.212655688,-0.039275584,2.0,8.641328266,9.641328266,11,0,0,1,0,0.0,0,0,0,0,0,-0.002371083,0.10268176300000001,-1.579171581,-1.574508641,0.137155432,339.347496,29.30900966,-0.008579639,0.4,-0.019089233,0.0,-0.129608003,0.189939713,-8.862749535,-1.3900000000000002e-25,960.5817164999999,12.09042843,-0.001083491,-0.09689953,-0.007594178,-0.19357362600000003,0.301874408,-8.984206458,0.005309814,-0.09172260199999999,-0.003189677,-1.3900000000000002e-25,49.08614564,49.47177334,-1.317732156,-0.533904272,10.22004763,10.41526935,-0.0039044329999999997,-0.841661873,-0.173836783,181.7218229,447.9764828,12.09069222,96058.68386,1.141336097,-0.411737986,0.647882937,0.267754451,0.006022641,-0.07559096,-0.00688038,-0.002427034,0.10439251199999999,-1.579138784,0.703236595,0.03619177,0.037597824,-0.709038038,0.07306874099999999,398688577.0,327344295.4,448650.4849,10.18996799,-0.069983997,-10.17993499,1.529727946,4.704712293,0,0,0.0,787999,39.8714138,32.7364368,-284.16442939999996,-172.7131421,-48.36153772,-0.052534865,-10.19254664,1.684529816,-0.051875562,-0.23039981199999998,0.8616984440000001,48.51039842,0.014521483,0.306061511,0.002697345,0.07300758,167495687,0,0,0,0,1
167534761,-0.0015850979999999998,0.6143526579999999,-0.039511233,0.073609486,1.0,1479.0,2000.0,1073.0,1499.0,1500.0,1802.0,10.18881719,10.41225878,12.09111474,9.941934385,9.970006323,10.18881299,10.12068529,10.34279711,60.13596477,60.13596477,12.08793567,-0.000504973,-0.006094055,2.95e-05,-0.24263284300000001,0.21268152899999998,-0.039333174,2.0,8.643928786,9.643928786,11,0,0,1,0,0.0,0,0,0,0,0,-0.002100887,0.103371417,-1.5792132140000001,-1.574509729,0.138538887,338.9511182,29.34397996,-0.008568009,0.4,-0.01904902,0.0,-0.10304730699999999,0.20904178,-8.860965424,-1.3900000000000002e-25,960.5893481,12.0908356,0.00441324,-0.09866843199999999,-0.006178978000000001,-0.178331878,0.277898045,-8.982147977,0.005452311,-0.09049712800000001,-0.0036780090000000003,-1.3900000000000002e-25,49.029008399999995,49.451544,-1.301435015,-0.6109203670000001,10.22002947,10.37167935,-0.003032997,-0.842831985,-0.173875494,181.7133991,447.8103257,12.09111474,96060.63354,1.14135923,0.302043155,-0.21414125899999997,0.12851623199999998,0.004021693,-0.076489605,-0.007882799000000001,-0.002194551,0.102700612,-1.5791996080000001,0.703240931,0.035674738,0.036919473,-0.7090954420000001,0.067162189,398688576.8,327344249.9,448589.828,10.19940188,-0.073760751,-10.18940107,1.575129026,4.704446905,0,0,0.0,787999,39.8714138,32.7364368,-284.1679756,-173.0954994,-48.29768091,-0.055833697,-10.20273756,1.718083874,-0.07853956599999999,-0.25799389,0.856276796,48.44654094,0.014605746000000001,0.308032843,0.002897989,0.067291975,167534761,0,0,0,0,1
167569836,0.00043796300000000003,0.611312779,-0.039443405,0.059220314,1.0,1479.0,2000.0,1067.0,1500.0,1499.0,1803.0,10.05321692,10.27359839,12.09155739,9.96413008,9.99226684,10.21152746,10.13918495,10.36166803,60.39697972,60.39697972,12.08840225,-0.000504579,-0.006093505,2.9999999999999997e-05,-0.242633281,0.212704237,-0.039395303,2.0,8.646529306,9.646529306,11,0,0,1,0,0.0,0,0,0,0,0,-0.001830691,0.10406107199999999,-1.579254846,-1.5745108159999999,0.139922342,338.55474039999996,29.37895026,-0.008557781,0.4,-0.01902833,0.0,-0.08408065,0.275818626,-8.91989432,-1.3900000000000002e-25,960.5992471000001,12.09124793,0.003006975,-0.09292164,-0.009940530999999999,-0.154042232,0.193597701,-8.973851845,0.002259031,-0.091563819,-0.005423029,-1.3900000000000002e-25,48.97187117,49.43131466,-1.285137873,-0.687936462,10.220011300000001,10.32808934,-0.002161561,-0.8440020970000001,-0.17391420600000002,181.7049754,447.77200650000003,12.09155739,96061.05692,1.141364283,-0.029856804,-0.507175722,-0.033811192000000004,0.003383357,-0.073990359,-0.007494011,-0.001922224,0.103406684,-1.579232468,0.703211393,0.036021442,0.037070545,-0.7090985040000001,0.068464282,398688576.6,327344204.4,448529.1438,10.20888378,-0.077553509,-10.19888315,1.620642128,4.704182076,0,0,0.0,787999,39.8714138,32.7364368,-284.1723985,-173.5085379,-48.22598553,-0.060309293,-10.21635538,1.752523659,-0.08677711099999999,-0.31635848699999997,0.835247693,48.37484595,0.014338498,0.306868442,0.0028689109999999996,0.058794037,167569836,0,0,0,0,1
167604910,-0.0017065910000000001,0.619324567,-0.038301919,0.07300758,1.0,1480.0,2000.0,1073.0,1499.0,1500.0,1805.0,10.11878552,10.34060929,12.09200525,9.986325775,10.01452736,10.23424193,10.15768461,10.38053894,60.65799468,60.65799468,12.08886882,-0.000504185,-0.006092956,3.05e-05,-0.242633719,0.21272694399999997,-0.039457432,2.0,8.649129826,9.649129826,11,0,0,1,0,0.0,0,0,0,0,0,-0.001560494,0.104750726,-1.5792964790000001,-1.574511904,0.14130579699999998,338.15836260000003,29.41392055,-0.008548028000000001,0.4,-0.018998374,0.0,-0.065113993,0.34259547100000004,-8.978823216,-1.3900000000000002e-25,960.6091461000001,12.09166026,0.009773926,-0.09315351,-0.004838065,-0.141518903,0.23061731600000002,-8.967641918,-0.000934249,-0.092630509,-0.007168049,-1.3900000000000002e-25,48.91501437,49.40924241,-1.2700309029999999,-0.762637178,10.21999526,10.28601969,-0.00132049,-0.842084776,-0.17395227600000002,181.6948632,447.6772705,12.09200525,96062.12284,1.1413769790000001,0.132472827,0.21778853899999998,0.42362330000000004,0.006552257,-0.067940957,-0.005508267,-0.001622573,0.10488505599999999,-1.579278386,0.7031635159999999,0.036651875,0.037483232000000005,-0.70909278,0.072088185,398688576.4,327344158.8,448468.4597,10.21836567,-0.081346267,-10.20836524,1.6661552309999998,4.703917247,0,0,0.0,787999,39.8714138,32.7364368,-284.1768214,-173.9215765,-48.15429015,-0.064784889,-10.229973199999998,1.786963444,-0.09501465699999999,-0.374723084,0.8142185890000001,48.30315096,0.014579418,0.314368795,0.0031793000000000004,0.063257396,167604910,0,0,0,0,1
167647984,-0.00245862,0.62039001,-0.038097703,0.067291975,1.0,1480.0,2000.0,1073.0,1499.8971789999998,1499.1028210000002,1806.8971789999998,10.01821797,10.23766911,12.09247293,10.00852147,10.03678787,10.2569564,10.17618428,10.39940985,60.91900963,60.91900963,12.08933539,-0.000503791,-0.006092406,3.09e-05,-0.24263415800000002,0.21274965199999998,-0.039519561,2.0,8.651730346,9.651730346,11,0,0,1,0,0.0,0,0,0,0,0,-0.001290298,0.10544038,-1.5793381119999998,-1.5745129919999998,0.142689252,337.76198480000005,29.44889085,-0.00853744,0.4,-0.01895973,0.0,-0.094298051,0.31753091,-9.014991624,-1.3900000000000002e-25,960.6141907,12.0920953,0.004505717,-0.085804894,-0.005361223000000001,-0.137875066,0.201105495,-9.017115947999999,-0.000145162,-0.089007124,-0.002494043,-1.3900000000000002e-25,48.86002797,49.37487914,-1.262861611,-0.821895817,10.21999346,10.25408975,-0.000681928,-0.8195762590000001,-0.17398607,181.6734899,447.5699063999999,12.09247293,96063.37612,1.1413918,-0.197910385,-0.099027406,-0.345535462,0.00473491,-0.056870805999999996,-0.007681744,-0.001387744,0.101451786,-1.57933709,0.703199833,0.035518097,0.036191895,-0.709181574,0.060557928,398688576.2,327344113.3,448407.7756,10.22784757,-0.085139025,-10.21784733,1.711668334,4.703652417,0,0,0.0,787999,39.8714138,32.7364368,-284.1810603,-174.3192763,-48.08378389,-0.068592653,-10.24479527,1.819097608,-0.10044215699999999,-0.42690469799999997,0.782547613,48.23264489,0.014638276,0.31830448,0.003040287,0.06380436,167647984,0,0,0,0,1
167683058,-0.001012257,0.612441907,-0.037421016,0.051764235,1.0,1480.0,2000.0,1059.0,1499.0,1500.0,1805.0,10.19953129,10.42305621,12.0929281,10.03071717,10.05904839,10.27967086,10.19468394,10.41828077,61.18002458,61.18002458,12.08980197,-0.0005033969999999999,-0.006091856,3.14e-05,-0.242634596,0.212772359,-0.039581688999999996,2.0,8.654330866,9.654330866,11,0,0,1,0,0.0,0,0,0,0,0,-0.001020102,0.106130035,-1.579379745,-1.57451408,0.144072707,337.365607,29.48386115,-0.008529552,0.4,-0.018928439,0.0,-0.125267385,0.289061159,-9.050316144,-1.3900000000000002e-25,960.6190552000002,12.09253118,0.008028945,-0.09103180300000001,-0.006944159,-0.21391879600000002,0.22017815699999999,-9.040186439,0.0007915789999999999,-0.08520984599999999,0.002417961,-1.3900000000000002e-25,48.80504156,49.34051587,-1.255692319,-0.881154455,10.21999165,10.22215982,-4.34e-05,-0.7970677420000001,-0.174019864,181.6521167,447.6014824,12.0929281,96063.02597,1.141387665,-0.035061436,0.132952806,0.248285124,0.004429253,-0.053391916,-0.0030032540000000003,-0.001148387,0.106130238,-1.579354324,0.703105003,0.037261525,0.037751438,-0.709104882,0.073484298,398688576.1,327344067.8,448347.0914,10.23732947,-0.08893178300000001,-10.22732941,1.757181436,4.703387588,0,0,0.0,787999,39.8714138,32.7364368,-284.1851123,-174.70139719999997,-48.01448537,-0.071722128,-10.26084046,1.848890053,-0.10301561099999999,-0.47280651799999995,0.74006814,48.16334637,0.014410853999999999,0.31549230899999997,0.002862108,0.052816454000000006,167683058,0,0,0,0,1
167718132,0.0009296710000000001,0.619359735,-0.037018345,0.063257396,1.0,1480.0,2000.0,1073.0,1500.0,1499.0,1809.2008399999997,10.21035299,10.43403671,12.09341906,10.05291286,10.08130891,10.30238533,10.213183599999999,10.43715168,61.44103954,61.44103954,12.09026854,-0.000503003,-0.0060913059999999995,3.19e-05,-0.24263503399999997,0.212795067,-0.039643818,2.0,8.656931386,9.656931386,11,0,0,1,0,0.0,0,0,0,0,0,-0.000749906,0.10681968900000001,-1.5794213769999998,-1.574515168,0.145456163,336.9692292,29.51883145,-0.008518546,0.4,-0.018896753,0.0,-0.14955581199999998,0.26363153100000003,-9.07937664,-1.3900000000000002e-25,960.624343,12.09301992,0.003017185,-0.08242432,-0.0075602280000000004,-0.18190441,0.19063914199999998,-9.014887244,0.001765361,-0.081278212,0.0030879320000000003,-1.3900000000000002e-25,48.75005516,49.306152600000004,-1.248523027,-0.940413093,10.21998984,10.19022988,0.000595196,-0.774559225,-0.174053658,181.6307434,447.41678089999994,12.09341906,96065.11422999999,1.141412471,-0.001526561,-0.086746142,-0.1075964,0.008623067,-0.052339496,-0.006947138,-0.0009237910000000001,0.10446270699999999,-1.5794115640000002,0.703111115,0.036750269,0.037084547999999995,-0.709160592,0.066835569,398688575.7,327344020.7,448278.3699,10.25226045,-0.094086814,-10.24362272,1.7917963590000001,4.702885042,0,0,0.0,787999,39.8714138,32.7364368,-284.1891644,-175.0835181,-47.94518684,-0.074851604,-10.27688564,1.8786824969999998,-0.105589066,-0.518708339,0.6975886659999999,48.09404784,0.014408205,0.326709924,0.002720425,0.06481302,167718132,0,0,0,0,1
167753207,-0.002712291,0.621036853,-0.036564057999999997,0.06214540599999999,1.0,1480.0,2000.0,1067.0,1500.352671,1498.647329,1809.352671,10.15053457,10.3728884,12.09388113,10.07510855,10.10356943,10.3250998,10.23168326,10.456022599999999,61.70205449,61.70205449,12.09073512,-0.000502609,-0.006090757,3.24e-05,-0.242635472,0.212817774,-0.039705947000000005,2.0,8.659531906,9.659531906,11,0,0,1,0,0.0,0,0,0,0,0,-0.0005248830000000001,0.107105873,-1.579463186,-1.574516344,0.14695087199999998,336.567456,29.56891115,-0.008509049,0.4,-0.018856496,0.0,-0.16266621,0.243288423,-9.097956606,-1.3900000000000002e-25,960.6303388,12.09359711,0.0045905,-0.083107038,-0.004870632,-0.157664185,0.224948215,-9.121953182999999,0.0028011190000000004,-0.077121785,-0.003339569,-1.3900000000000002e-25,48.69506875,49.27178933,-1.241353735,-0.999671731,10.21998804,10.15829995,0.001233758,-0.752050708,-0.174087452,181.60937019999997,447.423128,12.09388113,96065.06913999999,1.141411962,-0.177850575,0.557152368,0.279515634,0.003931253,-0.041018741000000004,-0.0043748120000000005,-0.0006975639999999999,0.10569859599999999,-1.579439581,0.7030739490000001,0.037268534,0.037438251,-0.709151124,0.06901123099999999,398688575.3,327343972.9,448206.4971,10.26932787,-0.09977595199999999,-10.26258652,1.8221384280000001,4.702289295,0,0,0.0,787999,39.8714138,32.7364368,-284.1941872,-175.49618600000002,-47.86761372,-0.078438015,-10.29509848,1.907821385,-0.103884365,-0.518915193,0.71492864,48.01647472,0.014711353,0.327765949,0.002443594,0.06041597,167753207,0,0,0,0,1
167792281,0.000690959,0.619989798,-0.036502077,0.05032444,1.0,1480.504501,2000.0,1053.459492,1500.0,1499.0,1806.981996,10.18893351,10.41212384,12.09437276,10.09730425,10.12582994,10.34781426,10.25018292,10.47489351,61.96306944,61.96306944,12.09120169,-0.000502216,-0.006090206999999999,3.289999999999999e-05,-0.24263591,0.212840482,-0.039768075,2.0,8.662132426,9.662132426,11,0,0,1,0,0.0,0,0,0,0,0,-0.000329584,0.10712657099999999,-1.57950511,-1.574517577,0.148518788,336.1621326,29.62893297,-0.008499042,0.4,-0.018818083,0.0,-0.17577660899999997,0.222945316,-9.116536572000001,-1.3900000000000002e-25,960.6363345000001,12.09417429,0.001547583,-0.071250534,-0.00801308,-0.107004827,0.21527461399999998,-9.156807459,0.0038368770000000003,-0.07296535700000001,-0.00976707,-1.3900000000000002e-25,48.64008235,49.23742606,-1.234184443,-1.058930369,10.21998623,10.12637001,0.00187232,-0.729542191,-0.174121246,181.5879969,447.4914284,12.09437276,96064.29212,1.141402678,0.19194417600000002,0.367542494,0.23920054,0.00663061,-0.039613996,-0.003253567,-0.00046007599999999996,0.107003993,-1.57948498,0.703029502,0.037815771,0.037812075,-0.7091470679999999,0.071318861,398688575.0,327343925.1,448134.6243,10.28639528,-0.105465091,-10.28155031,1.8524804959999999,4.701693547,0,0,0.0,787999,39.8714138,32.7364368,-284.19930930000004,-175.91197480000002,-47.78919518,-0.082071111,-10.31353279,1.9368935,-0.10174257,-0.514453439,0.738380305,47.93805618,0.014635781,0.328803533,0.002226506,0.057265384,167792281,0,0,0,0,1
167827355,0.000443847,0.628965142,-0.037029833,0.06557263299999999,1.0,1481.0,2000.0,1063.0,1499.0,1500.0,1809.0,10.14675691,10.36899829,12.09486508,10.11949994,10.14809046,10.37052873,10.26868258,10.49376442,62.22408439,62.22408439,12.09166827,-0.000501822,-0.006089656999999999,3.34e-05,-0.24263634899999997,0.21286318899999998,-0.039830204,2.0,8.664732947000001,9.664732947000001,11,0,0,1,0,0.0,0,0,0,0,0,-0.000134285,0.107147269,-1.579547034,-1.574518811,0.15008670300000002,335.75680919999996,29.6889548,-0.008489265,0.4,-0.018782161000000002,0.0,-0.205486327,0.21393357699999999,-9.170879209,-1.3900000000000002e-25,960.6471849999999,12.09466855,0.001882341,-0.065497325,0.001571989,-0.19582638,0.280030355,-9.163897001,0.004613367,-0.063252549,-0.008582598,-1.3900000000000002e-25,48.58007171,49.18943715,-1.232609365,-1.107710395,10.21992466,10.11082253,0.0021820389999999998,-0.6946244359999999,-0.174157578,181.5580959,447.25731809999996,12.09486508,96066.94724,1.141434171,0.030101124,-0.071316851,0.24734509300000002,0.00254337,-0.036586972999999995,-0.00346583,-0.000333356,0.103734575,-1.579541291,0.703067524,0.036702022,0.036616842999999996,-0.709230606,0.059382212000000004,398688574.6,327343877.3,448062.7516,10.30346269,-0.11115423,-10.300514100000001,1.882822565,4.701097798999999,0,0,0.0,787999,39.8714138,32.7364368,-284.20428860000004,-176.3180927,-47.71189642,-0.08556076300000001,-10.33208718,1.963719333,-0.10579860099999999,-0.509292826,0.73278155,47.86075742,0.014752484,0.338028778,0.001972819,0.06770946,167827355,0,0,0,0,1
167866429,-0.000641626,0.62849093,-0.037577439,0.06041597,1.0,1481.0,2000.0,1058.959192,1501.0,1498.0,1810.0,10.36783065,10.5948533,12.09535667,10.14169564,10.17035098,10.393243199999999,10.28718225,10.51263534,62.48509935,62.48509935,12.09213484,-0.000501428,-0.006089107,3.39e-05,-0.242636787,0.212885897,-0.039892332999999995,2.0,8.667333467,9.667333467,11,0,0,1,0,0.0,0,0,0,0,0,6.1e-05,0.10716796599999999,-1.579588957,-1.574520044,0.151654619,335.3514858,29.74897662,-0.008476089000000001,0.4,-0.018749611,0.0,-0.23977100699999998,0.20804489199999998,-9.235078445,-1.3900000000000002e-25,960.6593734999999,12.09513995,0.005426686,-0.060201297,-0.005776924,-0.312572837,0.16061736599999998,-9.106294879,0.0053184,-0.05200834,-0.005300179,-1.3900000000000002e-25,48.51933555,49.13948064,-1.231842116,-1.154977264,10.21985446,10.09764075,0.002444271,-0.6579147320000001,-0.17419427699999998,181.5269635,447.2734844,12.09535667,96066.77006,1.1414321790000002,-0.351428546,0.184629758,0.115064641,0.009965682,-0.032731303999999996,-0.004134963,-0.00010622700000000001,0.10361298599999999,-1.5795748619999999,0.703053184,0.036739325,0.036492923999999996,-0.709248358,0.056989845,398688574.2,327343829.5,447990.8788,10.32053011,-0.116843368,-10.3194779,1.913164633,4.700502052,0,0,0.0,787999,39.8714138,32.7364368,-284.2089626,-176.70351630000002,-47.63699379,-0.08874346699999999,-10.35089849,1.985738489,-0.123116975,-0.502636767,0.665019619,47.78585479,0.014785681,0.334683,0.001716708,0.058916735,167866429,0,0,0,0,1
167909504,2.14e-05,0.632685397,-0.03720501,0.06691477,1.0,1481.0,2000.0,1050.0,1499.0,1500.0,1809.0,10.27164243,10.49656105,12.09587918,10.16389133,10.1926115,10.41595766,10.30568191,10.53150625,62.746114299999995,62.746114299999995,12.09260141,-0.000501034,-0.006088557,3.4399999999999996e-05,-0.242637225,0.21290860399999997,-0.039954461000000004,2.0,8.669933987,9.669933987,11,0,0,1,0,0.0,0,0,0,0,0,0.000256312,0.107188664,-1.579630881,-1.5745212780000002,0.153222535,334.9461624,29.80899844,-0.008465872,0.4,-0.018720716000000002,0.0,-0.266919491,0.204630322,-9.291158312,-1.3900000000000002e-25,960.6716240000001,12.09561591,-0.00022873,-0.056746995999999994,-0.003981634,-0.161896829,0.221944472,-9.11755604,0.006309596,-0.043083483,-0.003053785,-1.3900000000000002e-25,48.45859939,49.08952413,-1.231074867,-1.2022441320000001,10.21978426,10.08445896,0.002706503,-0.621205029,-0.174230976,181.495831,447.12525889999995,12.09587918,96068.49507,1.14145274,0.034021257,-0.071356084,0.534495176,0.0020153289999999997,-0.025552939,-0.010764645,0.000185991,0.10628237300000001,-1.579611994,0.7029858259999999,0.037789366,0.03732694,-0.709217557,0.062971583,398688573.8,327343782.0,447916.4735,10.3384416,-0.12,-10.33759752,1.941818364,4.7001715,0,0,0.0,787999,39.8714138,32.7364368,-284.2136365,-177.08893989999999,-47.56209115,-0.091926171,-10.36970981,2.0077576440000002,-0.14043534900000001,-0.495980708,0.597257689,47.71095215,0.014680018999999999,0.328320589,0.0014321660000000001,0.045193925,167909504,0,0,0,0,1
167944578,0.000512369,0.6332220829999999,-0.037142964,0.06692683,1.0,1481.0,2000.0,1065.0,1499.0,1500.0,1814.0,10.25227042,10.476626,12.09639201,10.18608703,10.21487201,10.43867213,10.32418157,10.55037716,63.00712925,63.00712925,12.09306799,-0.00050064,-0.006088008000000001,3.4899999999999995e-05,-0.242637663,0.21293131199999998,-0.04001659,2.0,8.672534507,9.672534507,11,0,0,1,0,0.0,0,0,0,0,0,0.000451611,0.10720936199999999,-1.579672805,-1.574522512,0.154790451,334.540839,29.86902027,-0.00845615,0.4,-0.018687268,0.0,-0.26437834600000004,0.211509134,-9.313458132000001,-1.3900000000000002e-25,960.6841329,12.09611086,0.005327094,-0.054035947,-0.003462092,-0.15926063599999998,0.24707915,-9.325252503,0.008491351999999999,-0.043808127999999995,-0.005117701,-1.3900000000000002e-25,48.39786323,49.03956762,-1.230307617,-1.249511001,10.21971407,10.07127718,0.002968734,-0.584495326,-0.174267675,181.4646986,447.1153772,12.09639201,96068.5924,1.141453855,-0.27803319600000004,0.105796554,0.22924279600000003,0.000962034,-0.024772205,-0.005406816,0.000259002,0.103607985,-1.5796669230000002,0.70301441,0.036867646000000004,0.036359965,-0.709287911,0.052225778,398688573.5,327343734.8,447838.9116,10.35740521,-0.12,-10.35466493,1.968367674,4.7001715,0,0,0.0,787999,39.8714138,32.7364368,-284.21924060000003,-177.500159,-47.481287,-0.094865586,-10.39031429,2.028451765,-0.11560063599999999,-0.49187002799999996,0.536296609,47.630148,0.014661243999999999,0.33970406,0.0013465839999999998,0.059729078,167944578,0,0,0,0,1
