timestamp,control[0],control[1],control[2],control[3],control[4],output[2],output[3],output[4],output[5],output[6],output[7],indicated_airspeed_m_s,true_airspeed_m_s,indicated_airspeed_m_s.1,equivalent_airspeed_m_s,true_airspeed_m_s.1,equivalent_ground_minus_wind_m_s,true_ground_minus_wind_m_s,differential_pressure_raw_pa,differential_pressure_filtered_pa,temperature,gyro_bias[0],gyro_bias[1],gyro_bias[2],accel_bias[0],accel_bias[1],accel_bias[2],instance_count,seq_reached,seq_current,seq_total,item_changed_index,item_do_jump_remaining,valid,warning,finished,failure,stay_in_failsafe,flight_termination,item_do_jump_changed,execution_mode,nav_roll,nav_pitch,nav_bearing,target_bearing,xtrack_error,wp_dist,acceptance_radius,rollspeed_integ,pitchspeed_integ,yawspeed_integ,additional_integ1,x,y,z,temperature.1,pressure,temperature.2,gyro_rad[0],gyro_rad[1],gyro_rad[2],accelerometer_m_s2[0],accelerometer_m_s2[1],accelerometer_m_s2[2],x.1,y.1,z.1,temperature.3,altitude_sp,altitude_filtered,height_rate_setpoint,height_rate,airspeed_sp,airspeed_filtered,airspeed_derivative_sp,airspeed_derivative,throttle_integ,pitch_integ,baro_alt_meter,baro_temp_celcius,baro_pressure_pa,rho,xyz[0],xyz[1],xyz[2],xyz[0].1,xyz[1].1,xyz[2].1,roll_body,pitch_body,yaw_body,q_d[0],q_d[1],q_d[2],q_d[3],thrust_body[0],lat,lon,alt,vel_m_s,vel_n_m_s,vel_e_m_s,vel_d_m_s,cog_rad,ground_contact,maybe_landed,landed,ref_lat,ref_lon,x.2,y.2,z.2,vx,vy,vz,ax,ay,az,yaw,dist_bottom,roll,pitch,yaw.1,thrust_body[0].1,timestamp.1,isTakeoff,isClimbing,isDescending,isCruise,isLand
213579537.0,-0.009462499,0.178251615,-0.26277064,0.17429182,1.0,1367.0,2000.0,1173.905581,1504.905581,1494.094419,1588.0,13.33246355,13.6249677,13.31877077,13.41551984,13.71001883,14.60100501,14.92152871,108.6511675,108.6511675,12.08771264,-0.0003985730000000001,-0.006031046,0.000239911,-0.244819213,0.213009379,-0.014972786,2.0,8.565913183,9.565913183,11.0,0.0,0.0,1.0,0.0,0.0,0.0,0.0,0.0,0.0,0.0,-0.05715809400000001,0.097659892,1.220080117,1.2829451,2.530254487,349.6688568,39.06336669,-0.002593981,0.08505714699999999,-0.2,0.0,0.145382294,0.765937733,-9.914843,-6.64e-34,960.5398759,12.08818728,-0.003921691,0.011178979,0.002686948,0.06226536200000001,0.731094968,-9.961302472,0.006500796999999999,0.002575206,0.004429204,-6.64e-34,50.04639,48.94757583,0.054940758,-0.4667052370000001,10.23004343,13.77683829,-0.070935896,-0.022883924,-0.363673598,73.71964208,448.3971,12.08826244,96053.86793,1.141278909,0.115990986,-0.087161475,0.353312074,-0.001218885,0.020414834,0.008892895,-0.062067428,0.118255965,1.21701954,0.8176134209999999,-0.059175365,0.030763264,0.571877022,0.025013603,398717133.4,327282665.5,448853.4059,13.6790149,4.018031606,13.059999,0.316063213,1.271784304,0.0,0.0,0.0,39.87141370000001,32.7364371,33.88792703,-695.6774538999998,-48.70792491,4.035174255,13.09484174,0.356022985,-0.073410113,-0.009108568,-0.110558191,1.311985489,48.94868524,-0.016477475,0.136485097,-0.027329507000000003,0.0,213579537.0,0.0,0.0,0.0,0.0,1.0
213661983.0,-0.009199506917835672,0.17898398859519038,-0.2628488263286573,0.1746008125250501,1.0,1368.0,2000.0,1174.0,1504.4289916673347,1494.5710083326653,1588.9319976793588,13.346178175871744,13.639046592004007,13.318822250621242,13.415032453486974,13.709495870480962,14.586236243026052,14.906408831102205,108.65200718637274,108.65200718637274,12.08787791246493,-0.0003987747054108217,-0.006030114751503006,0.0002409397875751503,-0.24476234296593186,0.21291318583567134,-0.014683408188376754,2.0,8.570791112298597,9.570791112298597,11.0,0.0,0.0,1.0,0.0,0.0,0.0,0.0,0.0,0.0,0.0,-0.05779190480561122,0.07139857563927857,1.219385969771543,1.2829293446873749,2.549573262519038,348.584208645491,38.947777977915834,-0.002636788651302605,0.08584655473947896,-0.2,0.0,0.17950745212625252,0.7527608248597194,-9.934531798056112,-6.64e-34,960.5322675657314,12.08831659763527,-0.001705232583166334,0.007594859048096193,0.007598001917835671,0.11610963854909821,0.7772824774068137,-9.901455356208416,0.009589154492985972,0.0065724670080160325,0.005083204114228457,-6.64e-34,50.04639,48.91528912701403,0.056555078891783565,-0.45377559934468936,10.230246358216432,13.77156237264529,-0.07082631913827656,-0.025398854016032063,-0.3641225945150301,74.14073298264529,448.24410389258514,12.088394953026052,96055.60388691383,1.1412994736513027,0.3199898135250502,-0.5482144913747495,-0.5378116172705412,-0.0017149805691382765,0.023045053883767534,0.005693255190380761,-0.06580005103006012,0.07589948337875752,1.2133333673066131,0.8197988886693386,-0.04862785395591182,0.012411076216432865,0.5704285504108216,0.0,398717164.06232464,327282796.2398797,448826.0282813627,13.674929109318638,4.009859198673347,13.059999,0.2997183964709419,1.2723547790561123,0.0,0.0,0.0,39.87141370000001,32.7364371,34.21390884923848,-694.6093423879761,-48.68486163482966,4.025847494268537,13.090099111222445,0.3436646084008016,-0.049690162018036076,-0.03476714988777555,-0.06723692369739478,1.3124424542144288,48.92562240482966,-0.025865200959919843,0.07121255058717435,-0.03071280274749499,0.0,213661982.86172345,0.0,0.0,0.0,0.0,1.0
213748428.0,-0.016997951843687378,0.17979798658116233,-0.26371280128256513,0.175089347254509,1.0,1368.0,2000.0,1174.0,1504.745490981964,1494.254509018036,1589.0,13.368548382925852,13.66184916735471,13.318873731242483,13.414545059458918,13.708972910961924,14.571467486052105,14.89128895971944,108.6528468727455,108.6528468727455,12.08804317492986,-0.00039897641082164325,-0.006029184254509018,0.0002419695751503006,-0.24470547293186373,0.2128169916713427,-0.014394031128256513,2.0,8.575669041597195,9.575669041597195,11.0,0.0,0.0,1.0,0.0,0.0,0.0,0.0,0.0,0.0,0.0,-0.058425715611222444,0.045137258278557114,1.218691822791583,1.2829135891262524,2.568892038038076,347.4995605158317,38.83218926334669,-0.0026719549639278558,0.08646675335671343,-0.2,0.0,0.17714425814829657,0.7233630354749498,-9.92231563107014,-6.64e-34,960.5583696440882,12.088491440060121,-0.0019540126332665327,0.006098313789579158,0.00013613014829659314,0.05613048977955912,0.7750847240761523,-9.967767047240482,0.00021636163727454822,0.008609079521042085,0.00885829875751503,-6.64e-34,50.04639,48.88356374402806,0.05814132953507014,-0.44094233868937877,10.230142058917837,13.764970182805612,-0.0706965585250501,-0.02760473303206413,-0.3645691032785571,74.56316575529058,448.1630358993988,12.088549207635271,96056.52420525049,1.1413104695190381,0.12843423239078167,-0.13579454176753514,-0.021930200468937677,-0.00281162051703407,0.017276347799599197,0.004755238254509017,-0.06295949070541082,0.03345993093386773,1.2152449316813627,0.8201765676112224,-0.0353881756012024,-0.004240944158316637,0.5709739074669339,0.0,398717194.649499,327282926.9797595,448798.6507378758,13.670843311122244,4.001686790346693,13.059999,0.28337358069338675,1.2729252533607214,0.0,0.0,0.0,39.87141370000001,32.7364371,34.55613782242485,-693.4863867581164,-48.661999593266536,4.016208143086173,13.085937334028056,0.33196149669939884,-0.15851634375751503,-0.013917371719438874,-0.08784715778156313,1.3127865914308616,48.90275976042084,-0.02111626567735471,-0.00807731717034069,-0.03528773097995992,0.0,213748427.97194389,0.0,0.0,0.0,0.0,1.0
213825856.0,-0.013959206917835672,0.1806019240280561,-0.265485882747495,0.1755772988777555,1.0,1368.0,2000.0,1174.627254509018,1507.254509018036,1491.745490981964,1589.1180731342688,13.278337864008016,13.569751884328658,13.318925208136273,13.414057674188376,13.708449951442885,14.556698725350701,14.876169089579157,108.65368652184368,108.65368652184368,12.088208441122244,-0.00039917811623246493,-0.0060282538817635276,0.0002429983627254509,-0.24464860289779558,0.21272079750701403,-0.01410465356513026,2.0,8.58054697089579,9.58054697089579,11.0,0.0,0.0,1.0,0.0,0.0,0.0,0.0,0.0,0.0,0.0,-0.059059526416833666,0.01887594091783567,1.2179976763146292,1.2828978330621243,2.5882108135571142,346.414912436473,38.7166005437475,-0.0026999618476953907,0.08689680248096192,-0.2,0.0,-0.34867945778557125,0.716746543767535,-9.965137518292586,-6.64e-34,960.5539565172345,12.088629976492985,0.005224673174348698,0.004938860529058116,0.007102298503006013,0.13242214054509016,0.7604757858757515,-9.93061287783968,-0.006509028240480963,-0.0018163945230460945,0.004297451535070139,-6.64e-34,50.04639,48.8520045798998,0.05971927864128257,-0.42738948835871743,10.230155072004008,13.76038807196393,-0.07060465585370743,-0.029549208018036073,-0.36502973955711426,75.00531885188377,448.3009038747495,12.088677687174348,96054.9539793988,1.141291781961924,-0.24966771577755512,0.13156816978957928,-0.09550066957915836,0.0018821752364729459,0.01695868769539078,0.006973361384769542,-0.05871821828456914,-0.009075343903807619,1.2184195797354709,0.8197969605811622,-0.021479791214428858,-0.0205150713747495,0.5718455095811623,0.0,398717224.3478958,327283053.56332666,448774.8402967936,13.66675718995992,3.990271573216433,13.063242134308616,0.27027157321643286,1.273835413002004,0.0,0.0,0.0,39.87141370000001,32.7364371,34.877569080761525,-692.4303863909821,-48.641477272304606,4.008806079797595,13.082655751923848,0.32147917084168337,-0.16345446011022044,0.03387434208416835,-0.09493435576953908,1.3131971280801602,48.8822380982966,-0.012704560521042086,-0.07521079409218437,-0.040315302581162324,0.0,213825855.92184368,0.0,0.0,0.0,0.0,1.0
213907308.0,-0.011742675206412827,0.1439753867214429,-0.26743397723647294,0.0,1.0,1367.1315309498998,2000.0,1175.0,1506.1480890901803,1492.8519109098197,1589.5030060120241,13.278348955871744,13.569713863527054,13.31897668751503,13.413570288917835,13.707926991923848,14.54192996210421,14.861049219438877,108.65452619579159,108.65452619579159,12.08837370985972,-0.0003993793246492986,-0.006027322509018036,0.0002440281503006012,-0.24459173286372746,0.21262460334268538,-0.013815276753507013,2.0,8.585424900194388,9.585424900194388,11.0,0.0,0.0,1.0,0.0,0.0,0.0,0.0,0.0,0.0,0.0,-0.05969333722244489,-0.007385375945891789,1.2173035290861722,1.282882077749499,2.6075295890761523,345.33026433166333,38.60101183166333,-0.002709139386773547,0.0873288220240481,-0.19999974095190381,0.0,-0.6853811865210421,0.6831122883126253,-9.823154426376753,-6.64e-34,960.5569753845692,12.088757304348698,-0.0007010819238476912,0.001239694509018037,0.0048983093727454925,0.14075548456112225,0.7386064461843689,-9.901352700521041,-0.008967209226452905,-0.03232162875751504,-0.013683010188376758,-6.64e-34,50.04639,48.82077121653307,0.06128095718837676,-0.41242616230861723,10.230398019338677,13.759745950981964,-0.07058695663527054,-0.0309813020240481,-0.3655180680761523,75.48612592917836,448.14066803146295,12.088808890080161,96056.81152346692,1.1413138166112224,-0.2629966267935868,0.08778397220841679,-0.028769630320641393,-0.0015864793306613223,0.018421792787575154,0.0035270407174348675,-0.0600906644028056,-0.05183164008016033,1.216390621450902,0.8204556142585171,-0.009841788324649298,-0.038408819420841685,0.5702920028677355,0.0,398717253.79719436,327283179.00080156,448751.9575290581,13.662670986613227,3.9780129612885773,13.067328744048096,0.25801296128857715,1.2748339176693386,0.0,0.0,0.0,39.87141370000001,32.7364371,35.21691984206413,-691.3141151016031,-48.62098440242485,3.9938227871062124,13.046520378076153,0.31236220881563126,-0.216275939250501,-0.6159627389539081,-0.09426092514228457,1.3134920311042084,48.86174540242485,-0.01404954869338677,-0.11749836149098197,-0.04339219833667335,0.0,213907307.91983968,0.0,0.0,0.0,0.0,1.0
213991766.0,-0.011743164076152307,0.10399931721442887,-0.26793804539478955,0.0,1.0,1365.62124248497,2000.0,1000.0,1504.521426002004,1494.478573997996,1574.250200745491,13.162116263947896,13.450929330060122,13.319028166893787,13.41308289743487,13.707404042404809,14.527161198917835,14.845929349298597,108.65536583186373,108.65536583186373,12.088538978537073,-0.00039958090581162327,-0.0060263921362725455,0.0002450569378757515,-0.2445348634509018,0.21252841017835672,-0.013525898941883769,2.0,8.590302830492986,9.590302830492986,11.0,0.0,0.0,1.0,0.0,0.0,0.0,0.0,0.0,0.0,0.0,-0.05956413578957916,-0.022425674044088174,1.2172203127074148,1.282882764521042,2.604694284503006,344.2316940288577,38.50624577691383,-0.002711340164328657,0.08778797820440881,-0.2,0.0,-0.7440200233286574,0.6060304145611223,-9.419633481777556,3.7778984103046076,960.5625655633266,12.088894186773548,-0.0031736821022044087,0.001025742488977962,0.005422911521042085,-0.1825812295290578,0.7071557348717435,-9.860965828555111,-0.01246910231062124,-0.08911145522645289,-0.03404939470741483,3.7778984103046076,50.04639,48.790045638216434,0.06281724610420841,-0.39766344707615237,10.230578878316633,13.758540769018035,-0.07055923701402805,-0.03258844411823647,-0.36600075841082164,75.96272341212425,448.1510416306614,12.08895328216433,96056.66423791583,1.1413120773066132,-0.3593362613126253,0.5169444320020042,-0.20655372471342678,0.00038063316432865573,0.01430361254509018,0.0038166394188376774,-0.05886422849098197,-0.09188997090781563,1.2170606571963927,0.8200292631362726,0.002127008102204406,-0.0544677428256513,0.5697007550821643,0.0,398717283.32224447,327283305.155511,448730.2069220441,13.640186893767535,3.9657543206953907,13.051602182164329,0.2457543493607215,1.2754124854488977,0.0,0.0,0.0,39.87141370000001,32.7364371,35.544435093967934,-690.2366857579158,-48.60058344366733,3.976898038320641,12.985155672124248,0.31626085120641284,-0.19223354446492988,-0.9133111810881764,0.1732347436653306,1.3126868515410821,48.84134394701403,-0.011119455895791589,-0.15565139518036072,-0.04625767774749499,0.0,213991765.92985973,0.0,0.0,0.0,0.0,1.0
214075230.0,-0.008817051114228452,0.07581337218236472,-0.27085133956913826,0.0,1.0,1365.254509018036,2000.0,1000.0,1505.2932905410821,1493.7067094589179,1558.4549098196392,13.157370521482965,13.446034706452906,13.319079646272545,13.412595508376754,13.70688108288577,14.512392438156313,14.830809479158317,108.65620551823648,108.65620551823648,12.088704244789579,-0.0003997824869739479,-0.006025460763527054,0.00024608647094188376,-0.24447799354108216,0.21243221601402806,-0.01323652213026052,2.0,8.595180759791583,9.595180759791583,11.0,0.0,0.0,1.0,0.0,0.0,0.0,0.0,0.0,0.0,0.0,-0.05839777574749499,-0.02221328519839679,1.2179675314488978,1.2829058006252505,2.5717450268036073,343.1141994146293,38.439783868296594,-0.002713281657314629,0.08825773248697395,-0.2,0.0,-0.759663593779559,0.5310670449218438,-8.793853743539078,10.325448587252502,960.5573607028056,12.089051074188378,-0.00857506894589179,-0.047145984484969955,-0.01408788936873748,-0.781328068266533,0.64862106650501,-9.797427013168337,-0.01800016582364729,-0.16620452948697395,-0.040912175442885765,10.325448587252502,50.04639,48.76364782390782,0.06413714093186373,-0.3846105142244489,10.23023063513026,13.752536686112224,-0.07044611731062124,-0.035687501050100205,-0.3664353946232465,76.40344301627255,448.11921655731464,12.089112756973947,96057.04690124247,1.1413165991382765,0.3317181520861722,-0.15867591753306576,-0.3182205570541078,0.0006429478016032029,0.01731864568537074,0.007305056188376754,-0.06033129685170341,-0.08112214422645289,1.2153522602244489,0.8206179910641282,-0.0015966616593186412,-0.05047849324849699,0.5692266677735471,0.0,398717313.1466934,327283432.6066132,448710.5932264529,13.582979830521042,3.953495627234469,12.998481528597194,0.23349573743286572,1.2751984903386773,0.0,0.0,0.0,39.87141370000001,32.7364371,35.87015128657315,-689.1656676106213,-48.57813841230461,3.961165248168337,12.913752321703408,0.35326644882965935,-0.12131628519238474,-0.8712065819218436,0.7196171098156314,1.3107827068897797,48.8188994108016,-0.011600321815631266,-0.10443898987575147,-0.0442956434749499,0.0,214075229.95190382,0.0,0.0,0.0,0.0,1.0
214160136.0,-0.0065352444729458985,0.05629254171543084,-0.2804555607034068,0.0,1.0,1365.2184368737476,2000.0,1000.0,1503.624877226453,1495.375122773547,1541.04718653507,13.03763185238477,13.32361399218437,13.314871413406815,13.40777550529058,13.701924451102204,14.49826613777555,14.816339573807616,108.60252661643287,108.60252661643287,12.08895350975952,-0.0003999839378757515,-0.006024530390781563,0.00024711551302605215,-0.2444211236312625,0.2123360218496994,-0.012947144318637274,2.0,8.600058689090181,9.600058689090181,11.0,0.0,0.0,1.0,0.0,0.0,0.0,0.0,0.0,0.0,0.0,-0.05723141470541082,-0.022000896731462924,1.2187147501903808,1.2829288368597194,2.5387957691042082,341.9967048004008,38.37332195967936,-0.0027123699779559116,0.08870128598196393,-0.2,0.0,-0.7767366557194388,0.6071985617735471,-8.023070705102205,0.8265891368056097,960.5782859362726,12.089233008016032,-0.020690846016032053,-0.12029828733066138,-0.028180194130260534,-0.7227129223026053,0.6245533496352704,-9.270358229667334,-0.006851434080160321,-0.22646048566132268,-0.029257025755511017,0.8265891368056097,50.04639,48.73839929955912,0.06539956971743487,-0.3720116327254509,10.229741889318637,13.745258198797595,-0.07031031852905811,-0.03918275289178357,-0.36685726989378753,76.8346348356513,448.12357843727455,12.089336270921844,96057.00912863726,1.141316118993988,-0.060140884026052936,-0.22539534516031992,-0.04507122411623245,-0.005373092549098197,0.0143697428016032,0.003750539232464932,-0.05765941766533067,-0.058467789917835654,1.2176090354929858,0.8201190488196393,-0.006926257951903815,-0.04044411404809619,0.5707139973386773,0.0,398717342.99719435,327283560.18376756,448690.4967114228,13.525579702945892,3.9414300223306613,12.944781622124248,0.2272227514569139,1.2749474298156314,0.0,0.0,0.0,39.87141370000001,32.7364371,36.20526811701403,-688.0648595519039,-48.550736601382766,3.94819874908016,12.848414047795591,0.4394750274108218,-0.08019467590781562,-0.8152083617214427,1.4208026124348705,1.3084232677675351,48.79149910813627,-0.007084606921843698,-0.019926552444889722,-0.04063086513226453,0.0,214160135.98997995,0.0,0.0,0.0,0.0,1.0
214245876.0,-0.004097635981963932,0.031204716256513016,-0.2810745706873748,0.0,1.0,1359.0,2000.0,1000.0,1503.0120240480962,1495.9879759519038,1527.0734270701403,13.107665100440881,13.395175516913827,13.29326930246493,13.385263917535069,13.678863586973948,14.486763241743487,14.804523718637276,108.32622963246493,108.32622963246493,12.089545778236474,-0.00040018564328657316,-0.006023600012024049,0.00024814529458917837,-0.24436425372144288,0.21223982769138275,-0.012657767507014027,2.0,8.604936618388777,9.604936618388777,11.0,0.0,0.0,1.0,0.0,0.0,0.0,0.0,0.0,0.0,0.0,-0.056065054663326654,-0.02178850826452906,1.2194619689318638,1.2829518738336674,2.5058465114048096,340.8792101861723,38.306860051062124,-0.002720437643286573,0.08940086934468938,-0.2,0.0,-0.7533895400841684,0.6384786260420842,-7.521000870585169,-6.64e-34,960.5796132258517,12.089481945511022,-0.01650106134068136,-0.18300826035871745,-0.03561749093386774,-0.7617431432224449,0.5642069953947896,-8.578155130466934,-0.008434669535070142,-0.25851292429058115,-0.022832689537074142,-6.64e-34,50.04639,48.71449562106213,0.06659475494388777,-0.35967434232064127,10.22944443274549,13.741151272104208,-0.07023412639078157,-0.04267364653106213,-0.36727488064729463,77.267483222004,448.0631317174349,12.08965812228457,96057.65836002004,1.1413239010380762,0.034868794436873886,-0.5419036045030056,-0.5866083094889784,-0.0033824356412825727,-0.005952922843687399,0.0022450357535069997,-0.05259565942284569,-0.03726356757915831,1.222330623298597,0.8188345807915832,-0.01084382300400802,-0.03033828315831663,0.573123029733467,0.0,398717373.1967936,327283688.31122243,448662.1810931864,13.464892248517035,3.9326521423807614,12.881218741022044,0.32286721061523055,1.2740652369258516,0.0,0.0,0.0,39.87141370000001,32.7364371,36.518879490300606,-687.0372037503006,-48.51635685807616,3.939341968963928,12.799621023166333,0.5746836883807617,-0.06542318183166329,-0.5965662131082163,2.132401567190381,1.3065612428557114,48.7571168806012,-0.00013009320641283104,0.04690626971142287,-0.036629903947895795,0.0,214245875.9278557,0.0,0.0,0.0,0.0,1.0
214322495.0,-0.0033774610400801605,0.030583457771543084,-0.2807389187114228,0.0,1.0,1359.0,2000.0,1000.0,1501.4729458917836,1497.5270541082164,1514.7873759278557,13.102441586372747,13.389879666653307,13.271667191523047,13.362752339659318,13.65580272284569,14.475260336893788,14.792707853466933,108.04993256152305,108.04993256152305,12.090138036833668,-0.00040037488577154313,-0.006022658064128257,0.00024916086172344695,-0.24430830160921843,0.21214466353907815,-0.012370453022044087,2.0,8.609814547687373,9.609814547687373,11.0,0.0,0.0,1.0,0.0,0.0,0.0,0.0,0.0,0.0,0.0,-0.054898693621242486,-0.02157611967935872,1.2202091876733467,1.2829749099378758,2.4728972537054106,339.76171556012025,38.24039814244489,-0.002720344240480962,0.09015861619839678,-0.2,0.0,-0.7930877398597194,0.5852595032204408,-6.984611504573147,-6.64e-34,960.576269950501,12.089854253967937,-0.012343103264529058,-0.23303762178557114,-0.03628094733466934,-0.7883465567054109,0.49708234232865733,-8.032658726298598,-0.0049318791382765535,-0.2549865116733467,-0.0038399288957915827,-6.64e-34,50.04639,48.69225035244489,0.06770701831863728,-0.3476596334789579,10.229382880521042,13.7409553597996,-0.07023143943286574,-0.04615916422244489,-0.3676872346032064,77.7023744072545,448.0138783531062,12.090096303126252,96058.26050655311,1.1413310358997997,-0.05495679945490986,-0.5285765839018035,-0.40893138649098204,-0.015602562086172346,-0.06993588930460923,-0.03060263760921844,-0.06107831141482966,-0.02284093412024048,1.2139788561643285,0.8211297759178355,-0.01856697526052104,-0.026790379543086173,0.569807700018036,0.0,398717403.3963928,327283816.7008016,448632.3517673347,13.4035993946493,3.92447973406012,12.815839468717435,0.4372809234488978,1.2730668137915833,0.0,0.0,0.0,39.87141370000001,32.7364371,36.85754878136273,-685.9287124733466,-48.461595501763526,3.9318182348877753,12.764111460681363,0.7848555721002004,-0.010062469735470942,-0.39938213389378757,2.7015846073667333,1.3058664388797596,48.70235633855711,-0.010044579378757515,0.07933577199599198,-0.03637703533066132,0.0,214322494.76553106,0.0,0.0,0.0,0.0,1.0
214403758.0,-0.0071626433987975946,0.07413576462324648,-0.28089759698396793,0.0,1.0,1358.7575150300602,2000.0,1000.0,1500.9101797014027,1498.0898202985973,1510.3886216753506,13.037171343907815,13.323050096613226,13.250065080581162,13.340240759418839,13.632741858717434,14.463757439679359,14.780891998296593,107.77363559058116,107.77363559058116,12.090730297795591,-0.00040033151703406815,-0.006021504825651303,0.0002499164609218437,-0.24427009644288575,0.21206939775951905,-0.012123026837675351,2.0,8.614692477985972,9.614692477985972,11.0,0.0,0.0,1.0,0.0,0.0,0.0,0.0,0.0,0.0,0.0,-0.05373233333667335,-0.021363730330661322,1.2209564064148297,1.2829979467995993,2.439947996006012,338.6442209334669,38.173936243827654,-0.0027204266753507013,0.09074680006212425,-0.2,0.0,-0.7659956122725451,0.5574784815551103,-6.877204745376754,-6.64e-34,960.5888335811624,12.090422008677356,-0.009114622739478963,-0.2639874689839679,-0.02040051612625251,-0.7682176380400801,0.5503834231583166,-7.448368308729458,-0.004737229050100199,-0.19740029892384772,0.010564784070140276,-6.64e-34,50.041947068296594,48.67004160877756,0.012309633851703472,-0.335782199244489,10.229341826713426,13.739354242024048,-0.0702002381002004,-0.052767526262525045,-0.36218627448897794,78.14275010737475,447.83943631743483,12.090658125130261,96060.27698408818,1.1413550405751502,-0.3681504353466933,-0.9297582464549101,-0.1811684321142279,-0.012659391661322647,-0.1389517336793587,-0.037022989,-0.05815237342284568,-0.017714651877755512,1.216360054975952,0.8204554851362725,-0.018799471134268535,-0.0238747770741483,0.5708994011002003,0.0,398717432.9142285,327283942.3657315,448586.82946292585,13.358922392244489,3.9163073446412824,12.76892239224449,0.6070817263967935,1.272648404278557,0.0,0.0,0.0,39.87141370000001,32.7364371,37.1755878260521,-684.8895620707415,-48.392066738276554,3.9270955627294586,12.741209094448898,1.0194301334088176,-0.030724801300601186,-0.2556298491282566,3.0306208628356717,1.306261135236473,48.63282840158317,-0.006108774969939875,0.0885373664008016,-0.03557170965531062,0.0,214403757.75751504,0.0,0.0,0.0,0.0,1.0
214481375.0,-0.007966154911823656,0.10608359898196396,-0.282084209755511,0.0,1.0,1359.0,2000.0,1000.0,1503.3832028777556,1495.6167971222444,1534.4825285851703,13.068372457234469,13.354874693486973,13.228462969639278,13.317729174028056,13.609680994589178,14.452254537314628,14.769076139458917,107.49733851963927,107.49733851963927,12.091322563907815,-0.000400274002004008,-0.006020338108216432,0.00025065650701402807,-0.24423301558717436,0.21199539273547094,-0.011878127721442885,2.0,8.619570407284568,9.619570407284568,11.0,0.0,0.0,1.0,0.0,0.0,0.0,0.0,0.0,0.0,0.0,-0.05306996731663327,-0.019873310294589174,1.2210692853827656,1.2830010968757515,2.4336111410601204,337.5272383172345,38.143794665450905,-0.0027327939458917836,0.09111721451903808,-0.2,0.0,-0.7354645088436874,0.5550474831883767,-7.287410974775551,-6.64e-34,960.604243651503,12.091118093987975,-0.009480085519038053,-0.2563198728517034,-0.0057070234028055965,-0.7238822026733467,0.5123853583006015,-6.855129987751503,-0.006218359358717432,-0.10559947840480952,0.011885187058116222,-6.64e-34,50.00185271801603,48.64812605853707,-0.4965380823907822,-0.3250062904048096,10.229465254228456,13.72647728256513,-0.06994023071342685,-0.08443452477354713,-0.30923511981963925,78.62713525693387,447.67377377995996,12.091361396733467,96062.18013332665,1.1413776170661323,-0.4240281241943886,-1.0250027148136265,-0.08280396593587164,-0.010878071076152305,-0.2026831680561123,-0.03525919210621242,-0.05508760682565131,-0.01426752811623246,1.2187537433386775,0.8197835599478958,-0.018501278707414835,-0.02160830914028056,0.5719635506733467,0.0,398717461.52565134,327284064.9523046,448522.2674092184,13.334404760801602,3.9081349773386775,12.744404760801602,0.8440815182364731,1.2729337032064127,0.0,0.0,0.0,39.87141370000001,32.7364371,37.503501230801604,-683.818558533467,-48.30001769781563,3.9240777326432865,12.727388246412826,1.261220501941884,-0.010249459202404745,-0.15537336153306605,2.8147028277394783,1.3072289546432867,48.54077969781564,-0.001957895673346705,0.09053124133667335,-0.03483083773947896,0.0,214481374.71342686,0.0,0.0,0.0,0.0,1.0
214566850.0,-0.004219715791583171,0.128872119995992,-0.2822916655971944,0.0,1.0,1358.4909819639279,2000.0,1000.0,1503.0180360721442,1495.9819639278558,1551.563126252505,13.090609546092184,13.377550345270542,13.206860848697396,13.295217596212426,13.586620140460921,14.44075163761523,14.757260277955913,107.2210414995992,107.2210414995992,12.09191482735471,-0.00040021622044088175,-0.0060191708817635275,0.0002513960621242485,-0.2441959352224449,0.21192138771142285,-0.01163322860521042,2.0,8.624448336583168,9.624448336583168,11.0,0.0,0.0,1.0,0.0,0.0,0.0,0.0,0.0,0.0,0.0,-0.05318182176352705,-0.01641962123046092,1.2202077133266533,1.282973698773547,2.4681553408837678,336.4110423224449,38.16944711412825,-0.0027401352785571143,0.0913495205991984,-0.2,0.0,-0.7634887138837675,0.5723873078637276,-8.063711130783568,2.2422369193306664,960.6054586553106,12.091846858817634,-0.012101582034068132,-0.18252467917835666,0.006102669723446908,-0.7577909001723447,0.6083903356192386,-6.788457498533067,-0.004705892408817635,-0.022639039579158284,0.003661631659318635,2.2422369193306664,49.95743905783567,48.62624601749499,-1.0603229652444892,-0.3143638353507014,10.229608604248497,13.712234213707415,-0.06965250219639278,-0.11913746808016035,-0.25053520034869736,79.11685230392786,447.65381726352706,12.092133787935872,96062.40998378757,1.141380378763527,-0.06363216318236461,-0.6429763920400798,-0.18693351716633266,-0.015294353719438873,-0.23797714982965934,-0.025871498857715426,-0.05696549834869739,-0.010457359679358718,1.2162943661963928,0.8204465786252505,-0.02038790111623246,-0.02055819459519038,0.5709844801743487,0.0,398717490.2388778,327284187.8442886,448451.3353002004,13.312102928016033,3.901624366338677,12.722656851623245,1.0733264075711424,1.2731126489238476,0.0,0.0,0.0,39.87141370000001,32.7364371,37.831604623326655,-682.7472976122244,-48.190875101603204,3.924524007286573,12.720456333607213,1.4677780549398798,0.03756819857515031,-0.10294782723046092,2.128129602332665,1.3081753550941884,48.4316371016032,-0.0033071302885771432,0.09362188371543087,-0.034359688803607215,0.0,214566850.26853707,0.0,0.0,0.0,0.0,1.0
214645793.0,-0.006888443805611221,0.13529680928657314,-0.2828536357755511,0.0,1.0,1358.0,2000.0,1000.0,1501.5450964649299,1497.4549035350701,1563.7695390781564,13.087115735531063,13.373929504168336,13.185258737755511,13.272706008396796,13.563559276332665,14.42924873773547,14.745444422785571,106.9447444777555,106.9447444777555,12.092507090981965,-0.00040015807214428855,-0.006018003673346694,0.0002521355991983968,-0.24415885449098196,0.21184738268737477,-0.011388329488977956,2.0,8.629326265881764,9.629326265881764,11.0,0.0,0.0,1.0,0.0,0.0,0.0,0.0,0.0,0.0,0.0,-0.05329367557715431,-0.012965932166332664,1.219346141270541,1.282946300056112,2.5026995417074147,335.294846290982,38.19509957280561,-0.0027457847995991987,0.09160270220240481,-0.2,0.0,-0.6689796282785572,0.6866969845410822,-8.95529994148497,10.668492667200402,960.6144038118236,12.092637551783566,-0.007353551799599197,-0.0863407554328657,0.005288372557114224,-0.7046568495991984,0.5319805538316633,-7.356487979525051,-0.003795053745490981,0.017951331775551103,-0.0005062432505010045,10.668492667200402,49.81086036755511,48.604954997855714,-1.656338637501002,-0.3266398970741483,10.229284642925853,13.688485848937876,-0.06918401641282565,-0.1928348096412826,-0.1961572990761523,79.55916147268537,447.6148848190381,12.092986853587174,96062.8644480561,1.141385724250501,0.2602325613306613,-0.3538725413867736,0.1985804916753504,-0.01231543775551102,-0.25051476201002004,-0.011466466589178353,-0.05313788579559118,-0.0030007215831663312,1.2190222191282565,0.8196577915711423,-0.020926344366733466,-0.016435768965931862,0.5722275829418838,0.0,398717519.54088175,327284312.1871744,448345.9376553106,13.301789713787576,3.9041047083507014,12.715894561142285,1.260613297965932,1.2727161693547095,0.0,0.0,0.0,39.87141370000001,32.7364371,38.14944883254509,-681.7104128320641,-48.070502081583165,3.9298200406332664,12.719412235871744,1.603533427438878,0.06781907913627255,-0.06275510471342682,1.2419165723046093,1.3085863184348696,48.31126391613226,-9.297807014027517e-05,0.10418060729258517,-0.03290227698797595,0.0,214645793.1242485,0.0,0.0,0.0,0.0,1.0
214727694.0,-0.006117638555110201,0.13595749645891783,-0.2777758840961924,0.0,1.0,1358.0,2000.0,1000.0,1503.2184368737476,1495.7815631262524,1567.0,13.172500309659318,13.461057191242485,13.163656626813626,13.250194430581162,13.540498412204409,14.417745835551102,14.73362856022044,106.66844743286573,106.66844743286573,12.093099349519038,-0.0004001009238476954,-0.006016836955911824,0.0002528756452905811,-0.24412177375951905,0.2117733784028056,-0.01114343037274549,2.0,8.63420419518036,9.63420419518036,11.0,0.0,0.0,1.0,0.0,0.0,0.0,0.0,0.0,0.0,0.0,-0.05340552939078156,-0.009512243102204403,1.2184845692144288,1.2829189018296594,2.537243741531062,334.17865028557117,38.22075203148297,-0.002752364867735471,0.09197666140280562,-0.2,0.0,-0.6643230044388778,0.6390315950641281,-9.462659692757516,11.647841107775546,960.637994758517,12.093469613587175,0.00029676087575148335,-0.004237857368737363,0.009780698877755477,-0.7433113895531062,0.5945885601523048,-8.271041332681365,0.0038263566913827704,0.01988062057314627,-0.017042762951903833,11.647841107775546,49.58327965813627,48.5841309861523,-2.277908636693388,-0.3570870083106213,10.22859016729459,13.65720115501002,-0.06857221593587173,-0.29744903676753526,-0.14520612869739472,79.96388309567135,447.4110452997996,12.093861448897796,96065.19736847695,1.1414134985831663,0.45897886793787473,0.6395025470240501,0.3851258365310603,-0.01369905250100199,-0.20615837631062112,-0.0024476923867735373,-0.05287901373747495,0.0005492846873747506,1.218468275004008,0.8197944360781563,-0.021837760186372745,-0.01490156906012024,0.5720449898276554,0.0,398717548.9901804,327284436.8246493,448234.3842749499,13.293617711002003,3.9081908706853707,12.711808767855711,1.44040631542485,1.2722169171983968,0.0,0.0,0.0,39.87141370000001,32.7364371,38.48568736460922,-680.6146662999998,-47.932702761482965,3.937573108653307,12.724042231482965,1.67188812296994,0.11263830763927864,0.07896480376152311,0.4830216093326646,1.308111082018036,48.17346376685371,-0.0004137593647294813,0.12041161806012025,-0.03264558769338678,0.0,214727693.8957916,0.0,0.0,0.0,0.0,1.0
214807134.0,-0.0061718632825651385,0.1369301541503006,-0.2739714694569138,0.0,1.0,1360.8059679458918,2000.0,1000.0,1502.5911823647295,1496.4088176352705,1567.8637274549098,13.077781679679358,13.364169851923847,13.142054515871743,13.22768284412826,13.517437548076153,14.406242938156312,14.72181270244489,106.39215043587174,106.39215043587174,12.093691618056113,-0.0004000427755511022,-0.006015670238476954,0.00025361469138276553,-0.2440846930280561,0.21169937350300602,-0.010898531256513026,2.0,8.639082125478959,9.639082125478959,11.0,0.0,0.0,1.0,0.0,0.0,0.0,0.0,0.0,0.0,0.0,-0.053517383204408825,-0.006058554038076148,1.2176229971583168,1.282891503466934,2.5717879413547093,333.0624542416834,38.24640448016032,-0.0027524438096192387,0.09253642526052104,-0.19999440995591183,0.0,-0.7039829970521043,0.6008759274529059,-9.684049517913827,4.3274431340140165,960.6523062294589,12.094309425571142,-0.0038951411883767625,0.033159112749498995,-0.00682384583366734,-0.715180968761523,0.683006317543086,-9.126383270366734,-0.0025949977815631414,-0.0030551311202405168,-0.026621799192384776,4.3274431340140165,49.34632657346693,48.561410381743485,-2.8373183750020043,-0.40064083923446914,10.227928025711423,13.622356105851704,-0.067888561248497,-0.3927861465250501,-0.1,80.3615271952505,447.32489337615226,12.094742890460923,96066.18168078156,1.1414252071963928,0.01991110562124191,1.1615966862665335,0.3937442415390767,-0.008299765052104219,-0.12053796026452893,0.009967447284569136,-0.05012930678156314,-0.0008055001122244478,1.2200794076452905,0.8193729753687374,-0.020311116879759523,-0.014687451112224451,0.5727114354448897,0.0,398717578.89398795,327284562.82565135,448111.90006072144,13.294554283146292,3.914554314036072,12.7077227397996,1.5313862628196393,1.271677926298597,0.0,0.0,0.0,39.87141370000001,32.7364371,38.80326232210421,-679.583236269539,-47.79951188112224,3.947162980476954,12.728556244529058,1.694857240220441,0.15358685745290585,0.09084721467735471,0.17571009127054085,1.3066653954068137,48.04027210839679,0.003254178689378741,0.12059248630460923,-0.030960062573146298,0.0,214807133.74549097,0.0,0.0,0.0,0.0,1.0
214886670.0,-0.0039053828597194412,0.14110673211022046,-0.2736973621022044,0.0,1.0,1362.327054012024,2000.0,1000.0,1502.0240480961925,1496.9759519038075,1568.0240480961925,13.07178406472946,13.357888701923848,13.12045240492986,13.2051712649499,13.494376683947895,14.394740033486976,14.709996847274548,106.11585336613227,106.11585336613227,12.094283876593186,-0.000399984627254509,-0.0060145035210420845,0.00025435473747494985,-0.24404761230861724,0.2116253686032064,-0.010653632140280561,2.0,8.643960054777555,9.643960054777555,11.0,0.0,0.0,1.0,0.0,0.0,0.0,0.0,0.0,0.0,0.0,-0.05362923701803607,-0.002604864973947893,1.2167614251022045,1.2828641053647294,2.6063321411903804,331.9462581977956,38.27205693883767,-0.0027580402404809618,0.09312878620841684,-0.2,0.0,-0.7597415121282567,0.5859949181583167,-9.697744264076153,-6.64e-34,960.6700395867736,12.095148989559117,0.0028712547334669315,0.023261606865731446,-0.019100318923847698,-0.7143377792705409,0.622278272777555,-9.593477135100201,-0.009578441368737476,-0.018714638206412827,-0.026066761414829658,-6.64e-34,49.03562486248497,48.523766009979965,-2.907606318735471,-0.5473278040501003,10.227520256092184,13.55949551757515,-0.06663950119839679,-0.4151242076933868,-0.1,80.70348026681363,447.1256118472946,12.095618128236472,96068.49603244489,1.141452642266533,0.694243295398796,0.9796844493326641,-0.040833060581162775,-0.0012487701683366705,-0.02220530734468933,0.00665315473747495,-0.046597911272545096,-0.002376298599198396,1.2224828306533067,0.8187290507915831,-0.018397113410821644,-0.014342234715430864,0.5737055351563126,0.0,398717609.09358716,327284689.9140281,447980.73288476956,13.302726284569138,3.922726722226453,12.703636536452905,1.5518172418196392,1.2711073695851702,0.0,0.0,0.0,39.87141370000001,32.7364371,39.13770676633266,-678.4995672206412,-47.659280388757516,3.9604023547635268,12.733358213627255,1.6997588105210422,0.18127532179959924,0.0985105156292585,0.041001067561122206,1.304443597971944,47.900041051643285,0.008920863837675342,0.1188793974028056,-0.027782061667334674,0.0,214886669.7755511,0.0,0.0,0.0,0.0,1.0
214975808.0,-0.0005137647835671295,0.1540050251182365,-0.27532190746893787,0.0,1.0,1363.0,2000.0,1000.0,1501.8577239098197,1497.1422760901803,1570.0,13.087832441643286,13.374259660380762,13.098850293987976,13.182659677134268,13.47131581981964,14.38323713745491,14.698180982104208,105.83955639398798,105.83955639398798,12.09487614513026,-0.00039992736673346695,-0.006013336803607214,0.00025509378356713426,-0.24401053156513028,0.21155136359118235,-0.010408733136272545,2.0,8.648837984076152,9.648837984076152,11.0,0.0,0.0,1.0,0.0,0.0,0.0,0.0,0.0,0.0,0.0,-0.05304432740480962,-0.00036751375350701365,1.216569155024048,1.2828557978757515,2.6154366488597196,330.82813808917837,38.299830364328656,-0.002760236006012024,0.09373391999398797,-0.2,0.0,-0.742408552274549,0.5731056741342686,-9.656844334991984,-6.64e-34,960.6843507787576,12.09607647230461,0.004851087805611224,-0.0016070883146292701,-0.02511258617635271,-0.7230359886132265,0.6531217256152305,-9.879227559565129,-0.008125243811623245,-0.022547994685370745,-0.02542418718436874,-6.64e-34,48.724923161262524,48.486121646853704,-2.977894261468938,-0.6940147687535071,10.227112486472947,13.496634939298596,-0.06539044014829659,-0.437462268749499,-0.1,81.04543332973948,447.024436593988,12.096508865971943,96069.62172396792,1.1414660542104207,-0.3746955459639279,0.4944023270561125,-0.22956684713426845,-0.0037225682304609254,0.030725154559118253,0.0014632393086172306,-0.049408267496993986,-0.0014827615410821643,1.2189519831062123,0.819704168981964,-0.019831577929859717,-0.014743966448897795,0.5722462143627255,0.0,398717639.2044088,327284816.1921844,447849.31926232466,13.310898410521043,3.9327478608817636,12.702015296312625,1.573480712490982,1.2704400204789579,0.0,0.0,0.0,39.87141370000001,32.7364371,39.464334863907816,-677.4448432779559,-47.52301226068136,3.9740284411663325,12.738134023326653,1.7051422884328657,0.2291247789178357,0.03882719273947892,0.07927575769138281,1.302100307018036,47.763772761182366,-0.0028865412745491042,0.12250610153306613,-0.03253694713026053,0.0,214975807.95591182,0.0,0.0,0.0,0.0,1.0
215059716.0,-0.0014451643787575155,0.15722882538076152,-0.2764846369779559,0.0,1.0,1361.7635270541082,2000.0,1000.0,1500.0856078537074,1498.9143921462926,1576.5270541082164,13.097640434589179,13.38420246795591,13.077248173046092,13.160148099318638,13.448254955691382,14.371734231422845,14.686365126933868,105.56325932304608,105.56325932304608,12.095468403667335,-0.00039986933066132267,-0.006012170086172345,0.00025583382965931864,-0.24397345083366737,0.21147735856713426,-0.010163834144288578,2.0,8.65371591337475,9.65371591337475,11.0,0.0,0.0,1.0,0.0,0.0,0.0,0.0,0.0,0.0,0.0,-0.051330125571142284,-0.00010156971543086172,1.2174616691462925,1.2828784326813627,2.5833093270100203,329.7068993947896,38.331041376272545,-0.002759105086172345,0.09429085103206412,-0.2,0.0,-0.6615026959519039,0.5563006802585171,-9.677335189002005,-6.64e-34,960.6921486851703,12.097094872284568,-0.004206494136272545,-0.022677305541082167,-0.029766336923847697,-0.7186073236152305,0.5734936732665331,-9.736437799090181,-0.0010664523847695394,-0.022493269278557115,-0.027055017837675353,-6.64e-34,48.441438948657314,48.41468809675351,-2.7510991051883766,-0.9134425898717435,10.226755515511021,13.45434506232465,-0.06455178619038075,-0.40544094774549094,-0.1,81.37511038819639,446.9052405667335,12.097404371342686,96071.00936631262,1.1414824926252505,0.06426053339879761,0.28454177180360724,0.30606051491382763,-0.005726883875751503,0.04337537103807615,-0.010172886048096191,-0.04737116382164329,0.004670739446893788,1.220156995749499,0.8193362720120241,-0.020749349366733467,-0.011653331763527053,0.5728131953767535,0.0,398717668.6873747,327284938.1529058,447716.5842717435,13.319071196092185,3.952679236176353,12.713607605991983,1.601751029022044,1.2692538073967936,0.0,0.0,0.0,39.87141370000001,32.7364371,39.79219319340682,-676.3901539875751,-47.38657822172345,3.988913461402806,12.74404304997996,1.7160394062645292,0.24443542258517034,0.016946336649298593,0.14541327586573147,1.2999432943987976,47.62733855240481,0.003268650146292585,0.1332197022264529,-0.02919678150701403,0.0,215059716.38877755,0.0,0.0,0.0,0.0,1.0
215142007.0,-0.004432391486973966,0.1578524171022044,-0.2784012664248497,0.0,1.0,1361.3845388376753,2000.0,1000.0,1500.8463828476954,1498.1536171523046,1578.254739719439,13.13043129509018,13.417624487094187,13.06542353995992,13.147592859498998,13.435359493647294,14.365320088597194,14.679739813687375,105.4090967761523,105.4090967761523,12.096132488757515,-0.00039981118236472946,-0.0060110033687374755,0.0002565735150300601,-0.2439363701022044,0.21140335354308618,-0.009918935152304608,2.0,8.658593842673346,9.658593842673346,11.0,0.0,0.0,1.0,0.0,0.0,0.0,0.0,0.0,0.0,0.0,-0.04959340376953908,0.00012506256713426889,1.2183758157655311,1.282901685496994,2.5503597710661325,328.5855985695391,38.3623209393988,-0.0027642260621242487,0.09484560001603207,-0.2,0.0,-0.7394842741543087,0.5447485812885772,-9.69001836148497,1.0830676755090227,960.7238037136273,12.097970996092185,-0.0036000544208416724,-0.02059545057114228,-0.025195181222444872,-0.7075877433386776,0.5394751938176351,-9.591800720543086,0.0026499515811623285,-0.015154464078156304,-0.013556862791583147,1.0830676755090227,48.171497742745494,48.326441556573144,-2.3764799702825647,-1.1690651433927859,10.226423816372746,13.422290841342686,-0.06391734425651302,-0.34637123512024043,-0.1,81.69867909809619,446.82096267434866,12.098304381082164,96071.98534965931,1.14149413504008,0.0015745582164329022,-0.3302461674969964,-0.06764743808416618,0.0012119115591182313,0.026828385795591148,-0.022037113515030064,-0.045178878787575164,0.005458194446893788,1.2214376838176353,0.818987586248497,-0.020069681320641287,-0.010716706905811625,0.5733579643807615,0.0,398717698.0727455,327285059.95310616,447583.7825895792,13.327244004208417,3.9731103379639277,12.725866217154309,1.6303544981062124,1.2680414310581163,0.0,0.0,0.0,39.87141370000001,32.7364371,40.13093829897795,-675.3044123496994,-47.24529055607214,4.0057089292004004,12.751581901222446,1.7296102759478955,0.20045541331262523,0.08671153150901802,0.12003016045290579,1.2982257343306614,47.48605130821643,0.010227298617234449,0.13460027906813626,-0.025120842032064137,0.0,215142007.37274548,0.0,0.0,0.0,0.0,1.0
215224333.0,-0.0031185332925851668,0.1566882255971944,-0.27254717736272543,0.0,1.0,1360.4849699398796,2000.0,1000.0,1501.617171262525,1497.382828737475,1578.5150300601204,13.155942600601202,13.443603150480962,13.081489226773547,13.163438179418836,13.451460897755512,14.373421651863728,14.68792058498998,105.60332348557114,105.60332348557114,12.097001428476954,-0.00039975354909819636,-0.006009836651302605,0.0002573129218436874,-0.24389928937074148,0.21132934851903806,-0.009674036160320643,2.0,8.663471772486973,9.663471772486973,11.0,0.0,0.0,1.0,0.0,0.0,0.0,0.0,0.0,0.0,0.0,-0.047856681452905815,0.00035171150701402787,1.2192899623847695,1.2829249373126252,2.5174102151222444,327.46429766793585,38.393600512525055,-0.0027647516833667336,0.09543515715631262,-0.2,0.0,-0.7080831731743488,0.5510411452785571,-9.664376260024047,9.659955988032056,960.7410718901804,12.098836479338678,0.0029305329258516835,-0.015594898513026052,-0.01737340418436875,-0.718076081468938,0.48436107140881773,-9.672185950446893,0.0036548415150300597,-0.011383846593186375,-0.004940334222444897,9.659955988032056,47.923622518416835,48.23093776871744,-2.0622839197174354,-1.391681218052104,10.22641389741483,13.394017831703406,-0.0633520884008016,-0.28758271451703415,-0.1,82.00667044056112,446.6004238194389,12.099209518396794,96074.51674661323,1.141524181769539,-0.754050637833668,-0.5036915058917835,-0.42686829658316533,0.0019603787575150334,0.0031713323907815883,-0.027071221877755514,-0.04182545715631262,0.003033102529058117,1.22382752050501,0.818350816246493,-0.017988712801603204,-0.010769800515030058,0.5743338277995992,0.0,398717727.788978,327285183.597996,447445.83527434873,13.335416285711423,3.9827082770240483,12.735416554168337,1.653541358274549,1.2673962759358717,0.0,0.0,0.0,39.87141370000001,32.7364371,40.4561481393988,-674.2668629831663,-47.10904222114228,4.020267563158317,12.758642041983968,1.740113657300601,0.1886814521182365,0.05712950680561121,0.1156240191222445,1.2973141429519037,47.34980233753507,0.012835331302605222,0.1283347618216433,-0.023555765633266525,0.0,215224332.99398798,0.0,0.0,0.0,0.0,1.0
215307772.0,0.0004673705450901763,0.15719442555310623,-0.27178451520641284,0.0,1.0,1363.6092184368738,2000.0,1000.0,1500.7815631262524,1498.2184368737476,1577.3907815631262,13.144189635651303,13.431486865711422,13.099692786112223,13.18146047488978,13.469784987735471,14.382635882364731,14.697236279739478,105.8242551248497,105.8242551248497,12.097886074308617,-0.00039963023446893786,-0.0060087457454909825,0.0002580769779559118,-0.24386061385971944,0.21125584604008016,-0.009423222298597194,2.0,8.668349702270541,9.668349702270541,11.0,0.0,0.0,1.0,0.0,0.0,0.0,0.0,0.0,0.0,0.0,-0.046119959775551105,0.0005783491823647296,1.2202041083947897,1.2829481891282566,2.4844606591783567,326.3429967663327,38.4248800756513,-0.0027716883026052104,0.09599917081162325,-0.2,0.0,-0.6155655685731463,0.5578786885891783,-9.724726035324649,12.099720475851703,960.7570480883768,12.099720475851703,0.003462011879759518,-0.01617872752705411,-0.009538096857715428,-0.7437721404729459,0.5662902480881763,-9.625482188549098,0.008674169302605214,-0.0053400825711422805,0.010299470891783579,12.099720475851703,47.74046501298597,48.11414902759519,-1.9253038789198396,-1.5174919678136272,10.227347716292584,13.376834785611223,-0.06298975142084169,-0.22961890986973946,-0.1,82.26897462573146,446.399115136473,12.100126354388777,96076.8408456513,1.141551745238477,-0.1731502780841684,-0.09360788027655298,-0.02194994478757442,0.0024079653026052163,-0.008386351288577159,-0.03079132553707415,-0.042846295308617235,0.0019932993486973926,1.2223037941042085,0.8187838421783568,-0.01811678242885771,-0.011472862979959919,0.573695636256513,0.0,398717757.61342686,327285308.2478958,447305.26983306615,13.34358828240481,3.986794481234469,12.743588964468938,1.673972337747495,1.2670397133326654,0.0,0.0,0.0,39.87141370000001,32.7364371,40.79950129943887,-673.1751000398798,-46.9657264587976,4.034631772330662,12.766482953446893,1.7481662597394791,0.11855264417635267,0.11530783664929864,0.09221527622244487,1.2968915921703408,47.20648649787575,0.00503432178957917,0.12504986630661322,-0.027110226795591177,0.0,215307772.4529058,0.0,0.0,0.0,0.0,1.0
215385345.0,-0.003307674551102191,0.16599149610821642,-0.2726102476573146,0.0,1.0,1363.7334669338677,2000.0,1000.0,1499.5330661322646,1499.4669338677354,1578.799599198397,13.216030383166332,13.504832166372745,13.117896338116234,13.199482770360722,13.488109082865732,14.391850117715432,14.706551964488979,106.04518676412825,106.04518676412825,12.098770722324648,-0.0003991581703406814,-0.006008059178356714,0.00025897180160320643,-0.24381346417434868,0.2111850154188377,-0.009140976543086172,2.0,8.673227631569139,9.673227631569139,11.0,0.0,0.0,1.0,0.0,0.0,0.0,0.0,0.0,0.0,0.0,-0.044383237364729454,0.0008049868577154314,1.2211182548897797,1.2829714412104207,2.451511102234469,325.2216959380762,38.45615964144289,-0.0027787484308617236,0.09652730791783568,-0.2,0.0,-0.6289809513426856,0.5532252089799599,-9.809540856466933,6.2933823826192175,960.7733306575151,12.100595647114227,0.0059732747094188455,-0.010858311064128278,-0.00392480295991984,-0.691188013955912,0.5663231518036071,-9.662956433643286,0.012927458314629263,0.0017506855751503155,0.00905052304809616,6.2933823826192175,47.56020181248497,47.99608299995992,-1.79885349307014,-1.6350397366753509,10.228245189739479,13.361705490020041,-0.06266921553907814,-0.17273896112224438,-0.1,82.52938235581162,446.3220993252505,12.10103173006012,96077.7455792986,1.1415626454408818,0.06483367878557118,0.06117824934669346,0.09648028416432865,-0.0009053886853707404,-0.004434029795591166,-0.023620287450901802,-0.0432196856813627,0.0006538033667334603,1.221441638016032,0.8190368670941883,-0.017890522198396784,-0.012121119853707412,0.573329052755511,0.0,398717787.6977956,327285433.4975952,447163.55957014026,13.352641142184368,3.9935227140480962,12.75,1.685596482997996,1.2665294275971943,0.0,0.0,0.0,39.87141370000001,32.7364371,41.12896817773547,-672.1309682008016,-46.82825598466934,4.047834905621243,12.773516494228456,1.752301302496994,0.16721164009819658,0.13043153502204408,0.05289997818637266,1.2968159598276554,47.069016649278566,0.007935599919839711,0.1197109713547094,-0.0253332110300601,0.0,215385344.69138277,0.0,0.0,0.0,0.0,1.0
215470652.0,-0.004689295188376755,0.16440280845691385,-0.2719805458617235,0.0,1.0,1364.0,2000.0,1000.0,1498.426853707415,1500.573146292585,1582.0,13.137603508036072,13.424632363486975,13.136099894789579,13.217505065831663,13.506433167995992,14.40106435306613,14.715867659238477,106.26611841763527,106.26611841763527,12.099655365671344,-0.0003986375871743487,-0.00600742719238477,0.00025988529258517035,-0.24376515231863727,0.21111455093787576,-0.008854424613226454,2.0,8.678105560867737,9.678105560867737,11.0,0.0,0.0,1.0,0.0,0.0,0.0,0.0,0.0,0.0,0.0,-0.0427880931983968,0.0009597828176352705,1.2220251412825651,1.2829947714028056,2.41856154101002,324.0990787476955,38.48466159294589,-0.0027895985210420844,0.0970237969519038,-0.2,0.0,-0.6735327576372745,0.5651663000040079,-9.8459655482004,-6.64e-34,960.788099027054,12.101546160400803,0.007790495567134268,-0.0047368630460921865,0.0016093039498997978,-0.746352819218437,0.5720961199879759,-9.707793215128257,0.013232660675350703,0.006444208312625249,-0.0024944255270541067,-6.64e-34,47.38997064599198,47.86974191294589,-1.7396976966773545,-1.6774271851703408,10.228087818877755,13.372117289298597,-0.06288059295390781,-0.1319974316252505,-0.1,82.78495241242484,446.1626056184369,12.101951140561123,96079.54346755511,1.1415839232264529,0.20970448556112264,-0.23137358133466968,0.21756937454308628,0.008419575793587174,0.00022042553507013949,-0.01505442729458918,-0.04025563286773547,0.004627219923847694,1.2237862096072145,0.8183656278657314,-0.017804704539078158,-0.009666479845691385,0.5743365524689379,0.0,398717818.7476954,327285560.97535074,447017.68201482965,13.364900163647295,4.009867407777556,12.75,1.6651655041342686,1.2654596189879759,0.0,0.0,0.0,39.87141370000001,32.7364371,41.46832305657314,-671.0569616112224,-46.68695853458918,4.061213259438878,12.781173185991983,1.7502812108517034,0.1678723952965932,0.12590905429058116,-0.009598979807615213,1.2967667625350703,46.92771904198397,0.008575597677354704,0.11897365289779557,-0.024090708202404814,0.0,215470652.4008016,0.0,0.0,0.0,0.0,1.0
215550092.0,-0.00265393824048097,0.16141536530661324,-0.2725769171923848,0.0,1.0,1364.980654238477,2000.0,1000.0,1498.019345761523,1500.980654238477,1580.9819639278558,13.10642958262525,13.392635181963929,13.154303454128256,13.235527361302605,13.524757263126252,14.410278578416834,14.725183353987976,106.48705014268536,106.48705014268536,12.100540016172344,-0.000398118004008016,-0.006006795921843688,0.0002607977835671343,-0.24371684046292585,0.21104408645691383,-0.008567871683366732,2.0,8.682983490166333,9.682983490166333,11.0,0.0,0.0,1.0,0.0,0.0,0.0,0.0,0.0,0.0,0.0,-0.041473767250501,0.0009720802264529059,1.2229176275991982,1.2830182558116232,2.3856119681843686,322.9738504975952,38.50765415220441,-0.0027973557715430864,0.09752549915831663,-0.2,0.0,-0.6256576715531061,0.6050329458416833,-9.817991642981964,-6.64e-34,960.8035559432866,12.102599643727455,0.021542525396793563,0.005250252527054101,0.007018351276553092,-0.596671942907816,0.5453245936593187,-9.787207037747494,0.011026960204408824,0.0038283538256512805,-0.007562753212424854,-6.64e-34,47.22363784625251,47.74018518220441,-1.7066921176633267,-1.6906078471162325,10.2275205453507,13.392454187094188,-0.06329866796993988,-0.0975271822865731,-0.1,83.03864258861722,445.98349823166336,12.10284801016032,96081.63618603206,1.1416087692484969,-0.339411542464929,0.31534664156713466,0.5587658768416824,0.005150934374749499,0.0005375701863727466,-0.006033869378757504,-0.03824722025651303,0.0072505320200400795,1.2251888201242485,0.8179637843206412,-0.017729408837675355,-0.00802931346492986,0.5749396463106212,0.0,398717849.79218435,327285688.4012024,446871.86904248496,13.3771376797996,4.026255108755511,12.749978496673346,1.6448635438517034,1.2643868073106213,0.0,0.0,0.0,39.87141370000001,32.7364371,41.809100853907815,-669.9807134162323,-46.545546516432864,4.073209725034068,12.788689646072145,1.7430837945911821,0.11991284410621239,0.12738923249098197,-0.08551198428256523,1.2965752865070141,46.786306516432866,0.011177153673346681,0.13127461988376754,-0.021488383498998002,0.0,215550092.3747495,0.0,0.0,0.0,0.0,1.0
215636258.0,-0.0012719659519037797,0.1597114916593186,-0.27531835774549096,0.0,1.0,1363.0984998096192,2000.0,1000.0,1501.6890753406815,1497.3109246593185,1580.0,13.12787285985972,13.414409731743486,13.172507003466935,13.253549647835671,13.543081348256512,14.419492813767535,14.734499048737474,106.70798178196394,106.70798178196394,12.101424658096192,-0.00039759842084168337,-0.00600616468737475,0.00026171127454909817,-0.2436685286072144,0.2109736219759519,-0.008281319647294588,2.0,8.687861420358717,9.687861420358717,11.0,0.0,0.0,1.0,0.0,0.0,0.0,0.0,0.0,0.0,0.0,-0.04015944130260521,0.0009843766713426854,1.2238101148096192,1.2830417402204408,2.3526623953587174,321.8486223368738,38.5306467104008,-0.002804047430861723,0.09806609921843688,-0.2,0.0,-0.5876698816813626,0.588289649757515,-9.832295649875752,-6.64e-34,960.8325578262526,12.10346428032064,0.011272000547094183,0.006375348238476976,0.0026871319579158414,-0.727584438547094,0.6107888101242486,-9.881990101903808,0.015006936136272556,-0.013324401012024093,-0.010964415256513035,-6.64e-34,47.056026743647294,47.60499516757515,-1.66939701701002,-1.702977685460922,10.226938040621242,13.407814743807615,-0.06361752548496993,-0.06440853196192375,-0.1002426490260521,83.30265576104209,445.92426767294586,12.103744917975952,96082.30499156313,1.1416166732124249,-0.00936390247294611,0.4651568687975952,-0.02347276107014129,0.007686899156312641,0.0053005950601202655,-0.0012222532104208396,-0.036385411547094175,0.004924536909819628,1.2267000910941883,0.8175598531863727,-0.016293064717434858,-0.008457369436873748,0.5755494643306613,0.0,398717879.91122246,327285812.1643287,446735.3450208417,13.386278596272545,4.048835483392786,12.746860706332665,1.6431392970300602,1.2628817233667333,0.0,0.0,0.0,39.87141370000001,32.7364371,42.140499880641286,-668.9376222835673,-46.40894593470942,4.082670335350703,12.795201496733467,1.7324705676172345,0.09222269346492976,0.1331505568156313,-0.13518305946893794,1.2961767183667334,46.649705934709424,0.014195410014028107,0.12674325054509017,-0.01952614858517032,0.0,215636257.69338676,0.0,0.0,0.0,0.0,1.0
215720049.0,-0.0026241542484969913,0.15787702646292584,-0.2698340235270541,0.0,1.0,1361.2304609218436,2000.0,1000.0,1500.5775266432865,1498.4224733567135,1579.0,13.2305218851503,13.519176098016032,13.190710560501003,13.271571942244488,13.561405441082165,14.428707049118238,14.743814733486975,106.92891342124248,106.92891342124248,12.10230931002004,-0.0003970778376753507,-0.006005532665330661,0.000262623995991984,-0.243620217751503,0.21090315749499,-0.007994766823647293,2.0,8.692739349763526,9.692739349763526,11.0,0.0,0.0,1.0,0.0,0.0,0.0,0.0,0.0,0.0,0.0,-0.03884511535470942,0.0009966740981963928,1.2247026012324649,1.2830652246292586,2.319712822533066,320.72339409739476,38.55363927072145,-0.0028159734428857717,0.09861155933266533,-0.2,0.0,-0.6534917372965933,0.6578131126873749,-9.892230600386775,-6.64e-34,960.8521378747496,12.104329298336674,0.009518990356713422,0.008750709400801604,-0.007363360801603214,-0.7805584803867737,0.5874464584108217,-9.929121680791583,0.018410568490981966,-0.008935481436873746,-0.00961698569739479,-6.64e-34,46.88607645757515,47.45949682675351,-1.6242525396272545,-1.7138638046072143,10.226327664949899,13.414069122104209,-0.06375482408216432,-0.03376316563126251,-0.10092932,83.58555893016032,445.7699595971944,12.104643531843688,96084.09097360722,1.141637972503006,0.06951392516633309,0.21152642357715454,0.5926464801082167,0.01653432751503007,0.01765987091382766,-0.0004907273587174357,-0.0354329649759519,0.002925158709418836,1.2274170180521042,0.8173716995511022,-0.01532561591583166,-0.009004934941883766,0.5758327358376754,0.0,398717909.73567134,327285934.7509018,446601.72613767534,13.394451001723446,4.073352707248497,12.74277449529058,1.6472255016312625,1.261241439470942,0.0,0.0,0.0,39.87141370000001,32.7364371,42.49047622631262,-667.836793458517,-46.266353294569136,4.092884378899799,12.802589390561122,1.7201738398316633,0.0505531424509018,0.12952321225250502,-0.0921107774789579,1.2955479441142286,46.507113363827656,0.01362872469338678,0.119738383002004,-0.019361468376753503,0.0,215720049.47895792,0.0,0.0,0.0,0.0,1.0
215801574.0,-0.0006760745170340549,0.1649446098276553,-0.266467343248497,0.0,1.0,1365.3547094188377,2000.0,1000.0,1500.2905811623245,1498.7094188376755,1578.0,13.232416385591181,13.521093406753506,13.208914112144289,13.28959423771543,13.579729528517035,14.437921278016033,14.753130428236473,107.14984506052105,107.14984506052105,12.103193951943888,-0.000396558254509018,-0.006004901182364729,0.00026353725651302604,-0.2435719058957916,0.21083269301402807,-0.007708213893787574,2.0,8.697617279062124,9.697617279062124,11.0,0.0,0.0,1.0,0.0,0.0,0.0,0.0,0.0,0.0,0.0,-0.037530789406813626,0.001008970879759519,1.2255950875490982,1.283088709038076,2.286763249707415,319.5981659472946,38.57663182997996,-0.0028229435390781563,0.09912387888176352,-0.2,0.0,-0.6663917593026052,0.6196356874669338,-9.926903985677354,-6.64e-34,960.8553651629259,12.105174293006012,0.00851955225851702,-0.0014099138496994176,-0.003264710813627259,-0.7395630164669341,0.6196686255891788,-9.911008869651303,0.022625424703406824,0.008640059190380802,-0.01438771323647296,-6.64e-34,46.716905996472946,47.314444786953906,-1.5818272363166332,-1.7246358976032066,10.225719508136272,13.420814658537074,-0.06390190276953908,-0.0037770772785570596,-0.1016234280981964,83.86728234226453,445.6412415669339,12.10553921757515,96085.57946757515,1.1416555954148297,0.15511087660521272,-0.016263793238474045,-0.4918607331523035,0.01189454831863729,0.018924607430861728,0.0017398264088176333,-0.034013795434869716,0.001626657374749493,1.2284619721763528,0.817087787763527,-0.014367392134268525,-0.009133929282565127,0.576256955492986,0.0,398717939.8182365,327286058.0472946,446465.5516456914,13.402623407174348,4.089799603805611,12.7454135696994,1.647276541260521,1.260234985256513,0.0,0.0,0.0,39.87141370000001,32.7364371,42.82015043456914,-666.8031537194389,-46.133026173166336,4.1013392131422854,12.809459398977955,1.7112296828396794,0.12409133934669354,0.1025349163627254,-0.03339740170741471,1.2947263451503006,46.373786997094186,0.012849784322645321,0.11466020202004007,-0.01923522068136271,0.0,215801573.6212425,0.0,0.0,0.0,0.0,1.0
