,timestamp,control[0],control[1],control[2],control[3],control[4],output[2],output[3],output[4],output[5],output[6],output[7],indicated_airspeed_m_s,true_airspeed_m_s,indicated_airspeed_m_s.1,equivalent_airspeed_m_s,true_airspeed_m_s.1,equivalent_ground_minus_wind_m_s,true_ground_minus_wind_m_s,Unnamed: 6,Unnamed: 7,differential_pressure_raw_pa,differential_pressure_filtered_pa,temperature,gyro_bias[0],gyro_bias[1],gyro_bias[2],accel_bias[0],accel_bias[1],accel_bias[2],instance_count,seq_reached,seq_current,seq_total,item_changed_index,item_do_jump_remaining,valid,warning,finished,failure,stay_in_failsafe,flight_termination,item_do_jump_changed,execution_mode,nav_roll,nav_pitch,nav_bearing,target_bearing,xtrack_error,wp_dist,acceptance_radius,rollspeed_integ,pitchspeed_integ,yawspeed_integ,additional_integ1,x,y,z,temperature.1,pressure,temperature.2,gyro_rad[0],gyro_rad[1],gyro_rad[2],accelerometer_m_s2[0],accelerometer_m_s2[1],accelerometer_m_s2[2],x.1,y.1,z.1,temperature.3,altitude_sp,altitude_filtered,height_rate_setpoint,height_rate,airspeed_sp,airspeed_filtered,airspeed_derivative_sp,airspeed_derivative,throttle_integ,pitch_integ,timestamp_sample,baro_device_id,baro_alt_meter,baro_temp_celcius,baro_pressure_pa,rho,xyz[0],xyz[1],xyz[2],xyz[0].1,xyz[1].1,xyz[2].1,roll_body,pitch_body,yaw_body,q_d[0],q_d[1],q_d[2],q_d[3],thrust_body[0],lat,lon,alt,vel_m_s,vel_n_m_s,vel_e_m_s,vel_d_m_s,cog_rad,ground_contact,maybe_landed,landed,ref_lat,ref_lon,x.2,y.2,z.2,vx,vy,vz,ax,ay,az,yaw,dist_bottom,roll,pitch,yaw.1,thrust_body[0].1,timestamp.1,isTakeoff,isClimbing,isDescending,isCruise,isLand
4018,150026360,0.004793995,0.57334576,0.031570121,0.03611755,1.0,1515.0,2000.0,1028.0,1498.0,1501.0,1794.0,10.13529346,10.35726136,10.15688122,10.22125782,10.44523915,10.40984583,10.63795619,,,63.38809282,63.38809282,12.09330573,-0.0006723380000000001,-0.005810939,4.04e-05,-0.256575844,0.17399082300000002,-0.01129729,2.0,8.448889778,9.448889778,11,0,0,1,0,0.0,0,0,0,0,0,0.00766616,0.102174692,-1.579151126,-1.574508812,0.137482782,339.41736769999994,29.515391700000002,-0.007887158,0.4,0.015226438,0.0,-0.219776627,0.26913622800000003,-9.013120841000001,-7.209999999999999e-21,960.6248166000001,12.09336324,0.013343529,-0.08606383599999999,-0.005144671,-0.31755991899999997,0.224356848,-8.948900795,0.008822708,-0.086898845,-0.00145274,-7.209999999999999e-21,48.80776511,49.34473769,-1.217594424,-0.871639732,10.21996432,10.29654163,-0.001531544,-0.7646436,-0.207104923,185.1989953,149053120.2,6620172,449.0582797,12.08338737,96046.28445,1.141188662,0.518726384,-0.125329129,0.331584642,0.012283388999999999,-0.07613642,-0.003824212,0.008651841,0.112020947,-1.579514694,0.702735054,0.042797224,0.036344015,-0.709232539,0.036446055,398688593.0,327344096.2,448315.7982,10.24328666,-0.19664332199999998,-10.2565033,1.696223211,4.692493722,0,0,0.0,39.8714138,32.7364368,-284.04229219999996,-174.2756041,-48.11132718,-0.18809430300000002,-10.31665924,1.7730146180000002,-0.080096396,-0.25813997,0.888900355,-1.595526003,48.23245294,0.021948552000000003,0.290555215,-0.0050241140000000005,0.018752843,150026360,0,0,0,0,1
4019,150066741,0.005154125,0.5768345739999999,0.031397768,0.030700922000000002,1.0,1515.0,2000.0,1022.0,1497.0,1502.0,1796.1978399999998,10.094248,10.31549306,10.16759841,10.23215902,10.45634072,10.42711624,10.65556559,,,63.66206468,63.66206468,12.09376712,-0.000672243,-0.005811285,4.07e-05,-0.256576806,0.173999218,-0.011387386000000001,2.0,8.451490298,9.451490298,11,0,0,1,0,0.0,0,0,0,0,0,0.007743369,0.102521914,-1.57919133,-1.5745098730000002,0.138835175,339.0513376,29.547867800000002,-0.007878758000000001,0.4,0.015213475,0.0,-0.309721808,0.23905403,-8.993770088,-7.209999999999999e-21,960.6291643,12.09377292,0.012213518999999999,-0.083496093,0.001224564,-0.312844022,0.15840163699999998,-9.011198618,0.014216982,-0.08520532800000001,-0.003474038,-7.209999999999999e-21,48.75226649,49.31240273,-1.208331214,-0.932244392,10.21994088,10.2633934,-0.0008690460000000001,-0.7490466020000001,-0.20714631600000002,185.1842523,149089775.6,6620172,448.9917023,12.08344968,96047.022,1.141197467,0.047226928,0.050721018,-0.07558029200000001,0.017845783,-0.07279309099999999,-0.0035073070000000003,0.00861596,0.112111457,-1.579565179,0.7027159620000001,0.042817612000000005,0.036387472000000004,-0.709247945,0.034980149,398688592.5,327344053.7,448256.4151,10.24675935,-0.198379668,-10.26865773,1.729213827,4.692402824,0,0,0.0,39.8714138,32.7364368,-284.04919900000004,-174.6257239,-48.04816657,-0.18892811199999998,-10.32668509,1.8027062980000002,-0.07683068400000001,-0.280675374,0.8769950209999999,-1.595613204,48.16929197,0.021195329,0.308267063,-0.004557371,0.034184247,150066741,0,0,0,0,1
4020,150099122,0.003338491,0.5729283070000001,0.030302562999999998,0.015379863,1.0,1515.0,2000.0,1030.0,1498.0,1501.0,1801.0,10.19109664,10.41436989,10.1783156,10.24306022,10.46744229,10.44438664,10.67317498,,,63.93603653,63.93603653,12.09422851,-0.000672147,-0.005811632,4.09e-05,-0.256577768,0.17400761399999998,-0.011477481000000001,2.0,8.454090818,9.454090818,11,0,0,1,0,0.0,0,0,0,0,0,0.007820576999999999,0.102869136,-1.579231535,-1.5745109330000002,0.140187568,338.68530760000004,29.58034391,-0.007870263,0.4,0.015198072,0.0,-0.39966699,0.208971833,-8.974419334,-7.209999999999999e-21,960.6335118999999,12.09418259,0.01846363,-0.084245155,-0.001761696,-0.34587021799999995,0.18727622800000002,-9.015909495,0.019611255,-0.08351181099999999,-0.005495336,-7.209999999999999e-21,48.70186388,49.27507768,-1.207521173,-0.97445889,10.21989186,10.25444454,-0.000691043,-0.725935366,-0.207182578,185.164583,149126430.9,6620172,449.0922211,12.08354285,96045.8408,1.141183476,0.466410129,0.159880562,0.173611502,0.013055276999999999,-0.068236478,-0.00167761,0.008638524,0.1092626,-1.5796161919999998,0.702757222,0.041816616,0.035376914,-0.7093179759999999,0.024227346,398688592.0,327344011.1,448196.5331,10.25069613,-0.19999999,-10.28023205,1.762552509,4.6923139439999995,0,0,0.0,39.8714138,32.7364368,-284.0561058,-174.97584369999998,-47.98500595,-0.18976192100000003,-10.33671093,1.8323979780000001,-0.073564972,-0.303210778,0.8650896859999999,-1.595700405,48.10613099,0.020693073,0.310169727,-0.004218166,0.028804242999999997,150099122,0,0,0,0,1
4021,150139503,0.004871855,0.584608636,0.030122087000000002,0.027388185,1.0,1515.0,2000.0,1031.0,1497.0,1502.0,1803.0,10.09586926,10.31699671,10.189032800000001,10.25396143,10.47854386,10.46165705,10.69078437,,,64.21000838,64.21000838,12.09468989,-0.000672052,-0.005811978000000001,4.1200000000000005e-05,-0.25657873,0.17401600899999997,-0.011567576999999999,2.0,8.456691337999999,9.456691337999999,11,0,0,1,0,0.0,0,0,0,0,0,0.007897786,0.10321635900000001,-1.579271739,-1.5745119930000002,0.14153996,338.3192776,29.61282001,-0.007863817,0.4,0.015183829,0.0,-0.387150745,0.200115407,-9.008487755,-7.209999999999999e-21,960.6502695,12.09462053,0.009134391,-0.082152567,-0.003635433,-0.34002530799999997,0.178620152,-9.020817447999999,0.016945267,-0.080346141,-0.004912351,-7.209999999999999e-21,48.65146126,49.23775263,-1.2067111320000001,-1.0166733890000001,10.21984285,10.24549568,-0.000513039,-0.70282413,-0.207218839,185.1449137,149163086.2,6620172,448.99389569999994,12.08366701,96046.99962,1.141197279,0.309262947,0.23874024100000002,0.308422885,0.01439569,-0.061729125999999995,-0.004666666,0.008607378,0.108247615,-1.5796531109999998,0.702765341,0.041446484,0.035030351,-0.7093479890000001,0.019411165,398688591.3,327343967.3,448129.6837,10.26111404,-0.19999999,-10.28370474,1.800752132,4.692253241,0,0,0.0,39.8714138,32.7364368,-284.06318680000004,-175.32675509999999,-47.91894766,-0.191799622,-10.34807557,1.861014983,-0.061767825,-0.312228092,0.832845299,-1.59575377,48.04007236,0.020501281,0.320613527,-0.003939344,0.03540276,150139503,0,0,0,0,1
4022,150175884,0.003488761,0.588855887,0.030193328,0.022923946,1.0,1514.0,2000.0,1018.0,1498.962392,1500.037608,1802.0,10.07870581,10.29947786,10.19974999,10.26486263,10.48964544,10.47892745,10.70839377,,,64.48398023,64.48398023,12.09515128,-0.0006719569999999999,-0.005812324000000001,4.14e-05,-0.25657969199999997,0.174024405,-0.011657671999999999,2.0,8.459291858,9.459291858,11,0,0,1,0,0.0,0,0,0,0,0,0.007974995,0.103563581,-1.579311944,-1.5745130530000002,0.142892353,337.9532476,29.64529611,-0.007852413,0.4,0.015163365,0.0,-0.35860813799999997,0.19457898199999998,-9.050911661,-7.209999999999999e-21,960.6689681,12.0950629,0.011069241,-0.076344146,-0.004957754,-0.240859175,0.227651381,-9.134859243,0.013018545,-0.076950207,-0.0039220209999999995,-7.209999999999999e-21,48.60105865,49.20042757,-1.2059010909999999,-1.0588878879999999,10.21979383,10.23654682,-0.000335036,-0.679712895,-0.20725510100000002,185.1252445,149199741.5,6620172,448.98011389999994,12.08378485,96047.13823,1.1411989,0.12831352099999999,0.8590553670000001,-0.146665726,0.011849196000000001,-0.062291282,-0.0016619970000000001,0.008546173,0.11186509300000001,-1.579678236,0.7026826970000001,0.042707832,0.036323207,-0.7092910040000001,0.029352437000000002,398688590.6,327343923.6,448062.8344,10.27153195,-0.19999999,-10.28717744,1.838951754,4.6921925380000005,0,0,0.0,39.8714138,32.7364368,-284.0702951,-175.67779040000002,-47.85243614,-0.19402562899999998,-10.35964961,1.889463895,-0.048636245999999994,-0.31913099300000003,0.797419607,-1.595801842,47.97356048,0.019849607,0.326536218,-0.003580133,0.036244392,150175884,0,0,0,0,1
4023,150208265,0.00040240699999999997,0.593476178,0.030843007999999998,0.015427426000000001,1.0,1515.0,2000.0,1033.416883,1498.0,1501.0,1809.0,10.32445926,10.55050884,10.21046718,10.27576383,10.50074701,10.49619786,10.72600316,,,64.75795209,64.75795209,12.09561267,-0.000671861,-0.00581267,4.16e-05,-0.256580655,0.1740328,-0.011747768,2.0,8.461892378,9.461892378,11,0,0,1,0,0.0,0,0,0,0,0,0.008052204,0.10391080300000001,-1.579352149,-1.574514114,0.144244746,337.58721760000003,29.67777221,-0.007839645,0.4,0.015160403999999999,0.0,-0.331227035,0.189407258,-9.093009477,-7.209999999999999e-21,960.6872155,12.09550527,0.008266269,-0.072369018,0.001606152,-0.269048372,0.20171451699999998,-9.105307778,0.009251314,-0.0734505,-0.002888586,-7.209999999999999e-21,48.55065604,49.16310252,-1.205091051,-1.101102386,10.21974481,10.22759797,-0.000157032,-0.656601659,-0.20729136199999998,185.10557519999998,149237796.4,6620172,449.0234101,12.08395519,96046.66812999999,1.141193255,0.588208204,-0.177302448,-0.5512905610000001,0.008745486,-0.057952382999999996,-0.00498164,0.008589278,0.110137549,-1.579728587,0.7027001190000001,0.042111472000000004,0.035699588,-0.709340836,0.022383106,398688589.9,327343879.8,447995.985,10.28194986,-0.19999999,-10.29065013,1.877151377,4.692131836000001,0,0,0.0,39.8714138,32.7364368,-284.0774276,-176.02991780000002,-47.78562243,-0.196205538,-10.37135087,1.9179157619999998,-0.036086302,-0.327533197,0.762538865,-1.595848462,47.90674641,0.019412936000000002,0.32723336,-0.0033530120000000003,0.030212507000000003,150208265,0,0,0,0,1
4024,150245291,0.003014732,0.606291088,0.030873336,0.031398997000000005,1.0,1515.0,2000.0,1028.0,1499.0,1500.0,1810.0,10.31862607,10.54453845,10.22118437,10.28666504,10.51184858,10.51346827,10.74361255,,,65.03192394,65.03192394,12.09607406,-0.0006717660000000001,-0.005813016999999999,4.1899999999999995e-05,-0.256581617,0.174041196,-0.011837863,2.0,8.464492899,9.464492899,11,0,0,1,0,0.0,0,0,0,0,0,0.008129411999999999,0.104258025,-1.579392353,-1.574515174,0.14559713800000001,337.2211876,29.71024831,-0.007831415,0.4,0.015151253,0.0,-0.335261829,0.194099839,-9.126287329,-7.209999999999999e-21,960.6932598999999,12.09594764,0.0075476530000000005,-0.069326741,-0.007660101,-0.389389947,0.24293974699999998,-9.058544406000001,0.009797943,-0.067143998,-0.000689275,-7.209999999999999e-21,48.50025343,49.12577747,-1.20428101,-1.143316885,10.219695800000002,10.21864911,2.1e-05,-0.633490423,-0.207327624,185.0859059,149273543.5,6620172,448.8585334,12.08412202,96048.52824,1.141215447,0.147785701,-0.514955531,0.01810848,0.014707487,-0.056322952,-0.001189962,0.008612775,0.112429902,-1.579748475,0.702643919,0.04293269,0.036496593,-0.709306102,0.028134008,398688589.2,327343836.1,447929.1356,10.29236777,-0.19999999,-10.29412282,1.9153509999999998,4.692071133,0,0,0.0,39.8714138,32.7364368,-284.08521460000003,-176.4115849,-47.71063503,-0.197138619,-10.38649284,1.946447527,-0.039268199,-0.376487994,0.7423977270000001,-1.595855814,47.83175867,0.018870501,0.33789653799999997,-0.0028856059999999998,0.0370225,150245291,0,0,0,0,1
4025,150285027,0.003383465,0.609576149,0.030287941000000002,0.02640371,1.0,1515.0,2000.0,1020.0,1497.325865,1501.674135,1811.0,10.19036439,10.41337272,10.23190156,10.29756624,10.52295015,10.53073867,10.76122195,,,65.30589579,65.30589579,12.09653545,-0.00067167,-0.005813363,4.210000000000001e-05,-0.256582579,0.174049591,-0.011927958,2.0,8.467093419,9.467093419,11,0,0,1,0,0.0,0,0,0,0,0,0.008206620999999999,0.104605247,-1.5794325580000002,-1.574516234,0.146949531,336.8551575,29.74272441,-0.007823527,0.4,0.015137946000000001,0.0,-0.33929662299999996,0.19879242100000002,-9.159565181,-7.209999999999999e-21,960.6993042000001,12.09639001,0.014622056000000001,-0.06797956599999999,-0.001793061,-0.26685087,0.17462833100000003,-9.194030343,0.010344571,-0.060837495,0.001510036,-7.209999999999999e-21,48.45060407,49.08425073,-1.201588806,-1.181403435,10.21966707,10.21187444,0.00015588899999999998,-0.6078938629999999,-0.207364785,185.0649784,149309707.5,6620172,448.8398539,12.08429018,96048.77468999999,1.1412183329999999,-0.006785227,-0.106881028,-0.04760033599999999,0.011223712,-0.048236059000000005,-0.003466366,0.008646068,0.114042445,-1.579788351,0.702594862,0.043516754000000005,0.037050723,-0.709291124,0.031825915,398688588.5,327343792.3,447862.2863,10.30278568,-0.19999999,-10.29759552,1.9535506219999998,4.69201043,0,0,0.0,39.8714138,32.7364368,-284.09300160000004,-176.7932519,-47.63564764,-0.19807170000000002,-10.40163482,1.974979293,-0.042450097,-0.42544279100000004,0.7222565879999999,-1.5958631669999999,47.75677092,0.018105385,0.342896983,-0.002563499,0.037433118,150285027,0,0,0,0,1
4026,150330815,0.003038287,0.617514076,0.030597173,0.03326519,1.0,1515.0,2000.0,1036.0,1499.219644,1499.780356,1817.0,10.19103005,10.41413949,10.24261876,10.30846744,10.53405172,10.54800908,10.77883134,,,65.57986764,65.57986764,12.09699684,-0.000671575,-0.005813709,4.24e-05,-0.256583541,0.174057987,-0.012018053999999999,2.0,8.469693938999999,9.469693938999999,11,0,0,1,0,0.0,0,0,0,0,0,0.00828383,0.104952469,-1.579472762,-1.574517294,0.148301924,336.4891275,29.77520051,-0.007815594,0.4,0.015123465,0.0,-0.34238590799999996,0.201520488,-9.191304797999999,-7.209999999999999e-21,960.7049178,12.0968368,0.010394131,-0.059196615,-0.001147604,-0.34970013200000005,0.21208191199999998,-9.158982176,0.010758775,-0.055910697,0.0026381309999999997,-7.209999999999999e-21,48.40150989,49.03962715,-1.1975093490000002,-1.216447474,10.21965329,10.20670228,0.00025905,-0.5804654920000001,-0.20740261,185.0431234,149346362.9,6620172,448.9216596,12.08449468,96047.78678,1.141206605,0.018589849,0.150846636,-0.178180425,0.004036464,-0.044590847,0.004308188,0.008663136,0.111614887,-1.5798365419999998,0.702629238,0.042663085999999996,0.036190397,-0.709353208,0.02262089,398688587.8,327343749.0,447794.3153,10.31427185,-0.20106820399999997,-10.30427285,1.9848068669999999,4.6918751610000005,0,0,0.0,39.8714138,32.7364368,-284.1006885,-177.16921000000002,-47.56140711,-0.19887106899999998,-10.41686675,2.002311589,-0.04439064,-0.46689992799999996,0.6967698170000001,-1.595864641,47.68253026,0.01760502,0.33983087700000003,-0.002342377,0.023314476,150330815,0,0,0,0,1
4027,150365788,0.001492826,0.620562849,0.030730212000000003,0.028804242999999997,1.0,1515.0,2000.0,1030.0,1498.7651529999998,1500.2348470000002,1818.0,10.17285613,10.39545,10.25333595,10.31936864,10.54515329,10.56527948,10.79644073,,,65.8538395,65.8538395,12.09745823,-0.00067148,-0.005814055,4.26e-05,-0.256584503,0.174066382,-0.012108148999999999,2.0,8.472294459,9.472294459,11,0,0,1,0,0.0,0,0,0,0,0,0.008361039,0.105299691,-1.5795129669999999,-1.574518354,0.149654316,336.12309750000003,29.80767661,-0.007809183000000001,0.4,0.01511688,0.0,-0.341843405,0.196702668,-9.217135906000001,-7.209999999999999e-21,960.7088766,12.09730055,0.005394876999999999,-0.053751125999999996,0.001278218,-0.371292998,0.34635093200000006,-9.248433732,0.010664327,-0.056283475,-0.000348416,-7.209999999999999e-21,48.35241572,48.99500357,-1.193429893,-1.251491512,10.21963951,10.20153011,0.000362212,-0.55303712,-0.20744043399999998,185.02126850000002,149383018.2,6620172,448.81731669999994,12.08469524,96049.00553,1.141221132,-0.023866664,0.276489266,0.037886161,0.010838563999999998,-0.048317787,0.00250472,0.008739769,0.115990618,-1.579845317,0.702530161,0.044241302,0.037700948,-0.709276197,0.034871053,398688587.1,327343706.8,447723.8196,10.32816263,-0.2045409,-10.31816363,2.00043401,4.691572047,0,0,0.0,39.8714138,32.7364368,-284.1079912,-177.52323909999998,-47.49003537,-0.199156836,-10.43244421,2.0250366090000003,-0.041563022000000005,-0.47955783799999996,0.650749958,-1.595843539,47.61115922,0.017302591000000003,0.343045417,-0.002229086,0.020994607000000002,150365788,0,0,0,0,1
4028,150402169,0.005274867,0.623031722,0.030988263999999998,0.020932823,1.0,1515.0,2000.0,1037.0,1498.3106619999999,1500.6893380000001,1818.0,10.25838474,10.48282801,10.26405314,10.33026985,10.55625487,10.58254989,10.81405013,,,66.12781135,66.12781135,12.09791962,-0.0006713839999999999,-0.005814402,4.28e-05,-0.25658546600000004,0.174074778,-0.012198245,2.0,8.474894979,9.474894979,11,0,0,1,0,0.0,0,0,0,0,0,0.008438247,0.10564691300000001,-1.579553171,-1.574519415,0.15100670900000002,335.7570675,29.84015272,-0.007800873000000001,0.4,0.015096652,0.0,-0.341300901,0.191884849,-9.242967014,-7.209999999999999e-21,960.7128355000001,12.097764300000001,0.006599539000000001,-0.059875658,0.002061763,-0.35008415299999995,0.18333808899999998,-9.243317631,0.010569878999999999,-0.056656253,-0.003334963,-7.209999999999999e-21,48.30332154,48.95037998,-1.189350437,-1.2865355509999998,10.21962573,10.19635794,0.00046537300000000005,-0.525608748,-0.207478258,184.9994135,149419673.5,6620172,448.81791560000005,12.08492793,96048.99958999999,1.1412209340000001,0.372640697,-0.44613664799999997,0.769111573,0.008588667,-0.036130222999999996,0.002053596,0.008766334,0.115719596,-1.579894161,0.7025181629999999,0.044155478,0.037595198999999996,-0.709298953,0.032271873,398688586.4,327343664.6,447653.3239,10.34205341,-0.208013597,-10.33205441,2.016061152,4.691268933,0,0,0.0,39.8714138,32.7364368,-284.1152939,-177.87726830000003,-47.41866363,-0.199442603,-10.44802166,2.047761629,-0.038735405,-0.49221574700000004,0.604730099,-1.5958224369999998,47.53978819,0.016837024,0.35305717,-0.002025607,0.029524371,150402169,0,0,0,0,1
4029,150434550,-0.00010483700000000001,0.63393985,0.030813392999999998,0.035939324,1.0,1515.0,2000.0,1037.0,1500.0,1499.0,1820.0,10.29429639,10.51949583,10.27477033,10.34117105,10.56735644,10.599820300000001,10.83165952,,,66.40178320000001,66.40178320000001,12.09838101,-0.0006712889999999999,-0.005814748000000001,4.31e-05,-0.25658642800000003,0.174083173,-0.01228834,2.0,8.477495499,9.477495499,11,0,0,1,0,0.0,0,0,0,0,0,0.008515456,0.105994136,-1.579593376,-1.574520475,0.152359102,335.3910375,29.87262882,-0.007792144,0.4,0.01507954,0.0,-0.34867719,0.20172254899999997,-9.276311379,-7.209999999999999e-21,960.7203168,12.09827689,0.007666904,-0.051726588,-0.0006994089999999999,-0.386542906,0.18179025,-9.254776405,0.009698613,-0.05461098599999999,-0.005216836,-7.209999999999999e-21,48.25422737,48.9057564,-1.18527098,-1.3215795890000002,10.21961195,10.19118577,0.000568535,-0.49818037600000004,-0.20751608300000002,184.97755859999998,149458274.1,6620172,448.7360357,12.08517701,96049.97472,1.141232528,0.128667702,0.180845363,-0.118379593,0.008228289,-0.034189252999999996,0.001614043,0.008794971,0.112947028,-1.579941384,0.70256088,0.043183562,0.036609595,-0.709368036,0.021552777999999998,398688585.7,327343622.4,447582.8282,10.35594419,-0.21148629300000002,-10.34594519,2.031688295,4.690965819,0,0,0.0,39.8714138,32.7364368,-284.1227807,-178.2430871,-47.34420466,-0.199925447,-10.46439154,2.069770841,-0.036363116,-0.49312554299999994,0.565131925,-1.595778745,47.46532926,0.01648735,0.34998781100000004,-0.0018394239999999999,0.016996458,150434550,0,0,0,0,1
4030,150470931,0.001889517,0.635917162,0.03079646,0.030933052000000003,1.0,1515.0,2000.0,1023.0,1499.0,1500.0,1819.0,10.28412149,10.50908609,10.28548753,10.35207225,10.57845801,10.617090699999999,10.84926891,,,66.67575505,66.67575505,12.0988424,-0.000671193,-0.005815094,4.33e-05,-0.25658739,0.17409156899999997,-0.012378435,2.0,8.480096019,9.480096019,11,0,0,1,0,0.0,0,0,0,0,0,0.008592665,0.10634135800000001,-1.57963358,-1.574521535,0.153711494,335.02500739999994,29.90510492,-0.00778282,0.4,0.015076814,0.0,-0.369112957,0.23572977399999998,-9.322046422,-7.209999999999999e-21,960.7336072999999,12.09887001,0.005612356,-0.041781038,0.003970882,-0.38748832200000005,0.21021499800000001,-9.326842695,0.007546236,-0.048577939,-0.005276906,-7.209999999999999e-21,48.20513319,48.86113282,-1.1811915240000002,-1.3566236280000001,10.21959817,10.186013599999999,0.0006716960000000001,-0.470752004,-0.20755390699999998,184.9557036,149492984.2,6620172,448.7194496999999,12.0854265,96050.10596,1.141234098,0.24092628,0.203319919,-0.10182315900000001,0.007840926,-0.02684333,0.004904505,0.008731038,0.113579969,-1.579966624,0.702539255,0.043385927000000005,0.03685415,-0.7093634879999999,0.020999174,398688585.0,327343580.2,447512.3325,10.36983497,-0.214958989,-10.35983597,2.047315438,4.690662704,0,0,0.0,39.8714138,32.7364368,-284.13057119999996,-178.6283489,-47.26465431,-0.20073330399999997,-10.48206825,2.090599561,-0.034741742,-0.474660641,0.536124236,-1.595697801,47.38577785,0.016204739,0.36250712700000004,-0.0016721420000000002,0.03176479,150470931,0,0,0,0,1
4031,150514624,0.002081529,0.63769292,0.030513057000000003,0.0370225,1.0,1515.0,2000.0,1014.7393480000001,1498.0,1501.0,1819.158432,10.33881667,10.56491534,10.29620472,10.36297346,10.58955958,10.63436111,10.86687831,,,66.94972691,66.94972691,12.09930379,-0.0006710980000000001,-0.00581544,4.36e-05,-0.256588352,0.174099964,-0.012468531000000001,2.0,8.482696538999999,9.482696538999999,11,0,0,1,0,0.0,0,0,0,0,0,0.008626694,0.106841387,-1.579671183,-1.5745226019999998,0.155063883,334.65538119999997,29.94853333,-0.007773370999999999,0.4,0.015064348,0.0,-0.38954872399999996,0.269736999,-9.367781464,-7.209999999999999e-21,960.7468978,12.09946314,0.011146316000000002,-0.040773572,0.006883757,-0.329800019,0.18016222899999998,-9.417228651,0.005393859,-0.042544892,-0.005336975999999999,-7.209999999999999e-21,48.15160211,48.80561376,-1.178490365,-1.391896562,10.21958997,10.19277478,0.000536306,-0.438937026,-0.20759609399999998,184.9316756,149529639.5,6620172,448.7194249,12.08568838,96050.13746,1.1412345320000001,0.22302127,0.737666006,0.329566778,0.008509728000000001,-0.028504107,0.000370385,0.008691424,0.11654143900000001,-1.579995896,0.702465748,0.044422419000000005,0.03790833,-0.709317622,0.028141596,398688584.3,327343538.1,447441.8368,10.38372575,-0.218431686,-10.37372675,2.0629425809999997,4.69035959,0,0,0.0,39.8714138,32.7364368,-284.1383617,-179.0136108,-47.18510396,-0.20154116100000002,-10.49974497,2.111428281,-0.033120369,-0.45619573799999996,0.5071165470000001,-1.595616856,47.30622644,0.015962658,0.366079515,-0.001538963,0.032943755,150514624,0,0,0,0,1
4032,150547693,-0.001215255,0.6412949579999999,0.030425169,0.037433118,1.0,1515.0,2000.0,1029.0,1499.0,1500.0,1824.0,10.47344188,10.70245096,10.30692191,10.37387466,10.60066115,10.65163151,10.8844877,,,67.22369876,67.22369876,12.09976518,-0.000671003,-0.005815786,4.3799999999999994e-05,-0.256589314,0.174108359,-0.012558626000000002,2.0,8.485297059,9.485297059,11,0,0,1,0,0.0,0,0,0,0,0,0.008611488,0.107515655,-1.57970582,-1.5745236759999999,0.156416267,334.2816543,30.00445003,-0.007765384,0.4,0.015049136000000001,0.0,-0.388888411,0.267031992,-9.419871221000001,-7.209999999999999e-21,960.7611285,12.09999733,0.009555372,-0.033570405,0.008638493,-0.35077121299999997,0.191021336,-9.428026042,0.006276189000000001,-0.038654189,-0.0030373379999999997,-7.209999999999999e-21,48.09724401,48.74806386,-1.176046114,-1.427212161,10.21958282,10.20176027,0.000356451,-0.40630440799999995,-0.207639094,184.9072425,149569912.4,6620172,448.7066461,12.08595505,96050.28794,1.1412363220000001,0.618322955,0.154485602,0.6603417420000001,0.004270124,-0.026351475,0.00173114,0.008605325,0.114544483,-1.5800429530000002,0.702494524,0.043685138,0.037236065,-0.7093703729999999,0.019611032,398688583.6,327343495.2,447368.4845,10.399521,-0.21619123699999998,-10.3895219,2.080474095,4.690638198,0,0,0.0,39.8714138,32.7364368,-284.1460708,-179.3833074,-47.1080741,-0.202635898,-10.5179528,2.12969802,-0.039715041,-0.46001459100000003,0.498788874,-1.59551393,47.22919649,0.015608698999999998,0.361864501,-0.001359577,0.020220428999999998,150547693,0,0,0,0,1
4033,150584074,0.00028354599999999997,0.638167675,0.030940949,0.023314476,1.0,1515.0,2000.0,1016.305661,1499.0,1500.0,1822.0382079999997,10.43899154,10.66719875,10.317639100000001,10.38477586,10.61176272,10.66890192,10.90209709,,,67.49767061,67.49767061,12.10022657,-0.000670907,-0.005816133,4.4e-05,-0.256590277,0.174116755,-0.012648722,2.0,8.48789758,9.48789758,11,0,0,1,0,0.0,0,0,0,0,0,0.008596280999999999,0.10818992300000001,-1.579740457,-1.57452475,0.15776865199999998,333.90792739999995,30.06036674,-0.007755508,0.4,0.01504016,0.0,-0.370854856,0.234093384,-9.47719427,-7.209999999999999e-21,960.7761332999999,12.100483,0.001069787,-0.036644531,0.0010263689999999998,-0.38425762399999996,0.242678996,-9.405522942000001,0.009657688000000001,-0.036527767999999995,0.001205589,-7.209999999999999e-21,48.04288591,48.69051395,-1.173601862,-1.462527759,10.21957567,10.21074576,0.000176595,-0.37367179100000003,-0.20768209399999998,184.8828094,149602950.2,6620172,448.5225448,12.08625368,96052.40527,1.1412614429999999,0.129793472,0.230123015,-0.00751745,-0.000270702,-0.01679588,-0.000870164,0.008480329,0.111498481,-1.580090284,0.7025456409999999,0.042562195,0.036208921,-0.7094412729999999,0.008317061,398688582.9,327343451.8,447292.7798,10.41688465,-0.209245846,-10.40688538,2.099573915,4.69139587,0,0,0.0,39.8714138,32.7364368,-284.1537128,-179.7401855,-47.03311993,-0.203966888,-10.53659803,2.145860361,-0.053075867,-0.482184771,0.507491803,-1.5953929009999999,47.15424303,0.015567532,0.373940855,-0.00128135,0.03474556,150584074,0,0,0,0,1
4034,150620454,0.0033102459999999998,0.63821948,0.030421221000000002,0.014345288000000001,1.0,1515.0,2000.0,1031.0,1499.416283,1499.583717,1826.0,10.39918541,10.6264737,10.328356300000001,10.39567707,10.622864300000002,10.68617232,10.91970649,,,67.77164246,67.77164246,12.10068796,-0.0006708689999999999,-0.005816526999999999,4.4e-05,-0.256592995,0.17412337100000003,-0.012756179,2.0,8.4904981,9.4904981,11,0,0,1,0,0.0,0,0,0,0,0,0.008581075,0.10886419,-1.579775093,-1.574525825,0.159121036,333.5342005,30.11628345,-0.007744706999999999,0.4,0.01504009,0.0,-0.35282130100000003,0.201154775,-9.534517318999999,-7.209999999999999e-21,960.7911381000001,12.10096867,0.003684126,-0.027972554,-0.004053421,-0.32169919199999997,0.153684283,-9.431793539,0.013039188,-0.034401348,0.005448515,-7.209999999999999e-21,47.98852782,48.63296404,-1.171157611,-1.4978433580000001,10.21956852,10.21973125,-3.26e-06,-0.341039173,-0.20772509399999997,184.8583763,149639605.5,6620172,448.4696437,12.08654449,96053.01146000001,1.141268669,0.246894665,0.206615275,0.210867367,0.007612877,-0.013275542,0.00068995,0.008471781,0.116658089,-1.58009806,0.7024318420000001,0.044388565,0.038024952,-0.7093470620000001,0.023897206,398688582.2,327343408.4,447217.075,10.43424829,-0.20230045600000002,-10.42424885,2.118673735,4.692153543,0,0,0.0,39.8714138,32.7364368,-284.1613549,-180.09706369999998,-46.95816577,-0.205297879,-10.55524325,2.162022702,-0.066436693,-0.504354951,0.516194733,-1.5952718730000002,47.07928957,0.015560892,0.375796845,-0.001253418,0.03355755,150620454,0,0,0,0,1
4035,150653671,0.000184825,0.648409149,0.030810703999999998,0.029524371,1.0,1515.0,2000.0,1032.0,1499.870774,1499.129226,1827.0,10.58301531,10.81425133,10.33907349,10.40657827,10.63396587,10.70344273,10.93731588,,,68.04561431,68.04561431,12.10114935,-0.0006708539999999999,-0.005816941,4.3799999999999994e-05,-0.25659641,0.17412928100000002,-0.012870525,2.0,8.49309862,9.49309862,11,0,0,1,0,0.0,0,0,0,0,0,0.008565868,0.109538458,-1.57980973,-1.574526899,0.16047342,333.1604736,30.17220016,-0.0077360580000000005,0.4,0.015032883,0.0,-0.34415177399999997,0.18222877,-9.570722802,-7.209999999999999e-21,960.7979561000001,12.10146197,0.004867782,-0.026974489,-0.002739089,-0.348210611,0.229112024,-9.454469061000001,0.011247476999999999,-0.028798107000000003,0.003667225,-7.209999999999999e-21,47.93416972,48.57541414,-1.16871336,-1.533158957,10.21956136,10.22871674,-0.000183115,-0.308406556,-0.207768094,184.8339432,149676260.9,6620172,448.6056568,12.08684499,96051.46105,1.141250268,-0.13311730900000002,-0.246340733,0.333060872,0.0061535290000000005,-0.009242726,0.002960956,0.00842531,0.116252831,-1.5801445,0.702425251,0.044229455,0.037898003,-0.7093702740000001,0.021222942999999998,398688581.5,327343365.0,447141.3703,10.45161194,-0.195355065,-10.44161232,2.137773555,4.692911215,0,0,0.0,39.8714138,32.7364368,-284.16946980000006,-180.4767074,-46.8778047,-0.20575846899999997,-10.57635319,2.177015388,-0.044409417,-0.537818937,0.457759783,-1.595201034,46.9989287,0.015289986,0.371430644,-0.001097577,0.022308946,150653671,0,0,0,0,1
4036,150697216,0.000193269,0.6469464629999999,0.03079756,0.022263502999999997,1.0,1514.674735,2000.0,1020.0,1500.0,1499.0,1824.0,10.52526651,10.75517356,10.34979068,10.41747947,10.64506744,10.72071314,10.95492527,,,68.31958617,68.31958617,12.10161074,-0.000670838,-0.005817354,4.36e-05,-0.256599825,0.17413519100000002,-0.012984871,2.0,8.49569914,9.49569914,11,0,0,1,0,0.0,0,0,0,0,0,0.008550661999999999,0.110212726,-1.5798443659999999,-1.5745279730000001,0.161825805,332.78674680000006,30.22811687,-0.007728001,0.4,0.015031000000000001,0.0,-0.339136502,0.168771098,-9.598687282,-7.209999999999999e-21,960.8015791000001,12.10195824,0.003117102,-0.022259136000000002,0.00169114,-0.335180253,0.239230528,-9.561205862000001,0.0074369530000000005,-0.021838059,-0.000464979,-7.209999999999999e-21,47.88038319,48.51793793,-1.166837605,-1.567795915,10.21954987,10.23813865,-0.000371786,-0.276230192,-0.207810837,184.81020469999999,149712916.2,6620172,448.4724452,12.08716549,96052.98041,1.141268369,-0.20472916100000002,0.35443745600000004,-0.32904073300000003,0.006585415,-0.003194471,0.004742019,0.008346351,0.116074101,-1.580176976,0.702418887,0.044138944000000006,0.037862464,-0.709383048,0.019216246,398688580.8,327343321.6,447065.6655,10.46897558,-0.18840967399999997,-10.458975800000001,2.156873375,4.693668888,0,0,0.0,39.8714138,32.7364368,-284.1777693,-180.86523540000002,-46.79533362,-0.205879392,-10.59842496,2.191551623,-0.00857215,-0.575690261,0.37312468600000004,-1.59514978,46.91645762,0.014826803999999999,0.377977757,-0.0009558310000000001,0.027339116,150697216,0,0,0,0,1
4037,150729597,0.000537786,0.653142339,0.030824262,0.03176479,1.0,1515.0,2000.0,1034.0,1499.0,1500.0,1828.0,10.51391303,10.74353372,10.36050787,10.42838067,10.65616901,10.73798354,10.97253467,,,68.59355802,68.59355802,12.10207213,-0.0006708230000000001,-0.005817768,4.34e-05,-0.25660324,0.1741411,-0.013099218000000001,2.0,8.49829966,9.49829966,11,0,0,1,0,0.0,0,0,0,0,0,0.008535455,0.110886993,-1.579879003,-1.574529048,0.163178189,332.41301989999994,30.28403358,-0.007714822,0.4,0.015024561,0.0,-0.33412123,0.155313426,-9.626651763,-7.209999999999999e-21,960.8052021999999,12.10245451,0.006651779,-0.015731921,0.006398193000000001,-0.343630282,0.20757132399999997,-9.551659959,0.0036264279999999997,-0.014878011000000002,-0.0045971829999999995,-7.209999999999999e-21,47.83121679,48.46105751,-1.169557202,-1.596947194,10.219503300000001,10.25108835,-0.00063171,-0.247741883,-0.20785150100000002,184.7920809,149749571.5,6620172,448.5063509,12.08746695,96052.5733,1.14126342,0.083283563,-0.747542286,-0.258872757,0.012937421000000001,0.000111657,0.00184213,0.008330089,0.12001495400000001,-1.580197501,0.7023248529999999,0.04553070099999999,0.039252457000000004,-0.7093137079999999,0.030806427999999997,398688580.1,327343278.2,446989.9608,10.48633923,-0.181464283,-10.47633927,2.175973195,4.69442656,0,0,0.0,39.8714138,32.7364368,-284.1860688,-181.2537633,-46.71286255,-0.206000314,-10.62049673,2.206087858,0.027265117000000002,-0.6135615839999999,0.288489589,-1.595098527,46.83398655,0.014562641000000001,0.380218915,-0.000851157,0.028220907000000003,150729597,0,0,0,0,1
4038,150761978,0.000779893,0.6549951,0.030613855,0.032943755,1.0,1515.0,2000.0,1030.0,1498.234247,1500.765753,1828.0,10.4371198,10.66509381,10.37122507,10.43928188,10.66727058,10.75525395,10.99014406,,,68.86752987,68.86752987,12.10253352,-0.0006708069999999999,-0.0058181809999999995,4.3200000000000007e-05,-0.256606655,0.17414701,-0.013213563999999999,2.0,8.50090018,9.50090018,11,0,0,1,0,0.0,0,0,0,0,0,0.008520249,0.111561261,-1.57991364,-1.5745301219999999,0.164530573,332.03929300000004,30.33995028,-0.007706245,0.4,0.015005171000000001,0.0,-0.33095546800000003,0.135856582,-9.68214925,-7.209999999999999e-21,960.8157636,12.10295047,0.007691921,-0.011758339,0.005694239,-0.372030617,0.183241458,-9.647797446,0.003925307,-0.010029151,-0.002961589,-7.209999999999999e-21,47.782050399999996,48.40417708,-1.172276799,-1.626098474,10.21945672,10.26403805,-0.000891635,-0.219253573,-0.207892165,184.77395719999998,149786226.8,6620172,448.3717165,12.08780131,96054.16249,1.141282365,0.464294892,0.334382335,0.354540626,0.007372935,-0.00144161,0.007490389,0.008210199,0.11863567400000001,-1.5802431869999998,0.7023422640000001,0.04500054,0.038809345,-0.7093545590000001,0.024096352,398688579.5,327343233.6,446910.6933,10.50644329,-0.182740538,-10.49370274,2.188221644,4.694347215,0,0,0.0,39.8714138,32.7364368,-284.1935942,-181.61748319999998,-46.63509254,-0.20572130600000002,-10.64047914,2.215078127,0.03501764,-0.60460506,0.257385248,-1.594995889,46.75621717,0.014071104,0.375899954,-0.0007415260000000001,0.017651912,150761978,0,0,0,0,1
4039,150798359,0.00026099799999999997,0.649427023,0.030634319,0.020220428999999998,1.0,1514.0,2000.0,1022.0,1499.0,1500.0,1824.0,10.48817853,10.71723178,10.38415156,10.45246104,10.68069882,10.77224337,11.00746519,,,69.10705224,69.10705224,12.10300474,-0.000670792,-0.005818595,4.3e-05,-0.25661007,0.17415292,-0.013327911000000001,2.0,8.5035007,9.5035007,11,0,0,1,0,0.0,0,0,0,0,0,0.008505041999999999,0.112235528,-1.5799482759999999,-1.574531196,0.165882957,331.66556610000004,30.39586699,-0.007697723,0.4,0.014995501999999999,0.0,-0.328017808,0.115659854,-9.741042416,-7.209999999999999e-21,960.8271807,12.10344639,0.0038147309999999996,-0.011446141000000002,0.008184087,-0.440707608,0.189488622,-9.651380261,0.0047310040000000005,-0.005440665999999999,-0.0006146459999999999,-7.209999999999999e-21,47.73288401,48.34729666,-1.1749963959999998,-1.655249753,10.21941015,10.27698775,-0.00115156,-0.19076526300000002,-0.20793283,184.7558334,149822882.2,6620172,448.2956616,12.08815037,96055.00521,1.141292412,0.42939705200000006,-0.154788553,0.327295142,0.004344149,0.0024156439999999998,0.002633477,0.008057994,0.11578151800000001,-1.5802889930000001,0.702392283,0.043936088,0.037859495,-0.709422995,0.012405814,398688578.8,327343188.8,446830.4741,10.52727946,-0.186213233,-10.51106621,2.1986397280000003,4.694044257,0,0,0.0,39.8714138,32.7364368,-284.2010242,-181.97814350000002,-46.55790231,-0.20539297399999998,-10.66020386,2.223384406,0.039306438,-0.5898732,0.23288292100000002,-1.5948869140000002,46.67902765,0.013652885,0.37106886,-0.00064738,0.007895321,150798359,0,0,0,0,1
4040,150830740,0.00237146,0.657346719,0.030430607000000002,0.03474556,1.0,1514.0,2000.0,1027.0,1499.0,1500.0,1826.0,10.61403857,10.84576299,10.40336974,10.47212745,10.700753,10.78843258,11.02396538,,,69.24846848,69.24846848,12.10350394,-0.000670777,-0.0058190080000000005,4.28e-05,-0.256613485,0.17415883,-0.013442256999999999,2.0,8.50610122,9.50610122,11,0,0,1,0,0.0,0,0,0,0,0,0.008489836,0.11290979599999999,-1.579982913,-1.57453227,0.16723534199999998,331.2918392,30.4517837,-0.007689933,0.4,0.014991347,0.0,-0.324229715,0.098753886,-9.798561202,-7.209999999999999e-21,960.8384258,12.103943,-0.000192575,-0.011339925,0.005218588,-0.444592721,0.22314072199999999,-9.686645919,0.005360983000000001,-0.001306934,0.001717757,-7.209999999999999e-21,47.68371762,48.29041623,-1.177715993,-1.6844010319999998,10.21936358,10.28993744,-0.001411485,-0.162276953,-0.20797349399999998,184.7377096,149859537.5,6620172,448.2247374,12.08848595,96055.85381,1.141302509,0.364836995,0.215774787,-0.39458187200000006,0.008553271,0.005671679000000001,-0.000546595,0.008072886,0.120348341,-1.5802956240000001,0.70228836,0.045560496,0.039458568,-0.70933643,0.02534812,398688578.1,327343144.1,446750.2549,10.54811562,-0.189685927,-10.52842969,2.2090578119999997,4.693741299,0,0,0.0,39.8714138,32.7364368,-284.2084788,-182.3407741,-46.48025533,-0.205084745,-10.68005512,2.231506542,0.042048637,-0.577537317,0.20485150300000002,-1.594777015,46.60138131,0.013505538000000001,0.38182924799999995,-0.000575668,0.023953195,150830740,0,0,0,0,1
4041,150863121,0.004064379,0.658329051,0.030808414,0.035572097000000004,1.0,1514.0,2000.0,1028.0,1500.0,1499.0,1826.59772,10.50828012,10.73761853,10.42258793,10.49179385,10.72080718,10.804621800000001,11.04046558,,,69.38988472,69.38988472,12.10400315,-0.0006707610000000001,-0.0058194219999999994,4.26e-05,-0.2566169,0.17416474,-0.013556603,2.0,8.50870174,9.50870174,11,0,0,1,0,0.0,0,0,0,0,0,0.008474629000000001,0.113584064,-1.5800175490000001,-1.574533345,0.16858772600000002,330.9181124,30.50770041,-0.007681617,0.4,0.014980341999999999,0.0,-0.30737801,0.132397665,-9.834967976,-7.209999999999999e-21,960.8470292999999,12.10445023,-0.001843175,-0.013005025,-0.005578248,-0.359337047,0.200070075,-9.735971752000001,0.003291724,-0.00415871,0.003826795,-7.209999999999999e-21,47.63455123,48.23353581,-1.18043559,-1.713552311,10.219317,10.30288714,-0.00167141,-0.133788643,-0.208014158,184.7195858,149899558.3,6620172,448.310736,12.08885929,96054.85243,1.141290537,0.44758830200000005,0.5490695870000001,0.60572599,0.003376401,0.007531854,0.004322971,0.007936852,0.12036485300000001,-1.580341304,0.7022749090000001,0.045519477999999995,0.03951158,-0.709349483,0.023539743,398688577.4,327343099.3,446670.0356,10.56895179,-0.193158622,-10.54579316,2.219475895,4.693438341,0,0,0.0,39.8714138,32.7364368,-284.2163117,-182.7336709,-46.39559203,-0.205085325,-10.70185013,2.236800048,0.021033354,-0.602006287,0.12260931900000001,-1.5946529109999998,46.51671766,0.013199694,0.380746485,-0.000478325,0.020698741,150863121,0,0,0,0,1
4042,150899502,-0.000468791,0.648707409,0.029364274,0.022308946,1.0,1515.0,2000.0,1015.0,1499.94779,1499.05221,1828.0,10.59293777,10.82410017,10.44180611,10.51146025,10.74086137,10.82081101,11.05696577,,,69.53130095,69.53130095,12.10450235,-0.0006707460000000001,-0.005819835,4.24e-05,-0.256620316,0.17417065,-0.01367095,2.0,8.51130226,9.51130226,11,0,0,1,0,0.0,0,0,0,0,0,0.008459423,0.11425833099999999,-1.5800521859999999,-1.5745344190000001,0.16994011,330.5443855,30.56361712,-0.007674907,0.4,0.01498125,0.0,-0.290526305,0.166041444,-9.871374751,-7.209999999999999e-21,960.8556328,12.10495746,-0.001492841,0.000689088,0.003935363,-0.371486429,0.22965492899999998,-9.730248693,0.001222466,-0.007010486,0.005935833000000001,-7.209999999999999e-21,47.58561709,48.17430625,-1.180942337,-1.742620923,10.21928997,10.31511273,-0.0019164610000000002,-0.10548847,-0.20805479300000002,184.70306259999998,149935373.5,6620172,448.2248545,12.08920096,96055.83277000001,1.141302196,0.197915745,-0.295042117,0.14092923699999998,0.003250248,0.011995988,0.006661145,0.007918046,0.11802177300000001,-1.580386703,0.702311548,0.044683082,0.038694065,-0.709411365,0.013959417,398688576.7,327343054.5,446589.8164,10.58978796,-0.19663131600000003,-10.56315663,2.229893979,4.693135383,0,0,0.0,39.8714138,32.7364368,-284.22414460000005,-183.12656769999998,-46.31092873,-0.205085905,-10.72364513,2.242093555,1.8100000000000003e-05,-0.6264752570000001,0.040367135,-1.5945288080000002,46.432054,0.012907328999999999,0.386907693,-0.000409862,0.029334575,150899502,0,0,0,0,1
4043,150935882,0.00017912400000000001,0.646310971,0.029243288,0.013265684,1.0,1515.0,2000.0,1007.0,1500.0,1499.0,1826.0,10.66125903,10.89392144,10.4610243,10.53112665,10.76091555,10.83700023,11.07346597,,,69.67271719,69.67271719,12.10500155,-0.000670731,-0.005820249,4.22e-05,-0.256623731,0.17417656,-0.013785296,2.0,8.513902781,9.513902781,11,0,0,1,0,0.0,0,0,0,0,0,0.008444216,0.11493259900000001,-1.580086823,-1.5745354930000002,0.171292494,330.1706586,30.61953383,-0.00766446,0.4,0.01497609,0.0,-0.287736487,0.19248063899999998,-9.89334508,-7.209999999999999e-21,960.8630109999999,12.10546461,0.005114551,-0.00438189,0.001593211,-0.395094977,0.184137457,-9.829335481000001,-0.000831068,-0.0076029059999999996,0.0073051869999999994,-7.209999999999999e-21,47.53706628,48.11119954,-1.177796875,-1.7715530940000002,10.21929521,10.32614321,-0.002136963,-0.077498809,-0.20809538100000002,184.68918109999998,149973087.4,6620172,448.1699803,12.08957451,96056.48105,1.141309884,0.060658697000000004,0.5046542470000001,0.008016269,-0.000213697,0.017867981,-0.000138288,0.007831568,0.119293913,-1.580409093,0.70227686,0.045104148,0.039171133,-0.70939201,0.016464911000000002,398688576.0,327343009.7,446509.6179,10.61062412,-0.19999999,-10.58088418,2.2403120619999997,4.692844223,0,0,0.0,39.8714138,32.7364368,-284.23183969999997,-183.51288430000002,-46.22772614,-0.20494876,-10.745143400000002,2.246454715,-0.015721097,-0.644945872,-0.024591704,-1.5944055240000001,46.34885114,0.012746048000000001,0.388067668,-0.00032542599999999997,0.031149969,150935882,0,0,0,0,1
4044,150968263,2.8899999999999998e-05,0.653373882,0.029185423999999998,0.028220907000000003,1.0,1515.0,2000.0,1023.0,1499.0,1500.0,1829.0,10.6500535,10.88235161,10.48024248,10.55079306,10.78096973,10.85318944,11.08996616,,,69.81413343,69.81413343,12.10550076,-0.000670715,-0.005820662,4.1899999999999995e-05,-0.25662714600000003,0.17418246899999998,-0.013899642,2.0,8.516503301,9.516503301,11,0,0,1,0,0.0,0,0,0,0,0,0.00842901,0.11560686699999999,-1.5801214590000001,-1.574536568,0.17264487899999997,329.79693169999996,30.67545053,-0.0076540259999999995,0.4,0.014962284,0.0,-0.331488082,0.195074417,-9.867534297,-7.209999999999999e-21,960.8663336000001,12.10597149,0.0016237029999999998,0.007453083,-0.000361295,-0.398660461,0.25065985399999996,-9.80909853,-0.002832556,-0.0007174060000000001,0.006226363,-7.209999999999999e-21,47.48851547,48.04809284,-1.1746514129999999,-1.800485266,10.21930044,10.33717368,-0.002357466,-0.049509147999999996,-0.208135968,184.67529950000002,150007852.0,6620172,448.04223909999996,12.08995998,96057.93874,1.141327246,-0.12571462,-0.26223425300000003,0.254381133,0.00036307300000000005,0.027141482,-0.002225594,0.007680884,0.12209458,-1.58043964,0.7022066509999999,0.046044768,0.040207745,-0.709344105,0.024209704,398688575.3,327342966.1,446430.0932,10.63146029,-0.19999999,-10.61040208,2.250730146,4.6929351210000005,0,0,0.0,39.8714138,32.7364368,-284.2390788,-183.87742219999998,-46.14935816,-0.20435578100000001,-10.76565954,2.2477300369999997,-0.013997613,-0.643563395,-0.032346884,-1.594284955,46.27048316,0.012390711,0.381441965,-0.000314152,0.018634408999999998,150968263,0,0,0,0,1
4045,151005288,-0.002970115,0.658061062,0.030828217999999998,0.021913932,1.0,1515.0,2000.0,1020.0,1500.415683,1498.584317,1828.0,10.71005954,10.94366432,10.49946067,10.57045946,10.80102391,10.86937866,11.10646636,,,69.95554967,69.95554967,12.10599996,-0.0006707000000000001,-0.005821076,4.1700000000000004e-05,-0.25663056100000003,0.17418837899999998,-0.014013989,2.0,8.519103821,9.519103821,11,0,0,1,0,0.0,0,0,0,0,0,0.00839745,0.11620651300000001,-1.5801557069999999,-1.574537645,0.17399726699999998,329.42508219999996,30.73134414,-0.007646091999999999,0.4,0.014945698,0.0,-0.37523967700000005,0.19766819600000002,-9.841723513,-7.209999999999999e-21,960.8696562000001,12.10647837,0.001189242,0.007412484,-0.0011283460000000001,-0.330992498,0.235731579,-9.89974687,-0.004834045,0.006168094,0.00514754,-7.209999999999999e-21,47.43996466,47.98498613,-1.1715059509999999,-1.8294174369999998,10.21930567,10.34820416,-0.002577968,-0.021519486,-0.208176556,184.661418,150043011.8,6620172,448.0415001,12.09035089,96057.94902999999,1.141327269,0.34796535100000003,0.21167062,0.13948765400000002,0.004808578,0.021057576,-0.00012395,0.0075138769999999995,0.120340318,-1.580485444,0.702233929,0.045365109,0.039649705,-0.709392183,0.01687226,398688574.6,327342922.5,446350.5685,10.65229646,-0.19999999,-10.63991998,2.26114823,4.693026018,0,0,0.0,39.8714138,32.7364368,-284.24631789999995,-184.2419601,-46.07099017,-0.203762802,-10.78617569,2.24900536,-0.012274128999999998,-0.642180918,-0.040102064,-1.5941643859999999,46.19211517,0.012183618,0.375918195,-0.00027512099999999997,0.010246277,151005288,0,0,0,0,1
4046,151045025,-0.000834534,0.653438265,0.030269575,0.007895321,1.0,1515.0,2000.0,1013.0,1499.8701740000001,1499.1298259999999,1827.0,10.57564259,10.80620743,10.51867885,10.59012586,10.82107809,10.88556787,11.12296656,,,70.09696590000001,70.09696590000001,12.10649917,-0.000670684,-0.005821489,4.15e-05,-0.25663397600000004,0.17419428899999997,-0.014128335,2.0,8.521704341,9.521704341,11,0,0,1,0,0.0,0,0,0,0,0,0.008309584,0.11654923699999999,-1.580188616,-1.574538733,0.17534966800000001,329.05969680000004,30.78715819,-0.007640423,0.4,0.014940251000000002,0.0,-0.39894244,0.207313928,-9.856724758,-7.209999999999999e-21,960.8753617000001,12.107033099999999,0.002044393,0.010208374000000001,0.002207803,-0.34581525700000004,0.183867229,-9.886101585,-0.004957259,0.011195387,0.005610461,-7.209999999999999e-21,47.39141385,47.92187943,-1.168360488,-1.858349609,10.21931091,10.35923464,-0.00279847,0.006470175,-0.20821714300000002,184.6475365,150079469.5,6620172,447.8292546,12.09073794,96060.37725,1.141356246,0.454992199,0.324573895,-0.289769605,-0.005073659,0.030157876,0.0026360740000000004,0.007362883000000001,0.11762809699999999,-1.580530971,0.702281479,0.044351355,0.038749478999999996,-0.7094589790000001,0.006363707,398688573.9,327342878.9,446271.0438,10.67313263,-0.19999999,-10.66943789,2.271566313,4.693116916,0,0,0.0,39.8714138,32.7364368,-284.253782,-184.6195971,-45.98996446,-0.203312839,-10.80734914,2.248995393,-0.006247805,-0.632465242,-0.062447072,-1.594072261,46.11108918,0.011880149,0.386395871,-0.000203017,0.026614234,151045025,0,0,0,0,1
4047,151078812,0.0009332030000000001,0.660338626,0.03067315,0.023778276,1.0,1515.0,2000.0,1031.0,1499.0,1500.0,1830.6753350000001,10.61681445,10.84832243,10.53789704,10.60979227,10.84113227,10.90175709,11.13946675,,,70.23838214,70.23838214,12.10699837,-0.0006706689999999999,-0.005821903000000001,4.13e-05,-0.256637391,0.17420019899999997,-0.014242682,2.0,8.524304861000001,9.524304861000001,11,0,0,1,0,0.0,0,0,0,0,0,0.008221719,0.11689196,-1.5802215259999999,-1.574539822,0.176702069,328.6943113,30.84297225,-0.007631063,0.4,0.014937948000000001,0.0,-0.392938016,0.227408832,-9.932198881,-7.209999999999999e-21,960.8845978,12.10765874,0.008318014,0.011648558,-0.001216654,-0.320345112,0.146978275,-9.950537416,-0.002297355,0.013469298999999999,0.008357849,-7.209999999999999e-21,47.34286304,47.85877272,-1.165215026,-1.88728178,10.21931614,10.37026511,-0.003018972,0.034459837,-0.208257731,184.6336549,150116124.8,6620172,447.62761280000007,12.09115727,96062.70412000001,1.14138383,-0.035032165,0.094256287,0.480275963,0.003216186,0.029828817999999997,0.008058408000000001,0.007398610999999999,0.123027934,-1.5805383419999999,0.70215678,0.046278544000000005,0.040633426,-0.7093538859999999,0.02272619,398688573.2,327342835.4,446191.5191,10.69396879,-0.19999999,-10.69895579,2.281984397,4.693207814,0,0,0.0,39.8714138,32.7364368,-284.2615795,-185.0166436,-45.90500071,-0.20307478699999998,-10.82949655,2.24708096,0.006154215,-0.61040192,-0.106410435,-1.59402228,46.02612472,0.011916592,0.38287303100000003,-0.00022973200000000002,0.02205494,151078812,0,0,0,0,1
4048,151117787,-0.002022483,0.657320405,0.030672852,0.020698741,1.0,1514.0,2000.0,1026.0,1498.220844,1500.779156,1826.0,10.79941291,11.0349344,10.55711522,10.62945867,10.86118645,10.9179463,11.15596695,,,70.37979838,70.37979838,12.10749758,-0.0006706539999999999,-0.005822316,4.11e-05,-0.256640806,0.174206109,-0.014357028,2.0,8.526905381,9.526905381,11,0,0,1,0,0.0,0,0,0,0,0,0.008133853,0.117234684,-1.580254435,-1.57454091,0.17805447,328.32892589999994,30.8987863,-0.007621559,0.4,0.01492369,0.0,-0.386933591,0.247503737,-10.007672999999999,-7.209999999999999e-21,960.893834,12.10828438,-0.00715478,0.019429664,4.6299999999999994e-05,-0.37440798299999994,0.214063284,-9.974848384,0.000362549,0.01574321,0.011105238,-7.209999999999999e-21,47.29038092,47.78630145,-1.165943508,-1.915483745,10.21928158,10.39127163,-0.0034397940000000004,0.062544608,-0.20830167800000002,184.6240185,150152780.2,6620172,447.748209,12.09154644,96061.3031,1.141367152,-0.19362671,0.22003497,-0.474153301,0.0029591340000000004,0.034107431,0.0015661420000000002,0.007273645,0.122720574,-1.5805841969999999,0.702150417,0.046126632,0.040568732999999996,-0.709373822,0.020139731,398688572.5,327342791.8,446111.9944,10.71480496,-0.19999999,-10.72847369,2.29240248,4.693298712,0,0,0.0,39.8714138,32.7364368,-284.26937710000004,-185.4136902,-45.82003696,-0.202836735,-10.85164397,2.245166528,0.018556236,-0.588338597,-0.150373798,-1.593972299,45.94116026,0.011878505,0.377131382,-0.000225194,0.013525378999999999,151117787,0,0,0,0,1
4049,151154168,-0.000595343,0.658391488,0.030378926,0.022259469,1.0,1514.0,2000.0,1010.0,1499.233647,1499.766353,1822.0,10.64728102,10.87934124,10.576333400000001,10.64912507,10.88124064,10.93413552,11.17246714,,,70.52121461,70.52121461,12.10799678,-0.000670638,-0.00582273,4.09e-05,-0.256644221,0.174212019,-0.014471373999999999,2.0,8.529505901,9.529505901,11,0,0,1,0,0.0,0,0,0,0,0,0.008045987,0.117577407,-1.580287344,-1.5745419980000002,0.17940687100000002,327.96354039999994,30.95460036,-0.007612595,0.4,0.014903385,0.0,-0.38590525600000003,0.240466512,-10.02733757,-7.209999999999999e-21,960.9048147,12.10883579,0.00333757,0.013507078,0.008127307,-0.37517822700000003,0.202870453,-9.97384127,0.000793208,0.019391525,0.00997954,-7.209999999999999e-21,47.23573029999999,47.70866467,-1.168808863,-1.9432829269999998,10.21922506,10.41778093,-0.003971113,0.090681841,-0.208347477,184.6167236,150189435.5,6620172,447.6227941000001,12.09196545,96062.74668,1.1413844,0.072118586,-0.20951959399999998,0.205005253,0.004010027,0.034323806,-0.000176985,0.0070963530000000006,0.12025770599999999,-1.580629566,0.702194077,0.045192084,0.039765525,-0.709436107,0.010231671,398688571.8,327342747.9,446032.1876,10.73564108,-0.19999999,-10.75470089,2.2957691540000003,4.6933567730000005,0,0,0.0,39.8714138,32.7364368,-284.2767872,-185.7944831,-45.7388781,-0.202146888,-10.87211957,2.24137367,0.041015089,-0.583499958,-0.17358369699999998,-1.593870533,45.8600013,0.011611493999999998,0.382049691,-0.00018537099999999998,0.02248533,151154168,0,0,0,0,1
4050,151193097,-0.000212395,0.657353082,0.02926106,0.031149969,1.0,1514.0,2000.0,1025.0,1499.688138,1499.311862,1826.0,10.64725252,10.87935641,10.59555159,10.66879148,10.90129482,10.95032473,11.18896734,,,70.66263085,70.66263085,12.10849599,-0.0006706230000000001,-0.005823143,4.07e-05,-0.256647636,0.174217929,-0.014585721000000001,2.0,8.532106421,9.532106421,11,0,0,1,0,0.0,0,0,0,0,0,0.007958121,0.11792013,-1.580320254,-1.574543087,0.180759272,327.59815499999996,31.01041441,-0.007595309000000001,0.4,0.014890018999999999,0.0,-0.38857218200000004,0.213280873,-10.00555777,-7.209999999999999e-21,960.9170907,12.10933206,0.001401715,0.02516832,0.005815555,-0.34483535600000004,0.155300056,-10.02959854,-0.00043158,0.024060477,0.0059776740000000005,-7.209999999999999e-21,47.18107967,47.63102789,-1.171674217,-1.9710821090000001,10.21916854,10.44429024,-0.0045024309999999994,0.118819075,-0.208393277,184.60942880000002,150228439.3,6620172,447.56992130000003,12.09238546,96063.35651,1.141391601,0.353715541,-0.254464678,-0.20759321600000002,0.0017386629999999999,0.042391137,0.005237645,0.00695803,0.123445247,-1.5806424890000002,0.702120227,0.04627392599999999,0.040933843,-0.70937272,0.019082351,398688571.1,327342703.1,445951.6211,10.75647707,-0.19999999,-10.77206419,2.280142028,4.693326387,0,0,0.0,39.8714138,32.7364368,-284.2839097,-186.1632061,-45.66054475,-0.201121537,-10.89135368,2.236185886,0.07094218299999999,-0.59145243,-0.181381999,-1.5937303109999998,45.78166829999999,0.011403055,0.382058984,-0.000162441,0.024502665,151193097,0,0,0,0,1
4051,151230929,0.000826914,0.65000118,0.029465384,0.018634408999999998,1.0,1514.0,2000.0,1022.0,1499.0,1500.0,1825.0,10.772428,11.00713254,10.61476977,10.68845788,10.921349000000001,10.96651395,11.20546753,,,70.80404709,70.80404709,12.10899519,-0.0006706069999999999,-0.005823556999999999,4.05e-05,-0.256651051,0.17422383800000002,-0.014700066999999999,2.0,8.534706941,9.534706941,11,0,0,1,0,0.0,0,0,0,0,0,0.007870255999999999,0.118262854,-1.580353163,-1.574544175,0.182111673,327.23276949999996,31.06622847,-0.007573570999999999,0.4,0.014878085,0.0,-0.39123910799999995,0.186095233,-9.983777965,-7.209999999999999e-21,960.9293667000002,12.10982833,0.000830925,0.025728038999999998,-0.000776043,-0.352302925,0.29070707,-10.03521377,-0.0016563679999999999,0.02872943,0.001975809,-7.209999999999999e-21,47.12642905,47.55339111,-1.174539572,-1.9988812919999999,10.21911202,10.47079954,-0.0050337490000000006,0.146956308,-0.208439077,184.6021339,150262746.1,6620172,447.39549400000004,12.09283547,96065.35922,1.141415503,-0.63425187,-0.497696376,0.25248503899999997,0.004620556,0.043053073,0.002300008,0.006847796999999999,0.124789649,-1.580684098,0.7020772690000001,0.046712734000000006,0.041444144,-0.709357238,0.021931557,398688570.4,327342658.3,445871.0546,10.77731307,-0.19999999,-10.78942749,2.2645149030000002,4.693296001,0,0,0.0,39.8714138,32.7364368,-284.29103210000005,-186.531929,-45.5822114,-0.200096185,-10.91058779,2.230998103,0.100869277,-0.5994049020000001,-0.18918030100000002,-1.593590089,45.70333531,0.011049679,0.37832697200000004,-0.000107306,0.020434573,151230929,0,0,0,0,1
4052,151271310,-0.001444207,0.645828995,0.029139121,0.010246277,1.0,1514.0,2000.0,1015.0,1499.0,1500.0,1823.0,10.74742239,10.98156888,10.63398796,10.70812428,10.94140318,10.98270316,11.22196773,,,70.94546333,70.94546333,12.10949439,-0.000670592,-0.00582397,4.03e-05,-0.256654466,0.17422974800000002,-0.014814413,2.0,8.537307461000001,9.537307461000001,11,0,0,1,0,0.0,0,0,0,0,0,0.00778239,0.11860557699999999,-1.5803860719999998,-1.574545263,0.18346407399999998,326.8673841,31.12204253,-0.0075549269999999995,0.4,0.014859128000000001,0.0,-0.35830672799999996,0.188647442,-10.02780843,-7.209999999999999e-21,960.9338321,12.11032461,0.002411466,0.028917484,0.000509586,-0.362893842,0.25235947,-10.06788914,-0.001417492,0.02945045,0.0014814960000000001,-7.209999999999999e-21,47.07177843,47.47575432,-1.177404927,-2.026680474,10.21905551,10.49730885,-0.005565068,0.17509354100000002,-0.208484876,184.59483899999998,150299401.5,6620172,447.64996030000003,12.09325483,96062.46236,1.141380937,-0.255132711,-0.181372483,0.631564625,-0.002866612,0.042266864,0.000601212,0.006770096999999999,0.122926269,-1.580730154,0.7021055270000001,0.04602575,0.040816223,-0.709410523,0.013943971000000001,398688569.7,327342613.5,445790.4881,10.79814906,-0.19999999,-10.80679079,2.2488877780000003,4.693265615,0,0,0.0,39.8714138,32.7364368,-284.2984441,-186.9252082,-45.49969076,-0.19953685399999999,-10.93040895,2.2228180319999997,0.072940737,-0.572957395,-0.229103398,-1.593512048,45.62081476,0.010737581999999999,0.36887682,-8.68e-05,0.006305128,151271310,0,0,0,0,1
4053,151307691,-0.002845748,0.653593738,0.029762438999999998,0.026614234,1.0,1514.0,2000.0,1022.0,1500.0,1499.0,1824.0,10.83616353,11.07219635,10.65320614,10.72779069,10.96145736,10.99889238,11.23846793,,,71.08687956,71.08687956,12.109993600000001,-0.000670577,-0.005824384,4.01e-05,-0.25665788100000003,0.17423565800000002,-0.01492876,2.0,8.539907982,9.539907982,11,0,0,1,0,0.0,0,0,0,0,0,0.007694524,0.11894830099999999,-1.5804189819999999,-1.574546351,0.184816475,326.5019986,31.17785658,-0.007538111,0.4,0.014848711,0.0,-0.313174281,0.201390965,-10.09439241,-7.209999999999999e-21,960.9356206,12.11082088,0.003393246,0.032898122,0.0035440709999999998,-0.361303063,0.13157369300000002,-10.1678391,-0.00067701,0.028818495,0.00218924,-7.209999999999999e-21,47.0171278,47.39811754,-1.1802702809999999,-2.054479656,10.21899899,10.52381816,-0.006096386,0.203230775,-0.20853067600000003,184.58754419999997,150336056.8,6620172,447.42504160000004,12.09370972,96065.04058,1.141411693,0.072388205,-0.01809359,-0.060628531,-0.0013036360000000002,0.048260189,0.005803808000000001,0.006669171999999999,0.120226464,-1.58077677,0.7021522570000001,0.045033967,0.039902765,-0.709479957,0.0037616209999999997,398688569.0,327342568.7,445709.9216,10.81898506,-0.19999999,-10.82415409,2.233260652,4.693235229,0,0,0.0,39.8714138,32.7364368,-284.30595539999996,-187.32690290000002,-45.4157351,-0.19913723100000003,-10.95043129,2.213612489,0.025184772999999997,-0.5347208370000001,-0.280035828,-1.593455316,45.5368591,0.01072612,0.37643646299999994,-3.1e-05,0.021717608,151307691,0,0,0,0,1
4054,151340072,0.003142973,0.65052221,0.029397000000000003,0.02205494,1.0,1514.0,2000.0,1024.0,1500.0,1499.0,1824.0,10.71809214,10.9515183,10.67242433,10.74745709,10.98151154,11.015081599999998,11.25496812,,,71.2282958,71.2282958,12.110492800000001,-0.0006705610000000001,-0.005824797,3.9899999999999994e-05,-0.256661297,0.174241568,-0.015043106,2.0,8.542508502,9.542508502,11,0,0,1,0,0.0,0,0,0,0,0,0.007606659,0.11929102400000001,-1.5804518909999998,-1.57454744,0.18616887699999998,326.1366132,31.23367064,-0.007526176999999999,0.4,0.014833513000000001,0.0,-0.268041835,0.21413448899999998,-10.16097639,-7.209999999999999e-21,960.9374092,12.11131715,0.0029626009999999996,0.036048217,-0.0013890760000000002,-0.399446806,0.172137912,-10.17247538,6.35e-05,0.028186539,0.0028969829999999997,-7.209999999999999e-21,46.96775687,47.3246994,-1.1765711209999998,-2.073167158,10.21896235,10.54674869,-0.00655573,0.224310455,-0.208573179,184.589885,150372712.1,6620172,447.5019156,12.0941548,96064.14486,1.141400945,-0.113980107,0.04879247900000001,-0.282040581,0.002123326,0.047890463,0.009521665,0.006669021999999999,0.122497743,-1.580795461,0.7020940520000001,0.045839635,0.040700058,-0.7094399140000001,0.009904527,398688568.3,327342523.9,445629.3551,10.83982105,-0.19999999,-10.84151739,2.217633527,4.693204843,0,0,0.0,39.8714138,32.7364368,-284.3134666,-187.7285976,-45.33177945,-0.198737608,-10.97045364,2.2044069459999998,-0.022571192,-0.496484279,-0.330968258,-1.593398584,45.45290345,0.010550934,0.37591050299999995,-2.6700000000000002e-05,0.023864925,151340072,0,0,0,0,1
