timestamp,control[0],control[1],control[2],control[3],control[4],output[2],output[3],output[4],output[5],output[6],output[7],indicated_airspeed_m_s,equivalent_airspeed_m_s,true_airspeed_m_s,equivalent_ground_minus_wind_m_s,true_ground_minus_wind_m_s,indicated_airspeed_m_s.1,true_airspeed_m_s.1,differential_pressure_raw_pa,differential_pressure_filtered_pa,temperature,gyro_bias[0],gyro_bias[1],gyro_bias[2],accel_bias[0],accel_bias[1],accel_bias[2],nav_roll,nav_pitch,nav_bearing,target_bearing,xtrack_error,wp_dist,acceptance_radius,rollspeed_integ,pitchspeed_integ,yawspeed_integ,additional_integ1,x,y,z,temperature.1,pressure,temperature.2,gyro_rad[0],gyro_rad[1],gyro_rad[2],accelerometer_m_s2[0],accelerometer_m_s2[1],accelerometer_m_s2[2],timestamp_sample,x.1,y.1,z.1,temperature.3,altitude_sp,altitude_filtered,height_rate_setpoint,height_rate,airspeed_sp,airspeed_filtered,airspeed_derivative_sp,airspeed_derivative,throttle_integ,pitch_integ,timestamp_sample.1,baro_alt_meter,baro_temp_celcius,baro_pressure_pa,rho,roll_body,pitch_body,yaw_body,q_d[0],q_d[1],q_d[2],q_d[3],thrust_body[0],xyz[0],xyz[1],xyz[2],xyz[0].1,xyz[1].1,xyz[2].1,lat,lon,alt,vel_m_s,vel_n_m_s,vel_e_m_s,vel_d_m_s,cog_rad,ref_lat,ref_lon,x.2,y.2,z.2,vx,vy,vz,ax,ay,az,dist_bottom,roll,pitch,yaw,thrust_body[0].1,isTakeoff,isClimbing,isDescending,isCruise,isLand
175334111,-0.029528785,0.251734409,-0.144321645,0.26700693,1.0,1427.0,2000.0,1258.820964,1513.0,1486.0,1621.273655,12.08318315,12.0749035,12.3413511,10.91255018,11.15334965,12.64297471,12.92197748,89.56420281,89.56420281,12.07245778,-0.000604037,-0.005907361,0.00017402099999999998,-0.25949491,0.22020668100000002,-0.040244151,-0.012846525,0.127444436,-1.5977385730000002,-1.588274622,0.353716527,360.30751230000004,36.76170292,-0.0027427529999999997,0.179577513,-0.107377457,0.0,-1.4024419240000001,0.15623378599999999,-9.500735513,6.87e+18,960.2676864,12.07244642,-0.020278781000000003,-0.153177489,0.011906115,-1.39912139,0.216261349,-8.956886632,175627231.0,-0.028255898999999998,-0.124965754,0.009562524000000001,6.87e+18,50.11765949,51.10359347,0.860334625,-0.08834366,10.2215653,12.62618674,-0.048092420999999996,-0.078170965,-0.27279137600000003,134.40138280000002,169381521.1,454.80185489999997,12.04596884,95980.18662000001,1.140403427,-0.009868046,0.049711155,-1.596584851,0.697794116,0.014356126,0.020877931000000002,-0.7158496870000001,0.0,-0.058130617,-0.675713076,-0.315718206,-0.14833438699999998,0.025532423999999998,0.119312529,398727176.7,327374389.7,454835.2472,14.357000400000002,-2.347281456,-14.15630125,-1.270840167,4.547742818,39.871413700000005,32.7364371,144.17694269999998,79.18854963,-55.281045,-1.49126002,-13.28693614,-0.70391258,1.493165689,1.4914848059999999,1.50646978,55.52234321,-0.033380573,-0.054042756,0.001838825,0.0,0,0,0,0,1
175373123,-0.026627341000000002,0.23302356300000002,-0.144432221,0.24696288,1.0,1430.0,2000.0,1197.0,1513.0,1486.0,1608.0,12.07021198,12.06194642,12.32811024,10.89430702,11.13470588,12.3118075,12.583504199999998,89.24165249,89.24165249,12.07240561,-0.000603912,-0.0059066990000000005,0.000173963,-0.259523093,0.220235944,-0.040279737,-0.012113899,0.117643434,-1.5971345190000001,-1.588258607,0.3317252,359.83840289999995,36.77874254,-0.002734912,0.179794536,-0.107364863,0.0,-1.4046605680000002,0.174026889,-9.029548911000001,6.87e+18,960.2594302000001,12.07232685,-0.026317987,-0.165639279,0.014174786000000002,-1.449391811,0.121327776,-8.615173157000001,175662818.2,-0.027704755,-0.145518129,0.009866122,6.87e+18,50.13655514,51.09923912,1.100873785,-0.083188805,10.22155538,12.61391746,-0.047847235999999994,-0.059661171,-0.273049038,134.4665414,169423395.1,454.82329739999994,12.04577908,95979.98361,1.1404009609999999,-0.009843475,0.051579380999999994,-1.5967682619999999,0.697715364,0.01503551,0.021519416,-0.7158939590000001,0.0,-0.307757115,0.09043606,0.304306952,-0.136657028,-0.001878304,0.121159865,398727168.1,327374319.2,454885.8598,14.26129326,-2.262864554,-14.07672125,-1.2333606529999999,4.552730616,39.871413700000005,32.7364371,144.11332439999998,78.63127887,-55.30966649,-1.4325663990000002,-13.22690281,-0.64029814,1.424637074,1.455200644,1.507473513,55.5509649,-0.015335916000000002,-0.064612215,0.001190088,0.0,0,0,0,0,1
175409190,-0.024339238,0.202649813,-0.139233857,0.15173,1.0,1430.0,2000.0,1109.0,1511.0,1488.0,1594.0,12.0572408,12.04898934,12.31486937,10.87606386,11.1160621,12.40446138,12.67823726,88.91910218,88.91910218,12.07235345,-0.000603786,-0.005906038000000001,0.00017390599999999998,-0.259551275,0.220265207,-0.040315323,-0.011381273999999999,0.107842433,-1.596530465,-1.588242591,0.30973387399999996,359.3692935,36.79578215,-0.0027310990000000003,0.18001925100000002,-0.107351578,0.0,-1.419784317,0.21133994600000003,-8.752855688,6.87e+18,960.2591589,12.07220728,-0.020011178,-0.172988141,0.00151075,-1.498942697,0.202694586,-8.407475174,175698405.3,-0.023805912999999998,-0.154697436,0.010177402,6.87e+18,50.15740252,51.09504973,1.320541387,-0.076679175,10.22154559,12.60407897,-0.047650665,-0.033238314,-0.273304331,134.5319566,169465269.1,454.8521558,12.04559722,95979.6089,1.140396501,-0.009881382,0.049050135,-1.597046769,0.697633498,0.014119571000000001,0.020648899,-0.716017717,0.0,0.186905228,-0.405827868,0.035431767,-0.141801461,-0.020249861,0.127934087,398727159.6,327374248.7,454936.1222,14.16614623,-2.180127986,-13.99812142,-1.194060772,4.557640203,39.871413700000005,32.7364371,144.0503995,78.05486280000001,-55.33631493,-1.373606453,-13.16731011,-0.57363131,1.340531527,1.428285724,1.547693386,55.57761417,-0.014250288,-0.069117413,0.0005024119999999999,0.0,0,0,0,0,1
175445257,-0.021274729,0.188810575,-0.13939327199999998,0.109074146,1.0,1430.0,2000.0,1070.0,1509.355671,1489.644329,1587.644329,12.04426963,12.03603226,12.3016285,10.8578207,11.09741832,12.25290804,12.52333667,88.59655186,88.59655186,12.07230128,-0.000603661,-0.0059053759999999995,0.000173849,-0.259579458,0.22029447,-0.040350909,-0.010648648,0.098041431,-1.59592641,-1.5882265759999998,0.287742547,358.9001841,36.81282176,-0.0027226409999999996,0.18029066300000002,-0.107336943,0.0,-1.4393955230000002,0.25544062300000003,-8.543793116,6.87e+18,960.2616642999999,12.07208771,-0.017907017,-0.164974663,0.003755827,-1.439780457,0.194386743,-8.230168633,175733992.4,-0.018742984,-0.159922016,0.010491354,6.87e+18,50.21242571,51.09374899,1.174734695,-0.046446580999999994,10.22153793,12.63680517,-0.04830534,0.13174734,-0.27351815399999996,134.6018647,169507143.0,454.9229955,12.04542875,95978.81535,1.140387111,-0.009943486999999999,0.045363373,-1.597328487,0.6975569359999999,0.012780415,0.019383611000000002,-0.71615294,0.0,0.029422122999999998,0.24760742600000002,-0.415481166,-0.140615287,-0.036131903,0.132656042,398727151.1,327374178.2,454986.3847,14.0709992,-2.097391418,-13.919521599999998,-1.154760892,4.56254979,39.871413700000005,32.7364371,143.9883892,77.48332905,-55.36214135,-1.3156289540000001,-13.10865871,-0.50742207,1.261770727,1.3950927780000002,1.5820584069999999,55.60344127,-0.012882591,-0.076996658,-0.000389295,0.0,0,0,0,0,1
175477324,-0.019039567,0.164972898,-0.140309909,0.035129607,1.0,1428.0,2000.0,1032.996399,1508.0,1491.0,1582.74955,12.03129846,12.02307518,12.28838763,10.83957753,11.07877455,12.25712593,12.52766101,88.27400155,88.27400155,12.07224912,-0.000603536,-0.005904715,0.000173791,-0.25960764,0.220323733,-0.040386495,-0.009916023000000001,0.08824043,-1.5953223559999998,-1.588210561,0.26575122,358.43107480000003,36.82986137,-0.002713583,0.180553739,-0.10730437300000001,0.0,-1.4590067290000002,0.2995413,-8.334730545,6.87e+18,960.2641696000001,12.07196813,-0.016531406000000002,-0.167041589,0.010432525,-1.4305167090000002,0.20597306,-8.137312632999999,175769579.5,-0.013680055,-0.165146596,0.010805306,6.87e+18,50.2674489,51.09244826,1.0289280029999999,-0.016213987,10.22153027,12.66953137,-0.048960015,0.296732993,-0.273731977,134.6717727,169549017.0,454.85648949999995,12.04529977,95979.57417,1.1403961409999999,-0.009932218,0.041487731,-1.597611705,0.697477832,0.011398786000000001,0.018026504,-0.7162885859999999,0.0,-0.082931805,0.03916524,0.086732661,-0.14114834099999998,-0.044144365,0.133287204,398727142.7,327374107.6,455036.6471,13.97585217,-2.01465485,-13.84092178,-1.1154610109999998,4.567459376,39.871413700000005,32.7364371,143.9346493,76.95594744,-55.38053408,-1.266535992,-13.05851978,-0.445350952,1.231343914,1.305125954,1.56347642,55.62183316,-0.011616427,-0.07530627200000001,-0.001149316,0.0,0,0,0,0,1
175509391,-0.01647524,0.159770904,-0.142913026,0.003766924,1.0,1428.0,2000.0,1000.0,1506.0,1493.0,1577.0,12.01832729,12.0101181,12.27514677,10.82133437,11.06013077,12.07519029,12.34175658,87.95145124,87.95145124,12.07219695,-0.000603411,-0.005904053,0.00017373400000000001,-0.259635823,0.220352995,-0.040422081,-0.009418714,0.080451388,-1.594979581,-1.588201119,0.252717101,357.9702186,36.78537191,-0.002705854,0.18089185300000002,-0.10726476300000001,0.0,-1.458482539,0.264465452,-8.199239195,6.87e+18,960.2699484999999,12.07190959,-0.017288299,-0.172117784,0.000593056,-1.405831305,0.21821649899999998,-7.948870756,175805166.6,-0.015203998,-0.168103809,0.006999460999999999,6.87e+18,50.3224721,51.09114752,0.8831213109999999,0.014018606999999999,10.22152261,12.70225757,-0.049614690999999995,0.461718646,-0.273945799,134.7416808,169590891.0,454.83291529999997,12.04516882,95979.86121,1.140399435,-0.00996372,0.037629322,-1.597896592,0.697395742,0.010008016,0.016691034,-0.716421724,0.0,0.516498439,-0.030537615,-0.357779326,-0.140294784,-0.048606092000000004,0.139244956,398727134.4,327374037.5,455085.758,13.88252352,-1.933736649,-13.76353422,-1.074544811,4.572284361,39.871413700000005,32.7364371,143.8809095,76.42856583,-55.39892679999999,-1.217443029,-13.00838086,-0.38327983299999996,1.2009171,1.21515913,1.544894432,55.64022505,-0.010840067,-0.08042693299999999,-0.0017133779999999998,0.0,0,0,0,0,1
175545459,-0.011343533000000001,0.154250075,-0.143003648,0.0,1.0,1428.0,2000.0,1000.0,1505.8991800000001,1493.1008199999999,1576.0,12.00535612,11.99716102,12.2619059,10.80309121,11.041487,12.1180129,12.38540082,87.62890092,87.62890092,12.07214479,-0.000603285,-0.005903391,0.000173676,-0.259664006,0.220382258,-0.040457667,-0.009462415,0.077287972,-1.595237506,-1.588206789,0.260276186,357.5283374,36.59942311,-0.0027003590000000003,0.18120274,-0.10723277699999999,0.0,-1.456488877,0.223611342,-8.069117036,6.87e+18,960.2759662999998,12.07185549,-0.011797763000000001,-0.157733756,-0.0013213460000000002,-1.391574519,0.212740555,-7.828940437000001,175840753.8,-0.017208647,-0.170895551,0.002892955,6.87e+18,50.37749529,51.08984679,0.7373146190000001,0.044251201,10.22151496,12.73498377,-0.050269365999999996,0.6267043000000001,-0.274159622,134.8115888,169632765.0,454.8952107,12.04506239,95979.14078,1.1403910609999999,-0.010055916,0.034070274,-1.59818301,0.697309434,0.008702946999999999,0.015481996000000001,-0.7165500090000001,0.0,0.302109829,-0.41837859299999997,0.379992299,-0.136863924,-0.056070895,0.13534217199999998,398727127.7,327373971.3,455124.2304,13.80599231,-1.8696158459999999,-13.69734508,-1.0186976620000001,4.57632782,39.871413700000005,32.7364371,143.828212,75.87430383,-55.4135101,-1.16767162,-12.95835945,-0.316698296,1.162737758,1.1369922159999999,1.5576275609999999,55.65480839,-0.009685828,-0.07774073,-0.002364645,0.0,0,0,0,0,1
175577526,-0.002996558,0.148405006,-0.146344697,0.0,1.0,1424.682537,2000.0,1000.0,1500.0,1499.0,1572.0,11.99238494,11.98420394,12.24866503,10.78484805,11.02284322,12.13993118,12.40791102,87.30635061,87.30635061,12.07209262,-0.00060316,-0.00590273,0.00017361900000000002,-0.259692188,0.22041152100000003,-0.040493253,-0.009506116,0.07412455700000001,-1.5954954319999999,-1.588212459,0.26783527100000004,357.0864561,36.4134743,-0.0026926309999999996,0.181553237,-0.107195989,0.0,-1.4518875130000002,0.190072275,-7.950817261,6.87e+18,960.2806965,12.07180535,-0.014120654,-0.152457852,-0.002749645,-1.452197081,0.150949485,-7.837123665,175876340.9,-0.018295906,-0.172274387,-0.000609029,6.87e+18,50.43251848,51.08854605,0.591507927,0.074483795,10.2215073,12.76770997,-0.050924042,0.791689953,-0.274373445,134.8814968,169674638.9,454.8282959,12.04496926,95979.88729,1.140399856,-0.010039830999999999,0.035194849,-1.598351488,0.697244042,0.009112881,0.015867456999999998,-0.7165997129999999,0.0,0.250679987,-0.25926730600000003,-0.282800512,-0.13631163,-0.063658982,0.13234169099999998,398727121.1,327373905.2,455162.7029,13.72946111,-1.8054950419999998,-13.63115595,-0.9628505140000001,4.5803712789999995,39.871413700000005,32.7364371,143.7759473,75.3088781,-55.42651129,-1.117618445,-12.90838684,-0.248243529,1.121338701,1.063725942,1.583366223,55.66781001,-0.008767483000000001,-0.075516707,-0.0030133990000000004,0.0,0,0,0,0,1
175609593,-0.00267786,0.14748435099999999,-0.15050206800000002,0.0,1.0,1424.0,2000.0,1000.0,1501.0,1498.0,1572.7357470000002,11.97293853,11.96478427,12.22880724,10.76382467,11.0013473,11.98098443,12.24537268,86.98380029,86.98380029,12.07204046,-0.000602992,-0.005902246,0.000173678,-0.259714655,0.22043839,-0.04051935,-0.009549817,0.07096114099999999,-1.595753357,-1.58821813,0.275394356,356.6445748,36.2275255,-0.002684845,0.181927669,-0.10714916599999999,0.0,-1.428515496,0.20918804100000002,-7.917616865,6.87e+18,960.2761592,12.07178364,-0.014973621999999999,-0.14986246,-0.000985531,-1.365115466,0.201814716,-7.809021414,175911928.0,-0.01277965,-0.163482903,0.000240431,6.87e+18,50.46911599,51.09034106,0.432313756,0.114573039,10.22152028,12.8088864,-0.05174731,0.8842986759999999,-0.274593249,134.9565483,169717265.1,455.04577620000003,12.04491617,95977.42556,1.140370603,-0.01003176,0.036349765,-1.598592773,0.6971526309999999,0.009531525,0.016265985,-0.716674705,0.0,0.542851037,-0.6114287070000001,0.164326608,-0.134141177,-0.065384595,0.138235133,398727114.5,327373839.0,455201.1754,13.65292991,-1.741374239,-13.56496681,-0.907003365,4.584414738,39.871413700000005,32.7364371,143.72504130000002,74.74473328,-55.43722791,-1.069389089,-12.86050462,-0.179466445,1.0702371659999999,1.0146284220000001,1.605690695,55.67852678,-0.008024156999999999,-0.073618291,-0.003584895,0.0,0,0,0,0,1
175653660,-0.002182821,0.145465702,-0.151036964,0.0,1.0,1424.0,2000.0,1000.0,1500.0,1499.0,1572.0,11.94708962,11.93897463,12.20240687,10.74005232,10.97703127,12.024061,12.28943694,86.66124998,86.66124998,12.071988300000001,-0.000602782,-0.005901938000000001,0.000173853,-0.259731471,0.22046289300000002,-0.040536067,-0.009593518,0.067797726,-1.5960112819999999,-1.5882238000000002,0.282953441,356.2026935,36.04157669,-0.0026777470000000003,0.18234330399999998,-0.10710388300000001,0.0,-1.4051434790000001,0.228303807,-7.8844164679999995,6.87e+18,960.2716218,12.07176194,-0.015506531,-0.152590329,-0.010868878,-1.429082536,0.229070933,-7.806655517,175947515.1,-0.007263393000000001,-0.154691418,0.001089892,6.87e+18,50.46432446,51.09908997,0.24304771,0.176802968,10.22157963,12.86904432,-0.052949283,0.814329367,-0.274826491,135.04315319999998,169758655.7,454.99921320000004,12.04486302,95977.94402000001,1.140376724,-0.010055037,0.03392878,-1.5988803409999999,0.6970601940000001,0.00865793,0.015429337,-0.7167941440000001,0.0,-0.09704894800000001,-0.058849005999999995,0.493932799,-0.126935763,-0.065929814,0.13613389,398727107.9,327373772.8,455239.6479,13.576398699999999,-1.677253435,-13.49877768,-0.8511562159999999,4.588458197,39.871413700000005,32.7364371,143.67711,74.18339278,-55.44294289,-1.025152644,-12.81719893,-0.109983706,0.997893872,1.018443866,1.6205404380000001,55.68424134,-0.007058627,-0.055747263,-0.0039813470000000005,0.0,0,0,0,0,1
175689728,-0.001294688,0.144550934,-0.159237448,0.0,1.0,1420.0,2000.0,1000.0,1501.0,1498.0,1572.572314,11.92124072,11.913165,12.1760065,10.71627997,10.95271525,11.96153313,12.22555824,86.33869967,86.33869967,12.07193613,-0.000602571,-0.00590163,0.00017402799999999998,-0.25974828699999997,0.220487395,-0.040552782999999995,-0.009637219,0.06463431,-1.596269207,-1.58822947,0.290512526,355.7608122,35.85562789,-0.0026711390000000003,0.182796033,-0.107065908,0.0,-1.385459141,0.24860871199999998,-7.8583183960000005,6.11e+18,960.2677228,12.0717571,-0.008215398,-0.154870148,-0.008728281,-1.412610139,0.23208453699999998,-7.880883755,175983102.2,-0.004636005,-0.14874975199999999,0.000782767,6.11e+18,50.45953294,51.10783887,0.05378166400000001,0.239032897,10.22163897,12.92920224,-0.054151255999999995,0.7443600579999999,-0.275059732,135.1297582,169804260.9,454.92148260000005,12.04480967,95978.84601000001,1.140387464,-0.010056994,0.030501685,-1.599168858,0.696969793,0.007430831,0.014234705,-0.716920557,0.0,0.108141725,-0.022872616000000002,-0.128669501,-0.125048093,-0.065654822,0.128767366,398727101.5,327373706.7,455275.2366,13.50313215,-1.6142208390000001,-13.43313257,-0.7915003,4.592473096,39.871413700000005,32.7364371,143.6291788,73.62205228,-55.44865787,-0.980916199,-12.77389324,-0.040500967,0.925550577,1.02225931,1.6353901819999999,55.6899559,-0.006342471,-0.047200514000000006,-0.004422998,0.0,0,0,0,0,1
175725795,-0.003188838,0.145029047,-0.15969746699999998,0.0,1.0,1420.0,2000.0,1000.0,1500.990598,1498.009402,1571.990598,11.89539182,11.88735536,12.14960613,10.69250762,10.92839922,11.81072513,12.07136168,86.01614935,86.01614935,12.07188397,-0.0006023609999999999,-0.005901322,0.000174202,-0.259765103,0.220511898,-0.0405695,-0.00968092,0.061470894000000005,-1.5965271319999998,-1.588235141,0.298071611,355.3189309,35.66967908,-0.0026637159999999996,0.18328564600000002,-0.10701574300000001,0.0,-1.373907634,0.27153615,-7.847883826,3.66e+18,960.2652317,12.07178949,-0.016319683999999997,-0.14684468,-0.009739401,-1.413335521,0.107053285,-7.752350286,176018689.3,-0.008379747,-0.149093089,-0.002075097,3.66e+18,50.45474141,51.11658778,-0.135484382,0.301262825,10.22169832,12.98936015,-0.055353229000000004,0.6743907490000001,-0.275292973,135.2163631,169842134.8,455.00695260000003,12.0448,95977.86622000001,1.14037582,-0.010071258,0.026960481,-1.599458302,0.696877394,0.006158153,0.013005052,-0.717045692,0.0,0.328904005,0.226536357,0.118402433,-0.12036591,-0.06951468400000001,0.128705361,398727095.9,327373640.9,455302.7465,13.43901143,-1.554236821,-13.36901154,-0.721174235,4.596407984,39.871413700000005,32.7364371,143.5888642,73.10469882,-55.44767408,-0.943540678,-12.73818376,0.023709683,0.941714175,0.938820524,1.619101559,55.68897208,-0.005910404,-0.04304184,-0.004720677,0.0,0,0,0,0,1
175765862,-0.001721171,0.14506243800000002,-0.15975234900000002,0.0,1.0,1417.0,2000.0,1000.0,1501.0,1498.0,1573.1822359999999,11.86954291,11.86154572,12.12320576,10.66873527,10.904083199999999,11.81346834,12.07423403,85.69359904,85.69359904,12.071831800000002,-0.00060215,-0.005901014,0.000174377,-0.259781919,0.2205364,-0.040586216,-0.009724621,0.058307479,-1.596785057,-1.588240811,0.30563069600000004,354.8770496,35.48373028,-0.0026577370000000003,0.183785712,-0.106957419,0.0,-1.362356127,0.294463588,-7.837449256,1.22e+18,960.2627405999999,12.07182187,-0.01413015,-0.154293205,-0.013753447,-1.389415955,0.251921275,-7.753104929,176054276.5,-0.012123488,-0.14943642699999998,-0.004932961,1.22e+18,50.44994988,51.12533668,-0.324750429,0.363492754,10.22175766,13.04951807,-0.056555202,0.6044214410000001,-0.275526215,135.3029681,169884008.8,455.07181560000004,12.0448,95977.11706,1.140366905,-0.010049144,0.02360251,-1.599748093,0.6967822359999999,0.0049635059999999995,0.011826492,-0.717167975,0.0,0.155904326,0.156827763,-0.278978319,-0.116172495,-0.065320821,0.12492325800000001,398727090.4,327373575.1,455330.2565,13.37489071,-1.494252804,-13.30489051,-0.65084817,4.600342873,39.871413700000005,32.7364371,143.549207,72.59114247,-55.44611203,-0.906757417,-12.70313001,0.08746522699999999,0.965517994,0.847849651,1.6001249640000001,55.68741003,-0.005243618,-0.043131745,-0.00518456,0.0,0,0,0,0,1
175801929,-0.00122688,0.14751721199999998,-0.165036334,0.0,1.0,1417.0,2000.0,1000.0,1501.0,1498.0,1573.0,11.84369401,11.83573608,12.09680539,10.64496292,10.87976717,11.71391222,11.97249062,85.37104872,85.37104872,12.07177964,-0.00060194,-0.0059007059999999995,0.00017455099999999998,-0.259798735,0.220560902,-0.040602933,-0.009768322,0.055144063,-1.5970429819999998,-1.5882464809999999,0.313189781,354.43516830000004,35.29778147,-0.002651614,0.184312707,-0.106906661,0.0,-1.365376579,0.284679261,-7.810652672000001,1.23e+18,960.2596957999999,12.07187623,-0.015429125,-0.15974100000000002,-0.013382479,-1.2813592679999999,0.159769506,-7.851034377,176089863.6,-0.012158853999999998,-0.149806183,-0.008628877,1.23e+18,50.44515836,51.13408558,-0.514016475,0.425722683,10.22181701,13.10967598,-0.057757175,0.5344521320000001,-0.275759456,135.38957299999998,169929529.9,454.94223020000004,12.04482735,95978.60542,1.140384603,-0.009942761999999999,0.023992898,-1.59994186,0.69671117,0.005141737,0.011923818999999999,-0.717233399,0.0,-0.039527612000000004,0.16148538699999998,-0.063588345,-0.114669595,-0.07515428,0.118137472,398727084.8,327373509.4,455357.7664,13.31076999,-1.4342687859999999,-13.24076948,-0.580522104,4.6042777610000005,39.871413700000005,32.7364371,143.5109982,72.07854417,-55.44147963,-0.871056844,-12.6708219,0.150640153,0.9497247409999999,0.791899276,1.5644480319999998,55.68277763,-0.004512208,-0.038417237,-0.005592569,0.0,0,0,0,0,1
175845996,-0.001992106,0.148912037,-0.165060895,0.0,1.0,1417.0,2000.0,1000.0,1501.0,1498.0,1577.0,11.8178451,11.80992644,12.07040502,10.62119057,10.85545114,11.70046547,11.95872816,84.97436559,84.97436559,12.07202049,-0.0006017290000000001,-0.005900397,0.000174726,-0.25981555100000003,0.220585405,-0.040619649,-0.009812022,0.051980648,-1.597300908,-1.588252152,0.320748867,353.993287,35.11183267,-0.002640473,0.184875252,-0.10685521199999999,0.0,-1.382854765,0.242439588,-7.767622331,3.67e+18,960.2561015000001,12.07195238,-0.002209792,-0.16514325,-0.012390211000000002,-1.341677945,0.229236721,-7.745944607,176125450.7,-0.008514913,-0.15020215,-0.013156277,3.67e+18,50.41833063,51.14853316,-0.656545116,0.45453888299999995,10.22175888,13.13040625,-0.058172944000000004,0.402073941,-0.270796532,135.48164309999999,169967756.8,454.9454978999999,12.04485035,95978.56025,1.140384027,-0.009862391,0.026466135,-1.600159532,0.696626842,0.006058163,0.012755803000000001,-0.71729466,0.0,0.11016673199999999,0.21379390399999998,0.40913014299999995,-0.112160644,-0.074899431,0.11422953400000001,398727079.2,327373443.6,455385.2763,13.24664927,-1.374284769,-13.17664845,-0.510196039,4.6082126489999995,39.871413700000005,32.7364371,143.4740865,71.56680394,-55.4340973,-0.8363259759999999,-12.64097289,0.213295051,0.898466599,0.767314809,1.513813539,55.6753953,-0.0040876540000000005,-0.03642831,-0.005896458,0.0,0,0,0,0,1
175884127,-0.001081342,0.16004929099999998,-0.165919238,0.0,1.0,1416.336267,2000.0,1000.0,1500.663733,1498.336267,1580.663733,11.7919962,11.78411681,12.04400465,10.59741822,10.83113512,11.75255835,12.01193117,84.57373456,84.57373456,12.07227695,-0.000601519,-0.005900089,0.00017490099999999998,-0.259832367,0.220609907,-0.040636365,-0.009855723,0.048817232,-1.5975588330000001,-1.5882578219999999,0.328307952,353.5514057,34.92588386,-0.0026336370000000003,0.18548179899999997,-0.10680618300000001,0.0,-1.400332951,0.20019991399999998,-7.72459199,6.12e+18,960.2525072000001,12.07202854,-0.015571876,-0.165198597,-0.022783502999999997,-1.269381649,0.183944154,-7.6776483970000005,176161037.8,-0.004870972,-0.150598117,-0.017683676000000002,6.12e+18,50.37433358,51.16742081,-0.7626587229999999,0.45732107299999997,10.22160921,13.12041683,-0.057976151,0.22107042600000001,-0.261785062,135.57797140000002,170009630.7,454.92585379999997,12.04491548,95978.77345,1.140386617,-0.009870401,0.024467863,-1.600449391,0.696528195,0.005340338000000001,0.012061978999999999,-0.717408066,0.0,-0.005470409,0.30823685300000003,0.032299159,-0.10987491699999999,-0.07803191,0.107195845,398727074.0,327373377.8,455407.5577,13.18695939,-1.317845478,-13.12050319,-0.445187037,4.612023827,39.871413700000005,32.7364371,143.4373643,71.04988553,-55.42574252,-0.801677758,-12.61127425,0.276523504,0.848184727,0.738340744,1.474579754,55.66704052,-0.0037723690000000002,-0.033785081,-0.006325733,0.0,0,0,0,0,1
175922131,-0.0031284909999999997,0.163930129,-0.165796279,0.0,1.0,1416.082016,2000.0,1000.0,1501.0,1498.0,1581.0,11.76614729,11.75830717,12.01760428,10.57364587,10.80681909,11.57662888,11.83216141,84.17310352,84.17310352,12.07253341,-0.0006013090000000001,-0.005899781,0.000175075,-0.259849183,0.22063441,-0.040653082,-0.009899424,0.045653817,-1.5978167580000002,-1.5882634919999998,0.33586703700000003,353.1095245,34.73993506,-0.002625883,0.186103436,-0.106753048,0.0,-1.383670451,0.17688594600000002,-7.742875865,6.87e+18,960.2552046,12.07213474,-0.014330061000000002,-0.174628631,-0.019355006,-1.3382344259999999,0.155018371,-7.803732974,176196624.9,-0.006346864,-0.157137658,-0.018274599,6.87e+18,50.33033654,51.18630846,-0.868772331,0.460103263,10.22145954,13.11042741,-0.057779357,0.04006691,-0.252773592,135.6742997,170054920.6,454.9328152,12.04499191,95978.72882,1.140386082,-0.00978691,0.021451959,-1.600739815,0.696430601,0.004289076,0.010981177,-0.717527343,0.0,-0.130373404,0.304598498,-0.45511098299999997,-0.105180846,-0.075544019,0.10209517900000001,398727069.2,327373312.0,455422.864,13.13318064,-1.2661351570000001,-13.0749983,-0.38727145399999996,4.615669963999999,39.871413700000005,32.7364371,143.40186090000003,70.49964987,-55.411130799999995,-0.767561325,-12.58254308,0.343442311,0.804184345,0.6811232890000001,1.5086999890000001,55.652428799999996,-0.002879321,-0.015801813999999997,-0.006634849,0.0,0,0,0,0,1
175958198,-0.001343518,0.164058114,-0.166059855,0.0,1.0,1416.0,2000.0,1000.0,1501.0,1498.0,1582.5003,11.74029839,11.73249753,11.99120391,10.54987352,10.78250307,11.58212591,11.83772386,83.77247249,83.77247249,12.07278987,-0.000601098,-0.0058994730000000006,0.00017525,-0.259865998,0.22065891199999998,-0.040669798,-0.009943125,0.042490401,-1.598074683,-1.588269163,0.34342612200000006,352.6676432,34.55398625,-0.0026187579999999997,0.186742662,-0.106701172,0.0,-1.3518096609999999,0.161997068,-7.788454777999999,6.87e+18,960.2607027999999,12.07225431,-0.010135719,-0.175742868,-0.015135658,-1.3359005609999999,0.244082695,-7.7079335,176232212.0,-0.010101933,-0.166412113,-0.017113134,6.87e+18,50.286339500000004,51.20519611,-0.9748859390000001,0.46288545299999995,10.22130987,13.10043798,-0.057582564,-0.140936606,-0.243762122,135.77062790000002,170093378.7,454.9458527,12.04507072,95978.52475,1.140383675,-0.009701402,0.018272036000000002,-1.601030543,0.6963314840000001,0.003179301,0.009842861999999999,-0.717645641,0.0,0.535542106,0.06965113099999999,-0.195830967,-0.103098925,-0.080967231,0.09968951699999999,398727064.4,327373246.3,455438.1702,13.07940188,-1.214424835,-13.029493400000002,-0.329355871,4.619316102,39.871413700000005,32.7364371,143.3663575,69.94941421,-55.39651908,-0.7334448920000001,-12.55381192,0.41036111700000005,0.760183962,0.623905834,1.542820225,55.63781708,-0.002388454,-0.008544384,-0.0069272280000000006,0.0,0,0,0,0,1
175990265,-0.001202266,0.166703,-0.170516506,0.0,1.0,1414.0,2000.0,1000.0,1500.0,1499.0,1582.162833,11.71444948,11.70668789,11.96480354,10.52610117,10.75818704,11.42878262,11.68101218,83.37184145,83.37184145,12.07304633,-0.000600888,-0.005899165,0.000175424,-0.25988281399999996,0.220683415,-0.040686515,-0.009986825999999999,0.039326986,-1.5983326080000002,-1.588274833,0.350985207,352.2257619,34.36803745,-0.002610504,0.187407674,-0.106656309,0.0,-1.31994887,0.14710819,-7.83403369,6.87e+18,960.266201,12.07237389,-0.013498025,-0.17817462399999998,-0.019970093,-1.283488997,0.25594096,-7.721017937999999,176267799.2,-0.013857003,-0.17568656800000002,-0.015951668999999998,6.87e+18,50.24234245,51.22408376,-1.080999546,0.46566764299999996,10.2211602,13.09044856,-0.05738577,-0.321940121,-0.234750652,135.8669562,170135252.7,454.8665251,12.04519365,95979.45909,1.140394729,-0.009422686,0.021624749,-1.6011583169999999,0.6962791220000001,0.004480185,0.010909728,-0.717674018,0.0,0.250878457,-0.134089345,-0.316906374,-0.10490786099999999,-0.08604229199999999,0.093764565,398727059.7,327373180.5,455453.4765,13.02562312,-1.1627145140000001,-12.98398851,-0.27144028800000003,4.622962239,39.871413700000005,32.7364371,143.3347305,69.43172025,-55.37797863,-0.7027131740000001,-12.53013274,0.47161449299999997,0.7679457740000001,0.61010935,1.500707258,55.61927663,-0.001642021,-0.001436842,-0.007384588,0.0,0,0,0,0,1
176026332,0.000169607,0.167870767,-0.17067976199999998,0.0,1.0,1414.0,2000.0,1000.0,1500.0,1499.0,1584.0,11.68860058,11.68087826,11.93840317,10.50232882,10.73387102,11.44264231,11.69520267,82.97121042,82.97121042,12.07330279,-0.000600677,-0.0058988569999999995,0.00017559900000000002,-0.25989963,0.220707917,-0.040703231,-0.010009535,0.036455944,-1.598590021,-1.588280469,0.35848794100000003,351.7875559,34.1929278,-0.002601211,0.188116643,-0.106606225,0.0,-1.3206242879999999,0.15943760199999998,-7.806787337,6.87e+18,960.2811464,12.07257946,-0.0064361869999999995,-0.177713564,-0.022361038,-1.342971608,0.236425272,-7.710811327999999,176303386.3,-0.011625958999999998,-0.177892296,-0.018176435,6.87e+18,50.19834541,51.24297141,-1.1871131540000002,0.468449833,10.22101053,13.08045914,-0.057188977,-0.502943637,-0.22573918199999998,135.9632845,170179605.5,454.9326908,12.045311199999999,95978.71067999999,1.140385889,-0.009259855,0.022436596,-1.6014363040000001,0.696177376,0.00482976,0.011133242,-0.717767213,0.0,-0.267217319,0.31262181899999997,-0.141057516,-0.097033021,-0.090002413,0.089280006,398727054.9,327373114.7,455468.7828,12.97184437,-1.111004192,-12.93848361,-0.213524705,4.626608377,39.871413700000005,32.7364371,143.30445480000003,68.92537072,-55.35806856,-0.6731614090000001,-12.50821475,0.530892833,0.793752509,0.611449937,1.4320184809999998,55.59936656,-0.001256673,0.001965684,-0.007613645,0.0,0,0,0,0,1
176058400,-0.0036872940000000002,0.169333392,-0.170521289,0.0,1.0,1414.0,2000.0,1000.0,1500.0,1499.0,1585.244849,11.66275168,11.65506862,11.9120028,10.47855647,10.70955499,11.31221924,11.56188046,82.57057939,82.57057939,12.07355925,-0.0006004669999999999,-0.005898549,0.00017577400000000001,-0.259916446,0.22073241899999999,-0.040719948,-0.009905029000000001,0.035356687000000005,-1.598844331,-1.5882858990000002,0.365649192,351.3716225,34.08350345,-0.002593889,0.188841087,-0.106555506,0.0,-1.325654455,0.17540999699999998,-7.769793817,6.87e+18,960.2973563999999,12.07279654,-0.004904847,-0.178438885,-0.02985881,-1.3582318480000002,0.148296028,-7.611791647,176338973.4,-0.008593714,-0.17915192300000002,-0.020854425,6.87e+18,50.1471569,51.25488788,-1.22406855,0.423324201,10.22098371,13.02246226,-0.056029575,-0.6099951379999999,-0.217426433,136.0304259,170219000.6,454.8703598,12.04545238,95979.39121,1.140394025,-0.008991787,0.020478333,-1.6017235630000002,0.6960776809999999,0.004221701,0.010354845,-0.7178792979999999,0.0,-0.308488551,-0.7142065240000001,-0.541669041,-0.100423069,-0.09284397,0.088621147,398727050.8,327373051.0,455473.2805,12.92543509,-1.065435087,-12.89543496,-0.145783157,4.62980435,39.871413700000005,32.7364371,143.2746903,68.40549079,-55.33533344,-0.643621691,-12.4874087,0.5901070589999999,0.7964847009999999,0.578762185,1.374811978,55.57663159,-0.000800919,0.007110949,-0.007863578000000001,0.0,0,0,0,0,1
176094467,-0.0018086789999999999,0.172947297,-0.17908857,0.0,1.0,1410.0,2000.0,1000.0,1499.0,1500.0,1590.0,11.63690277,11.62925898,11.88560243,10.45478412,10.68523896,11.36119275,11.61184723,82.16994835,82.16994835,12.07381572,-0.000600256,-0.005898240999999999,0.000175948,-0.259933262,0.220756922,-0.040736664,-0.009800524,0.034257429,-1.5990986409999999,-1.58829133,0.372810443,350.95568910000003,33.974079100000004,-0.002586834,0.18956916399999998,-0.106514475,0.0,-1.3277549929999999,0.189120996,-7.7340616639999995,6.87e+18,960.312167,12.07301362,-0.003658818,-0.185043216,-0.02123885,-1.3370464229999999,0.152899478,-7.647650072999999,176374560.5,-0.005966995,-0.18035144,-0.023221551,6.87e+18,50.09434778,51.26523338,-1.245438998,0.367402441,10.22098458,12.95364681,-0.054653248,-0.7003813959999999,-0.20927114300000002,136.09098999999998,170260874.6,454.8670044,12.04561202,95979.47427,1.140394882,-0.008855116,0.017631198,-1.602010984,0.6959791190000001,0.00324855,0.009314503,-0.717994081,0.0,-0.036206576000000004,0.101010214,0.228827306,-0.096514856,-0.08529594300000001,0.08219266,398727047.1,327372988.8,455470.3847,12.88406681,-1.024066813,-12.85406648,-0.07132026400000001,4.632692393999999,39.871413700000005,32.7364371,143.2458814,67.86031569,-55.30731685,-0.614104497,-12.46868146,0.649201421,0.756078912,0.482458265,1.339071649,55.54861542,-0.00024732,0.010370064,-0.008303241999999999,0.0,0,0,0,0,1
176130534,-0.000105393,0.18506298699999998,-0.178560162,0.0,1.0,1410.0,2000.0,1000.0,1499.591718,1499.408282,1593.0,11.61105387,11.60344934,11.85920206,10.43101177,10.66092294,11.36427334,11.61500234,81.76931732,81.76931732,12.07407218,-0.000600046,-0.005897932,0.00017612299999999998,-0.25995007800000003,0.22078142399999998,-0.04075338,-0.009696019,0.033158172,-1.59935295,-1.58829676,0.37997169399999997,350.53975560000003,33.86465475,-0.002579934,0.190305803,-0.106472731,0.0,-1.292067876,0.173663522,-7.714599176,6.87e+18,960.3089286000001,12.073230699999998,-0.012754969,-0.181507251,-0.021238681000000002,-1.289656883,0.143560327,-7.505007916,176410147.6,-0.008570931,-0.180775613,-0.021579004,6.87e+18,50.04153866,51.27557888,-1.266809445,0.31148068,10.22098545,12.88483136,-0.053276921,-0.790767654,-0.201115853,136.1515541,170302748.5,454.88536389999996,12.04578997,95979.25505,1.140392398,-0.008586915,0.02029198,-1.60215205,0.6959231929999999,0.004297896,0.010143739,-0.718031199,0.0,-0.250837397,-0.499345401,0.163524496,-0.097590442,-0.09747705699999999,0.08232515,398727043.3,327372926.5,455467.4889,12.84269854,-0.98269854,-12.812698,0.003142629,4.635580437,39.871413700000005,32.7364371,143.2170725,67.31514059999999,-55.27930027,-0.584587303,-12.44995422,0.708295783,0.715673122,0.386154345,1.30333132,55.52059925,0.000261554,0.031496228,-0.008194744,0.0,0,0,0,0,1
176166601,0.0007584310000000001,0.19062269699999998,-0.178794767,0.0,1.0,1409.0,2000.0,1000.0,1499.0,1500.0,1595.010002,11.58520496,11.577639699999999,11.83280169,10.40723942,10.63660691,11.27869468,11.52751901,81.36868628,81.36868628,12.07432864,-0.000599835,-0.005897624000000001,0.000176298,-0.259966894,0.22080592699999999,-0.040770097000000005,-0.009591514,0.032058915,-1.59960726,-1.58830219,0.387132945,350.1238222,33.7552304,-0.002572399,0.191064343,-0.106427726,0.0,-1.256380758,0.15820604800000002,-7.695136688,6.87e+18,960.3056901000001,12.07344778,-0.007959075,-0.184871785,-0.021769667000000003,-1.321074101,0.089844305,-7.582720242000001,176445734.7,-0.011174866,-0.181199787,-0.019936456,6.87e+18,49.98872954,51.28592438,-1.288179893,0.25555892,10.22098632,12.81601591,-0.051900592999999995,-0.881153911,-0.192960563,136.2121182,170344622.5,454.8598194,12.04597283,95979.53435,1.140395657,-0.00840499,0.021614502999999997,-1.602409519,0.69582777,0.004837393,0.010537956999999999,-0.718115011,0.0,0.23167443399999998,-0.419135456,-0.293342093,-0.093844002,-0.097306314,0.078280889,398727039.6,327372864.3,455464.5931,12.80133027,-0.9413302659999999,-12.77132952,0.077605521,4.63846848,39.871413700000005,32.7364371,143.1920249,66.81089968,-55.24864764,-0.559108202,-12.43580392,0.7596790459999999,0.69453221,0.37420129,1.26191419,55.48994624,0.000693743,0.041788655,-0.008071704,0.0,0,0,0,0,1
176206669,-0.00253654,0.19389019100000002,-0.18213824899999997,0.0,1.0,1408.0,2000.0,1000.0,1500.5717140000002,1498.4282859999998,1596.5717140000002,11.55935606,11.55183007,11.80640132,10.38346707,10.61229089,11.348900800000001,11.59922807,80.96805525,80.96805525,12.0745851,-0.000599625,-0.005897316,0.000176472,-0.25998371,0.220830429,-0.040786813,-0.009487009,0.030959657999999998,-1.59986157,-1.58830762,0.394294195,349.70788880000003,33.64580605,-0.002563993,0.191873794,-0.1063802,0.0,-1.227821586,0.148214436,-7.67130452,6.87e+18,960.3036682,12.07367913,-0.00351411,-0.18204097,-0.020146593,-1.322753621,0.152632522,-7.583159429,176481321.9,-0.013141766000000001,-0.181868158,-0.018396997,6.87e+18,49.93592041,51.29626987,-1.30955034,0.19963715899999998,10.22098719,12.74720046,-0.050524266,-0.9715401690000001,-0.184805272,136.2726823,170386496.5,454.7633931,12.04618569,95980.63871,1.140408801,-0.008160288,0.019654721,-1.602692727,0.6957296070000001,0.00422017,0.009767722,-0.718224834,0.0,0.450355866,-0.199243425,-0.102177523,-0.085017927,-0.095823426,0.07642573700000001,398727035.9,327372802.0,455461.6973,12.75996199,-0.899961992,-12.72996104,0.152068414,4.641356523,39.871413700000005,32.7364371,143.1671524,66.30856601,-55.21787218,-0.5338172489999999,-12.42186687,0.810703023,0.674288909,0.36617841,1.22023256,55.45917036,0.0011812939999999998,0.049578735,-0.007930268,0.0,0,0,0,0,1
176238736,0.0009231210000000001,0.19711511199999998,-0.18180999899999997,0.0,1.0,1409.0,2000.0,1000.0,1499.0,1500.0,1598.0,11.53350715,11.52602043,11.78000095,10.35969472,10.58797486,11.29135058,11.54036137,80.56742421,80.56742421,12.07484156,-0.000599415,-0.0058970080000000005,0.00017664700000000002,-0.260000525,0.220854931,-0.04080353,-0.009382504,0.029860401,-1.600115879,-1.5883130509999999,0.401455446,349.29195539999995,33.53638169,-0.00255653,0.192674819,-0.10633484800000001,0.0,-1.2193460870000001,0.15362342199999998,-7.635160357999999,6.87e+18,960.3050739,12.07395066,-0.006707266,-0.172883103,-0.022191672000000003,-1.321233803,0.221536769,-7.628873252999999,176516909.0,-0.013313756000000001,-0.183224578,-0.017147996000000002,6.87e+18,49.882920299999995,51.30575358,-1.331214637,0.14271314400000001,10.22098739,12.67850518,-0.049150356,-1.058511083,-0.17711890600000002,136.3313014,170428370.5,454.6230178,12.04639855,95982.26475,1.140427971,-0.007937093000000001,0.01684182,-1.602974563,0.6956328070000001,0.003288807,0.00870867,-0.718337045,0.0,0.067658089,-0.342461311,0.259554034,-0.082666103,-0.09135041599999999,0.077197844,398727032.6,327372739.4,455451.4211,12.7280156,-0.8664452890000001,-12.69958507,0.215539105,4.643860939,39.871413700000005,32.7364371,143.1431215,65.78409091,-55.18297612,-0.508237202,-12.40888095,0.861568278,0.646674554,0.328800422,1.182224151,55.42427459,0.0014822989999999999,0.055992127,-0.007813852,0.0,0,0,0,0,1
176270803,-0.000309265,0.198742007,-0.181820375,0.0,1.0,1405.0,2000.0,1000.0,1499.0,1500.0,1601.0,11.50765825,11.50021079,11.75360058,10.33592237,10.56365884,11.34490862,11.59510755,80.16679318,80.16679318,12.07509802,-0.000599204,-0.0058966999999999995,0.000176821,-0.260017341,0.22087943399999999,-0.040820246,-0.009277998,0.028761144,-1.6003701890000002,-1.588318481,0.40861669700000003,348.87602189999996,33.42695734,-0.002550144,0.19348798399999997,-0.10628595099999999,0.0,-1.210870588,0.15903240800000001,-7.599016195,6.87e+18,960.3064796,12.07422219,-0.009586043,-0.183823485,-0.017730028000000002,-1.288248435,0.12342672699999999,-7.590978007,176552496.1,-0.013485747,-0.184580999,-0.015898996000000002,6.87e+18,49.82738718,51.30380787,-1.3567760519999998,0.072496927,10.22097869,12.61140372,-0.047808500999999996,-1.100186694,-0.17565154,136.36412430000001,170470244.4,454.7821974,12.04664241,95980.42247,1.140406187,-0.007664506999999999,0.014034713999999998,-1.603254716,0.695535371,0.002376395,0.007634133,-0.718447208,0.0,0.11857083300000001,0.28422623399999997,0.008566088000000001,-0.081327596,-0.09428190300000001,0.076968936,398727029.5,327372676.7,455438.8038,12.69905781,-0.8354190840000001,-12.6726959,0.275523097,4.6462436689999995,39.871413700000005,32.7364371,143.1197451,65.24239261,-55.14487475,-0.482432276,-12.39663487,0.9123100670000001,0.613326458,0.268587908,1.147073038,55.38617405,0.001966684,0.064308587,-0.007623454,0.0,0,0,0,0,1
176310870,0.001137378,0.20527744399999998,-0.189292669,0.0,1.0,1405.0,2000.0,1000.0,1500.0,1499.0,1606.683137,11.48180935,11.47440115,11.72720021,10.31215002,10.53934281,11.16909725,11.41539624,79.76616215,79.76616215,12.07535448,-0.000598994,-0.005896391999999999,0.00017699599999999998,-0.260034157,0.22090393600000002,-0.040836963,-0.009173493000000001,0.027661886,-1.600624499,-1.588323911,0.41577794799999995,348.4600885,33.31753299,-0.002543498,0.19432492,-0.106241225,0.0,-1.217106198,0.162785135,-7.582658072,5.76e+18,960.3084385,12.07451334,-0.009367368000000001,-0.173297885,-0.019744762,-1.287969298,0.11482560900000001,-7.597592903,176588083.2,-0.012212316,-0.182224809,-0.016356189,5.76e+18,49.77185407,51.30186216,-1.3823374659999998,0.00228071,10.22096999,12.54430225,-0.046466647,-1.141862304,-0.174184174,136.39694730000002,170512118.4,454.67301480000003,12.04688594,95981.71366000001,1.1404215309999999,-0.007367322,0.019002785,-1.603360708,0.695489303,0.0042649870000000005,0.00925475,-0.718464105,0.0,0.243830043,-0.228006121,0.174702625,-0.076208888,-0.09104426,0.076796145,398727026.4,327372614.1,455426.1864,12.67010002,-0.804392879,-12.64580673,0.33550709,4.648626398999999,39.871413700000005,32.7364371,143.09690759999998,64.70761307,-55.10643609,-0.457400818,-12.38533841,0.96165294,0.581905515,0.21422132100000002,1.106972504,55.34773588,0.0027167840000000003,0.086687314,-0.007068295,0.0,0,0,0,0,1
176342937,0.0015238460000000001,0.219206061,-0.189054038,0.0,1.0,1405.0,2000.0,1000.0,1499.0,1500.0,1611.0,11.45596044,11.44859151,11.70079984,10.28837767,10.51502679,11.13382446,11.37933753,79.36553111,79.36553111,12.07561094,-0.000598783,-0.005896084,0.00017717099999999997,-0.260050973,0.22092843899999998,-0.040853679,-0.009068988,0.026562629,-1.6008788090000001,-1.588329341,0.42293919799999996,348.04415510000007,33.20810864,-0.002537795,0.195190122,-0.10619181300000001,0.0,-1.2411817729999999,0.164529342,-7.590294214,3.32e+18,960.3110684000001,12.07482828,-0.004500168,-0.17077751800000002,-0.014705493,-1.286947782,0.152247477,-7.699535859,176623670.3,-0.009186042,-0.175366385,-0.018882458,3.32e+18,49.71632095,51.29991645,-1.407898881,-0.06793550799999999,10.22096128,12.47720078,-0.045124792000000004,-1.183537915,-0.172716808,136.42977030000003,170553992.4,454.75607469999994,12.0471317,95980.69612000001,1.14040952,-0.007217843000000001,0.019590561,-1.6036375180000002,0.695388392,0.00452942,0.009404816,-0.718558345,0.0,0.31570502,0.34853269,0.8352784040000001,-0.07984561,-0.090742226,0.076305644,398727023.3,327372551.4,455413.5691,12.64114223,-0.773366673,-12.61891756,0.39549108299999997,4.651009128,39.871413700000005,32.7364371,143.0767112,64.20674324,-55.06634434,-0.436160217,-12.37869615,1.004139539,0.559929795,0.188506387,1.042614212,55.30764287,0.003145104,0.097385105,-0.006796795,0.0,0,0,0,0,1
176375005,0.000482768,0.22495957800000002,-0.188656325,0.0,1.0,1405.0,2000.0,1000.0,1499.4802960000002,1499.5197039999998,1613.0,11.43011154,11.42278188,11.67439947,10.26460532,10.49071076,11.22453151,11.47202766,78.96490008,78.96490008,12.0758674,-0.000598573,-0.005895776,0.000177345,-0.260067789,0.220952941,-0.040870395,-0.008964483,0.025463372,-1.6011331180000001,-1.588334771,0.430100449,347.6282217,33.09868429,-0.002530824,0.196056838,-0.106141994,0.0,-1.265257347,0.16627354800000002,-7.597930355,8.75e+17,960.3136982999999,12.07514323,-0.000889878,-0.175740941,-0.019144201,-1.2196258640000002,0.118190768,-7.66678397,176659257.5,-0.006159769,-0.168507961,-0.021408728,8.75e+17,49.66078784,51.29797074,-1.433460295,-0.138151725,10.22095258,12.41009931,-0.043782937,-1.225213525,-0.171249443,136.4625932,170595866.4,454.61940319999997,12.04742348,95982.32191,1.1404286890000002,-0.007019175999999999,0.017794089,-1.6039125840000001,0.695292606,0.003954209,0.008708318,-0.718663033,0.0,-0.004400043,-0.19081078199999998,0.006476316,-0.075842441,-0.08716914699999999,0.072331767,398727020.2,327372488.7,455400.9518,12.61218444,-0.742340468,-12.59202839,0.455475075,4.653391858,39.871413700000005,32.7364371,143.0565149,63.70587342,-55.02625259,-0.414919617,-12.37205389,1.046626138,0.537954075,0.162791453,0.9782559209999999,55.26754987,0.003561359,0.104980545,-0.006520238,0.0,0,0,0,0,1
176411072,0.000551071,0.228562202,-0.18971665899999998,0.0,1.0,1405.0,2000.0,1000.0,1500.0,1499.0,1615.9379880000001,11.40426263,11.39697224,11.64799911,10.24083297,10.46639473,11.15373795,11.39967159,78.56426904,78.56426904,12.07612386,-0.000598362,-0.005895468,0.00017752,-0.260084605,0.220977443,-0.040887112,-0.008859978000000001,0.024364115,-1.6013874280000002,-1.588340202,0.43726170000000003,347.2122882,32.98925994,-0.0025244770000000002,0.19691150300000002,-0.106096041,0.0,-1.269053752,0.154380659,-7.613941955,1.57e+18,960.3172053999999,12.07548604,-0.003473924,-0.16132916,-0.020408987,-1.292830693,0.183678722,-7.756478821,176694844.6,-0.003975302,-0.164861757,-0.021631747000000003,1.57e+18,49.60525473,51.29602503,-1.45902171,-0.208367942,10.22094388,12.34299784,-0.042441083,-1.2668891359999999,-0.169782077,136.49541619999997,170639450.3,454.38394730000005,12.04769459,95985.02088,1.140460808,-0.006864821,0.015188723999999999,-1.604186382,0.69519819,0.003072675,0.007746743,-0.718769722,0.0,0.08102277599999999,0.419285277,-0.060761446,-0.076770685,-0.082795864,0.06875284400000001,398727017.5,327372425.3,455375.7127,12.58896379,-0.711314263,-12.56896379,0.521196223,4.65564097,39.871413700000005,32.7364371,143.0374315,63.17415218,-54.98037238,-0.39290443799999997,-12.36691001,1.08730258,0.522549249,0.134162396,0.955554882,55.22167036,0.003938093,0.107425047,-0.006490541999999999,0.0,0,0,0,0,1
176443139,0.001780759,0.233282717,-0.18982709600000003,0.0,1.0,1405.0,2000.0,1000.0,1499.643729,1499.356271,1617.0,11.37841373,11.371162599999998,11.62159874,10.21706062,10.44207871,11.18644878,11.43306488,78.16363801,78.16363801,12.07638032,-0.000598152,-0.0058951590000000005,0.00017769400000000002,-0.260101421,0.221001946,-0.040903827999999996,-0.008755473,0.023264858,-1.601641738,-1.5883456319999998,0.444422951,346.7963548,32.87983559,-0.00251648,0.19778661399999997,-0.106042309,0.0,-1.261538572,0.13488108699999998,-7.63462533,4.01e+18,960.3212018999999,12.07584441,-0.008720713,-0.158524566,-0.016740205,-1.202503431,0.17631142600000002,-7.795590678,176730431.7,-0.002260389,-0.16300730900000002,-0.020570029,4.01e+18,49.54721486,51.28874349,-1.4775340319999999,-0.281661881,10.22093885,12.26953476,-0.040971922,-1.297157753,-0.16887539699999998,136.5194802,170683614.3,454.51689680000004,12.04800106,95983.49766000001,1.140442711,-0.006460085,0.019934986000000002,-1.604283519,0.6951536290000001,0.004919637,0.009250719000000001,-0.718784788,0.0,-0.136872951,0.071328743,0.46223236100000004,-0.075233588,-0.083856181,0.06972188,398727014.8,327372361.8,455349.4439,12.56621124,-0.6802880579999999,-12.54621124,0.587385465,4.65787918,39.871413700000005,32.7364371,143.0186686,62.63354831,-54.93282559,-0.37066624600000003,-12.36219754,1.127457849,0.50903629,0.104694316,0.944847639,55.17412482,0.004456565,0.12907444099999998,-0.005979749,0.0,0,0,0,0,1
176479206,0.003184437,0.239553586,-0.18961993,0.0,1.0,1405.0,2000.0,1000.0,1498.0,1501.0,1624.0,11.35256482,11.34535296,11.59519837,10.19328827,10.41776268,11.14877299,11.39446026,77.76300698,77.76300698,12.07663678,-0.0005979409999999999,-0.0058948509999999996,0.00017786900000000001,-0.260118237,0.22102644800000001,-0.040920545,-0.008650966999999999,0.022165599999999997,-1.6018960469999999,-1.5883510619999999,0.451584201,346.3804214,32.77041124,-0.002510506,0.198695281,-0.10599033,0.0,-1.254023391,0.11538151599999999,-7.655308705,6.46e+18,960.3251982999999,12.07620277,-0.000441595,-0.150774874,-0.016395503999999998,-1.255563335,0.132800225,-7.761487788999999,176766018.8,-0.0005454769999999999,-0.161152861,-0.019508311,6.46e+18,49.48394816,51.27033618,-1.481348249,-0.361373195,10.22094146,12.18280703,-0.039237312999999996,-1.303641576,-0.169137807,136.52528080000002,170721736.3,454.4413263,12.04829035,95984.34078,1.1404527709999999,-0.006278305,0.020882341999999998,-1.6045541540000001,0.69505365,0.005324594,0.009513932,-0.7188751840000001,0.0,0.000802638,-0.017871854,0.438003317,-0.072880461,-0.084506745,0.071498455,398727012.1,327372298.3,455323.175,12.54345869,-0.6492618520000001,-12.52345869,0.653574707,4.660117389,39.871413700000005,32.7364371,143.00102880000003,62.10888738,-54.8855044,-0.349775632,-12.35881883,1.164822885,0.5014809920000001,0.076414816,0.933743303,55.12680408,0.004894738,0.141052202,-0.005710186999999999,0.0,0,0,0,0,1
176511273,-0.0006409780000000001,0.254125977,-0.18911300399999997,0.0,1.0,1405.0,2000.0,1000.0,1499.0,1500.0,1628.0,11.32671592,11.31954332,11.568798,10.16951592,10.39344666,11.10915665,11.35404621,77.36237594,77.36237594,12.07689324,-0.000597731,-0.005894543,0.000178044,-0.260135053,0.22105095100000002,-0.040937261,-0.008546462,0.021066342999999998,-1.602150357,-1.588356492,0.45874545200000005,345.964488,32.66098689,-0.002505028,0.1996088,-0.105930835,0.0,-1.235696128,0.159637473,-7.728476924,6.87e+18,960.3404153999999,12.07659755,-0.00313124,-0.148779883,-0.017221609,-1.2538073090000001,0.20731193899999997,-7.8184382160000006,176801605.9,-0.001251349,-0.15778378199999998,-0.018082229,6.87e+18,49.42068146,51.25192886,-1.485162465,-0.44108450899999996,10.22094407,12.09607931,-0.037502704,-1.3101254,-0.16940021600000002,136.5310813,170764135.2,454.3427404,12.04860964,95985.48604,1.140466323,-0.00611545,0.019578193,-1.604822159,0.6949600490000001,0.004913605,0.009001539,-0.71897513,0.0,-0.192550395,-0.502170845,-0.20409155399999998,-0.070259113,-0.08102744,0.06637728799999999,398727009.4,327372234.8,455296.9062,12.52070614,-0.618235647,-12.50070614,0.7197639490000001,4.662355599,39.871413700000005,32.7364371,142.9851952,61.60986251,-54.83854599,-0.33105191100000003,-12.35758482,1.197701254,0.503505555,0.05004654099999999,0.922000444,55.07984483,0.005381566999999999,0.150128724,-0.005301886,0.0,0,0,0,0,1
176547341,0.001979897,0.261037566,-0.188551733,0.0,1.0,1405.0,2000.0,1000.0,1499.0,1500.0,1631.0,11.30086701,11.29373369,11.54239763,10.14574357,10.36913063,11.27179015,11.52025296,76.96174491,76.96174491,12.0771497,-0.000597521,-0.005894235,0.00017821799999999998,-0.260151868,0.221075453,-0.040953977999999995,-0.008310929,0.021225116000000002,-1.602388844,-1.5883619709999999,0.465906686,345.5608075,32.62416204,-0.002499765,0.20050877399999997,-0.10587514,0.0,-1.215184532,0.21677377,-7.8122485,6.87e+18,960.3578992999999,12.07699968,-0.000960276,-0.14116456800000002,-0.01326251,-1.23844504,0.210578918,-7.854548962999999,176837193.0,-0.002446286,-0.154108708,-0.016582536000000002,6.87e+18,49.35741476,51.23352155,-1.4889766819999999,-0.520795824,10.22094668,12.00935159,-0.035768096,-1.316609223,-0.169662626,136.53688190000003,170805236.2,454.28283660000005,12.04894602,95986.17255,1.140474564,-0.005925204,0.01754973,-1.605088949,0.694867995,0.004251549,0.008227776,-0.71907757,0.0,-0.269630653,-0.613811407,0.02606877,-0.07332480799999999,-0.07896499400000001,0.064769769,398727006.8,327372171.5,455269.6885,12.49888378,-0.587767554,-12.47888378,0.78390678,4.66458082,39.871413700000005,32.7364371,142.96936159999998,61.11083764,-54.79158758,-0.31232819,-12.35635081,1.230579624,0.5055301170000001,0.023678266,0.910257586,55.03288559,0.005959572,0.155163125,-0.00491928,0.0,0,0,0,0,1
176579408,0.0018972589999999999,0.26634301899999996,-0.195035724,0.0,1.0,1401.970594,2000.0,1000.0,1499.0,1500.0,1634.029406,11.27501811,11.26792405,11.51599726,10.12197123,10.34481461,11.07549842,11.31954045,76.56111387,76.56111387,12.07740616,-0.00059731,-0.005893926999999999,0.000178393,-0.260168684,0.221099955,-0.040970694,-0.008072745,0.021409339,-1.602627012,-1.5883674509999999,0.473067919,345.1573749,32.58880598,-0.002489592,0.20141552899999998,-0.105812541,0.0,-1.195303518,0.272817158,-7.894853133,6.87e+18,960.3750499,12.07740538,-0.002638754,-0.146743187,-0.017476882,-1.265009976,0.22312551,-7.953002681,176872780.2,-0.003594511,-0.150422181,-0.015132535,6.87e+18,49.29414807,51.21511424,-1.4927908980000002,-0.600507138,10.22094929,11.92262387,-0.034033487,-1.323093047,-0.169925036,136.54268249999998,170847110.2,454.12013210000003,12.04927922,95988.03989,1.140496668,-0.005509799,0.02243046,-1.6051765480000002,0.69482358,0.006151199,0.009773761,-0.719087521,0.0,-0.158224172,0.125597576,0.194382232,-0.06614186799999999,-0.074430013,0.061636342999999996,398727005.0,327372110.9,455232.8708,12.48647329,-0.5629465889999999,-12.46647329,0.827343457,4.6666746130000005,39.871413700000005,32.7364371,142.9548359,60.57158254,-54.7370071,-0.293516068,-12.35731907,1.261455297,0.44685775200000005,0.024481678,0.827817419,54.97830593,0.006203808000000001,0.161146877,-0.004705374,0.0,0,0,0,0,1
176611475,0.0018771970000000002,0.270085936,-0.196364755,0.0,1.0,1402.0,2000.0,1000.0,1498.0,1501.0,1640.44769,11.25969764,11.25264602,11.50035265,10.10939876,10.33193795,11.10687155,11.35146953,76.16048284,76.16048284,12.07766262,-0.000597097,-0.005893636,0.000178614,-0.260188019,0.221123082,-0.040975813,-0.007834561,0.021593563,-1.6028651790000001,-1.58837293,0.48022915200000005,344.7539423,32.55344991,-0.002464986,0.202348301,-0.10576365800000001,0.0,-1.203556171,0.280100019,-7.92539414,6.87e+18,960.3773275000001,12.07796997,0.002921671,-0.14354172199999998,-0.015631125,-1.267068144,0.183421967,-8.088373488,176908367.3,-0.002658681,-0.146224687,-0.01589959,6.87e+18,49.23088137,51.19670692,-1.496605114,-0.6802184520000001,10.2209519,11.83589614,-0.032298878999999996,-1.32957687,-0.170187445,136.5484831,170888984.2,454.2226028,12.04963073,95986.87851000001,1.140482907,-0.0052559009999999995,0.023803345,-1.605437645,0.694724648,0.006734368,0.01015852,-0.719172542,0.0,-0.042460186,-0.212274325,-0.363813414,-0.061816694000000005,-0.07250954400000001,0.061911762,398727003.1,327372050.3,455196.05299999996,12.47406281,-0.538125625,-12.45406281,0.8707801340000001,4.668768406,39.871413700000005,32.7364371,142.94032280000002,60.03193856,-54.68235294,-0.274703092,-12.35830862,1.292311612,0.38759866,0.025547745,0.744693857,54.92365261,0.006726538000000001,0.184985604,-0.004143600000000001,0.0,0,0,0,0,1
176647542,0.0007784430000000001,0.285297727,-0.19585891600000002,0.0,1.0,1402.0,2000.0,1000.0,1497.134027,1501.865973,1644.0,11.27436031,11.26736017,11.51533859,10.12872161,10.35163863,11.11106736,11.35579286,75.75985179999999,75.75985179999999,12.07791908,-0.000596876,-0.005893394000000001,0.000178967,-0.260214528,0.22114229100000002,-0.040947905,-0.007596377,0.021777787000000003,-1.603103346,-1.58837841,0.487390385,344.35050970000003,32.51809384,-0.002446635,0.20327703600000002,-0.105724649,0.0,-1.211808823,0.28738288,-7.955935146,6.87e+18,960.3796051,12.07853456,0.001446421,-0.13586203300000002,-0.01423155,-1.258096013,0.164541147,-8.028478071,176943954.4,-0.001722851,-0.142027194,-0.016666646,6.87e+18,49.17192855,51.17134817,-1.490285747,-0.7556135079999999,10.22093267,11.7632904,-0.030847149,-1.3224789890000002,-0.170421858,136.54033769999998,170930858.2,454.1676017,12.04997879,95987.51273999999,1.14049042,-0.0050115540000000005,0.022625782,-1.605696285,0.694634545,0.006397034,0.009660812,-0.7192695370000001,0.0,0.26937128899999996,-0.411716122,-0.43700581299999997,-0.053979865,-0.069142396,0.056877940999999994,398727001.2,327371989.7,455159.2352,12.46165233,-0.513304661,-12.44165233,0.914216811,4.670862199,39.871413700000005,32.7364371,142.926983,59.51602579,-54.62844474,-0.258168243,-12.36135354,1.3186621440000001,0.34858251700000004,-0.011405385,0.678943518,54.86974474,0.00699733,0.19439718,-0.0038570490000000004,0.0,0,0,0,0,1
176683219,0.003207512,0.292815084,-0.194746738,0.0,1.0,1402.0,2000.0,1000.0,1499.715743,1499.284257,1647.0,11.28902299,11.28207433,11.53032453,10.14804445,10.3713393,11.24469835,11.49246407,75.35922077,75.35922077,12.07817554,-0.0005966540000000001,-0.005893152,0.00017932,-0.260241037,0.22116149999999998,-0.040919998,-0.007358193000000001,0.021962011,-1.603341514,-1.58838389,0.49455161799999997,343.947077,32.48273777,-0.002433551,0.204199574,-0.10567289199999999,0.0,-1.21698681,0.27889585699999997,-7.989704868,6.87e+18,960.3832024000001,12.07908535,-0.007503405,-0.129984859,-0.01698988,-1.205617714,0.100592469,-8.063186211,176979541.5,-0.0020285629999999997,-0.137767067,-0.017139617,6.87e+18,49.11612325,51.14091749,-1.476572692,-0.8278593240000001,10.22089752,11.70098838,-0.029601814,-1.3054715940000001,-0.170635845,136.5220171,170976732.1,454.04127,12.05034553,95988.93535,1.1405073140000002,-0.004770384,0.020687975,-1.6059513419999998,0.6945476009999999,0.00578498,0.008900348,-0.719368337,0.0,0.164208505,0.144576807,0.180669355,-0.048187062999999995,-0.06623786799999999,0.05605192,398726999.4,327371929.1,455122.4175,12.44924185,-0.48848369700000005,-12.42924185,0.9576534879999999,4.6729559919999994,39.871413700000005,32.7364371,142.914434,59.01610499,-54.57503922,-0.243168575,-12.36578352,1.341976329,0.323207657,-0.073978824,0.624900616,54.81633922,0.007270075,0.19983985399999998,-0.003687132,0.0,0,0,0,0,1
176723677,0.000903697,0.297011428,-0.194902031,0.0,1.0,1402.0,2000.0,1000.0,1498.297459,1500.702541,1649.0,11.30368566,11.29678849,11.54531047,10.1673673,10.39103998,11.10549459,11.35004685,74.95858974,74.95858974,12.078432000000001,-0.0005964330000000001,-0.00589291,0.00017967299999999999,-0.260267546,0.22118070899999998,-0.04089209,-0.007120008000000001,0.022146234,-1.603579681,-1.5883893690000002,0.501712851,343.54364439999995,32.44738171,-0.0024261129999999997,0.205148012,-0.10562685,0.0,-1.210730631,0.211763272,-8.035481645,6.87e+18,960.3917077,12.07958481,0.000376111,-0.129262509,-0.015916088000000002,-1.2300349879999999,0.156358322,-8.062298163,177015128.6,-0.006951361999999999,-0.133274015,-0.016518934,6.87e+18,49.06031794,51.1104868,-1.462859637,-0.90010514,10.22086236,11.63868636,-0.028356479,-1.288464199,-0.170849831,136.50369640000002,171017505.1,454.14749580000006,12.0507179,95987.72392,1.140492943,0.00637293,0.0250268,-1.594070316,0.698740173,0.011178299,0.006468816,-0.715253942,0.0,0.9080828329999999,0.671358647,-0.540444898,-0.047581835,-0.058737115,0.050218655,398726997.6,327371868.3,455083.2761,12.43894379,-0.46524704899999997,-12.42052805,0.9984496429999999,4.6748931019999995,39.871413700000005,32.7364371,142.90217019999997,58.50777196,-54.52009576,-0.22796839100000002,-12.37050008,1.364712154,0.304521512,-0.127168315,0.5629595000000001,54.76139568,0.007396368,0.20520533100000002,-0.003499053,0.0,0,0,0,0,1
176763744,0.0015885510000000001,0.303191102,-0.194761419,0.0,1.0,1402.0,2000.0,1000.0,1499.0,1500.0,1651.879176,11.31834834,11.31150264,11.56029642,10.18669015,10.41074066,11.08903045,11.33307676,74.5579587,74.5579587,12.07868846,-0.0005962119999999999,-0.005892668,0.000180026,-0.260294055,0.221199918,-0.040864182,-0.006881824,0.022330457999999997,-1.603817848,-1.5883948490000002,0.508874084,343.14021180000003,32.41202564,-0.00241652,0.20616833399999998,-0.105579406,0.0,-1.2044744509999998,0.144630688,-8.081258422000001,6.87e+18,960.4002131000001,12.08008428,0.004165966,-0.122429694,-0.016059556000000003,-1.236078303,0.163336611,-8.170499366,177050715.7,-0.01187416,-0.128780964,-0.015898251000000002,6.87e+18,49.00451264,51.08005612,-1.4491465819999998,-0.9723509570000001,10.22082721,11.57638433,-0.027111144,-1.271456804,-0.17106381699999998,136.4853758,171056480.1,453.8607813,12.05109028,95991.01099,1.14053194,0.00770505,0.027168763,-1.593102429,0.699069385,0.012405107,0.00674342,-0.714914347,0.0,0.004612785,0.049865245,-0.039271834,-0.052056204,-0.057352395,0.048898335999999994,398726995.9,327371806.6,455037.3573,12.43480696,-0.446631326,-12.42259626,1.031544272,4.676373217,39.871413700000005,32.7364371,142.8910169,57.96669631,-54.45916625,-0.21198774199999998,-12.37633206,1.385196849,0.311869665,-0.143832936,0.470276391,54.70046574,0.007788354,0.225973635,-0.00293451,0.0,0,0,0,0,1
