timestamp,control[0],control[1],control[2],control[3],control[4]
33000000,0,0,0,0.5,0.5
33004000,0,0,0,0.5,0.5
33008000,0,0,0,0.5,0.5
33016000,0,0,0,0.5,0.5
33020000,0,0,0,0.5,0.5
33024000,0,0,0,0.5,0.5
33028000,0,0,0,0.5,0.5
33032000,0,0,0,0.5,0.5
33036000,0,0,0,0.5,0.5
33040000,0,0,0,0.5,0.5
33048000,0,0,0,0.5,0.5
33052000,0,0,0,0.5,0.5
33056000,0,0,0,0.5,0.5
33060000,0,0,0,0.5,0.5
33064000,0,0,0,0.5,0.5
33068000,0,0,0,0.5,0.5
33072000,0,0,0,0.5,0.5
33076000,0,0,0,0.5,0.5
33080000,0,0,0,0.5,0.5
33084000,0,0,0,0.5,0.5
33088000,0,0,0,0.5,0.5
33092000,0,0,0,0.5,0.5
33096000,0,0,0,0.5,0.5
33100000,0,0,0,0.5,0.5
33104000,0,0,0,0.5,0.5
33108000,0,0,0,0.5,0.5
33112000,0,0,0,0.5,0.5
33116000,0,0,0,0.5,0.5
33120000,0,0,0,0.5,0.5
33128000,0,0,0,0.5,0.5
33132000,0,0,0,0.5,0.5
33136000,0,0,0,0.5,0.5
33140000,0,0,0,0.5,0.5
33144000,0,0,0,0.5,0.5
33152000,0,0,0,0.5,0.5
33156000,0,0,0,0.5,0.5
33160000,0,0,0,0.5,0.5
33164000,0,0,0,0.5,0.5
33168000,0,0,0,0.5,0.5
33172000,0,0,0,0.5,0.5
33176000,0,0,0,0.5,0.5
33180000,0,0,0,0.5,0.5
33184000,0,0,0,0.5,0.5
33188000,0,0,0,0.5,0.5
33192000,0,0,0,0.5,0.5
33196000,0,0,0,0.5,0.5
33200000,0,0,0,0.5,0.5
33204000,0,0,0,0.5,0.5
33208000,0,0,0,0.5,0.5
33212000,0,0,0,0.5,0.5
33216000,0,0,0,0.5,0.5
33220000,0,0,0,0.5,0.5
33224000,0,0,0,0.5,0.5
33228000,0,0,0,0.5,0.5
33232000,0,0,0,0.5,0.5
33236000,0,0,0,0.5,0.5
33240000,0,0,0,0.5,0.5
33244000,0,0,0,0.5,0.5
33248000,0,0,0,0.5,0.5
33252000,0,0,0,0.5,0.5
33256000,0,0,0,0.5,0.5
33260000,0,0,0,0.5,0.5
33264000,0,0,0,0.5,0.5
33268000,0,0,0,0.5,0.5
33272000,0,0,0,0.5,0.5
33276000,0,0,0,0.5,0.5
33280000,0,0,0,0.5,0.5
33288000,0,0,0,0.5,0.5
33292000,0,0,0,0.5,0.5
33296000,0,0,0,0.5,0.5
33304000,0,0,0,0.5,0.5
33308000,0.020607682,0.016436737,0.000790737,0,0.49
33312000,0.021267414,0.016418893,0.00064861,0,0.48000002
33316000,0.022228565,0.016306093,0.000463318,0,0.47000003
33320000,0.03201872,0.016129328,-0.005843415,0.15,0.46000004
33324000,0.031416614,0.015839169,-0.005989741,0.15,0.45000005
33328000,0.030193772,0.015712807,-0.006087095,0.15,0.44000006
33332000,0.029716086,0.015715607,-0.005966091,0.15,0.43000007
33336000,0.030034743,0.015786327,-0.005779455,0.15,0.42000008
33340000,0.03090274,0.015789513,-0.00576746,0.15,0.4100001
33344000,0.032051153,0.015618488,-0.005792866,0.15,0.4000001
33352000,0.03256009,0.015424675,-0.005580145,0.15,0.3800001
33356000,0.03145245,0.015857624,-0.005306517,0.15,0.37000012
33360000,0.03097348,0.016139064,-0.005621528,0.15,0.36000013
33364000,0.030854827,0.016300289,-0.005951548,0.15,0.35000014
33368000,0.030740485,0.016399775,-0.005939628,0.15,0.34000015
33372000,0.03059025,0.01631866,-0.005632001,0.15,0.33000016
33376000,0.030616606,0.016023407,-0.005281211,0.15,0.32000017
33380000,0.031015238,0.015743803,-0.005006632,0.15,0.31000018
33384000,0.031625386,0.01563374,-0.005024675,0.15,0.3000002
33388000,0.03168271,0.015647124,-0.00521493,0.15,0.2900002
33392000,0.030959325,0.01576879,-0.0052092,0.15,0.2800002
33396000,0.030631756,0.01595043,-0.005150585,0.15,0.27000022
33400000,0.031159436,0.01605417,-0.00530177,0.15,0.26000023
33404000,0.031635635,0.01604435,-0.00562795,0.15,0.25000024
33408000,0.031890683,0.016086368,-0.005916736,0.15,0.24000023
33416000,0.0313638,0.015903054,-0.005776924,0.15,0.22000022
33424000,0.03167021,0.015508221,-0.005617515,0.15,0.20000021
33428000,0.032058373,0.015647957,-0.00547385,0.15,0.1900002
33432000,0.03236161,0.015936883,-0.005483901,0.15,0.1800002
33436000,0.033231508,0.016142929,-0.005517671,0.15,0.1700002
33440000,0.03387099,0.016251577,-0.005435812,0.15,0.16000019
33444000,0.032847587,0.016344527,-0.005493524,0.15,0.15000018
33448000,0.03168988,0.016309809,-0.00575543,0.15,0.14000018
33452000,0.03221634,0.016039953,-0.006060936,0.15,0.13000017
33456000,0.032984946,0.015742583,-0.006213594,0.15,0.120000176
33460000,0.032685887,0.015673148,-0.0060202,0.15,0.11000018
33464000,0.032332756,0.015742159,-0.005712744,0.15,0.10000018
33468000,0.03243994,0.01577858,-0.005580807,0.15,0.09000018
33472000,0.032247074,0.015871117,-0.005550337,0.15,0.080000184
33476000,0.0316452,0.015893603,-0.005485858,0.15,0.07000019
33480000,0.031101478,0.015737228,-0.005330895,0.15,0.06000019
33484000,0.030531863,0.015592087,-0.005217652,0.15,0.05000019
33488000,0.030421516,0.01553377,-0.005356356,0.15,0.040000193
33492000,0.03131944,0.015583108,-0.00567282,0.15,0.030000193
33496000,0.032362852,0.015713103,-0.005955146,0.15,0.020000193
33500000,0.032597177,0.015734581,-0.006204365,0.15,0.010000194
33504000,0.03230377,0.015814982,-0.006364934,0.15,1.94E-07
33508000,0.03197147,0.01608348,-0.006341193,0.15,0
33512000,0.03163991,0.016186517,-0.006229231,0.15,0
33516000,0.031675052,0.016126767,-0.006082179,0.15,0
33520000,0.03237291,0.016100386,-0.005984578,0.15,0
33524000,0.033488218,0.016055468,-0.005934041,0.15,0
33528000,0.033576105,0.016024066,-0.00581286,0.15,0
33532000,0.031934906,0.016193502,-0.005678632,0.15,0
33536000,0.03069644,0.016418956,-0.005777218,0.15,0
33540000,0.031008424,0.01650538,-0.005972589,0.15,0
33544000,0.031501517,0.016615417,-0.005935399,0.15,0
33548000,0.031317916,0.016705636,-0.005928038,0.15,0
33552000,0.030733783,0.016722146,-0.006081941,0.15,0
33556000,0.030483164,0.016623555,-0.006090892,0.15,0
33560000,0.031260036,0.016418349,-0.005881453,0.15,0
33568000,0.031873237,0.015807424,-0.005106615,0.15,0
33572000,0.031100588,0.015626095,-0.00483607,0.15,0
33576000,0.030489791,0.015665203,-0.004814745,0.15,0
33580000,0.030387118,0.015860949,-0.004980801,0.15,0
33584000,0.030477652,0.016220286,-0.005214494,0.15,0
33588000,0.030053556,0.016736561,-0.005394947,0.15,0
33592000,0.029961988,0.017127143,-0.00551864,0.15,0
33600000,0.032308046,0.016661866,-0.006024369,0.15,0
33604000,0.03339448,0.01650976,-0.006159787,0.15,0
33608000,0.033335507,0.016440948,-0.006127804,0.15,0
33612000,0.032947436,0.016250785,-0.00602237,0.15,0
33616000,0.032788157,0.015997812,-0.005789033,0.15,0
33620000,0.032344896,0.015749436,-0.005450008,0.15,0
33624000,0.031583775,0.015604361,-0.0053527,0.15,0
33628000,0.03117622,0.015659172,-0.005495125,0.15,0
33632000,0.03146348,0.015885143,-0.005608419,0.15,0
33636000,0.031340055,0.016116938,-0.005747799,0.15,0
33640000,0.030164303,0.016128784,-0.005861763,0.15,0
33644000,0.029177042,0.016011123,-0.005830148,0.15,0
33648000,0.029067129,0.015905757,-0.005729234,0.15,0
33652000,0.029267529,0.01577503,-0.005664995,0.15,0
33656000,0.029280255,0.015786638,-0.005664528,0.15,0
33660000,0.03110693,0.016189266,-0.005631269,0.15,0
33668000,0.032199856,0.016626684,-0.005823697,0.15,0
33672000,0.033046413,0.016521443,-0.005845823,0.15,0
33680000,0.032331277,0.01627348,-0.00578713,0.15,0
33684000,0.031862244,0.016202204,-0.005738716,0.15,0
33688000,0.03198257,0.016024515,-0.005588206,0.15,0
33696000,0.03151241,0.016160775,-0.005431747,0.15,0
33704000,0.030388756,0.016270708,-0.00588674,0.15,0
33708000,0.030102205,0.015997937,-0.005850223,0.15,0
33712000,0.030232217,0.015666215,-0.005683994,0.15,0
33716000,0.030388467,0.015524926,-0.005597827,0.15,0
33720000,0.030684648,0.015636167,-0.005639763,0.15,0
33724000,0.031201037,0.015934201,-0.005656934,0.15,0
33728000,0.031307567,0.016270632,-0.005694183,0.15,0
33732000,0.030877318,0.016330468,-0.005716549,0.15,0
33736000,0.030901002,0.016162572,-0.005576188,0.15,0
33740000,0.031770978,0.016023038,-0.005331535,0.15,0
33744000,0.03178877,0.016034123,-0.005240803,0.15,0
33748000,0.030995468,0.01613612,-0.005389553,0.15,0
33752000,0.031014884,0.016149074,-0.005623143,0.15,0
33756000,0.031286687,0.016252784,-0.00581743,0.15,0
33760000,0.031448167,0.016493836,-0.005799505,0.15,0
33764000,0.03243895,0.016596321,-0.005551604,0.15,0
33768000,0.033903178,0.016569778,-0.005256383,0.15,0
33772000,0.034805555,0.016572783,-0.005101714,0.15,0
33776000,0.034813497,0.016572302,-0.005101595,0.15,0
33780000,0.033248488,0.016315948,-0.005338521,0.15,0
33784000,0.03132456,0.016107183,-0.005585948,0.15,0
33788000,0.030099606,0.015957028,-0.005934875,0.15,0
33792000,0.030303515,0.015985765,-0.006026403,0.15,0
33796000,0.030609649,0.01618727,-0.005691856,0.15,0
33800000,0.030626902,0.016357336,-0.005294233,0.15,0
33804000,0.031157477,0.0164358,-0.005159675,0.15,0
33808000,0.03163227,0.016518481,-0.005203897,0.15,0
33812000,0.032173753,0.016554428,-0.005182646,0.15,0
33816000,0.03263068,0.016334724,-0.005278062,0.15,0
33820000,0.032207787,0.01592999,-0.00557465,0.15,0
33824000,0.032219563,0.015913472,-0.005574831,0.15,0
33832000,0.03317201,0.01601688,-0.005918268,0.15,0
33836000,0.03269935,0.016210305,-0.0058505,0.15,0
33840000,0.031982854,0.01614083,-0.005846617,0.15,0
33844000,0.031223316,0.016066827,-0.005899929,0.15,0
33848000,0.0309078,0.01609936,-0.005941286,0.15,0
33852000,0.031382833,0.016152067,-0.005953034,0.15,0
33856000,0.03142807,0.016170068,-0.005950975,0.15,0
33860000,0.030655812,0.016208952,-0.005958944,0.15,0
33864000,0.03046726,0.016347865,-0.005917266,0.15,0
33868000,0.030945843,0.016418291,-0.005763302,0.15,0
33872000,0.030486217,0.016409123,-0.005489532,0.15,0
33876000,0.029524771,0.016459204,-0.005350296,0.15,0
33880000,0.029008346,0.016474765,-0.005566772,0.15,0
33884000,0.028399471,0.016305232,-0.005826871,0.15,0
33888000,0.028079977,0.01624574,-0.005826702,0.15,0
33892000,0.028560316,0.016399443,-0.00557409,0.15,0
33896000,0.029205723,0.01632484,-0.005360635,0.15,0
33900000,0.02925011,0.016224124,-0.005485936,0.15,0
33904000,0.029102683,0.016253315,-0.005711231,0.15,0
33912000,0.029917687,0.016044907,-0.005720097,0.15,0
33920000,0.032061268,0.015881555,-0.005612144,0.15,0
33924000,0.031588264,0.016168065,-0.005706893,0.15,0
33928000,0.030878587,0.016383093,-0.00566133,0.15,0
33936000,0.03084727,0.016448664,-0.005643875,0.15,0
33940000,0.032748543,0.016279973,-0.005598263,0.15,0
33944000,0.03367176,0.016212,-0.005550554,0.15,0
33948000,0.033580817,0.016332671,-0.005595833,0.15,0
33952000,0.03328108,0.01649958,-0.005730156,0.15,0
33960000,0.030572528,0.016382426,-0.005977858,0.15,0
33968000,0.02866901,0.015736984,-0.005885167,0.15,0
33976000,0.029088102,0.016042754,-0.005569734,0.15,0
33980000,0.032218505,0.016694117,-0.004933592,0.15,0
33984000,0.032996196,0.016717516,-0.00492843,0.15,0
33988000,0.031808287,0.016616581,-0.005286273,0.15,0
33992000,0.02995985,0.016285833,-0.00582103,0.15,0
33996000,0.029082768,0.015845561,-0.006135194,0.15,0
34000000,0.02906486,0.015825195,-0.00613594,0.15,0
34004000,0.029191753,0.015589372,-0.005779687,0.15,0
34008000,0.02991267,0.015818466,-0.005785729,0.15,0
34012000,0.030799666,0.016145462,-0.005682773,0.15,0
34016000,0.031582978,0.016149601,-0.005379666,0.15,0
34020000,0.032202106,0.015971478,-0.005329783,0.15,0
34024000,0.03208333,0.01598911,-0.005544784,0.15,0
34028000,0.031564854,0.01611873,-0.005646869,0.15,0
34032000,0.030966423,0.0162568,-0.005694959,0.15,0
34036000,0.030528773,0.016396618,-0.005847181,0.15,0
34040000,0.030999243,0.016492136,-0.006042056,0.15,0
34044000,0.031452984,0.016335016,-0.006220675,0.15,0
34048000,0.031111874,0.015891816,-0.006196237,0.15,0
34052000,0.03082414,0.015523821,-0.006019544,0.15,0
34056000,0.031300724,0.015436162,-0.005865119,0.15,0
34064000,0.032340042,0.015712122,-0.005630102,0.15,0
34068000,0.031296093,0.016005404,-0.005757853,0.15,0
34072000,0.03066531,0.01614147,-0.005908297,0.15,0
34076000,0.031177802,0.01607225,-0.005896228,0.15,0
34080000,0.031964935,0.015944619,-0.00571125,0.15,0
34088000,0.03253688,0.015845777,-0.005466661,0.15,0
34092000,0.031631682,0.015684063,-0.005409006,0.15,0
34096000,0.030918246,0.015238549,-0.005456768,0.15,0
34100000,0.030294089,0.015067902,-0.005487015,0.15,0
34104000,0.029308315,0.015302803,-0.005547721,0.15,0
34108000,0.028364478,0.01580338,-0.005619304,0.15,0
34112000,0.027954053,0.016276063,-0.005638174,0.15,0
34116000,0.028468853,0.01647778,-0.005612703,0.15,0
34120000,0.029416692,0.016467646,-0.005625615,0.15,0
34124000,0.029488659,0.016330997,-0.005829952,0.15,0
34128000,0.028905336,0.016217668,-0.006017585,0.15,0
34132000,0.028832804,0.016186088,-0.005982917,0.15,0
34136000,0.029602569,0.01630612,-0.006068321,0.15,0
34140000,0.030614387,0.016480641,-0.00633833,0.15,0
34144000,0.030878793,0.016303623,-0.006371828,0.15,0
34148000,0.03090283,0.015938103,-0.006177658,0.15,0
34152000,0.031309802,0.015676223,-0.006059447,0.15,0
34156000,0.031255256,0.015511101,-0.005984254,0.15,0
34160000,0.031102479,0.015602804,-0.005899379,0.15,0
34164000,0.031734735,0.015904978,-0.005817348,0.15,0
34168000,0.03267166,0.016184343,-0.005776936,0.15,0
34176000,0.032007217,0.016198399,-0.005733701,0.15,0
34184000,0.030481797,0.01577974,-0.005635138,0.15,0
34188000,0.030433353,0.015768109,-0.005576916,0.15,0
34192000,0.030311923,0.01595417,-0.005572406,0.15,0
34196000,0.029598512,0.016090542,-0.005545924,0.15,0
34200000,0.028551826,0.0161282,-0.005450134,0.15,0
34204000,0.028466266,0.016111504,-0.005417869,0.15,0
34208000,0.029083168,0.015982848,-0.005476815,0.15,0
34212000,0.029387765,0.015903294,-0.005531036,0.15,0
34216000,0.029353084,0.015945347,-0.005643878,0.15,0
34220000,0.02889113,0.01607927,-0.005793382,0.15,0
34224000,0.027848272,0.016265465,-0.005835468,0.15,0
34228000,0.02669154,0.016339822,-0.005820644,0.15,0
34232000,0.026523815,0.016303776,-0.005782423,0.15,0
34236000,0.027353464,0.016306898,-0.005749748,0.15,0
34244000,0.028624393,0.01621965,-0.005913605,0.15,0
34248000,0.02869824,0.016024029,-0.006086346,0.15,0
34252000,0.028957693,0.01592126,-0.006192777,0.15,0
34256000,0.021599475,0.016058711,-0.001647256,0,0
34260000,0.02351445,0.016228884,-0.00228126,0,0
34264000,0.02419443,0.01626329,-0.002643376,0,0
34268000,0.023792805,0.01620244,-0.002008583,0,0
34272000,0.022144733,0.0161212,-0.001255649,0,0
34276000,0.020489516,0.016140476,-0.000380839,0,0
34280000,0.019769521,0.01626493,0.00107361,1,0
34284000,0.0191467,0.016263643,0.00223831,1,0
34288000,0.019154625,0.016241357,0.00222162,1,0
34292000,0.021393856,0.015946208,0.001617367,1,0
34296000,0.02388647,0.016156679,0.00076782,1,0
34304000,0.024276912,0.016844045,-0.000760938,1,0
34308000,0.023798656,0.016752684,0.000469979,1,0
34312000,0.024087053,0.016514082,0.001725465,1,0
34316000,0.024546102,0.016259387,0.002504568,1,0
34320000,0.024353173,0.015913965,0.002744679,1,0
34324000,0.023620326,0.015688399,0.002656953,1,0
34328000,0.02360198,0.015693858,0.002639429,1,0
34332000,0.02105511,0.015907422,0.000715699,1,0
34340000,0.02012736,0.01597564,-0.001392464,1,0
34344000,0.021154243,0.016085288,-0.000889837,1,0
34352000,0.022893794,0.016204087,-0.001000154,1,0
34356000,0.023799168,0.016072433,-0.001129186,1,0
34360000,0.022526395,0.01593056,-0.001063167,1,0
34364000,0.021681296,0.015856326,-0.001760881,1,0
34368000,0.021524899,0.015831435,-0.00271097,1,0
34372000,0.021031622,0.015841663,-0.002364076,1,0
34376000,0.020547628,0.015925163,-0.001624058,1,0
34384000,0.020508451,0.01609285,-0.001945328,1,0
34388000,0.020777404,0.016107928,-0.00199201,1,0
34392000,0.02159765,0.016263494,-0.001583187,1,0
34400000,0.022467388,0.016365908,-0.001197225,1,0
34404000,0.02196697,0.016337818,-0.000998944,1,0
34408000,0.02194882,0.016388142,-0.001180929,1,0
34416000,0.022615712,0.016188862,-0.000556952,1,0
34420000,0.021323396,0.016174912,-0.001248582,1,0
34424000,0.020179087,0.016217088,-0.002748076,1,0
34428000,0.020235028,0.016183252,-0.003587679,1,0
34432000,0.021021534,0.016065752,-0.0028739,1,0
34436000,0.02199388,0.016009409,-0.001457624,1,0
34440000,0.022152377,0.016130853,-0.000745657,1,0
34444000,0.02103151,0.016346438,-0.000982655,1,0
34448000,0.020770168,0.016469896,-0.001463549,1,0
34452000,0.022459611,0.016396318,-0.001565405,1,0
34456000,0.023971993,0.016167156,-0.001221278,1,0
34464000,0.022347365,0.016020844,-0.002060616,1,0
34468000,0.021357873,0.016225131,-0.002128638,1,0
34472000,0.020458302,0.01627925,-0.00087464,1,0
34476000,0.020385383,0.016087774,0.000171993,1,0
34480000,0.021374088,0.015931567,0.000205759,1,0
34484000,0.022360662,0.016035475,1.47E-05,1,0
34488000,0.022341957,0.016034301,6.94E-05,1,0
34492000,0.020891307,0.016107367,-8.97E-05,1,0
34496000,0.019397013,0.015825408,-0.000515402,1,0
34504000,0.020083614,0.0156498,-0.00179107,1,0
34508000,0.02141452,0.015682744,-0.001659934,1,0
34512000,0.022374323,0.015812708,-0.001290906,1,0
34520000,0.022377934,0.016083324,-0.0006518,1,0
34524000,0.019234255,0.016220946,-0.000468286,1,0
34532000,0.017276473,0.016114049,-0.000500068,1,0
34536000,0.01800924,0.016213855,-0.000235453,1,0
34540000,0.01916637,0.016302083,9.23E-05,1,0
34544000,0.020745384,0.016555129,0.000265216,1,0
34548000,0.021682985,0.01690527,9.02E-05,1,0
34552000,0.021334091,0.017008118,-0.000478341,1,0
34556000,0.02083151,0.016832627,-0.001174671,1,0
34560000,0.02120856,0.016536018,-0.001832711,1,0
34564000,0.021721492,0.016230423,-0.00209673,1,0
34568000,0.021534301,0.016011853,-0.00191057,1,0
34572000,0.02075081,0.01610005,-0.001286802,1,0
34576000,0.02009626,0.016368229,-0.000749703,1,0
34580000,0.020195523,0.016555516,-0.00032354,1,0
34584000,0.020864071,0.016610965,-0.000170366,1,0
34588000,0.021525042,0.016409164,-0.000252717,1,0
34592000,0.018832466,0.014507378,-0.000307642,1,0
34596000,0.018829774,0.014530912,-0.000318674,1,0
34600000,0.018342057,0.01476358,-0.000763888,1,0
34604000,0.017962059,0.01497168,-0.00119438,1,0
34608000,0.018175572,0.015013694,-0.001365124,1,0
34616000,0.018652631,0.014982553,-0.001284277,1,0
34620000,0.018513767,0.014890115,-0.001246527,1,0
34624000,0.017933311,0.014886798,-0.001085748,1,0
34628000,0.017123282,0.014807061,-0.001160922,1,0
34632000,0.01618037,0.014774941,-0.001638375,1,0
34636000,0.015873794,0.014720455,-0.001970003,1,0
34640000,0.01683875,0.014487071,-0.002168635,1,0
34644000,0.018109245,0.014178207,-0.002527002,1,0
34648000,0.018091975,0.014156178,-0.002728396,1,0
34652000,0.017717058,0.014200714,-0.003895419,1,0
34656000,0.017293606,0.014451594,-0.004803402,1,0
34660000,0.017344628,0.014633709,-0.005491743,1,0
34664000,0.017652815,0.014856153,-0.0060609,1,0
34668000,0.018324263,0.014949197,-0.006419851,1,0
34672000,0.01953854,0.014877376,-0.007145925,1,0
34680000,0.020779908,0.014936078,-0.008243977,1,0
34684000,0.02007709,0.015115595,-0.009505575,1,0
34688000,0.018908914,0.015050283,-0.010558454,1,0
34692000,0.013157809,0.011607309,-0.011398321,1,0
34696000,0.013076121,0.011438398,-0.012645895,1,0
34700000,0.012676846,0.011344991,-0.013625336,1,0
34704000,0.012417167,0.011372948,-0.014955901,1,0
34712000,0.012632324,0.011465504,-0.016541598,1,0
34716000,0.012067142,0.011564128,-0.017669039,1,0
34720000,0.011762644,0.011577532,-0.019046577,1,0
34728000,0.012148175,0.011727506,-0.021046834,1,0
34732000,0.012264898,0.011758683,-0.021518651,1,0
34736000,0.011938125,-0.38374045,-0.022489224,1,0
34744000,0.010835887,-0.38428462,-0.023843426,1,0
34752000,0.006278046,-0.38416728,-0.025712395,1,0
34756000,0.004581082,-0.38358483,-0.026485153,1,0
34760000,0.004449174,-0.36955696,-0.027466882,1,0
34768000,-0.003186597,-0.36678794,-0.031002432,1,0
34776000,-0.008934665,-0.36465618,-0.033930704,1,0
34780000,-0.011315135,-0.36355534,-0.03498885,1,0
34784000,-0.013557127,-0.3490015,-0.036668636,1,0
34788000,-0.015764713,-0.34776652,-0.037675794,1,0
34792000,-0.012667044,-0.29440373,-0.03935238,1,0
34796000,-0.014472386,-0.29342717,-0.0404294,1,0
34800000,-0.016776692,-0.2922928,-0.04220444,1,0
34808000,-0.01953805,-0.27998707,-0.044486262,1,0
34812000,-0.022750327,-0.2784491,-0.045417387,1,0
34816000,-0.024341917,-0.27753404,-0.047025587,1,0
34820000,-0.02579483,-0.27664372,-0.04793517,1,0
34824000,-0.02718095,-0.27580163,-0.049483955,1,0
34828000,-0.028712912,-0.27506742,-0.050230287,1,0
34832000,-0.03000562,-0.26432288,-0.051700547,1,0
34836000,-0.030923575,-0.2635762,-0.052516695,1,0
34840000,-0.031914603,-0.26288256,-0.054146267,1,0
34844000,-0.03324951,-0.26222175,-0.055011854,1,0
34848000,-0.03447208,-0.2615719,-0.05644086,1,0
34852000,-0.035322182,-0.2609682,-0.057130516,1,0
34856000,-0.036358472,-0.25090083,-0.05861762,1,0
34860000,-0.037611134,-0.25036153,-0.05927026,1,0
34864000,-0.038530327,-0.2497873,-0.06053756,1,0
34868000,-0.03897007,-0.24927373,-0.061050683,1,0
34872000,-0.039411046,-0.2486579,-0.06233731,1,0
34876000,-0.039656684,-0.24832916,-0.062606044,1,0
34880000,-0.040270656,-0.23867537,-0.063843004,1,0
34884000,-0.04057473,-0.23822102,-0.06453556,1,0
34888000,-0.04086578,-0.23787302,-0.065862715,1,0
34892000,-0.03350844,-0.21238165,-0.06639144,1,0
34896000,-0.033862863,-0.21193434,-0.06757645,1,0
34900000,-0.033485834,-0.21199858,-0.06779092,1,0
34904000,-0.033783205,-0.20411332,-0.068712555,1,0
34908000,-0.03427344,-0.20406456,-0.06900768,1,0
34912000,-0.03454122,-0.20411594,-0.07009621,1,0
34916000,-0.034752198,-0.20424129,-0.07051618,1,0
34920000,-0.035290867,-0.20444435,-0.071528375,1,0
34924000,-0.03612745,-0.20472819,-0.07178734,1,0
34928000,-0.036920827,-0.19759287,-0.0726151,1,0
34932000,-0.03739239,-0.19789845,-0.072638735,1,0
34936000,-0.037764225,-0.1977734,-0.072648644,1,0
34944000,-0.038484428,-0.1986042,-0.071263105,1,0
34948000,-0.038841747,-0.19905216,-0.07038675,1,0
34952000,-0.039049715,-0.19246414,-0.07008457,1,0
34956000,-0.039245855,-0.19308308,-0.06923,1,0
34960000,-0.03946015,-0.19357078,-0.06891453,1,0
34968000,-0.040296443,-0.19430296,-0.067524195,1,0
34972000,-0.040899944,-0.19483781,-0.066570655,1,0
34976000,-0.04141359,-0.18845208,-0.066060945,1,0
34980000,-0.041907523,-0.18898956,-0.0649969,1,0
34984000,-0.04226155,-0.18952869,-0.06448431,1,0
34988000,-0.042614073,-0.19011953,-0.06355458,1,0
34992000,-0.038145747,-0.17731781,-0.063051134,1,0
34996000,-0.038902767,-0.17786503,-0.06200561,1,0
35000000,-0.039581962,-0.17209072,-0.061350405,1,0
35008000,-0.0403593,-0.17289364,-0.0603062,1,0
35016000,-0.041809052,-0.17408115,-0.057819054,1,0
35024000,-0.04334159,-0.16904554,-0.0559351,1,0
35028000,-0.044007987,-0.1696392,-0.054892022,1,0
35032000,-0.044531614,-0.17012694,-0.05416183,1,0
35036000,-0.045164015,-0.17052966,-0.053019017,1,0
35040000,-0.04625832,-0.17095426,-0.052166563,1,0
35044000,-0.047837913,-0.17137957,-0.050981753,1,0
35048000,-0.049486645,-0.16586284,-0.050108865,1,0
35056000,-0.05155286,-0.16663557,-0.0483507,1,0
35060000,-0.05191386,-0.16700183,-0.047426917,1,0
35064000,-0.052192386,-0.16732207,-0.046748288,1,0
35072000,-0.053323276,-0.16197035,-0.04505241,1,0
35076000,-0.054240264,-0.16218396,-0.044097587,1,0
35080000,-0.055525087,-0.16234124,-0.043435965,1,0
35084000,-0.056875534,-0.16242187,-0.042582296,1,0
35088000,-0.05790139,-0.16250904,-0.04101134,1,0
35092000,-0.053529978,-0.15412903,-0.038928594,1,0
35096000,-0.053998336,-0.14906652,-0.03761308,1,0
35100000,-0.054893654,-0.14888562,-0.03507442,1,0
35104000,-0.05544133,-0.14892662,-0.0332554,1,0
35108000,-0.055841565,-0.14899601,-0.031273235,1,0
35112000,-0.056335203,-0.14901854,-0.02941661,1,0
35116000,-0.0570067,-0.14900522,-0.027406408,1,0
35120000,-0.057681028,-0.14380163,-0.02552661,1,0
35124000,-0.05803067,-0.14371632,-0.023592541,1,0
35128000,-0.058258064,-0.14354287,-0.021753786,1,0
35132000,-0.05871111,-0.14331636,-0.019824795,1,0
35136000,-0.05931583,-0.14309826,-0.017972106,1,0
35140000,-0.059927367,-0.14297043,-0.016057925,1,0
35144000,-0.060426358,-0.13782708,-0.014214921,1,0
35152000,-0.061287146,-0.1377696,-0.010688022,1,0
35160000,-0.061949436,-0.13720839,-0.00691079,1,0
35164000,-0.061880983,-0.13696945,-0.005218495,1,0
35168000,-0.06186745,-0.131832,-0.003610754,1,0
35176000,-0.06281237,-0.13166475,-0.000240862,1,0
35180000,-0.06358333,-0.13149086,0.001526939,1,0
35184000,-0.063952595,-0.13115844,0.003296062,1,0
35188000,-0.06388277,-0.13102534,0.004801036,1,0
35192000,-0.063874215,-0.12600034,0.006334378,1,0
35196000,-0.06415941,-0.12591144,0.007849292,1,0
35200000,-0.064530544,-0.12580281,0.009330509,1,0
35204000,-0.064757936,-0.1256935,0.010641934,1,0
35208000,-0.06478694,-0.12564087,0.011977746,1,0
35212000,-0.06464552,-0.12562527,0.013273553,1,0
35216000,-0.06459886,-0.120720856,0.014563866,1,0
35220000,-0.064751156,-0.12059058,0.015664073,1,0
35224000,-0.06484109,-0.12051076,0.016789805,1,0
35232000,-0.06525594,-0.12044028,0.019250847,1,0
35236000,-0.0650207,-0.1206085,0.020033333,1,0
35240000,-0.064978585,-0.116008125,0.021055464,1,0
35244000,-0.06480942,-0.116126575,0.022003308,1,0
35248000,-0.06449932,-0.11615954,0.022918144,1,0
35256000,-0.064173,-0.11634519,0.0241125,1,0
35260000,-0.06441865,-0.11647618,0.024785055,1,0
35264000,-0.064813495,-0.11189486,0.025611997,1,0
35268000,-0.06495387,-0.11199259,0.02624936,1,0
35272000,-0.06467347,-0.11213046,0.026886871,1,0
35276000,-0.06445336,-0.11230162,0.02745244,1,0
35280000,-0.06454219,-0.11248834,0.028088197,1,0
35288000,-0.06515203,-0.108210556,0.029456194,1,0
35296000,-0.0656617,-0.10889966,0.030306872,1,0
35300000,-0.06523198,-0.10932444,0.030188594,1,0
35304000,-0.065544136,-0.10946936,0.03091212,1,0
35312000,-0.065161474,-0.10548459,0.031371262,1,0
35316000,-0.065378994,-0.105994254,0.031060582,1,0
35320000,-0.06569001,-0.10620117,0.03160519,1,0
35324000,-0.06619839,-0.10682899,0.031235337,1,0
35328000,-0.06644805,-0.10734207,0.03127644,1,0
35332000,-0.0665503,-0.10783767,0.031225994,1,0
35336000,-0.06664856,-0.1037442,0.031207453,1,0
35340000,-0.06696085,-0.104165226,0.030997967,1,0
35344000,-0.06737087,-0.10457009,0.03077578,1,0
35348000,-0.06758743,-0.10493538,0.030473359,1,0
35352000,-0.0675441,-0.10533247,0.030268513,1,0
35356000,-0.06750761,-0.1057244,0.030031424,1,0
35360000,-0.06764959,-0.10156964,0.029843107,1,0
35364000,-0.06801339,-0.10191782,0.029459177,1,0
35368000,-0.06863241,-0.102382205,0.029052544,1,0
35372000,-0.06937639,-0.10291369,0.02854601,1,0
35376000,-0.070148714,-0.103388965,0.028146707,1,0
35380000,-0.07085158,-0.103753746,0.027723162,1,0
35384000,-0.071164675,-0.099633746,0.027615432,1,0
35388000,-0.07174845,-0.09996215,0.026732005,1,0
35392000,-0.07185121,-0.100280635,0.026036639,1,0
35396000,-0.07179085,-0.10060347,0.02519193,1,0
35400000,-0.071774766,-0.10097612,0.024418542,1,0
35404000,-0.071814984,-0.10138753,0.023605714,1,0
35408000,-0.072017014,-0.09737776,0.022836167,1,0
35412000,-0.07239637,-0.097737744,0.0220503,1,0
35416000,-0.07285639,-0.098067716,0.02129123,1,0
35420000,-0.073297225,-0.098422274,0.020413134,1,0
35424000,-0.0736295,-0.09881245,0.019530468,1,0
35428000,-0.07395181,-0.09920737,0.018651273,1,0
35432000,-0.074334875,-0.0951779,0.01787521,1,0
35436000,-0.07484475,-0.09547575,0.017058326,1,0
35440000,-0.07539229,-0.095785454,0.016235415,1,0
35444000,-0.07567392,-0.09614708,0.015323688,1,0
35448000,-0.07575928,-0.09656886,0.014402975,1,0
35452000,-0.07597045,-0.09697099,0.013495748,1,0
35456000,-0.076289386,-0.092972375,0.012573457,1,0
35460000,-0.07658877,-0.09330761,0.011595533,1,0
35464000,-0.07672619,-0.09362428,0.010684255,1,0
35468000,-0.07669921,-0.09397476,0.009800007,1,0
35472000,-0.07678311,-0.09437908,0.008906927,1,0
35476000,-0.07705381,-0.094787486,0.007950348,1,0
35480000,-0.07750152,-0.0908277,0.0069465,1,0
35484000,-0.07796548,-0.09123626,0.005927916,1,0
35488000,-0.07820181,-0.091745995,0.004985585,1,0
35492000,-0.078349635,-0.09224249,0.004072928,1,0
35496000,-0.07857372,-0.09265929,0.003139872,1,0
35500000,-0.07869746,-0.09300261,0.002237771,1,0
35504000,-0.078679375,-0.0890107,0.001345452,1,0
35508000,-0.07876295,-0.089366734,0.000379363,1,0
35512000,-0.07882226,-0.089785635,-0.000644888,1,0
35516000,-0.07868913,-0.09020406,-0.001625289,1,0
35520000,-0.07856507,-0.090572484,-0.002507456,1,0
35524000,-0.078557126,-0.09092748,-0.003215462,1,0
35528000,-0.078657225,-0.08705181,-0.00385214,1,0
35536000,-0.078926355,-0.08794381,-0.005303805,1,0
35540000,-0.079096965,-0.08835167,-0.006124508,1,0
35544000,-0.0792597,-0.088764325,-0.006956958,1,0
35548000,-0.079401955,-0.089227624,-0.007763931,1,0
35552000,-0.07951787,-0.08542062,-0.008561213,1,0
35556000,-0.079636484,-0.08585217,-0.009297684,1,0
35560000,-0.07960363,-0.0862385,-0.010016572,1,0
35564000,-0.07985424,-0.08662866,-0.010769361,1,0
35568000,-0.07969994,-0.08702734,-0.011214255,1,0
35576000,-0.08024845,-0.08376394,-0.012583446,1,0
35580000,-0.08030329,-0.0841974,-0.013304949,1,0
35584000,-0.0803935,-0.08458873,-0.013919697,1,0
35592000,-0.08070327,-0.08544192,-0.014788218,1,0
35596000,-0.08095694,-0.08596512,-0.01516878,1,0
35600000,-0.08087987,-0.082235746,-0.015619135,1,0
35604000,-0.0806197,-0.08270486,-0.016059654,1,0
35608000,-0.08057061,-0.083139926,-0.016498674,1,0
35612000,-0.08066356,-0.08352027,-0.016939076,1,0
35616000,-0.08070631,-0.08392292,-0.017372036,1,0
35620000,-0.080600455,-0.08444258,-0.01767484,1,0
35624000,-0.08035191,-0.08073455,-0.017895706,1,0
35628000,-0.08023115,-0.0812072,-0.018142313,1,0
35632000,-0.08044896,-0.08167515,-0.018642804,1,0
35636000,-0.080462225,-0.08220086,-0.018757395,1,0
35640000,-0.08041566,-0.08268254,-0.019045323,1,0
35644000,-0.08042607,-0.08314151,-0.0193098,1,0
35648000,-0.08063044,-0.07939726,-0.01972775,1,0
35652000,-0.08042493,-0.07983105,-0.019641481,1,0
35656000,-0.08014859,-0.08017711,-0.01968304,1,0
35660000,-0.08000168,-0.080536455,-0.019696252,1,0
35664000,-0.08020696,-0.08092534,-0.019822124,1,0
35668000,-0.080405824,-0.08133606,-0.020005684,1,0
35672000,-0.08038804,-0.077602506,-0.020125922,1,0
35676000,-0.08040573,-0.07814346,-0.020150518,1,0
35680000,-0.080580786,-0.0786125,-0.020184439,1,0
35684000,-0.080722176,-0.078973286,-0.020199275,1,0
35688000,-0.08070795,-0.07932597,-0.020224523,1,0
35692000,-0.08061607,-0.0797447,-0.020243008,1,0
35696000,-0.080479234,-0.07603731,-0.02026141,1,0
35700000,-0.08030352,-0.07655145,-0.020230424,1,0
35704000,-0.08015226,-0.07700196,-0.02018353,1,0
35708000,-0.08009703,-0.077432945,-0.020110913,1,0
35716000,-0.08025403,-0.07832925,-0.01989935,1,0
35720000,-0.08011862,-0.07456516,-0.019742584,1,0
35728000,-0.0800859,-0.075430036,-0.019566596,1,0
35732000,-0.07969815,-0.075852595,-0.019338032,1,0
35736000,-0.07948057,-0.07626808,-0.01924551,1,0
35740000,-0.07925564,-0.07665394,-0.019049365,1,0
35744000,-0.07927579,-0.072853126,-0.018848095,1,0
35748000,-0.079752564,-0.0732494,-0.018688124,1,0
35752000,-0.08033839,-0.07360995,-0.018543772,1,0
35760000,-0.080213375,-0.074532114,-0.018240254,1,0
35768000,-0.080180846,-0.07124947,-0.017921934,1,0
35776000,-0.080329955,-0.072111465,-0.017662697,1,0
35780000,-0.08032573,-0.07235864,-0.017373148,1,0
35784000,-0.08046654,-0.07270629,-0.017242642,1,0
35788000,-0.08051084,-0.073137075,-0.017113833,1,0
35792000,-0.08043973,-0.06939359,-0.016958887,1,0
35796000,-0.08036448,-0.06987455,-0.016845005,1,0
35804000,-0.08035674,-0.07071619,-0.016747758,1,0
35808000,-0.080274135,-0.0711247,-0.016664702,1,0
35812000,-0.08009961,-0.07152513,-0.016493663,1,0
35816000,-0.08004782,-0.06768538,-0.016364044,1,0
35820000,-0.080054246,-0.0680774,-0.01629601,1,0
35824000,-0.07983672,-0.0684184,-0.01625704,1,0
35828000,-0.07960475,-0.06871292,-0.016199209,1,0
35832000,-0.07964824,-0.069021046,-0.016112406,1,0
35836000,-0.0797099,-0.069335386,-0.01602896,1,0
35840000,-0.07979064,-0.06542748,-0.015938085,1,0
35844000,-0.080158606,-0.06578638,-0.015810248,1,0
35848000,-0.08046724,-0.06623587,-0.01570934,1,0
35852000,-0.08040295,-0.06672264,-0.01564954,1,0
35856000,-0.080188185,-0.06714461,-0.0156904,1,0
35860000,-0.080035545,-0.06752731,-0.015761603,1,0
35864000,-0.079941146,-0.06365598,-0.015729513,1,0
35872000,-0.080074675,-0.06435226,-0.015783172,1,0
35876000,-0.08017801,-0.064722136,-0.015975395,1,0
35880000,-0.080240496,-0.06506402,-0.016121674,1,0
35888000,-0.08028169,-0.061592057,-0.016310815,1,0
35896000,-0.08058442,-0.062438693,-0.016476206,1,0
35904000,-0.08065327,-0.06318197,-0.016535942,1,0
35908000,-0.080210075,-0.063510194,-0.016744014,1,0
35912000,-0.08027415,-0.05954703,-0.016997118,1,0
35920000,-0.08064461,-0.06011066,-0.017500734,1,0
35924000,-0.080718376,-0.060412534,-0.01772164,1,0
35928000,-0.08078249,-0.06080214,-0.017925737,1,0
35932000,-0.08076144,-0.06120205,-0.018129678,1,0
35936000,-0.080766365,-0.057238523,-0.018409526,1,0
35940000,-0.08096484,-0.057487864,-0.018732535,1,0
35944000,-0.08122768,-0.05781565,-0.019045155,1,0
35952000,-0.08138043,-0.05867415,-0.019555436,1,0
35956000,-0.08117474,-0.059141308,-0.01980435,1,0
35960000,-0.08101689,-0.055307217,-0.020122252,1,0
35964000,-0.080900654,-0.05568947,-0.020479478,1,0
35968000,-0.080816954,-0.05606807,-0.02082953,1,0
35976000,-0.08103277,-0.05680213,-0.021455294,1,0
35980000,-0.08151993,-0.05715613,-0.02201489,1,0
35984000,-0.08175469,-0.053170055,-0.022420188,1,0
35988000,-0.08170954,-0.053477064,-0.022795817,1,0
35992000,-0.08158068,-0.053835437,-0.02316868,1,0
35996000,-0.0816778,-0.054211326,-0.023504492,1,0
36000000,-0.08177526,-0.054554686,-0.02383189,1,0
36004000,-0.08209824,-0.054942124,-0.024401024,1,0
36008000,-0.08224308,-0.051045485,-0.024951264,1,0
36012000,-0.08239367,-0.051471848,-0.025351614,1,0
36016000,-0.082365185,-0.051864948,-0.025656242,1,0
36020000,-0.0822185,-0.05220539,-0.026093066,1,0
36024000,-0.08216571,-0.052541718,-0.02665309,1,0
36028000,-0.082196936,-0.052914623,-0.027156398,1,0
36032000,-0.082309484,-0.04898592,-0.027588567,1,0
36036000,-0.08250717,-0.0493353,-0.02807888,1,0
36040000,-0.082745865,-0.04968593,-0.028607197,1,0
36044000,-0.08296542,-0.050044578,-0.02906986,1,0
36048000,-0.083057806,-0.050411306,-0.029479936,1,0
36056000,-0.08294402,-0.047041126,-0.030327804,1,0
36060000,-0.08288289,-0.04748612,-0.030779354,1,0
36064000,-0.0827677,-0.04791893,-0.03125127,1,0
36068000,-0.08264068,-0.048339695,-0.031735037,1,0
36072000,-0.08254517,-0.04875774,-0.032185633,1,0
36080000,-0.08263445,-0.04514461,-0.03302514,1,0
36088000,-0.08281691,-0.045867696,-0.033999473,1,0
36096000,-0.083137,-0.04679116,-0.035148524,1,0
36100000,-0.08302286,-0.04723589,-0.0355727,1,0
36104000,-0.08270058,-0.043355163,-0.03600544,1,0
36108000,-0.08238873,-0.043789722,-0.036505826,1,0
36112000,-0.08244666,-0.04420109,-0.037005164,1,0
36116000,-0.08299766,-0.044561736,-0.037467442,1,0
36120000,-0.08352357,-0.0449119,-0.03792036,1,0
36124000,-0.08355739,-0.045325126,-0.038367644,1,0
36128000,-0.08340078,-0.041407548,-0.038762912,1,0
36132000,-0.08330663,-0.04183632,-0.03912976,1,0
36136000,-0.08337421,-0.04225893,-0.039471492,1,0
36140000,-0.083676614,-0.042697288,-0.039793283,1,0
36144000,-0.08387728,-0.04314097,-0.040167008,1,0
36148000,-0.08391715,-0.04355616,-0.040631816,1,0
36152000,-0.084107645,-0.039555904,-0.041080043,1,0
36156000,-0.0843144,-0.039925627,-0.041480504,1,0
36160000,-0.08434526,-0.040333875,-0.04180959,1,0
36168000,-0.08417489,-0.041167464,-0.042510472,1,0
36172000,-0.08419388,-0.04166978,-0.04293208,1,0
36176000,-0.08436895,-0.037739307,-0.043356262,1,0
36180000,-0.08455926,-0.038120516,-0.04371085,1,0
36184000,-0.08460255,-0.038494248,-0.04401496,1,0
36188000,-0.084393464,-0.038885776,-0.044313923,1,0
36192000,-0.08414089,-0.039321497,-0.044548154,1,0
36196000,-0.08415015,-0.039801113,-0.044805646,1,0
36200000,-0.084330656,-0.035880186,-0.04509139,1,0
36204000,-0.08450882,-0.036316395,-0.04540313,1,0
36208000,-0.08459236,-0.036687445,-0.04574039,1,0
36212000,-0.08447295,-0.037008867,-0.046066746,1,0
36216000,-0.08411385,-0.037365567,-0.046344265,1,0
36220000,-0.08373237,-0.03778805,-0.046360202,1,0
36224000,-0.08370994,-0.033873998,-0.046336688,1,0
36228000,-0.08400558,-0.034424677,-0.04624641,1,0
36232000,-0.08427305,-0.03492616,-0.04613903,1,0
36236000,-0.08442088,-0.035359696,-0.046136633,1,0
36240000,-0.08439829,-0.035753556,-0.046204057,1,0
36244000,-0.08418604,-0.036145292,-0.04627715,1,0
36248000,-0.083974905,-0.032128923,-0.046238817,1,0
36252000,-0.083944924,-0.032530718,-0.046076443,1,0
36256000,-0.08405441,-0.0329792,-0.045839354,1,0
36260000,-0.08413285,-0.033533033,-0.045706674,1,0
36264000,-0.08422101,-0.03407501,-0.0456812,1,0
36268000,-0.084292755,-0.034519643,-0.045712672,1,0
36272000,-0.08430427,-0.030472893,-0.045737542,1,0
36276000,-0.084425904,-0.030913737,-0.045800388,1,0
36280000,-0.084480084,-0.03138049,-0.04580415,1,0
36284000,-0.08432229,-0.031890817,-0.04573007,1,0
36288000,-0.08415353,-0.0321885,-0.04560803,1,0
36292000,-0.08406153,-0.032471485,-0.04555582,1,0
36296000,-0.08404804,-0.028452232,-0.045514103,1,0
36300000,-0.08426597,-0.028987471,-0.04550132,1,0
36304000,-0.08454962,-0.029463181,-0.04546845,1,0
36308000,-0.08454418,-0.02990223,-0.04537327,1,0
36312000,-0.084316805,-0.03032687,-0.045261346,1,0
36316000,-0.084060945,-0.030681195,-0.045253403,1,0
36320000,-0.0839395,-0.02656557,-0.045246568,1,0
36324000,-0.084089465,-0.026965065,-0.045181885,1,0
36328000,-0.08430903,-0.027400764,-0.04510384,1,0
36332000,-0.08435122,-0.027829502,-0.04512082,1,0
36336000,-0.08414968,-0.028306957,-0.045209154,1,0
36340000,-0.08402265,-0.028784767,-0.045236856,1,0
36344000,-0.08405324,-0.024720527,-0.045229055,1,0
36348000,-0.084124126,-0.025069162,-0.0452287,1,0
36352000,-0.08419195,-0.025430296,-0.045151837,1,0
36360000,-0.08431187,-0.026081983,-0.045050994,1,0
36364000,-0.08454174,-0.026489291,-0.045050636,1,0
36368000,-0.084697574,-0.022428624,-0.045030996,1,0
36372000,-0.08457676,-0.022822183,-0.045088097,1,0
36376000,-0.084165305,-0.023213077,-0.045174737,1,0
36380000,-0.08367468,-0.023633284,-0.045220025,1,0
36384000,-0.083464816,-0.024063783,-0.045205995,1,0
36388000,-0.083643824,-0.024493761,-0.04524163,1,0
36392000,-0.08400716,-0.020445127,-0.045286812,1,0
36396000,-0.084312156,-0.02088722,-0.04532887,1,0
36400000,-0.0843486,-0.021253278,-0.045278557,1,0
36404000,-0.084222265,-0.021588357,-0.045191716,1,0
36408000,-0.084264554,-0.02200532,-0.045195326,1,0
36412000,-0.08441557,-0.022405632,-0.045112565,1,0
36416000,-0.084464714,-0.018289415,-0.04516448,1,0
36420000,-0.0844652,-0.018720625,-0.045279473,1,0
36424000,-0.08450402,-0.019125085,-0.045283094,1,0
36428000,-0.08448107,-0.019484708,-0.045414686,1,0
36432000,-0.08452102,-0.019852914,-0.045418333,1,0
36440000,-0.08463794,-0.015911644,-0.045568142,1,0
36444000,-0.08493964,-0.016422205,-0.045615032,1,0
36452000,-0.08476337,-0.0172467,-0.045593243,1,0
36456000,-0.08464128,-0.017680729,-0.045565367,1,0
36464000,-0.08478421,-0.013869287,-0.045607395,1,0
36468000,-0.08473261,-0.014210975,-0.045726098,1,0
36472000,-0.08472942,-0.014605769,-0.045846492,1,0
36476000,-0.08468593,-0.015027233,-0.04592461,1,0
36480000,-0.084534824,-0.015429433,-0.045928806,1,0
36484000,-0.084682845,-0.015805252,-0.045972556,1,0
36488000,-0.08502747,-0.011600123,-0.046035387,1,0
36492000,-0.085005656,-0.011899382,-0.046098657,1,0
36496000,-0.084736496,-0.012199752,-0.046104588,1,0
36500000,-0.08475111,-0.012550168,-0.046117082,1,0
36504000,-0.08498453,-0.012968017,-0.0461423,1,0
36508000,-0.08516264,-0.013456205,-0.046223685,1,0
36512000,-0.08531002,-0.009369561,-0.04629194,1,0
36516000,-0.085279174,-0.009778006,-0.046374977,1,0
36520000,-0.08510452,-0.010110177,-0.04639865,1,0
36524000,-0.08512101,-0.010411261,-0.046423867,1,0
36528000,-0.08518242,-0.010749122,-0.046491053,1,0
36536000,-0.08500747,-0.006909899,-0.04661744,1,0
36540000,-0.085076906,-0.007315895,-0.046578884,1,0
36544000,-0.08522132,-0.007740697,-0.046583295,1,0
36548000,-0.08532477,-0.008193689,-0.046679284,1,0
36552000,-0.085450284,-0.008622138,-0.04679145,1,0
36556000,-0.08561345,-0.008989228,-0.04689343,1,0
36560000,-0.08557464,-0.004740486,-0.0468563,1,0
36568000,-0.0853992,-0.005610509,-0.046841413,1,0
36572000,-0.085491456,-0.006068004,-0.046971783,1,0
36576000,-0.085726134,-0.006414842,-0.04703507,1,0
36584000,-0.085992806,-0.002429001,-0.04712488,1,0
36588000,-0.08596855,-0.002680937,-0.04721626,1,0
36592000,-0.0859467,-0.003073879,-0.047225945,1,0
36596000,-0.0859838,-0.003453458,-0.047253124,1,0
36600000,-0.085694715,-0.003926527,-0.047122806,1,0
36604000,-0.086036205,-0.004367208,-0.04709601,1,0
36608000,-0.08610046,-0.000143757,-0.047099955,1,0
36616000,-0.08703943,-0.001000507,-0.04726141,1,0
36620000,-0.08672127,-0.001463726,-0.04746996,1,0
36624000,-0.08650098,-0.001891516,-0.047452204,1,0
36628000,-0.08610642,-0.002265593,-0.047396682,1,0
36632000,-0.08598386,0.002018992,-0.047335774,1,0
36636000,-0.08628585,0.00165383,-0.04735633,1,0
36640000,-0.08659584,0.001263842,-0.047416113,1,0
36644000,-0.08680686,0.000874842,-0.0475124,1,0
36648000,-0.086774245,0.000431947,-0.04750719,1,0
36656000,-0.08635452,0.004146464,-0.047395006,1,0
36660000,-0.08653493,0.00376413,-0.047399066,1,0
36664000,-0.08677109,0.003367225,-0.04745981,1,0
36668000,-0.08686219,0.002940983,-0.047560815,1,0
36672000,-0.086889066,0.0025163,-0.047560498,1,0
36680000,-0.086745314,0.006348573,-0.047620956,1,0
36684000,-0.08661534,0.005962864,-0.04772922,1,0
36688000,-0.08660135,0.005532574,-0.047773052,1,0
36692000,-0.08661813,0.005081579,-0.047779277,1,0
36696000,-0.086633205,0.004643701,-0.047734324,1,0
36700000,-0.08685764,0.004193194,-0.047724016,1,0
36704000,-0.087195,0.008351082,-0.047727786,1,0
36708000,-0.08733305,0.007893777,-0.047830656,1,0
36712000,-0.087234095,0.007495703,-0.047893383,1,0
36720000,-0.08648912,0.006678388,-0.04786922,1,0
36724000,-0.086234026,0.006284334,-0.04786579,1,0
36728000,-0.0863474,0.010610839,-0.047796525,1,0
36736000,-0.08679444,0.009865401,-0.047772057,1,0
36740000,-0.0873109,0.009514399,-0.047803953,1,0
36744000,-0.08736262,0.009103071,-0.047801696,1,0
36748000,-0.08724894,0.008640586,-0.047804087,1,0
36752000,-0.087158166,0.012849515,-0.04780551,1,0
36756000,-0.08711443,0.012375688,-0.047873493,1,0
36760000,-0.08710941,0.011857668,-0.04787734,1,0
36764000,-0.08714584,0.011381118,-0.047863133,1,0
36768000,-0.087174445,0.010945592,-0.047843046,1,0
36772000,-0.08711206,0.010500845,-0.04785059,1,0
36776000,-0.08697841,0.014699308,-0.0477718,1,0
36784000,-0.08744694,0.013832929,-0.047694854,1,0
36788000,-0.087676995,0.013488969,-0.04774634,1,0
36792000,-0.08773389,0.013107989,-0.047769897,1,0
36796000,-0.08775076,0.012660483,-0.047801413,1,0
36800000,-0.08779432,0.016926948,-0.047805443,1,0
36804000,-0.087737404,0.016544785,-0.047849067,1,0
36808000,-0.08780448,0.016168263,-0.047810785,1,0
36812000,-0.08788307,0.015772402,-0.047830738,1,0
36816000,-0.087897316,0.015300883,-0.047832325,1,0
36820000,-0.08778096,0.014799153,-0.0478523,1,0
36824000,-0.08762322,0.019040186,-0.047891878,1,0
36828000,-0.08752648,0.018618615,-0.047969352,1,0
36832000,-0.08753902,0.018195245,-0.047934182,1,0
36836000,-0.08761299,0.017769152,-0.04788252,1,0
36840000,-0.087679625,0.017345835,-0.04782486,1,0
36844000,-0.087853484,0.016935166,-0.047812916,1,0
36848000,-0.0881284,0.021261757,-0.0477631,1,0
36852000,-0.08831619,0.020889174,-0.04778169,1,0
36856000,-0.088245794,0.020487709,-0.047799867,1,0
36860000,-0.08808629,0.020082243,-0.047853492,1,0
36864000,-0.08816091,0.0196733,-0.047868706,1,0
36868000,-0.08823565,0.01925302,-0.047893587,1,0
36872000,-0.08811021,0.023519203,-0.047901742,1,0
36876000,-0.08798408,0.02307174,-0.047954664,1,0
36880000,-0.087862335,0.022597712,-0.047893696,1,0
36884000,-0.08789735,0.022089666,-0.04782121,1,0
36888000,-0.08818811,0.021649603,-0.047785316,1,0
36896000,-0.08825607,0.025658706,-0.04775925,1,0
36904000,-0.0881325,0.024848476,-0.047709104,1,0
36912000,-0.08753191,0.02384206,-0.04789573,1,0
36916000,-0.08745015,0.023339147,-0.047997065,1,0
36920000,-0.087803215,0.02757667,-0.04801988,1,0
36924000,-0.08822336,0.027160913,-0.04801908,1,0
36928000,-0.0883981,0.02679474,-0.047987554,1,0
36936000,-0.08828462,0.025997845,-0.048089813,1,0
36940000,-0.08825257,0.025519164,-0.048055492,1,0
36944000,-0.08828999,0.029757718,-0.047984324,1,0
36948000,-0.08834389,0.029305428,-0.048066497,1,0
36956000,-0.08862812,0.028443962,-0.04812833,1,0
36960000,-0.08841893,0.028023107,-0.04807461,1,0
36964000,-0.08815536,0.027701138,-0.0481432,1,0
36968000,-0.088131845,0.032183878,-0.048224375,1,0
36972000,-0.0883622,0.031881444,-0.048299592,1,0
36976000,-0.08864294,0.03146294,-0.048321024,1,0
36980000,-0.08872761,0.030974537,-0.048405208,1,0
36984000,-0.08857601,0.030515434,-0.04845049,1,0
36988000,-0.08830326,0.030154208,-0.04850343,1,0
36992000,-0.08802818,0.034532197,-0.04849928,1,0
37000000,-0.08793375,0.033712972,-0.04846473,1,0
37004000,-0.0879137,0.033283405,-0.048409287,1,0
37008000,-0.088017754,0.032845993,-0.048381858,1,0
37012000,-0.08844462,0.032435093,-0.048356503,1,0
37016000,-0.08877224,0.036759503,-0.048329234,1,0
37020000,-0.08872123,0.03630482,-0.048394978,1,0
37024000,-0.088642165,0.035903487,-0.04839981,1,0
37028000,-0.0887734,0.035565246,-0.0483808,1,0
37032000,-0.08899277,0.035186887,-0.048346978,1,0
37036000,-0.08902788,0.034740493,-0.04842257,1,0
37040000,-0.088731535,0.03901681,-0.04849693,1,0
37044000,-0.088455185,0.03853409,-0.048577785,1,0
37048000,-0.088452674,0.038044535,-0.048593193,1,0
37052000,-0.08843335,0.037606165,-0.048610948,1,0
37056000,-0.088436946,0.03721024,-0.04859746,1,0
37060000,-0.088695176,0.03680816,-0.048679553,1,0
37064000,-0.08901173,0.04114457,-0.048733745,1,0
37068000,-0.089250274,0.040717185,-0.048795477,1,0
37072000,-0.0893053,0.040267467,-0.04881452,1,0
37076000,-0.089146845,0.039812967,-0.048829205,1,0
37080000,-0.08894002,0.039338987,-0.04878302,1,0
37084000,-0.08879844,0.038816854,-0.04883095,1,0
37088000,-0.08881135,0.043020606,-0.048853472,1,0
37096000,-0.08901376,0.042064346,-0.048923153,1,0
37100000,-0.08939329,0.041765172,-0.049162064,1,0
37104000,-0.0893894,0.041511066,-0.049212378,1,0
37108000,-0.089245275,0.041212056,-0.04918615,1,0
37112000,-0.08912361,0.045584537,-0.049132623,1,0
37120000,-0.089181416,0.044700928,-0.049224142,1,0
37128000,-0.08962406,0.04372357,-0.049231,1,0
37136000,-0.08954862,0.04655331,-0.049272053,1,0
37140000,-0.08941358,0.04618545,-0.049369432,1,0
37144000,-0.08913002,0.04580158,-0.04940479,1,0
37148000,-0.088899165,0.045398377,-0.049408957,1,0
37152000,-0.088861145,0.045006983,-0.049343936,1,0
37156000,-0.08886447,0.044581506,-0.0493275,1,0
37160000,-0.08919824,0.04412224,-0.04930946,1,0
37164000,-0.08993773,0.043659434,-0.049372848,1,0
37168000,-0.09037006,0.043212496,-0.04942604,1,0
37172000,-0.09028695,0.04281777,-0.04952718,1,0
37176000,-0.090321414,0.042400725,-0.049531437,1,0
37180000,-0.08967562,0.041984163,-0.049649775,1,0
37184000,-0.08960424,0.04152419,-0.04959949,1,0
37188000,-0.08968925,0.041137077,-0.049587257,1,0
37192000,-0.08981394,0.040769696,-0.049571067,1,0
37196000,-0.089984804,0.04035729,-0.04963587,1,0
37200000,-0.09000108,0.03994483,-0.04970459,1,0
37204000,-0.08998168,0.039588515,-0.049799517,1,0
37208000,-0.090106905,0.039277844,-0.049813777,1,0
37212000,-0.09013586,0.038917415,-0.049843147,1,0
37216000,-0.09010602,0.03849092,-0.049824268,1,0
37220000,-0.090192474,0.038111206,-0.04985991,1,0
37224000,-0.09030537,0.037819564,-0.049867585,1,0
37228000,-0.09042683,0.037523143,-0.049902953,1,0
37232000,-0.09050878,0.037179828,-0.049924362,1,0
37240000,-0.09033923,0.0365341,-0.0500076,1,0
37248000,-0.09023188,0.03588575,-0.049950972,1,0
37256000,0.07402058,0.041493207,0.006707256,1,0
37264000,0.07431706,0.04089327,0.006730865,1,0
37272000,0.074095614,0.040236242,0.006828946,1,0
37276000,0.068891555,0.039894894,0.006986307,1,0
37280000,0.06867122,0.039602373,0.007042918,1,0
37284000,0.05948305,0.03953386,0.007139388,1,0
37288000,0.054431386,0.039321654,0.007146772,1,0
37292000,0.0495623,0.039134115,0.007217906,1,0
37296000,0.04910201,0.03885718,0.007298629,1,0
37300000,0.040577143,0.03856144,0.007339777,1,0
37304000,0.036378983,0.038320016,0.007439161,1,0
37308000,0.032434884,0.038076885,0.007537996,1,0
37312000,0.02880717,0.037848413,0.00762186,1,0
37316000,0.025608372,0.037674367,0.007673303,1,0
37320000,0.022821203,0.037523966,0.007698831,1,0
37324000,0.020118605,0.03738885,0.007728337,1,0
37328000,0.017178353,0.03726887,0.007762058,1,0
37332000,0.014250446,0.03713943,0.007807782,1,0
37336000,0.011718798,0.036964085,0.007879406,1,0
37340000,0.0095254,0.03675817,0.007964759,1,0
37344000,0.007458215,0.036577668,0.008046042,1,0
37348000,0.005282106,0.036436677,0.008135646,1,0
37352000,0.004395847,0.036279,0.008253462,1,0
37356000,0.000527564,0.036213268,0.008236093,1,0
37364000,-0.003884516,0.0360042,0.008233723,1,0
37368000,-0.005870617,0.035863996,0.008300485,1,0
37376000,-0.008926434,0.035624728,0.008474859,1,0
37384000,-0.011994857,0.035588898,0.008746119,1,0
37388000,-0.013881233,0.03561543,0.008907708,1,0
37392000,-0.015606108,0.035589915,0.009034627,1,0
37396000,-0.016856562,0.03545028,0.009043824,1,0
37400000,-0.018019404,0.03529418,0.00907027,1,0
37408000,-0.020871848,0.03518948,0.009190705,1,0
37412000,-0.022110905,0.035124183,0.009269582,1,0
37416000,-0.023432598,0.035020065,0.009306951,1,0
37424000,-0.025711915,0.03485609,0.009446592,1,0
37428000,-0.026458059,0.034924015,0.009520961,1,0
37432000,-0.027274583,0.034959488,0.009604359,1,0
37436000,-0.028302232,0.034943957,0.009754321,1,0
37440000,-0.029418595,0.03496807,0.009943025,1,0
37444000,-0.03044857,0.03497694,0.010124039,1,0
37448000,-0.03129002,0.03493091,0.010309257,1,0
37452000,-0.032157738,0.03482444,0.01045977,1,0
37456000,-0.033197284,0.03469729,0.010496438,1,0
37464000,-0.034874782,0.03458429,0.010563592,1,0
37468000,-0.03550984,0.034538284,0.010688978,1,0
37472000,-0.036344714,0.034522697,0.010825541,1,0
37476000,-0.037186235,0.034527577,0.010914821,1,0
37480000,-0.038191333,0.03451047,0.011040963,1,0
37484000,-0.03849322,0.034530953,0.011063486,1,0
37488000,-0.03933348,0.034517612,0.01114836,1,0
37496000,-0.040861517,0.03440579,0.0113895,1,0
37500000,-0.041355625,0.034354046,0.011475016,1,0
37504000,-0.041786287,0.034292646,0.01153069,1,0
37508000,-0.04248229,0.0342396,0.011584637,1,0
37512000,-0.04335123,0.034218594,0.011647294,1,0
37516000,-0.04408869,0.034203537,0.011731742,1,0
37520000,-0.04460629,0.03418445,0.0118482,1,0
37524000,-0.044969402,0.03419994,0.012032951,1,0
37528000,-0.04523933,0.034278043,0.012272041,1,0
37532000,-0.045571934,0.03437183,0.012465,1,0
37536000,-0.04611484,0.034415193,0.012561968,1,0
37544000,-0.047673494,0.03440255,0.012713766,1,0
37548000,-0.047713332,0.03442336,0.012676852,1,0
37552000,-0.048205327,0.03449239,0.012786557,1,0
37556000,-0.048662446,0.034498982,0.012929091,1,0
37560000,-0.049117487,0.0344764,0.013075682,1,0
37564000,-0.04956531,0.03443595,0.013216265,1,0
37568000,-0.049926005,0.03436453,0.01335105,1,0
37576000,-0.050823435,0.034304745,0.013597554,1,0
37580000,-0.051249143,0.03435774,0.013726907,1,0
37584000,-0.051523678,0.03438008,0.013857588,1,0
37592000,-0.05287393,0.034407802,0.014132354,1,0
37596000,-0.053611647,0.034392834,0.014301033,1,0
37600000,-0.05424408,0.03439575,0.014374274,1,0
37604000,-0.054958306,0.034384873,0.014457369,1,0
37608000,-0.055623375,0.03436894,0.014580172,1,0
37616000,-0.05674813,0.034400746,0.014835104,1,0
37620000,-0.05575993,0.034457624,0.015023908,1,0
37624000,-0.055778526,0.034445647,0.015230291,1,0
37628000,-0.056217194,0.034429982,0.015391331,1,0
37632000,-0.056941334,0.034448124,0.015450739,1,0
37636000,-0.057592906,0.034468055,0.015487699,1,0
37640000,-0.05804635,0.034458518,0.015554077,1,0
37644000,-0.058383994,0.034415178,0.01562289,1,0
37648000,-0.058784846,0.034415584,0.015698964,1,0
37652000,-0.059265357,0.03445395,0.015796307,1,0
37656000,-0.05955843,0.034439858,0.015919719,1,0
37660000,-0.05965741,0.034397494,0.016038166,1,0
37664000,-0.059750825,0.034382813,0.01615142,1,0
37668000,-0.06000451,0.034416642,0.016281344,1,0
37672000,-0.0604352,0.03442979,0.016408797,1,0
37676000,-0.060809676,0.03441395,0.016550163,1,0
37680000,-0.061178643,0.034439094,0.016678607,1,0
37684000,-0.061616037,0.03448677,0.016766772,1,0
37688000,-0.061909445,0.034526754,0.016916389,1,0
37692000,-0.062277146,0.03458425,0.017194953,1,0
37696000,-0.06273404,0.03455195,0.017379489,1,0
37700000,-0.06302808,0.03451751,0.017523801,1,0
37704000,-0.06331486,0.034512434,0.017624408,1,0
37708000,-0.0636363,0.034545146,0.01768131,1,0
37712000,-0.064340584,0.03456501,0.01778917,1,0
37716000,-0.06432539,0.034713425,0.017818354,1,0
37720000,-0.064710826,0.034800105,0.017931502,1,0
37724000,-0.06501224,0.034806468,0.018081509,1,0
37728000,-0.065215625,0.034741797,0.018266454,1,0
37732000,-0.06551555,0.03471292,0.018462135,1,0
37736000,-0.06571993,0.03477897,0.018593073,1,0
37740000,-0.065664776,0.03486995,0.018659804,1,0
37744000,-0.065739974,0.034922052,0.018693438,1,0
37748000,-0.0660602,0.034916777,0.01870535,1,0
37752000,-0.06637729,0.034915477,0.018735783,1,0
37760000,-0.066934675,0.03492012,0.01880164,1,0
37764000,-0.06746915,0.034881607,0.01876703,1,0
37768000,-0.068071716,0.034892328,0.018705346,1,0
37776000,-0.0683076,0.034827117,0.01858988,1,0
37780000,-0.06823314,0.034744807,0.018536016,1,0
37784000,-0.0682703,0.034648933,0.018455375,1,0
37788000,-0.06855938,0.034603946,0.018361166,1,0
37792000,-0.06908652,0.034642696,0.018380435,1,0
37796000,-0.06942651,0.034664676,0.018384434,1,0
37800000,-0.069598526,0.03472469,0.01835157,1,0
37808000,-0.07027495,0.034667112,0.018338554,1,0
37816000,-0.07072553,0.034455106,0.018386615,1,0
37820000,-0.07046856,0.034352012,0.01834702,1,0
37828000,-0.07093297,0.034286406,0.018153094,1,0
37832000,-0.07155037,0.034350105,0.01809392,1,0
37836000,-0.071826376,0.034392748,0.018108893,1,0
37840000,-0.07175251,0.034405082,0.018118395,1,0
37844000,-0.07155875,0.034413256,0.018073514,1,0
37848000,-0.071653426,0.034427598,0.018001495,1,0
37852000,-0.07208388,0.034451652,0.017953437,1,0
37856000,-0.0726577,0.034511246,0.017924238,1,0
37860000,-0.07337905,0.034532316,0.017888168,1,0
37864000,-0.0738807,0.03444249,0.017853014,1,0
37872000,-0.07441613,0.034309994,0.017820593,1,0
37876000,-0.07342776,0.034326695,0.017880686,1,0
37880000,-0.07343697,0.034310497,0.017782807,1,0
37884000,-0.07390866,0.034294985,0.017755892,1,0
37888000,-0.07415058,0.034229383,0.017519522,1,0
37896000,-0.07502195,0.034344688,0.01759433,1,0
37904000,-0.075544715,0.034302715,0.017509181,1,0
37908000,-0.07568674,0.034234144,0.017445158,1,0
37912000,-0.075773135,0.034253135,0.01736655,1,0
37916000,-0.07569677,0.03434208,0.01729313,1,0
37920000,-0.0757231,0.03443622,0.017191857,1,0
37928000,-0.07655043,0.034486897,0.017101597,1,0
37936000,-0.076573566,0.034485213,0.017126285,1,0
37940000,-0.07684201,0.034509286,0.017059812,1,0
37944000,-0.077185795,0.03454733,0.016983852,1,0
37948000,-0.07728509,0.034578428,0.016933236,1,0
37952000,-0.07716474,0.03457968,0.016934521,1,0
37960000,-0.077172734,0.03462884,0.016822618,1,0
37964000,-0.07752414,0.034687027,0.016688006,1,0
37968000,-0.07767223,0.034745187,0.016584763,1,0
37972000,-0.07783313,0.034745857,0.016515765,1,0
37976000,-0.078330405,0.034687057,0.016477197,1,0
37980000,-0.078816734,0.034656446,0.016443577,1,0
37984000,-0.079212345,0.03469456,0.016400943,1,0
37988000,-0.079026684,0.034777965,0.016263401,1,0
37992000,-0.07899264,0.03481593,0.016282056,1,0
37996000,-0.07903418,0.03478583,0.016325822,1,0
38000000,-0.07941545,0.034810096,0.016288165,1,0
38004000,-0.07947367,0.034876294,0.016355636,1,0
38008000,-0.07979888,0.03493668,0.01632807,1,0
38012000,-0.080158666,0.0349646,0.016288446,1,0
38016000,-0.08048075,0.03496878,0.016238578,1,0
38024000,-0.080687344,0.03493181,0.01605631,1,0
38028000,-0.08056019,0.03495071,0.015979132,1,0
38032000,-0.0805092,0.03502147,0.015873376,1,0
38036000,-0.08068876,0.035053514,0.015741328,1,0
38040000,-0.08089971,0.03498918,0.015669242,1,0
38044000,-0.08104566,0.034917735,0.015659695,1,0
38048000,0.08596844,0.037340052,0.024165435,0.40352404,0
38052000,0.08566746,0.037475593,0.024287265,0.40352404,0
38056000,0.085245535,0.037605245,0.024430633,0.40352404,0
38060000,0.084858835,0.03772476,0.02448345,0.40352404,0
38064000,0.08241812,0.03791143,0.024581112,0.40352404,0
38068000,0.07923944,0.038019344,0.024599988,0.40352404,0
38072000,0.0754368,0.033871576,0.026086554,0.42725408,0
38076000,0.07160031,0.033985753,0.026098212,0.42725408,0
38080000,0.06786254,0.034138866,0.026092343,0.42725408,0
38084000,0.0643397,0.034269724,0.026090488,0.42725408,0
38088000,0.061310202,0.034308445,0.026106125,0.42725408,0
38096000,0.057813063,0.030405309,0.02785721,0.45011294,0
38100000,0.05356004,0.03025733,0.02773321,0.45011294,0
38104000,0.05139713,0.030356431,0.02778346,0.45011294,0
38112000,0.04866735,0.030660398,0.027954172,0.45011294,0
38116000,0.04676542,0.030579489,0.027854722,0.45011294,0
38120000,0.045593612,0.026470853,0.029356599,0.47185728,0
38124000,0.04400669,0.02656188,0.029336248,0.47185728,0
38128000,0.04222802,0.02664076,0.02934426,0.47185728,0
38132000,0.04067534,0.026742814,0.029401477,0.47185728,0
38136000,0.039366618,0.026892927,0.029478628,0.47185728,0
38140000,0.038048692,0.027072685,0.029529877,0.47185728,0
38144000,0.036600806,0.023054035,0.031107437,0.49243647,0
38148000,0.035130072,0.0231553,0.031162377,0.49243647,0
38152000,0.0339137,0.023248006,0.031240854,0.49243647,0
38160000,0.03206238,0.0235953,0.031319544,0.49243647,0
38164000,0.031160178,0.02386328,0.031356145,0.49243647,0
38168000,0.030089736,0.019963028,0.032998987,0.51178205,0
38172000,0.028833129,0.02022678,0.033086605,0.51178205,0
38176000,0.027554628,0.020508217,0.03316144,0.51178205,0
38180000,0.026613519,0.020717172,0.033249613,0.51178205,0
38184000,0.025940169,0.020919422,0.033383902,0.51178205,0
38192000,0.024105683,0.017446464,0.035241015,0.52987665,0
38196000,0.022785068,0.018662952,0.035794135,0.52987665,0
38200000,0.022056088,0.019031445,0.035864227,0.52987665,0
38204000,0.02123075,0.019349007,0.03594787,0.52987665,0
38208000,0.02020146,0.019679107,0.036007896,0.52987665,0
38212000,0.019059002,0.020087391,0.036106117,0.52987665,0
38216000,0.017965298,0.016460873,0.03791907,0.5479268,0
38220000,0.016954597,0.016885059,0.03809084,0.5479268,0
38224000,0.015981622,0.017258875,0.038242817,0.5479268,0
38228000,0.015194023,0.017637337,0.03835821,0.5479268,0
38232000,0.014871626,0.01802951,0.038434975,0.5479268,0
38236000,0.014721608,0.018448966,0.038497917,0.5479268,0
38240000,0.01420902,0.014893374,0.040212765,0.56466097,0
38244000,0.013268063,0.015399139,0.04022704,0.56466097,0
38248000,0.012080193,0.015826216,0.04030719,0.56466097,0
38252000,0.010946206,0.016215205,0.040491782,0.56466097,0
38256000,0.010153311,0.01669083,0.04070808,0.56466097,0
38264000,0.008598075,0.013664814,0.042730935,0.58013576,0
38268000,0.008354393,0.014229985,0.042800803,0.58013576,0
38272000,0.008019917,0.01479103,0.04284835,0.58013576,0
38280000,0.006417357,0.016017945,0.04302579,0.58013576,0
38284000,0.005515915,0.016547587,0.043193765,0.58013576,0
38288000,0.004906871,0.013066027,0.045113146,0.59435797,0
38292000,0.004181351,0.014290849,0.04588754,0.59435797,0
38296000,0.003701648,0.014797438,0.046077993,0.59435797,0
38300000,0.003203438,0.015322983,0.04624372,0.59435797,0
38304000,0.002723821,0.015874999,0.046377942,0.59435797,0
38308000,0.002111595,0.016499754,0.046504088,0.59435797,0
38312000,0.001437608,0.013198262,0.04842826,0.60829127,0
38316000,0.000872636,0.013849683,0.048568435,0.60829127,0
38320000,0.000386491,0.014450487,0.048707053,0.60829127,0
