timestamp,gyro_rad[0],gyro_rad[1],gyro_rad[2],accelerometer_m_s2[0],accelerometer_m_s2[1],accelerometer_m_s2[2]
33000000,-0.00024082,-0.004164421,-0.001567773,-0.09451174,0.15214983,-9.944138
33004000,-0.000544661,-0.007162127,-0.003168979,-0.0652564,0.15247609,-9.920889
33008000,-0.00054618,-0.006552347,0.003060096,-0.07779666,0.1979026,-9.9037
33016000,0.001408515,-0.00338234,0.009931615,-0.16538967,0.2855934,-9.913395
33020000,-0.003701581,0.00062415,0.000198191,-0.106689505,0.2578014,-9.907786
33024000,-3.98E-05,0.000920827,-0.004392707,-0.040251695,0.19536227,-9.880693
33032000,-0.001311587,-0.008438649,-0.008779885,-0.12653704,0.23309658,-9.921565
33036000,-4.96E-05,-0.007098375,-0.006252067,-0.05187924,0.24959646,-9.858054
33044000,0.00197839,-0.001265184,0.004218746,-0.119320825,0.18112646,-9.904536
33048000,0.002626516,-0.005157888,-0.00266883,-0.17414202,0.16405906,-9.84799
33052000,0.002315018,-0.008052183,-0.003379103,-0.10847694,0.1808561,-9.937904
33056000,-0.000989986,-0.005160296,-0.000101119,-0.033971917,0.12113443,-10.00614
33060000,-0.005716221,-0.007477681,0.000135884,-0.06918854,0.1436054,-9.906321
33064000,-0.00511909,-0.010852217,0.000248059,-0.060581278,0.19526608,-9.822174
33068000,-0.001558037,-0.008032047,0.003202216,-0.06273409,0.16320796,-9.784889
33076000,0.004152385,-0.004627946,0.00182978,-0.13675737,0.20843363,-9.905784
33084000,-0.007816189,-0.003822483,0.001939088,-0.1405192,0.27777106,-9.921587
33092000,-0.000272973,-0.007416056,0.004851066,-0.10029625,0.15093486,-9.913351
33100000,0.002603724,-0.003332627,0.004265342,-0.041001204,0.24168794,-9.918838
33108000,-0.007572802,-0.008067547,-0.001499278,-0.18785428,0.21400364,-9.839553
33112000,-0.009163217,-0.011774738,-0.00344704,-0.1777366,0.22748591,-9.908761
33120000,-0.005410718,-0.000748247,-0.004533996,-0.1376917,0.2085247,-9.987312
33128000,0.001845647,-0.00759321,0.003854776,-0.1481642,0.28033417,-9.923797
33132000,-0.000875792,-0.004285136,0.004710855,-0.14209116,0.18688631,-9.843946
33136000,0.001638189,-0.002266732,-0.001592332,-0.16286989,0.13152148,-9.843081
33144000,-0.002964203,-0.003851682,-0.000339393,-0.07182243,0.22776406,-9.909813
33148000,-0.005665323,-0.003545526,-0.000717169,-0.09278073,0.29813778,-9.931124
33152000,-0.005935888,-0.006202127,0.001570864,-0.10730553,0.28808329,-9.957207
33156000,-0.004243717,-0.011433904,0.001678501,-0.16078456,0.21205088,-9.938693
33160000,-0.004522015,-0.009112498,0.003655315,-0.21666147,0.21089667,-9.934709
33164000,-0.007490395,-0.002970837,0.002562701,-0.15863064,0.18695158,-9.917819
33172000,-0.000429896,-0.001295836,0.001921623,-0.098904334,0.17935617,-9.891182
33176000,-0.002484012,-0.00117529,0.00301465,-0.0388889,0.21238446,-9.964873
33180000,-0.007533971,-0.0088915,-0.002105365,-0.032650694,0.19628169,-9.981497
33184000,-0.00255347,-0.0070982,-0.00770583,-0.09764564,0.10957122,-9.903037
33188000,0.004248811,-0.005985828,-0.009468224,-0.076144904,0.16047964,-9.892426
33192000,0.001106404,-0.0077515,-0.004883368,-0.18117563,0.21755765,-9.917683
33196000,-2.31E-05,-0.005663882,0.005387246,-0.19171704,0.15525939,-9.878035
33200000,-0.003386439,-0.005955589,0.005425603,-0.065973274,0.1476945,-9.861864
33204000,-0.002169905,-0.004678984,0.002404359,-0.0882745,0.14543054,-9.928882
33208000,0.004923462,-0.00575196,-1.38E-05,-0.10008025,0.21260798,-9.912935
33216000,0.004040719,-0.008465091,-0.000777673,-0.1310147,0.2074535,-9.921109
33220000,0.001546131,-0.006047111,0.001249726,-0.12324902,0.2029855,-9.846105
33224000,-0.004615146,-0.006458459,-0.002839618,-0.16766894,0.23156463,-9.870452
33232000,0.002186314,-0.006880056,-0.004606736,-0.062490158,0.22353305,-9.904957
33236000,-0.000378203,-0.002214436,-0.001260893,-0.119474694,0.19857544,-9.942068
33244000,-0.006989404,-0.009280073,0.002964255,-0.09377395,0.21154812,-9.892283
33252000,-0.004951262,-0.002341991,-0.003162972,-0.075477846,0.16252322,-9.897504
33256000,-0.000407814,-0.002777313,-0.00434688,-0.1206425,0.1494911,-9.879967
33260000,0.000755023,-0.001629821,-0.001687192,-0.045218807,0.18313944,-9.8316555
33264000,-0.001912708,-0.000234359,-0.000447996,-0.082402736,0.2616869,-9.960518
33268000,0.003105159,-0.008472246,0.00270663,-0.16467391,0.17036377,-10.036084
33276000,-0.007416531,-0.010372483,0.000913855,-0.097923145,0.16237,-9.850014
33280000,-0.000908726,-0.011369351,0.005598414,-0.1276318,0.16544336,-9.830645
33288000,-0.001572807,-0.006008423,-0.004550395,-0.10979923,0.234183,-9.899319
33292000,0.004230348,-0.00154914,-0.006017324,-0.15637659,0.22804756,-9.8650465
33296000,0.004408396,-0.00879002,-0.00995326,-0.12123549,0.21353833,-9.866206
33304000,0.001160448,-0.008822162,0.001415973,-0.11287609,0.16221108,-9.897988
33308000,-0.000758127,-0.007486901,-0.004320513,-0.12974548,0.27372095,-9.929622
33312000,-0.001392311,-0.009948722,0.002261523,-0.14926985,0.28096753,-9.927914
33316000,-0.005884785,-0.004912937,0.001213592,-0.07571198,0.2287606,-9.913111
33320000,-0.002134941,-0.001408138,0.001533498,-0.04789102,0.17348884,-9.9331875
33328000,0.00205491,-0.004141603,0.001266189,-0.14013596,0.22024329,-9.862952
33332000,-0.000566544,-0.004055353,-0.002172547,-0.18494163,0.17789279,-9.860957
33336000,-0.00195287,-0.005140284,-0.000366691,-0.17929065,0.19503216,-9.938458
33340000,-0.004743191,-0.001914998,0.004055885,-0.20276672,0.2397858,-9.913107
33344000,-0.006361931,0.001244414,-0.001717371,-0.14862813,0.17132789,-9.893825
33352000,-0.000644601,-0.008351647,-0.004508653,-0.1262075,0.20731957,-9.960916
33356000,-0.000117256,-0.01015895,0.002002551,-0.13219531,0.2298569,-9.919932
33360000,-0.001392018,-0.006610013,0.005951204,-0.10684648,0.259032,-9.900861
33364000,-0.001331585,-0.009480421,0.003056712,-0.06027629,0.25500685,-9.927645
33368000,0.000332825,-0.008578705,-0.0049993,-0.07567221,0.2071204,-9.928333
33372000,-0.000425057,-0.004291705,-0.005706534,-0.087577336,0.16773115,-9.925967
33376000,-0.001152304,-0.000514886,-0.007557565,-0.07407569,0.16042005,-9.867003
33380000,-0.003857541,-0.002885684,-0.007461813,-0.15518755,0.21220891,-9.846745
33384000,-0.003683006,-0.003783456,0.000446612,-0.2050971,0.2669192,-9.921796
33388000,0.000434079,-0.004169505,-0.003754917,-0.16047381,0.21204391,-9.95483
33392000,0.002519103,-0.006644247,-0.008545066,-0.10379194,0.21738657,-9.929041
33396000,-0.003746344,-0.007342371,-0.003098653,-0.14034341,0.3064102,-9.863591
33400000,-0.004143953,-0.005469184,0.001426307,-0.07381135,0.23460668,-9.801904
33404000,-0.00208414,-0.004950005,0.004490606,-0.045079254,0.17359665,-9.821113
33408000,-0.003696747,-0.008680691,0.002467084,-0.13135143,0.23283319,-9.88074
33416000,-0.000780212,-0.001509005,-0.000178903,-0.08786792,0.1507313,-9.913578
33424000,-0.00444712,-0.002615933,-0.004346609,-0.11482068,0.1800873,-9.9131565
33428000,-0.003234227,-0.009227054,-0.002674313,-0.16347349,0.19269563,-9.880314
33432000,-0.004969497,-0.008018619,0.001326231,-0.1760704,0.2149963,-9.8533945
33436000,-0.010735896,-0.007524588,-0.00390376,-0.12753429,0.15017484,-9.853773
33440000,-0.004027425,-0.007969177,-0.004070223,-0.15540037,0.13535161,-9.808411
33444000,0.003947879,-0.009681509,0.00333058,-0.14541018,0.19914748,-9.8602295
33448000,-0.004346808,-0.004771749,0.004472097,-0.082844086,0.22077473,-9.928377
33452000,-0.010310258,-0.000575838,0.006624595,-0.076105356,0.24744429,-9.897509
33456000,-0.003004565,-0.002155368,0.001735525,-0.14494947,0.23708318,-9.903953
33460000,-0.000651645,-0.006169959,-0.004809158,-0.1893778,0.20372884,-9.950671
33464000,-0.005062753,-0.004540213,-0.001373052,-0.17741624,0.18747415,-9.867394
33468000,-0.004566855,-0.003626856,0.000151702,-0.18064742,0.19472554,-9.878285
33476000,-0.000380261,-0.002429282,-0.003769285,-0.22264938,0.16169906,-9.904459
33480000,-0.000362966,-0.000624719,-0.006685089,-0.12566917,0.19932574,-9.924706
33488000,-0.003006658,-0.002613926,0.002786961,-0.100005716,0.2203521,-9.944492
33496000,-0.004450684,-0.005688626,0.003729026,-0.066843085,0.1711645,-9.836675
33500000,-0.001421044,-0.001896536,0.007774562,-0.09130909,0.23340751,-9.84538
33504000,-0.002570986,-0.008804332,0.004451948,-0.066643685,0.22004442,-9.876636
33508000,-0.001875168,-0.011121564,0.003199767,-0.10696755,0.17709416,-9.861592
33516000,-0.004436182,-0.006550328,0.001051163,-0.14336812,0.19478215,-9.904988
33520000,-0.007313813,-0.007218381,0.003223458,-0.11627914,0.2660877,-9.894862
33524000,-0.009179677,-0.005059516,0.000767934,-0.12660225,0.28270164,-9.877647
33532000,0.005523308,-0.012454973,-0.000786367,-0.038693655,0.2617655,-9.863545
33536000,-0.003322298,-0.009686736,0.007223235,-0.08480609,0.20106629,-9.878983
33540000,-0.005112222,-0.008370787,0.001723278,-0.092070796,0.14624813,-9.906664
33544000,-0.00081228,-0.012986776,-0.002160773,-0.09764781,0.16778225,-9.903522
33548000,0.001045781,-0.009605883,0.006392984,-0.11331568,0.24328126,-9.851515
33552000,0.001703062,-0.010357769,0.005012479,-0.07299921,0.25963306,-9.890536
33556000,-0.001705307,-0.006229128,-0.000605571,-0.086673975,0.24463795,-9.940751
33560000,-0.007152557,-0.005167081,-0.002921553,-0.13570234,0.17755345,-9.868938
33568000,0.001977264,0.000994868,-0.009502856,-0.16287166,0.23085795,-9.9024935
33572000,0.000391634,-0.003763941,-0.007244221,-0.11905459,0.1266558,-9.880934
33576000,0.001206473,-0.004285811,-0.004697334,-0.13339497,0.15241824,-9.909706
33584000,0.001223044,-0.011932473,-0.001638617,0.004593205,0.18829983,-9.794007
33588000,0.003915256,-0.017107125,-0.002286786,-0.042789456,0.12873068,-9.917605
33596000,-0.005264278,-0.003278369,0.005599491,-0.103742026,0.17376326,-9.90776
33600000,-0.008328096,-0.006061489,0.004929337,-0.0782728,0.20162661,-9.861498
33604000,-0.005008703,-0.009989618,0.002464407,-0.048908535,0.17650013,-9.893742
33608000,-0.001518929,-0.005230331,0.001681023,-0.0816188,0.18841867,-9.955639
33612000,-0.005287778,-0.00193026,0.001171373,-0.15936927,0.24322075,-9.9654665
33616000,-0.003823522,-0.001085207,-0.005134221,-0.1983187,0.2785197,-9.931941
33624000,0.000375522,-0.001529782,0.002330695,-0.20506185,0.20035094,-9.867609
33628000,-0.002644127,-0.004593838,-0.000110961,-0.1190505,0.2043281,-9.84805
33632000,-0.004256838,-0.007111425,-0.000577908,-0.07600007,0.22451167,-9.891339
33636000,0.003062342,-0.006306947,0.003604105,-0.1484852,0.18166944,-9.928399
33644000,0.001810308,-0.003365909,-0.000962771,-0.089087754,0.24245605,-9.937355
33648000,0.001090146,-0.002796933,-0.001293696,-0.12148782,0.27021605,-9.873313
33656000,-0.004496766,-0.007356353,-0.001508389,-0.23109104,0.074769646,-9.940262
33660000,-0.00241854,-0.014025986,0.000695211,-0.18885142,0.122485794,-9.961115
33668000,-0.007539368,-0.006083359,0.000540483,-0.19254047,0.20633169,-9.865915
33672000,-0.006020046,-0.006271808,0.000984879,-0.12788284,0.2548135,-9.850825
33680000,-0.001379342,-0.008429879,0.000702013,-0.09150566,0.2002504,-9.899662
33684000,-0.003188543,-0.002539818,-0.001068158,-0.11845753,0.21167964,-9.874252
33692000,-0.001706645,-0.007543637,-0.004274296,-0.11998621,0.20374577,-9.832078
33696000,0.002542293,-0.007745227,0.003962728,-0.00535065,0.19344832,-9.88585
33700000,-0.000983649,-0.007110723,0.003884133,0.044669036,0.17398928,-9.912657
33704000,0.0019241,-0.002094138,-2.94E-05,-0.08996496,0.18417488,-9.932342
33708000,0.000210051,0.000837233,-0.001614875,-0.042688254,0.23111206,-9.982598
33712000,-0.000970558,0.001286779,-0.00336284,-0.043632057,0.23784648,-9.978806
33720000,-0.002877455,-0.005245443,-2.81E-05,-0.07963884,0.15186587,-9.890325
33724000,-0.002298512,-0.00894454,-0.001092863,-0.1134521,0.20464195,-9.927015
33732000,0.001574802,-0.002332547,-0.001529228,-0.1290018,0.20215388,-9.872193
33736000,-0.004761688,-0.003218561,-0.005525408,-0.11213445,0.17471395,-9.884786
33740000,-0.006122756,-0.004500996,-0.006305998,-0.09891251,0.17236122,-9.885822
33744000,0.003954644,-0.00709146,-0.000678198,-0.08170604,0.12463257,-9.860929
33748000,-0.000220104,-0.006724084,0.001089909,-0.09060016,0.1579263,-9.875754
33752000,-0.004815607,-0.003700655,0.002016136,-0.11113777,0.16027597,-9.852127
33756000,-0.000221383,-0.010776954,0.001916106,-0.11589908,0.1756282,-9.831839
33760000,-0.003507916,-0.010769789,-0.004129022,-0.13601376,0.23283242,-9.900134
33764000,-0.010159764,-0.006592306,-0.005928939,-0.12900327,0.21710773,-9.921321
33768000,-0.009551157,-0.007786313,-0.006903231,-0.0410752,0.13563268,-9.884518
33772000,-0.007965666,-0.009206512,-0.003537528,-0.11321383,0.15091981,-9.898356
33776000,-0.003466639,-0.005186581,-0.001118975,-0.14269419,0.13493651,-9.944268
33784000,0.003484905,-0.003375108,0.004151818,-0.16715351,0.20733331,-9.898749
33788000,-0.000251289,-0.002572645,0.006376183,-0.14542392,0.27085757,-9.881287
33792000,-0.004562368,-0.007261895,-0.003794137,-0.112037785,0.3165631,-9.927878
33796000,0.002889681,-0.008387385,-0.008288781,-0.11300075,0.28914675,-9.880107
33804000,-0.003945425,-0.00707817,-0.001529759,-0.086773366,0.17105255,-9.876428
33808000,-0.00158948,-0.009098123,-0.00372526,-0.040698823,0.22173832,-9.89897
33812000,-0.006529479,-0.006664559,-0.006908387,-0.091941476,0.19334379,-9.882482
33816000,-0.002765028,0.000280106,0.002580286,-0.18262066,0.15895723,-9.853697
33820000,0.000928752,0.00163441,0.002516556,-0.13182978,0.14751285,-9.840892
33828000,-0.009933522,-0.006052028,0.002907362,-0.14708725,0.1927188,-9.884491
33832000,-0.001983435,-0.00877026,-0.000425823,-0.053805027,0.2322471,-9.9683895
33836000,-0.000543621,-0.004099731,0.000489749,-0.1064643,0.19681172,-9.948417
33840000,-0.001591483,-0.001398889,0.002948808,-0.089971796,0.18256155,-9.869402
33844000,0.001702739,-0.005964191,0.002122443,-0.055845227,0.19851506,-9.873725
33848000,-0.00334786,-0.005774182,0.00235967,-0.07499145,0.19568919,-9.939721
33852000,-0.004078453,-0.005689587,0.00162216,-0.05915236,0.2443882,-9.966382
33856000,0.002242153,-0.00488699,0.002370523,-0.06367069,0.2037265,-9.916301
33860000,0.003121734,-0.0070015,0.00231116,-0.14934696,0.19791481,-9.94708
33868000,-0.0014611,-0.005370705,-0.003047504,-0.13267116,0.21115713,-9.891166
33872000,0.006670412,-0.007033262,-0.006643114,-0.10039195,0.23016334,-9.905198
33876000,0.002536236,-0.00890858,0.000657188,-0.17035091,0.18669383,-9.977959
33880000,0.003506463,-0.005902702,0.005791142,-0.19185388,0.19311202,-10.023742
33884000,0.007093971,-0.001590095,0.000576541,-0.1228154,0.2115089,-9.939834
33888000,0.002537443,-0.009197813,-0.002862037,-0.13708057,0.18256186,-9.884807
33892000,0.000589471,-0.009301835,-0.00725721,-0.1397398,0.15127334,-9.876941
33896000,0.001719205,0.000435331,-0.001249678,-0.090898,0.19966371,-9.863089
33900000,0.005052291,-0.007910551,0.004721911,-0.099905826,0.16108873,-9.861642
33908000,-0.005358957,0.002809715,-0.003466356,-0.21422543,0.20853229,-9.908614
33912000,-0.00473281,-0.003645507,-0.001960741,-0.15932037,0.21996947,-9.91196
33916000,-0.001924931,-0.005981488,0.002229673,-0.10054653,0.27209747,-9.851833
33920000,-0.000630729,-0.00507094,0.000428549,-0.12823895,0.27095112,-9.9587
33924000,-0.001704635,-0.007000603,-0.002019423,-0.09487812,0.23807754,-9.961534
33928000,0.003207765,-0.009801336,-0.000290456,-0.08205381,0.2303307,-9.89765
33936000,-0.010247722,-0.003894136,-0.001213775,-0.071976915,0.19899514,-9.878259
33940000,-0.009309213,-0.003855047,-0.001998503,-0.08064789,0.13219997,-9.983845
33944000,-0.00283043,-0.006796953,-0.00152812,-0.0536778,0.17457637,-9.933717
33948000,-0.005322907,-0.009497297,0.001717503,-0.035056714,0.22038369,-9.891621
33952000,-0.004091197,-0.008193656,0.002001018,-0.12538947,0.2295035,-9.9375515
33960000,0.00524813,-0.000786868,0.003346598,-0.10878043,0.1375251,-9.922166
33964000,0.003485933,0.002764015,0.001480128,-0.15108518,0.10313358,-9.902908
33968000,0.001322798,-0.004123308,-0.003316162,-0.20450844,0.120101765,-9.9274
33972000,-0.000402413,-0.013440186,-0.006500997,-0.18059254,0.19466037,-9.904738
33976000,-0.00681506,-0.010046673,-0.008078658,-0.035674527,0.17259122,-9.9107
33980000,-0.008026857,-0.007081763,-0.008073092,0.011857999,0.17961958,-9.880992
33984000,-0.000701502,-0.007714814,-0.001238289,-0.04044468,0.26003203,-9.812633
33988000,0.006238048,-0.005315621,0.004771647,-0.10289392,0.23553202,-9.87278
33992000,0.00394011,0.001470113,0.00749151,-0.07320639,0.2600842,-9.906348
34000000,0.002282063,-0.001689851,-0.005054249,-0.02783459,0.19288117,-9.9498205
34008000,-0.003110401,-0.007978761,0.003339333,-0.032403085,0.14165622,-9.891143
34012000,-0.002062984,-0.007580332,-0.00714934,-0.031324424,0.13890079,-9.891128
34016000,-0.004743377,0.001334715,-0.006348525,-0.0765121,0.18627708,-9.913419
34020000,-0.003841909,-0.002931989,0.003118931,-0.11048367,0.24663034,-9.939663
34028000,-0.00165262,-0.005989931,-0.002994188,-0.092708826,0.27536333,-9.873353
34032000,0.001399996,-0.007659824,0.00240274,-0.09407881,0.27372876,-9.88896
34036000,-0.001192294,-0.008168805,0.003802275,-0.14829831,0.18994388,-9.990408
34040000,-0.006063034,-0.007832903,0.005415401,-0.18005423,0.19591327,-9.965002
34044000,0.000265495,-0.000195499,0.005674443,-0.13439834,0.18636899,-9.904944
34048000,0.00087448,0.003723593,-0.000982749,-0.10355214,0.21518464,-9.893226
34052000,-0.001896338,-0.000275302,0.001318364,-0.14987528,0.24921113,-9.859518
34056000,-0.00604533,-0.002396422,-0.000463848,-0.08711885,0.22481741,-9.907917
34064000,0.00115438,-0.006635243,0.001717539,-0.060633637,0.22387283,-9.926375
34068000,0.00277691,-0.007834701,0.004033675,-0.12322239,0.17184399,-9.816887
34072000,-0.003312637,-0.003657238,0.001800176,-0.07977594,0.23141432,-9.902732
34076000,-0.005690028,-0.002902355,-0.001538513,-0.08657187,0.19853929,-9.883925
34084000,-0.005369559,-0.003037472,-0.004772366,-0.16571677,0.22903496,-9.754482
34088000,-0.000255291,-0.006031193,-0.000549977,-0.13136409,0.23578985,-9.864678
34092000,0.00095945,0.004594365,-0.001807952,-0.08449686,0.20505555,-9.904714
34096000,-0.001162279,0.006643672,-0.002173238,-0.09606514,0.2109219,-9.92438
34100000,0.003085522,-0.003634543,-0.001818538,-0.0925612,0.18202475,-9.90188
34104000,0.00556516,-0.005909249,0.0001035,-0.08424869,0.14514098,-9.866757
34108000,0.005142736,-0.012241729,-0.00070332,-0.1124256,0.25805384,-9.85424
34112000,0.003586325,-0.009583025,-0.001379868,-0.13752514,0.27350098,-9.8779955
34116000,-0.001261157,-0.007746865,-0.001613857,-0.12215138,0.24054863,-9.881494
34120000,0.00011528,-0.007189367,0.000760095,-0.1180096,0.2393745,-9.880568
34124000,0.005962668,-0.005308857,0.007178832,-0.0901482,0.17394316,-9.8883
34128000,0.003772118,-0.007270194,0.000362556,-0.04186343,0.13698441,-9.851646
34132000,0.000193947,-0.006956059,3.59E-05,-0.06884393,0.19739543,-9.859449
34136000,-0.003206803,-0.01133142,0.009316209,-0.1491353,0.23569557,-9.879308
34144000,0.001721455,0.001222644,-0.000504347,-0.1180665,0.14132383,-9.855282
34148000,-0.00343576,-0.001912668,0.002043815,-0.07105532,0.15248239,-9.825663
34152000,-0.00358249,-0.001324412,0.00353994,-0.060548354,0.17064437,-9.848927
34156000,0.00128451,-0.000720768,0.000734939,-0.11955982,0.13662267,-9.820657
34160000,-0.003765204,-0.007707089,0.001077795,-0.13222553,0.14867249,-9.885845
34164000,-0.007042647,-0.008443708,-0.000458643,-0.08835918,0.19429061,-9.903474
34168000,-0.006646393,-0.008232725,0.001598597,-0.12466592,0.14328846,-9.836546
34176000,0.003005564,-0.003560073,-0.001351103,-0.06801762,0.20502809,-9.8353615
34180000,-0.000872314,-0.001957645,-9.36E-05,-0.08857419,0.17725061,-9.840901
34184000,-0.001730406,-0.002618973,-0.002093505,-0.14914155,0.11930196,-9.895886
34188000,-0.000103917,-0.006539853,-0.001422828,-0.13148767,0.1857024,-9.937461
34192000,0.000504007,-0.00852859,-0.000361697,-0.11238101,0.22155932,-9.895956
34196000,0.006330491,-0.004937987,-0.003504872,-0.12783131,0.1396975,-9.906172
34204000,-0.001192504,-0.0050268,-0.00096092,-0.09149141,0.19757022,-9.815831
34208000,0.000881912,-0.002188038,-0.001050274,-0.08297731,0.2624185,-9.818746
34212000,0.002383882,-0.006005145,-0.001664231,-0.13701174,0.27278835,-9.83994
34216000,0.002169691,-0.006141033,0.002807634,-0.15801512,0.20762344,-9.858805
34220000,0.005692946,-0.008446607,0.001111235,-0.1114873,0.16439308,-9.940549
34224000,0.008598614,-0.009206427,-0.00036604,-0.114181556,0.1413697,-9.936188
34228000,0.00878714,-0.00601628,0.000885874,-0.06279859,0.16276577,-9.86716
34232000,0.002046116,-0.006528426,-0.000779771,-0.12734605,0.22908765,-9.874102
34240000,0.003305477,-0.006485804,0.002551929,-0.1248832,0.27382788,-9.860786
34244000,0.001241581,-0.004170069,0.003388679,-0.10857732,0.18608496,-9.857126
34248000,0.005020785,-0.002023457,0.006337889,-0.13611892,0.18533611,-9.881128
34252000,-0.002515191,-0.005967281,0.00227905,-0.13274375,0.16658863,-9.840717
34256000,-0.011341966,-0.009621877,0.003505653,-0.10603504,0.21365185,-9.878418
34260000,-0.006037398,-0.006708385,0.008892045,-0.17013244,0.25271094,-10.006946
34264000,-0.004640068,-0.005416472,0.002410937,-0.17013244,0.25271094,-10.006946
34268000,-0.001640208,-0.004986546,0.000162049,-0.081236705,0.14415833,-9.852782
34272000,0.006258946,-0.004908549,0.001672207,-0.11457993,0.13996312,-9.896718
34276000,0.000577075,-0.00793799,-0.002501201,-0.16038556,0.18084727,-9.860388
34280000,0.002342046,-0.008495195,-0.006610944,-0.098280914,0.23174438,-9.902542
34284000,0.005792648,-0.003402792,-0.003553656,-0.08862846,0.2401927,-9.902422
34292000,-0.012175743,-0.006043961,-0.001734774,-0.085696764,0.16129307,-9.904423
34296000,-0.009430358,-0.012342859,0.002842176,-0.11278044,0.18014061,-9.875709
34300000,-0.003025825,-0.013915301,0.005460822,-0.09787815,0.19483729,-9.850559
34304000,-0.00355987,-0.009260733,-0.004097023,-0.0492617,0.21713641,-9.799532
34308000,-0.006480075,-0.004371479,-0.004933352,-0.047791153,0.16050103,-9.905169
34312000,-0.009803149,-0.005755048,-0.003911595,-0.12673591,0.08126431,-9.956472
34320000,-0.003786779,0.001704748,-0.002857033,-0.111763485,0.18326433,-9.886801
34324000,-0.002390908,-0.002940378,-0.003010549,1.488657,0.14621967,-9.942114
34328000,0.002405362,-0.006180143,0.000420944,8.672782,0.20335765,-9.884617
34332000,0.001848627,-0.004264806,0.005609938,19.22769,0.1872177,-9.731259
34340000,-0.001132221,-0.004060219,-0.001667178,35.780205,0.16562852,-9.451532
34344000,-0.006943675,-0.008268042,0.001312118,41.496822,0.18719172,-9.3917
34348000,-0.008611525,-0.005943485,0.00478236,45.765736,0.24748017,-9.297963
34352000,-0.00534509,-0.003521808,0.002103482,48.771812,0.26759353,-9.199712
34356000,0.000374899,-0.002978508,0.001618609,50.68365,0.25718886,-9.248562
34364000,-0.002918838,-0.003926912,0.007856179,52.781963,0.19021447,-9.267393
34368000,-0.001344788,-0.003027817,0.005324649,53.360428,0.2309367,-9.236422
34372000,0.003845399,-0.004160949,-0.002138664,53.570126,0.24457063,-9.277021
34376000,-0.00053551,-0.00593569,0.002552428,53.35512,0.17238703,-9.185308
34384000,0.001490396,-0.003703663,0.002281457,52.69982,0.21809159,-9.274322
34388000,-0.002661218,-0.006756139,0.002169822,52.437866,0.07920226,-9.191014
34392000,-0.004504543,-0.010319593,-0.001027019,52.077805,0.039658647,-9.236686
34400000,0.000419645,-0.006221739,0.000772976,51.029217,0.206886,-9.254929
34404000,0.000357563,-0.008223032,0.000379403,50.41618,0.22346646,-9.210238
34408000,-0.006313472,-0.007888526,0.002138755,50.02406,0.1939901,-9.21319
34416000,0.001722159,-0.004719568,-0.000351452,49.196407,0.30122504,-9.347794
34424000,0.000691408,-0.005742025,0.006915805,48.039993,0.105875,-9.271858
34428000,-0.002501254,-0.00405382,0.002790645,47.59518,0.12382216,-9.320536
34432000,-0.003013821,-0.002689486,-0.003232843,47.170616,0.22284801,-9.402968
34436000,-0.004816236,-0.005667834,-0.00240889,46.805576,0.19749418,-9.365831
34444000,0.005464141,-0.009209443,0.0022186,45.69076,0.15623051,-9.326521
34452000,-0.011630464,-0.003822392,-0.000704363,45.080578,0.08551668,-9.407183
34456000,-0.004532963,-0.001715476,-0.001869464,44.77649,0.178017,-9.459193
34464000,-0.000301881,-0.008641777,0.007107139,43.616013,0.20092127,-9.384127
34468000,0.000827351,-0.008097773,-0.00327876,43.213333,0.2118068,-9.410157
34472000,0.003561061,-0.003351771,-0.008058176,42.909393,0.14681447,-9.405574
34476000,-0.00399792,-0.000286256,-0.001810435,42.532177,0.17928587,-9.353467
34480000,-0.004764113,-0.0047265,-2.16E-05,42.04429,0.2672871,-9.384284
34484000,-0.00389053,-0.008868465,-0.002808621,41.573948,0.17336313,-9.447214
34488000,0.002431357,-0.004894401,-0.003348516,41.160397,0.17376254,-9.461862
34492000,0.007288347,-0.001543694,0.000361999,40.883995,0.23984341,-9.461065
34496000,0.003808702,0.002289938,0.001428724,40.594486,0.140133,-9.377324
34504000,-0.003819017,-0.004781802,0.002615951,39.62985,0.2895412,-9.426899
34508000,-0.00382833,-0.000542923,-0.000337552,39.200905,0.21972409,-9.415235
34516000,0.000903954,-0.008274011,-0.004553843,38.539127,0.21791783,-9.403669
34520000,0.005333744,-0.005688548,0.000505329,38.11823,0.16821879,-9.438499
34524000,0.010892301,-0.004330397,0.001277795,37.622673,0.12329779,-9.439715
34532000,0.001808381,-0.00804009,-0.002285732,36.885735,0.1268612,-9.417324
34536000,0.003272685,-0.007472703,-0.004428233,36.59477,0.16369168,-9.421004
34540000,-0.002074451,-0.007304424,-0.004709641,36.319958,0.22445723,-9.476661
34548000,5.04E-05,-0.013796593,0.000478957,35.38341,0.2946274,-9.5270605
34552000,0.003448439,-0.008103365,0.005717147,35.176136,0.24423243,-9.558549
34556000,-0.001567899,-0.006023901,0.007001389,34.90779,0.19509009,-9.559139
34560000,-0.004765172,-0.004088606,0.008589529,34.582703,0.2402753,-9.490681
34564000,-0.001379361,-0.002693166,0.006027672,34.198154,0.23431095,-9.452086
34568000,0.001344449,-0.003057482,-0.000398693,33.860565,0.17074676,-9.466779
34572000,0.003179033,-0.010453294,-0.002510164,33.52444,0.14955492,-9.502672
34576000,0.000852537,-0.008819795,-0.002746829,33.222878,0.112437956,-9.600537
34580000,-0.001963589,-0.007953541,-0.004330618,32.965252,0.16161779,-9.588565
34588000,-0.002409367,-0.000272602,-0.000634846,32.33546,0.15087412,-9.533614
34596000,-0.000912335,-0.009918135,0.000813949,31.913057,0.2558908,-9.472551
34600000,0.002318511,-0.011570029,0.005897072,31.729284,0.3034733,-9.472362
34604000,-0.001772045,-0.007696573,0.006491862,31.367485,0.249322,-9.484352
34608000,-0.00330154,-0.006914987,0.000733166,30.928902,0.13378608,-9.498696
34616000,-0.000678963,-0.005892953,0.00692871,30.519262,0.14656062,-9.513232
34620000,0.001090472,-0.008344904,0.000512904,30.322737,0.16430202,-9.4700165
34624000,0.001738971,-0.006096519,-0.001138344,29.93871,0.1613168,-9.533432
34628000,0.005589908,-0.003862648,0.00883141,29.625225,0.105268694,-9.557764
34632000,0.00628784,-0.00757249,0.012083987,29.381565,0.021419873,-9.533473
34636000,0.001211704,-0.002539684,0.00764741,29.20415,0.047611676,-9.57135
34644000,-0.001915355,0.002693937,0.020055015,28.763987,0.05023216,-9.473324
34648000,0.003158531,-0.001538056,0.023486312,28.513468,0.02262394,-9.540288
34656000,-2.87E-05,-0.004859438,0.036527112,27.961739,-0.01649861,-9.521837
34660000,-0.000408694,-0.007272628,0.0353261,27.74575,-0.005068366,-9.524885
34664000,-0.001472325,-0.011393285,0.034237713,27.46641,-0.11189771,-9.549184
34668000,-0.005363054,-0.005336407,0.04177128,27.15835,-0.23281914,-9.528441
34672000,-0.010036128,-0.005734547,0.047809172,26.905182,-0.27377924,-9.625189
34680000,-0.003429451,-0.011494143,0.058159586,26.588144,-0.15793017,-9.540936
34684000,0.002018527,-0.007374963,0.064444095,26.308342,-0.11870446,-9.513008
34688000,-0.001639094,-0.007705473,0.07155626,26.053799,-0.2580005,-9.540488
34692000,-0.005156587,-0.003411836,0.07833433,25.828527,-0.33659887,-9.582064
34700000,0.002734892,-0.005717955,0.093820065,25.436405,-0.24798618,-9.530329
34704000,-0.000245168,-0.007609752,0.10083266,25.20263,-0.22100243,-9.477282
34708000,-0.004207514,-0.008954295,0.104675025,24.974525,-0.30549085,-9.574656
34712000,0.005087028,-0.007790868,0.10607981,24.843866,-0.26859263,-9.675447
34716000,0.007459648,-0.006538844,0.1151689,24.594318,-0.16978991,-9.70511
34724000,0.001591219,-0.010885123,0.12612085,24.16703,-0.045579728,-9.671926
34728000,0.000890591,-0.012430613,0.12259393,23.92103,-0.09174508,-9.669505
34732000,0.001951638,-0.00856906,0.1290774,23.68042,-0.110830806,-9.699211
34740000,0.015893115,-0.003748222,0.13401103,23.403418,0.05617371,-9.787554
34744000,0.019687733,-0.005852737,0.13705216,23.29932,0.18399796,-9.8149
34748000,0.024516592,-0.01484176,0.13862462,23.258253,-0.094107516,-10.395501
34752000,0.031248922,-0.027909245,0.14627501,23.181656,-0.37074974,-11.027536
34756000,0.037683602,-0.04212747,0.15355341,22.907095,-0.37835616,-11.068817
34760000,0.049241904,-0.055470813,0.16485618,22.753355,-0.33638138,-11.020958
34768000,0.07232447,-0.085611746,0.1810737,22.375746,-0.21154654,-11.076449
34772000,0.079654254,-0.09870537,0.19245711,22.086811,-0.2474498,-10.942127
34776000,0.086715944,-0.1061711,0.19860202,21.774605,-0.3203024,-10.929451
34780000,0.09385191,-0.12722163,0.20381644,21.539806,-0.31782183,-11.019088
34784000,0.101985455,-0.14344369,0.21234757,21.410788,-0.23571321,-11.021182
34788000,0.10881472,-0.14690599,0.21650852,21.136866,-0.20014489,-10.967712
34792000,0.115183,-0.16049291,0.22428446,20.818794,-0.16124856,-10.936229
34796000,0.1281238,-0.17676292,0.23264603,20.533386,-0.22919542,-10.861181
34800000,0.14230093,-0.19503096,0.23737466,20.397268,-0.25082394,-10.796375
34808000,0.14921919,-0.20991002,0.2371786,19.85246,-0.28264832,-10.569277
34812000,0.15787615,-0.21661068,0.24322869,19.579365,-0.31364304,-10.575938
34816000,0.16536954,-0.21979187,0.2534827,19.347923,-0.35018328,-10.52816
34820000,0.16662022,-0.22820985,0.25094157,19.145641,-0.30794543,-10.39764
34824000,0.17548682,-0.2274974,0.25387993,18.996824,-0.22532661,-10.259268
34828000,0.18146162,-0.22630198,0.25402793,18.682756,-0.34288433,-10.303677
34836000,0.18226396,-0.23199584,0.2633777,18.109165,-0.45574418,-10.279658
34844000,0.19684857,-0.23109534,0.2678726,17.790396,-0.41854635,-10.1498165
34848000,0.1930079,-0.23052438,0.26353264,17.50038,-0.4695442,-10.042168
34852000,0.19546504,-0.22671936,0.2717403,17.186054,-0.47285852,-9.996664
34856000,0.20564258,-0.22188634,0.27247208,17.041166,-0.42273527,-10.044547
34864000,0.20259725,-0.22207782,0.26593775,16.507002,-0.51758,-9.955128
34868000,0.20065731,-0.21502994,0.26666692,16.28389,-0.51991916,-9.924266
34872000,0.20142117,-0.21360932,0.26076052,16.062,-0.5424158,-9.891406
34880000,0.20411524,-0.21105471,0.26661962,15.586532,-0.6312757,-9.715344
34884000,0.19814602,-0.20247829,0.2685659,15.39755,-0.52043796,-9.759202
34892000,0.2022925,-0.19425498,0.26455694,15.087449,-0.5520511,-9.620204
34896000,0.19268957,-0.18237178,0.2603263,14.945114,-0.5125208,-9.517336
34900000,0.1963844,-0.17544222,0.25444466,14.655125,-0.5402736,-9.539906
34908000,0.1978226,-0.15512642,0.25413826,14.386127,-0.5784786,-9.580228
34916000,0.19712833,-0.13126726,0.2518344,13.982316,-0.54796517,-9.33864
34920000,0.20382982,-0.116412975,0.24737974,13.733099,-0.6332635,-9.349542
34924000,0.20565298,-0.102168016,0.24378501,13.571304,-0.609072,-9.447773
34928000,0.20464481,-0.09085908,0.2374858,13.456598,-0.5286645,-9.374318
34936000,0.20185247,-0.075802594,0.22808564,13.095005,-0.5140359,-9.470156
34944000,0.20376252,-0.051709052,0.21730022,12.737072,-0.5262826,-9.31383
34948000,0.20204638,-0.032794103,0.21027559,12.688753,-0.45027196,-9.344011
34956000,0.20124537,-0.0089813,0.20035996,12.368337,-0.63945436,-9.530401
34964000,0.20150141,-0.003490858,0.17735672,12.168154,-0.40843865,-9.545384
34968000,0.20516022,0.013219985,0.17219612,12.131684,-0.39247012,-9.519526
34972000,0.20277946,0.026284896,0.16008528,11.978502,-0.366801,-9.635551
34976000,0.20401412,0.030489461,0.14504945,11.952784,-0.36084756,-9.631767
34980000,0.20481822,0.037132267,0.1350463,11.900798,-0.33431244,-9.692065
34988000,0.20574278,0.057278004,0.117406376,11.683644,-0.28587383,-9.747847
34992000,0.21117155,0.06522261,0.10193609,11.619942,-0.2138369,-9.810387
34996000,0.21196002,0.06824588,0.0868585,11.5049925,-0.23367576,-9.884464
35000000,0.21153097,0.06874511,0.07278934,11.410085,-0.27443773,-9.917081
35004000,0.20711377,0.07660237,0.06423161,11.301921,-0.20836902,-9.884416
35008000,0.21318562,0.086691685,0.046771843,11.238884,-0.112349145,-9.940804
35012000,0.21974531,0.08724838,0.02655247,11.174381,-0.11502071,-9.999518
35016000,0.21883017,0.08693192,0.008973049,11.036853,-0.06734433,-9.964464
35024000,0.22464536,0.10399551,-0.017298838,10.9743185,-0.060606334,-10.045535
35028000,0.22381712,0.105459,-0.036024813,10.956332,-0.03810837,-10.072862
35032000,0.22421464,0.09798433,-0.054767944,10.955061,0.02493663,-10.132347
35036000,0.23150031,0.10031995,-0.07599668,10.913393,0.053398784,-10.155524
35044000,0.25370526,0.10164884,-0.11474055,10.725376,0.2745261,-10.245261
35052000,0.25540245,0.10099763,-0.14408849,10.728932,0.37841243,-10.343124
35056000,0.25399688,0.10036068,-0.15842438,10.694491,0.39538172,-10.354852
35060000,0.25016072,0.09559708,-0.17663184,10.608792,0.47498718,-10.257377
35068000,0.256745,0.08134562,-0.21033335,10.467221,0.6224627,-10.382839
35072000,0.25904477,0.08069688,-0.22826064,10.446453,0.7293787,-10.365286
35076000,0.2672236,0.07898973,-0.24134518,10.303385,0.7306091,-10.407282
35080000,0.2759532,0.06566237,-0.2558825,10.221752,0.7148996,-10.430385
35084000,0.27637914,0.05924249,-0.27077052,10.150395,0.71814024,-10.415777
35088000,0.2747867,0.05619908,-0.28525564,10.1095,0.6592677,-10.412051
35092000,0.27744788,0.04882557,-0.29786935,10.006054,0.60910714,-10.471245
35100000,0.28287277,0.032621052,-0.316982,9.813139,0.7067618,-10.483609
35104000,0.2773336,0.030996772,-0.32742137,9.573006,0.67817324,-10.496065
35108000,0.27978387,0.025597911,-0.33735496,9.448833,0.6062895,-10.445591
35112000,0.28248054,0.014582585,-0.34616637,9.395063,0.48213303,-10.430305
35120000,0.2832565,0.005295014,-0.3618485,9.244697,0.40496942,-10.321464
35124000,0.27557197,-0.008868832,-0.36759406,9.074562,0.31008878,-10.37721
35128000,0.2804512,-0.019177768,-0.37568814,8.986583,0.36782116,-10.392199
35132000,0.28338236,-0.029080344,-0.38180968,8.834699,0.33250508,-10.352344
35136000,0.2833551,-0.03408311,-0.3866646,8.82795,0.29541755,-10.295297
35140000,0.28338894,-0.033116676,-0.39336616,8.75473,0.20452425,-10.210351
35144000,0.28060588,-0.03764536,-0.39576456,8.458866,0.022612708,-10.24171
35148000,0.28035113,-0.044387817,-0.4006965,8.385392,-0.0548768,-10.281207
35152000,0.28181636,-0.052169185,-0.40697443,8.353913,-0.076280065,-10.253703
35160000,0.27305672,-0.06920673,-0.40875575,8.007921,-0.036182087,-9.939018
35164000,0.2661849,-0.06991568,-0.40493867,7.8099914,-0.2045435,-10.05626
35168000,0.27176633,-0.06706915,-0.40319824,7.79026,-0.28986478,-10.099189
35176000,0.27811763,-0.082181096,-0.41687262,7.5875187,-0.4856518,-9.992372
35180000,0.27199274,-0.0872988,-0.41254073,7.425178,-0.6646748,-9.9947815
35184000,0.26595813,-0.0829026,-0.40916646,7.196491,-0.84822255,-9.932829
35188000,0.26161408,-0.08588702,-0.40455762,7.061623,-0.8250971,-9.798375
35192000,0.26444906,-0.086397246,-0.40686092,6.897442,-0.8290532,-9.8259735
35196000,0.26617613,-0.08569903,-0.4055622,6.7173386,-0.9238859,-9.855834
35200000,0.26137242,-0.08999201,-0.39553046,6.655562,-1.0425434,-9.853233
35204000,0.25742972,-0.087760374,-0.38981923,6.636573,-1.2292737,-9.72944
35208000,0.25166348,-0.08283228,-0.38702694,6.555697,-1.2821726,-9.553915
35216000,0.24907014,-0.08934906,-0.3726087,6.209022,-1.3634003,-9.618801
35224000,0.23932405,-0.08213293,-0.3587498,6.035989,-1.4561732,-9.574411
35232000,0.23792154,-0.07691928,-0.34850433,5.7407413,-1.5345781,-9.516456
35240000,0.22766197,-0.06100867,-0.33122396,5.5336747,-1.7289175,-9.486895
35244000,0.22162387,-0.06398158,-0.3263049,5.5336747,-1.7289175,-9.486895
35248000,0.21483707,-0.064594336,-0.30911124,5.45361,-1.9045051,-9.375455
35256000,0.21498892,-0.04847378,-0.2842122,5.2091227,-2.1191187,-9.396896
35260000,0.21567579,-0.048789427,-0.28529173,5.211734,-2.0847006,-9.328891
35268000,0.2033869,-0.042369884,-0.25842792,4.9696712,-2.1262293,-9.341759
35272000,0.19735391,-0.034897152,-0.2523392,4.939998,-2.155388,-9.381729
35280000,0.20112756,-0.02661873,-0.2372446,4.9544883,-2.0591652,-9.377546
35284000,0.2012416,-0.01576915,-0.22883728,4.9339213,-2.0732403,-9.30277
35288000,0.19770539,-0.0064854,-0.21936065,4.763967,-2.1752665,-9.363265
35292000,0.19853859,-0.001557086,-0.20608349,4.7460856,-2.1518316,-9.343941
35296000,0.19221176,-0.001158258,-0.19521154,4.7873564,-2.0473459,-9.337664
35300000,0.18172084,0.002407175,-0.1871508,4.7843018,-1.9710575,-9.342528
35308000,0.18475334,0.01842262,-0.16362113,4.6811156,-2.0162287,-9.340187
35312000,0.18380333,0.022194637,-0.1518244,4.671156,-1.9449781,-9.373962
35316000,0.18863077,0.025406467,-0.14438176,4.698838,-1.8983352,-9.372569
35320000,0.18567169,0.036781147,-0.1326646,4.7208557,-1.7700851,-9.402047
35328000,0.18365332,0.055607084,-0.10982512,4.5915203,-1.8266474,-9.503515
35332000,0.17913683,0.05897176,-0.10073595,4.635795,-1.7456756,-9.488336
35336000,0.18225594,0.061005697,-0.08753711,4.6943126,-1.5631508,-9.52516
35340000,0.18524961,0.06994736,-0.07161747,4.662399,-1.4243711,-9.621145
35348000,0.17730054,0.07166054,-0.05124332,4.6851335,-1.328601,-9.567001
35356000,0.17602147,0.078254774,-0.035814486,4.775941,-1.0146616,-9.768127
35360000,0.17642975,0.07670838,-0.022862736,4.762095,-1.0607977,-9.790864
35364000,0.18043481,0.08561874,-0.007628041,4.7139864,-0.9719272,-9.744869
35368000,0.18516584,0.09704243,0.002789445,4.7630124,-0.87180614,-9.776198
35372000,0.18711208,0.10064816,0.012366969,4.8392825,-0.81810015,-9.829501
35376000,0.19130923,0.09762697,0.018089743,4.8655095,-0.6503194,-9.756722
35384000,0.19122574,0.098716766,0.03745824,4.780998,-0.4113339,-10.084932
35392000,0.18363042,0.09824216,0.07027683,4.6543508,-0.5129855,-10.1388
35400000,0.18234746,0.10603764,0.090287365,4.574396,-0.43517327,-10.249334
35404000,0.18017082,0.10819715,0.10258893,4.593342,-0.40023127,-10.369309
35408000,0.18421438,0.1078272,0.11289322,4.583905,-0.36531934,-10.513127
35412000,0.18405567,0.10734438,0.11831993,4.508486,-0.40096307,-10.609641
35416000,0.18620047,0.10781718,0.13111576,4.3495617,-0.38431498,-10.648982
35420000,0.18467477,0.11298897,0.1429581,4.2308,-0.30666557,-10.8449
35424000,0.18397607,0.11520976,0.15144071,4.2308,-0.30666557,-10.8449
35428000,0.18626523,0.11589429,0.15483905,4.2296495,-0.32332584,-11.0312195
35432000,0.18712327,0.11236421,0.15924633,4.156632,-0.3402002,-11.095572
35436000,0.19191045,0.11198711,0.16875775,4.0643005,-0.35891926,-11.17031
35440000,0.19026522,0.11534356,0.1746643,3.9958372,-0.35014123,-11.325219
35444000,0.18383314,0.11954629,0.18472226,3.9457781,-0.3241193,-11.431429
35448000,0.18514395,0.124456465,0.18982497,3.8704438,-0.29412714,-11.501061
35452000,0.18871269,0.120521374,0.19233787,3.774434,-0.30227348,-11.514066
35456000,0.18666354,0.121006735,0.20404363,3.7004483,-0.27146038,-11.529099
35464000,0.18015358,0.120461315,0.20861833,3.7144954,-0.24094649,-11.8007145
35468000,0.17903657,0.12697358,0.21297324,3.6153395,-0.24169193,-11.86579
35472000,0.18218595,0.1299477,0.219064,3.5632594,-0.23141672,-11.950023
35476000,0.1822291,0.12971018,0.22561209,3.5754335,-0.19996761,-11.958929
35480000,0.18641944,0.12796368,0.23202427,3.5318832,-0.11378022,-12.055285
35484000,0.18289451,0.13824001,0.2344908,3.4933608,-0.11724191,-12.209476
35488000,0.17894706,0.1462978,0.23231786,3.3879955,-0.13626869,-12.207827
35496000,0.1814658,0.14076602,0.24327815,3.2470577,-0.11262729,-12.365561
35500000,0.17499585,0.13832802,0.2397068,3.2569554,-0.045645613,-12.477605
35504000,0.17406097,0.13868673,0.24440357,3.2182982,-0.061221045,-12.48091
35512000,0.16873753,0.14696255,0.25462642,3.1351442,-0.090681866,-12.536802
35516000,0.16506389,0.14486489,0.25345898,3.0912814,-0.05037083,-12.633178
35524000,0.16381428,0.14428277,0.23863146,2.9777267,0.0473026,-12.726395
35528000,0.16395395,0.15019588,0.23682845,2.945268,-0.017096542,-12.833287
35536000,0.16176525,0.15154491,0.23945786,2.8821084,0.058620017,-12.90405
35540000,0.1601248,0.14974658,0.24032253,2.8956084,0.03365249,-12.939061
35544000,0.15946499,0.15437035,0.2370985,2.8257606,0.08419716,-12.977064
35548000,0.15783067,0.15933192,0.23780382,2.7918744,0.16882576,-13.011009
35552000,0.15673779,0.15687194,0.23491573,2.720831,0.1717808,-13.048077
35560000,0.14826147,0.15419029,0.22918661,2.660411,0.22370073,-13.130067
35568000,0.1551725,0.16446224,0.21570818,2.5697052,0.19455609,-13.227899
35576000,0.1481086,0.16170444,0.22017087,2.4285703,0.111786805,-13.226985
35580000,0.14820129,0.16200604,0.21536206,2.419579,0.17486277,-13.261718
35584000,0.14879572,0.15905976,0.2037219,2.439721,0.2424405,-13.366626
35592000,0.1505362,0.16781712,0.18969005,2.3542047,0.18818954,-13.466689
35596000,0.14602928,0.17024678,0.18262714,2.353832,0.32784402,-13.527695
35604000,0.13770695,0.1673663,0.17361443,2.260217,0.25765193,-13.476431
35612000,0.13644096,0.1614205,0.16787623,2.2120416,0.2715406,-13.520181
35616000,0.13348036,0.16727372,0.15843001,2.1995714,0.27985707,-13.574134
35620000,0.12799251,0.17575587,0.14649142,2.1197176,0.2811374,-13.614994
35628000,0.12806109,0.16919304,0.13926095,2.0277855,0.2535636,-13.586706
35632000,0.12812032,0.17313962,0.13311914,2.0271516,0.2774738,-13.651947
35636000,0.12186932,0.17409553,0.12538254,2.0506175,0.26990208,-13.628006
35640000,0.12030181,0.17052385,0.121482834,2.0469441,0.30604523,-13.653786
35644000,0.12238919,0.17137447,0.1168495,1.9926671,0.3279936,-13.697177
35652000,0.113123685,0.16429909,0.09503964,1.9833118,0.2684065,-13.677974
35656000,0.108424224,0.15993358,0.08774176,2.0012887,0.31546718,-13.628133
35660000,0.113973215,0.16275796,0.08100061,1.8953584,0.30442947,-13.684794
35668000,0.10893846,0.1597551,0.078520805,1.8400674,0.2723211,-13.693427
35672000,0.10705651,0.16625261,0.06474418,1.8258357,0.26645374,-13.780286
35676000,0.11028969,0.16697462,0.06031621,1.8287169,0.2474772,-13.733108
35680000,0.11071783,0.15771383,0.05656778,1.7344398,0.25939095,-13.726445
35684000,0.106428936,0.15245453,0.050136395,1.7376913,0.23708855,-13.742552
35692000,0.102281906,0.15782075,0.041458603,1.6941218,0.26343006,-13.746843
35696000,0.09877981,0.16284259,0.034712408,1.7349355,0.26613882,-13.646433
35700000,0.09634522,0.15820791,0.029041184,1.7265961,0.2737188,-13.631192
35704000,0.09505021,0.15399207,0.024671113,1.6464505,0.22597697,-13.603537
35712000,0.096183896,0.15494238,0.01226576,1.5408139,0.2285814,-13.58117
35716000,0.09137416,0.15621167,0.008037848,1.5706077,0.19056885,-13.619984
35720000,0.086093485,0.15263544,-0.001640688,1.5723543,0.16836274,-13.668503
35724000,0.08773302,0.1473727,-0.007373259,1.5948267,0.19146957,-13.593905
35728000,0.0849381,0.15323049,-0.004107822,1.6314421,0.20229734,-13.62187
35736000,0.07742456,0.14354628,-0.015441726,1.5495853,0.058502894,-13.517058
35740000,0.07664117,0.14550501,-0.023237815,1.6021603,0.041345816,-13.486742
35744000,0.08216872,0.14627466,-0.0238035,1.5999373,0.064242885,-13.460675
35748000,0.09063831,0.1404714,-0.02375162,1.5268377,0.04088522,-13.456135
35756000,0.07470329,0.14394115,-0.03219352,1.506645,0.120732166,-13.535877
35760000,0.07869018,0.14856376,-0.033008065,1.5021155,0.10944947,-13.448345
35768000,0.078084275,0.14124335,-0.038661595,1.4621922,0.078361966,-13.418497
35776000,0.076524295,0.13314597,-0.04581891,1.508678,0.036966525,-13.320782
35780000,0.0780794,0.12966216,-0.046419233,1.4591283,-0.012533535,-13.291734
35784000,0.076102346,0.13506332,-0.042161036,1.33777,-0.030639516,-13.298731
35788000,0.073633,0.13650298,-0.0477033,1.2821945,0.019463025,-13.288157
35792000,0.07121315,0.13762817,-0.049523596,1.3443072,-0.00510508,-13.232272
35796000,0.071935385,0.13760613,-0.043830216,1.397163,-0.03735535,-13.249434
35804000,0.06948959,0.13373704,-0.042065706,1.395698,-0.06852237,-13.081577
35808000,0.06521812,0.1347006,-0.046897877,1.2955672,-0.11587105,-13.090767
35816000,0.06710563,0.13105768,-0.04384803,1.3450263,-0.094503656,-13.117253
35820000,0.06193873,0.13126619,-0.042800933,1.2968572,-0.091955625,-13.051408
35824000,0.05496785,0.12290446,-0.041968055,1.2297425,-0.18464237,-13.007621
35828000,0.059163652,0.121068396,-0.042807106,1.1478736,-0.19426125,-13.009144
35832000,0.06182062,0.12127247,-0.04411136,1.1986871,-0.11798901,-12.978005
35840000,0.061186336,0.11711957,-0.04395582,1.2582837,-0.13071491,-12.995987
35844000,0.06685879,0.1188508,-0.04503372,1.1937375,-0.17446233,-12.967561
35852000,0.054638863,0.12531208,-0.039901573,1.2483953,-0.12762235,-12.820819
35856000,0.055114232,0.12060603,-0.031374328,1.2122571,-0.2319544,-12.765083
35860000,0.05465403,0.12255637,-0.03209574,1.2122886,-0.2893371,-12.883119
35868000,0.0551208,0.118643686,-0.031360704,1.1904314,-0.1988881,-12.71256
35872000,0.054638732,0.12149935,-0.018495427,1.1817526,-0.21301636,-12.6594
35876000,0.053041313,0.11985808,-0.016298827,1.193355,-0.23655096,-12.752604
35880000,0.05314302,0.116084516,-0.018434284,1.1680324,-0.23334076,-12.738549
35884000,0.052471295,0.12082538,-0.016104013,1.2305465,-0.30197188,-12.6294775
35888000,0.050252438,0.12419489,-0.009554875,1.2386299,-0.29621825,-12.687133
35896000,0.054779913,0.12086717,-0.013114707,1.1598208,-0.21225044,-12.730983
35904000,0.047122233,0.12317269,-0.004150985,1.1289979,-0.21232624,-12.60133
35908000,0.047825817,0.11728034,0.002553194,1.0660895,-0.28609404,-12.681125
35912000,0.05012334,0.115509816,0.009131895,1.0939498,-0.28182623,-12.695041
35920000,0.04746883,0.11141601,0.013776392,1.0843097,-0.30423155,-12.670127
35928000,0.048089348,0.120880544,0.018259926,1.0910716,-0.30050278,-12.614453
35932000,0.045164715,0.1161334,0.02330739,1.0556531,-0.38590357,-12.574115
35936000,0.0484447,0.10857671,0.03200952,1.0227908,-0.3687357,-12.55219
35940000,0.05172664,0.10942977,0.034794543,1.0317016,-0.36933085,-12.594847
35944000,0.050080784,0.11804702,0.03606635,0.963093,-0.34573153,-12.603858
35952000,0.04417725,0.12124062,0.03802092,1.0219477,-0.35741812,-12.609711
35956000,0.042737633,0.12778659,0.04261254,0.9807064,-0.33691493,-12.607545
35960000,0.044197544,0.12475524,0.049321044,0.9968784,-0.3412548,-12.56829
35968000,0.041558564,0.12802525,0.052754007,0.86302245,-0.3418931,-12.611148
35976000,0.045479827,0.12730294,0.063740395,0.93932116,-0.3615375,-12.641246
35980000,0.0479523,0.1252063,0.06862113,0.9157337,-0.33031347,-12.582728
35984000,0.045141634,0.1216936,0.06767909,0.8701722,-0.33208132,-12.550723
35988000,0.03934122,0.12486144,0.07091875,0.9015482,-0.33768302,-12.608338
35992000,0.043219596,0.1277619,0.07297041,0.9379166,-0.34871265,-12.653009
35996000,0.04690856,0.1263048,0.07125119,0.88589895,-0.34604517,-12.630199
36000000,0.046280257,0.12629867,0.08070014,0.88023,-0.31213272,-12.642198
36004000,0.044212475,0.12932119,0.08928858,0.912528,-0.4284358,-12.6812105
36008000,0.0469365,0.13230184,0.09068475,0.8539616,-0.4679122,-12.741678
36016000,0.040122375,0.13108394,0.08342858,0.79847425,-0.37667286,-12.735256
36020000,0.04124019,0.130103,0.09817582,0.84191835,-0.33867043,-12.709987
36024000,0.042202707,0.13218191,0.100682236,0.8846322,-0.3105203,-12.673179
36028000,0.041256428,0.13498335,0.0949729,0.8706269,-0.37741482,-12.688532
36036000,0.04400897,0.13196997,0.107079946,0.80771893,-0.2778366,-12.759324
36040000,0.04538514,0.1345604,0.106335334,0.80941033,-0.37109187,-12.775383
36044000,0.044852924,0.13389505,0.10256399,0.8440467,-0.31890708,-12.77607
36048000,0.040461075,0.14026138,0.10213858,0.7672964,-0.24537234,-12.763835
36056000,0.041544437,0.14287958,0.10645306,0.8560383,-0.22158185,-12.752896
36060000,0.03761098,0.14614245,0.10597022,0.8782852,-0.19769576,-12.830172
36064000,0.037338007,0.14645931,0.109109014,0.80543745,-0.23966062,-12.843494
36068000,0.034798637,0.14770882,0.10917237,0.77248305,-0.2530502,-12.784672
36072000,0.03539583,0.14887416,0.10688015,0.7856461,-0.25357684,-12.821563
36080000,0.034676258,0.14302829,0.10873445,0.74593604,-0.27355155,-12.945801
36088000,0.03883322,0.15068537,0.116717234,0.79235524,-0.3035475,-12.924057
36092000,0.03575059,0.15384042,0.11669324,0.7363218,-0.31786877,-12.872657
36096000,0.03481507,0.14974105,0.11343474,0.7230173,-0.25580013,-12.940454
36100000,0.030330105,0.15583135,0.110736676,0.7291702,-0.1955563,-13.060772
36104000,0.025147498,0.1575775,0.11489115,0.75797826,-0.19693087,-13.085703
36108000,0.0273448,0.15466645,0.11821863,0.72897,-0.27403572,-13.075462
36112000,0.0347099,0.1563066,0.115265384,0.6984133,-0.26998192,-13.087756
36116000,0.04263837,0.15037867,0.11386965,0.67199206,-0.24922808,-13.116947
36120000,0.03409649,0.15357882,0.11526871,0.6703786,-0.32268372,-13.127707
36128000,0.032182667,0.15684786,0.10882502,0.6839549,-0.22669588,-13.161557
36132000,0.030602146,0.15639117,0.107001215,0.6539266,-0.1876925,-13.159881
36136000,0.035223514,0.15752967,0.10384204,0.6910418,-0.15853603,-13.11181
36140000,0.038121253,0.1597498,0.09966505,0.60960805,-0.18634312,-13.081318
36144000,0.031048868,0.16004688,0.10507139,0.54192996,-0.20387731,-13.140947
36148000,0.034133937,0.15735936,0.10679259,0.61977774,-0.23759997,-13.223802
36156000,0.03455161,0.15639766,0.0996977,0.63562256,-0.1825397,-13.290947
36160000,0.033114694,0.15885635,0.0951007,0.7357078,-0.23256533,-13.290351
36168000,0.03128231,0.16069493,0.097123675,0.6930061,-0.19607085,-13.255545
36172000,0.03411268,0.166616,0.09802882,0.6851586,-0.20652586,-13.349123
36176000,0.03533457,0.15748335,0.09748274,0.6825653,-0.17426087,-13.301577
36180000,0.03396634,0.15662496,0.08906254,0.63477445,-0.10530277,-13.279649
36184000,0.030486852,0.15846328,0.09006338,0.63333136,-0.18941407,-13.355797
36188000,0.024816385,0.15793255,0.08612253,0.65138376,-0.22441734,-13.352063
36192000,0.027633013,0.16176288,0.078889355,0.63859695,-0.22987485,-13.313633
36200000,0.030235348,0.1628175,0.079072356,0.7312876,-0.2159378,-13.342019
36204000,0.030438224,0.16035911,0.07780681,0.6984895,-0.15617904,-13.360698
36208000,0.027868982,0.1559405,0.079798855,0.61788636,-0.16405167,-13.368659
36212000,0.023349937,0.15262091,0.07433914,0.65806556,-0.22413613,-13.335301
36216000,0.01765863,0.15740252,0.07259261,0.747654,-0.172665,-13.275097
36220000,0.01905126,0.159149,0.07744017,0.76116854,-0.22908597,-13.342456
36224000,0.026324457,0.1646647,0.069614045,0.76116854,-0.22908597,-13.342456
36228000,0.026287282,0.1676516,0.06251375,0.7342848,-0.19097403,-13.355937
36232000,0.023950838,0.16247031,0.06645973,0.62627673,-0.28040355,-13.341231
36236000,0.024540056,0.16221195,0.071637645,0.6003792,-0.31638882,-13.378741
36240000,0.0198578,0.16050366,0.07394705,0.57136476,-0.2739123,-13.387461
36244000,0.017488595,0.16117546,0.069215626,0.61140656,-0.2497173,-13.356254
36248000,0.018380279,0.16105483,0.061341826,0.6803485,-0.2321036,-13.336704
36252000,0.021036433,0.15787175,0.049099207,0.6573188,-0.21993004,-13.29566
36256000,0.02038007,0.16494226,0.047785804,0.6900749,-0.197993,-13.404769
36260000,0.018400643,0.1730308,0.053343777,0.65708035,-0.20179309,-13.471661
36268000,0.01824343,0.1622362,0.051876917,0.706942,-0.17964768,-13.354547
36272000,0.019062806,0.16240159,0.05296117,0.70272225,-0.14703009,-13.294839
36276000,0.0229931,0.16930664,0.057107482,0.73929954,-0.25110108,-13.359328
36284000,0.013807265,0.15972157,0.041138206,0.70682985,-0.32440275,-13.330909
36288000,0.016144354,0.151815,0.044129524,0.7302462,-0.33742264,-13.337504
36292000,0.013847341,0.15565473,0.04449608,0.76601464,-0.29609874,-13.368686
36296000,0.015961537,0.16668932,0.040470816,0.68276006,-0.3024927,-13.358734
36300000,0.021458091,0.16654098,0.042666867,0.64820117,-0.30339253,-13.3732395
36308000,0.011753328,0.16218488,0.02788215,0.702042,-0.28256944,-13.450475
36312000,0.011870309,0.15977997,0.033788923,0.6788798,-0.29457483,-13.388886
36316000,0.009668483,0.1519897,0.036145765,0.63933307,-0.29995722,-13.400794
36324000,0.01677409,0.15641786,0.022399943,0.6852551,-0.2559345,-13.368564
36328000,0.01392059,0.15724473,0.028789673,0.7076885,-0.30684605,-13.316147
36336000,0.007711465,0.15827218,0.030385789,0.65453994,-0.31570223,-13.308967
36340000,0.011629254,0.16104668,0.027819827,0.6400809,-0.33025426,-13.265262
36344000,0.011186426,0.15214755,0.030618079,0.67184705,-0.32427177,-13.283334
36348000,0.010824428,0.15121412,0.027028592,0.7108048,-0.27437797,-13.30564
36352000,0.010917595,0.15265927,0.01947594,0.6849299,-0.28082687,-13.311226
36360000,0.01372874,0.14684382,0.02482775,0.7034456,-0.30970058,-13.299291
36364000,0.015570944,0.15204379,0.02021511,0.7520172,-0.34221023,-13.334758
36368000,0.01153059,0.14801082,0.022190295,0.72748035,-0.3974994,-13.230175
36372000,0.006493851,0.14603274,0.029397767,0.6929973,-0.37280262,-13.236076
36376000,0.000695491,0.14790866,0.028525364,0.6762865,-0.38140815,-13.296149
36380000,0.000311144,0.14972973,0.022066513,0.6654474,-0.37770256,-13.220958
36384000,0.005573896,0.14951274,0.026283888,0.66403484,-0.34109312,-13.114615
36388000,0.009117669,0.15012595,0.029008167,0.6764405,-0.3539025,-13.099435
36396000,0.009007346,0.15061653,0.026527071,0.66350603,-0.42577028,-13.132899
36400000,0.003684966,0.14414214,0.019637775,0.7196614,-0.42435023,-13.096574
36404000,0.005745634,0.14567015,0.018606404,0.69809467,-0.4294137,-13.131042
36408000,0.010769093,0.15153652,0.02096174,0.7316456,-0.45227182,-13.130347
36412000,0.008196969,0.14688513,0.021348782,0.7784478,-0.39835027,-13.120898
36416000,0.006454832,0.14743897,0.028427035,0.7818083,-0.34575665,-13.127076
36424000,0.007787871,0.14798072,0.025938781,0.73046476,-0.41449073,-13.056293
36428000,0.005529201,0.14026545,0.031263236,0.6428619,-0.4587449,-13.075146
36432000,0.007924669,0.13486776,0.032152493,0.7905954,-0.4475655,-13.029418
36436000,0.009515111,0.14329423,0.03484289,0.8458802,-0.4272504,-13.032982
36440000,0.010619783,0.14950511,0.030908426,0.7607935,-0.54596937,-13.043234
36444000,0.009599668,0.14695318,0.03111382,0.732045,-0.520215,-13.087219
36452000,0.004533527,0.14653195,0.028376868,0.7456352,-0.44962204,-12.986436
36456000,0.006559476,0.15008262,0.030321198,0.761983,-0.40693107,-12.966143
36464000,0.005103045,0.14056808,0.034557253,0.72341514,-0.49659324,-13.020909
36468000,0.003874585,0.14484183,0.041307487,0.7520564,-0.46781513,-12.990287
36472000,0.007589505,0.14649379,0.039849747,0.7680605,-0.52062535,-12.99006
36476000,0.001173126,0.14666182,0.036886144,0.7175145,-0.52771425,-13.01715
36480000,0.002011565,0.14432311,0.037676517,0.66804236,-0.5390684,-13.010894
36484000,0.012345742,0.14410292,0.04321202,0.7283197,-0.48444724,-13.035554
36488000,0.00822127,0.1416315,0.044461153,0.8192917,-0.4284271,-13.017448
36496000,0.001645009,0.13870291,0.041404676,0.86637586,-0.47453454,-12.991742
36500000,0.00956212,0.1406416,0.041962318,0.77704084,-0.45710987,-12.9988
36504000,0.006783886,0.14530355,0.046778865,0.7223957,-0.5321815,-12.933792
36508000,0.006764905,0.15036544,0.04743583,0.82200325,-0.5738912,-12.9514065
36512000,0.008329574,0.14785329,0.049389858,0.80189884,-0.48654434,-12.941502
36516000,0.001501295,0.14474373,0.050144535,0.70423406,-0.45565927,-12.896332
36524000,0.008387852,0.1409384,0.0505242,0.7246007,-0.5221152,-12.934458
36528000,0.002411517,0.14439324,0.058232848,0.77032334,-0.5429021,-13.001994
36536000,0.003666459,0.14369069,0.046382494,0.79619277,-0.42554048,-13.016968
36544000,0.005187684,0.14740145,0.05681642,0.7682318,-0.48366416,-12.963382
36548000,0.003739801,0.15158348,0.05943719,0.80057013,-0.5142047,-12.970895
36552000,0.00747054,0.14792322,0.063193575,0.827558,-0.5458498,-12.933279
36560000,0.000316552,0.14544618,0.04988953,0.89894557,-0.56163895,-12.985804
36564000,0.002843257,0.15285528,0.0563121,0.90425986,-0.47767875,-12.935709
36568000,0.004792028,0.15605465,0.06780037,0.8595136,-0.51029676,-12.9101925
36572000,0.004786289,0.15232033,0.0624933,0.8309166,-0.53525597,-12.974282
36576000,0.009774359,0.14389986,0.06271843,0.8530644,-0.5178336,-12.987993
36584000,0.003564358,0.14555497,0.06475567,0.87036735,-0.42296544,-12.977887
36588000,0.007498244,0.14513509,0.066534,0.82523906,-0.47919676,-12.976031
36592000,0.002154339,0.14769588,0.06640035,0.80581397,-0.5122113,-13.0614195
36596000,-0.000188915,0.14861208,0.059742462,0.80531555,-0.53434414,-13.068384
36600000,0.005766911,0.14921118,0.05764912,0.78381044,-0.5793722,-12.973633
36604000,0.013790783,0.15290467,0.06370899,0.7816219,-0.5589356,-12.996951
36608000,0.015695313,0.15323487,0.06774396,0.8519778,-0.48286322,-13.014121
36616000,0.005037689,0.15501292,0.0730371,0.7709492,-0.48166224,-13.009557
36620000,0.007933696,0.15842691,0.06892151,0.8184101,-0.5124002,-13.0118685
36628000,-0.003234895,0.15219045,0.06290023,0.85103106,-0.49877155,-12.977271
36632000,0.008349313,0.1506675,0.065298386,0.88947093,-0.46240816,-13.039938
36636000,0.00875402,0.15500812,0.06754779,0.88639355,-0.57657945,-13.062568
36640000,0.006316955,0.15350011,0.07191082,0.83408743,-0.5430706,-13.097005
36648000,0.000240182,0.16020712,0.06272805,0.8197818,-0.5837633,-13.128883
36656000,0.005304202,0.15731893,0.062333193,0.8517094,-0.45781174,-13.065773
36660000,0.007900683,0.1548994,0.06546761,0.86720324,-0.49505174,-13.129362
36664000,0.005192799,0.1606532,0.07170204,0.91808146,-0.5264186,-13.123629
36668000,0.003735782,0.15983431,0.06666112,0.8776912,-0.52444845,-13.087099
36676000,0.002668503,0.16091758,0.06870205,0.8871903,-0.521905,-13.200893
36680000,-0.00012839,0.15631826,0.072162226,0.84468913,-0.4826899,-13.160145
36684000,0.001437974,0.16059162,0.073463835,0.85958606,-0.5583844,-13.093955
36688000,0.0022096,0.16284351,0.068713374,0.86515296,-0.5600095,-13.110109
36692000,0.000200698,0.16327086,0.067226626,0.8412253,-0.5338945,-13.139808
36696000,0.00112709,0.16230589,0.067058176,0.8510335,-0.5394831,-13.103065
36700000,0.008522404,0.16637583,0.066648036,0.83418727,-0.49221072,-13.17968
36704000,0.005919978,0.17054848,0.0711265,0.8630405,-0.4492199,-13.248952
36708000,0.002692425,0.1654198,0.07587312,0.9194083,-0.50333047,-13.245252
36716000,-0.005606164,0.16602564,0.066333495,0.97334015,-0.6478044,-13.205741
36720000,-0.0066139,0.1684514,0.07140543,1.0047979,-0.5640393,-13.183155
36724000,-0.004236125,0.16128466,0.06477514,0.9341994,-0.54879427,-13.249799
36732000,0.003911834,0.16192557,0.06508025,0.9549736,-0.6134906,-13.217525
36736000,0.001279891,0.15951632,0.066361986,0.9135343,-0.6525572,-13.290468
36740000,0.003281995,0.15891054,0.0652013,0.9116458,-0.59963006,-13.236491
36744000,-0.00068734,0.16245124,0.06297403,0.9422254,-0.5234627,-13.248332
36748000,-0.001468654,0.16572455,0.06215904,0.96743256,-0.5525565,-13.269251
36752000,0.000187351,0.16339636,0.066781655,1.0343969,-0.5860121,-13.238243
36756000,-0.001755442,0.16949277,0.06710469,0.9662276,-0.5507598,-13.296524
36760000,-0.000287937,0.17300609,0.060555365,0.91110474,-0.54373354,-13.304223
36768000,-0.001402199,0.16996528,0.06416231,0.93390834,-0.48133257,-13.2126
36772000,-0.005027862,0.17182049,0.058718614,0.9605383,-0.44184205,-13.230878
36776000,-0.004798938,0.17470711,0.053243466,0.9647817,-0.5116341,-13.304659
36784000,0.004206047,0.1664495,0.057949357,0.96230066,-0.5924498,-13.315453
36792000,0.001378603,0.16955929,0.05659145,0.9856317,-0.46686444,-13.230209
36800000,-0.000379345,0.16549215,0.06005936,1.059848,-0.5792753,-13.408584
