timestamp,roll,pitch,yaw,thrust_body[0]
34232000,0.039471067,0.023486683,-0.007392035,0.15
34240000,0.03942248,0.023519918,-0.007392171,0.15
34244000,0.03940663,0.023509575,-0.007392634,0.15
34248000,0.039369475,0.023481386,-0.007393799,0.15
34252000,0.039375003,0.023485592,-0.007393627,0.15
34256000,0.02799003,0.023518989,-0.007393627,0
34260000,0.028016146,0.023528086,-0.007393627,0
34264000,0.028033905,0.023527725,-0.007393627,0
34268000,0.028034393,0.023524188,-0.007393627,0
34272000,0.027989171,0.023522051,-0.007393627,0
34276000,0.027976055,0.023544932,-0.007393627,0
34280000,0.027952595,0.023572762,-0.007393627,1
34284000,0.027909774,0.023559287,-0.007393627,1
34288000,0.027919745,0.02352802,-0.007393627,1
34292000,0.02797968,0.023535816,-0.007393627,1
34296000,0.028024083,0.02359309,-0.007393627,1
34304000,0.028042533,0.023695784,-0.007393627,1
34308000,0.028069824,0.02369035,-0.007393627,1
34312000,0.02811617,0.023695823,-0.007393627,1
34316000,0.028144587,0.023677135,-0.007393627,1
34320000,0.028156882,0.023622524,-0.007393627,1
34324000,0.02816105,0.023605043,-0.007393627,1
34328000,0.028137974,0.023612702,-0.007393627,1
34332000,0.028118491,0.023604244,-0.007393627,1
34340000,0.028096033,0.023577813,-0.007393627,1
34344000,0.02812644,0.023602137,-0.007393627,1
34352000,0.028188178,0.023593476,-0.007393627,1
34356000,0.028176976,0.02357515,-0.007393627,1
34360000,0.028160326,0.023553453,-0.007393627,1
34368000,0.028167296,0.023523107,-0.007393627,1
34372000,0.028136035,0.02351456,-0.007393627,1
34376000,0.0281301,0.02351951,-0.007393627,1
34384000,0.028101284,0.023516342,-0.007393627,1
34388000,0.028107466,0.023527905,-0.007393627,1
34392000,0.028123891,0.023568448,-0.007393627,1
34400000,0.028129017,0.023577327,-0.007393627,1
34404000,0.028117836,0.023600675,-0.007393627,1
34408000,0.02814493,0.023621202,-0.007393627,1
34416000,0.028147666,0.023603937,-0.007393627,1
34420000,0.028107313,0.02362199,-0.007393627,1
34424000,0.028094811,0.023624258,-0.007393627,1
34428000,0.028100323,0.02361377,-0.007393627,1
34432000,0.02810842,0.023593264,-0.007393627,1
34436000,0.028126787,0.023596507,-0.007393627,1
34440000,0.028103855,0.02362335,-0.007393627,1
34444000,0.0280637,0.023653818,-0.007393627,1
34448000,0.028094303,0.023665383,-0.007393627,1
34452000,0.028151838,0.023653615,-0.007393627,1
34456000,0.02816884,0.023624852,-0.007393627,1
34464000,0.02814064,0.023635613,-0.007393627,1
34468000,0.028126756,0.023657842,-0.007393627,1
34472000,0.028097114,0.02364267,-0.007393627,1
34476000,0.028111177,0.023602223,-0.007393627,1
34480000,0.02812895,0.023599068,-0.007393627,1
34484000,0.028141428,0.023629425,-0.007393627,1
34488000,0.028117903,0.02362778,-0.007393627,1
34492000,0.028066969,0.023598619,-0.007393627,1
34496000,0.028036144,0.02353863,-0.007393627,1
34504000,0.028042609,0.023514662,-0.007393627,1
34508000,0.028055241,0.023477731,-0.007393627,1
34512000,0.028066399,0.023501074,-0.007393627,1
34520000,0.02801174,0.023530012,-0.007393627,1
34524000,0.027940307,0.023522485,-0.007393627,1
34532000,0.027871456,0.023536794,-0.007393627,1
34536000,0.027843148,0.02355532,-0.007393627,1
34540000,0.027845377,0.023572698,-0.007393627,1
34544000,0.027860839,0.023650587,-0.007393627,1
34548000,0.027851112,0.023718927,-0.007393627,1
34552000,0.027822528,0.02374072,-0.007393627,1
34556000,0.027822755,0.023745833,-0.007393627,1
34560000,0.027841449,0.023735223,-0.007393627,1
34564000,0.027840659,0.02371376,-0.007393627,1
34568000,0.027823882,0.02369604,-0.007393627,1
34572000,0.027796255,0.02373774,-0.007393627,1
34576000,0.027781988,0.023766398,-0.007393627,1
34580000,0.027783725,0.023788452,-0.007393627,1
34584000,0.027791284,0.023802554,-0.007393627,1
34588000,0.027796078,0.023762545,-0.007393627,1
34592000,0.027799763,0.023733547,-0.007393627,1
34600000,0.027773758,0.023819314,-0.007393627,1
34604000,0.027775219,0.023837367,-0.007393627,1
34608000,0.027785072,0.023850037,-0.007393627,1
34616000,0.027791934,0.023868613,-0.007393627,1
34620000,0.027776657,0.023892546,-0.007393627,1
34624000,0.02775765,0.02389867,-0.007393627,1
34628000,0.027717387,0.023885258,-0.007393627,1
34632000,0.02767327,0.02390092,-0.007393627,1
34636000,0.027658008,0.023877177,-0.007393627,1
34640000,0.027684106,0.023814451,-0.007393627,1
34644000,0.02768773,0.023746947,-0.007393627,1
34648000,0.027662486,0.023712534,-0.007393627,1
34656000,0.027631583,0.023723572,-0.007393627,1
34660000,0.02762739,0.02373318,-0.007393627,1
34664000,0.027629111,0.023775803,-0.007393627,1
34668000,0.027653769,0.023768933,-0.007393627,1
34672000,0.027705552,0.023764327,-0.007393627,1
34680000,0.027772762,0.023838056,-0.007393627,1
34684000,0.02776381,0.023833709,-0.007393627,1
34688000,0.02777626,0.023830876,-0.007393627,1
34692000,0.027809402,0.023792746,-0.007393627,1
34696000,0.027803686,0.023740234,-0.007393627,1
34700000,0.02779276,0.023717795,-0.007393627,1
34704000,0.027799303,0.023709375,-0.007393627,1
34712000,0.02780516,0.023703195,-0.007393627,1
34716000,0.02776871,0.023683695,-0.007393627,1
34724000,0.027778385,0.023699598,-0.007393627,1
34728000,0.027779885,0.023726067,-0.007393627,1
34732000,0.027775876,0.023720607,-0.007393627,1
34736000,0.027735993,-0.77131194,-0.007393627,1
34744000,0.02754807,-0.7713883,-0.007393627,1
34752000,0.027244827,-0.77120334,-0.007393627,1
34756000,0.027037442,-0.7709472,-0.007393627,1
34760000,0.02676456,-0.7424074,-0.007393627,1
34768000,0.026016591,-0.74133784,-0.007393627,1
34776000,0.025086567,-0.73987794,-0.007393627,1
34780000,0.024561182,-0.73895097,-0.007393627,1
34784000,0.023990123,-0.7112146,-0.007393627,1
34788000,0.023380924,-0.7101314,-0.007393627,1
34792000,0.022736365,-0.70894027,-0.007393627,1
34796000,0.022018936,-0.70762,-0.007393627,1
34800000,0.02122133,-0.7061541,-0.007393627,1
34808000,0.019560602,-0.67793256,-0.007393627,1
34812000,0.018677134,-0.6762916,-0.007393627,1
34816000,0.017753053,-0.6746253,-0.007393627,1
34820000,0.016822485,-0.67288995,-0.007393627,1
34824000,0.015842883,-0.6711594,-0.007393627,1
34828000,0.014830413,-0.66943717,-0.007393627,1
34832000,0.013832326,-0.64386284,-0.007393627,1
34836000,0.012818917,-0.64209235,-0.007393627,1
34840000,0.011764168,-0.6403338,-0.007393627,1
34844000,0.010670742,-0.63856786,-0.007393627,1
34848000,0.009599949,-0.63680404,-0.007393627,1
34852000,0.00851781,-0.6350693,-0.007393627,1
34856000,0.007378936,-0.61068726,-0.007393627,1
34860000,0.006238719,-0.60896534,-0.007393627,1
34864000,0.005118572,-0.6072611,-0.007393627,1
34868000,0.004011089,-0.6056112,-0.007393627,1
34872000,0.002899275,-0.6039704,-0.007393627,1
34876000,0.001759869,-0.60234004,-0.007393627,1
34880000,0.000636056,-0.5789775,-0.007393627,1
34884000,-0.000451833,-0.57742,-0.007393627,1
34888000,-0.001566343,-0.5759355,-0.007393627,1
34892000,-0.002664207,-0.5744724,-0.007393627,1
34896000,-0.003706891,-0.57310236,-0.007393627,1
34900000,-0.004770803,-0.5717862,-0.007393627,1
34904000,-0.005868091,-0.549763,-0.007393627,1
34908000,-0.006938157,-0.54860586,-0.007393627,1
34912000,-0.007985173,-0.54754627,-0.007393627,1
34916000,-0.009049767,-0.54657644,-0.007393627,1
34920000,-0.010152767,-0.5457239,-0.007393627,1
34924000,-0.011266034,-0.5449838,-0.007393627,1
34928000,-0.012374365,-0.52440155,-0.007393627,1
34936000,-0.014552826,-0.52329177,-0.007393627,1
34944000,-0.016775457,-0.5224777,-0.007393627,1
34948000,-0.017872298,-0.52228487,-0.007393627,1
34952000,-0.018957397,-0.5029959,-0.007393627,1
34956000,-0.02005126,-0.50299174,-0.007393627,1
34960000,-0.021132581,-0.5029961,-0.007393627,1
34968000,-0.023355773,-0.5032075,-0.007393627,1
34972000,-0.024467155,-0.50348425,-0.007393627,1
34976000,-0.025589213,-0.48519215,-0.007393627,1
34980000,-0.026718125,-0.48555714,-0.007393627,1
34984000,-0.027826637,-0.48599735,-0.007393627,1
34988000,-0.028964601,-0.48652378,-0.007393627,1
34992000,-0.03013712,-0.4871149,-0.007393627,1
34996000,-0.031317662,-0.48773175,-0.007393627,1
35000000,-0.03249913,-0.470369,-0.007393627,1
35008000,-0.034853496,-0.47182426,-0.007393627,1
35016000,-0.037329033,-0.47337803,-0.007393627,1
35024000,-0.039863676,-0.45767587,-0.007393627,1
35028000,-0.041138217,-0.45861027,-0.007393627,1
35032000,-0.042419158,-0.45948884,-0.007393627,1
35036000,-0.043745868,-0.46039099,-0.007393627,1
35040000,-0.045145724,-0.461334,-0.007393627,1
35044000,-0.046606675,-0.46225604,-0.007393627,1
35048000,-0.048085656,-0.4461739,-0.007393627,1
35056000,-0.051031686,-0.4480256,-0.007393627,1
35060000,-0.052483182,-0.44891924,-0.007393627,1
35064000,-0.053965226,-0.4497935,-0.007393627,1
35072000,-0.056972284,-0.4347976,-0.007393627,1
35076000,-0.058532603,-0.4355816,-0.007393627,1
35080000,-0.06014571,-0.43626392,-0.007393627,1
35084000,-0.061763614,-0.43690178,-0.007393627,1
35088000,-0.063360766,-0.43754253,-0.007393627,1
35092000,-0.06497512,-0.43813083,-0.007393627,1
35096000,-0.06661021,-0.42247793,-0.007393627,1
35100000,-0.068258844,-0.42294827,-0.007393627,1
35104000,-0.06987747,-0.4234111,-0.007393627,1
35108000,-0.07151151,-0.42383718,-0.007393627,1
35112000,-0.073162846,-0.4241801,-0.007393627,1
35116000,-0.07483771,-0.42449683,-0.007393627,1
35120000,-0.07649613,-0.40897238,-0.007393627,1
35124000,-0.078111894,-0.40914607,-0.007393627,1
35128000,-0.079757534,-0.40924245,-0.007393627,1
35132000,-0.08142125,-0.40926555,-0.007393627,1
35136000,-0.08308619,-0.40925282,-0.007393627,1
35140000,-0.084752366,-0.40925422,-0.007393627,1
35144000,-0.08640369,-0.3937352,-0.007393627,1
35152000,-0.08971592,-0.39352298,-0.007393627,1
35160000,-0.09298712,-0.39307147,-0.007393627,1
35168000,-0.09616642,-0.37734932,-0.007393627,1
35176000,-0.099460475,-0.37672114,-0.007393627,1
35180000,-0.10107146,-0.37633237,-0.007393627,1
35184000,-0.1026481,-0.37597924,-0.007393627,1
35188000,-0.10419969,-0.37560344,-0.007393627,1
35192000,-0.10576886,-0.36025596,-0.007393627,1
35196000,-0.10734805,-0.3598891,-0.007393627,1
35200000,-0.108899094,-0.35948437,-0.007393627,1
35204000,-0.11042699,-0.3590975,-0.007393627,1
35208000,-0.11192208,-0.35875034,-0.007393627,1
35216000,-0.1148678,-0.34329763,-0.007393627,1
35224000,-0.11775372,-0.34254855,-0.007393627,1
35232000,-0.12058372,-0.34191346,-0.007393627,1
35240000,-0.123312235,-0.32700375,-0.007393627,1
35244000,-0.12462863,-0.32679173,-0.007393627,1
35248000,-0.12590368,-0.3265643,-0.007393627,1
35256000,-0.12843917,-0.3262955,-0.007393627,1
35260000,-0.1297146,-0.3261814,-0.007393627,1
35264000,-0.13098642,-0.31180683,-0.007393627,1
35268000,-0.13218719,-0.31172857,-0.007393627,1
35272000,-0.13335253,-0.3117053,-0.007393627,1
35276000,-0.13454352,-0.3117051,-0.007393627,1
35280000,-0.13572782,-0.31173706,-0.007393627,1
35288000,-0.13807158,-0.29792622,-0.007393627,1
35296000,-0.14034756,-0.29836985,-0.007393627,1
35300000,-0.14139895,-0.29862645,-0.007393627,1
35304000,-0.14246513,-0.2989264,-0.007393627,1
35312000,-0.14458542,-0.28574374,-0.007393627,1
35316000,-0.14566778,-0.28614923,-0.007393627,1
35320000,-0.14673084,-0.28663442,-0.007393627,1
35324000,-0.14778526,-0.28719637,-0.007393627,1
35328000,-0.14883189,-0.28781128,-0.007393627,1
35332000,-0.14985077,-0.28844622,-0.007393627,1
35336000,-0.1508854,-0.2753022,-0.007393627,1
35340000,-0.15193383,-0.27599972,-0.007393627,1
35348000,-0.15397039,-0.27738008,-0.007393627,1
35352000,-0.15494885,-0.27813724,-0.007393627,1
35356000,-0.15593854,-0.2788676,-0.007393627,1
35360000,-0.15692893,-0.26591858,-0.007393627,1
35364000,-0.15793939,-0.26668167,-0.007393627,1
35368000,-0.15897487,-0.2675236,-0.007393627,1
35372000,-0.16001989,-0.2683851,-0.007393627,1
35376000,-0.16108857,-0.2692153,-0.007393627,1
35380000,-0.1621554,-0.27001485,-0.007393627,1
35384000,-0.16322131,-0.25729084,-0.007393627,1
35388000,-0.16427685,-0.2581008,-0.007393627,1
35392000,-0.16529535,-0.25888556,-0.007393627,1
35396000,-0.16631025,-0.25967556,-0.007393627,1
35400000,-0.16731909,-0.26050067,-0.007393627,1
35404000,-0.16831402,-0.26133084,-0.007393627,1
35408000,-0.16933142,-0.24871667,-0.007393627,1
35412000,-0.17034748,-0.24952362,-0.007393627,1
35416000,-0.17137477,-0.25031954,-0.007393627,1
35420000,-0.17239201,-0.25114417,-0.007393627,1
35424000,-0.1734049,-0.2519759,-0.007393627,1
35428000,-0.17443079,-0.2528083,-0.007393627,1
35432000,-0.17546205,-0.24027488,-0.007393627,1
35436000,-0.17651995,-0.24106099,-0.007393627,1
35440000,-0.17756847,-0.2418653,-0.007393627,1
35444000,-0.17857936,-0.24269211,-0.007393627,1
35448000,-0.17959787,-0.24354987,-0.007393627,1
35452000,-0.18063715,-0.24437243,-0.007393627,1
35456000,-0.18166448,-0.23193592,-0.007393627,1
35460000,-0.18269023,-0.23275612,-0.007393627,1
35464000,-0.1836812,-0.23355752,-0.007393627,1
35468000,-0.18466562,-0.23440441,-0.007393627,1
35472000,-0.18566862,-0.23526491,-0.007393627,1
35476000,-0.18667187,-0.23611535,-0.007393627,1
35480000,-0.18769981,-0.22376336,-0.007393627,1
35484000,-0.1887076,-0.22466901,-0.007393627,1
35488000,-0.18969402,-0.22563727,-0.007393627,1
35492000,-0.19069432,-0.22656639,-0.007393627,1
35496000,-0.19168527,-0.22748931,-0.007393627,1
35500000,-0.19264035,-0.2283957,-0.007393627,1
35504000,-0.19359109,-0.21618828,-0.007393627,1
35508000,-0.1945564,-0.21712434,-0.007393627,1
35512000,-0.19547775,-0.21807675,-0.007393627,1
35516000,-0.19637895,-0.21901266,-0.007393627,1
35520000,-0.19728425,-0.21992879,-0.007393627,1
35524000,-0.1981812,-0.22087187,-0.007393627,1
35528000,-0.19908018,-0.20881085,-0.007393627,1
35536000,-0.20085046,-0.21080029,-0.007393627,1
35540000,-0.20173009,-0.21177833,-0.007393627,1
35544000,-0.20260733,-0.21279347,-0.007393627,1
35548000,-0.20347573,-0.21384537,-0.007393627,1
35552000,-0.20433949,-0.20187607,-0.007393627,1
35560000,-0.20601793,-0.20393714,-0.007393627,1
35564000,-0.20685352,-0.20495535,-0.007393627,1
35568000,-0.20771278,-0.20606439,-0.007393627,1
35576000,-0.20938358,-0.19528565,-0.007393627,1
35580000,-0.21020596,-0.19637385,-0.007393627,1
35584000,-0.21103309,-0.19744998,-0.007393627,1
35592000,-0.2126831,-0.19971275,-0.007393627,1
35596000,-0.21349686,-0.20089655,-0.007393627,1
35600000,-0.2142542,-0.18914218,-0.007393627,1
35604000,-0.21502239,-0.19031398,-0.007393627,1
35608000,-0.2158048,-0.19148603,-0.007393627,1
35612000,-0.21656764,-0.19261509,-0.007393627,1
35616000,-0.2173145,-0.19379945,-0.007393627,1
35620000,-0.2180301,-0.19506393,-0.007393627,1
35624000,-0.21872601,-0.18338731,-0.007393627,1
35628000,-0.21944381,-0.18460898,-0.007393627,1
35632000,-0.2201627,-0.1858671,-0.007393627,1
35636000,-0.22084612,-0.18714176,-0.007393627,1
35640000,-0.22152169,-0.18839169,-0.007393627,1
35644000,-0.22220948,-0.18965301,-0.007393627,1
35648000,-0.22287986,-0.17807658,-0.007393627,1
35652000,-0.22351533,-0.17930987,-0.007393627,1
35656000,-0.22412452,-0.18051696,-0.007393627,1
35660000,-0.2247653,-0.18175346,-0.007393627,1
35664000,-0.2254213,-0.18296362,-0.007393627,1
35668000,-0.22603449,-0.18417823,-0.007393627,1
35672000,-0.22663705,-0.17260262,-0.007393627,1
35676000,-0.2272581,-0.17389643,-0.007393627,1
35680000,-0.22788261,-0.17512107,-0.007393627,1
35684000,-0.22848243,-0.17631267,-0.007393627,1
35688000,-0.22906743,-0.1775308,-0.007393627,1
35692000,-0.22964405,-0.17877363,-0.007393627,1
35696000,-0.23020092,-0.16721994,-0.007393627,1
35700000,-0.23074366,-0.1684828,-0.007393627,1
35704000,-0.23126972,-0.16972773,-0.007393627,1
35708000,-0.23179558,-0.17099641,-0.007393627,1
35716000,-0.23283257,-0.17354478,-0.007393627,1
35720000,-0.23330683,-0.16197288,-0.007393627,1
35728000,-0.23425803,-0.16448063,-0.007393627,1
35732000,-0.23470576,-0.16575514,-0.007393627,1
35736000,-0.23513053,-0.1669678,-0.007393627,1
35740000,-0.23554973,-0.16820575,-0.007393627,1
35744000,-0.2360012,-0.15661027,-0.007393627,1
35748000,-0.23650105,-0.15780894,-0.007393627,1
35752000,-0.23697245,-0.15899079,-0.007393627,1
35760000,-0.23781206,-0.16149999,-0.007393627,1
35768000,-0.23867826,-0.15110019,-0.007393627,1
35776000,-0.23951115,-0.15350442,-0.007393627,1
35780000,-0.23993798,-0.15464681,-0.007393627,1
35784000,-0.24035475,-0.15582484,-0.007393627,1
35788000,-0.24075633,-0.1570215,-0.007393627,1
35792000,-0.24114433,-0.14537172,-0.007393627,1
35796000,-0.24153736,-0.14657223,-0.007393627,1
35804000,-0.24230488,-0.14890961,-0.007393627,1
35808000,-0.24265979,-0.15009028,-0.007393627,1
35816000,-0.24337114,-0.13952826,-0.007393627,1
35820000,-0.24370846,-0.14067802,-0.007393627,1
35824000,-0.24400648,-0.14176129,-0.007393627,1
35828000,-0.24432822,-0.14283113,-0.007393627,1
35832000,-0.24466531,-0.14390334,-0.007393627,1
35840000,-0.24529892,-0.13308984,-0.007393627,1
35844000,-0.24566491,-0.13414495,-0.007393627,1
35848000,-0.24598601,-0.13525867,-0.007393627,1
35852000,-0.24628355,-0.13635693,-0.007393627,1
35856000,-0.24658613,-0.13740633,-0.007393627,1
35860000,-0.24688587,-0.13847178,-0.007393627,1
35864000,-0.24717359,-0.12661742,-0.007393627,1
35872000,-0.24778005,-0.12869251,-0.007393627,1
35876000,-0.24807495,-0.1297163,-0.007393627,1
35880000,-0.24837048,-0.13071269,-0.007393627,1
35888000,-0.24894491,-0.1198472,-0.007393627,1
35896000,-0.249563,-0.12192528,-0.007393627,1
35904000,-0.25007546,-0.123988494,-0.007393627,1
35908000,-0.25034115,-0.124973044,-0.007393627,1
35912000,-0.25062242,-0.11296675,-0.007393627,1
35920000,-0.25117758,-0.11484477,-0.007393627,1
35928000,-0.25172976,-0.116773814,-0.007393627,1
35932000,-0.25198817,-0.1177197,-0.007393627,1
35936000,-0.2522683,-0.10559901,-0.007393627,1
35940000,-0.25256813,-0.10647794,-0.007393627,1
35944000,-0.2528597,-0.10742098,-0.007393627,1
35952000,-0.2534083,-0.10934658,-0.007393627,1
35956000,-0.25366104,-0.110355034,-0.007393627,1
35960000,-0.2539247,-0.09830292,-0.007393627,1
35964000,-0.25416622,-0.09926932,-0.007393627,1
35968000,-0.25441667,-0.100264765,-0.007393627,1
35976000,-0.25497,-0.102217525,-0.007393627,1
35980000,-0.25526306,-0.10316731,-0.007393627,1
35984000,-0.25554028,-0.091031335,-0.007393627,1
35988000,-0.25578573,-0.091976725,-0.007393627,1
35992000,-0.25605458,-0.09294064,-0.007393627,1
35996000,-0.25634417,-0.0938953,-0.007393627,1
36000000,-0.2566339,-0.09483571,-0.007393627,1
36004000,-0.2569151,-0.09578725,-0.007393627,1
36008000,-0.25721306,-0.08366565,-0.007393627,1
36016000,-0.2577591,-0.08564183,-0.007393627,1
36020000,-0.25802833,-0.086586155,-0.007393627,1
36024000,-0.25830466,-0.08754203,-0.007393627,1
36028000,-0.25857407,-0.08852747,-0.007393627,1
36032000,-0.25885677,-0.07637131,-0.007393627,1
36036000,-0.2591471,-0.077316776,-0.007393627,1
36040000,-0.25944573,-0.078282304,-0.007393627,1
36044000,-0.2597403,-0.07924776,-0.007393627,1
36048000,-0.2600105,-0.0802623,-0.007393627,1
36056000,-0.26056907,-0.06916134,-0.007393627,1
36060000,-0.26082614,-0.07021664,-0.007393627,1
36064000,-0.2610835,-0.07126898,-0.007393627,1
36068000,-0.26132685,-0.07233069,-0.007393627,1
36072000,-0.26157346,-0.07340382,-0.007393627,1
36080000,-0.26207078,-0.062271707,-0.007393627,1
36088000,-0.26260012,-0.064380415,-0.007393627,1
36096000,-0.26310524,-0.06654358,-0.007393627,1
36100000,-0.26332882,-0.067661956,-0.007393627,1
36104000,-0.2635254,-0.055543903,-0.007393627,1
36108000,-0.26373628,-0.056643244,-0.007393627,1
36112000,-0.26398355,-0.057759386,-0.007393627,1
36116000,-0.2642757,-0.05883141,-0.007393627,1
36120000,-0.26452062,-0.059925143,-0.007393627,1
36124000,-0.26473364,-0.061058275,-0.007393627,1
36128000,-0.2649664,-0.048901882,-0.007393627,1
36132000,-0.2651898,-0.050029814,-0.007393627,1
36136000,-0.265439,-0.051170077,-0.007393627,1
36140000,-0.26570356,-0.052333213,-0.007393627,1
36144000,-0.26593083,-0.05348985,-0.007393627,1
36148000,-0.2661768,-0.054622915,-0.007393627,1
36152000,-0.26645046,-0.042418286,-0.007393627,1
36156000,-0.26669693,-0.043555483,-0.007393627,1
36160000,-0.26693392,-0.044717345,-0.007393627,1
36168000,-0.26739293,-0.047020093,-0.007393627,1
36172000,-0.26763895,-0.04823609,-0.007393627,1
36176000,-0.267892,-0.036014557,-0.007393627,1
36180000,-0.2681337,-0.037166882,-0.007393627,1
36184000,-0.2683566,-0.038330916,-0.007393627,1
36188000,-0.2685457,-0.039496463,-0.007393627,1
36192000,-0.2687483,-0.040701263,-0.007393627,1
36196000,-0.26897508,-0.0419199,-0.007393627,1
36200000,-0.26919377,-0.029727463,-0.007393627,1
36204000,-0.26941335,-0.030923782,-0.007393627,1
36208000,-0.26961935,-0.032082126,-0.007393627,1
36212000,-0.26979703,-0.033222765,-0.007393627,1
36216000,-0.26994228,-0.034401905,-0.007393627,1
36220000,-0.2700983,-0.03558728,-0.007393627,1
36224000,-0.270293,-0.023383515,-0.007393627,1
36228000,-0.2704845,-0.024657708,-0.007393627,1
36232000,-0.27066475,-0.025885133,-0.007393627,1
36236000,-0.27085137,-0.027102688,-0.007393627,1
36240000,-0.27101293,-0.0283028,-0.007393627,1
36248000,-0.27130648,-0.01725585,-0.007393627,1
36252000,-0.27146283,-0.018473482,-0.007393627,1
36256000,-0.27161583,-0.019746792,-0.007393627,1
36260000,-0.27176145,-0.021074055,-0.007393627,1
36264000,-0.27192426,-0.022348436,-0.007393627,1
36268000,-0.27206826,-0.023593687,-0.007393627,1
36272000,-0.27221805,-0.011318089,-0.007393627,1
36276000,-0.2723934,-0.012611409,-0.007393627,1
36280000,-0.27252668,-0.013946815,-0.007393627,1
36284000,-0.2726408,-0.015188936,-0.007393627,1
36288000,-0.27276993,-0.016364977,-0.007393627,1
36292000,-0.27288666,-0.017569898,-0.007393627,1
36296000,-0.27301472,-0.005304913,-0.007393627,1
36300000,-0.27317575,-0.006597885,-0.007393627,1
36304000,-0.27331495,-0.00783073,-0.007393627,1
36308000,-0.2734125,-0.009111101,-0.007393627,1
36312000,-0.27351174,-0.010361297,-0.007393627,1
36316000,-0.27359936,-0.011547861,-0.007393627,1
36320000,-0.27370408,0.000830527,-0.007393627,1
36324000,-0.2738253,-0.00041176,-0.007393627,1
36328000,-0.27393457,-0.001650006,-0.007393627,1
36332000,-0.27402508,-0.002878989,-0.007393627,1
36336000,-0.27410057,-0.004121861,-0.007393627,1
36340000,-0.2741974,-0.005389948,-0.007393627,1
36344000,-0.27429315,0.007055841,-0.007393627,1
36348000,-0.2743848,0.005861127,-0.007393627,1
36352000,-0.27447283,0.004644648,-0.007393627,1
36360000,-0.27466312,0.002336194,-0.007393627,1
36364000,-0.27477896,0.001126218,-0.007393627,1
36368000,-0.274873,0.013631411,-0.007393627,1
36372000,-0.27494293,0.012481269,-0.007393627,1
36376000,-0.2749794,0.011316382,-0.007393627,1
36380000,-0.27501002,0.010127672,-0.007393627,1
36384000,-0.2750738,0.008947481,-0.007393627,1
36388000,-0.27515987,0.007766591,-0.007393627,1
36392000,-0.27525228,0.020275708,-0.007393627,1
36396000,-0.27533683,0.019084971,-0.007393627,1
36400000,-0.27538615,0.01793471,-0.007393627,1
36404000,-0.27544695,0.016771073,-0.007393627,1
36408000,-0.27553898,0.015566144,-0.007393627,1
36412000,-0.27561626,0.014397852,-0.007393627,1
36416000,-0.27568883,0.026995521,-0.007393627,1
36420000,-0.2757688,0.025798226,-0.007393627,1
36424000,-0.27584788,0.024627432,-0.007393627,1
36428000,-0.27591708,0.023524303,-0.007393627,1
36432000,-0.2760004,0.022464618,-0.007393627,1
36440000,-0.2761957,0.033969264,-0.007393627,1
36444000,-0.27629003,0.03281375,-0.007393627,1
36452000,-0.2764258,0.030534243,-0.007393627,1
36456000,-0.2765034,0.029354973,-0.007393627,1
36464000,-0.276668,0.040965278,-0.007393627,1
36468000,-0.27673835,0.039842226,-0.007393627,1
36472000,-0.2768293,0.03870467,-0.007393627,1
36476000,-0.27688164,0.037561864,-0.007393627,1
36480000,-0.27693942,0.036438752,-0.007393627,1
36484000,-0.27706048,0.035325177,-0.007393627,1
36488000,-0.27715918,0.048108082,-0.007393627,1
36496000,-0.27725938,0.045976724,-0.007393627,1
36500000,-0.27736458,0.044887487,-0.007393627,1
36504000,-0.27745846,0.043770432,-0.007393627,1
36508000,-0.27755356,0.04261554,-0.007393627,1
36512000,-0.27765933,0.05539637,-0.007393627,1
36516000,-0.27772653,0.05428805,-0.007393627,1
36520000,-0.27780148,0.053205412,-0.007393627,1
36524000,-0.27790827,0.052128438,-0.007393627,1
36528000,-0.2779876,0.05103761,-0.007393627,1
36536000,-0.27813506,0.06281191,-0.007393627,1
36540000,-0.2782249,0.06169699,-0.007393627,1
36544000,-0.27832085,0.06058065,-0.007393627,1
36548000,-0.27841136,0.05943637,-0.007393627,1
36552000,-0.2785261,0.058326233,-0.007393627,1
36556000,-0.27863196,0.05723189,-0.007393627,1
36560000,-0.27869588,0.07010818,-0.007393627,1
36568000,-0.27888623,0.067784846,-0.007393627,1
36572000,-0.2789876,0.066640474,-0.007393627,1
36576000,-0.279117,0.06556154,-0.007393627,1
36584000,-0.2793227,0.077456266,-0.007393627,1
36588000,-0.27944344,0.07637254,-0.007393627,1
36592000,-0.2795343,0.075270005,-0.007393627,1
36596000,-0.27960676,0.07415058,-0.007393627,1
36600000,-0.27971208,0.07302349,-0.007393627,1
36604000,-0.279869,0.07187647,-0.007393627,1
36608000,-0.28004068,0.084782764,-0.007393627,1
36616000,-0.28028458,0.08250433,-0.007393627,1
36620000,-0.28041476,0.08132286,-0.007393627,1
36624000,-0.2805038,0.080163576,-0.007393627,1
36628000,-0.28056502,0.079022825,-0.007393627,1
36632000,-0.28069475,0.09197445,-0.007393627,1
36636000,-0.28082964,0.09081635,-0.007393627,1
36640000,-0.28095454,0.08967749,-0.007393627,1
36644000,-0.28108856,0.08853804,-0.007393627,1
36648000,-0.28117263,0.08733492,-0.007393627,1
36656000,-0.281365,0.09905801,-0.007393627,1
36660000,-0.28149563,0.09789748,-0.007393627,1
36664000,-0.28161752,0.09670306,-0.007393627,1
36668000,-0.28172693,0.09550748,-0.007393627,1
36672000,-0.28184146,0.09430738,-0.007393627,1
36680000,-0.28204048,0.1060801,-0.007393627,1
36684000,-0.2821446,0.10488911,-0.007393627,1
36688000,-0.28224963,0.10367416,-0.007393627,1
36692000,-0.2823423,0.10245394,-0.007393627,1
36696000,-0.28244042,0.10124141,-0.007393627,1
36700000,-0.28258142,0.09999606,-0.007393627,1
36704000,-0.2827128,0.112887,-0.007393627,1
36708000,-0.28282958,0.11166313,-0.007393627,1
36712000,-0.28292593,0.11044376,-0.007393627,1
36720000,-0.28305086,0.10795425,-0.007393627,1
36724000,-0.2831209,0.106750794,-0.007393627,1
36728000,-0.28322494,0.11975744,-0.007393627,1
36736000,-0.2834468,0.117357425,-0.007393627,1
36740000,-0.28356144,0.11617084,-0.007393627,1
36744000,-0.28365222,0.114954665,-0.007393627,1
36748000,-0.2837387,0.113712214,-0.007393627,1
36752000,-0.28383914,0.12670958,-0.007393627,1
36756000,-0.28393012,0.12544486,-0.007393627,1
36760000,-0.28402424,0.12414351,-0.007393627,1
36764000,-0.28411356,0.12288425,-0.007393627,1
36768000,-0.2842051,0.12161257,-0.007393627,1
36772000,-0.28427136,0.12031875,-0.007393627,1
36776000,-0.28433442,0.13323411,-0.007393627,1
36784000,-0.2845651,0.13067305,-0.007393627,1
36788000,-0.28465316,0.1294303,-0.007393627,1
36792000,-0.2847555,0.12815028,-0.007393627,1
36796000,-0.2848503,0.12685257,-0.007393627,1
36800000,-0.28494617,0.13987339,-0.007393627,1
36804000,-0.28504473,0.13863479,-0.007393627,1
36808000,-0.28514308,0.13738112,-0.007393627,1
36812000,-0.2852471,0.13613775,-0.007393627,1
36816000,-0.28533372,0.1348263,-0.007393627,1
36820000,-0.28540745,0.13353471,-0.007393627,1
36824000,-0.28548807,0.14656515,-0.007393627,1
36828000,-0.285564,0.14528498,-0.007393627,1
36832000,-0.28564382,0.143997,-0.007393627,1
36836000,-0.28571856,0.14270763,-0.007393627,1
36840000,-0.28579664,0.14142628,-0.007393627,1
36844000,-0.2858975,0.14015025,-0.007393627,1
36848000,-0.28599906,0.15321587,-0.007393627,1
36852000,-0.28609443,0.15195541,-0.007393627,1
36856000,-0.28615683,0.1506962,-0.007393627,1
36860000,-0.2862405,0.14944857,-0.007393627,1
36864000,-0.2863505,0.1481947,-0.007393627,1
36868000,-0.28641787,0.14693473,-0.007393627,1
36872000,-0.28648424,0.15999632,-0.007393627,1
36876000,-0.2865564,0.15872161,-0.007393627,1
36880000,-0.2865987,0.15740618,-0.007393627,1
36884000,-0.2866877,0.15606825,-0.007393627,1
36888000,-0.28678775,0.15480576,-0.007393627,1
36896000,-0.28689247,0.16663487,-0.007393627,1
36904000,-0.28701723,0.16407196,-0.007393627,1
36912000,-0.28705296,0.16143565,-0.007393627,1
36916000,-0.28712174,0.16011168,-0.007393627,1
36920000,-0.28721026,0.1731477,-0.007393627,1
36924000,-0.28728208,0.17185277,-0.007393627,1
36928000,-0.28734407,0.17057505,-0.007393627,1
36936000,-0.28747296,0.16798656,-0.007393627,1
36940000,-0.28753635,0.16664648,-0.007393627,1
36944000,-0.2876031,0.17970829,-0.007393627,1
36948000,-0.28768158,0.17840476,-0.007393627,1
36956000,-0.28782746,0.17575988,-0.007393627,1
36960000,-0.28785902,0.17445953,-0.007393627,1
36968000,-0.2879819,0.1864637,-0.007393627,1
36972000,-0.28806713,0.18522476,-0.007393627,1
36976000,-0.28815046,0.18395784,-0.007393627,1
36980000,-0.28821513,0.18268402,-0.007393627,1
36984000,-0.2882616,0.18144315,-0.007393627,1
36988000,-0.28829694,0.18025212,-0.007393627,1
36992000,-0.2883246,0.19342926,-0.007393627,1
37000000,-0.28839886,0.19092472,-0.007393627,1
37004000,-0.28841808,0.18967406,-0.007393627,1
37008000,-0.28847757,0.18840021,-0.007393627,1
37012000,-0.28856564,0.18715858,-0.007393627,1
37016000,-0.2886151,0.2003228,-0.007393627,1
37020000,-0.28865245,0.19903383,-0.007393627,1
37024000,-0.2887113,0.19780426,-0.007393627,1
37028000,-0.28878245,0.19657694,-0.007393627,1
37032000,-0.2888591,0.1953119,-0.007393627,1
37036000,-0.2889074,0.19403602,-0.007393627,1
37040000,-0.28892362,0.2072155,-0.007393627,1
37044000,-0.2889721,0.2059099,-0.007393627,1
37048000,-0.2890285,0.20459816,-0.007393627,1
37052000,-0.28904474,0.20331891,-0.007393627,1
37056000,-0.28910172,0.20203963,-0.007393627,1
37060000,-0.28918773,0.20075451,-0.007393627,1
37064000,-0.28926024,0.21393915,-0.007393627,1
37068000,-0.2893444,0.21264112,-0.007393627,1
37072000,-0.2894014,0.2113334,-0.007393627,1
37076000,-0.2894442,0.2100208,-0.007393627,1
37080000,-0.28948784,0.20868067,-0.007393627,1
37084000,-0.2895414,0.20730919,-0.007393627,1
37088000,-0.28960273,0.22039907,-0.007393627,1
37096000,-0.2897732,0.21769777,-0.007393627,1
37100000,-0.2898499,0.21644573,-0.007393627,1
37104000,-0.28990868,0.21519099,-0.007393627,1
37108000,-0.2899488,0.21392187,-0.007393627,1
37112000,-0.29001424,0.22713229,-0.007393627,1
37120000,-0.29015684,0.22453517,-0.007393627,1
37128000,-0.29033235,0.22190613,-0.007393627,1
37136000,-0.29047883,0.2305495,-0.007393627,1
37140000,-0.29053822,0.22929774,-0.007393627,1
37144000,-0.29056758,0.22799826,-0.007393627,1
37148000,-0.29061392,0.22671719,-0.007393627,1
37152000,-0.2906588,0.22544451,-0.007393627,1
37160000,-0.29081437,0.22282477,-0.007393627,1
37164000,-0.29095566,0.22151187,-0.007393627,1
37168000,-0.2910351,0.22020786,-0.007393627,1
37172000,-0.2911113,0.21894178,-0.007393627,1
37176000,-0.29117396,0.21765555,-0.007393627,1
37180000,-0.29123515,0.21632269,-0.007393627,1
37184000,-0.29131544,0.21501143,-0.007393627,1
37188000,-0.29138532,0.21375255,-0.007393627,1
37192000,-0.2914681,0.21246943,-0.007393627,1
37196000,-0.29156062,0.21116956,-0.007393627,1
37200000,-0.29162234,0.2099051,-0.007393627,1
37204000,-0.29171234,0.20867614,-0.007393627,1
37208000,-0.29180333,0.20746456,-0.007393627,1
37212000,-0.29186594,0.20620672,-0.007393627,1
37216000,-0.29194915,0.2049433,-0.007393627,1
37220000,-0.29204062,0.2037485,-0.007393627,1
37224000,-0.29212248,0.20259067,-0.007393627,1
37228000,-0.29221654,0.20140515,-0.007393627,1
37232000,-0.29230294,0.20022584,-0.007393627,1
37240000,-0.29243895,0.19795598,-0.007393627,1
37248000,-0.29257506,0.1956849,-0.007393627,1
37256000,0.30735013,0.21229258,0.041211434,1
37264000,0.30717158,0.21019098,0.04161814,1
37272000,0.3065299,0.20803215,0.042102788,1
37276000,0.30585158,0.2070707,0.04237653,1
37280000,0.30498636,0.2061557,0.042670026,1
37288000,0.30254492,0.2043803,0.04335532,1
37292000,0.30094123,0.20363255,0.044115223,1
37296000,0.29923263,0.20276119,0.044533357,1
37300000,0.297346,0.20193505,0.044972103,1
37304000,0.29530454,0.2011571,0.045427628,1
37308000,0.2931076,0.20035528,0.045913752,1
37312000,0.2907949,0.19960871,0.0464098,1
37316000,0.28838578,0.19890748,0.04691474,1
37320000,0.2858876,0.1982256,0.04743245,1
37324000,0.28325728,0.19758491,0.047965538,1
37328000,0.28049034,0.19698142,0.04851559,1
37332000,0.2776648,0.1963875,0.049075905,1
37336000,0.27478126,0.19578263,0.049650524,1
37340000,0.2718269,0.19519387,0.050236307,1
37344000,0.26880652,0.19464311,0.050828125,1
37348000,0.26569313,0.19411568,0.05143328,1
37352000,0.2624978,0.19360712,0.052051,1
37356000,0.25922787,0.19315587,0.052672226,1
37364000,0.2525304,0.19226325,0.05394803,1
37368000,0.24910529,0.19183558,0.0545995,1
37376000,0.24225223,0.19103004,0.055902366,1
37384000,0.23522547,0.19037774,0.05721392,1
37388000,0.23164058,0.1901045,0.05787477,1
37392000,0.22798333,0.18986611,0.058804594,1
37396000,0.22440685,0.18955138,0.05948206,1
37400000,0.2207763,0.18925308,0.06016835,1
37408000,0.21345568,0.18879192,0.06152989,1
37412000,0.20977741,0.18852934,0.062225983,1
37416000,0.20604679,0.18829878,0.062926985,1
37424000,0.19867772,0.18787026,0.06431499,1
37428000,0.19501507,0.18775807,0.064985245,1
37432000,0.19132783,0.1875836,0.06567785,1
37436000,0.1876429,0.1874319,0.066367574,1
37440000,0.18396524,0.18733355,0.06704579,1
37444000,0.18030122,0.18720053,0.067733094,1
37448000,0.1766645,0.18705045,0.06842278,1
37452000,0.17298207,0.18688221,0.069128364,1
37456000,0.16928145,0.18674491,0.0698325,1
37464000,0.1620003,0.1864964,0.071221456,1
37468000,0.15836719,0.18636231,0.07192166,1
37472000,0.15471874,0.18626599,0.07261778,1
37476000,0.15110466,0.18618146,0.07330735,1
37480000,0.14751896,0.18609875,0.073994085,1
37484000,0.14391682,0.18603012,0.07468292,1
37488000,0.14031014,0.18596186,0.075375356,1
37496000,0.13309485,0.18585864,0.07703347,1
37500000,0.12957227,0.18578956,0.077720955,1
37504000,0.126045,0.18569556,0.078419134,1
37508000,0.12249115,0.18563119,0.079117,1
37512000,0.11896486,0.18557858,0.07980911,1
37516000,0.11546974,0.1855153,0.0805011,1
37520000,0.112012856,0.18545008,0.081189066,1
37524000,0.10860177,0.1854005,0.08186641,1
37528000,0.105237275,0.18538052,0.08252866,1
37532000,0.101864904,0.185377,0.08319021,1
37536000,0.09847854,0.18537314,0.08385712,1
37544000,0.09178623,0.18537015,0.08518119,1
37548000,0.08848041,0.18543297,0.08581959,1
37552000,0.08518944,0.18545881,0.08646847,1
37556000,0.081930615,0.18545997,0.0871208,1
37560000,0.07867883,0.18547101,0.08777112,1
37564000,0.07546155,0.18545993,0.0884237,1
37568000,0.07226917,0.18542217,0.08908196,1
37576000,0.06591976,0.18541552,0.090377204,1
37580000,0.06280553,0.18541563,0.091014914,1
37584000,0.059715793,0.18540044,0.09165478,1
37592000,0.053474694,0.18539377,0.09294674,1
37596000,0.050344765,0.18544912,0.09373029,1
37600000,0.04726165,0.18547386,0.09436615,1
37604000,0.044157892,0.18546696,0.09501886,1
37608000,0.041110054,0.18546659,0.09566012,1
37616000,0.035184175,0.18549204,0.096904874,1
37624000,0.029400598,0.18543574,0.09815526,1
37628000,0.02647974,0.18543787,0.09877989,1
37632000,0.023569543,0.18547523,0.09939253,1
37636000,0.02069936,0.18548642,0.10000746,1
37640000,0.017846763,0.1854831,0.10062565,1
37644000,0.015008099,0.18547253,0.101245396,1
37648000,0.012174837,0.18551011,0.10184963,1
37656000,0.006609619,0.18550777,0.10306874,1
37660000,0.003872845,0.18549877,0.10367406,1
37664000,0.001170032,0.18549746,0.10427116,1
37668000,-0.001533322,0.18551496,0.10486384,1
37672000,-0.004226286,0.1855003,0.10546744,1
37676000,-0.006867886,0.1854776,0.106064446,1
37680000,-0.009521097,0.18550584,0.10664797,1
37684000,-0.012151074,0.18553185,0.10722889,1
37688000,-0.014712654,0.18552133,0.107809335,1
37692000,-0.017409295,0.1856344,0.10871269,1
37696000,-0.019977186,0.18560483,0.10930655,1
37704000,-0.025037,0.18557811,0.110471025,1
37708000,-0.027531927,0.18559912,0.11103548,1
37712000,-0.030022003,0.18563439,0.11159531,1
37716000,-0.032489643,0.18569487,0.11214243,1
37720000,-0.034938566,0.18573597,0.112693936,1
37724000,-0.037356913,0.18572837,0.11325795,1
37728000,-0.03975058,0.1856922,0.113828585,1
37732000,-0.04214453,0.1856988,0.11438511,1
37736000,-0.044464298,0.18575124,0.11490877,1
37740000,-0.04675557,0.18578723,0.115433365,1
37744000,-0.04908958,0.18583417,0.115965426,1
37748000,-0.051410843,0.18587159,0.11649954,1
37752000,-0.05368928,0.18592724,0.11701813,1
37760000,-0.057929855,0.18565948,0.117193304,1
37768000,-0.06206424,0.18530414,0.11694349,1
37776000,-0.06604705,0.18491453,0.11672539,1
37780000,-0.06801966,0.1847125,0.116622314,1
37784000,-0.06998504,0.1845226,0.11651559,1
37788000,-0.07196029,0.18437338,0.116391465,1
37792000,-0.07400002,0.1843282,0.11653203,1
37796000,-0.07590625,0.18418664,0.116412364,1
37800000,-0.077811286,0.18409091,0.1162738,1
37808000,-0.08162847,0.18375391,0.1160599,1
37816000,-0.085332125,0.18339124,0.11587024,1
37820000,-0.087133855,0.18319881,0.11578593,1
37828000,-0.09082681,0.18293557,0.11555779,1
37832000,-0.09263599,0.18281816,0.115441725,1
37836000,-0.09439285,0.18268096,0.11533965,1
37840000,-0.09612754,0.18256496,0.115230784,1
37844000,-0.09783821,0.18247215,0.11511426,1
37848000,-0.09958856,0.18239063,0.114989474,1
37852000,-0.1013148,0.1823143,0.11486491,1
37856000,-0.10305333,0.18227407,0.114723414,1
37860000,-0.10481697,0.18219754,0.11459612,1
37864000,-0.1065311,0.182069,0.11449708,1
37872000,-0.10981949,0.18186365,0.11428976,1
37876000,-0.11144513,0.18178348,0.114178106,1
37880000,-0.11309555,0.18169898,0.11406651,1
37884000,-0.11474315,0.18161827,0.11395374,1
37888000,-0.116374835,0.18155558,0.1138345,1
37896000,-0.11991692,0.18187386,0.114527866,1
37904000,-0.12313475,0.18172213,0.114307374,1
37908000,-0.12472319,0.1816461,0.11419949,1
37912000,-0.126278,0.18163005,0.11406703,1
37916000,-0.12778741,0.18161872,0.11393654,1
37920000,-0.12933986,0.18163477,0.113789484,1
37928000,-0.13241048,0.18158013,0.113539435,1
37936000,-0.13536137,0.18155652,0.11328605,1
37940000,-0.1368708,0.18155794,0.11315018,1
37944000,-0.1383436,0.1815781,0.11300878,1
37948000,-0.13978301,0.18157828,0.11287994,1
37952000,-0.14118962,0.1815532,0.112766154,1
37960000,-0.14403814,0.18161221,0.1124834,1
37964000,-0.14544761,0.18167254,0.112328514,1
37968000,-0.14681444,0.18171665,0.112185195,1
37972000,-0.14822835,0.18173286,0.1120511,1
37976000,-0.14966556,0.18172857,0.111924924,1
37980000,-0.15105645,0.18175967,0.1117858,1
37984000,-0.15242764,0.18184155,0.111623615,1
37988000,-0.1537811,0.18188554,0.11148142,1
37992000,-0.15514895,0.18194687,0.111474074,1
37996000,-0.15648998,0.18193635,0.1113597,1
38000000,-0.15780999,0.18197556,0.11122283,1
38004000,-0.15912166,0.18201753,0.11108531,1
38008000,-0.16044745,0.18204877,0.11095182,1
38012000,-0.16175997,0.1820761,0.11082147,1
38016000,-0.16307467,0.1821019,0.11069161,1
38024000,-0.16563642,0.18215498,0.110437244,1
38028000,-0.16687775,0.18220674,0.11030099,1
38032000,-0.16813122,0.18229245,0.11014658,1
38036000,-0.16940278,0.18234253,0.11000832,1
38040000,-0.1706401,0.18232974,0.10990466,1
38044000,-0.1718742,0.18234012,0.10978969,1
38048000,0.43765387,0.18974322,0.15276101,0.40352404
38052000,0.436293,0.19001693,0.15302679,0.40352404
38056000,0.43491426,0.19027823,0.15330355,0.40352404
38060000,0.43344024,0.19060528,0.15357834,0.40352404
38064000,0.43175644,0.19098255,0.15389094,0.40352404
38068000,0.42988008,0.19137654,0.1542518,0.40352404
38072000,0.42785907,0.17890486,0.16209441,0.42725408
38076000,0.42569584,0.17940466,0.16251317,0.42725408
38080000,0.4233675,0.17997432,0.1629501,0.42725408
38084000,0.4209197,0.18053201,0.16342914,0.42725408
38088000,0.41837996,0.18106242,0.16394918,0.42725408
38096000,0.41267827,0.16976893,0.17336775,0.45011294
38100000,0.40984055,0.17038676,0.17397329,0.45011294
38104000,0.40694362,0.17099945,0.17460123,0.45011294
38112000,0.40100613,0.17223853,0.1759008,0.45011294
38116000,0.39801797,0.17285654,0.17656004,0.45011294
38120000,0.3949414,0.16074282,0.18495995,0.47185728
38124000,0.39177692,0.16141883,0.18568385,0.47185728
38128000,0.38858438,0.16209148,0.18642062,0.47185728
38132000,0.3853967,0.16276667,0.18715665,0.47185728
38136000,0.38217196,0.16347139,0.18789294,0.47185728
38140000,0.37889484,0.16420579,0.18863462,0.47185728
38144000,0.3755588,0.1522454,0.19728939,0.49243647
38148000,0.37220648,0.15296757,0.19810054,0.49243647
38152000,0.36885712,0.15369761,0.1989093,0.49243647
38160000,0.3621316,0.15528066,0.20048353,0.49243647
38164000,0.35874414,0.15610375,0.20126724,0.49243647
38168000,0.35532516,0.14432725,0.21011713,0.51178205
38172000,0.35188735,0.14522025,0.21092393,0.51178205
38176000,0.34843817,0.14612404,0.21173175,0.51178205
38180000,0.34503454,0.14696558,0.2125557,0.51178205
38184000,0.34162554,0.14783733,0.21336907,0.51178205
38192000,0.33472553,0.13733892,0.22312023,0.52987665
38196000,0.32997528,0.14075625,0.22751944,0.52987665
38200000,0.32655597,0.1418015,0.22831158,0.52987665
38204000,0.32310584,0.14286871,0.22910653,0.52987665
38208000,0.31964245,0.14399394,0.22987935,0.52987665
38212000,0.31619704,0.1451409,0.23063603,0.52987665
38216000,0.312756,0.13387568,0.23978068,0.5479268
38220000,0.3093065,0.13505095,0.24056341,0.5479268
38224000,0.30585003,0.13622808,0.24134964,0.5479268
38228000,0.30244255,0.13743901,0.24210067,0.5479268
38232000,0.2991107,0.13863844,0.24282868,0.5479268
38236000,0.29577124,0.13987565,0.2435417,0.5479268
38240000,0.2924078,0.12887187,0.25278077,0.56466097
38244000,0.28902268,0.1302211,0.25349233,0.56466097
38248000,0.28562045,0.13153057,0.25423265,0.56466097
38252000,0.28225547,0.13283059,0.25496352,0.56466097
38256000,0.278952,0.13418737,0.25564054,0.56466097
38264000,0.27231163,0.124704,0.26571643,0.58013576
38268000,0.26907557,0.12613459,0.26636323,0.58013576
38272000,0.2658425,0.12761062,0.26698557,0.58013576
38280000,0.25933912,0.13064122,0.26820683,0.58013576
38284000,0.25611892,0.13212296,0.2688223,0.58013576
38288000,0.25295326,0.12146646,0.278296,0.59435797
38292000,0.24863487,0.12517995,0.28194883,0.59435797
38296000,0.24548322,0.12670574,0.2825605,0.59435797
38300000,0.24237359,0.12823279,0.28315303,0.59435797
38304000,0.23927742,0.1297838,0.2837271,0.59435797
38308000,0.23619816,0.1313819,0.28426877,0.59435797
38312000,0.23314986,0.12089396,0.293853,0.60829127
38316000,0.23013368,0.12251595,0.2943855,0.60829127
38320000,0.22713105,0.124125876,0.2949183,0.60829127
38324000,0.2241304,0.1257424,0.29544675,0.60829127
38328000,0.22116433,0.12738052,0.29594746,0.60829127
38332000,0.21819982,0.12904361,0.296434,0.60829127
38336000,0.21523044,0.11868215,0.30614328,0.62103635
38344000,0.20948158,0.122025356,0.3070837,0.62103635
38348000,0.2066541,0.12370878,0.30752468,0.62103635
38352000,0.20379326,0.12541977,0.30796653,0.62103635
38356000,0.20093817,0.12711026,0.30841666,0.62103635
38360000,0.19810586,0.11687438,0.31821242,0.63263947
38368000,0.1925394,0.12032912,0.31906152,0.63263947
38376000,0.18710941,0.123760425,0.3198548,0.63263947
38380000,0.18436739,0.12547544,0.32026488,0.63263947
38384000,0.18163711,0.11533717,0.33016914,0.6431775
38388000,0.17895173,0.11709242,0.3305571,0.6431775
38392000,0.1749361,0.12165573,0.33441114,0.6431775
38396000,0.1722711,0.12343371,0.3347903,0.6431775
38400000,0.1696575,0.12520462,0.3351466,0.6431775
38404000,0.16705406,0.12701109,0.3354773,0.6431775
38408000,0.16445121,0.117001384,0.34546775,0.6536717
38412000,0.16190732,0.118789285,0.34580505,0.6536717
38416000,0.15940897,0.1205342,0.34614196,0.6536717
38420000,0.15690657,0.12227583,0.34648263,0.6536717
38428000,0.15186837,0.12586112,0.3471226,0.6536717
38432000,0.14939022,0.11585534,0.3572443,0.66318613
38436000,0.14694273,0.11764143,0.3575559,0.66318613
38440000,0.1445418,0.11939163,0.35786217,0.66318613
38444000,0.14215037,0.12110627,0.3581833,0.66318613
38448000,0.13972688,0.122866035,0.35849565,0.66318613
38456000,0.13494161,0.11460712,0.369066,0.6717957
38460000,0.13257918,0.11632801,0.3693925,0.6717957
38464000,0.13021171,0.11810019,0.36969197,0.6717957
38468000,0.12786812,0.11986005,0.36998487,0.6717957
38472000,0.12554547,0.1215781,0.37028983,0.6717957
38480000,0.12098975,0.113446124,0.38086993,0.6795535
38488000,0.11640185,0.117001325,0.3814271,0.6795535
38492000,0.11332774,0.12059742,0.38380486,0.6795535
38496000,0.11111102,0.12237261,0.38404757,0.6795535
38504000,0.106680684,0.1166985,0.39266282,0.6870777
38508000,0.10450627,0.11844334,0.39291704,0.6870777
38512000,0.10236657,0.120178744,0.39315617,0.6870777
38516000,0.100210615,0.12194827,0.39338437,0.6870777
38520000,0.09803187,0.123704806,0.39363322,0.6870777
38524000,0.09590378,0.12542617,0.39387262,0.6870777
38528000,0.093795985,0.12944278,0.39204744,0.6938289
38532000,0.09174377,0.1311517,0.39224425,0.6938289
38536000,0.08974067,0.13289374,0.39239228,0.6938289
38540000,0.08769426,0.1346468,0.39255866,0.6938289
38544000,0.08561056,0.1364008,0.392746,0.6938289
38548000,0.08356134,0.13814443,0.39291877,0.6938289
38552000,0.081567034,0.14192265,0.3911999,0.6998887
38556000,0.07958503,0.14361265,0.3913601,0.6998887
38560000,0.077588044,0.14527503,0.39154541,0.6998887
38564000,0.075593635,0.1469709,0.3917088,0.6998887
38568000,0.073605545,0.14871241,0.3918407,0.6998887
38576000,0.06962138,0.15406765,0.39038414,0.7053028
38580000,0.06767843,0.1557815,0.39050108,0.7053028
38584000,0.06574427,0.15749319,0.3906137,0.7053028
38588000,0.06381047,0.15921152,0.39072177,0.7053028
38592000,0.061640345,0.1613375,0.39132804,0.7053028
38596000,0.05966425,0.16300115,0.39149547,0.7053028
38600000,0.057782166,0.16631885,0.39005482,0.71027714
38604000,0.05591584,0.16799548,0.39014503,0.71027714
38608000,0.054039612,0.16967729,0.39023778,0.71027714
38616000,0.05022408,0.17306015,0.39044803,0.71027714
38620000,0.04837419,0.17476462,0.39051014,0.71027714
38624000,0.046557292,0.17795464,0.38913143,0.7147047
38628000,0.04476001,0.17960347,0.38919258,0.7147047
38632000,0.04295943,0.18126194,0.3892495,0.7147047
38636000,0.041100666,0.18291703,0.38934314,0.7147047
38640000,0.0392235,0.18456715,0.38945073,0.7147047
38648000,0.03560499,0.18927126,0.38823867,0.7186411
38652000,0.033836477,0.19089594,0.3882933,0.7186411
38656000,0.0320497,0.19252959,0.3883531,0.7186411
38660000,0.030275859,0.19417632,0.3883968,0.7186411
38664000,0.028523244,0.19579437,0.3884453,0.7186411
38668000,0.026780568,0.19739774,0.38849664,0.7186411
38672000,0.025022238,0.20029798,0.38730115,0.7221109
38676000,0.023242474,0.20193665,0.38735002,0.7221109
38680000,0.021428436,0.20358169,0.38741568,0.7221109
38684000,0.019621328,0.2052058,0.3874901,0.7221109
38688000,0.017909892,0.20680012,0.387525,0.7221109
38696000,0.014107242,0.21211424,0.38751557,0.72545516
38704000,0.010604642,0.21538264,0.38758507,0.72545516
38712000,0.007126786,0.21865764,0.38763458,0.72545516
38716000,0.005405508,0.22024706,0.38767886,0.72545516
38720000,0.003711611,0.22285363,0.38667834,0.72843075
38724000,0.002018392,0.2244347,0.38670874,0.72843075
38728000,0.000308566,0.22603053,0.38673976,0.72843075
38732000,-0.001382724,0.22763298,0.3867551,0.72843075
38736000,-0.003009908,0.2292063,0.38674954,0.72843075
38740000,-0.004659742,0.23073629,0.3867856,0.72843075
38744000,-0.006331742,0.23323454,0.38585195,0.7310681
38748000,-0.008006185,0.23479038,0.3858848,0.7310681
38752000,-0.009665653,0.23632544,0.3859219,0.7310681
38756000,-0.011303961,0.2378524,0.38595092,0.7310681
38760000,-0.012955204,0.23941077,0.3859678,0.7310681
38764000,-0.014615707,0.24097157,0.3859889,0.7310681
38768000,-0.016273968,0.24337634,0.38511932,0.7333949
38772000,-0.01788631,0.24487238,0.38515088,0.7333949
38776000,-0.019511528,0.24639046,0.38517618,0.7333949
38780000,-0.021140747,0.24790582,0.38520578,0.7333949
38784000,-0.022789069,0.24945024,0.38522846,0.7333949
38788000,-0.02444449,0.25098038,0.3852648,0.7333949
38792000,-0.026781023,0.25536957,0.38636678,0.7354558
38796000,-0.028357148,0.2568907,0.38636422,0.7354558
38800000,-0.02996979,0.2584386,0.3863672,0.7354558
38804000,-0.031586565,0.2599754,0.38637996,0.7354558
38808000,-0.033199094,0.26147422,0.386415,0.7354558
38812000,-0.03476195,0.26294744,0.38643563,0.7354558
38816000,-0.036316037,0.26513147,0.38569915,0.7376998
38820000,-0.037889473,0.26659057,0.38573474,0.7376998
38824000,-0.039472513,0.26804796,0.38577768,0.7376998
38828000,-0.041028313,0.26954043,0.38578063,0.7376998
38832000,-0.04258077,0.27103946,0.3857771,0.7376998
38836000,-0.044126093,0.27250275,0.38579276,0.7376998
38840000,-0.045616284,0.27458626,0.38508704,0.73970085
38844000,-0.047150947,0.27602306,0.38511252,0.73970085
38848000,-0.04868815,0.2774983,0.38511458,0.73970085
38852000,-0.050221227,0.27893493,0.38513947,0.73970085
38856000,-0.051745832,0.28036916,0.38516086,0.73970085
38860000,-0.05320312,0.28177372,0.38515913,0.73970085
38864000,-0.054717794,0.28381824,0.38450003,0.741474
38868000,-0.05624497,0.28523004,0.38453755,0.741474
38872000,-0.057704598,0.28663677,0.38453543,0.741474
38876000,-0.059172727,0.28809544,0.38450435,0.741474
38880000,-0.06064058,0.28952983,0.38448945,0.741474
38884000,-0.06205986,0.29088485,0.3844964,0.741474
38888000,-0.06348553,0.29285493,0.38383383,0.7430304
38892000,-0.064740464,0.29365605,0.38334173,0.7430304
38896000,-0.06619425,0.29506075,0.38333586,0.7430304
38900000,-0.06762263,0.2964556,0.38332048,0.7430304
38904000,-0.06900072,0.29776728,0.38332862,0.7430304
38908000,-0.07037608,0.29906598,0.383344,0.7430304
38912000,-0.071778566,0.30101404,0.3826772,0.74429816
38916000,-0.07315791,0.3023585,0.38266385,0.74429816
38920000,-0.07451186,0.30369034,0.38264284,0.74429816
38928000,-0.077273354,0.30630153,0.38267156,0.74429816
38932000,-0.078622624,0.30766487,0.38262683,0.74429816
38936000,-0.07998636,0.30955625,0.38197392,0.7454001
38940000,-0.08129145,0.31075487,0.38201138,0.7454001
38944000,-0.08259051,0.3119644,0.38203797,0.7454001
38948000,-0.08393337,0.31317022,0.38209587,0.7454001
38952000,-0.085280634,0.31442297,0.3821251,0.7454001
38960000,-0.08789479,0.31744853,0.3815219,0.74632144
38964000,-0.089175746,0.31862885,0.3815571,0.74632144
38968000,-0.09046892,0.31979102,0.38161308,0.74632144
38976000,-0.09297806,0.32213837,0.38165963,0.74632144
38980000,-0.09427258,0.3233633,0.38167462,0.74632144
38984000,-0.095565334,0.32512727,0.38106775,0.74710345
38988000,-0.09682127,0.32629263,0.3810979,0.74710345
38992000,-0.098072335,0.32747364,0.38119102,0.74710345
38996000,-0.09927282,0.32863817,0.3811859,0.74710345
39000000,-0.10051557,0.3298266,0.38119265,0.74710345
39004000,-0.10177153,0.33094814,0.38125423,0.74710345
39008000,-0.10301343,0.33263135,0.38067335,0.747809
39012000,-0.10421988,0.33379835,0.38067085,0.747809
39016000,-0.10540263,0.3349223,0.38068265,0.747809
39020000,-0.1066212,0.3360304,0.38072944,0.747809
39024000,-0.10781041,0.33711264,0.3807747,0.747809
39028000,-0.10902241,0.33817318,0.38085052,0.747809
39032000,-0.11026642,0.3397783,0.3803216,0.7484008
39036000,-0.11146571,0.34083956,0.3803884,0.7484008
39040000,-0.11266002,0.34189928,0.38045362,0.7484008
39044000,-0.113876015,0.34304926,0.3804713,0.7484008
39048000,-0.1150518,0.34416375,0.380487,0.7484008
39052000,-0.11617422,0.34519735,0.38052312,0.7484008
39056000,-0.11730365,0.3467528,0.37995145,0.7489059
39060000,-0.118465625,0.34778696,0.38001373,0.7489059
39064000,-0.119605035,0.34881246,0.38006723,0.7489059
39068000,-0.120735064,0.34983903,0.38011417,0.7489059
39072000,-0.121883176,0.3508901,0.3801565,0.7489059
39080000,-0.12402528,0.3533626,0.3796292,0.7493141
39084000,-0.12510829,0.35434496,0.37967587,0.7493141
39088000,-0.12620534,0.3553339,0.37972778,0.7493141
39096000,-0.12862721,0.35806894,0.38045797,0.7493141
39100000,-0.12966077,0.35901707,0.3804977,0.7493141
39104000,-0.1306856,0.360469,0.37994036,0.7497787
39108000,-0.13163407,0.36109668,0.37966758,0.7497787
39112000,-0.13252753,0.3615215,0.37926883,0.7497787
39120000,-0.13430263,0.36233276,0.37850457,0.7497787
39124000,-0.13516073,0.36270893,0.378149,0.7497787
39128000,-0.1360318,0.3635796,0.3772019,0.7501717
39132000,-0.13691384,0.3639597,0.3768406,0.7501717
39136000,-0.13778788,0.3643615,0.37645835,0.7501717
39140000,-0.13864286,0.36477226,0.37606728,0.7501717
39144000,-0.13947695,0.36515716,0.3756999,0.7501717
39148000,-0.14029899,0.36550924,0.37536266,0.7501717
39152000,-0.14113054,0.36637658,0.3744105,0.7505009
39156000,-0.1419496,0.3668015,0.37400317,0.7505009
39160000,-0.14276314,0.36721602,0.37360507,0.7505009
39164000,-0.1436004,0.36762193,0.37321383,0.7505009
39168000,-0.1444605,0.36802533,0.3728242,0.7505009
39172000,-0.1452978,0.368393,0.37246785,0.7505009
39176000,-0.14610681,0.36925456,0.37151378,0.7507903
39180000,-0.14691664,0.36963058,0.37114787,0.7507903
39184000,-0.14773051,0.37000376,0.37078413,0.7507903
39192000,-0.14936592,0.37069753,0.37010437,0.7507903
39196000,-0.1502094,0.37112644,0.36983484,0.7507903
39204000,-0.15179178,0.37229183,0.36857352,0.7510466
39208000,-0.15253481,0.37265763,0.36821362,0.7510466
39212000,-0.15328012,0.37299502,0.3678802,0.7510466
39216000,-0.15403387,0.37329823,0.36757895,0.7510466
39224000,-0.15554471,0.37450308,0.36627024,0.75122774
39228000,-0.15627071,0.37485772,0.36591783,0.75122774
39232000,-0.15703343,0.375227,0.36555037,0.75122774
39236000,-0.15777393,0.37560806,0.36517122,0.75122774
39240000,-0.15848427,0.37597817,0.36480257,0.75122774
39244000,-0.15921322,0.37634784,0.36443338,0.75122774
39248000,-0.15995952,0.37717026,0.36349535,0.75136673
39256000,-0.1613498,0.3779234,0.36274076,0.75136673
39260000,-0.16206779,0.37827352,0.3623878,0.75136673
39264000,-0.16281304,0.37861413,0.36204308,0.75136673
39268000,-0.16357432,0.37898192,0.3616711,0.75136673
39272000,-0.16426969,0.3798474,0.36068326,0.7514897
39276000,-0.16498512,0.3802266,0.36029923,0.7514897
39280000,-0.16568792,0.3805774,0.35994247,0.7514897
39284000,-0.16634113,0.38093275,0.3595817,0.7514897
39288000,-0.16700333,0.38131988,0.3591892,0.7514897
39296000,-0.1686915,0.38358623,0.35877287,0.75175726
39300000,-0.16935459,0.38394994,0.35840106,0.75175726
39304000,-0.17000182,0.38431594,0.3580267,0.75175726
39308000,-0.17067559,0.38466415,0.35766864,0.75175726
39312000,-0.17138083,0.38501394,0.3573079,0.75175726
39316000,-0.1720537,0.38534996,0.35696062,0.75175726
39324000,-0.17334309,0.38650638,0.35566166,0.7519922
39328000,-0.17399617,0.38689318,0.35526282,0.7519922
39332000,-0.17463082,0.3873006,0.3548431,0.7519922
39336000,-0.17525333,0.38769302,0.354438,0.7519922
39340000,-0.17587113,0.38803923,0.3540783,0.7519922
39344000,-0.17648791,0.38878897,0.35319108,0.7522015
39348000,-0.17709884,0.38907292,0.3528922,0.7522015
39352000,-0.17770368,0.38939476,0.35255525,0.7522015
39360000,-0.17892665,0.3900944,0.35182363,0.7522015
39364000,-0.1795147,0.39044464,0.3514573,0.7522015
39368000,-0.18011613,0.3912662,0.35049057,0.7523406
39376000,-0.18133897,0.39198023,0.34973925,0.7523406
39384000,-0.1824975,0.39266062,0.34902138,0.7523406
39392000,-0.18372005,0.39374146,0.34776834,0.75248015
39396000,-0.1846615,0.3950864,0.34818527,0.75248015
39400000,-0.18528046,0.39543745,0.3478114,0.75248015
39404000,-0.18590447,0.395797,0.34742823,0.75248015
39408000,-0.18646893,0.3961259,0.34707755,0.75248015
39412000,-0.18702522,0.39643943,0.34674218,0.75248015
39416000,-0.18761098,0.39715618,0.34587497,0.7527755
39420000,-0.18820444,0.3974416,0.34556556,0.7527755
39424000,-0.18878676,0.39775193,0.34523103,0.7527755
39428000,-0.18936509,0.3980871,0.3448707,0.7527755
39432000,-0.18998706,0.39844057,0.3444897,0.7527755
39436000,-0.1906059,0.39878887,0.3441135,0.7527755
39440000,-0.1912054,0.3995568,0.34318596,0.75302315
39444000,-0.19179782,0.39988607,0.34282863,0.75302315
39448000,-0.19239536,0.4002166,0.3424693,0.75302315
39456000,-0.19360724,0.40088552,0.3417406,0.75302315
39460000,-0.1941843,0.40117016,0.34142768,0.75302315
39464000,-0.1947302,0.40188906,0.34054467,0.7532759
39468000,-0.19528008,0.40218425,0.34022063,0.7532759
39472000,-0.1958401,0.40244952,0.33992672,0.7532759
39476000,-0.19640517,0.4027343,0.33961207,0.7532759
39480000,-0.19697402,0.4030083,0.33930823,0.7532759
39484000,-0.19754416,0.40326142,0.33902535,0.7532759
39488000,-0.19815719,0.40398216,0.33813137,0.75346196
39492000,-0.19875506,0.4042793,0.33780065,0.75346196
39496000,-0.19911952,0.40391335,0.33700675,0.75346196
39500000,-0.19968475,0.4041652,0.3367236,0.75346196
39504000,-0.20025975,0.40442622,0.33643025,0.75346196
39508000,-0.20083007,0.40469396,0.33612972,0.75346196
39512000,-0.20135757,0.40539116,0.3352527,0.75358546
39516000,-0.2018632,0.40560156,0.3350135,0.75358546
39520000,-0.20239764,0.40582135,0.3347628,0.75358546
39524000,-0.20291093,0.40604037,0.33451366,0.75358546
39528000,-0.20342782,0.40628803,0.33423412,0.75358546
39532000,-0.20397055,0.4065558,0.33393213,0.75358546
39536000,-0.20454854,0.40724817,0.33305216,0.75361246
39540000,-0.20512019,0.40751353,0.3327504,0.75361246
39544000,-0.205695,0.40776998,0.33245748,0.75361246
39548000,-0.20627938,0.40800023,0.33219153,0.75361246
39552000,-0.2068338,0.408239,0.33191732,0.75361246
39556000,-0.20739757,0.40846193,0.33165923,0.75361246
39560000,-0.20794821,0.40914562,0.3307834,0.75366354
39564000,-0.20847347,0.4093619,0.33053282,0.75366354
39568000,-0.20901448,0.40956786,0.3302923,0.75366354
39572000,-0.20957646,0.40978894,0.3300346,0.75366354
39576000,-0.21010418,0.4100218,0.3297656,0.75366354
39580000,-0.21063663,0.41024226,0.32950926,0.75366354
39584000,-0.21118233,0.41093916,0.3286131,0.753678
39588000,-0.21171567,0.41117236,0.32834223,0.753678
39592000,-0.21197739,0.41040856,0.3273642,0.753678
39596000,-0.21254364,0.41063222,0.32710144,0.753678
39600000,-0.21308085,0.4108708,0.32682383,0.753678
39604000,-0.21359631,0.4110975,0.32655936,0.753678
39608000,-0.21411476,0.4117771,0.32567242,0.7535405
39612000,-0.21461411,0.41197494,0.3254386,0.7535405
39616000,-0.21511143,0.41218197,0.32519484,0.7535405
39620000,-0.21562587,0.4123713,0.32496896,0.7535405
39624000,-0.21614482,0.41255042,0.3247538,0.7535405
39628000,-0.2166929,0.41270614,0.32456198,0.7535405
39632000,-0.2172699,0.41335028,0.32370478,0.7533317
39636000,-0.21781689,0.41353363,0.32348257,0.7533317
39640000,-0.21832635,0.41369346,0.32328725,0.7533317
39644000,-0.21881908,0.4138415,0.32310513,0.7533317
39648000,-0.21933496,0.4139888,0.32292262,0.7533317
39652000,-0.2198548,0.41415608,0.32271823,0.7533317
39656000,-0.2203576,0.41481853,0.32183963,0.7531137
39660000,-0.22086531,0.4149902,0.3216303,0.7531137
39664000,-0.22137007,0.4151987,0.321381,0.7531137
39668000,-0.2218934,0.41539994,0.3211385,0.7531137
39672000,-0.22243614,0.41557187,0.32092652,0.7531137
39676000,-0.22294778,0.4157374,0.3207229,0.7531137
39680000,-0.22345027,0.41635942,0.31988248,0.75290364
39684000,-0.22398075,0.41650409,0.3196997,0.75290364
39688000,-0.22451735,0.4166838,0.31947848,0.75290364
39692000,-0.2258667,0.41966993,0.3213321,0.75290364
39696000,-0.22636431,0.4198187,0.32114586,0.75290364
39700000,-0.22686422,0.41999388,0.3209306,0.75290364
39704000,-0.22735687,0.42057964,0.3201454,0.7531344
39708000,-0.22783878,0.42073342,0.31995368,0.7531344
39712000,-0.22831249,0.42090264,0.3197452,0.7531344
39716000,-0.2287935,0.42105952,0.31954977,0.7531344
39720000,-0.22931004,0.42118788,0.3193835,0.7531344
