timestamp,gyro_rad[0],gyro_rad[1],gyro_rad[2],accelerometer_m_s2[0],accelerometer_m_s2[1],accelerometer_m_s2[2]
10004000,0.000184627,-0.002096707,-0.002369215,-0.11027032,0.17501229,-9.901809
10008000,-0.000175277,-0.009179916,0.000246703,-0.06499646,0.1780861,-9.918418
10016000,0.000642351,-0.004180803,-0.004517,-0.07628362,0.1866735,-9.933118
10020000,-0.004258646,-0.004338454,-0.000329432,-0.17024478,0.14860533,-9.914909
10028000,-0.002817375,-0.003999654,-0.009845729,-0.027378669,0.2086853,-9.954714
10032000,-0.000550339,-0.007919716,-0.010528022,-0.056871727,0.19652516,-9.939721
10036000,-0.004697771,-0.006749474,-0.005173892,-0.110254675,0.17143893,-9.946241
10040000,-0.010317249,-0.006243724,0.002807448,-0.12211053,0.19883537,-9.986627
10044000,-0.007305377,-0.005318678,0.003133401,-0.113395385,0.16926487,-10.004693
10048000,-0.001631083,-0.004897978,0.001248942,-0.11710303,0.17441602,-9.994286
10052000,-0.000618229,-0.009359035,-0.001157206,-0.093950905,0.2276407,-9.905217
10056000,-0.002121385,-0.007651827,-0.003884951,-0.01976205,0.17705546,-9.85444
10060000,-0.000872426,-0.006220711,0.0001977,-0.052495223,0.13613069,-9.962882
10064000,0.000902686,-0.007507741,-0.000301522,-0.1375151,0.20203595,-9.998659
10068000,-0.00199237,-0.004736194,0.001019574,-0.119538344,0.23057872,-9.913009
10072000,-0.000117187,-0.008350317,-0.001233714,-0.07474663,0.13680872,-9.892221
10076000,-0.001791959,-0.00297133,0.000806838,-0.030208342,0.16217206,-9.938174
10080000,-0.004484675,0.003084666,0.008655779,-0.009244432,0.19717693,-9.981357
10088000,-0.005208566,0.00348693,0.008114707,-0.019913035,0.20444669,-10.009849
10092000,-0.008131635,-0.000774432,-0.007254034,-0.14917532,0.25107676,-9.969167
10096000,-0.003706341,-0.003446475,-0.011061197,-0.1002087,0.24760608,-9.986221
10100000,0.002727943,-0.005704987,-0.001514142,0.012296327,0.25774258,-10.0180025
10104000,0.002722723,-0.004491024,0.00095564,0.03322025,0.28870314,-10.004731
10108000,0.001225667,-0.009710992,-6.98E-05,-0.084094584,0.27420634,-9.914032
10112000,0.000696815,-0.006942457,-0.000738519,-0.15042028,0.21930547,-9.847222
10116000,-0.000373082,-0.005016002,0.000488581,-0.14065905,0.16005547,-9.86288
10120000,-0.004658084,-0.010995782,-0.00293259,-0.08782845,0.18874519,-9.927279
10128000,-0.005609056,-0.011252524,-0.007570412,-0.12757048,0.17265859,-9.917342
10132000,0.003269171,-0.012337569,0.002099588,-0.101973094,0.23309769,-9.902167
10136000,-0.00104655,-0.007817709,1.41E-05,-0.09954545,0.17260318,-9.949054
10144000,-0.002349807,-0.004131274,0.003877855,-0.09972841,0.2080166,-9.862052
10152000,-0.003625406,-0.002188243,-0.005426732,-0.04991765,0.27280742,-9.930661
10156000,-0.008809349,-0.006461551,-4.34E-05,-0.049270283,0.2836159,-9.937038
10160000,-0.005910187,-0.005212702,0.003289644,0.012897852,0.23777589,-9.885937
10168000,-0.000676195,0.000818391,0.005474394,-0.11562941,0.24312007,-9.978408
10172000,-9.88E-05,-0.00935073,0.003771492,-0.04320787,0.19014117,-9.929449
10176000,-0.003027958,-0.012451776,-0.001524734,-0.057587337,0.05854346,-9.929089
10184000,-0.006062876,-0.00811901,-0.002402173,-0.08947769,0.20545152,-9.960167
10188000,-0.002054139,-0.007812406,0.000160273,-0.051777516,0.20111045,-9.988948
10192000,0.002208383,-0.007242378,0.002726964,-0.05132327,0.21988466,-9.964843
10196000,0.00185091,-0.008066625,0.00014205,-0.031145476,0.22184286,-9.928171
10200000,-0.00313609,-0.006287712,-0.000205629,-0.018211078,0.12889056,-10.019966
10204000,-0.002786756,-0.001899035,0.004467265,-0.064753756,0.13346915,-10.000434
10208000,0.00317757,-0.006537945,0.002708424,-0.08678717,0.18006063,-9.8899555
10212000,0.003646203,-0.010508765,0.001014836,-0.10384542,0.162381,-9.87315
10216000,0.002518778,-0.00910013,0.000469769,-0.13625145,0.16761555,-9.930816
10220000,0.001307266,-0.013142956,-0.000423724,-0.09073165,0.15955433,-10.004622
10224000,-0.001884695,-0.008074543,0.004130437,-0.08766644,0.19169408,-10.044311
10228000,-0.006531819,-0.004943474,0.003875613,-0.08814211,0.21436644,-10.047779
10232000,-0.005409765,-0.010081418,0.002013856,-0.07925297,0.16911994,-10.001592
10240000,0.00215146,-0.009275068,-0.001638867,-0.08562647,0.1439798,-9.922393
10244000,-0.004326098,-0.007520351,0.003235799,-0.062101666,0.19032213,-9.983771
10248000,-0.00923,-0.005606472,-0.000400067,-0.08776292,0.24298106,-9.88665
10252000,-0.00418948,-0.00057281,0.000984148,-0.07689705,0.20802492,-9.86756
10260000,-0.000340682,-0.007100121,-0.004335125,-0.022696216,0.23421194,-9.920852
10264000,0.001623766,-0.005210532,0.001653602,-0.07032577,0.15689346,-9.92392
10268000,0.000598057,-0.01090299,0.006595629,-0.09182733,0.16566432,-9.93978
10276000,0.001076044,-0.008084588,0.002277148,-0.119870625,0.19521916,-9.865796
10280000,0.00116959,-0.004770192,0.000507566,-0.09667914,0.15592791,-9.927428
10288000,0.002116502,-0.002558031,0.002346709,-0.051932294,0.15826404,-9.928057
10292000,0.003473238,-0.00521238,-0.001554918,-0.084685445,0.18099059,-9.913602
10300000,-0.000545494,-0.002532355,-0.001934685,-0.09600807,0.12183991,-9.9112
10304000,-0.004930679,-0.003646065,0.000324124,-0.09616155,0.086395025,-9.972084
10308000,0.000508684,-0.008750313,0.003225832,-0.04106393,0.12824969,-9.930946
10312000,0.003441008,-0.008212476,0.005132376,-0.110635675,0.23472787,-9.9263
10320000,-0.000585114,-0.003288258,-0.005123499,-0.025298249,0.16796695,-10.005084
10324000,0.00462151,-0.007516527,-0.00273101,-0.07812025,0.1386395,-9.978805
10328000,0.008383423,-0.00523408,0.003910236,-0.0307922,0.1430102,-9.904818
10332000,-0.001007409,-0.006304057,0.001877171,-0.046242267,0.10308754,-9.895376
10336000,-0.002507054,-0.011473914,0.000155722,-0.14753588,0.08821184,-9.848969
10340000,-0.006360326,-0.011894548,-0.001033091,1.4814736,0.20230234,-9.787173
10344000,-0.001257642,-0.011192063,-0.00238054,8.673312,0.18747728,-9.799519
10348000,0.005117662,-0.007553491,-0.000115566,19.264658,0.24463293,-9.716208
10356000,0.003864098,-0.002477086,-0.009643125,35.869373,0.19948837,-9.636536
10360000,0.002959828,-0.006030797,-0.006108762,41.543034,0.19430734,-9.525033
10364000,-0.002028304,-0.006957668,-0.003022533,45.80901,0.20233089,-9.4029455
10368000,-0.000210739,-0.011353512,0.003542048,48.82915,0.19166648,-9.368559
10376000,0.003741732,-0.005243045,-0.00322214,52.0405,0.10000528,-9.393887
10384000,-0.003670604,-0.007129348,-0.003323839,53.319508,0.23176038,-9.301853
10388000,-0.00497225,-0.001298919,-0.003904152,53.517975,0.18521722,-9.284064
10392000,0.002274999,-0.002739168,-0.006411409,53.377377,0.18609874,-9.299228
10396000,0.002930197,-0.012085673,-0.001314688,53.118683,0.17232907,-9.338872
10400000,-0.000351001,-0.012574287,0.006782321,52.788193,0.13101435,-9.353888
10408000,-0.00517101,-0.004520265,-0.000678202,52.198616,0.18271299,-9.294416
10412000,-0.005939153,-0.007145504,-0.000273134,51.677933,0.22351281,-9.305807
10416000,-0.004025386,-0.005972345,0.001032352,51.10568,0.2010243,-9.308487
10424000,0.005362175,-0.004389085,0.007325353,50.041023,0.2048653,-9.424612
10428000,0.00378631,-0.007085634,-0.003219579,49.740536,0.19567408,-9.362943
10432000,-0.001701744,-0.00804399,-0.001005284,49.2143,0.22922032,-9.341314
10440000,-0.002982121,-0.000811638,0.002009229,48.01993,0.098895565,-9.447315
10444000,0.002324615,-0.007825151,0.001653248,47.605453,0.103879064,-9.433088
10452000,-0.009134004,-0.003815827,-0.000248932,46.789413,0.22159213,-9.370867
10456000,-0.005298276,-0.012688126,-0.0019836,46.15988,0.18080142,-9.350649
10464000,-0.003920976,-0.00070431,-0.005541815,45.23858,0.17003757,-9.417785
10468000,-0.001324767,-0.007384642,-0.009726983,44.858215,0.178422,-9.361494
10472000,-0.002809863,-0.005227049,-0.004445176,44.44669,0.23539664,-9.376048
10476000,-0.003020671,-0.008769874,-0.002827866,44.03059,0.20585425,-9.454889
10480000,-0.003038594,-0.007524668,-0.003844718,43.56315,0.21956077,-9.476007
10488000,-0.002651682,-0.004322608,-0.00117503,42.872093,0.13280731,-9.555487
10492000,-0.007622892,-0.006958993,-0.00051215,42.513344,0.17221351,-9.517251
10496000,-0.010380623,-0.007398206,-0.003268616,41.957775,0.16004191,-9.46425
10500000,-0.008647701,-0.006250303,-0.005871658,41.4909,0.18329766,-9.430967
10504000,-0.001739459,-0.004181648,-0.002631496,41.12799,0.15221015,-9.481992
10512000,-0.002149458,-0.001056948,0.003429042,40.570053,0.13176267,-9.405453
10516000,-0.004572948,-0.005410404,0.003068118,40.05903,0.16433051,-9.436154
10520000,-0.000738452,-0.006099286,-0.000812451,39.637897,0.1953786,-9.413053
10524000,-0.00040926,-0.010240325,-0.001963907,39.26831,0.19134489,-9.431754
10528000,-0.001070134,-0.007916946,-0.00072004,38.999695,0.18672366,-9.440076
10532000,-0.002426665,-0.005678231,-2.22E-05,38.654682,0.19367667,-9.479463
10536000,-0.000687293,-0.01061691,-0.007264193,38.208305,0.19161546,-9.485565
10544000,0.001840604,-0.004816885,-0.000990908,37.325115,0.19779892,-9.415723
10548000,-0.000843398,-0.007503691,-0.003254524,37.06945,0.1039928,-9.471653
10552000,-0.00033257,-0.004548443,-0.00244015,36.74698,0.16051877,-9.489943
10556000,0.006619226,-0.004676224,-0.004717212,36.281357,0.22914043,-9.480763
10560000,0.002027717,-0.011078901,-0.002802194,35.867188,0.17424493,-9.574829
10568000,0.001669077,-0.00398816,0.000939045,35.161488,0.10007496,-9.56862
10572000,-0.000197532,-0.004252749,0.00104034,34.8423,0.08937587,-9.600696
10576000,-0.00657161,-0.002745283,-0.004834309,34.59948,0.112665765,-9.540253
10580000,-0.000567334,-0.001156775,-0.005023777,34.209045,0.111846894,-9.499923
10584000,0.000583845,-0.002862021,-0.004262898,33.847225,0.17563428,-9.55184
10588000,-0.010344072,-0.007535175,-0.002073709,33.60661,0.2806306,-9.5457325
10596000,-0.0069624,-0.00702543,0.002408369,33.03822,0.1624691,-9.583187
10600000,-0.004007385,-0.0085549,-0.000956089,32.69804,0.09897847,-9.523051
10608000,-0.003885567,-0.006329131,0.006442961,32.14572,0.15025178,-9.536488
10616000,-0.008356626,-0.005381712,-0.000104205,31.599447,0.16315189,-9.539398
10620000,-0.003676187,-0.011356402,-0.000331117,31.237745,0.21606171,-9.518803
10628000,0.002501671,-0.006382736,0.002578817,30.68822,0.12588663,-9.494064
10632000,0.003227095,-0.004710638,-0.000167148,30.508722,0.11098681,-9.539148
10636000,0.004235464,-0.001874674,0.008708946,30.344793,0.12847342,-9.545501
10640000,0.003906774,-0.003049893,0.008833026,29.992197,0.11904714,-9.565297
10644000,0.003884436,-0.010127381,0.012564435,29.741766,0.097913615,-9.519259
10648000,0.00345233,-0.012454875,0.01689579,29.477686,0.04806809,-9.45427
10652000,0.00152045,-0.005468558,0.020461349,29.250242,0.028129574,-9.577299
10660000,-0.003445365,-0.008750921,0.019038947,28.690071,-0.004075324,-9.550931
10668000,-0.006266746,-0.004734742,0.02309715,28.29814,-0.085254006,-9.630267
10672000,-0.006535959,-0.003317474,0.03185544,28.054617,-0.0318049,-9.634473
10676000,0.001120836,-0.002636907,0.03795073,27.846783,-0.04422861,-9.55297
10684000,0.001772164,-0.004987829,0.051637314,27.255064,-0.13942403,-9.59895
10688000,-0.000400482,-0.004721559,0.05494865,27.008574,-0.14566818,-9.627296
10692000,-0.009224108,-0.005758417,0.054052945,26.761759,-0.15221125,-9.640197
10696000,-0.009057425,0.002820107,0.058388095,26.467203,-0.13640818,-9.582222
10704000,-0.002339683,-0.012674452,0.07389289,26.04577,-0.2342887,-9.576506
10708000,0.004675618,-0.016157102,0.07775919,25.81621,-0.28258577,-9.579021
10712000,0.008665459,-0.004687031,0.08430486,25.657902,-0.2698439,-9.633841
10720000,0.000675678,-0.006031205,0.10033128,25.283646,-0.24529967,-9.600284
10728000,0.00059191,-0.007151157,0.10729756,24.81526,-0.31560087,-9.750589
10732000,0.002772104,-0.003448473,0.11577946,24.618687,-0.19701652,-9.738747
10736000,0.003892237,-0.004481104,0.12345439,24.425564,-0.1605452,-9.720531
10740000,0.004782004,-0.007197931,0.12337971,24.170208,-0.16802163,-9.747834
10744000,0.003337052,-0.012280657,0.12879169,24.11092,-0.38367155,-10.259349
10748000,0.005427507,-0.022148516,0.14228402,24.153362,-0.5645992,-10.657033
10752000,0.013336525,-0.0332594,0.15593746,24.047535,-0.5203826,-10.699603
10756000,0.023554016,-0.039452024,0.16388652,23.80602,-0.47160357,-10.759791
10760000,0.036787752,-0.047792137,0.1779726,23.551275,-0.42557958,-10.7557
10764000,0.051652547,-0.061728086,0.19491044,23.322908,-0.39803913,-10.780523
10768000,0.057094343,-0.06700653,0.20648298,23.070534,-0.38434327,-10.709939
10772000,0.062243648,-0.071276546,0.21163122,22.839891,-0.44073942,-10.71729
10776000,0.07504282,-0.08516519,0.21710591,22.75292,-0.41643274,-10.733106
10780000,0.0861183,-0.10006441,0.22308257,22.630524,-0.317685,-10.732767
10784000,0.08637499,-0.111755975,0.22924855,22.393679,-0.3221764,-10.755138
10788000,0.09092939,-0.117854625,0.24232702,22.146894,-0.29519033,-10.769707
10792000,0.10572532,-0.120043404,0.24422526,21.834417,-0.2560059,-10.786608
10800000,0.119585715,-0.13554995,0.2552216,21.440868,-0.18595038,-10.565935
10804000,0.12991436,-0.13217342,0.2603204,21.170528,-0.19034839,-10.453677
10808000,0.14622399,-0.14258823,0.2649496,20.93854,-0.2154834,-10.421547
10812000,0.15326144,-0.14689158,0.26516074,20.681156,-0.18004014,-10.396265
10816000,0.15893747,-0.14778602,0.26714027,20.4677,-0.19730045,-10.384268
10820000,0.16508047,-0.14617711,0.26147178,20.302092,-0.24850608,-10.390654
10828000,0.17733003,-0.15153506,0.27305606,19.803316,-0.2655146,-10.396475
10832000,0.18045197,-0.14563243,0.27681842,19.568905,-0.25497845,-10.258328
10836000,0.18674572,-0.14873885,0.27305168,19.347534,-0.21871783,-10.214818
10840000,0.18953666,-0.15383178,0.26912585,19.275995,-0.19681327,-10.212901
10844000,0.1933704,-0.1459867,0.2685152,18.976482,-0.27000612,-10.209338
10848000,0.21011534,-0.14750436,0.27348867,18.608173,-0.2468134,-10.231558
10852000,0.21627909,-0.14921911,0.26799643,18.412903,-0.18967883,-10.227565
10856000,0.21666397,-0.14752327,0.2611306,18.254124,-0.15483183,-10.238269
10860000,0.22245418,-0.14779416,0.26354083,18.191366,-0.21048507,-10.193768
10868000,0.23015133,-0.14529367,0.26119372,17.565933,-0.3225997,-10.095867
10872000,0.23023774,-0.1390389,0.25187588,17.436241,-0.29622892,-10.095717
10880000,0.234717,-0.13964368,0.2418315,17.093904,-0.23778304,-10.076808
10884000,0.23953159,-0.13819848,0.23767135,16.837656,-0.34637594,-10.016765
10888000,0.2493672,-0.1344508,0.22573559,16.611221,-0.35795748,-9.941598
10892000,0.24882396,-0.13530183,0.22080466,16.514332,-0.31199417,-9.898769
10896000,0.25272983,-0.13052808,0.21397708,16.288048,-0.37826762,-9.904836
10900000,0.25770333,-0.12202958,0.20789696,16.000391,-0.35136384,-9.882619
10904000,0.25885743,-0.11042769,0.20600696,15.909739,-0.23010096,-9.786862
10908000,0.25613844,-0.10130308,0.19575134,15.768698,-0.23303999,-9.74999
10912000,0.26148185,-0.100912325,0.19038136,15.525425,-0.24363576,-9.737247
10916000,0.26081952,-0.09649618,0.18295564,15.264798,-0.24277446,-9.711833
10920000,0.25963697,-0.08264373,0.16922113,15.210782,-0.2504806,-9.690637
10924000,0.26426214,-0.07302891,0.16130428,15.18905,-0.20447737,-9.707384
10928000,0.26390842,-0.07055173,0.15154757,14.978668,-0.18546143,-9.702906
10932000,0.26165333,-0.06679641,0.13965724,14.831764,-0.16734383,-9.7011595
10936000,0.26331905,-0.05659058,0.12739916,14.5747595,-0.22238931,-9.736968
10940000,0.26609355,-0.047540724,0.120697334,14.428479,-0.2507813,-9.764423
10944000,0.26848486,-0.038789768,0.10485396,14.3789215,-0.20156632,-9.736929
10948000,0.27751973,-0.03044175,0.08641985,14.227299,-0.23488215,-9.762458
10956000,0.28323668,-0.01538407,0.0796962,13.754205,-0.2770172,-9.797366
10960000,0.28043893,-0.00542365,0.07249767,13.735531,-0.13722833,-9.825411
10964000,0.28738958,-0.006626581,0.056303453,13.675793,-0.11989915,-9.816969
10968000,0.28285918,-0.005886387,0.03836756,13.518545,-0.17774248,-9.858681
10972000,0.27933642,-0.001071275,0.02653261,13.332792,-0.23928174,-9.864774
10976000,0.28453943,0.008571366,0.012218159,13.115169,-0.21863924,-9.886083
10980000,0.287837,0.009707508,-0.001030584,13.019075,-0.22620636,-9.929148
10984000,0.29147074,0.011957678,-0.013060538,12.982066,-0.15140817,-9.91672
10988000,0.29146522,0.021029364,-0.026324106,12.8036175,-0.104560815,-9.958702
10992000,0.29149866,0.017155377,-0.03687562,12.620446,-0.12971084,-9.968756
10996000,0.29726595,0.019156946,-0.048720274,12.471616,-0.12393577,-9.92798
11004000,0.30040038,0.025000695,-0.07854178,12.320269,0.028058238,-9.961369
11008000,0.2966763,0.026427688,-0.09016637,12.214757,0.013079492,-9.940834
11016000,0.29922533,0.026161416,-0.11390358,11.933872,-0.05292255,-10.0117655
11024000,0.2968883,0.030782705,-0.1327302,11.856763,0.10232769,-10.013094
11028000,0.29717153,0.032346923,-0.14659065,11.743004,0.13189173,-10.028689
11032000,0.29895803,0.035014115,-0.16004041,11.655505,0.094731346,-9.994774
11036000,0.3009299,0.032950774,-0.16933338,11.523345,0.10066295,-10.008473
11040000,0.30340767,0.0306129,-0.180094,11.431022,0.17548573,-10.062437
11044000,0.30643636,0.029657332,-0.1885007,11.312457,0.23143338,-10.130314
11052000,0.30538473,0.02324269,-0.2169882,11.130155,0.22007324,-10.131175
11060000,0.3084176,0.022419441,-0.229373,10.922675,0.19910653,-10.084585
11068000,0.3096257,0.019098507,-0.24750349,10.783771,0.22180341,-10.083906
11076000,0.31099465,0.020023892,-0.2645688,10.558894,0.2069148,-10.057865
11084000,0.3055109,0.010319167,-0.28284305,10.380841,0.34412223,-10.0693865
11092000,0.30284804,0.003388678,-0.2890917,10.105963,0.30801028,-10.13489
11096000,0.3025963,-0.004645363,-0.2970354,10.105963,0.30801028,-10.13489
11104000,0.30136836,-0.00261033,-0.30363667,9.796994,0.22061208,-10.072793
11108000,0.29663345,-0.008433244,-0.30770892,9.656632,0.086564526,-10.13973
11112000,0.30079207,-0.012026427,-0.31037208,9.659627,0.12440565,-10.199153
11116000,0.3022705,-0.019048432,-0.31120986,9.588939,0.21045043,-10.17003
11120000,0.298156,-0.022988299,-0.31297508,9.271961,0.15696432,-10.086056
11124000,0.3004541,-0.01765302,-0.31244016,9.145084,0.07117541,-10.021963
11128000,0.29738745,-0.018945334,-0.31602067,9.09925,-0.04820616,-10.042223
11136000,0.29258317,-0.021258818,-0.31182978,8.911329,-0.11833426,-9.895155
11140000,0.2936897,-0.022047773,-0.31712765,8.756614,-0.20546071,-10.001267
11144000,0.28954694,-0.029230542,-0.3130254,8.685082,-0.23009492,-10.041362
11148000,0.28889984,-0.029491732,-0.31087008,8.512,-0.3673134,-10.095978
11156000,0.29514587,-0.03845802,-0.31259346,8.459956,-0.3262516,-9.854415
11164000,0.29053602,-0.029920027,-0.30277425,8.082088,-0.5024388,-9.964037
11168000,0.29004365,-0.024058696,-0.2953574,8.078464,-0.47162947,-9.962358
11176000,0.27718046,-0.03766909,-0.29164165,8.076031,-0.38437542,-9.843771
11180000,0.27526775,-0.033916615,-0.2878864,7.625837,-0.5120886,-9.895117
11188000,0.2704152,-0.038892113,-0.28046796,7.733154,-0.48634198,-9.781531
11196000,0.27070943,-0.04168154,-0.2648826,7.4219394,-0.6689731,-9.80957
11204000,0.27129146,-0.037554342,-0.24613543,7.260203,-0.7052994,-9.67248
11212000,0.2694679,-0.025564497,-0.24387453,7.0784044,-0.7269396,-9.76296
11216000,0.2618777,-0.02131126,-0.23198795,6.996303,-0.7085377,-9.73032
11224000,0.2560602,-0.017668705,-0.21352464,6.8418174,-0.7627446,-9.674281
11228000,0.25633723,-0.017155774,-0.20908585,6.816611,-0.7475542,-9.656609
11232000,0.2591993,-0.019503154,-0.20018382,6.7122626,-0.80409634,-9.68097
11236000,0.25735807,-0.013663651,-0.18348792,6.6205406,-0.7670652,-9.681723
11240000,0.25342324,-0.00510684,-0.17351067,6.5281262,-0.7177313,-9.709922
11244000,0.24655642,0.003435767,-0.17302594,6.4854827,-0.71357566,-9.731703
11248000,0.2439127,0.006520542,-0.16456778,6.449996,-0.67713493,-9.699439
11256000,0.2467859,0.006194265,-0.13961622,6.473835,-0.68993944,-9.700165
11260000,0.23985156,0.0115633,-0.13347615,6.327517,-0.684275,-9.761657
11264000,0.23830855,0.011091917,-0.1261483,6.212321,-0.6852141,-9.729943
11268000,0.24345914,0.015342278,-0.115937814,6.20209,-0.5984311,-9.700023
11272000,0.24356565,0.019543406,-0.10691698,6.125191,-0.62901133,-9.750042
11276000,0.23584168,0.01863825,-0.09165818,6.138248,-0.6346334,-9.775807
11280000,0.2303794,0.025145208,-0.081001624,6.1449375,-0.54273385,-9.798875
11284000,0.23203439,0.032074388,-0.07026945,6.0440354,-0.53883046,-9.84404
11288000,0.2353096,0.031840764,-0.057182718,5.9567103,-0.54842395,-9.867064
11292000,0.2363365,0.03500114,-0.049872246,5.931005,-0.55653286,-9.868288
11296000,0.23713665,0.036079086,-0.04130514,5.9049377,-0.50117254,-9.803171
11300000,0.23298876,0.038924113,-0.029981907,5.85195,-0.42595905,-9.818242
11304000,0.23104334,0.043897502,-0.016135242,5.8675675,-0.48818007,-9.925925
11308000,0.23801677,0.048099577,-0.012608162,5.8492594,-0.5356371,-10.042235
11312000,0.23292194,0.050738525,-0.0046232,5.7365565,-0.47036573,-10.143181
11316000,0.22628057,0.049182523,0.008004393,5.6299615,-0.49548975,-10.151738
11320000,0.22771932,0.054172277,0.016509837,5.5084944,-0.503929,-10.145647
11328000,0.22044471,0.065811746,0.040437657,5.4791107,-0.44136298,-10.376192
11332000,0.22672546,0.06699702,0.052362,5.379159,-0.44772515,-10.442182
11336000,0.22304933,0.069474295,0.05988482,5.254952,-0.35867643,-10.539222
11340000,0.21679352,0.07492344,0.06804299,5.112674,-0.39412203,-10.652543
11344000,0.219408,0.08055445,0.079382375,5.0262084,-0.43313047,-10.64556
11348000,0.21609034,0.07967692,0.098499686,4.459359,-1.0808215,-11.169199
11352000,0.21561243,0.07463789,0.11807291,4.4501233,-1.0807852,-11.334354
11356000,0.2184985,0.07536701,0.12542741,4.9246373,-0.3813642,-10.859037
11360000,0.21734957,0.07991106,0.13957256,4.8183937,-0.36176008,-10.771882
11364000,0.21318552,0.08533513,0.14710377,4.7511077,-0.32857513,-10.882342
11368000,0.21352848,0.09601714,0.15007736,4.6100097,-0.2891499,-10.980705
11372000,0.21147561,0.10326861,0.15856889,4.6227474,-0.26469183,-11.067493
11376000,0.20736673,0.105976194,0.16274934,4.6074266,-0.243554,-11.146045
11384000,0.20724171,0.11292402,0.17495298,4.48046,-0.25344592,-11.304962
11392000,0.20260903,0.12917073,0.18728864,4.3794017,-0.259202,-11.379943
11396000,0.20552085,0.13963296,0.19867489,4.203922,-0.27926463,-11.523619
11400000,0.205257,0.14486313,0.19565105,4.201229,-0.19582695,-11.634417
11408000,0.194998,0.14008647,0.20334738,4.116212,-0.21079996,-11.889746
11412000,0.19379425,0.15023403,0.20197342,4.053594,-0.20764798,-11.976788
11420000,0.20446758,0.15345286,0.20735404,3.9397326,-0.2109772,-12.119869
11424000,0.20440915,0.1598197,0.21009663,3.9172823,-0.20586647,-12.253582
11428000,0.19875643,0.16675851,0.22078598,3.8817277,-0.16246103,-12.3008
11432000,0.19279125,0.17302719,0.22182007,3.8621674,-0.09920632,-12.335395
11440000,0.18007816,0.17776908,0.2260562,3.6301475,-0.07591079,-12.605228
11444000,0.18503374,0.17924456,0.23195718,3.5839617,-0.09309175,-12.6213045
11448000,0.18732132,0.18520615,0.2287351,3.6376462,-0.08360514,-12.736606
11452000,0.18087335,0.1838803,0.22531742,3.5922534,-0.06626782,-12.894425
11460000,0.17870605,0.19896664,0.22680125,3.395261,-0.09139266,-13.1232195
11464000,0.17368422,0.20007196,0.2259317,3.3439546,-0.045609318,-13.0817795
11468000,0.17598805,0.20422263,0.21528693,3.3465216,-0.04319381,-13.23532
11476000,0.17482823,0.20419651,0.21330795,3.2948527,-0.052090384,-13.3685665
11480000,0.1745002,0.2000233,0.21325874,3.2357562,-0.056127533,-13.460041
11484000,0.17235015,0.20123439,0.2069797,3.1874287,-0.008983345,-13.651926
11488000,0.167959,0.20207489,0.20411448,3.191467,-0.01429866,-13.7481985
11496000,0.16118275,0.21167552,0.2073853,3.0360458,0.03298785,-13.834559
11500000,0.16042197,0.21469916,0.19960572,2.9933455,0.024107046,-13.911075
11504000,0.15679236,0.21392411,0.19392984,2.9647067,0.08120301,-13.987936
11508000,0.15714811,0.21626037,0.19628306,2.895083,0.13520521,-14.0632105
11512000,0.15894976,0.2183909,0.18983674,2.830842,0.1552793,-14.058232
11520000,0.15720537,0.2198678,0.18179159,2.8180978,0.06273187,-14.229819
11524000,0.15512392,0.22349207,0.1745798,2.7020643,0.15326178,-14.331499
11528000,0.15749285,0.22231108,0.16827768,2.7138777,0.14495781,-14.36035
11536000,0.15932229,0.2232686,0.16054077,2.7026224,0.19245072,-14.428668
11540000,0.15029265,0.22240312,0.15041755,2.7193043,0.25400865,-14.472001
11548000,0.14961904,0.21714436,0.14435613,2.634508,0.25254345,-14.473749
11552000,0.15101685,0.21921404,0.1417794,2.5629632,0.23170719,-14.569269
11560000,0.14204088,0.2196267,0.12484522,2.3693404,0.14360566,-14.652594
11564000,0.13332906,0.2141502,0.12417833,2.4004064,0.14339818,-14.619069
11568000,0.13366675,0.21120438,0.119677946,2.388128,0.2204698,-14.648515
11576000,0.1288035,0.20811103,0.10303021,2.3775787,0.14072599,-14.799891
11580000,0.12858033,0.20400345,0.099532224,2.358731,0.13963716,-14.7255335
11588000,0.12627114,0.2078626,0.091050975,2.170341,0.10548075,-14.755096
11592000,0.12144943,0.21151324,0.08176041,2.1937935,0.17803578,-14.772522
11596000,0.11746942,0.20705605,0.077649206,2.2410152,0.16289172,-14.767226
11600000,0.120791815,0.202257,0.067936614,2.192092,0.13912901,-14.713567
11604000,0.12025046,0.20389804,0.06246172,2.1692915,0.13185059,-14.740637
11608000,0.11630443,0.20124622,0.064065605,2.1157904,0.14748353,-14.736409
11612000,0.11653122,0.19865404,0.05907054,2.094415,0.21136099,-14.733634
11616000,0.12288765,0.20227748,0.050984256,2.0607858,0.16172388,-14.727776
11620000,0.1203825,0.20038192,0.04899633,2.1204035,0.14582762,-14.693383
11624000,0.1159949,0.19386035,0.038472556,2.1449127,0.19338956,-14.784688
11628000,0.11295285,0.18807383,0.03189431,1.9836656,0.1606311,-14.772256
11636000,0.105264455,0.19412087,0.028715476,1.9649109,0.15503323,-14.61864
11640000,0.10287597,0.19253497,0.025733206,1.9780842,0.16874352,-14.602162
11648000,0.10584033,0.1779221,0.013278689,1.9174386,0.1776805,-14.643912
11652000,0.1027332,0.17561896,0.006758561,1.9011501,0.17549637,-14.573379
11660000,0.10036388,0.18385361,0.006753629,1.9639305,0.007788005,-14.506452
11664000,0.09879152,0.17934273,-0.002280732,1.905178,0.032918446,-14.429947
11672000,0.08747482,0.16992156,-0.01493091,1.7718738,0.008253975,-14.430105
11676000,0.08323231,0.16543418,-0.014720908,1.7135609,0.013790341,-14.396678
11680000,0.08291453,0.16661508,-0.012701001,1.7417557,-0.003449322,-14.325055
11684000,0.08929245,0.16143166,-0.01273148,1.8333094,0.001271192,-14.292301
11692000,0.090988785,0.16703022,-0.019427773,1.7781363,-0.03903999,-14.183522
11696000,0.089061856,0.16131435,-0.022953596,1.7174283,-0.07250221,-14.139508
11700000,0.0847172,0.1598837,-0.02759312,1.6843867,-0.03193073,-14.160697
11704000,0.08364068,0.15820037,-0.024803018,1.7070043,-0.010651467,-14.08582
11708000,0.08342717,0.15255259,-0.022616554,1.7622873,-0.0680403,-14.076873
11712000,0.08401117,0.15445538,-0.022365753,1.7348914,-0.074175715,-14.09795
11716000,0.08560735,0.14722455,-0.025085352,1.708464,-0.1403806,-13.993282
11720000,0.07857137,0.14638713,-0.028182203,1.6899003,-0.120265245,-13.8760195
11724000,0.07527945,0.15157261,-0.031127306,1.6332871,-0.06551139,-13.853038
11728000,0.07714491,0.14303893,-0.02663586,1.6756572,-0.1354343,-13.885284
11736000,0.077934705,0.1441157,-0.0220238,1.7164375,-0.10268741,-13.678695
11740000,0.07341478,0.14307372,-0.025093041,1.5950052,-0.1361446,-13.723023
11744000,0.07032618,0.14089154,-0.030852502,1.5361458,-0.24093713,-13.670149
11748000,0.06984519,0.14510849,-0.03321633,1.5580943,-0.22301018,-13.626755
11756000,0.076621614,0.128304,-0.027530693,1.5579592,-0.18901646,-13.625956
11760000,0.0733483,0.126305,-0.023320798,1.5561943,-0.1986053,-13.524593
11768000,0.070526995,0.13456957,-0.028340494,1.5020545,-0.23835486,-13.536301
11772000,0.07012353,0.1376942,-0.023108462,1.5091718,-0.21886207,-13.375515
11776000,0.06724119,0.13377614,-0.019853035,1.5117207,-0.24457426,-13.361626
11780000,0.06068992,0.13183917,-0.014771657,1.470509,-0.21810685,-13.457532
11784000,0.061284024,0.13841471,-0.009251005,1.5029626,-0.2622756,-13.472429
11788000,0.0695494,0.13933137,-0.012175929,1.5344903,-0.31922466,-13.399937
11792000,0.06354101,0.1378759,-0.016766213,1.4812683,-0.32133204,-13.312661
11796000,0.061585482,0.1325942,-0.019053461,1.4475825,-0.29477188,-13.271104
11804000,0.05783137,0.13210817,-0.005553699,1.3980639,-0.32550424,-13.238733
11812000,0.06047637,0.13298061,-0.000947878,1.4796154,-0.33103287,-13.183905
11816000,0.059687734,0.12912881,-0.000975807,1.4446766,-0.29569057,-13.213523
11820000,0.06313435,0.12867598,0.003050028,1.3311591,-0.35818526,-13.198144
11824000,0.06233497,0.13519451,0.004166082,1.2670312,-0.399529,-13.170666
11828000,0.058020025,0.13361812,0.008479933,1.3172938,-0.3338211,-13.080171
11832000,0.057333164,0.12960759,0.009878208,1.3473433,-0.30493915,-13.042508
11836000,0.050985888,0.12526073,0.01087043,1.3428507,-0.2816964,-13.034272
11844000,0.061205763,0.13338462,0.023548983,1.3561367,-0.34163684,-13.050132
11852000,0.054395497,0.12975997,0.023505393,1.2942792,-0.39877126,-12.940604
11860000,0.06331289,0.13355015,0.043258164,1.2819875,-0.37691364,-12.93721
11864000,0.058378965,0.13547646,0.04139102,1.2696608,-0.38895443,-12.961316
11868000,0.058018394,0.13418402,0.037942205,1.2258912,-0.3363102,-13.009252
11872000,0.059840623,0.1324292,0.0407641,1.2777995,-0.34619966,-12.947404
11876000,0.060026456,0.12850606,0.04526366,1.3474692,-0.38759667,-12.904751
11884000,0.054266624,0.13491511,0.048924547,1.2151728,-0.3676081,-13.043852
11892000,0.059670366,0.13592301,0.047157347,1.2046479,-0.4689121,-13.036298
11900000,0.049083672,0.13689525,0.05969809,1.2514315,-0.42538115,-12.847412
11908000,0.049160898,0.1338224,0.06978419,1.2144562,-0.49463677,-12.826974
11912000,0.05003949,0.13428944,0.062485345,1.1669999,-0.4123735,-12.911315
11916000,0.050651424,0.13221264,0.067906044,1.2176461,-0.33358997,-13.000854
11920000,0.04750591,0.1343565,0.07623595,1.2425033,-0.38664097,-12.9957485
11928000,0.0514808,0.13469918,0.078922726,1.1367613,-0.39504966,-12.925075
11932000,0.05167799,0.13506064,0.07867474,1.0961257,-0.4269171,-12.915103
11936000,0.053306036,0.13800386,0.08316655,1.1799808,-0.38044992,-12.955228
11940000,0.055394698,0.14425397,0.08500481,1.2239122,-0.4377599,-13.038573
11944000,0.05255275,0.14532179,0.0858043,1.1380422,-0.43589523,-13.03295
11948000,0.049441583,0.14626434,0.09164395,1.1023103,-0.38267618,-12.990902
11952000,0.05202516,0.15120715,0.08917952,1.0957997,-0.3987245,-13.01952
11956000,0.047182065,0.15142237,0.08927478,1.1269127,-0.32768306,-12.990587
11960000,0.047061108,0.15009955,0.0935967,1.0876762,-0.29143903,-12.987546
11964000,0.04877294,0.14918639,0.096816756,1.0587486,-0.34861553,-13.00536
11972000,0.040381145,0.1529166,0.10245012,1.0779898,-0.36988246,-13.14807
11976000,0.04151535,0.1570053,0.10596341,1.1089137,-0.41253302,-13.144284
11980000,0.04630613,0.15482967,0.10676522,1.1571472,-0.31964377,-13.094982
11984000,0.04221205,0.15009344,0.10797894,1.0199634,-0.2765805,-13.129295
11992000,0.049180232,0.15315324,0.10686037,1.0565859,-0.36852786,-13.134811
11996000,0.04037956,0.15935935,0.1028228,1.0514556,-0.32979158,-13.107399
12004000,0.0408628,0.15855259,0.10312225,1.046539,-0.28555417,-13.148102
12012000,0.04143136,0.1578619,0.11210597,0.98150074,-0.29197118,-13.267482
12016000,0.04393907,0.15530491,0.11233006,0.9753711,-0.35243198,-13.300888
12020000,0.046318293,0.16056657,0.108192824,1.0115176,-0.3510571,-13.29147
12024000,0.046886545,0.15882307,0.1044916,0.95940846,-0.33390918,-13.288208
12028000,0.049430598,0.1626938,0.10205463,0.87861043,-0.35304347,-13.246841
12032000,0.040227413,0.16237454,0.11059643,0.95613295,-0.3365747,-13.268104
12036000,0.04487844,0.15819182,0.11389932,1.0522996,-0.3807301,-13.35745
12040000,0.050030276,0.1588769,0.1091524,0.9976844,-0.3222222,-13.344151
12044000,0.041124783,0.15959956,0.10405794,0.9568747,-0.2798737,-13.256256
12052000,0.0419161,0.16423652,0.10822833,0.9713505,-0.30417514,-13.384463
12056000,0.041497942,0.16834767,0.110913076,0.935775,-0.30662993,-13.386666
12060000,0.041961025,0.16291618,0.108573504,0.96243787,-0.26124668,-13.378392
12064000,0.03672496,0.16513945,0.103941366,0.99587744,-0.29865122,-13.36851
12068000,0.032034516,0.16311981,0.09703167,0.90719485,-0.30119845,-13.400735
12072000,0.029434713,0.16462412,0.094770394,0.92908734,-0.29700315,-13.477527
12080000,0.029816944,0.16713671,0.10040768,0.95681316,-0.3298361,-13.380882
12084000,0.031329226,0.16476373,0.09896083,0.9518181,-0.28264254,-13.427827
12092000,0.03611566,0.17200485,0.09806375,0.88757485,-0.32494354,-13.483363
12096000,0.034955278,0.17183623,0.09890174,0.8473232,-0.24906498,-13.50584
12104000,0.03198296,0.17291896,0.088783175,0.9160693,-0.16880007,-13.549891
12112000,0.03224052,0.17348458,0.08526095,0.94802755,-0.33269024,-13.491172
12116000,0.03416693,0.16972746,0.091439255,0.9008898,-0.3333077,-13.506559
12120000,0.035253335,0.17004035,0.08993045,0.91179746,-0.33522913,-13.576198
12124000,0.033385742,0.17343828,0.08900231,0.9465247,-0.26821548,-13.592615
12128000,0.029339913,0.16892111,0.088820785,0.9332742,-0.26214802,-13.525625
12132000,0.02789318,0.16945508,0.07845181,0.9294806,-0.31391877,-13.516883
12136000,0.030773455,0.17166013,0.07708613,0.9028452,-0.293872,-13.54022
12140000,0.03165561,0.17051041,0.07547565,0.8934817,-0.26228932,-13.560609
12144000,0.024296995,0.17449023,0.070920154,0.89581215,-0.3429154,-13.59038
12148000,0.023163842,0.17197369,0.07842725,0.9104005,-0.38796648,-13.538486
12152000,0.024847763,0.16847235,0.07687214,0.87061006,-0.30279204,-13.528142
12156000,0.022672007,0.17176527,0.07123204,0.8950117,-0.25131494,-13.565835
12160000,0.018732784,0.16972256,0.072508305,1.0131758,-0.2855797,-13.600203
12164000,0.019763138,0.1681091,0.068390034,1.038505,-0.29995814,-13.595087
12168000,0.026900774,0.17284353,0.060757026,0.93651223,-0.30274698,-13.661833
12176000,0.027513197,0.16936333,0.05840617,0.8941134,-0.29823366,-13.598856
12180000,0.027867235,0.16674827,0.059905406,0.93841416,-0.2969075,-13.542797
12188000,0.020895265,0.17000444,0.06442876,0.87327546,-0.35492492,-13.6259985
12192000,0.023414569,0.16934349,0.059509743,0.87631947,-0.3746623,-13.578692
12196000,0.022497632,0.16594693,0.051384825,0.8246177,-0.39850712,-13.597178
12200000,0.026615135,0.16357565,0.047512487,0.7953508,-0.38160187,-13.562442
12204000,0.020896854,0.16342476,0.056997582,0.8897252,-0.3816959,-13.540746
12212000,0.016976528,0.16266997,0.04925183,0.87433666,-0.40880325,-13.541164
12220000,0.021516843,0.16870321,0.043411244,0.8347855,-0.4044017,-13.487384
12224000,0.014939597,0.16549355,0.04339237,0.87956434,-0.3520737,-13.498085
12228000,0.015713293,0.15784474,0.0424389,0.81602836,-0.34198204,-13.502247
12232000,0.023728026,0.16162758,0.048118636,0.8232566,-0.36438233,-13.436959
12236000,0.023246894,0.16643572,0.04618511,0.874702,-0.4274804,-13.427673
12240000,0.019797273,0.16536136,0.04311893,0.8682394,-0.4875618,-13.496828
12248000,0.015425948,0.15944599,0.032366592,0.8315473,-0.40934286,-13.465554
12256000,0.013646518,0.16470319,0.034903426,0.85443676,-0.47264728,-13.508735
12260000,0.013808586,0.15577483,0.034742195,0.8273188,-0.47653064,-13.404154
12264000,0.012477029,0.16065283,0.04023639,0.828433,-0.46843502,-13.418627
12268000,0.013001201,0.16177483,0.03982708,0.848158,-0.46687612,-13.459998
12272000,0.009148291,0.15595835,0.035089985,0.81804496,-0.405857,-13.469683
12276000,0.007916871,0.15491782,0.035061553,0.7694354,-0.34338778,-13.450439
12280000,0.012357279,0.15901203,0.037211657,0.751698,-0.39520898,-13.370494
12284000,0.017646128,0.16125019,0.036712807,0.7713064,-0.37022132,-13.321031
12288000,0.015352133,0.15969698,0.03758553,0.8640893,-0.36322498,-13.276838
12292000,0.01207686,0.15312345,0.037283182,0.9064206,-0.41208306,-13.2782545
12296000,0.011243184,0.14979406,0.034956757,0.84273577,-0.4663824,-13.325875
12300000,0.014496736,0.14909877,0.031231886,0.8132923,-0.50763935,-13.31832
12304000,0.018289723,0.14783017,0.03416102,0.8854413,-0.5300033,-13.288556
12308000,0.015123784,0.14543124,0.0391659,0.89034426,-0.4457992,-13.252305
12312000,0.015515785,0.14755729,0.04011033,0.79472095,-0.3726275,-13.24819
12320000,0.004985111,0.15159036,0.035955448,0.87141347,-0.5231069,-13.334964
12328000,0.013010969,0.15653001,0.03450251,0.8471706,-0.45833114,-13.369946
12336000,0.006762177,0.15369168,0.027067503,0.89554757,-0.4275057,-13.188998
12344000,0.00776053,0.14337479,0.03265173,0.9760698,-0.5272564,-13.321057
12348000,0.006754288,0.15006225,0.034129005,0.96286964,-0.49321586,-13.328507
12352000,0.006235998,0.15718625,0.037953325,0.9549634,-0.5089607,-13.267386
12360000,0.014419369,0.15480971,0.04101074,0.9386094,-0.4972076,-13.196213
12364000,0.008294832,0.156374,0.04027536,0.9483415,-0.46565136,-13.181184
12372000,0.005876512,0.14886646,0.038371857,0.9488413,-0.5184194,-13.182114
12376000,0.009187188,0.14675024,0.041972738,0.96367484,-0.55347055,-13.160821
12380000,0.008741626,0.14582427,0.042091563,0.99599385,-0.5456611,-13.148563
12388000,0.014115145,0.15555806,0.04183014,0.9575594,-0.47984877,-13.086717
12392000,0.012115623,0.15033996,0.044154625,0.9520303,-0.47713354,-13.09819
12396000,0.013751845,0.14775297,0.04281086,0.9035245,-0.5241979,-13.148154
12404000,0.00602971,0.15155378,0.05300328,0.90650904,-0.5194559,-13.136985
12408000,0.004332456,0.15161724,0.057182413,0.99330443,-0.52794975,-13.17386
12416000,0.009719164,0.15218575,0.051347155,0.96017617,-0.52323014,-13.16158
12424000,0.000993038,0.14699194,0.04619338,0.8798674,-0.57284236,-13.114353
12428000,0.004176952,0.15094629,0.05015473,0.95423895,-0.5515038,-13.08851
12432000,0.002983518,0.15347266,0.05065194,1.016542,-0.5432264,-13.130446
12436000,0.000897026,0.15750952,0.05864572,0.9973389,-0.49221376,-13.090723
12440000,0.00812764,0.14884022,0.060130488,0.92354035,-0.47271612,-13.049635
12444000,0.004165096,0.14514102,0.05317223,0.9386208,-0.6097676,-13.099071
12452000,0.004113255,0.15544689,0.05587711,1.0205599,-0.6386739,-13.086602
12456000,-0.000309666,0.15444072,0.05819547,1.0527148,-0.6460781,-13.138194
12464000,0.011759739,0.14841624,0.05209472,1.0334306,-0.5678612,-13.127547
12468000,0.009358516,0.15169989,0.051142145,1.0210991,-0.600955,-13.173767
12472000,0.005888582,0.1502773,0.056279313,0.9606483,-0.6373931,-13.126103
12476000,0.002523961,0.14785472,0.061880756,1.0282557,-0.5688425,-13.116781
12484000,0.00291134,0.1527894,0.0535609,1.0650833,-0.5891679,-13.137584
12488000,0.001849696,0.14992365,0.05561128,1.1074151,-0.56854594,-13.120347
12492000,0.003677387,0.15145873,0.058717098,1.1368392,-0.60042286,-13.163593
12496000,0.005785768,0.15357117,0.058297884,1.1368392,-0.60042286,-13.163593
12500000,0.001175836,0.15727201,0.06246539,1.0278231,-0.5688809,-13.202901
12508000,0.001399968,0.1529159,0.06031867,0.98152584,-0.6456137,-13.143756
12512000,0.004327421,0.15857287,0.060962006,1.0397274,-0.5961671,-13.104132
12520000,0.001140326,0.15830238,0.06678626,1.008819,-0.63300264,-13.152431
12524000,0.000996794,0.16079952,0.070916094,1.0451638,-0.6213775,-13.112433
12528000,-0.000807117,0.1600672,0.06898699,1.1067556,-0.6287637,-13.10086
12532000,-0.002347957,0.16209131,0.06540672,1.0175991,-0.65822583,-13.070079
12536000,-0.003394586,0.16100445,0.06791737,1.0094786,-0.6723582,-13.127882
12540000,0.003930464,0.15847003,0.071333595,0.9983211,-0.6311817,-13.1666
12544000,-0.002078458,0.1630305,0.06549678,0.9879135,-0.6134842,-13.119975
12552000,-0.001326284,0.1641699,0.065171346,1.0809195,-0.5951785,-13.196742
12560000,0.002009912,0.15739155,0.07102874,1.1027511,-0.5712839,-13.159629
12564000,-0.000783912,0.16121083,0.073184416,1.0635484,-0.554649,-13.134695
12568000,-0.007554992,0.16793852,0.06963957,1.0302633,-0.594358,-13.156732
12572000,-0.008077408,0.1662185,0.0708135,1.0160885,-0.6059296,-13.169581
12580000,-0.001737089,0.1607331,0.07597145,1.0734221,-0.596718,-13.175198
12584000,-0.001501143,0.16179718,0.071061626,1.0807195,-0.6280778,-13.216435
12592000,-0.002379899,0.1595439,0.06883429,1.1569725,-0.61352766,-13.246847
12596000,0.003801216,0.15694119,0.07353208,1.0646355,-0.6092975,-13.243747
12604000,-0.003878524,0.16561978,0.069456406,1.0555272,-0.49576297,-13.23811
12608000,-0.004962483,0.16755563,0.07264977,1.0713073,-0.6018464,-13.297071
12612000,-0.005474954,0.16849415,0.069256335,1.0366971,-0.6137946,-13.239224
12616000,-0.003238286,0.17004848,0.072029665,1.0259683,-0.5797401,-13.184991
12624000,-0.002653211,0.15998085,0.0697392,1.1149738,-0.6319857,-13.147737
12628000,-0.000491536,0.16447343,0.069276035,1.0977238,-0.5811252,-13.206671
12636000,-0.002074043,0.16390982,0.065172866,1.0062139,-0.61212116,-13.215472
12644000,-0.003477133,0.1651304,0.06332982,1.1310513,-0.5709963,-13.249475
12648000,0.003832232,0.16807507,0.064405024,1.1228855,-0.5830239,-13.285295
12652000,-0.001818789,0.1724859,0.06423987,1.0995731,-0.60336244,-13.247453
12656000,-0.010537228,0.16877298,0.06590804,1.0782512,-0.6428738,-13.183316
12664000,-0.002726377,0.17123687,0.06303243,1.1059384,-0.66108024,-13.281274
12668000,-0.000395649,0.17539859,0.060942583,1.0742174,-0.67660886,-13.207404
12672000,-0.005465039,0.1734944,0.060562164,1.1742241,-0.59778744,-13.221924
12680000,-0.008175805,0.17257656,0.05592207,1.1953772,-0.57956535,-13.389321
12684000,-0.01067466,0.16714855,0.055910014,1.2094443,-0.58223337,-13.310699
12688000,-0.009673075,0.17224167,0.05729924,1.1683283,-0.60966045,-13.342083
12692000,-0.010109551,0.17662494,0.058707282,1.122048,-0.5598325,-13.373418
12700000,-0.005049299,0.16849352,0.05894682,1.2020088,-0.587376,-13.289836
12704000,-0.001600922,0.16971646,0.060977504,1.2118404,-0.56983775,-13.327195
12708000,-0.00514346,0.17186606,0.06329594,1.2073402,-0.62928915,-13.406574
12712000,-0.008430381,0.17394528,0.06302208,1.1159841,-0.6579155,-13.368602
12716000,-0.009553502,0.17359167,0.061431225,1.1091739,-0.622335,-13.32553
12724000,-0.00320823,0.16741961,0.06538696,1.2081671,-0.661947,-13.308726
12728000,-0.00479919,0.16669872,0.05867035,1.2154835,-0.6526648,-13.31132
12731999,-0.01102313,0.17534187,0.05269321,1.188297,-0.6485727,-13.338444
12736000,-0.011220401,0.17330599,0.05882813,1.1832113,-0.6784295,-13.325251
12744000,-0.007938324,0.1736764,0.053423848,1.2484279,-0.52437603,-13.368048
12748000,-0.010137701,0.17491822,0.055467088,1.297626,-0.5726401,-13.346811
12751999,-0.009775927,0.17371419,0.054063782,1.2915428,-0.67129993,-13.325567
12756000,-0.009410574,0.17492875,0.058912754,1.225266,-0.67218876,-13.367911
12763999,-0.017746858,0.16677073,0.045628175,1.2925181,-0.6453291,-13.369293
12768000,-0.014468074,0.16769056,0.04570934,1.2732657,-0.6487932,-13.3550625
12772000,-0.012648801,0.16477807,0.048496738,1.2358794,-0.6465726,-13.407722
12776000,-0.016801517,0.16451801,0.045534953,1.284384,-0.71593136,-13.437966
12780000,-0.013530131,0.1704196,0.04810692,1.3013563,-0.7086405,-13.408869
12783999,-0.016804492,0.17686309,0.051356196,1.2317677,-0.69525963,-13.407121
12792000,-0.012892641,0.17520756,0.049855486,1.3192477,-0.63119304,-13.419089
12795999,-0.012459001,0.16434206,0.04473776,1.3046122,-0.6892732,-13.428614
12800000,-0.009371333,0.16722979,0.045639653,1.2693725,-0.6829908,-13.434697
12804000,-0.008167685,0.16899964,0.048562005,1.2610948,-0.5707157,-13.437482
12808000,-0.010871003,0.17040887,0.04306883,1.1987959,-0.6051733,-13.404229
12815999,-0.007911208,0.17012167,0.04784293,1.2811362,-0.68099415,-13.280537
12820000,-0.01220056,0.17536944,0.042382445,1.2779442,-0.69635963,-13.243824
12824000,-0.010739737,0.17324106,0.043970212,1.2411175,-0.663058,-13.309365
12827999,-0.005945446,0.17486525,0.04194504,1.310816,-0.6296928,-13.356273
12832000,-0.001310556,0.17290048,0.04561778,1.3519187,-0.6812667,-13.283509
12840000,-0.008316578,0.16581531,0.042553216,1.3302789,-0.6754731,-13.420721
12844000,-0.007335347,0.1688369,0.04322048,1.3285911,-0.63296556,-13.466864
12847999,-0.01823194,0.173095,0.05317692,1.4055092,-0.6175176,-13.457268
12852000,-0.019488871,0.173171,0.051465724,1.3929052,-0.67407656,-13.417041
12859999,-0.020979606,0.17657232,0.052967284,1.2541729,-0.7003088,-13.392017
12864000,-0.02242715,0.17452052,0.05175044,1.2717462,-0.7245704,-13.319353
12872000,-0.01963977,0.1706467,0.04811097,1.3915654,-0.76929665,-13.335073
12876000,-0.01760291,0.16809973,0.04981899,1.4370208,-0.7716887,-13.36759
12879999,-0.008532216,0.16795236,0.045414522,1.3833715,-0.70798683,-13.414966
12884000,-0.006417549,0.16494699,0.042410944,1.3646547,-0.7063781,-13.325531
12888000,-0.012234003,0.1687877,0.04523975,1.3837609,-0.73762107,-13.3181305
12896000,-0.017026892,0.16284265,0.035250597,1.3455732,-0.78826654,-13.336746
12900000,-0.017582556,0.1704695,0.03858874,1.3523777,-0.71080697,-13.4136095
12904000,-0.016963638,0.17371845,0.04460443,1.3567172,-0.69970995,-13.451241
12908000,-0.014207166,0.17482036,0.04019515,1.3843881,-0.7519839,-13.3701105
12911999,-0.018596876,0.18220678,0.039206833,1.440556,-0.6681668,-13.280406
12916000,-0.019093897,0.1774322,0.041793816,1.4412757,-0.68808854,-13.321342
12923999,-0.017109822,0.1679406,0.04217156,1.3795557,-0.76134896,-13.374279
12928000,-0.013965208,0.1691175,0.046988294,1.430278,-0.7115743,-13.47352
12936000,-0.013280266,0.17220838,0.03676569,1.4630617,-0.80232626,-13.346589
12940000,-0.016992964,0.17152941,0.04326688,1.4147449,-0.78379285,-13.379664
12943999,-0.018221913,0.17222759,0.045284607,1.4998415,-0.7845781,-13.368729
12948000,-0.013963238,0.17607224,0.04359277,1.4989978,-0.80619645,-13.311225
12955999,-0.021454124,0.16718897,0.04516908,1.4865084,-0.8311875,-13.378437
12960000,-0.022758024,0.17343777,0.04426075,1.4915048,-0.74402165,-13.409045
12964000,-0.018861338,0.1751607,0.043913454,1.4967613,-0.7484135,-13.334149
12968000,-0.01609135,0.17404631,0.04330469,1.4967197,-0.7769575,-13.350686
12972000,-0.014519616,0.17280531,0.04793157,1.4432976,-0.72784173,-13.355727
12980000,-0.01273873,0.1727577,0.048322905,1.5798798,-0.74223727,-13.43406
12984000,-0.006481156,0.1715162,0.05196549,1.5130271,-0.80035406,-13.382864
12987999,-0.01163902,0.17535914,0.053367414,1.4433969,-0.8030645,-13.380046
12992000,-0.024200616,0.17303158,0.053512014,1.5309509,-0.77025914,-13.406729
12996000,-0.025119243,0.16725889,0.05309689,1.5610945,-0.8048928,-13.353061
13000000,-0.0186526,0.16640474,0.05176701,1.5274763,-0.82093185,-13.426422
13004000,-0.017225632,0.16970308,0.04967027,1.505506,-0.836316,-13.415728
13007999,-0.015965493,0.16598852,0.049399767,1.4574339,-0.812875,-13.339968
13012000,-0.019509943,0.16528669,0.04962982,1.4785498,-0.80335367,-13.386934
13016000,-0.017682124,0.17007394,0.045286894,1.5267115,-0.78735787,-13.35729
13019999,-0.011713188,0.1692496,0.045296844,1.4844778,-0.77381593,-13.315866
13024000,-0.011535877,0.16434316,0.048573196,1.5053899,-0.786746,-13.367328
13028000,-0.015334297,0.15930495,0.05650128,1.52793,-0.8163134,-13.355791
13032000,-0.01857834,0.15577576,0.055287097,1.5234637,-0.84615636,-13.263329
13036000,-0.01694959,0.15396732,0.046910517,1.5318855,-0.7347041,-13.144259
13039999,-0.017302303,0.1489231,0.04859449,1.4747732,-0.79381406,-13.173286
13044000,-0.017104961,0.14599608,0.05145951,1.5497348,-0.88786715,-13.274176
13048000,-0.02038211,0.14809164,0.05323202,1.6203365,-0.88164,-13.265277
13051999,-0.019834291,0.14678995,0.04582838,1.5920908,-0.8346718,-13.265863
13056000,-0.014025886,0.14308544,0.042075995,1.6500548,-0.7721449,-13.231766
13064000,-0.014434919,0.1452283,0.051867295,1.5380865,-0.8330056,-13.180084
13068000,-0.01527371,0.14668807,0.05582272,1.5843111,-0.8550848,-13.18785
13076000,-0.018133204,0.1353175,0.049313903,1.6083324,-0.7771404,-13.1579685
13083999,-0.011817327,0.13346712,0.04525395,1.614735,-0.77890724,-13.10376
13088000,-0.012184357,0.13140792,0.047707282,1.6403775,-0.8171184,-13.093346
13096000,-0.001483807,0.123952635,0.047667537,1.6629331,-0.87442213,-12.898406
13100000,0.035334732,0.12837972,0.054650426,1.6842473,-0.8896172,-12.810501
13103999,0.07046174,0.12643732,0.05900466,1.6877074,-0.8583077,-12.919748
13108000,0.10763425,0.12440048,0.052257087,1.6757174,-0.75769466,-12.936114
13112000,0.14157605,0.12362552,0.055297703,1.6677864,-0.8175134,-12.856749
13115999,0.16765879,0.12164164,0.05878471,1.7131597,-0.92310005,-12.75717
13120000,0.20101108,0.12052299,0.06492973,1.7742243,-0.8170638,-12.665935
13124000,0.23129196,0.12400514,0.06521824,1.6885352,-0.8079038,-12.720198
13128000,0.25605363,0.12199021,0.06285568,1.6462259,-0.82053035,-12.759758
13132000,0.28268582,0.111305,0.067566164,1.7461594,-0.74021095,-12.63489
13135999,0.30746028,0.1140132,0.06495925,1.8002051,-0.7947192,-12.533624
13140000,0.3280576,0.12211793,0.06462408,1.7961895,-0.81213605,-12.539204
13144000,0.34814394,0.12257802,0.06829895,1.720992,-0.81841165,-12.567937
13147999,0.36807194,0.114055835,0.0665525,1.7194769,-0.81188196,-12.60122
13152000,0.3832497,0.11197949,0.07042614,1.7404745,-0.8022735,-12.53732
13156000,0.4012154,0.11950793,0.07331525,1.7671381,-0.857591,-12.461018
13164000,0.42472303,0.11885603,0.07539383,1.8434765,-0.8361288,-12.456866
13167999,0.44315872,0.1114902,0.0780247,1.8834162,-0.777177,-12.387512
13172000,0.45239115,0.11073397,0.08448388,1.7983813,-0.78190804,-12.325264
13176000,0.46454084,0.10585936,0.08406252,1.8034413,-0.8007727,-12.325013
13180000,0.4775122,0.10056891,0.086594805,1.8313605,-0.7936041,-12.251044
13184000,0.4859993,0.106314525,0.090041585,1.7575885,-0.7863307,-12.240544
13188000,0.49483165,0.11152771,0.0802373,1.8312954,-0.7519577,-12.26161
13196000,0.50416744,0.09995368,0.087703854,1.8243252,-0.83237064,-12.1751375
13199999,0.5137704,0.10449266,0.093220584,1.8677033,-0.7723079,-12.156941
13204000,0.5197537,0.103229515,0.09526097,1.8564892,-0.8181366,-12.135555
13208000,0.51960117,0.09840343,0.09296134,1.813412,-0.87510866,-12.078221
13212000,0.5211681,0.09964737,0.093665965,1.8235236,-0.8559403,-12.060214
13216000,0.5243044,0.10461376,0.10118645,1.8415824,-0.7678411,-12.021166
13224000,0.5311042,0.10487354,0.10555586,1.948804,-0.7598358,-11.904682
13231999,0.53949386,0.09713623,0.10557509,1.8635651,-0.7792363,-11.927088
13236000,0.53925073,0.09832829,0.107288815,1.8657366,-0.7048219,-11.944892
13240000,0.5437445,0.10781145,0.10742551,1.9141401,-0.7224883,-11.8686905
13244000,0.54128575,0.107798696,0.10602482,1.9249859,-0.6957756,-11.900257
13248000,0.53824335,0.10249841,0.10758389,1.844655,-0.72728443,-11.912553
13252000,0.5417205,0.09868692,0.11260383,1.8990048,-0.7800128,-11.877892
13256000,0.5484444,0.099034384,0.116063215,2.0135987,-0.714274,-11.774102
13260000,0.5483274,0.097937815,0.11586103,1.9767646,-0.66149306,-11.7156725
13263999,0.54269147,0.10127902,0.11648141,1.9138944,-0.6847157,-11.789349
13268000,0.5393992,0.102123,0.12133353,1.9673299,-0.7306837,-11.8036175
13276000,0.5362509,0.10187985,0.122276604,1.9664117,-0.71154386,-11.682372
13280000,0.5412785,0.10410948,0.122121125,1.9453645,-0.71308666,-11.63638
13283999,0.5427774,0.10919437,0.12302414,1.9364216,-0.7358689,-11.673589
13292000,0.5289732,0.10668952,0.12328703,1.9042283,-0.6872939,-11.682309
13295999,0.5219079,0.10165567,0.12640308,1.9357097,-0.6816078,-11.5977
13300000,0.5245927,0.103392586,0.12947759,1.9840379,-0.6309674,-11.652287
13304000,0.52649826,0.10433332,0.1314077,1.9554288,-0.6673801,-11.654684
13312000,0.52184266,0.105591096,0.13099691,1.961896,-0.7251287,-11.60472
13315999,0.51361907,0.10192408,0.1291755,1.9739215,-0.77157754,-11.6833935
13320000,0.50738376,0.10534457,0.12669875,2.014052,-0.76835024,-11.635159
13324000,0.51054335,0.108027935,0.13393798,2.082322,-0.7296854,-11.577849
13327999,0.50726914,0.10438446,0.13310465,2.0635903,-0.672797,-11.602241
13336000,0.4981907,0.10298319,0.13519421,1.9654003,-0.6353551,-11.568497
13340000,0.49951348,0.1088332,0.13160937,1.9753505,-0.70356685,-11.548451
13344000,0.49283648,0.10957066,0.13106722,1.951264,-0.72037745,-11.470818
13347999,0.49246278,0.10547896,0.13434014,1.9238157,-0.7356092,-11.490454
13352000,0.48982704,0.10355363,0.13115855,2.0035899,-0.74127984,-11.540848
13359999,0.4792744,0.11079558,0.1321106,2.0308707,-0.6075075,-11.528454
13364000,0.4779892,0.110150464,0.13480458,2.0311499,-0.55246174,-11.514249
13368000,0.47918943,0.11283689,0.13322127,2.028726,-0.55193806,-11.591383
13376000,0.47163722,0.114668086,0.13649689,1.977238,-0.6451097,-11.534838
13379999,0.46849877,0.11368465,0.13922879,2.0037448,-0.6766099,-11.468315
13384000,0.46039268,0.11964153,0.12918106,2.0340388,-0.622261,-11.465363
13388000,0.45862597,0.12046963,0.12471434,2.0589685,-0.6361044,-11.555751
13396000,0.45005956,0.11400435,0.13348855,2.0284097,-0.5596311,-11.548422
13400000,0.4464034,0.11610609,0.13551721,2.0193934,-0.5274168,-11.552401
13404000,0.4454888,0.12117049,0.13495441,2.032875,-0.63251853,-11.494096
13408000,0.44134113,0.11784607,0.13804293,2.1262913,-0.6367858,-11.477872
13411999,0.43848163,0.11661703,0.13768129,2.1257687,-0.6050624,-11.532047
13416000,0.43675312,0.11548196,0.12980054,2.0701618,-0.55292594,-11.498512
13420000,0.43119255,0.112755395,0.13456039,2.0442896,-0.532693,-11.428678
13428000,0.42349687,0.10610733,0.13136059,2.0832071,-0.56303674,-11.478506
13436000,0.41583875,0.12040748,0.12688637,2.1125226,-0.62062734,-11.482506
13440000,0.41574478,0.11649244,0.1318107,2.1186247,-0.629935,-11.483752
13443999,0.40554512,0.11560703,0.13655306,2.0806909,-0.6896813,-11.4774
13452000,0.40258673,0.11718153,0.13217409,2.082826,-0.6418942,-11.379778
13460000,0.39326707,0.11342849,0.13119008,2.052363,-0.63062924,-11.420588
13464000,0.38775787,0.117956504,0.12882689,2.024629,-0.6397648,-11.429045
13468000,0.38494053,0.11877645,0.13433068,2.095691,-0.64840573,-11.365038
13472000,0.3875753,0.119458154,0.13611497,2.0934453,-0.6219711,-11.344984
13475999,0.3816241,0.121243045,0.127656,2.0604115,-0.6045504,-11.437404
13480000,0.37472624,0.11563886,0.12634915,2.0452328,-0.6030701,-11.493069
13484000,0.3737884,0.10850237,0.12835167,2.0695481,-0.5978959,-11.397097
13488000,0.37229124,0.11051429,0.1270093,2.0864077,-0.5670529,-11.309206
13496000,0.36736014,0.11957315,0.13164754,2.1516325,-0.5710115,-11.447802
13500000,0.362906,0.1135339,0.124073006,2.1681628,-0.6230148,-11.323036
13504000,0.3554507,0.10969364,0.12395598,2.1782072,-0.6234234,-11.237712
13512000,0.34720707,0.11310437,0.13010043,2.1270158,-0.51772106,-11.373643
13516000,0.34636164,0.113462366,0.13580538,2.120362,-0.5815965,-11.320217
13520000,0.3492395,0.120468535,0.13062787,2.1826901,-0.6194954,-11.333671
13528000,0.33401477,0.114571854,0.12532194,2.1508174,-0.55241257,-11.334439
13532000,0.3306641,0.11159101,0.12461701,2.1043065,-0.58773184,-11.341288
13540000,0.31720743,0.11145907,0.13046403,2.2375846,-0.5992012,-11.279466
13548000,0.32582992,0.11140946,0.12790674,2.1685565,-0.63254243,-11.282751
13552000,0.31856582,0.11324771,0.12983957,2.1657352,-0.6370134,-11.28778
13556000,0.31511226,0.10745194,0.12993109,2.15729,-0.5677588,-11.229718
13564000,0.31487286,0.11251351,0.13369809,2.2164078,-0.6406779,-11.191402
13568000,0.30898017,0.11086518,0.13372195,2.2617033,-0.5992378,-11.135671
13576000,0.3005274,0.10896791,0.13466035,2.2214072,-0.53153825,-11.215637
13584000,0.2888235,0.1008835,0.1318938,2.1534202,-0.6149358,-11.222845
13588000,0.29258206,0.10184278,0.1298745,2.2186427,-0.58848315,-11.170821
13592000,0.28715417,0.10499492,0.1278419,2.2061625,-0.5745723,-11.096402
13596000,0.2862516,0.10927331,0.12924755,2.0916843,-0.6211414,-11.116024
13604000,0.28350568,0.10181898,0.13007283,2.2229123,-0.6084751,-11.110623
13612000,0.27552518,0.10625143,0.128531,2.160112,-0.7420375,-11.117088
13616000,0.27311102,0.11150098,0.1315202,2.1248798,-0.7487712,-11.06267
13624000,0.2669519,0.105663195,0.1374315,2.170142,-0.6337341,-11.031021
13632000,0.26349035,0.0965226,0.12912723,2.2068074,-0.5807512,-10.876462
13636000,0.26065543,0.096944086,0.13397339,2.262176,-0.6462841,-10.98515
13640000,0.25582725,0.10265511,0.13172771,2.2138069,-0.66751355,-11.030757
13648000,0.24809726,0.09760204,0.13384569,2.225899,-0.61959016,-11.010291
13652000,0.24616896,0.09995729,0.13212827,2.2485554,-0.67543054,-10.900973
13656000,0.24905047,0.10383283,0.13388757,2.215141,-0.6825943,-10.941941
13660000,0.24730305,0.10206396,0.13809782,2.1496186,-0.6917032,-10.9841585
13668000,0.2429089,0.104089655,0.13048834,2.2511008,-0.6693987,-10.797297
13672000,0.23813331,0.10191508,0.13378167,2.2042432,-0.75754446,-10.819135
13676000,0.23504138,0.09992232,0.13710348,2.192225,-0.67643666,-10.828792
13680000,0.23280662,0.10014238,0.13964687,2.1704102,-0.6634335,-10.808941
13688000,0.23107594,0.104919195,0.14402267,2.2914,-0.7053243,-10.799506
13692000,0.22502112,0.10194385,0.13940711,2.3292036,-0.7263537,-10.853449
13696000,0.22857136,0.090685904,0.14001104,2.2633762,-0.7087172,-10.88287
13704000,0.21879919,0.09807229,0.14595437,2.3221655,-0.6530989,-10.7134905
13708000,0.21646912,0.10814998,0.14940761,2.2983527,-0.6188197,-10.675475
13712000,0.21989855,0.0998463,0.15165596,2.2901924,-0.7200031,-10.696594
13716000,0.22010568,0.09032645,0.15155688,2.3141825,-0.7101799,-10.7232485
13720000,0.21293724,0.0942458,0.1476095,2.3452034,-0.6409206,-10.731391
13728000,0.21193482,0.0896383,0.1438314,2.3415906,-0.7155384,-10.616457
13732000,0.21116252,0.08508864,0.1436747,2.2581677,-0.7592888,-10.628866
13736000,0.20930387,0.08994977,0.14552656,2.3137999,-0.79438967,-10.665666
13740000,0.20279284,0.09731298,0.14971447,2.3856788,-0.75042814,-10.678779
13744000,0.19715458,0.095130146,0.15332097,2.3116107,-0.73392975,-10.653832
13748000,0.19645938,0.091306224,0.15417804,2.262528,-0.651198,-10.688014
13752000,0.19507772,0.08942385,0.15161131,2.285768,-0.6018573,-10.715941
13756000,0.19371492,0.09177515,0.15065505,2.2919796,-0.60617596,-10.679918
13760000,0.19560036,0.09790466,0.15436222,2.279138,-0.66686714,-10.6870985
13764000,0.19566871,0.094218664,0.15559712,2.252215,-0.6761111,-10.637681
13768000,0.18762611,0.09268104,0.15135823,2.1908865,-0.63286394,-10.578406
13772000,0.18607695,0.09621372,0.15096122,2.2351582,-0.68780625,-10.58798
13776000,0.18706961,0.09416153,0.15765184,2.3058724,-0.7251502,-10.562747
13780000,0.18276116,0.09708669,0.16415173,2.2366803,-0.7090379,-10.577937
13784000,0.18201154,0.10188056,0.15936455,2.2305512,-0.6600305,-10.635014
13788000,0.1824678,0.09396664,0.15676618,2.322153,-0.70450956,-10.58574
13792000,0.18045561,0.0911012,0.158133,2.3387628,-0.7151254,-10.511591
13796000,0.17697181,0.092631005,0.16174197,2.2941642,-0.6431122,-10.519022
13800000,0.1737093,0.09372082,0.16034602,2.257005,-0.7636569,-10.531167
13808000,0.17094187,0.09816574,0.16017218,2.3332279,-0.6663585,-10.548921
13812000,0.17274205,0.09766361,0.16673101,2.3221812,-0.7226492,-10.55115
13816000,0.17378315,0.09606745,0.16166,2.3446832,-0.74620956,-10.486012
13820000,0.17387451,0.09461571,0.15988989,2.3536017,-0.73153967,-10.439174
13824000,0.16884165,0.095204756,0.16524862,2.3143516,-0.71203756,-10.447747
13828000,0.15979701,0.090094894,0.16628529,2.3766975,-0.7333034,-10.453706
13836000,0.16172197,0.09675467,0.16272368,2.3901563,-0.8095519,-10.449949
13840000,0.15779302,0.09662456,0.16773145,2.35036,-0.76868796,-10.48117
13844000,0.15883255,0.10008846,0.16693774,2.2963583,-0.73785436,-10.453421
13852000,0.15273117,0.09448577,0.16722229,2.2852287,-0.8030207,-10.489093
13860000,0.15337008,0.09105819,0.16372915,2.3031783,-0.6785472,-10.437922
13864000,0.15368673,0.09038827,0.16070314,2.3835392,-0.7078448,-10.469068
13868000,0.15311371,0.08567127,0.16342613,2.3622,-0.7769565,-10.369364
13872000,0.15020587,0.08690716,0.16967052,2.3915029,-0.79416454,-10.306483
13876000,0.1445207,0.08262658,0.16741022,2.3571253,-0.77788097,-10.402261
