timestamp,control[0],control[1],control[2],control[3],control[4],output[2],output[3],output[4],output[5],output[6],output[7],indicated_airspeed_m_s,true_airspeed_m_s,air_temperature_celsius,indicated_airspeed_m_s.1,equivalent_airspeed_m_s,true_airspeed_m_s.1,equivalent_ground_minus_wind_m_s,true_ground_minus_wind_m_s,differential_pressure_raw_pa,differential_pressure_filtered_pa,temperature,gyro_bias[0],gyro_bias[1],gyro_bias[2],accel_bias[0],accel_bias[1],accel_bias[2],instance_count,seq_reached,seq_current,seq_total,item_changed_index,item_do_jump_remaining,valid,warning,finished,failure,stay_in_failsafe,flight_termination,item_do_jump_changed,execution_mode,nav_roll,nav_pitch,nav_bearing,target_bearing,xtrack_error,wp_dist,acceptance_radius,rollspeed_integ,pitchspeed_integ,yawspeed_integ,additional_integ1,x,y,z,temperature.1,pressure,temperature.2,gyro_rad[0],gyro_rad[1],gyro_rad[2],accelerometer_m_s2[0],accelerometer_m_s2[1],accelerometer_m_s2[2],x.1,y.1,z.1,temperature.3,altitude_sp,altitude_filtered,height_rate_setpoint,height_rate,airspeed_sp,airspeed_filtered,airspeed_derivative_sp,airspeed_derivative,throttle_integ,pitch_integ,baro_alt_meter,baro_temp_celcius,baro_pressure_pa,rho,xyz[0],xyz[1],xyz[2],xyz[0].1,xyz[1].1,xyz[2].1,roll_body,pitch_body,yaw_body,q_d[0],q_d[1],q_d[2],q_d[3],thrust_body[0],lat,lon,alt,vel_m_s,vel_n_m_s,vel_e_m_s,vel_d_m_s,cog_rad,ground_contact,maybe_landed,landed,ref_timestamp,ref_lat,ref_lon,x.2,y.2,z.2,vx,vy,vz,ax,ay,az,dist_bottom,roll,pitch,yaw,thrust_body[0].1,timestamp.1,isTakeoff,isClimbing,isDescending,isCruise,isLand
141502144.0,0.038902917,0.146045911,-0.13126718,0.2663731,0.0,1433.709142,1500.0,1266.0,1479.709142,1519.290858,1572.0,14.86242939,15.19034208,12.073486,14.83217643,14.88345598,15.21192292,14.77747131,15.10359947,135.4337677,135.4337677,12.07346258,-0.001043466,-0.005754193,-0.000232148,-0.236471577,0.191607203,-0.011416043999999998,2.0,7.057611522,8.057611522,11.0,0.0,0.0,1.0,0.0,0.0,0.0,0.0,0.0,0.0,0.0,0.491375867,0.08114486,-2.9024769260000003,-2.902476732,23.68505577,98.57755883,43.53985415,-0.004604607,0.085537265,-0.192623427,0.0,0.29860435,-0.04238447,-9.927537465,-5.32e+20,960.290652,12.07348278,0.337875269,0.027434891,0.175930618,0.28742206800000003,-0.147168222,-9.907144987,0.329309778,0.058355994,0.193983278,-4.75e+20,50.850456,50.97268133,-0.006111215,-0.15306963,15.33087765,15.56925309,-0.004767518,0.16993086300000002,-0.33842405299999995,97.40573407,450.5826498,12.073486,96028.70315,1.140979798,-0.16628547400000002,0.45635686,-0.8035022890000001,0.335414052,0.035017539,0.164272535,0.581613645,0.08029116,-2.907240695,0.100480095,0.071679778,-0.280034122,-0.952020807,0.268687428,398690816.1,327375962.1,451070.1494,15.22950185,-14.31498005,-5.241570124,0.047509499,3.492722831,0.0,0.0,0.0,764000.0,39.8714138,32.7364368,-261.0505375,98.224045,-50.95256831,-14.14065826,-5.573872175,0.106837068,1.011117785,-2.515679917,0.030057235,51.1227232,0.218651704,0.199548048,0.274338974,0.27427703,141502144.0,0.0,0.0,0.0,0.0,1.0
141603935.0,0.03352395585571142,0.15091168100801602,-0.12305770953707415,0.26886113234468934,0.0,1438.0380761523047,1500.0,1268.0380761523047,1482.9047740280564,1516.0952259719436,1575.0380761523047,14.864449521422847,15.192367588957916,12.073517,14.838767445070141,14.889901066272545,15.218497327174349,14.774840872905811,15.10089817496994,135.29607773166333,135.29607773166333,12.073498874629259,-0.0010401373066132266,-0.005751027286573147,-0.0002313672144288577,-0.2365562663727455,0.19167592124448898,-0.011317591066132265,2.0,7.0655121007955906,8.06551210079559,11.0,0.0,0.0,1.0,0.0,0.0,0.0,0.0,0.0,0.0,0.0,0.5252089250921844,0.08084571179358717,-2.904230651420842,-2.9042303926212427,22.044901314248495,96.93297853567134,43.551936345811626,-0.004746924669338678,0.08572921557114228,-0.1926355167274549,0.0,0.32854595085771543,-0.18373904418236472,-10.09685178721443,-5.32e+20,960.2736247190381,12.073516218557113,0.332477763503006,0.05099239157314629,0.19111939426853708,0.31351109746893785,-0.11589895618236473,-10.033150756713427,0.33225691963326653,0.0664455727995992,0.19273250849899798,-5.32e+20,50.850456,50.96728243601202,-0.005841305238476955,-0.11152943349699398,15.330986747314629,15.577769374689378,-0.004935665400801603,0.1279498557995992,-0.33852068712625255,97.43532714951904,450.6624120953908,12.073517,96027.80503933867,1.1409692203266533,-0.049734253070140275,0.2481740710921844,0.09731648380961921,0.3367608814448898,0.053952343555110215,0.18968975798797594,0.6055895048356713,0.08040290808617234,-2.910626179775551,0.09799127741883767,0.07243795903206413,-0.29154291236673346,-0.9487631530200401,0.2705022035911824,398690674.9294589,327375891.509018,451064.2238124248,15.234813520440882,-14.213729088036073,-5.510302782593186,0.04037295915631263,3.5115331209278557,0.0,0.0,0.0,764000.0,39.8714138,32.7364368,-262.6327703851704,97.5910252761523,-50.94635383825651,-14.024834010501003,-5.873223504561121,0.11274393098797596,1.2607760963667336,-2.8561596454689377,0.05161179694188376,51.116509797595185,0.2002307031963928,0.1624910201723447,0.3204774900360722,0.0,141603934.99599198,0.0,0.0,0.0,0.0,1.0
141705421.0,0.02944685998196393,0.157819887252505,-0.11811650025851703,0.27053491899799603,0.0,1440.235085519038,1500.0,1270.0761523046092,1484.6059803426854,1514.3940196573146,1578.1523046092184,14.886607875290581,15.215006664208417,12.073547,14.84535846014028,14.89634615254509,15.225071743587174,14.772210435811623,15.098196889178357,135.15838766332664,135.15838766332664,12.07353516002004,-0.0010368095370741485,-0.005747860649298597,-0.00023058742885771543,-0.23664095482164327,0.19174464048897796,-0.01121913713226453,2.0,7.073412678591182,8.073412678591183,11.0,0.0,0.0,1.0,0.0,0.0,0.0,0.0,0.0,0.0,0.0,0.5549583656893787,0.07894884262725452,-2.9067169991202406,-2.9067167217194387,20.425836677414832,95.32538131094188,43.56848272428858,-0.004863580124248497,0.08564335339478958,-0.1925356218777555,0.0,0.3561990373947896,-0.10022339643687375,-10.27382070238477,-5.32e+20,960.2833853549098,12.073548781482966,0.3313634857074148,0.0675993842244489,0.19729883256513026,0.20052461179759518,-0.08528524523046091,-10.203667561122245,0.31695832923847694,0.08012901209018035,0.20272419429058117,-5.32e+20,50.850456,50.96332989967936,-0.005643695641282565,-0.08446680740881764,15.33105219266533,15.573784107274548,-0.00485464717234469,0.09224082414028056,-0.3386137073166333,97.46330748182365,450.5779838168337,12.073547,96028.74192965931,1.1409803795931863,0.004550444863727468,0.49854685650501,0.21298337159919842,0.33632384621042083,0.07404810595190381,0.20346818258917837,0.6269225968396794,0.08037145724649299,-2.915411732430862,0.09495515814228457,0.07274153226252505,-0.30182268711823645,-0.9458281554529059,0.2731307157835671,398690533.8416833,327375820.18096197,451057.82332384767,15.240257658837676,-14.106702010961923,-5.787964792214429,0.030544910378757513,3.5310171908657315,0.0,0.0,0.0,764000.0,39.8714138,32.7364368,-264.1022309482966,96.96388034094188,-50.94098758771543,-13.894365278897796,-6.1911381590781565,0.11747697818036072,1.3563338367775553,-3.174911426,0.18262888503406813,51.111142587715435,0.1683716950501002,0.11561849940480962,0.37804193659519036,0.0002688288296593181,141705421.45891783,0.0,0.0,0.0,0.0,1.0
141811060.0,0.027193248468937874,0.16687955030661322,-0.11420859543086172,0.2735567117234469,0.0,1442.114228456914,1500.0,1273.114228456914,1486.4716204448898,1512.5283795551102,1583.114228456914,14.917034186272545,15.246172621963927,12.073578115370742,14.851949475210422,14.902791238817635,15.231646151523046,14.76958000757515,15.09549559490982,135.02069760641282,135.02069760641282,12.073571455030061,-0.0010334809198396795,-0.005744693973947897,-0.00022980675751503005,-0.23672564323246492,0.19181335873346692,-0.011120683312625251,2.0,7.081313256386774,8.081313256386773,11.0,0.0,0.0,1.0,0.0,0.0,0.0,0.0,0.0,0.0,0.0,0.5772326600340681,0.07412731044088176,-2.9105444261803606,-2.910544213579158,18.845377429979962,93.78548240527054,43.59320088643287,-0.004970332274549098,0.08564392388376754,-0.19249461959719438,0.0,0.35584772289178357,-0.04417902259919843,-10.341719199438877,-4.574108216432865e+20,960.2804423673347,12.073582199959919,0.32194748632865733,0.08316845444689379,0.1997382976993988,0.3261103548356714,-0.1071290000661323,-10.259445018577154,0.31028610421242486,0.09187057824448898,0.20836706381563128,-4.574108216432865e+20,50.850456,50.96179392951904,-0.005566883961923848,-0.08159328672745492,15.331044708997997,15.548911237054108,-0.004357325144288577,0.06701100021042083,-0.3387006884749499,97.48859321773547,450.5722199026052,12.073578115370742,96028.8384548497,1.1409814642945892,-0.09744172520440927,0.05536512106613284,0.3629187107434866,0.3295226013086172,0.09181138378757515,0.1972222548957916,0.6455589571482966,0.06837562584769538,-2.9206577450881768,0.09371633688777554,0.06716766773947895,-0.31150919994589177,-0.9432154497675351,0.18872320408216423,398690399.9739479,327375743.7214429,451050.388503006,15.250872973226453,-13.968643727334669,-6.122515660981964,0.051747035062124254,3.5547436550941884,0.0,0.0,0.0,764000.0,39.8714138,32.7364368,-265.6533653513026,96.25558884378758,-50.9361808559519,-13.733692798917836,-6.563330116276553,0.12648107581763526,1.5850086153346694,-3.4977370258537075,0.1122004003967936,51.106335855951905,0.14415633712024048,0.13384731556913831,0.39821433259919836,0.11493457250501007,141811060.18837675,0.0,0.0,0.0,0.0,1.0
141917918.0,0.020011289364729457,0.16319414584168335,-0.1043036303747495,0.16842518098196396,0.0,1447.6092184368738,1500.0,1167.8436873747496,1489.6953907815632,1509.3046092184368,1581.4790084268539,15.044649424088178,15.376344284328658,12.073612907935873,14.85854050028056,14.90923632509018,15.238220567174348,14.766949571623247,15.092794308356714,134.88300762665332,134.88300762665332,12.073607750040079,-0.0010301530741482965,-0.005741528146292585,-0.00022902685771543086,-0.23681033164328663,0.1918820769779559,-0.011022230264529058,2.0,7.089213835182365,8.089213835182365,11.0,0.0,0.0,1.0,0.0,0.0,0.0,0.0,0.0,0.0,0.0,0.5995069543787576,0.06930577825450902,-2.914371853240481,-2.9143717045911823,17.264918183306612,92.24558349188378,43.6179190401002,-0.005085884977955912,0.08604447721442886,-0.192667737753507,0.0,0.37731195823046093,-0.1718120074268537,-10.366526701082163,-1.1827695390781558e+20,960.3100640088177,12.073614891442885,0.31248292949899803,0.09642749223647294,0.2056065797274549,0.31468155062925846,-0.15911487983967934,-10.39253316260521,0.29361415081162323,0.11486033295190382,0.2313182685731463,-1.1827695390781558e+20,50.850456,50.959635129519036,-0.005458932519038075,-0.08613768356513025,15.330975967715432,15.52258329006012,-0.003832135599198397,0.0472979815991984,-0.33878393546693386,97.51084573765532,450.57873932785577,12.073612907935873,96028.7442945491,1.1409802955711423,-0.03199943765931861,-0.15565834077955912,0.6045891691142282,0.32157194006412826,0.1033763090981964,0.20419975391583167,0.656201138757515,0.019098076579158324,-2.925702356665331,0.09892788090581162,0.0437029551262525,-0.3193771012985972,-0.9414272202705412,0.0,398690266.1833667,327375665.88977957,451044.0,15.260747415470941,-13.823805837214428,-6.463883195657314,0.07074837776352705,3.579050892739479,0.0,0.0,0.0,764000.0,39.8714138,32.7364368,-267.1050545529058,95.5428876803006,-50.9297966503006,-13.555820743727455,-6.942894631513027,0.14301236218436875,1.898762619278557,-3.7232875803747496,0.19709562324048097,51.09995142699399,0.11861946687975952,0.22737768518036072,0.3684512294509018,0.2873882056312625,141917918.2024048,0.0,0.0,0.0,0.0,1.0
142035100.0,0.018554699793587176,0.13470408248296595,-0.08360770346893788,0.0,0.0,1457.3807615230462,1500.0,1000.0,1490.0,1509.0,1566.6719463426855,14.987374334288576,15.318016185651302,12.073674629559118,14.8651315153507,14.915681411362725,15.244794975871743,14.764319134529059,15.090093012945891,134.74531755831663,134.74531755831663,12.0736440450501,-0.0010268243426853707,-0.0057383616232464935,-0.0002282470721442886,-0.23689502086372746,0.19195079522244488,-0.010923776521042084,2.0,7.097114412977955,8.097114412977957,11.0,0.0,0.0,1.0,0.0,0.0,0.0,0.0,0.0,0.0,0.0,0.621781249533066,0.06448424606813627,-2.9181992803006014,-2.918199196488978,15.684458936633268,90.70568457735472,43.642637200721445,-0.0052301152024048095,0.08637976168336674,-0.19271497607414828,0.0,0.347737608016032,-0.22123586272945892,-10.525741380080161,-5.32e+20,960.2784801529058,12.073657586973948,0.2964562209378757,0.10624151133466934,0.22899239556513026,0.4246337321783568,-0.18839989441883762,-10.373138572244487,0.28035827911823646,0.12931213044889778,0.2618953245971944,-5.32e+20,50.850456,50.9568648193988,-0.005320408398797595,-0.09796500820641282,15.330847074048096,15.494826737575151,-0.0032795854989979964,0.033001376498998,-0.33886351483366733,97.53012023456914,450.55004696513026,12.073674629559118,96029.11362701403,1.1409846985190382,-0.36674439584769547,0.21615605529859766,0.29709178552104193,0.2995025232224449,0.12117978615631263,0.2333605343026052,0.6604105322705411,-0.018638433342685383,-2.932234342452906,0.10184357958517035,0.025110024218436867,-0.3233696193466934,-0.9404381136232465,0.061717070472945806,398690132.3042084,327375579.81222445,451044.0,15.266059299338679,-13.637899689018035,-6.846319582821644,0.07605999720440881,3.6068624261743487,0.0,0.0,0.0,764000.0,39.8714138,32.7364368,-268.5963153981964,94.75774296577154,-50.920433691302605,-13.338960974468938,-7.366070797064128,0.16519753448296595,2.310089024306613,-3.960205005783567,0.2267071012204409,51.09058799793588,0.1019193939719439,0.2795869821523046,0.35502907938276557,0.381113203006012,142035099.9799599,0.0,0.0,0.0,0.0,1.0
142137068.0,0.014066373226452902,0.1310681134168337,-0.07342124175551104,0.07995279062124261,0.0,1463.5430861723446,1500.0,1069.5090180360721,1492.1161251062124,1506.8838748937876,1563.674670741483,14.94095409501002,15.270412055390782,12.07373996757515,14.871722530420842,14.92212649763527,15.251369390761523,14.761688697434868,15.087391719819639,134.60762751282564,134.60762751282564,12.073680337775551,-0.0010234958396793587,-0.005735194947895792,-0.0002274662865731463,-0.23697970946492986,0.19201951346693388,-0.010825322625250502,2.0,7.1050149907735465,8.105014990773547,11.0,0.0,0.0,1.0,0.0,0.0,0.0,0.0,0.0,0.0,0.0,0.6440555438396793,0.05966271411022044,-2.9220267073607213,-2.9220266883867736,14.103999682244488,89.16578566282566,43.66735536286573,-0.005435720112224449,0.08646627982965932,-0.19245380073947896,0.0,-0.23605776360721525,-0.209102115252505,-10.761864055751502,-5.32e+20,960.2790778579158,12.07373541769539,0.27920909912825653,0.12619134450701402,0.26173674160521043,0.3603687967855712,-0.23355429061122235,-10.48757745210421,0.260901505254509,0.14211808443887777,0.30727904548897794,-5.32e+20,50.850456,50.95257400014028,-0.005105866963927856,-0.10588578176753508,15.330835983006013,15.455198354629259,-0.0024872416953907813,0.027991639358717436,-0.338923934252505,97.54155282200401,450.38651518957903,12.07373996757515,96030.99910581163,1.1410071000741482,-0.4547522642965932,0.3955944227194379,0.16790822646092152,0.2810668559879759,0.13780025140280563,0.2634211252144289,0.6617417034689379,0.011849794284569148,-2.940149137286573,0.09318166856913827,0.03824073467735471,-0.3226511209358718,-0.9411407232024048,0.23917117399599203,398689998.9849699,327375490.7436874,451040.43380340684,15.254911781462926,-13.420446211142286,-7.2411006323206415,0.086858084997996,3.636469419701403,0.0,0.0,0.0,764000.0,39.8714138,32.7364368,-270.0167401641283,93.94854173354709,-50.90782338428858,-13.037137660521042,-7.77789014477555,0.19258888791182366,3.3089994009198405,-3.766676195256513,0.322228210470942,51.077977994328656,0.0786478506272545,0.31019664000400804,0.35174496744689376,0.4423175325450902,142137068.0300601,0.0,0.0,0.0,0.0,1.0
142245617.0,0.005709065088176353,0.17758511544088176,-0.08653052853907815,0.2618936066733467,0.0,1456.4225954468939,1500.0,1245.4947353066132,1495.749544513026,1503.250455486974,1587.0822098436872,14.746168223627254,15.071475868436874,12.073839071462926,14.878313545490983,14.928571583907816,15.25794380022044,14.759058260340682,15.084690432124248,134.46993752164326,134.46993752164326,12.073716632404809,-0.001020167879759519,-0.005732029006012024,-0.00022668650100200402,-0.2370643978757515,0.19208823271142286,-0.010726869462925852,2.0,7.112915568835672,8.112915568835671,11.0,0.0,0.0,1.0,0.0,0.0,0.0,0.0,0.0,0.0,0.0,0.6539262006312625,0.05621563551102203,-2.9282769798537074,-2.9282769798537074,12.56360691254509,87.65304166811623,43.578247651082165,-0.005696963332665331,0.08631025871943888,-0.1921048130961924,0.0,-1.2845257324088177,0.006215785575150352,-10.786713273126253,-5.32e+20,960.2963229507014,12.073834448977955,0.2684724573667335,0.14440617036072145,0.2997799995611222,0.09607849287975917,-0.12303790659919837,-10.685202165250502,0.22472082275951905,0.13259766867134268,0.3506046261142285,-5.32e+20,50.850456,50.94740893350701,-0.004847618208416834,-0.11155912094589178,15.33089262553106,15.408782044829659,-0.0015577826793587172,0.028335179731462927,-0.3389732888476954,97.5484548309018,450.5390053731463,12.073839071462926,96029.21603805611,1.140985890509018,-0.4654374608096191,-0.20909094883967938,0.7287350208176353,0.2723322544789579,0.15695639266533065,0.2975869225791583,0.6646214387855711,0.032456774458917835,-2.9481985535751503,0.08598193799599198,0.046758577621242484,-0.3231812243747495,-0.941259742482966,0.3555879516092184,398689867.25911826,327375393.0176353,451026.62362064124,15.196484230040081,-13.112372286332665,-7.671342019440882,0.11341618216432867,3.67123391548497,0.0,0.0,0.0,764000.0,39.8714138,32.7364368,-271.42299420320643,93.08356512258517,-50.89117282238477,-12.607883452044089,-8.166259406428857,0.24557811047094188,4.148331712086172,-3.5425067911543087,0.6837425926492986,51.06132776162325,0.05031881261122244,0.32298673818637275,0.35456489168737476,0.44508273226452905,142245616.83967936,0.0,0.0,0.0,0.0,1.0
142351256.0,0.0014968377915831686,0.2002936258737475,-0.09071066568336673,0.3613027357915832,0.0,1454.0,1500.0,1360.7875751503007,1498.9991323927854,1500.0008676072146,1599.6092184368738,14.579117932925852,14.900687393987976,12.073962558977955,14.884904563607215,14.93501667018036,15.264518214348698,14.756427823246494,15.081989136713426,134.33224745330662,134.33224745330662,12.073752927034068,-0.0010168394529058114,-0.005728862597194389,-0.00022590602004008017,-0.23714908628657316,0.19215695095591184,-0.010628415833667334,2.0,7.12081614736473,8.12081614736473,11.0,0.0,0.0,1.0,0.0,0.0,0.0,0.0,0.0,0.0,0.0,0.658609932026052,0.05334332286973948,-2.9355404318517033,-2.9355404318517033,11.039969050240481,86.1516532519439,43.44154048266533,-0.005995888695390782,0.08601634960521042,-0.19198523953306612,0.0,-1.1834629366593186,0.13814702908617238,-10.400834803326653,-5.32e+20,960.2981924791583,12.073967424248497,0.22151469961723447,0.1340060056452906,0.3587548605511022,-1.3533796391563127,-0.0008310313186372775,-10.735409651963929,0.19863393858316633,0.10327070575751504,0.3948505127234469,-5.32e+20,50.850456,50.94253507496994,-0.004603896593186373,-0.11739640496593186,15.330927682004008,15.381701370701403,-0.001015469739478958,0.033029736821643285,-0.3390047975811623,97.54708293803608,450.5327291286573,12.073962558977955,96029.28158773547,1.1409866903507015,-0.31332587232865694,-0.2633509163466937,0.5597973397174352,0.2277769495731463,0.1542249157775551,0.3491399775871743,0.6718816331122244,0.046212704312625245,-2.9574290901322646,0.07920431709218438,0.052024784769539076,-0.32616776109018036,-0.9405493465470942,0.4276592538316633,398689739.93747497,327375293.11282563,451008.2252432866,15.104144034288577,-12.758416673446893,-8.08163476811022,0.17588168177154306,3.7066947163947894,0.0,0.0,0.0,764000.0,39.8714138,32.7364368,-272.7736323853708,92.17905682693386,-50.86581374937876,-12.172168085390782,-8.558827348935871,0.3453222371482966,3.8005614816352704,-3.8046389921803607,1.1214587223867734,51.03596864310621,0.005300144757515039,0.33018704653707415,0.35995450840881765,0.44143791665931864,142351255.53106213,0.0,0.0,0.0,0.0,1.0
142458265.0,-0.010272440795591177,0.20974742392785573,-0.08892460343486974,0.42884099458917835,0.0,1455.3426853707415,1500.0,1434.9654582765531,1505.206067783567,1493.793932216433,1605.1780116713426,14.543780845811623,14.864549343527054,12.074176848136272,14.897315565490981,14.947312303847696,15.277069917575151,14.760128998416834,15.085756839839679,134.33223270621244,134.33223270621244,12.073799810921845,-0.0010135069619238476,-0.005725692152304609,-0.00022507898196392787,-0.237236716993988,0.1922287715310621,-0.010526822226452907,2.0,7.128716725160321,8.12871672516032,11.0,0.0,0.0,1.0,0.0,0.0,0.0,0.0,0.0,0.0,0.0,0.6632936631543086,0.05047101022845692,-2.9428038842404813,-2.9428038842404813,9.516331194557115,84.65026483186372,43.3048333142485,-0.0063161227354709415,0.08559208213226453,-0.19246910411422846,0.0,-0.17627974261322726,0.09148327749899798,-10.034311842985971,-1.9488977955911854e+20,960.3015306851703,12.07417108296593,0.19431203610621242,0.09612118767334672,0.40146174180360716,-1.28806018454509,0.08289310865731463,-10.417427555330661,0.1810246013987976,0.12250905858517032,0.3908968183146293,-1.9488977955911854e+20,50.850456,50.93764049278557,-0.004359131254509018,-0.12381973238677355,15.330954944368736,15.360790335631263,-0.0005967064308617237,0.0390184220260521,-0.33903062462725453,97.54307151783567,450.42832968998,12.074176848136272,96030.49458721442,1.1410011825370743,0.19766236985170427,1.1921534407254517,-0.17521859247695334,0.19509083607214434,0.10896574389979961,0.4021994123246493,0.6744642101983968,0.05635208028256513,-2.9673315656172345,0.07279924597394791,0.05526544994589178,-0.3271768517835671,-0.9405311987034068,0.4449878030941884,398689619.86392784,327375189.51442885,450982.1982486974,14.95541869232465,-12.328175498877757,-8.458759747841682,0.2980489174929859,3.7433132329118237,0.0,0.0,0.0,764000.0,39.8714138,32.7364368,-274.0723730482966,91.23838092430861,-50.82845704338677,-11.810263640701402,-9.006843226741484,0.47356322084569136,2.888885363757516,-4.716111018963927,1.1719275563627256,50.998611676753505,-0.049644238861723436,0.3245083895470942,0.3479350733987976,0.43318633126252504,142458265.30661324,0.0,0.0,0.0,0.0,1.0
142562533.0,-0.02134031557915831,0.21284459538877756,-0.08523973024248498,0.4451354818236473,0.0,1457.3807615230462,1500.0,1444.8347163727456,1511.330567254509,1487.669432745491,1605.7845221042085,14.56557311509018,14.886766151843688,12.07446711957916,15.001782976352706,15.052147810440882,15.384166289498998,14.863979108376753,15.19184661777555,136.50986989378757,136.50986989378757,12.074014274589178,-0.0010101054048096193,-0.005722464488977955,-0.00022350820040080161,-0.23737088907014028,0.1923496605490982,-0.010375557316633267,2.0,7.136617303336673,8.136617303336672,11.0,0.0,0.0,1.0,0.0,0.0,0.0,0.0,0.0,0.0,0.0,0.6679773942825651,0.04759869758717435,-2.9500673363146293,-2.9500673363146293,7.992693334396796,83.14887641492986,43.168126145831664,-0.006642503855711422,0.08500252850501001,-0.19371435830460923,0.0,1.409907894817634,0.08970963013627256,-10.478152165831663,-3.8134468937875705e+20,960.3065513565131,12.074446057014027,0.17767365073547095,0.12238208329859712,0.39103969358316637,-0.336800765637276,0.15836023777755515,-10.03176797747495,0.17322133916432866,0.20304944511422837,0.3595948684408818,-3.8134468937875705e+20,50.850456,50.930361363947895,-0.003995190933867736,-0.14171173754108216,15.330959,15.343271796633266,-0.0002462554088176355,0.043751404975951896,-0.33905361415831664,97.5376195607014,450.4256670130261,12.07446711957916,96030.52809981964,1.141001526511022,-0.38550058523046193,1.1604309918597187,-0.02742727860921787,0.17852556511222448,0.12736564664729452,0.39661935377955915,0.6656320087795592,0.06433718089378757,-2.980416612398798,0.0655701686232465,0.05658609764328657,-0.3230299748937876,-0.9424165598957915,0.4423208606252505,398689501.89298594,327375079.6549098,450945.9607935872,14.927125440821644,-11.963386690721444,-8.91442757072545,0.39403521179158313,3.7818052322464926,0.0,0.0,0.0,764000.0,39.8714138,32.7364368,-275.3618342432866,90.22092690322646,-50.77663694012024,-11.535555125490982,-9.596080388519038,0.5733808454068136,2.337152632685371,-6.010956514757515,0.6765529926993993,50.9467912230461,-0.11981244111422842,0.30075158101402805,0.3118483199418838,0.4202782373747495,142562533.2945892,0.0,0.0,0.0,0.0,1.0
142660173.0,-0.03506894505611223,0.21293015623046094,-0.08185042793587174,0.4425683815230461,0.0,1459.0,1500.0,1441.743486973948,1517.0,1482.0,1606.1623246492986,14.86270051468938,15.190403474148297,12.074845947054108,15.119027853987976,15.16982788248497,15.504385498637275,14.98172992721443,15.312138736553106,138.98976602505007,138.98976602505007,12.074251994048096,-0.001006693645290581,-0.005719229937875751,-0.00022183422044088177,-0.2375115205771543,0.1924773604228457,-0.010217398729458918,2.0,7.144517881751503,8.144517881751502,11.0,0.0,0.0,1.0,0.0,0.0,0.0,0.0,0.0,0.0,0.0,0.6703996800721443,0.045793566845691386,-2.9579083636873746,-2.9579083636873746,6.495822399679359,81.66348878430861,43.12569089599199,-0.006976949919839679,0.08425777760320641,-0.1955000830220441,0.0,2.8417147676913825,0.10171037373747495,-11.31821343751503,-5.32e+20,960.3058626697394,12.07479244486974,0.16795131556112225,0.20854093685771544,0.3549760878657314,1.451269745270541,0.07110186090581161,-10.480157343266532,0.17720759895991983,0.2956692738837675,0.33142487436272544,-5.32e+20,50.83718831142285,50.922234499939876,-0.10053030340480963,-0.16239576978757517,15.330957203186372,15.326159070941884,9.596941883767535e-05,0.03266452481563126,-0.3303157729719439,97.53061961112225,450.29116298957916,12.074845947054108,96032.06994881763,1.1410198146713426,-0.04191776954709419,0.26245566137875753,-0.2745910663466934,0.16791090176953907,0.21403779785971944,0.3559774885390781,0.6483822995250501,0.07107808437274549,-2.994010751713427,0.058551779519038075,0.05706273117835672,-0.31499065433667334,-0.9455614561663327,0.4338437078557114,398689386.1422846,327374963.35851705,450899.21851482964,15.022734061903808,-11.665936006793586,-9.450901133997995,0.46308626437074146,3.8222246909899797,0.0,0.0,0.0,764000.0,39.8714138,32.7364368,-276.58503783486975,89.16877859543087,-50.71949130382765,-11.298101421362725,-10.293757032084168,0.5993087689659319,2.4656516841062124,-7.105740859545091,-0.12418547622645294,50.889645308016036,-0.19213783221242486,0.27217145021242484,0.27534946836873747,0.4083575998997996,142660172.60521042,0.0,0.0,0.0,0.0,1.0
142769811.0,-0.04535553076152306,0.20833021471543084,-0.08266295734068137,0.4342014716072144,0.0,1457.0,1500.0,1432.629258517034,1523.0,1476.0,1603.0861723446894,15.135467303907816,15.469259843086173,12.075226478557113,15.236272736192385,15.287507959098198,15.624604709398797,15.099480756052104,15.4324308598998,141.4696622182365,141.4696622182365,12.074489713507013,-0.0010032823426853706,-0.005715994386773547,-0.00022016024048096192,-0.23765215154108218,0.19260506045891784,-0.010059239523046092,2.0,7.1524184595470945,8.152418459547095,11.0,0.0,0.0,1.0,0.0,0.0,0.0,0.0,0.0,0.0,0.0,0.6543572847715431,0.05270197322645291,-2.9704652835791587,-2.9704652835791587,5.2175031648997985,80.30874747649298,43.85298495448898,-0.007328806440881764,0.08332161270741482,-0.197529717246493,0.0,3.2258281735571144,-0.018839157342685476,-12.459839258436874,-5.32e+20,960.3099609132264,12.075156339258516,0.17915548735270542,0.2825196950060121,0.321783758509018,2.7000893418617244,0.10134162370741467,-11.350746521102206,0.18072104020641283,0.3407529177094189,0.32001673493386773,-5.32e+20,50.700489795831665,50.91009824577154,-1.0987220138877765,-0.19040660782364732,15.330938710921844,15.307305669178357,0.0004726587434869743,-0.12355459564529073,-0.24007954430260514,97.51156081354709,450.3167511779559,12.075226478557113,96031.76478931864,1.1410162356733466,-0.7631011075070155,0.7822660798236467,-0.21946922402605193,0.17804973436272542,0.30248177930060133,0.3192399238677355,0.6174740024889779,0.07667597084368738,-3.0102195919058117,0.05086841763126252,0.056372194292585165,-0.30057852479158315,-0.950721776735471,0.4226258595651302,398689272.2941884,327374835.71302605,450845.66949318635,15.254479340541083,-11.374967983446894,-10.142958715450902,0.4867586525370741,3.8687539339418837,0.0,0.0,0.0,764000.0,39.8714138,32.7364368,-277.8282377476954,87.98674158537074,-50.66194049639279,-10.978461747374748,-11.090466170821644,0.5412598643226452,3.4203457230360734,-7.329395957212425,-0.8014548085150306,50.83209527579158,-0.2884417148316634,0.2282924069158316,0.23258894804408814,0.39691984286973947,142769811.2965932,0.0,0.0,0.0,0.0,1.0
142881390.0,-0.05890772023046092,0.19666016611022047,-0.0937480723507014,0.42279439527855717,0.0,1452.0100200400802,1500.0,1420.5250501002004,1529.4214003567133,1469.5785996432867,1597.5150300601204,15.452594056813627,15.793278674889779,12.075554703486974,15.353517614208418,15.405188036573147,15.744823919298598,15.21723157488978,15.552722984108216,143.94955841142286,143.94955841142286,12.074727432965933,-0.000999871126252505,-0.005712758835671342,-0.0002184862605210421,-0.23779278308617235,0.19273275991382766,-0.009901080316633266,2.0,7.160319037342687,8.160319037342685,11.0,0.0,0.0,1.0,0.0,0.0,0.0,0.0,0.0,0.0,0.0,0.637292430747495,0.06009288132865732,-2.983283341044088,-2.983283341044088,3.9512859595631267,78.96124053703407,44.62290181819639,-0.007667129328657314,0.08226686528657315,-0.1995483798977956,0.0,3.043750445448898,-0.02116593285170345,-13.268714514248497,-5.32e+20,960.3265422392785,12.075539938416833,0.17569031489178358,0.34075210898997993,0.31925460764529057,3.2988260159038076,-0.0011132034929861104,-12.316582419018035,0.15566195941482966,0.3715819336492986,0.3517034476232465,-5.32e+20,50.551243240841686,50.895887551102206,-1.9025953092364731,-0.2291768240661322,15.330910067294589,15.274229631002004,0.001133604923847694,-0.29289762831663313,-0.15890644144689378,97.48337165519038,450.2333706767535,12.075554703486974,96032.7067613026,1.1410274134428857,-0.5275552771783576,0.2590370826052105,0.6564064994989978,0.1795438164468938,0.3544637052344689,0.322640107250501,0.5753841526312626,0.08094841704208416,-3.0239545900480964,0.04486042488376754,0.055407284919839685,-0.28073238243687376,-0.9571197561282565,0.41141109379959917,398689159.68537074,327374700.7224449,450787.7727759519,15.573177038136272,-11.088140530400802,-10.934390009238477,0.481447044248497,3.919185582853707,0.0,0.0,0.0,764000.0,39.8714138,32.7364368,-278.97693431382766,86.77676215539078,-50.61646531865731,-10.55755473470942,-11.859939935531063,0.4264321318416835,4.557635152476953,-7.229821707927856,-1.2492824277034065,50.78661860511022,-0.3799272642945892,0.17732239278557116,0.193265713749499,0.3854519403206413,142881390.36272544,0.0,0.0,0.0,0.0,1.0
142991222.0,-0.07314678870741484,0.1836743413967936,-0.10504606806412826,0.4111827912224449,0.0,1446.7420321603206,1500.0,1409.0171304529058,1536.0065010701403,1462.9934989298597,1589.7420321603206,15.688529666593187,16.034367879058117,12.075812399478957,15.470762492224448,15.522868113947895,15.865043129298597,15.334982403727455,15.673015102885772,146.42945460460925,146.42945460460925,12.07496515242485,-0.000996459366733467,-0.005709523284569138,-0.00021681228056112225,-0.23793341463126252,0.19286046036873747,-0.00974292111022044,2.0,7.168219616138277,8.168219616138277,11.0,0.0,0.0,1.0,0.0,0.0,0.0,0.0,0.0,0.0,0.0,0.620227576733467,0.06748378943086172,-2.996101397509018,-2.996101397509018,2.685068753683366,77.6137336022445,45.392818677234466,-0.00798562536272545,0.08113719681963928,-0.2,0.0,2.7654561881823647,0.11249630829258521,-13.949329083166333,-4.717635270541081e+20,960.3239511152304,12.07580343236473,0.1596352799018036,0.3707103611242485,0.33866436581563125,3.072847907953908,-0.01586239572745486,-13.09265808757515,0.10616096239879758,0.4012596520661323,0.407815521498998,-4.717635270541081e+20,50.38634476182365,50.872406382865734,-1.317498134589178,-0.32151912915831665,15.330834869298599,15.16709948757515,0.0032747032344689385,-0.47207447282565135,-0.15859288254509019,97.41210233529058,450.1745142022044,12.075812399478957,96033.3926717034,1.1410355108416834,-0.3085622230821643,0.19651198188777524,0.6488515888697398,0.14905603656312624,0.38674057689178354,0.3533852755450902,0.5117369895370741,0.08426267582965932,-3.0458976571763525,0.035580066901803604,0.052810729681362724,-0.2506149650861723,-0.9659592019759519,0.40012502413426854,398689055.1955912,327374555.77975947,450743.01571703405,15.845499480941884,-10.646730185791583,-11.706498442164328,0.37565654214428856,3.9734618626152307,0.0,0.0,0.0,764000.0,39.8714138,32.7364368,-280.1271144056112,85.41914880212425,-50.5848701498998,-9.987991037779558,-12.650843058757514,0.2652917908657314,5.731557150641283,-6.964024841621242,-1.5156547053807616,50.755024197134276,-0.4641734166833668,0.1272468105230461,0.15810027488376752,0.37588443369138275,142991221.94388777,0.0,0.0,0.0,0.0,1.0
143097013.0,-0.09008679271543085,0.1658785524629259,-0.11648350998396792,0.39991726096192387,0.0,1440.209020232465,1500.0,1397.9116294068135,1546.0480342765532,1452.9519657234468,1580.989182749499,15.864215186933867,16.213905474969938,12.075955837074147,15.588007370240481,15.640548186372746,15.985262339959919,15.45273322256513,15.793307221663326,148.9093507977956,148.9093507977956,12.075202871883768,-0.0009930486072144288,-0.005706287733466934,-0.0002151383006012024,-0.2380740461763527,0.19298815982364728,-0.009584762903807616,2.0,7.176120193933868,8.176120193933869,11.0,0.0,0.0,1.0,0.0,0.0,0.0,0.0,0.0,0.0,0.0,0.6031627222144289,0.07487469710420841,-3.00891945454509,-3.00891945454509,1.418851548374751,76.26622666811623,46.16273554132264,-0.008274105168336673,0.0800087346733467,-0.2,0.0,2.391891248653307,0.2374116557254507,-14.493406166312624,-1.0278276553106171e+20,960.3181603292585,12.075933876753508,0.11685825554909826,0.39463975540080154,0.38847325800801596,2.8226452449939887,0.0016912414549097856,-13.819333537374748,0.03598165883366741,0.42309926570541084,0.4403724397675351,-1.0278276553106171e+20,50.24662088791583,50.84059843719439,-0.8143853796713431,-0.41997355162124234,15.330781,15.070897163907816,0.005197674064128254,-0.48654659701603253,-0.15863567856913827,97.32380610911824,450.23268664088187,12.075955837074147,96032.73020114229,1.1410276973567133,-0.48039355153907914,-0.03576031987976391,0.4503610358717464,0.10370593303406822,0.41045303875150296,0.40541912673947883,0.43497098296192394,0.08661922016833667,-3.0655102330200403,0.02776369910420843,0.050455882553106214,-0.21380284065931868,-0.9751496835671343,0.3892307223206413,398688953.7238477,327374407.0711423,450703.1785396793,16.100457216012025,-10.147437955490982,-12.471371643747494,0.2322428175831665,4.029177723016032,0.0,0.0,0.0,764000.0,39.8714138,32.7364368,-281.1590444657315,84.04178908270542,-50.57278890779559,-9.320105940823648,-13.367699932264529,0.08795266823446918,6.894470390623245,-6.44640851667936,-1.6423189048476952,50.74294371214429,-0.5402474988817634,0.0755750924048097,0.11972384061322652,0.3669547433867736,143097012.93987975,0.0,0.0,0.0,0.0,1.0
143210805.0,-0.10672475370941883,0.14359270900200402,-0.12699986321242485,0.3886296861122244,0.0,1435.1723446893789,1500.0,1385.9539078156313,1553.5448485771544,1445.4551514228456,1569.563126252505,16.040060470841684,16.393589496372744,12.075970114228458,15.705252248256512,15.75822826270541,16.105481549198398,15.570484051402804,15.913599346533067,151.38924693006015,151.38924693006015,12.075440591342685,-0.0009896368476953908,-0.005703052182364729,-0.00021346432064128256,-0.23821467711222447,0.19311585988777555,-0.00942660369739479,2.0,7.184020771729459,8.18402077172946,11.0,0.0,0.0,1.0,0.0,0.0,0.0,0.0,0.0,0.0,0.0,0.5619687473787576,0.08010406074148296,-3.0250748893587174,-3.0250748893587174,0.24757316024048137,75.08299937651303,46.72126370246493,-0.008533345178356714,0.07891025895591182,-0.2,0.0,2.0639287413907814,0.40919036665931857,-14.842833313887775,-5.308276553106212e+20,960.3502238985972,12.07597584468938,0.05769241323446896,0.4175552982204409,0.4415513064729459,2.5160583976112227,0.19472612432665323,-14.43510535743487,-0.02467955676753504,0.42140125841082166,0.4429870691743487,-5.308276553106212e+20,50.17003954120241,50.788068490340684,-0.532009611991984,-0.5331105869959919,15.330781,15.002863120260521,0.0065583609258517035,-0.08895420188376768,-0.1586569268737475,97.1934091303006,450.1145998951904,12.075970114228458,96034.1008241483,1.1410439449619239,-0.27904147248296696,-0.06519699288376657,-0.1728084127034061,0.051463996062124276,0.4228143460460922,0.4433918829739479,0.3521779716973948,0.08822599296392784,-3.085013725757515,0.020096755507014032,0.04836219246693387,-0.1737065811703407,-0.9833749009579159,0.37863124984569146,398688859.03607213,327374237.6745491,450690.7170769539,16.279121702925853,-9.455169839611223,-13.209317519438878,0.0708778496332666,4.090454744845691,0.0,0.0,0.0,764000.0,39.8714138,32.7364368,-282.15742050921847,82.52529089763526,-50.580309638997996,-8.519612586046094,-14.058321139879759,-0.10661340723847688,7.702437727168336,-5.9407728568957925,-1.8219860746613226,50.750464065450906,-0.6126165729539078,0.030329871887775563,0.07704174407414831,0.358073697995992,143210804.54509017,0.0,0.0,0.0,0.0,1.0
143320596.0,-0.11798177369939879,0.1237351753026052,-0.13634140213627255,0.37822770034068137,0.0,1429.7054108216432,1500.0,1375.7054108216432,1561.6797465791585,1437.3202534208415,1559.058116232465,16.109819308577155,16.464861015691383,12.075858949539079,15.822497129799599,15.875908341222445,16.22570076062124,15.68823487024048,16.03389146921844,153.86914308416834,153.86914308416834,12.075678310801603,-0.0009862257354709418,-0.005699816631262526,-0.00021179034068136274,-0.23835530861923848,0.19324355973346694,-0.009268444490981962,2.0,7.19192135052505,8.19192135052505,11.0,0.0,0.0,1.0,0.0,0.0,0.0,0.0,0.0,0.0,0.0,0.4858806354649298,0.08220752441282565,-3.0460566469659316,-3.0460566469659316,-0.7864102092444895,74.13734378607214,46.97409376699399,-0.008751212108216434,0.07786119863927855,-0.2,0.0,1.8579984436252504,0.553413422226453,-14.96966725527054,-5.32e+20,960.3270579825652,12.075883135971944,-0.002745719028056145,0.4186498786132265,0.45624467063727453,2.2000071210340684,0.32098483551903817,-14.833956054989981,-0.10361633209619243,0.40944393761122244,0.42379628807214426,-5.32e+20,50.11383023985972,50.73464172669339,-0.3239814134609218,-0.5849278965931864,15.330779663867736,15.023659440881763,0.006142409941883766,0.3648499606713429,-0.15868687803807616,97.07612076438878,450.1193039256513,12.075858949539079,96034.03207342685,1.1410431701102204,-0.6812466490320633,-0.22685995154509048,0.21166001529258563,-0.010370861242485003,0.43016991345290584,0.4538248072865732,0.2573395569458917,0.08893836252505011,-3.1093939010621243,0.010244527290581158,0.04615745664529058,-0.12745769601002002,-0.9906856406793587,0.3692771101743487,398688766.3695391,327374063.92164326,450685.4893214429,16.440280159398796,-8.719936772975952,-13.934509975891784,-0.09459033569539085,4.152799615837676,0.0,0.0,0.0,764000.0,39.8714138,32.7364368,-283.025205440481,80.99802899378757,-50.60873608230461,-7.677334277765531,-14.644861306072144,-0.29786962645490994,8.13011405818036,-5.129978543573146,-1.8199249958436872,50.77889208230461,-0.6718250575250501,-0.009321994298597217,0.030358707120240455,0.350077200501002,143320595.5791583,0.0,0.0,0.0,0.0,1.0
143431870.0,-0.13197746596793586,0.10234247205611224,-0.1464541399298597,0.36846682256513025,0.0,1424.629258517034,1500.0,1366.258517034068,1566.8996048717436,1432.1003951282564,1548.258517034068,16.24440955476954,16.602441083527054,12.075605259078156,15.93974200743487,15.993588416793587,16.345919969098198,15.805985699078155,16.15418358799599,156.3490392773547,156.3490392773547,12.07591603026052,-0.0009828143286573147,-0.00569658108016032,-0.0002101163607214429,-0.23849593981162326,0.19337125918837678,-0.009110285284569138,2.0,7.199821928320641,8.199821928320642,11.0,0.0,0.0,1.0,0.0,0.0,0.0,0.0,0.0,0.0,0.0,0.4097925235511023,0.08431098808416833,-3.0670384042785575,-3.0670384042785575,-1.820393579044087,73.19168819857715,47.226923831523045,-0.006442237677354721,0.07696092890781563,-0.2,0.0,1.5835125905290584,0.6261518333787576,-14.806573078056113,-5.32e+20,960.3227394032064,12.07563752765531,-0.0762997507555109,0.41708509716032066,0.4344653946372746,1.9056047675651304,0.47796787338677343,-15.039318821102203,-0.20306618186573136,0.38725387172945896,0.3910371110861724,-5.32e+20,50.08624482905812,50.67995489767535,-0.2204157468997997,-0.5505875310781564,15.330776453507013,15.169267436432866,0.0032301830561122275,0.8976348295931859,-0.15872905868737475,96.97725074817635,450.29611079398796,12.075605259078156,96032.02182302605,1.1410192986092185,-1.5542671530581127,-0.729457435759516,-0.34429303502404884,-0.08899324761523039,0.4304502320801604,0.43248936735470944,0.16009744771743498,0.08912424352304608,-3.13365310502004,0.00038923044488979163,0.04474040241683367,-0.07970400283567139,-0.995780210498998,0.3602971349819639,398688687.89158314,327373879.59238476,450717.75513567135,16.541998419358716,-7.856676552951905,-14.52710347759519,-0.2737757059659317,4.215942598032064,0.0,0.0,0.0,764000.0,39.8714138,32.7364368,-283.82729912084164,79.36221397224449,-50.65662110541082,-6.781681948084169,-15.162288228957916,-0.4869247929198395,8.170977348430862,-4.288932540741484,-1.655430076941884,50.82677672867735,-0.701515742981964,-0.01494571640080161,0.03803292744889776,0.3432741394388778,143431869.89378756,0.0,0.0,0.0,0.0,1.0
143541284.0,-0.14057968708416835,0.08368880986773547,-0.1562190094488978,0.3597555077755511,0.0,1420.2765531062125,1500.0,1357.5531062124248,1571.9705136312625,1427.0294863687375,1539.5531062124248,16.286384220941883,16.645448746012026,12.075227180380763,15.993423373146292,16.04732233490982,16.40088060673347,15.852193608016032,16.201451619218435,157.28481446392786,157.28481446392786,12.075609204649298,-0.0009814453126252506,-0.0056941649498998,-0.0002078733266533066,-0.23862372560721443,0.19345900996192383,-0.008959604038076153,2.0,7.207722506116232,8.207722506116232,11.0,0.0,0.0,1.0,0.0,0.0,0.0,0.0,0.0,0.0,0.0,0.33370441163727455,0.08641445275551102,-3.088020161961924,-3.088020161961924,-2.854376948490982,72.24603260737474,47.4797538960521,0.0001716487054108216,0.07632981471743487,-0.2,0.0,1.462906171272545,0.5714203259438878,-14.49525565983968,-5.32e+20,960.3237704476954,12.075227182905811,-0.16405922815831664,0.4053847781282565,0.4026539381863728,1.7359413501082164,0.5660037874809619,-14.93332485492986,-0.30349962293987975,0.35119873365931864,0.3511250110200401,-5.32e+20,50.067237060581164,50.63493218687375,-0.14872291705611224,-0.462201227995992,15.330739670581162,15.395368708496994,-0.0012925764008016023,1.2843012666192384,-0.15883484507815632,96.91921191052104,450.34061461603204,12.075227180380763,96031.50790941884,1.1410131835370743,-1.3579856496212421,-0.6336706580100202,-0.5280575545470942,-0.17664049568336673,0.4093946527014028,0.3955553010701403,0.06710754893386775,0.08877638183366734,3.1245342751042084,0.010005410256513024,-0.04408505323246493,0.03388984458717436,0.9983562489138277,0.35223565310020044,398688612.9947896,327373693.3292585,450757.2831695391,16.63105229036072,-6.984192669773548,-15.081158216092184,-0.455026341511022,4.278240816146292,0.0,0.0,0.0,764000.0,39.8714138,32.7364368,-284.51706649098196,77.70342381537074,-50.72282580118237,-5.91623446147495,-15.572485959338678,-0.6595897106973948,7.8420830128637276,-3.3875377667795594,-1.5561527181142285,50.89297988753507,-0.42245937024649305,0.05431856251503005,0.036165802132264516,0.16689609623446894,143541284.13627255,0.0,0.0,0.0,0.0,1.0
143642924.0,-0.1485039915450901,0.06920284861322648,-0.16768967740280558,0.35172932781563127,0.0,1415.046991983968,1500.0,1350.4769539078156,1572.9069158316634,1426.0930841683366,1533.2384769539078,16.358233288797596,16.71896026793587,12.07471303997996,16.018949612785573,16.072731631763528,16.426935282104207,15.866711956332667,16.216374011282564,157.5366292276553,157.5366292276553,12.075061178857716,-0.000980980486973948,-0.005692112210420841,-0.00020537802805611221,-0.2387458208496994,0.19352906595991984,-0.008812235040080161,2.0,7.215623084911823,8.215623084911824,11.0,0.0,0.0,1.0,0.0,0.0,0.0,0.0,0.0,0.0,0.0,0.257616299723447,0.08851791642685371,-3.10900191995992,-3.10900191995992,-3.888360318699397,71.30037702064128,47.73258396058116,0.000564223210420841,0.075857112997996,-0.2,0.0,1.3487879656132267,0.5594563775270539,-13.841394552725452,-5.32e+20,960.3212150002004,12.074748301603206,-0.26329283504609213,0.3656243714008016,0.360919086985972,1.5055231864248504,0.6175197139438876,-14.618718060501003,-0.40278688832064113,0.295889758967936,0.3251041928376754,-5.32e+20,50.05536270955912,50.59794644513026,-0.10353647216432874,-0.3288687434168339,15.330674959559119,15.688410526312625,-0.007154702316633257,1.549451338599198,-0.1589935278717435,96.89512949342685,450.3729812711423,12.07471303997996,96031.16298062124,1.1410090803066133,-0.7657780057855693,-0.3751404564889792,-0.5446683427535054,-0.28066600925851687,0.3746785059058117,0.3594813010260522,-0.02226770648296579,0.0880080435490982,3.0993593571603206,0.02060336553907813,-0.04423273063727455,-0.010191073785571074,0.9987250637014028,0.34511938782765533,398688552.19799596,327373500.8432866,450819.81150581164,16.675874310541083,-6.138247897955914,-15.467133819358716,-0.6407000971482962,4.334286039246493,0.0,0.0,0.0,764000.0,39.8714138,32.7364368,-285.1228651476954,75.99585086671343,-50.80658271022045,-5.092300587036073,-15.899171593927855,-0.8162471849979958,7.37126236130461,-2.5803275502885783,-1.3821620552404814,50.976736246753504,-0.1628690540160324,0.10028397437474951,0.11873429212024035,0.16368889853707413,143642923.58917835,0.0,0.0,0.0,0.0,1.0
143754959.0,-0.14999816741082164,0.06307837073547094,-0.16956572334068137,0.3446524173547094,0.0,1416.198396793587,1500.0,1342.6012024048096,1575.8998601122244,1423.1001398877756,1531.5991983967936,16.396649181482964,16.758236480340685,12.074118358617234,16.04447585042084,16.098140925851705,16.45298996470942,15.881230304649298,16.231296393346692,157.78844401903802,157.78844401903802,12.074513150300602,-0.0009805166613226454,-0.0056900592705410825,-0.00020288252905811623,-0.23886791609218436,0.19359912095791582,-0.008664866042084168,2.0,7.223523662707414,8.223523662707414,11.0,0.0,0.0,1.0,0.0,0.0,0.0,0.0,0.0,0.0,0.0,0.2347193313527054,0.09800090279559118,-2.8505944769418843,-2.8616860290260524,-4.0006258586633265,154.56938284969928,47.718039606452905,0.0007384220561122244,0.07522295191983969,-0.2,0.0,1.2016066043847697,0.5652065031923849,-13.205308150440882,-2.0087575150300647e+20,960.2947945034068,12.074182116392786,-0.3734990088637274,0.3124598221042084,0.33238891578557117,1.4482112302865728,0.5935394796593189,-14.138874716773547,-0.49153914385170333,0.2360206586873748,0.30517451529859724,-2.0087575150300647e+20,50.04779973330661,50.582723711022055,-0.07513173545090182,-0.1518664030340683,15.330572281943887,15.995234808917836,-0.013293238899799595,1.6689862543887775,-0.15929526095390784,96.94370732973948,450.48289701202407,12.074118358617234,96029.88811799599,1.1409939558076152,-1.031333874264528,-0.6159010492505002,-0.6729966419258494,-0.36698636010220437,0.3257469685651303,0.33311735820040084,0.057262963328657185,0.11642052872745488,-1.5066644081242484,0.7266334418296594,0.06062848871743481,0.022884619875751536,-0.6838168340901805,0.1693743984448898,398688495.12645286,327373304.82705414,450891.0312016032,16.71390141659319,-5.308214562867736,-15.820813319579159,-0.814325663791583,4.388540498793587,0.0,0.0,0.0,764000.0,39.8714138,32.7364368,-285.6433826408817,74.24622809360721,-50.90762361142284,-4.33525983523447,-16.144381010460922,-0.950207661290581,6.695417992967936,-1.8727750420140286,-1.1690110295771543,51.077776983567134,-0.12077644926452902,0.06691156972344693,0.13775294141282565,0.1657660683767535,143754959.31262526,0.0,0.0,0.0,0.0,1.0
143858201.0,-0.06955436522244489,0.0828561486272545,-0.17110104286372746,0.1694912749498998,0.1655035599038076,1415.852470452906,1604.2310682945892,1166.3246492985973,1524.6555555911823,1474.3444444088177,1545.3507014028055,16.43268353781563,16.795166693827657,12.073408379759519,16.07000208206413,16.12355022831663,16.47904464731463,15.895748652965931,16.24621878541082,158.04025872665332,158.04025872665332,12.073965130120241,-0.0009800526733466934,-0.005688005731462925,-0.00020038726853707415,-0.23899001133466935,0.19366917695591182,-0.008517497044088176,2.0,7.231424240503005,8.231424240503005,11.0,0.0,0.0,1.0,0.0,0.0,0.0,0.0,0.0,0.0,0.0,0.22856018284569138,0.1098060253767535,-2.5042707824629256,-2.529944099551102,-3.8228516396472947,264.3384729282565,47.619359733426855,0.0007135729699398798,0.07469023345490983,-0.2,0.0,1.0453874239478957,0.5506017338517034,-12.563471597955912,-3.751583166332666e+20,960.2834268549099,12.073523020080161,-0.4636860756012024,0.2571910441202405,0.312206567006012,1.1864179433346693,0.5690643624128257,-13.406584247174349,-0.5595246140661322,0.1854537816733467,0.29169395811422844,-3.751583166332666e+20,50.042301900801604,50.57792540392786,-0.05476540561523046,0.04605371636472948,15.330451408897796,16.308660851723445,-0.019564176256513025,1.7187717786172345,-0.15966551333266535,97.02708930448898,450.58620887915833,12.073408379759519,96028.66168937876,1.1409793579298597,-0.9681095239478958,-0.2037410382905811,-0.2803790673166332,-0.46321643119038075,0.26774963626052106,0.312194919488978,0.22659920480761522,0.14355466037675352,-1.5041923530841683,0.7181062140621243,0.13101784646292586,-0.025000701577154318,-0.6828996510801604,0.16363173054909821,398688448.6673347,327373096.8192385,450989.88574168336,16.735430108797594,-4.531800909096192,-16.08787622198397,-0.9425806579478958,4.437395650262525,0.0,0.0,0.0,764000.0,39.8714138,32.7364368,-286.08157361663336,72.50694593236474,-51.01944604725451,-3.6687176449398797,-16.32178551985972,-1.0619926345891784,5.869385014833668,-1.3616644986993987,-1.0260836769178356,51.18960045200401,-0.14176158229058117,0.034783187204408816,0.13278727789378755,0.17051797000000002,143858201.21042085,0.0,0.0,0.0,0.0,1.0
143955841.0,-0.00439924220240478,0.108292437997996,-0.14802133206212426,0.1633839273547094,0.4096009173847698,1428.627254509018,1731.1137426352707,1163.0,1495.0131295891788,1503.9868704108212,1553.6121392925847,16.39519437472946,16.75703564022044,12.072622683046092,16.095528321703405,16.14895952278557,16.50509932991984,15.910266992525049,16.26114117747495,158.29207351422846,158.29207351422846,12.073417101943889,-0.0009795880100200401,-0.005685952991983968,-0.00019789113226452912,-0.23911210657715437,0.19373923282965932,-0.008370128046092185,2.0,7.239324819174349,8.23932481917435,11.0,0.0,0.0,1.0,0.0,0.0,0.0,0.0,0.0,0.0,0.0,0.22240103333867733,0.12161114875751504,-2.1579470878597196,-2.198202170076152,-3.6450774206312624,374.10756300681373,47.5206798604008,0.0006477930681362725,0.07439968750300602,-0.2,0.0,0.9382489386132264,0.5546923624188377,-11.941265036112224,-5.32e+20,960.2832660394789,12.072637065551103,-0.5417762764589179,0.19886966492585165,0.2966486017134269,1.0410880502204405,0.5221508791062124,-12.738846301983969,-0.6174124408336673,0.14703802933867732,0.2588213821843687,-5.32e+20,50.03964148677355,50.60282512521042,-0.046269903935871735,0.2320658453807617,15.330539256633266,16.53764870773547,-0.024142178322645293,1.671691094507014,-0.1601260902965932,97.16474012430862,450.7190042793587,12.072622683046092,96027.14405312626,1.1409612867995993,-0.5891396875631265,-0.10829660984368751,-0.2538333480521026,-0.5427891881342686,0.2076771609258517,0.2938243480661323,0.2536081031783567,0.1412799847755511,-1.494212938727455,0.7198853986753507,0.14012607066733465,-0.034353953535070134,-0.6789290709398798,0.16523033128456913,398688406.6418838,327372888.4358717,451097.3918827655,16.739985117915833,-3.813055467927856,-16.30004448488978,-1.0550372117254512,4.482138299406814,0.0,0.0,0.0,764000.0,39.8714138,32.7364368,-286.46114016212425,70.69768432953907,-51.14711513142285,-3.0718071240280556,-16.422269653567135,-1.1572135322925854,5.1762768752004,0.2476794098677373,-0.6797956605250497,51.3172693461523,-0.16041539913627256,0.01792399531262524,0.12339724754709419,0.17671889276553107,143955840.7775551,0.0,0.0,0.0,0.0,1.0
144065707.0,-0.009567820789579216,0.09676136282364728,-0.13710269721042084,0.16518567731462927,0.6842666723066136,1430.0861723446894,1858.747919230461,1164.9138276553106,1505.8877625651303,1493.1122374348697,1547.1723446893789,16.40584420186373,16.767932067895792,12.071795158517034,16.121054560480964,16.174368818116232,16.531154011663325,15.924785340460922,16.27606355953908,158.54388829318637,158.54388829318637,12.072869074629258,-0.0009791240981963927,-0.005683899252505009,-0.00019539574749498996,-0.23923420181963928,0.1938092879519038,-0.008222759048096192,2.0,7.247225397094189,8.247225397094187,11.0,0.0,0.0,1.0,0.0,0.0,0.0,0.0,0.0,0.0,0.0,0.21624188483166332,0.1334162721382766,-1.811623393418837,-1.8664602406012016,-3.46730320161523,483.87665308537095,47.421999987374754,0.0005607130701402804,0.07427405349498997,-0.2,0.0,-0.7018974326713463,0.4369033292865729,-11.494072118977956,-5.32e+20,960.2687287641282,12.071811373907817,-0.6193197943066134,0.1496793671983967,0.26313713384368725,0.9970539532304611,0.5442455624589176,-11.92095755521042,-0.5666815865931862,0.15371734897194392,0.21616498561322636,-5.32e+20,50.03766269663327,50.634859075871745,-0.040626082020040075,0.41521736600601244,15.330677236052104,16.746352326332666,-0.028313492336673355,1.601340637529058,-0.160608363743487,97.31542772927855,450.78350345911826,12.071795158517034,96026.42497178356,1.140952806743487,1.6146030663406838,0.9862634928497013,-0.9418349847875827,-0.6106839378897796,0.16181714522244478,0.2721109138336673,0.22109030426052098,0.13919529270941883,-1.4931628148817635,0.7225561049038077,0.12771977764328657,-0.024007893783567116,-0.6789837219278557,0.16851933431863722,398688373.73066133,327372679.62004006,451222.7461342685,16.708115396513023,-3.2181540381863716,-16.39565310597194,-1.1347115031482966,4.518108055685371,0.0,0.0,0.0,764000.0,39.8714138,32.7364368,-286.76860650961936,68.96197396342684,-51.2783444182966,-2.5668876931502997,-16.345187807034065,-1.2287041252565132,4.559910563855711,1.223361052949901,-0.7222106526012028,51.448498418296595,-0.18141615442885775,0.008205009799599181,0.10783731249098193,0.18450699791783567,144065707.0501002,0.0,0.0,0.0,0.0,1.0
144183118.0,-0.033482354771543044,0.08457421768537077,-0.14748764412024043,0.16883989723847695,0.9777953539038071,1426.1442885771544,1998.147166092184,1168.0,1515.9280818116233,1483.0719181883767,1542.0,16.135918055591187,16.492132297955912,12.070904426593186,16.146580800501003,16.199778121723448,16.5572086946493,15.939303687915832,16.290985951603204,158.79570308456914,158.79570308456914,12.072321055591182,-0.0009786593587174349,-0.005681846513026052,-0.0001929004869739479,-0.23935629706212425,0.1938793439018036,-0.0080753900501002,2.0,7.255125974889779,8.25512597488978,11.0,0.0,0.0,1.0,0.0,0.0,0.0,0.0,0.0,0.0,0.0,0.20952492540480963,0.14342722718436873,-1.50699005488978,-1.5752244444428862,-3.332801073232465,580.0268165507013,47.257403564749495,0.00047521386573146307,0.07421432800801603,-0.2,0.0,-0.9863231121382765,0.43436813543286573,-11.563604035811622,-5.32e+20,960.2606960348697,12.070960858136273,-0.5830842953006015,0.14248723241482963,0.21926808903807626,-0.8009421776432846,0.49094273943887806,-11.494478590901805,-0.3373190435230466,0.19826653929859708,0.1867301014108217,-5.32e+20,50.036740170300604,50.696626619478955,-0.04036455535270541,0.5805299726052101,15.330716553446894,16.870599098577156,-0.03079765272945891,1.4705156774428862,-0.16119486215831666,97.50526562841684,450.853703093988,12.070904426593186,96025.59368298597,1.140942898008016,2.0579482624809664,0.00861276213627385,-0.2553212938016059,-0.5935903471202408,0.15202691017234468,0.22864224967535082,0.20230056932064136,0.13612969702204408,-1.4827151408036072,0.7274451498517034,0.1199971646693387,-0.018125238156312642,-0.6753474024589178,0.17494654091382764,398688344.8703407,327372473.2176353,451354.7482408818,16.596011935791584,-2.6713927435511033,-16.388104793747495,-1.2281401127995988,4.55055698050501,0.0,0.0,0.0,764000.0,39.8714138,32.7364368,-287.0361462761523,67.1423593485972,-51.42617254823647,-2.085334212462927,-16.181797306412825,-1.3379459781623244,4.18667544082966,1.6846799175951894,-1.1976839949599187,51.59632654823647,-0.19266408985771544,0.004281116144288579,0.09509617207815632,0.18937070875751502,144183118.28456914,0.0,0.0,0.0,0.0,1.0
144292726.0,-0.036574889322645285,0.08058491036673347,-0.15396212369338674,0.17506643178356715,1.0,1422.0300601202405,2000.0,1176.9744838777556,1518.9845039178356,1480.0154960821644,1539.0027380260522,15.83557587456914,16.185238550200403,12.069939991763526,16.17210703062124,16.225187416192384,16.58326337763527,15.953822036232465,16.305908343667333,159.0475177769539,159.0475177769539,12.07177302741483,-0.0009781955230460922,-0.005679793773547094,-0.00019040522645290582,-0.2394783923046092,0.1939493989478958,-0.007928021052104208,2.0,7.263026553675351,8.26302655367535,11.0,0.0,0.0,1.0,0.0,0.0,0.0,0.0,0.0,0.0,0.0,0.19884304397194388,0.14068521854308616,-1.4986921495270542,-1.5719066193446891,-3.5058773601122244,579.3735248258516,46.62427170901804,0.00039304439879759526,0.07418590406813627,-0.2,0.0,-0.9101001133747496,0.26620039538076173,-12.028139426833667,-5.32e+20,960.2330937727455,12.0700361151503,-0.38103670307214454,0.1909352448356713,0.18420649637474953,-1.0209439851503006,0.43225424886773534,-11.62538080995992,-0.1553337252945894,0.1848139255170341,0.1610528838897796,-5.32e+20,50.03592065887776,50.7633359451503,-0.04073052356513026,0.7432784121703405,15.330748024008017,16.98532461368737,-0.033091542773547096,1.3328958612785573,-0.16179990319238477,97.700345558998,451.1325248270541,12.069939991763526,96022.4015182966,1.140904983995992,0.23940282029458848,-0.5889331701903814,0.005705829360720699,-0.3505877100621246,0.20812439741282557,0.18507756855911828,0.17531617013827658,0.13257674734068134,-1.481610858436874,0.7295628709338677,0.1089926905190381,-0.010261105056112232,-0.6750934324749499,0.18234404161322645,398688321.5771543,327372269.7713427,451495.50615851703,16.37823500162325,-2.1880353745731473,-16.244691608597197,-1.339684120791583,4.57836872660521,0.0,0.0,0.0,764000.0,39.8714138,32.7364368,-287.23885441142284,65.45205968825651,-51.577434522044086,-1.6597894481563131,-16.00191438925852,-1.4741185512184367,4.001897897104208,1.8349711624028053,-1.305694360955912,51.74758944953908,-0.2009472738236473,0.0020846022304609256,0.08142072434068139,0.19295364301002002,144292726.3246493,0.0,0.0,0.0,0.0,1.0
