timestamp,control[0],control[1],control[2],control[3],control[4],output[2],output[3],output[4],output[5],output[6],output[7],indicated_airspeed_m_s,true_airspeed_m_s,air_temperature_celsius,indicated_airspeed_m_s.1,equivalent_airspeed_m_s,true_airspeed_m_s.1,equivalent_ground_minus_wind_m_s,true_ground_minus_wind_m_s,differential_pressure_raw_pa,differential_pressure_filtered_pa,temperature,gyro_bias[0],gyro_bias[1],gyro_bias[2],accel_bias[0],accel_bias[1],accel_bias[2],instance_count,seq_reached,seq_current,seq_total,item_changed_index,item_do_jump_remaining,valid,warning,finished,failure,stay_in_failsafe,flight_termination,item_do_jump_changed,execution_mode,nav_roll,nav_pitch,nav_bearing,target_bearing,xtrack_error,wp_dist,acceptance_radius,rollspeed_integ,pitchspeed_integ,yawspeed_integ,additional_integ1,x,y,z,temperature.1,pressure,temperature.2,gyro_rad[0],gyro_rad[1],gyro_rad[2],accelerometer_m_s2[0],accelerometer_m_s2[1],accelerometer_m_s2[2],x.1,y.1,z.1,temperature.3,altitude_sp,altitude_filtered,height_rate_setpoint,height_rate,airspeed_sp,airspeed_filtered,airspeed_derivative_sp,airspeed_derivative,throttle_integ,pitch_integ,baro_alt_meter,baro_temp_celcius,baro_pressure_pa,rho,xyz[0],xyz[1],xyz[2],xyz[0].1,xyz[1].1,xyz[2].1,roll_body,pitch_body,yaw_body,q_d[0],q_d[1],q_d[2],q_d[3],thrust_body[0],lat,lon,alt,vel_m_s,vel_n_m_s,vel_e_m_s,vel_d_m_s,cog_rad,ground_contact,maybe_landed,landed,ref_timestamp,ref_lat,ref_lon,x.2,y.2,z.2,vx,vy,vz,ax,ay,az,dist_bottom,roll,pitch,yaw,thrust_body[0].1,timestamp.1,isTakeoff,isClimbing,isDescending,isCruise,isLand
68006090.0,-0.017702851999999998,-0.064736298,0.07597240200000001,0.0,0.0,1531.6001199999996,1500.0,1000.0,1516.6001199999996,1482.3998800000004,1467.0,17.22467704,17.6487412,11.73865257,16.1314204,16.10693894,16.50332184,16.12029723,16.51700965,158.9567594,158.9567594,11.73811597,-0.001577531,-0.006019878,0.00017644400000000002,-0.21496098,0.17735896,-0.004911441,2.0,1.721344269,2.721344269,11.0,0.0,0.0,1.0,0.0,0.0,0.0,0.0,0.0,0.0,0.0,0.208995673,-0.221936929,1.954786588,1.973856156,1.317542446,178.8642888,49.91317798,-0.018799339,0.015022467,-0.004487317,0.0,-1.4909172819999998,-0.226166534,-7.743638885,-5.32e+20,954.3788722,11.73891721,-0.127107896,-0.08977388,0.36801902,-1.371006724,0.035796561,-7.160100518999998,-0.110622672,-0.096843062,0.501208403,-5.32e+20,92.93794434,101.8875606,-4.370203334,-2.393170709,15.36880148,17.00132959,-0.032650566,-0.287253418,-0.1,90.30314773,502.153091,11.73865257,95437.12444,1.133950963,0.461499615,0.375048599,-0.289180769,-0.111806892,-0.07191636400000001,0.381970281,0.190882029,-0.175448665,1.967147725,0.542457709,0.12519702900000002,0.030705261,0.83012997,0.0,398726906.3,327340852.4,502646.5291,16.59471613,-1.3436847369999998,16.52317263,1.274502819,1.6510743019999998,0.0,0.0,0.0,764000.0,39.8714138,32.7364368,141.66562119999998,-198.3288415,-102.4270796,-2.788586459,17.34945691,2.054014776,-2.357493091,-0.884259951,2.050721926,102.5972396,-0.066781038,-0.047422899,0.124632994,0.0,68006090.0,0.0,0.0,1.0,0.0,0.0
68038317.0,-0.017580435977955913,-0.06302082835070141,0.07547013701002005,0.0,0.0,1521.4244396593188,1500.0,1000.0,1519.6320771142284,1479.3679228857716,1469.6753507014027,17.243555991102205,17.66818160911824,11.739042600460921,16.089496941082164,16.065612262645292,16.46097821725451,16.074739414168338,16.470330764128256,158.02910758436875,158.02910758436875,11.73806170496994,-0.0015776442565130259,-0.006019482048096193,0.00017648680561122246,-0.21496098,0.17735896,-0.004911441,2.0,1.7236633700020039,2.723663370002004,11.0,0.0,0.0,1.0,0.0,0.0,0.0,0.0,0.0,0.0,0.0,0.20564703283967936,-0.22008498703607215,1.9565928679699398,1.974347514476954,1.2271203945470943,178.31615599238478,49.896117830400804,-0.018759874901803607,0.014897488883767535,-0.004608153673346694,0.0,-1.5133261354068135,-0.23399360778757514,-7.842980092855711,-5.32e+20,954.3902368222446,11.739349858797596,-0.11419327008817635,-0.08923275375751503,0.3806422235270541,-1.3782223428176352,0.07747787838476955,-7.378022958278557,-0.11727236764128257,-0.09120871099799599,0.5402582222484971,-5.32e+20,92.78038225362725,101.81060556392785,-4.385952239821644,-2.4219876087795593,15.368733312064128,17.068122199418838,-0.03398778208216433,-0.2788566853547094,-0.1,90.10580211747495,502.0619444769539,11.739042600460921,95438.19167306613,1.133963596006012,0.24977909078156313,-0.07650894329458918,-0.5408074681482966,-0.09828564101803608,-0.0732092869759519,0.38381868704208416,0.18235979119438878,-0.17910133647294588,1.9642494622945892,0.5439617947314629,0.12442357530260521,0.025973372673346692,0.829424286503006,0.0,398726899.8791583,327340916.34088176,502591.64704488975,16.780255081002004,-1.6274499470200399,16.674410133807616,1.4350952340901804,1.666775795256513,0.0,0.0,0.0,764000.0,39.8714138,32.7364368,141.57539125210423,-197.77622792585169,-102.36001114408818,-2.867891552557114,17.32175471470942,2.116979756711423,-2.5188401333446895,-0.8948812038657314,1.9566874564008017,102.53017114408817,-0.0742921305751503,-0.06323239438076152,0.12254686164529058,0.0,68038317.2745491,0.0,0.0,1.0,0.0,0.0
68070545.0,-0.04147489798396793,-0.0669417169458918,0.06054368221042085,0.0,0.0,1518.4739096272544,1500.0,1000.0,1516.8657314629259,1482.1342685370741,1472.523747503006,17.24815738523046,17.67272538054108,11.739455855851702,16.09461299965932,16.071409351923847,16.466885373587175,16.080302066673347,16.475997579178355,158.14094901462926,158.14094901462926,11.738342877194388,-0.0015777324388777556,-0.006019104901803607,0.00017670983166332666,-0.21496098,0.17735896,-0.004911441,2.0,1.725982471004008,2.725982471004008,11.0,0.0,0.0,1.0,0.0,0.0,0.0,0.0,0.0,0.0,0.0,0.20229839189579157,-0.21823304507214428,1.9583991479398797,1.9748388721703407,1.1366983438777556,177.7680231847695,49.879057672965935,-0.018719312242484968,0.014756781440881763,-0.0048443588537074155,0.0,-1.5341078364368737,-0.09313653374949898,-8.00206565329459,-5.32e+20,954.4030895168337,11.739862415771542,-0.0992986797274549,-0.08838651822645291,0.38420513665931866,-1.4028749905831663,0.1927260910260521,-7.530020967144289,-0.11724712519639278,-0.08198559666332667,0.5558641438016032,-5.32e+20,92.63027062915832,101.73541488597195,-4.396417213955912,-2.4355919146553107,15.368656485711423,17.120979404288576,-0.03504646198797595,-0.2725683140360722,-0.1,89.92187238881763,501.9296555861723,11.739455855851702,95439.68857517034,1.1339813848837674,0.19831447300601204,0.07973978846492985,-0.4323647848977956,-0.0916302277995992,-0.07838752758717435,0.3786815732765531,0.18126921281563127,-0.1852045358016032,1.9669177984188377,0.5425395447855711,0.12659981698597195,0.023989743422845693,0.8300864855551101,0.0,398726893.4583166,327340980.28176355,502536.76498977956,16.965794024168336,-1.9112151570400802,16.82564763761523,1.5956876483967937,1.6824772877294587,0.0,0.0,0.0,764000.0,39.8714138,32.7364368,141.47865534629258,-197.20564668717435,-102.28782427094188,-2.9568528353967936,17.292207657615233,2.1774054071202404,-2.689899372783567,-0.9201612144148297,1.8494905649619238,102.45798427094188,-0.06859375672344689,-0.07441025342284568,0.12406306165531063,0.0,68070545.33266532,0.0,0.0,1.0,0.0,0.0
68102773.0,-0.04180596643687375,-0.06082385856913828,0.04524439577555111,0.0,0.0,1516.2229321402806,1500.0,1000.0,1514.8982828416833,1484.1017171583167,1475.0977489539077,17.272889611242483,17.697972782304607,11.739894287935872,16.12341579941884,16.100935613807614,16.497089207174348,16.111606426633266,16.50802307290581,158.77622701382765,158.77622701382765,11.738792965450902,-0.0015778083787575151,-0.006018737106212425,0.00017702393186372746,-0.21496098,0.17735896,-0.004911441,2.0,1.728301572006012,2.728301572006012,11.0,0.0,0.0,1.0,0.0,0.0,0.0,0.0,0.0,0.0,0.0,0.19894975151903807,-0.21638110310821643,1.9602054279098196,1.9753302304308618,1.0462762926412825,177.21989037715431,49.861997521202404,-0.018682333903807614,0.014602522002004008,-0.005176690448897796,0.0,-1.5546648156553107,0.06825492387575151,-8.169402352617235,-5.32e+20,954.4161476577154,11.740386015410822,-0.08918899808416834,-0.09483841612825651,0.3712923296793587,-1.4487829813006012,0.23598188096593187,-7.682758480867736,-0.11630002429458917,-0.07226684681963928,0.5682322885270541,-5.32e+20,92.48118796198396,101.66046794649299,-4.4061524379338675,-2.4470952484829662,15.368578463567134,17.171912033186373,-0.03606667398196393,-0.2665711237294589,-0.1,89.73979549322645,501.90852266432864,11.739894287935872,95439.92218392786,1.133984233222445,0.1481188468777555,0.09555083822044089,-0.8737884675871742,-0.08228508825651303,-0.08079500356112225,0.36341947134068137,0.18240374246492985,-0.19098625834268537,1.9712597249058117,0.5402958273947895,0.1292279573246493,0.023133108795591186,0.8311660893847695,0.0,398726887.10501003,327341044.2226453,502481.8829346693,17.151332973006014,-2.1949803670601202,16.976885141422848,1.756280063270541,1.698178780769539,0.0,0.0,0.0,764000.0,39.8714138,32.7364368,141.38102098697394,-196.63258398076152,-102.21493050641283,-3.0471477102705413,17.262405818176354,2.2374803578557114,-2.862299938,-0.9474657087975952,1.7404758454428857,102.38509050641282,-0.05824847795390782,-0.08137525231663326,0.12624110694589177,0.0,68102772.82364729,0.0,0.0,1.0,0.0,0.0
68136500.0,-0.035078435621242486,-0.053508876398797596,0.037049300877755514,0.0,0.0,1514.5687413226453,1500.0,1000.0,1514.2070084068137,1484.7929915931863,1477.7014028056112,17.266064495430864,17.69096846539078,11.740339357915833,16.157727641563127,16.135980776072145,16.53294393056112,16.148897765511023,16.54617903486974,159.5332453751503,159.5332453751503,11.739282340601202,-0.00157788150501002,-0.006018370907815632,0.00017735867535070138,-0.21496098,0.17735896,-0.004911441567134268,2.0,1.730620673008016,2.730620673008016,11.0,0.0,0.0,1.0,0.0,0.0,0.0,0.0,0.0,0.0,0.0,0.19560111079158318,-0.21452916057715432,1.9620117078797594,1.9758215889078155,0.9558542411883768,176.67175751282565,49.84493736593186,-0.018646707699398798,0.014442090220440884,-0.005574956138276553,0.0,-1.5857191059338678,0.21306598884368738,-8.369223574659319,-5.32e+20,954.4263277406814,11.740879434328658,-0.08365124899198396,-0.0955984477014028,0.35758045601202404,-1.4741403262965933,0.2879386902805611,-7.782663550537074,-0.11460112793787576,-0.056606748254509016,0.5518668067114227,-5.32e+20,92.33210529831663,101.5855209719439,-4.415887661911823,-2.4585985823106213,15.368500441422846,17.222844658577156,-0.0370868859759519,-0.26057393363927855,-0.1,89.55771860330661,501.8478522815631,11.740339357915833,95440.61450192385,1.1339924631362726,-0.25151176443687373,0.02961926262124248,1.7924318123787577,-0.07426648419639278,-0.0862622091002004,0.3462494879278557,0.1779060176513026,-0.1959651394509018,1.9714217215811622,0.5402039300360721,0.13005504223246495,0.019891811410821643,0.8311793274208418,0.0,398726880.71663326,327341108.1635271,502427.00087955914,17.336871918336673,-2.47874557708016,17.128122645230462,1.916872477793587,1.7138802740260521,0.0,0.0,0.0,764000.0,39.8714138,32.7364368,141.2827858272545,-196.0806204272545,-102.14247638436873,-3.139675082186373,17.231911181022046,2.2866785350140284,-2.988620113212425,-0.982265326254509,1.5658121759699397,102.31263638436874,-0.059177165997995995,-0.0908804428256513,0.12484369043887775,0.0,68136499.6012024,0.0,0.0,1.0,0.0,0.0
68168658.0,-0.030849957178356716,-0.04815029001603206,0.03323834285971944,0.0,0.0,1513.5184606012024,1500.0,1000.0,1514.2965975551103,1484.7034024448897,1479.6664817835672,17.281197297695392,17.706390256533066,11.74078439014028,16.19203948236473,16.17102593967936,16.568798655290582,16.1861890997996,16.584334993587174,160.2902637230461,160.2902637230461,11.739771715751504,-0.0015779546312625252,-0.006018004843687376,0.00017769309418837672,-0.21496098,0.17735896,-0.004911442,2.0,1.73293977401002,2.73293977401002,11.0,0.0,0.0,1.0,0.0,0.0,0.0,0.0,0.0,0.0,0.0,0.19225247019839678,-0.21267721818036073,1.963817988308617,1.9763129473847696,0.8654321901943888,176.12362466192386,49.82787721200401,-0.018613887835671344,0.014281718943887778,-0.00601286028256513,0.0,-1.6264296855971943,0.3426250463446893,-8.598926728438878,-5.32e+20,954.4338603897795,11.741345089138276,-0.0774685149018036,-0.10090851829859719,0.3329409469138277,56.30528478212422,58.0010124397194,-7.79378793687976,-0.11221066923647295,-0.035481309216432874,0.5090697745070141,-5.32e+20,92.1830226333066,101.51057396492986,-4.425622885430862,-2.470101916138277,15.368422419278557,17.273777285310622,-0.038107097511022044,-0.2545767435490982,-0.1,89.37564171204409,501.7823512587174,11.74078439014028,95441.37154553106,1.134001433240481,-0.5024546915631263,-0.13952262195390774,3.2269529416813634,-0.07006690455110222,-0.0917587288717435,0.3470537875210421,0.17350379728657314,-0.20030582328857716,1.9717432638376753,0.5400805694308617,0.1306494299458918,0.016879833066132263,0.8312372414148297,0.0,398726873.790982,327341172.3797595,502368.59084769536,17.485396300861723,-2.727809652543086,17.246394075430864,2.0578009166913827,1.7277143521342684,0.0,0.0,0.0,764000.0,39.8714138,32.7364368,141.18399801823648,-195.54806554168337,-102.07042665831663,-3.2342560879979962,17.200779251783565,2.3258713627094187,-3.072551761038076,-1.0239595732925852,1.3307592106092183,102.24058665831663,-0.059460775795591184,-0.09828899881362725,0.1231430544509018,0.0,68168658.45290582,0.0,0.0,1.0,0.0,0.0
68199456.0,-0.03025678580561122,-0.043812848142284574,0.030017601316633266,0.0,0.0,1513.0,1500.0,1000.0,1514.3556273346694,1484.6443726653306,1480.9950740681363,17.28410558797595,17.709258520661322,11.741244266993988,16.226351322344687,16.20607110761523,16.604653384348698,16.223480433266534,16.62249095230461,161.04728206272546,161.04728206272546,11.740261090901804,-0.0015780274068136273,-0.006017638861723447,0.00017802751302605207,-0.21496098,0.17735896,-0.004911442,2.0,1.735258875012024,2.735258875012024,11.0,0.0,0.0,1.0,0.0,0.0,0.0,0.0,0.0,0.0,0.0,0.18890382968737474,-0.21082527621643285,1.9656242688196393,1.976804305511022,0.7750101392825651,175.5754918543086,49.8108170588978,-0.018582742024048096,0.014119897841683366,-0.006479032046092185,0.0,-1.670580445316633,0.4667503758136272,-8.839275712677354,-5.32e+20,954.4404498677354,11.741800852965932,-0.07487904868937877,-0.10865661273747496,0.35038701127254507,80.28068866808621,81.62399478046095,-7.730520323773547,-0.10957383253306613,-0.012408770859719446,0.45685615555911824,-5.32e+20,92.03393996747495,101.43562699298597,-4.435358108867735,-2.481605249965932,15.368344397134269,17.324709912865732,-0.03912730896392786,-0.24857955345891786,-0.1,89.1935648164529,501.66295581883764,11.741244266993988,95442.75627749499,1.134017864242485,-0.48166922825651304,-0.2841505179258517,2.039342536320641,-0.07552566795791583,-0.095312902749499,0.3972343138036072,0.17051017669539079,-0.20418320698597195,1.973239762274549,0.5394094530981963,0.1314219210280561,0.014658313867735473,0.8315921959238477,0.0,398726865.75791585,327341237.3116233,502302.0687785571,17.548810530821644,-2.897083007162325,17.28886433044088,2.1535146147074147,1.7372545528657315,0.0,0.0,0.0,764000.0,39.8714138,32.7364368,141.08501334188378,-195.02242524509018,-101.99852098997997,-3.329568728148297,17.16942028014028,2.3614996536513027,-3.1413819398456915,-1.0681101229018035,1.0741917661803608,102.16868098997996,-0.05667446843086173,-0.1025059774008016,0.12193732145490982,0.0,68199455.99799599,0.0,0.0,1.0,0.0,0.0
68231684.0,-0.03167628481162325,-0.04028560318236474,0.027429983855711423,0.0,0.0,1513.2424849699398,1500.0,1000.0,1513.7575150300602,1485.2424849699398,1482.0,17.23233566042084,17.656145698757516,11.741727620040079,16.26066316531062,16.241116273126252,16.640508113406813,16.26077176971944,16.660646913446897,161.8043004322645,161.8043004322645,11.740750466052104,-0.001578099883767535,-0.006017272581162324,0.0001783619318637274,-0.21496098,0.17735896,-0.00491144224248497,2.0,1.7375779762565131,2.737577976256513,11.0,0.0,0.0,1.0,0.0,0.0,0.0,0.0,0.0,0.0,0.0,0.18555518887775552,-0.208973334252505,1.9674305487895791,1.9772956633386773,0.6845880878296593,175.0273590466934,49.793756900380764,-0.01855088285971944,0.013956734573146293,-0.006944285090180361,0.0,-1.7094407019098194,0.5708128114328657,-9.072254184931865,-4.910200400801603e+20,954.4467207931864,11.742261321002005,-0.08652153046893787,-0.10538860430861724,0.44770808168336673,-1.4840893359398797,-0.48911003363326655,-7.689123210861723,-0.10773489086973947,0.008924436144288575,0.39673423054909823,-4.910200400801603e+20,91.89264828609218,101.35996719358718,-4.413764331713427,-2.4958959846533064,15.36827104767535,17.37048960573146,-0.040044369064128255,-0.24228061143486976,-0.1,89.0120766573948,501.4780184470942,11.741727620040079,95444.88673697395,1.1340431538857716,-0.39842329069539084,-0.0897639368156313,1.3022426056352707,-0.09414400919038077,-0.09618248686773548,0.4878959223587174,0.16603414230661323,-0.20770336278356713,1.9737052004268536,0.5392875204689378,0.13165995619639279,0.011853543258517035,0.8316802864288577,0.0,398726856.7509018,327341302.9468938,502228.1651340682,17.534778182625253,-2.993750245446894,17.262358786272546,2.208084847234469,1.742887510252505,0.0,0.0,0.0,764000.0,39.8714138,32.7364368,140.98151757214427,-194.4870478731463,-101.92446118216434,-3.427060708084168,17.137462043266535,2.39274315895992,-3.187599226186373,-1.0941144630921844,0.8408538483486975,102.09462118216433,-0.057526676675350705,-0.1073463977755511,0.11966360433667335,0.0,68231683.9218437,0.0,0.0,1.0,0.0,0.0
68263374.0,-0.029727903651302606,-0.037405778635270545,0.026679454625250502,0.0,0.0,1514.0424641703407,1500.0,1000.0,1513.2329487955913,1485.7670512044087,1482.0,17.249285025631263,17.673341034148297,11.742213274729458,16.29497500178357,16.276161433486976,16.67636284246493,16.29806310102204,16.69880287973948,162.56131875030056,162.56131875030056,11.741239841202406,-0.00157817301002004,-0.006016906949899799,0.0001786963507014028,-0.21496098,0.17735896,-0.004911443,2.0,1.739897078016032,2.7398970780160323,11.0,0.0,0.0,1.0,0.0,0.0,0.0,0.0,0.0,0.0,0.0,0.18220654858316632,-0.20712139228857715,1.969236828759519,1.9777870218156313,0.594166036511022,174.47922623907814,49.776696743206415,-0.01852157250501002,0.013804254402805612,-0.007342755639278557,0.0,-1.7337827498136271,0.6198186160941883,-9.285006482895792,-3.374889779559118e+20,954.4521175609218,11.742734699619238,-0.11124434138877755,-0.09910289021242485,0.5279796772805612,-1.5340410433687375,-0.2839332796292585,-7.799691157118236,-0.10808553585571143,0.025484566865731462,0.3149103157775551,-3.374889779559118e+20,91.77338249997996,101.28229203286574,-4.303600266911824,-2.518066986470942,15.368210908396794,17.401701438877755,-0.04066980823647295,-0.2351285860621243,-0.1,88.83225291591182,501.4934311498998,11.742213274729458,95444.69902833668,1.1340409613527054,0.007906779533066132,0.47357644383366737,0.40335848933867735,-0.11513911323446895,-0.08858017398797595,0.5471735241442885,0.16502793438076152,-0.21095205041683365,1.9767597379078157,0.5378790367154308,0.1327073024729459,0.01073794376753507,0.8324409752264529,0.0,398726847.73046094,327341368.58216435,502154.2614246493,17.52074583442886,-3.0904174832164326,17.235853247254507,2.262655080276553,1.7485204681543085,0.0,0.0,0.0,764000.0,39.8714138,32.7364368,140.8656424611222,-193.92494985531062,-101.8444900008016,-3.5305332348396794,17.103859300661323,2.4119539271322648,-3.1717621705631265,-1.0703219398376753,0.6712624426953908,102.01465000080161,-0.05250917118837676,-0.110836827751503,0.11884553813827654,0.0,68263374.12224449,0.0,0.0,1.0,0.0,0.0
68292034.0,-0.027779644543086172,-0.03532323263527054,0.02700198983166333,0.0,0.0,1514.360127891784,1500.0,1000.0,1514.7158000841682,1484.2841999158318,1482.0,17.22531369492986,17.648884958537074,11.74269968777555,16.329286838517035,16.311206601162326,16.712217571523045,16.3353544398998,16.736958838456914,163.31833714148297,163.31833714148297,11.741729216352706,-0.001578246136272545,-0.00601654129258517,0.00017903076953907816,-0.21496098,0.17735896,-0.004911443,2.0,1.7422161790180362,2.742216179018036,11.0,0.0,0.0,1.0,0.0,0.0,0.0,0.0,0.0,0.0,0.0,0.17885790755711423,-0.2052694503246493,1.9710431087294589,1.9782783802925852,0.5037439859238477,173.93109343146293,49.75963659334669,-0.01849669821242485,0.01366532816232465,-0.007669460945891782,0.0,-1.7559946232985972,0.6609193574008015,-9.494675516743486,-1.6849298597194403e+20,954.457400402004,11.743209898757515,-0.12929038006012025,-0.09744379198597196,0.5770430290380761,-1.5411789556032063,-0.09657331487174363,-7.95120348829058,-0.10875185629058116,0.041338330651302595,0.23017305478757522,-1.6849298597194403e+20,91.66068432346692,101.20401608436875,-4.16702663137475,-2.542587698430862,15.368154708196393,17.428569468997996,-0.04120829298997996,-0.2277221924448898,-0.1,88.65292546040081,501.506432508016,11.74269968777555,95444.52916777554,1.134038940681363,0.03213907295791616,0.7172956388597191,-0.6897070739058117,-0.122961359002004,-0.07945981748697396,0.5855090106372746,0.16103013528857715,-0.2138473227254509,1.977637658765531,0.5375966949298597,0.13281844725050101,0.008332977813627256,0.8326314041643286,0.0,398726838.6368737,327341434.2200401,502080.35771523044,17.506713486492984,-3.1870847217174347,17.209347700921843,2.3172253125871745,1.7541534253246491,0.0,0.0,0.0,764000.0,39.8714138,32.7364368,140.74807358296593,-193.3593136268537,-101.76372238116232,-3.634778446963928,17.070047078376753,2.429500372482966,-3.14710128693988,-1.0396653944689378,0.5108098911342687,101.93388238116232,-0.05506254186172345,-0.11525057394188377,0.11500713055310621,0.0,68292034.28857715,0.0,0.0,1.0,0.0,0.0
68320695.0,-0.027017480825651304,-0.0343335401503006,0.028178427146292585,0.0,0.0,1515.8616568797595,1500.0,1000.0,1514.0603864268537,1484.9396135731463,1482.0,17.178502602144288,17.600864616152304,11.743208280861724,16.363598683907814,16.346251760180362,16.74807230058116,16.372645778777557,16.775114797174346,164.07535544609217,164.07535544609217,11.742218591503006,-0.00157831926252505,-0.006016174769539078,0.0001793651883767535,-0.21496098,0.17735896,-0.004911443,2.0,1.74453528002004,2.74453528002004,11.0,0.0,0.0,1.0,0.0,0.0,0.0,0.0,0.0,0.0,0.0,0.17550926739679362,-0.20341750836072142,1.9728493886993987,1.978769738769539,0.4133219344709419,173.3829606238477,49.74257643482966,-0.018472127791583165,0.013523447180360722,-0.00790869793987976,0.0,-1.7733942704428858,0.6895226018897795,-9.693799110270541,-1.4214428857715556e+19,954.462867124449,11.743686690841683,-0.12941255173346694,-0.08495722842885772,0.597434847264529,-1.566233708559118,0.06309741336472934,-8.12530564054509,-0.10995815854509017,0.055409252945891774,0.1472433952084169,-1.4214428857715556e+19,91.5479861382966,101.1257400492986,-4.030452994971944,-2.567108411256513,15.368098507995992,17.455437507775553,-0.04174677687775551,-0.2203157988276553,-0.1,88.47359800488978,501.3824728977956,11.743208280861724,95445.95001086172,1.1340557713126254,-0.35511909771342653,1.0819709432885767,-0.6346600914509019,-0.12071962022444889,-0.06348409454108217,0.5918290593747495,0.15775600632064127,-0.21646449525050102,1.979014925739479,0.5370776171442886,0.13301251005611223,0.006339029126252507,0.8329551644048097,0.0,398726829.62985975,327341499.944489,502006.45400581165,17.492681147214427,-3.2837519593527054,17.18284216324649,2.371795545763527,1.7597863833607215,0.0,0.0,0.0,764000.0,39.8714138,32.7364368,140.63047319218438,-192.7975260076152,-101.68334789018036,-3.7375231949599197,17.036746988196395,2.4464204870921846,-3.111211350266533,-1.0072039955210421,0.36436518803807627,101.85350789018035,-0.04961905751302606,-0.11546766349098196,0.1142075529478958,0.0,68320695.32064128,0.0,0.0,1.0,0.0,0.0
68355832.0,-0.03060397472745491,-0.03475932522044088,0.028790865887775557,0.0,0.0,1516.809619238477,1500.0,1000.0,1514.0,1485.0,1481.190380761523,17.21194387480962,17.635063625350703,11.743707887174349,16.397910521202405,16.38129692729459,16.783927029639276,16.40993710955912,16.813270755891786,164.83237383166335,164.83237383166335,11.742707966653306,-0.0015783915791583167,-0.006015809056112225,0.00017969960721442885,-0.21496098,0.17735896,-0.004911443,2.0,1.746854381022044,2.746854381022044,11.0,0.0,0.0,1.0,0.0,0.0,0.0,0.0,0.0,0.0,0.0,0.1724197774488978,-0.20372848524248496,1.9743890003326654,1.9792070106332664,0.33650672527054115,172.8334414242485,49.733725459158315,-0.018449568464929858,0.013386417436873747,-0.008063075503006013,0.0,-1.7429081262925852,0.5937650208156313,-9.787986502651302,11.744179440521041,954.4701636673346,11.744179440521041,-0.11841202857715431,-0.06497177312825654,0.5805536570661323,-1.5881906162324648,0.171094985513026,-8.272056173464929,-0.11653774580961923,0.051739381533066134,0.08230092480761526,11.744179440521041,91.43528796122244,101.04746401422845,-3.8938793593787575,-2.5916291232725452,15.36804230779559,17.482305538456913,-0.0422852615751503,-0.2129094044008016,-0.1,88.29427054937877,501.2714748058116,11.743707887174349,95447.20422621243,1.1340706572384769,0.027906924617234152,0.37521148494388823,-1.5705684607474943,-0.11749657354308617,-0.04252256387575151,0.5749774120320642,0.15704209336072145,-0.21879576531462927,1.9822691556633265,0.5356236185891783,0.13377212914228456,0.005617127468937877,0.8337743306573147,0.0,398726820.54188377,327341565.587976,501932.5503773547,17.47864879983968,-3.380419197797595,17.156336625571143,2.4263657781302608,1.7654193413967938,0.0,0.0,0.0,764000.0,39.8714138,32.7364368,140.512558992986,-192.27403572625252,-101.60688620801604,-3.8253370299699396,17.008543005831665,2.4571080677935875,-2.9635826895931863,-0.9567827555230461,0.35731061570741485,101.77704620801603,-0.04353399444689379,-0.11767480360521042,0.11359782538677354,0.0,68355832.49699399,0.0,0.0,1.0,0.0,0.0
68388822.0,-0.03005452716232465,-0.03564598368737475,0.031617231178356714,0.0,0.0,1517.7014028056112,1500.0,1000.0,1514.0,1485.0,1480.2985971943888,17.209287249058118,17.632146356012022,11.744227763827656,16.43222236468938,16.416342088216435,16.819781758697395,16.447228446533067,16.85142672162325,165.5893921553106,165.5893921553106,11.743197341803608,-0.0015784645150300602,-0.006015443424849699,0.00018003472745490982,-0.21496098,0.17735896,-0.004911443701402805,2.0,1.749173482024048,2.749173482024048,11.0,0.0,0.0,1.0,0.0,0.0,0.0,0.0,0.0,0.0,0.0,0.1695000256753507,-0.20545612548296593,1.9757539500921844,1.9796088569358719,0.26860369725450906,172.28301419178356,49.73025131607214,-0.018426835178356714,0.013234175613226453,-0.008134192897795592,0.0,-1.7075622862024047,0.4853866621883768,-9.871524429775551,11.74467380965932,954.4776459098197,11.74467380965932,-0.11585260786573146,-0.035430962326653326,0.5490871000521043,-1.6729325351102204,0.4003035782985971,-8.44209476812425,-0.12366264170140279,0.04626908303607215,0.01918388767334673,11.74467380965932,91.32258977795591,100.96918797915832,-3.7573057231663327,-2.616149835206413,15.36798610759519,17.50917357533066,-0.042823745653306614,-0.20550301059318637,-0.1,88.11494310088176,501.22965802725446,11.744227763827656,95447.7116445491,1.1340766933006012,0.1805717443567134,0.2843588256052104,-2.090514154735471,-0.11231210000601202,-0.018898606591182372,0.5292350108296593,0.1492930132204409,-0.220954506496994,1.9802757518156313,0.5368362724268537,0.13258498066533067,0.0016615638817635294,0.8331966137434871,0.0,398726810.6741483,327341629.61002004,501856.2109254509,17.466973642024048,-3.4763007157835673,17.127473897515028,2.459721346787575,1.7710797053446894,0.0,0.0,0.0,764000.0,39.8714138,32.7364368,140.3946129468938,-191.75443205591185,-101.53082161783567,-3.9116355983567135,16.98085620973948,2.467163139567134,-2.804614207218437,-0.9045388583887776,0.36440207220040083,101.70098161783568,-0.04519577086973948,-0.12082977463727454,0.1104205470501002,0.0,68388821.99599199,0.0,0.0,1.0,0.0,0.0
68418677.0,-0.02901272038476954,-0.03691270332064128,0.03434679849098196,0.0,0.0,1518.5931863727455,1500.0,1000.0,1514.4000063326653,1484.5999936673347,1479.4068136272545,17.219533394669337,17.642668715991984,11.744735784208418,16.466534204148296,16.451387253166335,16.855636481823648,16.48451977947896,16.889582683326655,166.34641051923847,166.34641051923847,11.743686716953908,-0.0015785376412825651,-0.006015077200400802,0.00018036944488977955,-0.21496098,0.17735896,-0.004911444,2.0,1.7514925830260522,2.751492583026052,11.0,0.0,0.0,1.0,0.0,0.0,0.0,0.0,0.0,0.0,0.0,0.1666192065551102,-0.20750870893987974,1.977078837266533,1.9800025775971946,0.2027448761923848,171.73237868276553,49.72801047501002,-0.018402977809619237,0.013071593376753508,-0.008117087869739479,0.0,-1.6717598885470941,0.3792772946332666,-9.915353986156312,-3.137955911823646e+19,954.4863205755511,11.745168238116232,-0.11515125924649298,-0.009402646036072153,0.4947487908977956,-1.7158802318176352,0.5627603873326653,-8.694672778118237,-0.1303872619539078,0.03922059973747495,-0.03445394739478956,-3.137955911823646e+19,91.20753116184369,100.8898748763527,-3.636842309705411,-2.6397700516693385,15.36793139036072,17.535870616272547,-0.043358780162324646,-0.19805449481162327,-0.1,87.93406288218436,501.19874199458917,11.744735784208418,95448.06148911823,1.134080864272545,0.4374046647394788,0.5949046521823647,-2.4420558961763525,-0.1102066131503006,0.00835837067535069,0.4705504467955912,0.14787911861322647,-0.2229467849018036,1.982913440733467,0.5357087191683366,0.13302732026052105,0.0007000418036072141,0.8338554844448898,0.0,398726800.12244487,327341692.4823647,501778.0552667335,17.45705607563126,-3.571596374541082,17.09685357803607,2.477258569971944,1.7767605041603207,0.0,0.0,0.0,764000.0,39.8714138,32.7364368,140.27321218336675,-191.22716056192385,-101.45329126412825,-3.995996423018036,16.953575748216434,2.478800479234469,-2.6397032517875756,-0.8545847508176353,0.393731389004008,101.62345114549099,-0.045157963018036075,-0.12311289414629259,0.10827394850300602,0.0,68418676.82364729,0.0,0.0,1.0,0.0,0.0
68447337.0,-0.02851231438476954,-0.03834780775350701,0.036471981951903806,0.0,0.0,1519.4849699398796,1500.0,1000.0,1514.347302795591,1484.652697204409,1478.5150300601204,17.19479530539078,17.617359057775552,11.745249389478959,16.50084604547094,16.486432416252505,16.89149120681363,16.521811114288578,16.927738642044087,167.10342886452904,167.10342886452904,11.744176092104208,-0.00157861076753507,-0.006014711162324649,0.00018070386372745492,-0.21496098,0.17735896,-0.004911444,2.0,1.7538116840280562,2.753811684028056,11.0,0.0,0.0,1.0,0.0,0.0,0.0,0.0,0.0,0.0,0.0,0.1637383876212425,-0.20956129288176353,1.9784037244408816,1.980396298258517,0.13688605561523048,171.18174322224448,49.725769632084166,-0.01837988657715431,0.012906886735470944,-0.008026634330661322,0.0,-1.634763335476954,0.27910261887775556,-9.855323718659319,-1.446078156312625e+20,954.4981142212424,11.74566281767535,-0.11283110841482966,0.008824210342685369,0.43390932400601206,-1.768480856028056,0.6253045414529058,-8.942180024190382,-0.13606493576352705,0.028044270364729458,-0.0632983119278557,-1.446078156312625e+20,91.07514779098196,100.80294976653306,-3.6346220449058118,-2.6567809593887772,15.36788756034068,17.561312633306613,-0.04386849521042084,-0.1902968213466934,-0.1,87.7417859173948,501.0806286358718,11.745249389478959,95449.41283885771,1.1340969241843688,0.2768707734208418,0.7612287656513026,-2.8608360078136275,-0.10655651255911824,0.03263933985771542,0.39110614187174353,0.14420281164529059,-0.22481698621643287,1.9837952780180361,0.5354716948416834,0.13281246921042086,-0.0012881567755511011,0.8340379746052103,0.0,398726789.33186376,327341754.9963928,501699.3182280562,17.447701176833668,-3.6667044784288576,17.065670586112226,2.4897317661002005,1.7824478449418837,0.0,0.0,0.0,764000.0,39.8714138,32.7364368,140.14277538657316,-190.67983324368737,-101.37192712565131,-4.0752889538016035,16.92735807707415,2.4945763454108216,-2.459249371749499,-0.8106197364328658,0.4812252765631262,101.54208658617235,-0.04828984022044088,-0.1260567263767535,0.10544937365931864,0.0,68447337.4488978,0.0,0.0,1.0,0.0,0.0
68475998.0,-0.029147533859719438,-0.039948295418837675,0.037986165683366734,0.0,0.0,1520.0,1500.0,1000.0,1513.3017359759517,1485.6982640240483,1477.623246492986,17.167026843647296,17.588803811743485,11.745763698096193,16.53515788709419,16.521477579038077,16.927345935871745,16.559102453166332,16.965894600761523,167.86044720681363,167.86044720681363,11.744665463486974,-0.0015786835170340681,-0.006014345531062124,0.00018103828256513027,-0.21496098,0.17735896,-0.004911444376753507,2.0,1.75613078503006,2.7561307850300603,11.0,0.0,0.0,1.0,0.0,0.0,0.0,0.0,0.0,0.0,0.0,0.16085756909418839,-0.21161387685370742,1.9797286116152304,1.9807900189198395,0.07102723506813627,170.63110776472945,49.72352878509018,-0.01835641619438878,0.012740492174348698,-0.007867836549098197,0.0,-1.5969578578877754,0.1829481237975952,-9.724938442206412,-3.135831663326653e+20,954.5120206941883,11.74615750270541,-0.10956358508016031,0.024058477488977954,0.368290179973948,-1.7894372791823647,0.6631164356052104,-9.145842200468937,-0.14103340446092183,0.014071723390781565,-0.07534749220841683,-3.135831663326653e+20,90.92922837981963,100.7100772478958,-3.7247865858276556,-2.6686279339879757,15.367852236793587,17.585774083346692,-0.0443584277254509,-0.18229759906613227,-0.1,87.54060453863728,500.98502636492987,11.745763698096193,95450.50862176353,1.1341099417855711,0.03133331636272545,0.6064163627975951,-2.9934557786372746,-0.1017712830480962,0.052802151172344686,0.30063702908617235,0.13937731102805612,-0.22657727784769538,1.9836864233607214,0.5357311024849699,0.13224828739478958,-0.0037908087394789578,0.8339568672284569,0.0,398726778.5789579,327341817.51042086,501620.58119238477,17.43834627803607,-3.761812582693387,17.034487593887775,2.5022049618216435,1.7881351857234469,0.0,0.0,0.0,764000.0,39.8714138,32.7364368,140.00621751222445,-190.11892001823648,-101.28796600801604,-4.151148204573146,16.901860344008018,2.5131556643687376,-2.268266659945892,-0.7707117547494989,0.6081200488176353,101.45812480661323,-0.04881361013026052,-0.12879804628857713,0.10358131223847696,0.0,68475998.10420841,0.0,0.0,1.0,0.0,0.0
68507881.0,-0.029978926913827655,-0.04172976528857715,0.039211064136272546,0.0,0.0,1520.0,1500.0,1000.0,1512.4947228677354,1486.5052771322646,1476.7314629258517,17.187353745631263,17.609488558376754,11.746270725951904,16.569469723567135,16.556522744288575,16.96320066492986,16.596393789358718,17.00405056216433,168.6174656006012,168.6174656006012,11.74515483240481,-0.0015787560200400802,-0.006013979631262525,0.0001813727014028056,-0.21496098,0.17735896,-0.004911445,2.0,1.758449886032064,2.7584498860320643,11.0,0.0,0.0,1.0,0.0,0.0,0.0,0.0,0.0,0.0,0.0,0.15797675056713426,-0.21366646057915833,1.9810534987895791,1.9811837393126253,0.00516841400601202,170.0804722557114,49.72128793809619,-0.01833121418236473,0.012569491308617236,-0.007649033042084168,0.0,-1.5718680943727454,0.09052442771543084,-9.587845966811622,-4.5885370741482966e+20,954.5254329246493,11.746672835330662,-0.10833885469539078,0.039934978296593183,0.28887415529458915,-1.7547640305671344,0.7064448391523046,-9.36094538863527,-0.14560006650501,0.0009912039438877743,-0.08159048471342685,-4.5885370741482966e+20,90.78330897112224,100.61720470460922,-3.814951127018036,-2.680474908587174,15.367816915931863,17.610235530921845,-0.04484836024048096,-0.17429837653907818,-0.1,87.33942315987977,500.9426587803607,11.746270725951904,95450.97333789579,1.1341154546813628,-0.009995578899799601,0.16950735334468933,-2.5665473541062123,-0.10156679091382766,0.06722566771743488,0.21566901905611224,0.13810284308817636,-0.22816906133867737,1.9860731711342685,0.5347245994288577,0.13256851498196393,-0.004600892312625251,0.8345462950801603,0.0,398726767.8507014,327341880.0513026,501541.84413206414,17.42899137923848,-3.856920687204409,17.003304606813625,2.5146781578116233,1.79382252650501,0.0,0.0,0.0,764000.0,39.8714138,32.7364368,139.87025912224448,-189.56452085771542,-101.20461470901805,-4.224405365737475,16.87706299054108,2.5331041346372745,-2.092384486018036,-0.7325966552024048,0.7238925565631262,101.37477303587174,-0.045614015859719435,-0.13016901341082163,0.10280011630460922,0.0,68507880.68937875,0.0,0.0,1.0,0.0,0.0
68545319.0,-0.02799203364729459,-0.04337852666132264,0.04088197477755511,0.0,0.0,1520.0,1500.0,1000.0,1513.2115641102207,1485.7884358897793,1476.0,17.19761784252505,17.619912986232464,11.746796914128257,16.603781561643288,16.59156790490982,16.999055393987977,16.633685120921843,17.04220652819639,169.37448397835675,169.37448397835675,11.74564420755511,-0.0015788291462925852,-0.006013613268537074,0.00018170712024048096,-0.21496098,0.17735896,-0.004911445,2.0,1.7607689871943888,2.760768987194389,11.0,0.0,0.0,1.0,0.0,0.0,0.0,0.0,0.0,0.0,0.0,0.15509593204008015,-0.21571904476753506,1.982378385963928,1.9815774592424849,-0.0606904068957916,169.52983674669338,49.719047091102205,-0.018305870004008015,0.01239289956513026,-0.00739250839278557,0.0,-1.584775289513026,0.009249064919839666,-9.430711111601202,-5.32e+20,954.5373682743488,11.74724985486974,-0.11058360842284569,0.05286934188376754,0.20013182081563125,-1.7832812397154307,0.7114726242725451,-9.615279835408819,-0.1489660543206413,-0.009423768240480964,-0.0704834893026052,-5.32e+20,90.63738955779559,100.5243322236473,-3.9051156686713426,-2.6923218831863727,15.367781599699398,17.63469698472946,-0.045338292755511024,-0.1662991544749499,-0.1,87.13824178112225,500.75111207494996,11.746796914128257,95453.1631672545,1.1341414613847696,-0.5046069333787575,-0.40387436040280555,-2.07029363597996,-0.10706807595390783,0.0692982594509018,0.13447556851503006,0.1326515474168337,-0.22952585946492987,1.985315987997996,0.5353207273446894,0.13166914825851705,-0.007297496911823647,0.834289094258517,0.0,398726757.0761523,327341942.6384769,501463.1071180361,17.419636482044087,-3.9520287910921845,16.972121618136274,2.527151354264529,1.7995098672865733,0.0,0.0,0.0,764000.0,39.8714138,32.7364368,139.73609220841684,-189.02958696693386,-101.12308554168337,-4.289886990627254,16.854358503667335,2.5571438881843687,-1.9616255775811624,-0.6998390266152306,0.8064296331763526,101.29324405390781,-0.05279635868537073,-0.13226225807014028,0.0984170216252505,0.0,68545318.54509018,0.0,0.0,1.0,0.0,0.0
68573980.0,-0.025807373783567133,-0.04466408001202404,0.041703459400801605,0.0,0.0,1519.9478957915833,1500.0,1000.0,1511.876092232465,1487.123907767535,1476.3647294589177,17.18072401412826,17.602513953887776,11.74732242294589,16.638093406513025,16.62661307232465,17.034910123046092,16.67097645927856,17.080362486913828,170.1315022881763,170.1315022881763,11.74613358270541,-0.00157890227254509,-0.006013247637274549,0.0001820415390781563,-0.21496098,0.17735896,-0.004911445,2.0,1.763088089036072,2.7630880890360725,11.0,0.0,0.0,1.0,0.0,0.0,0.0,0.0,0.0,0.0,0.0,0.15221511346092187,-0.2177716282244489,1.9837032731382764,1.9819711799038076,-0.12654922711823635,168.9792012376753,49.71680624410822,-0.018277407024048096,0.01220559711022044,-0.007088442276553106,0.0,-1.6363958263667333,-0.060667778026051986,-9.253156003643287,-5.32e+20,954.5477989316632,11.747889736332667,-0.10904487072745489,0.06022491520841684,0.10497949256513037,-1.7566717982865732,0.7131448066072147,-9.806985774513025,-0.1511087310521042,-0.01712293713026051,-0.04169939467334674,-5.32e+20,90.49147015126253,100.43145974268538,-3.99528020964529,-2.704168857785571,15.367746276152305,17.659158438016032,-0.04582822527054108,-0.15829993173146295,-0.1,86.93706040236472,500.65834237434865,11.74732242294589,95454.24260258517,1.134154378258517,-0.23293355165731539,-0.26241396572545106,-1.9841706315711445,-0.11401191213026052,0.0706639893707415,0.06904941369739491,0.13178931576753508,-0.2307030538436874,1.987784886995992,0.5342784731563126,0.13193478392184368,-0.00781713874148296,0.8349112686913828,0.0,398726746.28617233,327342005.1785571,501384.177052505,17.410449392204406,-4.045458807252505,16.941442049879758,2.5398762628637277,1.8051020233707413,0.0,0.0,0.0,764000.0,39.8714138,32.7364368,139.60375037294588,-188.51448537675353,-101.04341297354709,-4.347446481428857,16.833786340420843,2.58535206095992,-1.8768406763867738,-0.67253987647495,0.8551046686052104,101.21357210480961,-0.047981871214428845,-0.13459800191182364,0.09845261391783568,0.0,68573979.5250501,0.0,0.0,1.0,0.0,0.0
68602640.0,-0.02827588777154308,-0.04615222867935871,0.041199486645290585,0.0,0.0,1519.056112224449,1500.0,1000.0,1509.7553631342685,1489.2446368657315,1482.6072144288578,17.080610723246494,17.49988058965932,11.747848771442886,16.672405242985974,16.661658231342685,17.070764852104208,16.708267789238477,17.118518445631263,170.8885206819639,170.8885206819639,11.746622957855712,-0.0015789753987975952,-0.006012882006012025,0.00018237595791583165,-0.21496098,0.17735896,-0.004911445,2.0,1.7654071900380761,2.7654071900380766,11.0,0.0,0.0,1.0,0.0,0.0,0.0,0.0,0.0,0.0,0.0,0.14933429404208418,-0.21982421168136274,1.9850281603126252,1.9823649005651303,-0.1924080481803606,168.42856572865728,49.71456539711423,-0.018252624358717436,0.01204743572745491,-0.006836371625250501,0.0,-1.6880163632204408,-0.1305846209719438,-9.075600894845692,-5.32e+20,954.558229588978,11.74852961779559,-0.11709974260120239,0.05620389877555111,0.04479246492985982,-1.7772052156913827,0.5926531768076155,-9.859562635985972,-0.15325140694388778,-0.024822106859719428,-0.01291530004408822,-5.32e+20,90.34555073633265,100.33858726172345,-4.085444751458918,-2.7160158323847696,15.367710952605211,17.683619882905813,-0.04631815778557114,-0.15030070982765534,-0.1,86.73587902360723,500.6366430507014,11.747848771442886,95454.49989106212,1.1341574121062123,0.21110742786172276,-0.1778776019879761,-0.8148142407695409,-0.11584375685971943,0.0674758274468938,-0.006284213597194263,0.12424909486573148,-0.23181911116833667,1.985214840773547,0.5357799058316632,0.13036504508416832,-0.01143684989378757,0.8341513745631262,0.0,398726734.0687375,327342068.13847697,501302.13706653303,17.403966464549097,-4.111845794266533,16.91887541320641,2.5566576213006016,1.8091602414468937,0.0,0.0,0.0,764000.0,39.8714138,32.7364368,139.47140862144286,-187.99938378657316,-100.96374040541083,-4.405005972230461,16.813214168777556,2.613560233735471,-1.7920557743527055,-0.6452407263346694,0.9037797031943887,101.1339000717435,-0.056055321615230455,-0.13624296001803607,0.09351182885771545,0.0,68602639.66533066,0.0,0.0,1.0,0.0,0.0
68637986.0,-0.024829947024048102,-0.046744837673346695,0.04104730311222445,0.0,0.0,1516.4929859719439,1500.0,1000.0,1510.7735426212425,1488.2264573787575,1486.3426853707415,17.144328041382764,17.56516014745491,11.748380744008017,16.706717087815633,16.696703398717435,17.106619581162327,16.745559127555108,17.1566744043487,171.64553899218436,171.64553899218436,11.747112333006012,-0.0015790476893787575,-0.006012515539078157,0.00018271037675350702,-0.21496098,0.17735896,-0.004911445835671342,2.0,1.7677262910400802,2.76772629104008,11.0,0.0,0.0,1.0,0.0,0.0,0.0,0.0,0.0,0.0,0.0,0.14645347545891785,-0.22187679597394788,1.9863530466513026,1.982758621226453,-0.2582668692424849,167.87793030320643,49.71232455012024,-0.01821948832264529,0.011877603358717435,-0.00656415544488978,0.0,-1.7040466478597194,-0.1293561429238477,-9.069543251771544,-5.32e+20,954.5661781352705,11.749096996412826,-0.11928642919038077,0.058466522470941876,-0.00972502819839672,-1.693946490739479,0.47057944315831685,-9.894181672408816,-0.15285734815631263,-0.021709919821643293,0.025657792703406755,-5.32e+20,90.20111765480962,100.24946410380763,-4.153355305248497,-2.7261980736232463,15.36766171513026,17.7019991696994,-0.04668672825851703,-0.14240495155711425,-0.1,86.5414218659519,500.6415075462926,11.748380744008017,95454.45411496994,1.1341567890561122,-0.29619858404809546,-0.24055531817835663,-0.34500947377154373,-0.1253719833987976,0.05500187526052106,-0.053675312687374674,0.12629942186573148,-0.23310988397194388,1.9895619069839678,0.5337572556292585,0.13147201921843688,-0.010649639028056115,0.8352856181142284,0.0,398726721.7677355,327342131.0983968,501219.8317549098,17.397714223967938,-4.175925871262525,16.897000854468942,2.573785014527054,1.8130876067615231,0.0,0.0,0.0,764000.0,39.8714138,32.7364368,139.32840746412828,-187.45888255090182,-100.87790827094189,-4.463721934396793,16.792626553927857,2.6392632142464927,-1.7681348928496992,-0.6278796179679359,0.8051674563887777,101.04806822164329,-0.046294213503006026,-0.13836772300400801,0.09524137579759519,0.0,68637986.01202404,0.0,0.0,1.0,0.0,0.0
68667961.0,-0.021787249070140284,-0.03614361783967938,0.038816837793587175,0.0,0.0,1514.5450901803608,1500.0,1000.0,1510.2725450901803,1488.7274549098197,1492.0921843687374,17.126075645350703,17.546397231843688,11.748925119038077,16.741028925931865,16.731748559378758,17.142474310220443,16.782850466432865,17.194830370340682,172.4025573695391,172.4025573695391,11.747601708156312,-0.0015791206513026052,-0.006012149743486975,0.00018304479559118236,-0.21496098,0.17735896,-0.004911446,2.0,1.7700453920420842,2.770045392042084,11.0,0.0,0.0,1.0,0.0,0.0,0.0,0.0,0.0,0.0,0.0,0.14357265693186375,-0.22392937959519038,1.9876779336613226,1.9831523418877757,-0.32412569030460914,167.32729481062123,49.71008370312625,-0.018186972048096193,0.011712832426853706,-0.006314181567134269,0.0,-1.7021049518757516,-0.09220146919639284,-9.150086543801603,-5.32e+20,954.5728732721443,11.74962776787575,-0.12760103211222446,0.04773559531462927,-0.04665674252705408,-1.71432083955511,0.4031066833486975,-9.866558608713428,-0.15118231673547095,-0.013138330741482978,0.06917402744689373,-5.32e+20,90.05852676777555,100.16498798156313,-4.19368372287976,-2.7343170032845694,15.367595226573147,17.712840065651296,-0.04690487845490982,-0.134637430496994,-0.1,86.35529886523047,500.57695496312624,11.748925119038077,95455.17377146293,1.1341653482745493,-0.19860654605410855,-0.48021973150901764,0.2325513896673338,-0.13577087908617233,0.04061956408817637,-0.08257291872945888,0.1276487031202405,-0.23438232110420842,1.9932587793406813,0.5320498192905811,0.13237799296593186,-0.010189208038076153,0.8362379081863727,0.0,398726709.4611222,327342194.05831665,501137.5087004008,17.391477465891782,-4.239851047825652,16.875172758917838,2.590935643430862,1.8170061865270541,0.0,0.0,0.0,764000.0,39.8714138,32.7364368,139.1800235803607,-186.90555536573146,-100.78896579639279,-4.523021878302606,16.772031136793586,2.6637011500841687,-1.7749484660501003,-0.6155369142124248,0.6321796700460925,100.9591257963928,-0.03986948526853708,-0.13897699840881764,0.09563708888977956,0.0,68667960.94589178,0.0,0.0,1.0,0.0,0.0
68699099.0,-0.022844691068136268,-0.027919316557114236,0.03551995991983968,0.0,0.0,1512.7615230460922,1500.0,1000.0,1509.2746029939879,1489.7253970060121,1495.344635482966,17.137378081122247,17.55795597719439,11.749460927895791,16.775340768597193,16.766793724589178,17.17832903308617,16.820141799118236,17.232986331783568,173.15957570140282,173.15957570140282,11.748091083306614,-0.0015791937775551104,-0.006011784112224449,0.00018337983366733466,-0.21496098,0.17735896,-0.004911446,2.0,1.7723644930440883,2.7723644930440883,11.0,0.0,0.0,1.0,0.0,0.0,0.0,0.0,0.0,0.0,0.0,0.14069183840480962,-0.22598196367134268,1.9890028208356714,1.9835460625490984,-0.38998451074749496,166.77665930160316,49.70784285613226,-0.01815338368537074,0.011547437466933867,-0.00610915223246493,0.0,-1.6966433036793587,-0.04801037053907821,-9.247591303268537,-5.32e+20,954.5793229184369,11.750151363486975,-0.13733033768336672,0.034012914983967954,-0.075382324006012,-1.7014305350821644,0.30517484141883783,-9.780189293551103,-0.149256396246493,-0.0034974746813627366,0.11365841499198392,-5.32e+20,89.9163294790982,100.08150473306614,-4.228119014921844,-2.7419950918697396,15.367525052124249,17.72207032877755,-0.04709089085771543,-0.12689730766332666,-0.1,86.17095651214429,500.4066696398797,11.749460927895791,95457.09990867735,1.1341882306172346,-0.5791373472705403,-0.007569903120241417,0.3247046870901805,-0.14017163140681363,0.02879868811422847,-0.09101854809418837,0.12221655002004009,-0.23560731257915832,1.9918567504589177,0.532922509256513,0.13142858323647294,-0.012885376022044084,0.8357909372565131,0.0,398726697.09258515,327342257.0801603,501055.1856004008,17.385240712364727,-4.303776224388778,16.853344661723447,2.608086272498998,1.8209247658376753,0.0,0.0,0.0,764000.0,39.8714138,32.7364368,139.03058544609218,-186.34971605931864,-100.69941413907816,-4.582436200174349,16.75143418521042,2.6878913164689378,-1.7877816212905813,-0.6041771040320641,0.4446248556673349,100.86957413907815,-0.04250214841683366,-0.14058292298597194,0.09236435283967936,0.0,68699098.65931864,0.0,0.0,1.0,0.0,0.0
68731326.0,-0.022409233402805616,-0.017853772188376766,0.03152322090180361,0.0,0.0,1511.4889779559119,1500.0,1000.0,1508.9161725531062,1490.0838274468938,1494.5507613146292,17.150798193947896,17.571633978997998,11.750012365170342,16.809652608877755,16.80183888741483,17.214183758336674,16.857433134188376,17.271142290501004,173.91659405711422,173.91659405711422,11.748580458456914,-0.0015792669038076153,-0.00601141796993988,0.00018371463326653307,-0.21496098,0.17735896,-0.004911446511022044,2.0,1.7746835940460923,2.7746835940460928,11.0,0.0,0.0,1.0,0.0,0.0,0.0,0.0,0.0,0.0,0.0,0.13781101987775551,-0.22803454750901803,1.9903277080100201,1.9839397832104209,-0.4558433314288577,166.22602379258518,49.705602009138275,-0.018119705348697394,0.01138662756713427,-0.005952703685370741,0.0,-1.669461973248497,-0.02868635677154309,-9.37424791187575,-5.32e+20,954.5878607541082,11.750684497154309,-0.14280994049899798,0.021784273180360733,-0.09156155172144288,-1.6779219625070139,0.1917436328917837,-9.64793082084569,-0.14505588008416834,0.005107228755511014,0.15325414490180359,-5.32e+20,89.77413219042084,99.99802152545091,-4.262554306725451,-2.749673180216433,15.367454882785571,17.731300591903807,-0.047276903022044084,-0.11915718455711424,-0.1,85.98661416144289,500.32525247755507,11.750012365170342,95458.02394665331,1.1341992331623247,-0.22061836364328768,0.25944579164929876,0.4007593752064126,-0.14760128721843688,0.015937613244488995,-0.08419116013827657,0.12090963364729458,-0.236780498751503,1.99335623595992,0.5323140313306614,0.1315768016733467,-0.013651957745490984,0.836144175983968,0.0,398726684.7478958,327342320.07815635,500972.8624731463,17.379003961563125,-4.367701400951904,16.83151656963928,2.6252369015671344,1.8248433448757515,0.0,0.0,0.0,764000.0,39.8714138,32.7364368,138.877986895992,-185.79495523767534,-100.60923806392785,-4.643911674032064,16.731257531202406,2.7032849269498995,-1.8288897412104208,-0.617167865254509,0.31312454857314637,100.77939724629259,-0.038988924108216444,-0.14120136314629259,0.09137614669739479,0.0,68731326.31462926,0.0,0.0,1.0,0.0,0.0
68763554.0,-0.01881970993386774,-0.007774347174348703,0.02792530968136273,0.0,0.0,1510.5971943887776,1500.0,1000.0,1508.8265978236473,1490.1734021763527,1492.5971943887776,17.127325971623247,17.54748217721443,11.750578913507015,16.843964445350704,16.836884050460924,17.25003848739479,16.894724473066134,17.309298249218436,174.67361241062125,174.67361241062125,11.749069833607214,-0.001579339627254509,-0.006011051849699398,0.0001840490521042084,-0.21496098,0.17735896,-0.004911447,2.0,1.7770026950480962,2.7770026950480964,11.0,0.0,0.0,1.0,0.0,0.0,0.0,0.0,0.0,0.0,0.0,0.1349302009478958,-0.23008713096593186,1.9916525951843687,1.9843335038717433,-0.5217021524909818,165.6753883238477,49.70336116214429,-0.018085496731462924,0.01122990748496994,-0.00584260823246493,0.0,-1.623275704519038,-0.031121289200400797,-9.52641267782565,-5.32e+20,954.5982257851704,11.751225972224448,-0.14621324324048093,0.006836217949899817,-0.08713571650300603,-1.6811785027414827,0.1058388077655311,-9.541461887579159,-0.13886506995791584,0.012805288330661316,0.18857225084769536,-5.32e+20,89.63193490174349,99.91453833218436,-4.296989598551102,-2.7573512685851704,15.367384713226453,17.74053085905812,-0.047462915208416834,-0.11141706185370742,-0.1,85.8022718145491,500.2497255793587,11.750578913507015,95458.90941877755,1.1342097861603206,0.49645910272144267,0.044878334761523364,1.146124739601201,-0.15317012095991986,-0.0009558829819639094,-0.06600143530460925,0.11977102626052105,-0.23791728972545093,1.9948743153246493,0.5316895821863727,0.1317550441743487,-0.014337783152304606,0.8365009856773546,0.0,398726672.3204409,327342383.11863726,500889.97211503005,17.373050866472944,-4.431484752881763,16.809404845791583,2.641678453791583,1.8287520237575152,0.0,0.0,0.0,764000.0,39.8714138,32.7364368,138.72262294649298,-185.2411381492986,-100.51851557094189,-4.707190676242486,16.71144864242485,2.7109814638356715,-1.8947387363286572,-0.6514656189198397,0.23067249237074156,100.68867328617235,-0.03697079099799598,-0.14089177830861724,0.08994804177154309,0.0,68763553.58917835,0.0,0.0,1.0,0.0,0.0
68794603.0,-0.01700565415230461,-0.0053367055871743445,0.025379969703406818,0.0,0.0,1509.7054108216432,1500.0,1000.0,1508.9909196953909,1490.0090803046091,1491.11623246493,17.116992743507012,17.536787962645292,11.751145228316634,16.878276284769537,16.8719292154509,17.285893216452905,16.932015808997996,17.347454210881764,175.43063074468938,175.43063074468938,11.749559208757514,-0.0015794121563126253,-0.006010686218436874,0.00018438347094188376,-0.21496098,0.17735896,-0.004911447,2.0,1.7793217960501002,2.7793217960501004,11.0,0.0,0.0,1.0,0.0,0.0,0.0,0.0,0.0,0.0,0.0,0.13204938182364728,-0.23213971471743486,1.9929774823587174,1.984727224533066,-0.587560973258517,165.12475287454907,49.7011203151503,-0.01805127482965932,0.011080506096192384,-0.005782630771543087,0.0,-1.574825852488978,-0.03651369175551102,-9.680986966807614,-5.32e+20,954.6089156945892,11.751768946513025,-0.15215592286172344,-0.013360230999999983,-0.06777960940881765,-1.6742097979058117,0.019322718501002124,-9.444247281326653,-0.13239776759919838,0.02002166857114228,0.22257570781763522,-5.32e+20,89.48973761306614,99.83105511935872,-4.331424890571141,-2.7650293574428857,15.367314538777554,17.74976112815631,-0.04764892788376753,-0.10367693934468938,-0.1,85.6179294676553,500.13236973807614,11.751145228316634,95460.26937074147,1.1342259539018036,0.4466096776032069,-0.143958358486974,1.9506039338016037,-0.1524919820981964,-0.016670300651302598,-0.0362567062905812,0.11547328909418837,-0.23899208025851706,1.993993197709419,0.5322802487595191,0.13105244245691383,-0.01648578317234469,0.8361994766272545,0.0,398726659.4222445,327342446.4042084,500804.7478386774,17.368264853046092,-4.494684586156312,16.786126153106213,2.6552026006533067,1.832619969753507,0.0,0.0,0.0,764000.0,39.8714138,32.7364368,138.5668600056112,-184.68824426412826,-100.42780858436875,-4.770746433743487,16.691705781262524,2.71723712997996,-1.9637563285651303,-0.6881774252144288,0.15853204199599202,100.59796481302605,-0.03970044336673348,-0.14065750795591184,0.0864900692024048,0.0,68794602.80160321,0.0,0.0,1.0,0.0,0.0
68824009.0,-0.01964392631462926,-0.011017021501002,0.023377128915831664,0.0,0.0,1509.0,1500.0,1000.0,1509.8136272545091,1489.1863727454909,1488.8136272545091,17.170861720541083,17.591866008557115,11.751711708016032,16.912588128296594,16.906974376332666,17.32174794551102,16.96930714082164,17.385610176653305,176.18764911983968,176.18764911983968,11.750048583907816,-0.0015794852825651302,-0.006010320400801603,0.00018471788977955913,-0.21496098,0.17735896,-0.004911447,2.0,1.7816408970521043,2.7816408970521045,11.0,0.0,0.0,1.0,0.0,0.0,0.0,0.0,0.0,0.0,0.0,0.12899012443887775,-0.23384136291382765,1.994208046472946,1.9850984600681363,-0.6492358181062123,164.5764897973948,49.72439721817635,-0.01801920150701403,0.010944461002004009,-0.0057796130501001994,0.0,-1.5422237618657313,-0.02875300998797599,-9.805714967667335,-5.32e+20,954.619544942485,11.752311926773547,-0.1594396904749499,-0.03123791290581162,-0.0472674698196393,-1.621377039513026,-0.09792644373146293,-9.256423444859719,-0.12705211573547093,0.02289618728056113,0.24916222521242484,-5.32e+20,89.3467850917034,99.74729162801604,-4.363091278456914,-2.773886821234469,15.367244658797595,17.758584647675352,-0.04782679886573146,-0.09564723138476955,-0.1,85.43217374999998,500.1211959773547,11.751711708016032,95460.37307250501,1.1342271924388778,-0.07805399719238468,0.06161446463527008,1.6633851953607215,-0.15343306922845693,-0.02154332598396794,0.004732480314629228,0.11584825611823649,-0.2399461749799599,1.9964636221943888,0.5311687650380762,0.13156790971543086,-0.016426223741482966,0.836826252016032,0.0,398726645.8671343,327342509.98837674,500716.18813086173,17.365146713967935,-4.5570505194689375,16.761179763366734,2.664557513533066,1.8364297048236473,0.0,0.0,0.0,764000.0,39.8714138,32.7364368,138.4124534951904,-184.14562409739477,-100.3386570246493,-4.833643334078157,16.6719594450501,2.7227613330000002,-2.015169353719439,-0.705434109507014,0.10646681471142284,100.50881246012024,-0.033209543134268535,-0.1398819452705411,0.08601282898396795,0.0,68824009.13827655,0.0,0.0,1.0,0.0,0.0
68855924.0,-0.018259525541082164,-0.016123262470941882,0.02214389656713427,0.0,0.0,1508.9218436873748,1500.0,1000.0,1509.0781563126252,1489.9218436873748,1487.8436873747496,17.161809748857713,17.582686868737476,11.75227837519038,16.9468999655511,16.942019543486975,17.35760267456914,17.006598478917837,17.42376613537074,176.94466743226454,176.94466743226454,11.750537959058116,-0.0015795584088176351,-0.006009953955911824,0.00018505230861723447,-0.21496098,0.17735896,-0.004911447078156312,2.0,1.7839599980541083,2.7839599980541085,11.0,0.0,0.0,1.0,0.0,0.0,0.0,0.0,0.0,0.0,0.0,0.125177196002004,-0.23406076456312624,1.99504021903006,1.9853747251723446,-0.6932388346713426,164.03824714088182,49.85545326861723,-0.017986846963927855,0.01080664148496994,-0.005827477997995992,0.0,-1.560691021975952,0.021393437166332636,-9.83426341480962,-5.32e+20,954.6299787288577,11.752854907034068,-0.1613865804448898,-0.03496603391382765,-0.01721649794188379,-1.6203150896593188,-0.09651668174549097,-9.083024724276553,-0.12532097834068137,0.011779074214428864,0.25184768168336674,-5.32e+20,89.20086591034068,99.66242716428857,-4.3838810239699395,-2.787377035513026,15.367175934789579,17.765810420861726,-0.04797268819639278,-0.08647999331863727,-0.1,85.2408661134469,500.0050659609219,11.75227837519038,95461.72469440883,1.1342432177274548,-0.13884164094789625,0.7411544619579159,1.540266298462926,-0.15199878626853708,-0.01526629662525051,0.05006371246893786,0.11185691958316633,-0.2402709646492986,1.9956659956412826,0.5317458120561122,0.1306348984048096,-0.01823691311422846,0.83656826951503,0.0,398726632.31202406,327342573.5803607,500627.62848577154,17.36202857410822,-4.619416453408817,16.73623336735471,2.673912425785571,1.8402394398937876,0.0,0.0,0.0,764000.0,39.8714138,32.7364368,138.26241812565132,-183.63611105511023,-100.25451769098197,-4.894417070659318,16.652201900641284,2.725928398,-2.009851726785571,-0.659996736258517,0.11909391800801603,100.4246747238477,-0.03550979694789579,-0.13726535690781563,0.08262256376553105,0.0,68855923.86573146,0.0,0.0,1.0,0.0,0.0
