timestamp,control[0],control[1],control[2],control[3],control[4],output[2],output[3],output[4],output[5],output[6],output[7],indicated_airspeed_m_s,true_airspeed_m_s,air_temperature_celsius,indicated_airspeed_m_s.1,equivalent_airspeed_m_s,true_airspeed_m_s.1,equivalent_ground_minus_wind_m_s,true_ground_minus_wind_m_s,differential_pressure_raw_pa,differential_pressure_filtered_pa,temperature,gyro_bias[0],gyro_bias[1],gyro_bias[2],accel_bias[0],accel_bias[1],accel_bias[2],instance_count,seq_reached,seq_current,seq_total,item_changed_index,item_do_jump_remaining,valid,warning,finished,failure,stay_in_failsafe,flight_termination,item_do_jump_changed,execution_mode,nav_roll,nav_pitch,nav_bearing,target_bearing,xtrack_error,wp_dist,acceptance_radius,rollspeed_integ,pitchspeed_integ,yawspeed_integ,additional_integ1,x,y,z,temperature.1,pressure,temperature.2,gyro_rad[0],gyro_rad[1],gyro_rad[2],accelerometer_m_s2[0],accelerometer_m_s2[1],accelerometer_m_s2[2],x.1,y.1,z.1,temperature.3,altitude_sp,altitude_filtered,height_rate_setpoint,height_rate,airspeed_sp,airspeed_filtered,airspeed_derivative_sp,airspeed_derivative,throttle_integ,pitch_integ,baro_alt_meter,baro_temp_celcius,baro_pressure_pa,rho,xyz[0],xyz[1],xyz[2],xyz[0].1,xyz[1].1,xyz[2].1,roll_body,pitch_body,yaw_body,q_d[0],q_d[1],q_d[2],q_d[3],thrust_body[0],lat,lon,alt,vel_m_s,vel_n_m_s,vel_e_m_s,vel_d_m_s,cog_rad,ground_contact,maybe_landed,landed,ref_timestamp,ref_lat,ref_lon,x.2,y.2,z.2,vx,vy,vz,ax,ay,az,dist_bottom,roll,pitch,yaw,thrust_body[0].1,timestamp.1,isTakeoff,isClimbing,isDescending,isCruise,isLand
51004475.0,-0.002461739,-0.062822795,0.011306481,0.15005457,0.0,1506.0,1500.0,1151.0,1501.831366,1497.168634,1472.0,14.68147023,15.04458993,11.72413507,14.81501183,14.72683179,15.09096975,14.60377773,14.96487368,133.3134572,133.3134572,11.72505464,-0.001431564,-0.005990091,0.000330783,-0.208740837,0.194276563,-0.057227645,2.0,0.48869774,1.48869774,11.0,0.0,0.0,1.0,0.0,0.0,0.0,0.0,0.0,0.0,0.0,-0.014737693,0.006094230999999999,-0.716870076,-0.71855557,-0.319980702,53.66905971,42.10330686,-0.024366929,-0.022542928,0.024640699,0.0,-0.8506444959999999,0.305924491,-6.503561287999999,11.72419827,954.1134892,11.72419827,0.012681612,-0.205844503,0.009374123,-0.89451543,0.306260194,-6.273594488,0.01835202,-0.190733657,-0.035548585,11.72419827,100.0343797,104.32080390000002,-0.21287886,-1.196698355,15.3707668,14.30131216,0.021389089,-0.798853629,-0.35601917,81.10749906,504.4071452,11.72413507,95411.3631,1.133644862,0.647739726,-0.15440795699999998,-0.746606592,0.020628399,-0.179256965,-0.034320172999999995,-0.005043252,0.0076116080000000015,-0.712840074,0.937144753,-0.001034959,0.004447211,-0.348908661,0.168390047,398710675.3,327327285.6,504780.8286,15.00609822,11.62609822,-9.467317462999999,-0.497567514,5.599680152,0.0,0.0,0.0,764000.0,39.8714138,32.7364368,-37.54513724,-317.26529910000005,-104.5559755,11.5488607,-9.454645999,-0.032497602,-0.764569818,0.219291335,3.200564125,104.7261355,0.06623805,0.139187518,-0.000417622,0.16587418,51004475.0,0.0,0.0,0.0,1.0,0.0
51159040.0,-0.004105737476953908,-0.04207088819839679,0.015894049645290582,0.15301877929058116,0.0,1508.1663326653306,1500.0,1154.0,1501.648002987976,1497.351997012024,1482.4796663146292,14.5080228697996,14.866771020861723,11.724005169278556,14.74840737779559,14.660624390961924,15.023071224869739,14.550400999038075,14.910122922525051,132.21520940961923,132.21520940961923,11.725566223987977,-0.0014307828957915833,-0.005987948505010021,0.0003262208657314629,-0.20876196647294587,0.19426497742885773,-0.05683488265330661,2.0,0.49953237142284573,1.4995323714228457,11.0,0.0,0.0,1.0,0.0,0.0,0.0,0.0,0.0,0.0,0.0,-0.011002934398797596,0.008115911549098197,-0.7181756920380762,-0.7192995633787576,-0.2644136033246493,51.55611443537074,42.054308951643286,-0.024229813490981963,-0.020944332428857716,0.02485964732264529,0.0,-0.8012037091262525,0.287312919492986,-6.9170211075110215,-5.32e+20,954.1160288509018,11.724025594408818,0.012888878773547094,-0.18049193084569137,-0.05499692231863727,-0.8810431063186372,0.38291016129258515,-6.691526833160322,0.010714111458917836,-0.17114214306212425,-0.07284884488777556,-5.32e+20,100.03456590901804,104.15807739358718,-0.20551392916032066,-1.4588400427695392,15.37074046953908,14.333892684589179,0.020736950332665333,-0.6028331159138276,-0.35667862559519037,80.30771368561123,504.38599334448895,11.724005169278556,95411.59280733467,1.133647517541082,0.42483329169539075,-0.5295629389999998,-0.02853838927855714,0.012889609368737476,-0.15543156940480962,-0.0780559778997996,-0.004359356765531062,0.01105193038276553,-0.7165836950320641,0.9364829131883767,-0.0001029412825651302,0.00594119430260521,-0.35065714103206413,0.17164532955511022,398710827.7208417,327327123.4801603,504827.4073951904,14.884995803406813,11.503176434208417,-9.44,-0.015438614360721439,5.595929668442886,0.0,0.0,0.0,764000.0,39.8714138,32.7364368,-35.856519171122244,-318.65294561362737,-104.54937651342686,11.438172777755511,-9.435525706673346,0.39936241892785573,-0.7444112012204409,0.06465738385771543,2.864411835647295,104.71953439739478,0.06724360501402805,0.16245756871543088,0.0034757734248496994,0.16996873176753505,51159039.92985972,0.0,0.0,0.0,1.0,0.0
51310936.0,-0.00036539485571142306,-0.02089564417835671,0.02188557124048096,0.15564222222044088,0.0,1511.0,1500.0,1156.3326653306613,1500.0,1499.0,1492.9171067915831,14.450412614088178,14.807756187474949,11.724325415711423,14.681802915591183,14.594416998597193,14.955172706412824,14.497024268076153,14.855372158376753,131.11696171923847,131.11696171923847,11.726077817975952,-0.0014300024589178357,-0.0059858070100200405,0.0003216587314629259,-0.20878309627855712,0.19425339085771545,-0.05644212063927856,2.0,0.5103670028456914,1.5103670028456913,11.0,0.0,0.0,1.0,0.0,0.0,0.0,0.0,0.0,0.0,0.0,-0.0060229151302605205,0.012036294430861724,-0.7181710600761523,-0.719034966757515,-0.2651226496492986,49.36162137074148,42.135889179959925,-0.02410947388977956,-0.019333220583166333,0.02528495481963928,0.0,-0.6972342957795591,0.2605928422184369,-7.211781240571141,-5.32e+20,954.1344216757515,11.72429259244489,0.01373735598797595,-0.16122390767134268,-0.0861022233747495,-0.8418528158937877,0.24372277029659317,-7.04685884280962,0.014677591569138275,-0.1536814037935872,-0.0897616102004008,-5.32e+20,100.03466005370741,103.96002980701402,-0.1959756086793587,-1.66429084248497,15.370520719298597,14.391127308156312,0.01958785975551102,-0.42526151040280563,-0.35731231628256516,79.54161346362726,504.2668302699399,11.724325415711423,95412.94704132264,1.1336635930521042,-0.30474218340480963,0.527657854242485,0.7768347824569137,0.013984331957915833,-0.1335931081543086,-0.087651717250501,-0.0013356493206412826,0.015092107338677354,-0.7182325235370742,0.9361806076032064,0.002027703733466934,0.007301248006012024,-0.3514313531442886,0.1745656823246493,398710983.64168334,327326955.26032066,504785.8873903808,14.80487026014028,11.393914068416834,-9.44,0.3779085272785571,5.591225600885772,0.0,0.0,0.0,764000.0,39.8714138,32.7364368,-34.17013256490982,-320.0492456252505,-104.48556157915831,11.340872853326653,-9.438719437693386,0.7904878796553106,-0.5886359080300602,-0.1101956882244489,2.4550126111142285,104.65572071242485,0.0756358355490982,0.18159067242284568,0.006893684971943889,0.17286825943887776,51310935.521042086,0.0,0.0,0.0,1.0,0.0
51458173.0,-0.0005341003126252504,-0.001267069565130256,0.024095417849699402,0.1579438688977956,0.0,1512.5010020040081,1500.0,1158.0,1498.997995991984,1500.002004008016,1502.4969939879759,14.36545920785571,14.720650383727454,11.72500336220441,14.615198463386774,14.528209597895792,14.887274184609218,14.443647537114229,14.80062140256513,130.01871392885772,130.01871392885772,11.726589401963928,-0.0014292216873747494,-0.00598366551503006,0.0003170975971943888,-0.20880422591783568,0.19424180428657314,-0.05604935845891784,2.0,0.5212016352685371,1.5212016352685371,11.0,0.0,0.0,1.0,0.0,0.0,0.0,0.0,0.0,0.0,0.0,-0.0010428961963927844,0.01595667764729459,-0.7181664281142284,-0.7187703701362725,-0.2658316969739479,47.167128296112224,42.21746940993988,-0.023986892509018035,-0.01771380778557114,0.02596651909218437,0.0,-0.7414778514268537,0.3155337766332665,-7.507285162406812,-3.166893787575148e+20,954.127200124048,11.72491099971944,0.013051627533066134,-0.13603595883166333,-0.0721084678737475,-0.8040746843106212,0.22496060247695393,-7.339222130815632,0.013315652168336675,-0.12647725692184367,-0.06221122720841682,-3.166893787575148e+20,100.03470993947896,103.70668564709419,-0.183513916997996,-1.8247189248416835,15.370423079579158,14.498758348577155,0.01743329581763527,-0.2594273624168336,-0.3579758374689379,78.75646567216432,504.20305978997993,11.72500336220441,95413.6903450501,1.1336724433066132,0.007939011076152278,0.5973516467234474,-0.0004852038797595122,0.01307373204208417,-0.11294116545490981,-0.05451616408817634,0.007596476597194396,0.019473590124248496,-0.7147140217314629,0.9367577858256513,0.006964642611222448,0.007795363865731462,-0.3498143541262525,0.17760571161322644,398711134.46432865,327326791.48897797,504699.1582022044,14.744837227975951,11.289673951122245,-9.460093012587174,0.7210231384509018,5.585732832388778,0.0,0.0,0.0,764000.0,39.8714138,32.7364368,-32.46820226250501,-321.4724398653307,-104.36315930460921,11.259135793827657,-9.461973161400802,1.1345164358416835,-0.49711076560921846,-0.20059080734068138,2.1893662937975953,104.5333163527054,0.0708444783206413,0.19822974738677354,0.0066825422244488975,0.1754760529258517,51458173.29659319,0.0,0.0,0.0,1.0,0.0
51610734.0,-0.0008406207354709423,0.01889584154709419,0.025098553358717433,0.1602168872945892,0.0,1512.3346693386773,1500.0,1160.6653306613227,1499.3306613226453,1499.6693386773547,1512.0028475831662,14.43474841258517,14.791547975631262,11.725990856513025,14.548594001182366,14.462002207194388,14.819375659478958,14.390270806152303,14.7458706401002,128.92046623847696,128.92046623847696,11.727100995951904,-0.0014284409178356712,-0.00598152402004008,0.0003125354629258517,-0.20882535555711423,0.19423021871543086,-0.05565659661322645,2.0,0.5320362666913827,1.5320362666913827,11.0,0.0,0.0,1.0,0.0,0.0,0.0,0.0,0.0,0.0,0.0,0.0039371227394789585,0.019877060861723448,-0.7181617961523046,-0.7185057735150301,-0.2665407432985972,44.97263523148297,42.299049636573145,-0.02385919271543086,-0.016079196733466933,0.026688417903807618,0.0,-0.8293475308176352,0.1979956723547094,-7.8989391990501,-4.700861723446894e+20,954.1493697765532,11.725817002945892,0.009448386486973949,-0.12376867729258517,-0.04209032852705411,-0.7553019036673346,0.1505046348016032,-7.722559589573146,0.02056971337875752,-0.11649342401603206,-0.01347592694589178,-4.700861723446894e+20,100.03473,103.44915813106212,-0.1707215665450902,-1.942111751258517,15.370270184869739,14.617150526052104,0.015062394779559118,-0.11846051159519037,-0.35858791025851705,78.0616213710421,504.0909663440882,11.725990856513025,95414.94914106213,1.1336874780941884,-0.008441538488977982,-0.014391665130260533,0.7420198703707417,0.020697489386773547,-0.08729637182565131,-0.019087047390781563,0.009786176038076154,0.023405344581162325,-0.7169012193867736,0.9363437461503006,0.008687710851703407,0.009244132895791584,-0.35084865602204407,0.18249857298997996,398711283.55190384,327326628.18677354,504571.31322525046,14.703077394308616,11.201539323106212,-9.491537297643287,1.039220757739479,5.580287561416834,0.0,0.0,0.0,764000.0,39.8714138,32.7364368,-30.782990436072144,-322.89577723507017,-104.19466706893787,11.192508454248497,-9.499574964903807,1.421615671763527,-0.38382370287975953,-0.2335916338557114,1.7340077951723445,104.36482706893787,0.07096886594388778,0.21173495471342688,0.004373306028056114,0.1789180735270541,51610734.38476954,0.0,0.0,0.0,1.0,0.0
51749299.0,0.0012064860260521048,0.03506753009619239,0.027248815933867736,0.16351793381763527,0.0,1513.0,1500.0,1163.838566476954,1499.0,1500.0,1519.6633266533065,14.338405045731463,14.692597485070142,11.727239386172345,14.481989548977957,14.395794806492985,14.751477134348697,14.336894075190381,14.691119882625252,127.82221844809618,127.82221844809618,11.72761257993988,-0.0014276604789579157,-0.0059793815250501,0.0003079733286573146,-0.2088464851963928,0.19421863214428858,-0.05526383509819639,2.0,0.5428708991142285,1.5428708991142284,11.0,0.0,0.0,1.0,0.0,0.0,0.0,0.0,0.0,0.0,0.0,0.1264157063967936,0.02414264382965932,-0.5484035507875752,-0.40038545789378766,8.779052889903806,84.19946689557113,42.44803823977956,-0.023731345458917835,-0.014400897581162324,0.02729851020240481,0.0,-0.6990523448977956,0.2595287191322645,-8.325358652060121,-5.32e+20,954.1662688859719,11.727064269458918,0.01562610504208417,-0.09884737714028057,-0.017482157370741484,-0.7665078909298598,0.23728996795390786,-8.151636888012023,0.023280768402805612,-0.08295419878957916,-0.015916851096192387,-5.32e+20,100.03473,103.19188309278557,-0.1578578113727455,-2.0217711172945894,15.370061542104208,14.730344122204409,0.012794343665330662,-0.0027853012645290692,-0.35914650306012025,77.45873539138276,503.7659948593186,11.727239386172345,95418.67942038077,1.133731694715431,-0.037545188130260504,-0.08794351663326683,-0.26566412105811604,0.023302202274549096,-0.06379806050300602,-0.011956078531062123,0.11502193687775547,0.02794258095991984,-0.023375213,0.9981053787274549,0.057629393867735454,0.013274059336673347,-0.012471743168336673,0.1860981516132265,398711433.6230461,327326461.33346695,504398.6774815631,14.681224042885772,11.143265671382766,-9.527958329222445,1.3524416303426854,5.575710385352705,0.0,0.0,0.0,764000.0,39.8714138,32.7364368,-29.14297177284569,-324.29683501683365,-103.99181685651303,11.145153941623246,-9.547826909857717,1.6385752810120242,-0.3231078199058117,-0.3874849953927856,1.3783396043486975,104.16197685651304,0.07217869220040081,0.2220108029519038,1.3393587174348963e-05,0.18421039511022044,51749298.6492986,0.0,0.0,0.0,1.0,0.0
51895864.0,-0.00012961087775550982,0.04949452944488979,0.027959946126252508,0.16587342348697395,0.0,1514.997995991984,1500.0,1167.9973605951905,1498.0027372204408,1500.9972627795592,1526.9973605951905,14.388211508096191,14.743433361563126,11.728712853026053,14.415385086773547,14.329587415791583,14.683578609218436,14.283517344248496,14.636369125150301,126.72397075771543,126.72397075771543,11.728124173927856,-0.001426879374749499,-0.005977240030060121,0.00030341219238476955,-0.20886761483567134,0.1942070455731463,-0.054871072917835675,2.0,0.5537055305370742,1.553705530537074,11.0,0.0,0.0,1.0,0.0,0.0,0.0,0.0,0.0,0.0,0.0,0.27327818707615237,0.02847986579358718,-0.3434171765450901,-0.01630211227454889,19.70198108629259,132.02226171262527,42.61101576773547,-0.023491139997995993,-0.012808422124248497,0.027538338280561122,0.0,-0.7390025338857716,0.367164783482966,-8.570336414086173,-5.32e+20,954.1944542212425,11.728590073166332,0.024466124961923852,-0.0658915109298597,-0.015325879482965944,-0.6764264185911821,0.19381044967334654,-8.486532918715431,0.023227761937875752,-0.058819013795591166,-0.0299709090721443,-5.32e+20,100.03473,102.92403425511021,-0.14446518783567133,-2.0716740276633265,15.369870781723447,14.80560977727455,0.011285215488977957,0.08731047415631267,-0.35967363150901804,76.918988172004,503.6618871032064,11.728712853026053,95419.87046983968,1.1337459152164329,0.345876503158318,0.1565614446973942,0.030859660418839363,0.02783798264128255,-0.04077504118236472,-0.02428770356312626,0.3472448826853709,0.032564878967935876,-0.023375213,0.9847157888977955,0.17290093742484977,0.014016705859719439,-0.014323064803607215,0.1892399054729459,398711585.72665334,327326291.08196396,504177.9107637275,14.693751432244488,11.12624794705411,-9.585006977346694,1.535020932038076,5.571853730470942,0.0,0.0,0.0,764000.0,39.8714138,32.7364368,-27.497787473507014,-325.71463016292586,-103.76013849378758,11.113064363466933,-9.60407800738477,1.807344896476954,-0.23858239577955917,-0.46903766791783574,0.9940315003627254,103.93029849378757,0.37496231317835693,0.23124347274949902,-0.010700697444889773,0.1878530786973948,51895863.57915831,0.0,0.0,0.0,1.0,0.0
52045771.0,0.0004351398256512971,0.06024009920641282,0.03063326431663327,0.17034486190581163,0.0,1515.0,1500.0,1171.1643286573146,1499.0,1500.0,1532.1643286573146,14.460618601783567,14.817659288076152,11.730321001442887,14.449824570981963,14.364549593466934,14.719232699438878,14.31045498014028,14.663802076733466,127.16829923807614,127.16829923807614,11.72961387490982,-0.0014259580400801603,-0.005974247987975952,0.00029831378156312626,-0.20894529718036073,0.1941906976312625,-0.054172868036072144,2.0,0.5645401629599198,1.56454016295992,11.0,0.0,0.0,1.0,0.0,0.0,0.0,0.0,0.0,0.0,0.0,0.4201406677555112,0.03281708676152305,-0.13843080230260515,0.3677812325130262,30.62490928400802,179.84505656472948,42.773993305691384,-0.022877328178356714,-0.011210380078156312,0.027446095853707417,0.0,-0.6867852046432866,0.3292945199498998,-8.971391891092185,-3.4994188376753485e+20,954.2179792987976,11.730111861242484,0.02379639903807615,-0.05020110639278558,-0.032138079088176355,-0.7796732241002003,0.22158955156713425,-8.89604077550501,0.020919192146292585,-0.04048517375751502,-0.031936316064128265,-3.4994188376753485e+20,100.03473,102.62456767074148,-0.12949196611022043,-2.088192037304609,15.369653706773548,14.940008493366733,0.00859290166533066,0.16431235023647298,-0.3602173862645291,76.40381997368738,503.38468333907815,11.730321001442887,95423.05843765532,1.1337837831523045,-0.24132306577555163,-0.14263179712224452,-0.36353606510420905,0.03257459458917836,-0.027416113671342678,-0.03873643455711424,0.5794678021282565,0.036430618979959924,-0.023375213,0.9579550924248497,0.28581019960120246,0.014113453567134268,-0.016403126945891782,0.1951140915951904,398711734.2350701,327326123.5761523,503943.8854102204,14.716640316032064,11.103359683967936,-9.651600785422847,1.6848814131583165,5.567386234300602,0.0,0.0,0.0,764000.0,39.8714138,32.7364368,-25.823842250921842,-327.17067959378755,-103.50106346993988,11.09262152480962,-9.670367355541082,1.9287723304368738,-0.02343204528056108,-0.4324968957154309,0.7801886500601202,103.67121946993989,0.6533810483326654,0.23553541415631266,0.008874209639278569,0.1919062327254509,52045771.19438878,0.0,0.0,0.0,1.0,0.0
52183670.0,-0.0014636535531062135,0.06958281258116233,0.03237501912024048,0.17335727386773547,0.0,1516.0,1500.0,1174.0,1500.3306613226453,1498.6693386773547,1536.3306613226453,14.51260571478958,14.870635759358716,11.732032354909819,14.514167861122244,14.429452755390782,14.785533032665331,14.361161540160321,14.71555718769539,128.06915098637273,128.06915098637273,11.73139305230461,-0.0014249946172344688,-0.00597100441482966,0.00029305770541082166,-0.2090397167775551,0.19417293972144287,-0.05338426875551102,2.0,0.5753747943827655,1.5753747943827656,11.0,0.0,0.0,1.0,0.0,0.0,0.0,0.0,0.0,0.0,0.0,0.5238519866753507,0.03685249492985972,-0.016415785925851703,0.5880071658456913,35.767844915731466,206.4347649975952,42.959592491002006,-0.02226875299198397,-0.009657630873747495,0.027248508813627254,0.0,-0.7465647193567134,0.2758169093206413,-9.261505433837675,-4.282525050100201e+20,954.2694656613227,11.731744443406814,0.028906875062124245,-0.032704676597194386,-0.043770304543086176,-0.709299263755511,0.24494401626452902,-9.13030624676954,0.025970140360721445,-0.02619500754308617,-0.04082352443286573,-4.282525050100201e+20,100.03473,102.33516777735471,-0.1150220179238477,-2.082749913733467,15.369389447975951,15.0571636497996,0.00624451829258517,0.22201468505210423,-0.3607207009318637,75.95993443496995,503.03059467174353,11.732032354909819,95427.10462807615,1.1338318633867734,-0.08994722349498968,0.0890647389679359,0.09988129924248476,0.02807404178557114,-0.014739550130260518,-0.04262242381162325,0.6587852020681362,0.04043195116032064,-0.023375213,0.9459044794669339,0.32360368206012025,0.015346852408817635,-0.01759499805210421,0.2041179544709419,398711881.1691383,327325956.4783567,503693.961758517,14.748665564128258,11.08,-9.724442704376754,1.8044428482424848,5.562705178014028,0.0,0.0,0.0,764000.0,39.8714138,32.7364368,-24.16637079513026,-328.62371113647293,-103.22908505591182,11.084079597695391,-9.742322903258517,2.0146778071442886,-0.07076420854509019,-0.4829738240801603,0.5669293878456914,103.39924418737475,0.7982294170801604,0.2423007587014028,0.04450505397595191,0.19941977966933866,52183670.1242485,0.0,0.0,0.0,1.0,0.0
52325570.0,-0.0010531026192384955,0.0777011495210421,0.03294210380961924,0.1760244120240481,0.0,1515.5030060120241,1500.0,1176.5066537154307,1497.5090180360721,1501.4909819639279,1540.0036477034068,14.504514555611223,14.862175694368739,11.733829820841684,14.578511151262525,14.49435592731463,14.851833374248498,14.41186810018036,14.767312288657315,128.97000273466935,128.97000273466935,11.733172226312625,-0.0014240321943887776,-0.005967760841683367,0.00028780179358717435,-0.20913413637474948,0.19415518231462925,-0.052595669474949897,2.0,0.5862094263026052,1.5862094263026052,11.0,0.0,0.0,1.0,0.0,0.0,0.0,0.0,0.0,0.0,0.0,0.5723566023847696,0.04050176954308618,-0.0005526127915831543,0.5985973127014028,33.515977503947894,205.8593014472946,43.174133353627255,-0.021979366198396796,-0.008116587691382765,0.026962066571142286,0.0,-0.7303425995150299,0.12857988431062128,-9.389335377236474,-5.32e+20,954.285565109018,11.733453402705411,0.027908121410821655,-0.025342854669338666,-0.041140148124248474,-0.6870978322865731,0.2399510318917834,-9.313284110627256,0.026974934356713432,-0.01837107059519038,-0.03419760228456913,-5.32e+20,100.03473,102.06698215751503,-0.10161263396593186,-2.0588142070901805,15.369099432004008,15.137579311182364,0.004630410314629257,0.25975460748296597,-0.3611655665030061,75.60277551759519,502.8164039935872,11.733829820841684,95429.55281861725,1.133860892733467,0.10396543987374826,0.007110759611222116,-0.039118418683366435,0.029107476346693396,-0.0008343647835671189,-0.03787430203006009,0.6501765244028056,0.04405568726052105,-0.023375213,0.9472453748877755,0.3195369798857715,0.01713907952905812,-0.01810679168937876,0.21932766923246494,398712033.44028056,327325782.4256513,503411.33451583167,14.792370077174349,11.08,-9.797284038923847,1.8772849118977957,5.559145386390782,0.0,0.0,0.0,764000.0,39.8714138,32.7364368,-22.537458466553105,-330.0639982138277,-102.951490197996,11.082298610501002,-9.819443993038076,2.0697549721362725,0.0472270397755511,-0.5057836831482966,0.29781467145490975,103.12164669258517,0.6285215671623245,0.26300835557515034,0.09264409112825654,0.2130866785230461,52325569.88977956,0.0,0.0,0.0,1.0,0.0
52476988.0,0.001959661164328653,0.08523130808617235,0.032190046941883765,0.1798908570541082,0.0,1515.3366733466935,1500.0,1181.6633266533065,1499.5592588697396,1499.4407411302604,1543.6633266533065,14.546960686953907,14.905509399458918,11.735669931442887,14.642854441402806,14.559259089238477,14.918133709198395,14.462574660200401,14.819067389619239,129.87085448296594,129.87085448296594,11.734951397014028,-0.0014230687715430861,-0.005964516931863727,0.00028254554509018034,-0.2092285559719439,0.1941374249018036,-0.05180706919438877,2.0,0.597044058228457,1.5970440582284569,11.0,0.0,0.0,1.0,0.0,0.0,0.0,0.0,0.0,0.0,0.0,0.6208612180941884,0.04415104416232465,0.015310561342685367,0.6091874595571142,31.264110085531062,205.28383799699398,43.388674216252504,-0.022143990268537073,-0.006614999861723448,0.026499587503006013,0.0,-0.7398238678917834,0.2312257775350701,-9.708492359496994,-5.32e+20,954.3144651312625,11.735441577675351,0.026914150410821645,-0.00916846224649299,-0.03096587512825653,-0.6986073615711422,0.1968287372945892,-9.5714980848998,0.034462967989979956,-0.002837726402805619,-0.027251645619238478,-5.32e+20,100.03473,101.80420708717436,-0.08847375379559119,-2.026339323715431,15.36900961270541,15.2170333602004,0.003039534713426854,0.29541146837474946,-0.3615656325330662,75.30904772344688,502.6321149767535,11.735669931442887,95431.64290002004,1.1338857764108217,-0.4679562421062123,0.23758769274949876,-0.3365562804448898,0.03027568256713427,0.007121407132264531,-0.022650039919839677,0.6648125441082163,0.04738722181963928,0.0246050328296593,0.9450082173386773,0.32592244051903807,0.02641250329859719,0.003892538448897786,0.23181152578757516,398712182.6807615,327325610.1046092,503126.9035246493,14.84810118,11.073987302845692,-9.876139274126253,1.9200634271683368,5.554746402787574,0.0,0.0,0.0,764000.0,39.8714138,32.7364368,-20.89124783971944,-331.5306749442886,-102.66560005470942,11.086777178957915,-9.896265552468938,2.093705898166333,0.024882676877755524,-0.4711333913687375,0.17272192026452912,102.83576005470943,0.5062666576513026,0.290080698006012,0.12968766785571142,0.2288064390781563,52476988.01002004,0.0,0.0,0.0,1.0,0.0
52632687.0,5.6404498997994316e-05,0.08903238684769539,0.030210004200400802,0.18468449238476953,0.0,1512.0,1500.0,1185.8296593186374,1471.6686138376754,1527.3313861623246,1545.0,14.698307828016032,15.060408210881764,11.737524889238477,14.707197731543086,14.624162261162324,14.98443404741483,14.51328122022044,14.870822500581161,130.7717062482966,130.7717062482966,11.73673057771543,-0.001422106348697395,-0.0059612735250501,0.0002772889699398798,-0.20932297573947894,0.19411966699198396,-0.051018469913827656,2.0,0.6078786896513025,1.6078786896513027,11.0,0.0,0.0,1.0,0.0,0.0,0.0,0.0,0.0,0.0,0.0,0.6684906502484971,0.048022677761523046,0.03584806328657316,0.6197933135230461,29.01097736695391,204.69773531042082,43.67768534080161,-0.022365548480961926,-0.005131792006012024,0.025541416188376753,0.0,-0.6942675164168336,0.1766793413787575,-9.822043589891784,-3.8183166332665305e+20,954.3556955885772,11.737301377194388,0.03664934109018037,-0.0005250437995991892,-0.023396973362725455,-0.6976617892084169,0.2532267176052105,-9.781052134128258,0.14922697048296604,-0.004899214038076143,-0.0068459116613226265,-3.8183166332665305e+20,100.03473,101.52020131623247,-0.0742734333006012,-2.007556942753507,15.368751599258516,15.277776448276553,0.0018195071262525047,0.3499793175931864,-0.36195117374749497,75.04750925713427,502.3873890186373,11.737524889238477,95434.4618801002,1.1339192774488978,1.4421830936813633,-0.40754159269338724,0.44990140780962035,0.1949907429519039,0.01876667812224448,-0.000774370092184359,0.6867898219458918,0.051000286232464935,0.09494888956312628,0.9406519466873747,0.3350547858016032,0.03995733811823648,0.03609498439478959,0.23839610916633272,398712329.93807614,327325438.501002,502843.40983787575,14.906375228957915,11.089781420921843,-9.946375231298598,1.9399999,5.551838319803607,0.0,0.0,0.0,764000.0,39.8714138,32.7364368,-19.214777029398796,-333.03391081102205,-102.37506333266533,11.107303786673347,-9.964567455623246,2.0883345395871746,0.2280619780220442,-0.34688058516232456,-0.10935207965330666,102.54522043707415,0.4265540017815631,0.3223965624188377,0.16046095950501002,0.2373533128256513,52632687.228456914,0.0,0.0,0.0,1.0,0.0
52811252.0,0.12259981637474959,0.09387253371342687,0.02562906409218437,0.18869721302004008,0.0,1512.995991983968,1500.0,1188.995991983968,1433.4673318857715,1565.5326681142285,1547.0,14.729019199539078,15.09169362212425,11.739379119699398,14.771541021683365,14.689065423086172,15.050734388997997,14.563987780240481,14.922577601543086,131.67255797995992,131.67255797995992,11.738509748416833,-0.0014211429258517035,-0.005958029122244489,0.00027203305811623245,-0.2094173951703407,0.19410190908617234,-0.05022987063326653,2.0,0.6187133220741483,1.6187133220741483,11.0,0.0,0.0,1.0,0.0,0.0,0.0,0.0,0.0,0.0,0.0,0.7055960228276553,0.054568175248497004,0.11259423301202412,0.6305880483006011,26.74262930829659,203.98369729719437,44.8621992455511,-0.022513316935871743,-0.003859781074148295,0.023970448937875748,0.0,-0.5881697287154307,0.14601554401803607,-10.008242792825651,-4.062424849699407e+20,954.3803724655311,11.739067830761524,0.2362485413246496,0.01240519655110225,-0.0013359063967935524,-0.6775560251823649,0.2115308151042085,-9.91434071223447,0.42130848508817664,0.018046519601202425,0.02747088418036074,-4.062424849699407e+20,100.03473,101.2403740002004,-0.06028212884569138,-1.991557660482966,15.368491954248498,15.328087842224448,0.0008080977955911815,0.41169536019839686,-0.36228920805611226,74.83068304597194,501.9925544819639,11.739379119699398,95438.96532777554,1.1339728191843688,2.1860073013767556,0.6344136451282599,0.5612900186953935,0.4775487700761526,0.030691594665330682,0.02730059285170343,0.7329415206492987,0.05601974626252505,0.2086638727675353,0.9291241878837675,0.3534698578016033,0.06337384687374756,0.08717134958917847,0.2293885103386773,398712476.2573146,327325266.7671343,502560.86667995993,14.965234583727456,11.13700122242485,-9.99879127754108,1.935899583268537,5.5514081028777555,0.0,0.0,0.0,764000.0,39.8714138,32.7364368,-17.554010534969937,-334.52611835851707,-102.09196636853707,11.165141222965932,-9.989775944212425,2.061554978941884,0.6548599757655317,-0.023318788164328252,-0.18856012450300605,102.26212136853707,0.3685945065571142,0.34983939870541086,0.18108505425851704,0.2421768432064128,52811252.15430862,0.0,0.0,0.0,1.0,0.0
52953167.0,0.16171385990781564,0.09682078320440882,0.032465927222444894,0.19303068583166333,0.0,1517.1623246492986,1500.0,1195.3246492985973,1414.2762814108216,1584.7237185891784,1548.066209302605,14.804312225811623,15.168482617855712,11.741205662745491,14.841545900160321,14.759658070721443,15.122864957735471,14.621021402845692,14.980816255791582,132.7048794480962,132.7048794480962,11.740279048416834,-0.0014201447915831661,-0.005954790743486974,0.00026681513026052106,-0.20951169788977958,0.1940845696713427,-0.04944233796192384,2.0,0.629547953496994,1.629547953496994,11.0,0.0,0.0,1.0,0.0,0.0,0.0,0.0,0.0,0.0,0.0,0.7424028169799599,0.06118953293587174,0.19093510167535072,0.6413881428256513,24.473849583987974,203.26602972985972,46.072119488557114,-0.02264143197995992,-0.0027021893947895793,0.021959679122244488,0.0,-0.6273115121402806,0.1702890271943888,-10.122894018056112,-5.32e+20,954.4226005761523,11.740903175290581,0.4972541298476954,0.018847583376753508,0.029319849801603202,-0.6871747520581162,0.18191046748496995,-10.039580861462927,0.6585195072845691,0.023932108064128255,0.053758683869739476,-5.32e+20,100.03473,100.9828139496994,-0.04740428127054108,-1.9554657901062125,15.368342961362725,15.380383696893787,-0.00024071951903807592,0.5608092715651302,-0.3625527052785571,74.67445075298598,501.6876613881764,11.741205662745491,95442.44735597195,1.1340141357474949,1.126547020014028,0.151282674993988,0.19905936475350705,0.7226201611062124,0.038570113084168335,0.07568928404408817,0.7967585889018037,0.06627250436873748,0.27374048753507013,0.9143196389038076,0.379916802250501,0.08314939066332665,0.1129578252785571,0.18050993360921844,398712629.1573146,327325088.33627254,502270.9604366733,15.030787063486974,11.224383801983967,-9.984269366561122,1.88494276297996,5.5562360646492985,0.0,0.0,0.0,764000.0,39.8714138,32.7364368,-15.90391487254509,-335.9932572354709,-101.81820328056112,11.301424472004008,-9.931482954472946,2.027077516993988,1.2569287745851703,0.7366552028597194,-0.10806084794188378,101.98836276693388,0.4014680413206413,0.34353143474549097,0.20322548589378758,0.18375061572144288,52953166.951903805,0.0,0.0,0.0,1.0,0.0
53096381.0,0.1481088371182364,0.1007632839218437,0.04292625661923849,0.200656764745491,0.0,1523.4151801202404,1500.0,1204.6432865731463,1439.0444386372747,1559.9555613627253,1551.6573146292585,14.851685634589177,15.216814942965932,11.742997536933867,15.055253231723446,14.974660978677354,15.342978594268537,14.838648534569138,15.203620419298598,137.07416500480963,137.07416500480963,11.741797564408818,-0.001418242146292585,-0.005951682821643286,0.00026256109819639277,-0.20960303651102205,0.1940778304769539,-0.04868190291382765,2.0,0.6403825859198397,1.6403825859198398,11.0,0.0,0.0,1.0,0.0,0.0,0.0,0.0,0.0,0.0,0.0,0.7792096111322645,0.0678108906232465,0.2692759700140281,0.6521882363507014,22.20506985967936,202.54836213006013,47.28203973152305,-0.022630585731462927,-0.002243922034068136,0.024215530110220443,0.0,-0.52353951904008,0.12937656617835655,-10.12738087218437,-5.32e+20,954.4607009573147,11.742831630861723,0.7250877561583167,0.028311775228456938,0.07950586166533069,-0.5815601343266534,0.1862137234128256,-10.075401936492986,0.7047580229999999,0.04456149135671343,0.11498351098998,-5.32e+20,100.03473,100.75282438436874,-0.03590485051903807,-1.4649405516252503,15.36822242753507,15.660532767795592,-0.005846189354709422,3.208557421503008,-0.3628025993987976,74.59883180997996,501.2812595719439,11.742997536933867,95447.10079549097,1.1340694330380763,-0.6754158772384784,0.2124710547795564,0.3555614003026044,0.6960536691042083,0.05871567900400804,0.12885889880360726,0.7898021188216433,0.0728929128757515,0.32630979066533067,0.9124452522825651,0.37389052270340684,0.09563385973947897,0.1359989742745491,0.17354583533867735,398712779.56593186,327324916.02364725,501999.58727995993,15.09634470214429,11.40448568719439,-9.882159064995992,1.8494018566773547,5.569156034012024,0.0,0.0,0.0,764000.0,39.8714138,32.7364368,-14.202614168216432,-337.4654403296593,-101.54382486292585,11.539565894649298,-9.767998679639279,2.0057554612905815,1.955578984132265,1.5006911103126257,-0.004176731737474896,101.71398429298597,0.3079307684328657,0.3140110845731463,0.2599357834328658,0.17317115340681363,53096381.34669339,0.0,0.0,0.0,1.0,0.0
53246946.0,0.08636090160320643,0.11074194329258516,0.054928625881763525,0.21465613000601202,0.0,1528.4949899799599,1500.0,1220.4749498997996,1462.9799599198398,1536.0200400801602,1556.8373933587175,14.857086454729458,15.222166513366734,11.744769981402806,15.269979751082165,15.190688087154308,15.564141771002005,15.057414653466934,15.427591734248496,141.46711741943886,141.46711741943886,11.743314306152305,-0.0014163332945891784,-0.00594857573747495,0.0002583141102204409,-0.20969435419038077,0.19407116651102205,-0.047921660693386776,2.0,0.6512172173426853,1.6512172173426853,11.0,0.0,0.0,1.0,0.0,0.0,0.0,0.0,0.0,0.0,0.0,0.799221358527054,0.07210282431062125,0.33424490019639275,0.6634554091983969,19.85695825480962,201.6381245733467,48.16880576553106,-0.02269044731262525,-0.0022315219138276552,0.029111191356713424,0.0,-0.3356282111723448,0.07944504741082159,-10.26253134735471,-5.32e+20,954.4846957671342,11.744544439458917,0.6594213000360722,0.05567307665531061,0.14928531291182365,-0.42279334298998,0.13039181127655308,-10.158739654008016,0.5917434625791583,0.07387423454909818,0.18711327087775548,-5.32e+20,100.03473,100.57640051162325,-0.027083654116232467,-1.1210252588997998,15.368097738456914,16.220540243927857,-0.017048848705410815,3.366362892112225,-0.36328472411623247,74.6850091975551,501.14607848937874,11.744769981402806,95448.66079084169,1.1340879996412825,-0.8005583877535064,-0.37497103657514913,0.7011833229819628,0.5741188033747496,0.09496618199398794,0.19666926839478954,0.7832790738076153,0.07550520016232465,0.3776743360941884,0.9099059990280561,0.3681009619098196,0.10586489407214429,0.15922910846893787,0.1851357634268537,398712931.80961925,327324747.0014028,501731.7616759519,15.171637604108216,11.671686461623246,-9.687783372208417,1.832433629236473,5.590143936529058,0.0,0.0,0.0,764000.0,39.8714138,32.7364368,-12.434718405330662,-338.92421661122245,-101.26642271022044,11.882781165511021,-9.493745576330662,1.9958468567755512,2.5359371961983967,2.2008357233567133,-0.029442602643286492,101.43658271022045,0.22884331262725455,0.3247176893507014,0.299000884511022,0.1817641896793587,53246945.947895795,0.0,0.0,0.0,1.0,0.0
53394866.0,0.06420575763527055,0.12284764530861723,0.06384594341082166,0.2293537682765531,0.0,1532.6613226452905,1500.0,1231.881984188377,1469.2200002204409,1529.7799997795591,1562.881984188377,14.999011175711424,15.36738841216433,11.746546401062124,15.484706267154309,15.406715195631262,15.785304941122245,15.276180772364729,15.651563045811622,145.86006983406816,145.86006983406816,11.744831047895792,-0.0014144241142284568,-0.005945468653306613,0.0002540671122244489,-0.20978567186973948,0.1940645025450902,-0.04716141813426854,2.0,0.6620518494268537,1.6620518494268537,11.0,0.0,0.0,1.0,0.0,0.0,0.0,0.0,0.0,0.0,0.0,0.8105760014288578,0.07519404265931863,0.3923211850761523,0.6749633398116234,17.46795456513026,200.6286256521042,48.8890000598998,-0.02271546809418838,-0.001831127254509018,0.029948424348697395,0.0,-0.23860041367535073,0.1585881525490982,-10.679694723186373,-5.32e+20,954.5064983242486,11.746244543807615,0.5430304676332665,0.09567493672945893,0.215024034250501,-0.2831116221643287,0.081888916270541,-10.416369531683367,0.48906980931663324,0.12661915058717435,0.261062328002004,-5.32e+20,100.03473,100.443218201002,-0.02042450745290581,-0.9179141006853707,15.368001393607214,16.7775495649499,-0.028190963955911825,2.1840596269038075,-0.3639282448577154,74.89448279028056,500.87243132905814,11.746546401062124,95451.77656066132,1.1341249363026051,-0.294484114272545,0.6395832142565135,0.8291599051022043,0.483735168254509,0.14536308908817636,0.2732675874569139,0.7742413080360722,0.07599787198997997,0.4264971377735471,0.9074038683326653,0.3612602063587174,0.11421928564128257,0.18181658793987976,0.20294340625450902,398713090.1947896,327324579.6470942,501455.64920621243,15.26633264771543,12.039177594148297,-9.37754063436473,1.838282480276553,5.620890364330661,0.0,0.0,0.0,764000.0,39.8714138,32.7364368,-10.63711263779559,-340.3108629018036,-100.99503937855711,12.303100976713427,-9.105336828947895,1.9714867580380762,3.0441596040981964,3.1144885885791584,-0.20556044915430866,101.16519588817636,0.1757599218717435,0.3843173392104208,0.2904079285290581,0.20036053432264528,53394865.58717435,0.0,0.0,0.0,1.0,0.0
53551759.0,0.051131244749499004,0.1338261969298597,0.06705176615631261,0.23734929709418837,0.0,1533.0,1500.0,1238.7527048456914,1475.9026057755511,1523.0973942244489,1567.8276553106211,15.09836192509018,15.468971461162324,11.74827933234469,15.699432783226452,15.622742304108217,16.006468114468937,15.494946891262526,15.875534354148297,150.2530222486974,150.2530222486974,11.746347787915832,-0.0014125149338677354,-0.005942361396793588,0.00024982061923847695,-0.2098769895490982,0.19405783857915831,-0.04640117525250501,2.0,0.6728864811883768,1.6728864811883766,11.0,0.0,0.0,1.0,0.0,0.0,0.0,0.0,0.0,0.0,0.0,0.8219306433306612,0.07828526051302605,0.45039747095591176,0.6864712704248496,15.078950885450903,199.61912678036072,49.60919435254509,-0.022773399871743486,-0.001045571791583167,0.02606378658116233,0.0,-0.29827745416432816,0.42527144410220347,-11.863391143907812,-5.32e+20,954.5470189837675,11.747951628336672,0.4646326255591183,0.14373519652304606,0.2888448698376753,-0.16610218184969966,0.21006323332665316,-10.939285020521043,0.43093235168537075,0.175429446761523,0.30182532978356713,-5.32e+20,100.03473,100.34521845731463,-0.01552447493386774,-0.8429048084308618,15.367988186332665,16.914050257134267,-0.030921247905811623,1.3468089760701412,-0.3646479506613226,75.19063095232465,500.6322739250501,11.74827933234469,95454.5348224048,1.13415778001002,-0.4840023497394805,-0.1144488923827641,0.13626753619238618,0.4213102242024049,0.19294718159919838,0.3211474708937876,0.8285389908256513,0.08112316146292585,0.49975966992985965,0.8902823845671343,0.3805178266232465,0.13542051150501,0.2103686218476954,0.16116938624849703,398713258.4200401,327324417.5869739,501178.21835891786,15.361027691322645,12.51214137016032,-8.928865059326654,1.7979871185791585,5.663256910184368,0.0,0.0,0.0,764000.0,39.8714138,32.7364368,-8.78697676766934,-341.64560222404816,-100.7430023981964,12.886329476352705,-8.91265766301603,1.784896234569139,3.4766498111002,4.325299343571141,-0.6251985913486959,100.91316231202404,0.21478326606012033,0.4075158468356713,0.26464333944889773,0.1673963938877756,53551759.38276553,0.0,0.0,0.0,1.0,0.0
53694664.0,0.039932998525050084,0.1431709661963928,0.06851955715631264,0.24217506480961923,0.0,1537.2155978196392,1500.0,1215.1623246492984,1462.7280398877754,1536.2719601122246,1573.9879759519038,16.29757896607214,16.697614540861725,11.749521159078157,15.914159299298598,15.83876942252505,16.227631291202407,15.71371301016032,16.099505669098196,154.64597456392787,154.64597456392787,11.747864531322644,-0.001410605759519038,-0.005939254478957916,0.000245574126252505,-0.2099683062284569,0.19405117461322646,-0.04564093303206413,2.0,0.6837211126112225,1.6837211126112224,11.0,0.0,0.0,1.0,0.0,0.0,0.0,0.0,0.0,0.0,0.0,0.8242015502444889,0.08036071118837676,0.5034641306553107,0.6975909804689379,12.783906826212421,198.5244621268537,49.93298258897796,-0.022788845731462927,-0.0007461815110220443,0.02360556909418838,0.0,-1.0224883781763536,1.0064249216032053,-14.066893063907813,-5.32e+20,954.5594998170341,11.74942233703407,0.4089819324128256,0.19035287432865738,0.32496598303807617,-0.14063662358116202,0.25343577491182384,-11.427978405871745,0.4133588324008017,0.26702395753106234,0.03845258424448819,-5.32e+20,100.03473,100.25793511703407,-0.011160261917835666,-0.29191444233867647,15.3678482101002,16.90879364260521,-0.030818912853707414,3.3078321760721474,-0.3653334926513027,75.50004721398797,500.54823368997995,11.749521159078157,95455.48860713426,1.1341690815450902,1.0654820724829717,0.6924855725410772,-2.8310212553687304,0.4377485928216433,0.31310293415831686,-0.05389456782164402,0.8008375624509017,0.08392909448496995,0.5378362877815631,0.8913618172845692,0.36519847006813627,0.1407193780761523,0.22869141244088179,0.1519854023266533,398713432.5438878,327324253.73807615,500965.41395611217,15.957224845430863,13.232934054408819,-8.954317412983968,1.3985150057054099,5.687929089294589,0.0,0.0,0.0,764000.0,39.8714138,32.7364368,-6.772842298214425,-343.0897518599197,-100.57260350841683,13.81954335993988,-9.384737726707414,1.10210612309018,3.31380614282565,6.347126469699398,-1.6342263744448886,100.74276011983967,0.10423717046292572,0.35377451544889765,0.35342763812625266,0.1511803678957916,53694663.78557114,0.0,0.0,0.0,1.0,0.0
53860564.0,0.046801758052104195,0.1252135712244489,0.08395236295390783,0.18381486939879757,0.0,1545.4809619238476,1500.0,1176.6793587174348,1479.3206412825652,1519.6793587174348,1560.6793587174348,16.26826879220441,16.667225148737476,11.750391728957915,16.12888581537074,16.054796531062124,16.448794467935873,15.932479127454908,16.323476984048096,159.03892697795592,159.03892697795592,11.749381274729458,-0.0014086974128256515,-0.005936146561122245,0.00024132663326653306,-0.21005962390781563,0.19404451064729458,-0.044880689811623256,2.0,0.694555745034068,1.6945557450340683,11.0,0.0,0.0,1.0,0.0,0.0,0.0,0.0,0.0,0.0,0.0,0.8019678628136272,0.07969599048296594,0.5430166536853708,0.70766341049499,10.742331471002004,197.20005131723448,49.18741229725451,-0.022853756194388775,-0.0013881764328657318,0.02906966140881764,0.0,-1.0114106661142284,0.13078556985170303,-12.924531366993987,-4.4969939879759485e+20,954.597455605611,11.750289223346694,0.42248597556513023,0.3141939158276553,-0.1014415367815632,-1.1100421487014027,0.6648360992024043,-13.431514184729458,0.35548017185170333,0.30912584090180356,-0.09868960320240468,-4.4969939879759485e+20,100.03473,100.24550638316633,-0.010538895891783568,0.08913175101803616,15.367774590581163,17.17663804705411,-0.036177264248497,3.4414149669819634,-0.36619392593186373,75.90684491709419,500.34782293587176,11.750391728957915,95457.7972209018,1.1341965431162324,-0.4162334373166343,-0.054347255354710314,0.37005664141883954,0.33642093263927847,0.31360882082364727,-0.07425122527655297,0.7793593901482966,0.08279702428256513,0.582894572987976,0.8897755420861724,0.352558946755511,0.14573078189378758,0.250509708496994,0.16534856463727457,398713613.7549098,327324091.01623243,500807.1435258517,16.66858806699399,14.010097441903808,-9.03896901196593,0.8570183536653305,5.709932025288578,0.0,0.0,0.0,764000.0,39.8714138,32.7364368,-4.652579683344689,-344.4444878551102,-100.44751956513026,14.252181538697394,-8.459736321018037,0.9123976361302605,2.471991051883767,6.090546837691383,-0.8622464717094185,100.6176787765531,0.027639776797595175,0.3066160253206413,0.4149175518517034,0.1654690857274549,53860563.54509018,0.0,0.0,0.0,1.0,0.0
53994463.0,0.030990440941883773,0.11340555292184369,0.10343286451102204,0.17317074058116233,0.0,1551.6733466933867,1500.0,1173.6533066132265,1486.4285240601203,1512.5714759398797,1556.0,16.08457366735471,16.478990509038077,11.751103834589179,16.272067878456912,16.19912782975952,16.59654751943888,16.08387159406814,16.478465740360722,162.05328697014028,162.05328697014028,11.750460628837676,-0.001406799006012024,-0.005933752042084168,0.00023781574549098196,-0.21012445,0.19403978,-0.044340998,2.0,0.7053903764569138,1.7053903764569138,11.0,0.0,0.0,1.0,0.0,0.0,0.0,0.0,0.0,0.0,0.0,0.7797341753827656,0.07903126977154308,0.5825691767214428,0.7177358415210421,8.70075611542485,195.87564054028056,48.44184201553106,-0.022849431398797596,-0.0017891249198396795,0.034141754042084166,0.0,-0.8376811563767537,-0.39011453135070134,-12.140284780240481,-3.3973747494989935e+20,954.6036322573146,11.750974633767536,0.3050599826032065,0.2929000711002005,-0.011484804881763695,-1.0124319978577156,-0.1674486356913823,-12.551512220781564,0.25140417299398804,0.24714645219238485,0.23436511943286548,-3.3973747494989935e+20,100.03473,100.29843611042084,-0.01318549308817635,0.2687210694488978,15.36776397527054,17.578202460541082,-0.04420875734268537,1.947426305603207,-0.3672020798517034,76.39020218803607,500.2060049635271,11.751103834589179,95459.40152561123,1.1342155704328658,-0.7569849205611237,-0.533111143032065,3.260149333492987,0.24279534788376758,0.24455387696192388,0.3011621541943886,0.7600594369338678,0.07891047058116232,0.6257839960581163,0.8873781263527054,0.3413873645350702,0.14894291786172345,0.27170547491583164,0.18817244424448898,398713807.52204406,327323938.04448897,500682.62228717434,16.52293602787575,14.381561326753506,-8.106580145350701,0.7042695755991986,5.769432705218437,0.0,0.0,0.0,764000.0,39.8714138,32.7364368,-2.5160935855430875,-345.63322843026054,-100.34571468597194,14.59188050254509,-7.5691590205230455,0.8418562435450903,2.2258848729138276,6.212417991801603,-0.08928997976953948,100.51587287394788,-8.938219639275345e-05,0.3430955772024048,0.41018554001402807,0.18638937316633267,53994462.98396794,0.0,0.0,0.0,1.0,0.0
54144630.0,0.019071679468937855,0.12229753904809623,0.10217104262725447,0.18175431555110225,0.0,1548.0140280561122,1500.0,1187.4789579158316,1492.9631915551101,1506.0368084448899,1565.4789579158316,15.989746499118235,16.381803427194388,11.75176458971944,16.240179069879762,16.168017858677356,16.56466434034068,16.070399235771543,16.464652619378757,161.6942001236473,161.6942001236473,11.75046967470942,-0.0014049271563126252,-0.005933101094188377,0.000236105875751503,-0.21012445,0.19403978,-0.044340998,2.0,0.7162250088797596,1.7162250088797595,11.0,0.0,0.0,1.0,0.0,0.0,0.0,0.0,0.0,0.0,0.0,0.7574946992965931,0.07836231677555111,0.6221193758216433,0.7278071416232466,6.659507147803604,194.55068825290581,47.69670091260521,-0.02281636876953908,-0.0013502951563126241,0.03365602620841683,0.0,-0.7397220100521041,-0.06821540817635165,-11.867800730661324,-5.32e+20,954.6077726296593,11.751613082024049,0.2311942698877754,0.2270548392064128,0.3757063946533074,-0.8551155409659322,-0.3160743015230463,-11.894297523366735,0.21150545262925846,0.23931691009018047,0.5667845458717438,-5.32e+20,100.03473,100.36961467094189,-0.016744268292585178,0.3537493946713429,15.367741977034068,17.511817574068136,-0.04288151890981963,0.990575949683365,-0.36820882514428854,76.85921333400802,500.05051469018036,11.75176458971944,95461.17674519039,1.1342366680400802,-0.4037097992224373,0.061794072402808736,1.8967751911643251,0.21131362999799594,0.2522309436372747,0.599103247663327,0.7377256911262524,0.0743910544248497,0.6635867003547095,0.8856189153607215,0.3293563670601202,0.15015528834068137,0.29094192356312626,0.2100792834488978,398714003.7689379,327323806.61462927,500580.7378739479,16.395637555591183,14.73467042729459,-7.168073222096191,0.68,5.830214628078156,0.0,0.0,0.0,764000.0,39.8714138,32.7364368,-0.34171684950700987,-346.69450958557115,-100.25399624288578,15.055988973406816,-6.812351116208418,0.7121315649258497,2.3753164901122252,7.434433975292593,-0.008927962102208309,100.42415624288577,-0.021623697214428885,0.3969642058717435,0.3819653126573146,0.2075428855711423,54144630.36272545,0.0,0.0,0.0,1.0,0.0
54292899.0,0.004999577891783557,0.1465050850721443,0.0851557031783567,0.19964309492985974,0.0,1539.947912723447,1500.0,1205.1452322044088,1499.3817440681362,1499.6182559318638,1576.7114059138275,16.989892511402804,17.406491243607213,11.752074148036073,16.208290251302607,16.136907884328657,16.532781161382765,16.05692687747495,16.450839498396792,161.3351132771543,161.3351132771543,11.750478720721443,-0.0014030553066132264,-0.005932450486973948,0.00023439567935871743,-0.21012445,0.19403978,-0.044340998,2.0,0.7270596403026053,1.7270596403026053,11.0,0.0,0.0,1.0,0.0,0.0,0.0,0.0,0.0,0.0,0.0,0.7314528052384769,0.07491282883967935,0.6601430217054108,0.7371359877114229,4.832676991795589,192.8699768995992,47.23350952250501,-0.02284312129458918,-0.0006825225270541079,0.029929134458917834,0.0,-1.0910306951523052,1.0438956864208428,-14.039433687294594,-5.32e+20,954.6095753222445,11.752032818877757,0.20298702661723445,0.2586324519338678,0.6250739309519039,-0.682971139320641,0.09443723572745516,-12.093505968637276,0.20750294746292586,0.36072668965531085,0.39584561931262485,-5.32e+20,100.03473,100.43999388496995,-0.020263156018036074,0.30438249828657304,15.36777856270541,17.215210809078155,-0.03694864934068136,0.35620850886172306,-0.3691131728336674,77.24945420895791,500.132536054509,11.752074148036073,95460.2550013026,1.134225710486974,0.6356219949739514,1.4303959897134302,-3.841580388625268,0.2140775755410822,0.399083704711423,0.33053141740080105,0.7111483843927855,0.07026972425450902,0.7013766646993989,0.8840435457394789,0.3154259985430862,0.15044534183567135,0.31037062063527054,0.2264398676472946,398714205.2022044,327323683.8731463,500532.0808378758,16.682586541302605,15.368435742905813,-6.522803534432866,0.3513753331082159,5.880783040527055,0.0,0.0,0.0,764000.0,39.8714138,32.7364368,2.0031706707274566,-347.7276878883768,-100.24115022705412,16.127676105751505,-6.675871591070139,-0.1078149807895793,2.0182533488436865,10.179085784689377,-1.2222241449679354,100.41130714028056,-0.05199546734468942,0.4007212406012024,0.3558522292104208,0.2239575917635271,54292899.11623246,0.0,0.0,0.0,1.0,0.0
54443463.0,0.014395827661322661,0.14133308754108215,0.07998492324849699,0.1674302711422846,0.0,1548.1501221963929,1500.0,1155.6973947895792,1497.4769539078156,1501.5230460921844,1567.0082678737474,16.817714706513026,17.230003006292584,11.751786575270541,16.176401442725453,16.10579791997996,16.500897987354712,16.043454519178358,16.437026377414828,160.97602643066134,160.97602643066134,11.750487771663327,-0.0014011834569138276,-0.005931800198396794,0.00023268548296593187,-0.21012445,0.19403978,-0.044340998,2.0,0.7378942725511022,1.7378942725511022,11.0,0.0,0.0,1.0,0.0,0.0,0.0,0.0,0.0,0.0,0.0,0.7048900460220441,0.07108245491583166,0.6979575565631262,0.746363129509018,3.0352185035210426,191.1405327268537,46.808940363907816,-0.02292135953507014,-0.0004381202985971944,0.027623356963927856,0.0,-1.3206513063166332,0.6470496899519043,-14.654760026633266,-4.6429659318637285e+20,954.6114395122244,11.75183738733467,0.2152768768577154,0.4023959350501002,0.24469932479358739,-1.3679086107635268,1.4463932455731463,-15.227791418236473,0.169473986995992,0.47091725661523043,-0.07742101272144279,-4.6429659318637285e+20,100.03473,100.50334886893788,-0.02343088987775551,0.20898338026052107,15.367833088456914,16.84006311470942,-0.029444596873747498,-0.05557708520841676,-0.3699377806913828,77.57256021084169,500.062640647495,11.751786575270541,95461.06768901803,1.134235342264529,-0.3396651347094194,0.09641059210420921,-2.7840703167114236,0.16461771870140285,0.489787426501002,-0.09222562021643282,0.6790262316372745,0.06695180799599197,0.733522165509018,0.8837073526673347,0.2993888594008016,0.14881183206412826,0.32752931106813626,0.23627555272144288,398714414.0338678,327323569.34128255,500544.2359817635,17.31167892458918,16.226558253807614,-6.080880817284569,-0.2843932796192384,5.924474137677355,0.0,0.0,0.0,764000.0,39.8714138,32.7364368,4.450418538276552,-348.6291035521042,-100.29704871202405,16.34320356460922,-5.201968223801604,-0.2756348533346693,0.8679038695170345,9.370396509246493,-0.9416981905771544,100.46720787715431,-0.09652746946492984,0.35956368853306614,0.3493373681102204,0.2351453070741483,54443463.38677355,0.0,0.0,0.0,1.0,0.0
54602028.0,-0.007737431030060143,0.12057462170140278,0.125897965222445,0.15117932719438879,0.0,1565.9839679358718,1500.0,1154.7370345490983,1504.8725252905813,1494.1274747094187,1555.147762533066,16.480519630821643,16.884600696653308,11.751364436072144,16.144512624148298,16.074687945631265,16.469014813246492,16.029982160881765,16.423213256432867,160.61693958416834,160.61693958416834,11.75049682260521,-0.0013993116072144288,-0.005931149250501003,0.00023097528657314628,-0.21012445,0.19403978,-0.044340998,2.0,0.7487289041482966,1.7487289041482965,11.0,0.0,0.0,1.0,0.0,0.0,0.0,0.0,0.0,0.0,0.0,0.6783272868056112,0.0672520816513026,0.7357720907615231,0.7555902719579158,1.2377600155871706,189.4110885541082,46.38437120190381,-0.02300491946492986,-0.0004011201382765529,0.028301103150300606,0.0,-1.0916926732164327,-0.32986777484368857,-13.542037066032062,-3.064769539078172e+20,954.6006645176353,11.751441361022044,0.14123685273747472,0.4654405001182364,-0.11417975656112248,-1.2726457476132265,0.36827269917033717,-14.543769392064128,0.05035045314028035,0.36424176775150274,0.0735780374909827,-3.064769539078172e+20,100.03473,100.55662890320642,-0.026094934048096197,0.10103811463527036,15.367892730581161,16.445446331122245,-0.02155106082364728,-0.2703616463827659,-0.37066998709619237,77.82306698765531,500.1489172398797,11.751364436072144,95460.04926338677,1.1342233323867734,-0.7172527827635227,-1.2330284474549158,1.9782351252545123,0.04691438216032045,0.37188079353106174,0.060048151613227276,0.6546936337374749,0.06404684310621242,0.7725180433947897,0.8805631617174349,0.2862689205691383,0.14915018918637274,0.34700165095791585,0.2428425946733467,398714637.3695391,327323475.6795591,500598.7360869739,17.024353171322645,16.357865382725453,-4.66565749992184,-0.43983172546292626,6.005339124158317,0.0,0.0,0.0,764000.0,39.8714138,32.7364368,6.8721850766973995,-349.30143380020047,-100.37180828757515,16.41241169016032,-3.920080346999997,-0.35846040078356717,0.14454810137074028,8.229916753016031,-0.07863161350901565,100.54196388436873,-0.12003203168537079,0.3240401406613226,0.35340999243286575,0.2420179526653307,54602028.31663327,0.0,0.0,0.0,1.0,0.0
54753227.0,-0.014752943480961931,0.10873673724048098,0.13689010023446896,0.16352773452905814,0.0,1568.683366733467,1500.0,1171.0222988777557,1508.1583166332666,1490.8416833667334,1557.7193753907818,16.214465056392786,16.612184518176353,11.750873650380761,16.11262381557114,16.043577981282564,16.437131639298595,16.016509804168336,16.409400135450902,160.25785275350702,160.25785275350702,11.750505873547095,-0.0013974399158316634,-0.00593049830260521,0.00022926493186372745,-0.21012445,0.19403978,-0.044340998,2.0,0.7595635355711423,1.7595635355711423,11.0,0.0,0.0,1.0,0.0,0.0,0.0,0.0,0.0,0.0,0.0,0.6512943555811622,0.06462325615631263,0.7679831471242484,0.7635369130220441,-0.2697993422765543,187.54024994509018,46.10552038316633,-0.023027382452905813,-5.67040080160315e-05,0.030009657038076152,0.0,-0.8446587771723443,-0.324575424116232,-12.209876986913827,-5.32e+20,954.5803170703407,11.750984965511021,0.02092391731062121,0.32792346795390764,0.15135244872745537,-0.983881877547094,-0.48918903885971887,-13.209883994188374,-0.0026638308677354797,0.24498315793987976,0.4776427473386776,-5.32e+20,100.03473,100.59151213527053,-0.027839137030060124,0.0611313125831663,15.367944082044088,16.183325244068136,-0.016307611745490978,-0.3284592311603207,-0.3711683997034068,77.94591393899799,500.20844064028057,11.750873650380761,95459.39640206413,1.1342155371623246,-0.5793765581843648,-0.4213739481743479,3.080694797697393,-0.0029898499539078452,0.24791749120440879,0.49251109563527085,0.6253945726492985,0.06190552411222444,0.7965906383126252,0.8802964509839679,0.27198959533667333,0.1463950496232465,0.36008740272945894,0.24738277528456912,398714854.6533066,327323407.25190383,500667.81309218437,16.76589831785571,16.405827378657317,-3.4258730731262514,-0.45889682961523043,6.077198117925851,0.0,0.0,0.0,764000.0,39.8714138,32.7364368,9.280215937941886,-349.80395097114234,-100.44753985851703,16.412509399098198,-2.755689998266532,-0.31511790046092175,-0.17984021178356716,7.87071695454509,0.7695415811222448,100.6176995735471,-0.13021743378156314,0.3085689134448898,0.3353694104769539,0.246692265250501,54753226.51302605,0.0,0.0,0.0,1.0,0.0
54905859.0,-0.02150154631062124,0.12957506923046092,0.12534134567935873,0.18637414811623249,0.0,1559.0479929058117,1500.0,1193.7140427795591,1512.4350238897796,1486.5649761102204,1568.0219408016033,16.091168100220443,16.48586551981964,11.75047724743487,16.08073499699399,16.01246800693387,16.405248458517033,16.00303744753507,16.395587014468937,159.8987659236473,159.8987659236473,11.750514924488977,-0.0013955682324649297,-0.005929847354709418,0.00022755456913827656,-0.21012445,0.19403978,-0.044340998,2.0,0.7703981679939879,1.770398167993988,11.0,0.0,0.0,1.0,0.0,0.0,0.0,0.0,0.0,0.0,0.0,0.6237751742044089,0.06323706528256513,0.7943991086092185,0.7701592654629259,-1.4775461868076152,185.52318164689382,45.977370893246494,-0.02301975195390782,0.0006522560861723446,0.030354672967935873,0.0,-0.5858558502685371,0.11321903014228454,-12.2078815546493,-5.32e+20,954.5784295316633,11.750524468737474,-0.006554827258517032,0.22929318310621244,0.5335858182164328,-0.8432708659539079,-0.25769500548497,-12.104928548657314,-0.015305717434869737,0.2713999669238477,0.6482272931242485,-5.32e+20,100.03473,100.61519971823648,-0.029023532561122244,-0.023881675332665324,15.368003975190382,15.944998881823647,-0.011539889192384769,-0.35778560126052106,-0.37157459358517037,78.01062038771542,500.29732050621243,11.75047724743487,95458.39551895791,1.1342036221482965,0.45356620813627274,0.4314835668977955,0.21975095215631268,-0.0027072814128256528,0.2789291976793587,0.6611639496853707,0.5986874270981964,0.06077070666132264,0.821510129741483,0.8792186116973948,0.25864761928857716,0.1443092108056112,0.3731542932144289,0.25016954953306614,398715071.34148294,327323357.7002004,500734.4320178357,16.54855902557114,16.399520005190382,-2.2424800228176354,-0.40416000890781567,6.147083979623246,0.0,0.0,0.0,764000.0,39.8714138,32.7364368,11.745075679058116,-350.1265067523047,-100.5109918250501,16.380938016833667,-1.54357490502004,-0.18815999980160322,-0.3650567034228457,8.390428576905812,0.8628528783887776,100.6811468250501,-0.13581454847895794,0.31440282815230464,0.3014901461022044,0.2497239756713427,54905858.90380762,0.0,0.0,0.0,1.0,0.0
