timestamp,control[0],control[1],control[2],control[3],control[4]
11000000,0,0,0,0.499,0.5
11004000,0,0,0,0.499,0.5
11008000,0,0,0,0.499,0.5
11012000,0,0,0,0.499,0.5
11016000,0,0,0,0.499,0.5
11020000,0,0,0,0.499,0.5
11028000,0,0,0,0.499,0.5
11032000,0,0,0,0.499,0.5
11036000,0,0,0,0.499,0.5
11044000,0,0,0,0.499,0.5
11048000,0,0,0,0.499,0.5
11056000,0,0,0,0.499,0.5
11060000,0,0,0,0.499,0.5
11064000,0,0,0,0.499,0.5
11068000,0,0,0,0.499,0.5
11072000,0,0,0,0.499,0.5
11076000,0,0,0,0.499,0.5
11080000,0.020069707,0.030676235,0.000850447,0,0.49
11084000,0.021493357,0.030740514,0.000719261,0,0.48000002
11088000,0.022868834,0.030913398,0.000763177,0,0.47000003
11092000,0.024104372,0.031158319,0.000899613,0,0.46000004
11096000,0.024926279,0.03143971,0.001058744,0,0.45000005
11100000,0.03250648,0.031656787,-0.004140766,0.15,0.44000006
11104000,0.031722892,0.031813595,-0.004144179,0.15,0.43000007
11108000,0.030404182,0.03207612,-0.004434017,0.15,0.42000008
11112000,0.028991614,0.03224058,-0.004844209,0.15,0.4100001
11116000,0.028214091,0.032202397,-0.004961658,0.15,0.4000001
11124000,0.027760426,0.03189457,-0.004693694,0.15,0.3800001
11132000,0.030151362,0.03109201,-0.004524354,0.15,0.36000013
11136000,0.030636808,0.031077294,-0.004600262,0.15,0.35000014
11140000,0.0300809,0.031288113,-0.004566476,0.15,0.34000015
11144000,0.028946422,0.03151211,-0.004666691,0.15,0.33000016
11148000,0.028107835,0.03145519,-0.004862715,0.15,0.32000017
11156000,0.029768107,0.030627405,-0.004756086,0.15,0.3000002
11160000,0.030477002,0.030463975,-0.00462214,0.15,0.2900002
11164000,0.030184416,0.03058822,-0.004671833,0.15,0.2800002
11168000,0.03007237,0.0307358,-0.004688411,0.15,0.27000022
11172000,0.030527698,0.03090225,-0.004525212,0.15,0.26000023
11176000,0.030417282,0.031063443,-0.004303852,0.15,0.25000024
11180000,0.029411998,0.031107921,-0.004111238,0.15,0.24000023
11184000,0.028938891,0.031171093,-0.004077399,0.15,0.23000023
11188000,0.029816056,0.03122318,-0.004220721,0.15,0.22000022
11192000,0.030978616,0.031101547,-0.004378231,0.15,0.21000022
11196000,0.031127088,0.030977974,-0.004499229,0.15,0.20000021
11204000,0.02920451,0.030987326,-0.004533019,0.15,0.1800002
11208000,0.028524363,0.031098824,-0.00443771,0.15,0.1700002
11212000,0.028666178,0.031163016,-0.004453382,0.15,0.16000019
11216000,0.028374925,0.031128287,-0.00443012,0.15,0.15000018
11220000,0.027903192,0.031060984,-0.00436647,0.15,0.14000018
11228000,0.02822648,0.031138621,-0.004198142,0.15,0.120000176
11232000,0.029719967,0.031283848,-0.00419866,0.15,0.11000018
11236000,0.03051754,0.031152869,-0.004367305,0.15,0.10000018
11240000,0.03062367,0.031108875,-0.00457664,0.15,0.09000018
11244000,0.030008575,0.031212147,-0.004760256,0.15,0.080000184
11248000,0.030039947,0.03133887,-0.00481013,0.15,0.07000019
11252000,0.030373791,0.031380285,-0.004825736,0.15,0.06000019
11256000,0.03045483,0.03129341,-0.004826217,0.15,0.05000019
11260000,0.030364932,0.031187601,-0.00475911,0.15,0.040000193
11268000,0.02880232,0.03144924,-0.004724081,0.15,0.020000193
11272000,0.028420117,0.03161781,-0.004943107,0.15,0.010000194
11276000,0.02852452,0.031563498,-0.005044126,0.15,1.94E-07
11280000,0.028745487,0.031288415,-0.005012053,0.15,0
11284000,0.029302832,0.03106084,-0.004934058,0.15,0
11288000,0.029969702,0.03102694,-0.004679894,0.15,0
11292000,0.022361323,0.031135362,0.000897368,0,0
11296000,0.022403216,0.031227924,0.000916839,0,0
11300000,0.022547392,0.031115022,0.000456009,0,0
11304000,0.022257222,0.030731376,-0.000794842,0,0
11308000,0.021450207,0.030269163,-0.001499716,0,0
11316000,0.020697266,0.030224713,-0.00096633,1,0
11320000,0.022140926,0.03087938,0.001148458,1,0
11324000,0.02259333,0.030998789,0.002086138,1,0
11328000,0.02135136,0.031144515,0.00287269,1,0
11332000,0.019212617,0.031243378,0.003947583,1,0
11336000,0.01783488,0.031177938,0.003855004,1,0
11340000,0.018049246,0.030969182,0.002774008,1,0
11348000,0.01978563,0.030680664,0.002075158,1,0
11352000,0.023737414,0.030611634,0.000308786,1,0
11356000,0.023416834,0.030705858,-0.000709937,1,0
11360000,0.022695271,0.030862805,-0.00067836,1,0
11364000,0.022220116,0.030972544,0.000260472,1,0
11368000,0.021934353,0.030773561,0.00078758,1,0
11372000,0.022372937,0.030432029,0.0005627,1,0
11376000,0.022873322,0.030147824,0.001209842,1,0
11380000,0.022893911,0.029944463,0.002939582,1,0
11384000,0.022550449,0.02995843,0.004306831,1,0
11388000,0.021919042,0.030297982,0.004544474,1,0
11392000,0.021387871,0.03076348,0.004517228,1,0
11396000,0.021409236,0.031171948,0.00471111,1,0
11400000,0.022390222,0.031358868,0.004527647,1,0
11408000,0.024292378,0.031082444,0.002611908,1,0
11412000,0.024568146,0.030948251,0.002673264,1,0
11416000,0.024631616,0.030908301,0.002532526,1,0
11420000,0.02412122,0.03087524,0.00223189,1,0
11424000,0.0229878,0.03098438,0.00203531,1,0
11428000,0.02196024,0.031089563,0.001885393,1,0
11432000,0.021602893,0.030991424,0.002241728,1,0
11436000,0.021282341,0.030834746,0.003178088,1,0
11444000,0.019860867,0.03059106,0.004421437,1,0
11448000,0.019257518,0.030554097,0.005106083,1,0
11452000,0.020113304,0.03058198,0.005862583,1,0
11456000,0.020861201,0.030742886,0.006074274,1,0
11460000,0.020228088,0.030907186,0.005637697,1,0
11468000,0.018952096,0.03085512,0.005185739,1,0
11472000,0.01958757,0.030775603,0.005515204,1,0
11480000,0.021275802,0.031026114,0.005673771,1,0
11484000,0.02266956,0.031376224,0.006960628,1,0
11492000,0.02290891,0.03163809,0.007434821,1,0
11496000,0.022940196,0.03175223,0.006157452,1,0
11500000,0.022832813,0.031393893,0.00615453,1,0
11504000,0.023263909,0.031054573,0.005926555,1,0
11508000,0.023456816,0.030967928,0.006582131,1,0
11512000,0.022926785,0.030940915,0.006791531,1,0
11516000,0.022464577,0.030882644,0.006702307,1,0
11520000,0.022219196,0.030884068,0.005364782,1,0
11524000,0.021197742,0.030802542,0.00484557,1,0
11528000,0.019651296,0.030609949,0.004179437,1,0
11532000,0.018812954,0.030548377,0.004267271,1,0
11536000,0.018796856,0.030565739,0.004073779,1,0
11540000,0.019369975,0.030926695,0.004704695,1,0
11544000,0.020232353,0.030855402,0.004127585,1,0
11548000,0.021425677,0.03058241,0.003616469,1,0
11552000,0.02208478,0.030449511,0.002993499,1,0
11556000,0.021773178,0.030670907,0.002971803,1,0
11560000,0.02112727,0.031066047,0.003235005,1,0
11564000,0.021087123,0.03129214,0.003443943,1,0
11568000,0.021202836,0.031106597,0.003059427,1,0
11572000,0.020963807,0.030770252,0.00307811,1,0
11576000,0.021066034,0.030668113,0.00353477,1,0
11580000,0.022037463,0.030806405,0.004425506,1,0
11584000,0.023647906,0.03107157,0.004773031,1,0
11588000,0.025061795,0.031248942,0.004768413,1,0
11592000,0.025084557,0.031363707,0.004105125,1,0
11596000,0.023413828,0.031444665,0.003859971,1,0
11600000,0.02145115,0.031267,0.003679298,1,0
11604000,0.020373251,0.031022415,0.003783568,1,0
11608000,0.020429464,0.030892394,0.003929534,1,0
11612000,0.021179229,0.030824916,0.004120401,1,0
11620000,0.021903194,0.030995984,0.003422751,1,0
11624000,0.021350611,0.031142922,0.003049493,1,0
11628000,0.021071984,0.031347536,0.003069666,1,0
11636000,0.022375958,0.031200042,0.003318864,1,0
11640000,0.022203084,0.031316064,0.002895104,1,0
11644000,0.021547526,0.031367313,0.002440573,1,0
11648000,0.021335103,0.031267438,0.002148947,1,0
11652000,0.021861706,0.03115588,0.002345253,1,0
11656000,0.022596672,0.030931665,0.002748651,1,0
11660000,0.022630757,0.030671423,0.00317954,1,0
11664000,0.021607675,0.030868653,0.003213885,1,0
11668000,0.02047178,0.03145458,0.003039412,1,0
11672000,0.02025422,0.031807646,0.002831666,1,0
11676000,0.020515207,0.031742156,0.002939764,1,0
11680000,0.020583965,0.031399455,0.00292437,1,0
11684000,0.020717941,0.031101137,0.002837606,1,0
11688000,0.021556841,0.031044165,0.002534113,1,0
11692000,0.022726335,0.030941779,0.002169181,1,0
11696000,0.01568608,0.023777757,0.001891467,1,0
11700000,0.015169173,0.023628294,0.002050171,1,0
11704000,0.01505946,0.023631437,0.002474524,1,0
11708000,0.015056499,0.023633093,0.002548866,1,0
11712000,0.01518047,0.023861447,0.003067709,1,0
11716000,0.01563887,0.023983194,0.002769426,1,0
11720000,0.01580994,0.024029594,0.002417945,1,0
11724000,0.01564457,0.024048166,0.002392654,1,0
11728000,0.015194113,0.024101336,0.00244064,1,0
11732000,0.014508829,0.024036292,0.002563561,1,0
11736000,0.014246637,0.023899728,0.002551621,1,0
11740000,0.014553349,0.023876477,0.002538888,1,0
11744000,0.015252532,0.024030188,0.002509531,1,0
11748000,0.016021652,0.024207417,0.002389398,1,0
11752000,0.016009478,0.02419552,0.002300254,1,0
11756000,0.01509571,0.024085138,0.00182901,1,0
11760000,0.014629794,0.024032507,0.001711422,1,0
11764000,0.014558028,0.023948204,0.001741277,1,0
11768000,0.014197487,0.023821963,0.001479102,1,0
11772000,0.013844616,0.023637045,0.001211603,1,0
11776000,0.013899289,0.023468146,0.00117168,1,0
11780000,0.014008252,0.023376413,0.001293616,1,0
11784000,0.013961069,0.023414701,0.001347513,1,0
11788000,0.014074972,0.023451228,0.001310486,1,0
11796000,0.011213027,0.019252889,0.001350735,1,0
11800000,0.010954463,0.0191505,0.001514212,1,0
11804000,0.010991504,0.019088985,0.001529309,1,0
11808000,0.011636633,0.018979216,0.001250491,1,0
11812000,0.012222138,0.018934717,0.000899471,1,0
11816000,0.012533272,0.018949063,0.000483941,1,0
11820000,0.012625332,-0.27053854,0.000284228,1,0
11824000,0.012567671,-0.27061114,0.000218427,1,0
11828000,0.012563187,-0.27070257,-1.59E-05,1,0
11832000,0.012530256,-0.27083656,-0.000508294,1,0
11836000,0.011989769,-0.2709249,-0.00136468,1,0
11844000,0.009209614,-0.25920704,-0.00394538,1,0
11848000,0.007339194,-0.2592558,-0.005480015,1,0
11852000,0.005499865,-0.2593333,-0.007167896,1,0
11856000,0.003983341,-0.25936487,-0.008797109,1,0
11860000,0.003896362,-0.25947994,-0.009531229,1,0
11868000,0.000952561,-0.24838123,-0.012915849,1,0
11872000,-0.001808917,-0.24809042,-0.015269266,1,0
11876000,-0.003350883,-0.24787977,-0.01709332,1,0
11880000,-0.004609223,-0.24769276,-0.01868627,1,0
11884000,-0.005861776,-0.24759702,-0.020620639,1,0
11888000,-0.007596094,-0.24751018,-0.022191128,1,0
11892000,-0.009540657,-0.23670876,-0.024037998,1,0
11896000,-0.008516267,-0.20831364,-0.025411539,1,0
11900000,-0.010198964,-0.20810339,-0.027090253,1,0
11904000,-0.011780881,-0.208001,-0.028283393,1,0
11908000,-0.012906189,-0.20797257,-0.029827498,1,0
11912000,-0.014044881,-0.20795171,-0.030941755,1,0
11916000,-0.015534298,-0.1991319,-0.032467853,1,0
11920000,-0.017172253,-0.19916028,-0.033684094,1,0
11924000,-0.018860659,-0.19910844,-0.03541266,1,0
11928000,-0.020678408,-0.19908386,-0.03653929,1,0
11932000,-0.022538947,-0.19909856,-0.03791269,1,0
11936000,-0.024435483,-0.1991654,-0.038654402,1,0
11940000,-0.026011173,-0.1908043,-0.039947677,1,0
11944000,-0.027348602,-0.19087504,-0.04088747,1,0
11948000,-0.029057128,-0.19091111,-0.042228937,1,0
11952000,-0.030767677,-0.19095583,-0.04283011,1,0
11956000,-0.03224951,-0.19101967,-0.04373903,1,0
11960000,-0.03379575,-0.1911625,-0.044187922,1,0
11964000,-0.035393022,-0.18327808,-0.045114554,1,0
11968000,-0.037049476,-0.18350172,-0.045488335,1,0
11972000,-0.03749511,-0.18356559,-0.046481982,1,0
11976000,-0.039884493,-0.18379727,-0.04612536,1,0
11980000,-0.040987473,-0.18391833,-0.04644106,1,0
11984000,-0.04218493,-0.18413186,-0.046326432,1,0
11988000,-0.043623522,-0.1764976,-0.046766862,1,0
11992000,-0.04526436,-0.17663829,-0.046719693,1,0
11996000,-0.03945463,-0.16075796,-0.047018535,1,0
12000000,-0.04108201,-0.16092013,-0.046805114,1,0
12004000,-0.04262719,-0.16107649,-0.047006555,1,0
12008000,-0.043898255,-0.16125615,-0.04655999,1,0
12012000,-0.04503197,-0.15458737,-0.046381745,1,0
12020000,-0.04758187,-0.15491885,-0.045641366,1,0
12024000,-0.04896891,-0.15506685,-0.045078993,1,0
12028000,-0.05044154,-0.15519695,-0.044914246,1,0
12032000,-0.051857103,-0.15536927,-0.044314552,1,0
12036000,-0.05301946,-0.14890149,-0.0440279,1,0
12040000,-0.05394438,-0.14903268,-0.043212615,1,0
12044000,-0.05490802,-0.14917952,-0.042602696,1,0
12048000,-0.056044392,-0.14932668,-0.041625388,1,0
12052000,-0.057033036,-0.14949527,-0.0409338,1,0
12056000,-0.057754148,-0.14965087,-0.040026166,1,0
12060000,-0.058492858,-0.14331111,-0.03949535,1,0
12064000,-0.059291862,-0.14339341,-0.03858523,1,0
12068000,-0.059982914,-0.14347696,-0.037871897,1,0
12072000,-0.060633346,-0.14352962,-0.03680654,1,0
12076000,-0.06157688,-0.14360362,-0.03585407,1,0
12080000,-0.062718846,-0.14369743,-0.034556173,1,0
12084000,-0.063835114,-0.13750866,-0.033516265,1,0
12088000,-0.06490111,-0.13752241,-0.032344013,1,0
12092000,-0.06558588,-0.13750473,-0.031488568,1,0
12096000,-0.058187414,-0.12817383,-0.030472863,1,0
12100000,-0.058664422,-0.12820235,-0.029557042,1,0
12104000,-0.059256412,-0.12820604,-0.028282091,1,0
12108000,-0.05997272,-0.12252803,-0.027049318,1,0
12112000,-0.060664445,-0.12248645,-0.02577698,1,0
12116000,-0.061059006,-0.122417994,-0.024791086,1,0
12120000,-0.06135902,-0.122375384,-0.02360899,1,0
12124000,-0.061900914,-0.12242734,-0.02242899,1,0
12128000,-0.06265321,-0.12253608,-0.021081168,1,0
12132000,-0.063215934,-0.11708064,-0.020251682,1,0
12140000,-0.06424406,-0.117102265,-0.01773623,1,0
12144000,-0.06506604,-0.11700543,-0.016380649,1,0
12148000,-0.06571721,-0.117045976,-0.015298276,1,0
12156000,-0.06669164,-0.11168843,-0.013116694,1,0
12160000,-0.06638747,-0.11163367,-0.01142579,1,0
12168000,-0.066626035,-0.111619726,-0.008987429,1,0
12172000,-0.066858836,-0.11157371,-0.007858153,1,0
12176000,-0.06709317,-0.111578315,-0.006736291,1,0
12180000,-0.06724959,-0.106312945,-0.00554789,1,0
12184000,-0.067289405,-0.10628007,-0.004301343,1,0
12188000,-0.067440026,-0.10628471,-0.003101267,1,0
12192000,-0.06789525,-0.10635121,-0.001938046,1,0
12196000,-0.06619489,-0.10440612,-0.00078613,1,0
12200000,-0.06652426,-0.10442652,0.000343164,1,0
12204000,-0.06664828,-0.09934015,0.00149633,1,0
12208000,-0.06679168,-0.09928462,0.002665543,1,0
12212000,-0.06713407,-0.099260874,0.003836753,1,0
12216000,-0.06751085,-0.099261224,0.004870411,1,0
12220000,-0.06778107,-0.09930475,0.005853351,1,0
12224000,-0.067926794,-0.0994042,0.006819423,1,0
12228000,-0.06779932,-0.09461081,0.007861436,1,0
12232000,-0.06758091,-0.09481063,0.008822793,1,0
12236000,-0.06768962,-0.0950348,0.009838421,1,0
12240000,-0.06797973,-0.09521029,0.010821033,1,0
12244000,-0.06815807,-0.09534721,0.011904361,1,0
12248000,-0.06831124,-0.095469475,0.012967208,1,0
12252000,-0.06876461,-0.0906859,0.013973624,1,0
12256000,-0.06863736,-0.09077724,0.014738338,1,0
12260000,-0.06873732,-0.09098852,0.015470877,1,0
12268000,-0.0693925,-0.0914986,0.016735747,1,0
12276000,-0.06962728,-0.08721062,0.018109685,1,0
12280000,-0.06944179,-0.087379135,0.018790163,1,0
12284000,-0.069553,-0.08751751,0.019469125,1,0
12288000,-0.06986581,-0.08766736,0.019999815,1,0
12292000,-0.070274904,-0.087897405,0.020596232,1,0
12300000,-0.07116534,-0.08382962,0.021604292,1,0
12304000,-0.07146804,-0.08407634,0.022022054,1,0
12308000,-0.07171461,-0.08418607,0.022243338,1,0
12312000,-0.071639426,-0.08407019,0.021804858,1,0
12316000,-0.07126879,-0.08387702,0.021131082,1,0
12320000,-0.07108674,-0.08379175,0.020617565,1,0
12324000,-0.07123453,-0.07917678,0.020436933,1,0
12328000,-0.07143161,-0.07919345,0.020362053,1,0
12332000,-0.07144867,-0.07922325,0.020412274,1,0
12336000,-0.07144792,-0.07932018,0.020334871,1,0
12340000,-0.071564235,-0.079481065,0.020207398,1,0
12344000,-0.07168343,-0.079687834,0.01985788,1,0
12348000,-0.07197125,-0.07525667,0.019437943,1,0
12352000,-0.07236492,-0.075301334,0.019007023,1,0
12356000,-0.07257556,-0.07537082,0.018709302,1,0
12360000,-0.07274226,-0.07552411,0.018312994,1,0
12368000,-0.07304379,-0.075852655,0.017280677,1,0
12372000,-0.07349843,-0.07143895,0.016817145,1,0
12380000,-0.07445551,-0.07172874,0.015828501,1,0
12384000,-0.07453154,-0.07188052,0.015159005,1,0
12388000,-0.074430145,-0.072074264,0.014464624,1,0
12392000,-0.074382,-0.07231791,0.013822708,1,0
12396000,-0.074461415,-0.06807859,0.013260433,1,0
12400000,-0.07464307,-0.06832586,0.012632995,1,0
12404000,-0.07495564,-0.06861129,0.012007891,1,0
12408000,-0.07520642,-0.06895182,0.011321633,1,0
12412000,-0.07522778,-0.06930295,0.010647267,1,0
12416000,-0.075244546,-0.06964092,0.009995461,1,0
12420000,-0.075482965,-0.065599345,0.009397915,1,0
12424000,-0.075692885,-0.066034906,0.008815397,1,0
12428000,-0.07583081,-0.066501684,0.008218061,1,0
12432000,-0.07604702,-0.067019835,0.007551763,1,0
12436000,-0.07624414,-0.067562014,0.006917341,1,0
12440000,-0.0763622,-0.06812504,0.006369973,1,0
12444000,-0.07641975,-0.0642989,0.005871609,1,0
12448000,-0.076646246,-0.06484888,0.005330723,1,0
12452000,-0.076921545,-0.06543036,0.004822186,1,0
12456000,-0.076980904,-0.06609241,0.004384041,1,0
12460000,-0.077016234,-0.06675686,0.003953149,1,0
12464000,-0.0771349,-0.067340255,0.003480487,1,0
12468000,-0.07737058,-0.06351536,0.002945965,1,0
12472000,-0.07762633,-0.06410557,0.002362699,1,0
12476000,-0.07761973,-0.06481204,0.001822165,1,0
12484000,-0.07729484,-0.066248864,0.000854902,1,0
12488000,-0.07745063,-0.06688161,0.000350855,1,0
12496000,-0.07799779,-0.06387904,-0.000480833,1,0
12500000,-0.07813285,-0.06457208,-0.000831427,1,0
12504000,-0.078444585,-0.06523109,-0.001229651,1,0
12508000,-0.07881909,-0.065896496,-0.001646229,1,0
12516000,-0.078810856,-0.063154005,-0.00242126,1,0
12520000,-0.07908731,-0.063788,-0.002884542,1,0
12524000,-0.07858024,-0.06481834,-0.003179162,1,0
12528000,-0.078727886,-0.06555644,-0.003543744,1,0
12532000,-0.07893599,-0.06620575,-0.003884217,1,0
12536000,-0.07913035,-0.066876195,-0.004193047,1,0
12544000,-0.07956294,-0.06399052,-0.004891279,1,0
12548000,-0.07936308,-0.06478108,-0.004934593,1,0
12552000,-0.079331815,-0.06548745,-0.005121375,1,0
12556000,-0.07953152,-0.06622284,-0.005372423,1,0
12560000,-0.079803124,-0.06700291,-0.005640362,1,0
12564000,-0.07970185,-0.06349111,-0.005926089,1,0
12568000,-0.079345524,-0.0641669,-0.006183016,1,0
12572000,-0.07924995,-0.06484561,-0.006408205,1,0
12576000,-0.07954287,-0.06558873,-0.006577807,1,0
12580000,-0.07982137,-0.06634201,-0.006718001,1,0
12584000,-0.079952456,-0.067085296,-0.006801929,1,0
12588000,-0.07994338,-0.06353407,-0.006869099,1,0
12592000,-0.07975519,-0.06415321,-0.006939866,1,0
12596000,-0.0795681,-0.06476941,-0.007061004,1,0
12600000,-0.079486385,-0.06545286,-0.007209136,1,0
12604000,-0.0795312,-0.06612995,-0.007358393,1,0
12608000,-0.07974684,-0.06673675,-0.007481435,1,0
12612000,-0.08012402,-0.06306962,-0.007619064,1,0
12616000,-0.080438435,-0.063663766,-0.007773042,1,0
12620000,-0.08048515,-0.064299084,-0.007931843,1,0
12624000,-0.08033988,-0.06494056,-0.008036939,1,0
12628000,-0.080167875,-0.06555215,-0.008120698,1,0
12632000,-0.08020264,-0.06609406,-0.008212944,1,0
12636000,-0.0803974,-0.062362615,-0.008269389,1,0
12644000,-0.080597706,-0.063572526,-0.008365139,1,0
12648000,-0.08005536,-0.06412592,-0.008224445,1,0
12652000,-0.08007749,-0.06468501,-0.008227861,1,0
12660000,-0.08005236,-0.061636254,-0.008261369,1,0
12664000,-0.08003254,-0.06220722,-0.008338772,1,0
12668000,-0.08003614,-0.06272584,-0.008442972,1,0
12672000,-0.07984677,-0.063178316,-0.0084063,1,0
12676000,-0.079552874,-0.06361411,-0.008289203,1,0
12680000,-0.079446346,-0.064047955,-0.008213196,1,0
12684000,-0.07939118,-0.06026865,-0.008184588,1,0
12692000,-0.07954709,-0.06132726,-0.008262237,1,0
12696000,-0.079334736,-0.06196904,-0.008388987,1,0
12700000,-0.07938093,-0.06253956,-0.008476801,1,0
12704000,-0.07961008,-0.06293529,-0.008473581,1,0
12708000,-0.079785995,-0.059243653,-0.008511577,1,0
12716000,-0.080513895,-0.059841067,-0.008458732,1,0
12720000,-0.08069194,-0.060340356,-0.008498513,1,0
12724000,-0.08088068,-0.06072461,-0.008557716,1,0
12728000,-0.080866545,-0.061215214,-0.008594256,1,0
12732000,-0.080733545,-0.0575021,-0.008610532,1,0
12736000,-0.08076099,-0.05797731,-0.008618961,1,0
12740000,-0.08093853,-0.05845987,-0.008667989,1,0
12744000,-0.08131845,-0.05878775,-0.008804674,1,0
12748000,-0.08131878,-0.05910949,-0.008900341,1,0
12752000,-0.08124462,-0.059459433,-0.008938082,1,0
12756000,-0.08095765,-0.05567215,-0.009073021,1,0
12760000,-0.080456614,-0.056134142,-0.009267849,1,0
12764000,-0.08015138,-0.056635737,-0.009422281,1,0
12768000,-0.0800104,-0.057127945,-0.009572674,1,0
12772000,-0.07984848,-0.057567842,-0.009736255,1,0
12776000,-0.079810165,-0.0580027,-0.009846866,1,0
12780000,-0.079890035,-0.054172147,-0.009937603,1,0
12784000,-0.08001457,-0.054493938,-0.010062814,1,0
12788000,-0.08039577,-0.054815978,-0.01018695,1,0
12792000,-0.081012346,-0.05513963,-0.010262793,1,0
12796000,-0.081422195,-0.05550144,-0.010367381,1,0
12800000,-0.08137218,-0.055898838,-0.010465514,1,0
12804000,-0.08108979,-0.05206605,-0.010525243,1,0
12808000,-0.08085127,-0.052486606,-0.01062159,1,0
12812000,-0.08074969,-0.052974455,-0.01084261,1,0
12816000,-0.08084452,-0.053480472,-0.01108731,1,0
12820000,-0.0809563,-0.054018248,-0.011307322,1,0
12823999,-0.08093987,-0.054526623,-0.011532204,1,0
12828000,-0.08098156,-0.050659962,-0.011748625,1,0
12835999,-0.08121721,-0.051337957,-0.012172642,1,0
12840000,-0.08149622,-0.0516,-0.012574843,1,0
12844000,-0.08175864,-0.05200347,-0.012779713,1,0
12848000,-0.08176583,-0.052445248,-0.013017998,1,0
12852000,-0.081602536,-0.048666306,-0.013340317,1,0
12855999,-0.08155236,-0.04913203,-0.013672145,1,0
12860000,-0.08170337,-0.049561627,-0.013990393,1,0
12864000,-0.08172773,-0.049918495,-0.014311356,1,0
12867999,-0.08152998,-0.0502992,-0.01464043,1,0
12872000,-0.081428126,-0.050741687,-0.014953811,1,0
12876000,-0.0815876,-0.046970233,-0.015259281,1,0
12880000,-0.08191883,-0.047406293,-0.015603966,1,0
12884000,-0.08221431,-0.047843263,-0.016012765,1,0
12887999,-0.08246567,-0.048276924,-0.01641523,1,0
12892000,-0.08287943,-0.048692912,-0.016827231,1,0
12896000,-0.083252534,-0.049139142,-0.017253399,1,0
12899999,-0.08308468,-0.045363255,-0.017677676,1,0
12904000,-0.08250536,-0.045775034,-0.01808205,1,0
12908000,-0.082145356,-0.046158575,-0.018466402,1,0
12912000,-0.082188755,-0.04658584,-0.018815024,1,0
12916000,-0.08243829,-0.04703799,-0.019149968,1,0
12919999,-0.08256001,-0.047455918,-0.019488703,1,0
12924000,-0.082719,-0.04374703,-0.01983328,1,0
12928000,-0.08294395,-0.044289425,-0.020166945,1,0
12931999,-0.083295405,-0.044800725,-0.020553077,1,0
12936000,-0.08350008,-0.045246094,-0.02104865,1,0
12940000,-0.0834395,-0.04565028,-0.021584462,1,0
12944000,-0.08329729,-0.046057835,-0.022011552,1,0
12948000,-0.08322953,-0.042210802,-0.022373397,1,0
12956000,-0.083208285,-0.04305543,-0.02322618,1,0
12960000,-0.083144926,-0.043542415,-0.023629948,1,0
12963999,-0.08326569,-0.044026442,-0.023949357,1,0
12968000,-0.08357732,-0.044497307,-0.02433215,1,0
12972000,-0.08385714,-0.04074154,-0.024815552,1,0
12976000,-0.08400692,-0.041298,-0.025361469,1,0
12980000,-0.08407177,-0.041844584,-0.025890097,1,0
12983999,-0.08403949,-0.042308595,-0.026325924,1,0
12988000,-0.083936706,-0.042718455,-0.026715763,1,0
12992000,-0.08400765,-0.04315175,-0.027062763,1,0
12995999,-0.084250614,-0.039339505,-0.027415356,1,0
13000000,-0.08438133,-0.03978254,-0.02783421,1,0
13004000,-0.08425212,-0.04020762,-0.028259166,1,0
13008000,-0.083982505,-0.040680677,-0.02872682,1,0
13012000,-0.08373639,-0.041192673,-0.029260186,1,0
13015999,-0.08362086,-0.04169981,-0.029726867,1,0
13020000,-0.083654284,-0.03790251,-0.030129444,1,0
13024000,-0.083594546,-0.03837143,-0.030547386,1,0
13032000,-0.083487585,-0.03932773,-0.03153721,1,0
13036000,-0.083589435,-0.039799925,-0.031969126,1,0
13044000,-0.0838717,-0.03637469,-0.032771878,1,0
13047999,-0.084062636,-0.036870677,-0.033123173,1,0
13052000,-0.084195,-0.037456498,-0.033488285,1,0
13056000,-0.08432164,-0.037992164,-0.03384641,1,0
13059999,-0.084407836,-0.0384484,-0.03420618,1,0
13064000,-0.08447151,-0.03894438,-0.034605183,1,0
13068000,-0.0845382,-0.035215918,-0.035025295,1,0
13072000,-0.08446896,-0.035806715,-0.03543324,1,0
13076000,-0.08443872,-0.03630558,-0.035818875,1,0
13084000,-0.08461736,-0.03714499,-0.03666474,1,0
13088000,-0.08480948,-0.03751661,-0.037067056,1,0
13091999,-0.085039765,-0.03362239,-0.037475508,1,0
13096000,-0.08521937,-0.034175657,-0.037793614,1,0
13100000,-0.08531785,-0.03466045,-0.03814853,1,0
13104000,-0.085164875,-0.03518431,-0.038229086,1,0
13108000,-0.08510818,-0.035652004,-0.038608924,1,0
13111999,-0.085204214,-0.036147542,-0.039056942,1,0
13116000,-0.08523312,-0.032271493,-0.039449397,1,0
13120000,-0.085074045,-0.032719254,-0.039786156,1,0
13123999,-0.084849924,-0.03321375,-0.040138386,1,0
13132000,-0.08475437,-0.03422729,-0.040939197,1,0
13136000,-0.08480064,-0.03478749,-0.04132731,1,0
13140000,-0.08489268,-0.030906793,-0.041684985,1,0
13143999,-0.08527401,-0.03128731,-0.041916553,1,0
13148000,-0.08536106,-0.031776167,-0.042195994,1,0
13152000,-0.08539908,-0.032338668,-0.042464808,1,0
13155999,-0.085260145,-0.03286288,-0.042711407,1,0
13160000,-0.08511859,-0.033304907,-0.043013416,1,0
13164000,-0.08527603,-0.029343868,-0.04335194,1,0
13168000,-0.085653484,-0.029750776,-0.04369774,1,0
13172000,-0.085739136,-0.030231489,-0.044025674,1,0
13175999,-0.085792914,-0.030689165,-0.04433331,1,0
13180000,-0.085593365,-0.031173913,-0.04466664,1,0
13184000,-0.08541778,-0.03165381,-0.04498055,1,0
13187999,-0.085481085,-0.027760755,-0.04523744,1,0
13192000,-0.08584346,-0.028292572,-0.045499053,1,0
13196000,-0.08615974,-0.028841445,-0.045734562,1,0
13200000,-0.08612421,-0.029354585,-0.045979742,1,0
13204000,-0.08574329,-0.029795218,-0.046233445,1,0
13207999,-0.08539457,-0.030205641,-0.0462658,1,0
13212000,-0.08539325,-0.026237734,-0.04628873,1,0
13216000,-0.085641846,-0.026696503,-0.046311736,1,0
13219999,-0.08590523,-0.027177202,-0.046294138,1,0
13224000,-0.085930035,-0.027638359,-0.04627531,1,0
13228000,-0.08565864,-0.028099393,-0.04620467,1,0
13236000,-0.085487776,-0.02465854,-0.046194606,1,0
13239999,-0.08541857,-0.02508679,-0.046213023,1,0
13244000,-0.085291244,-0.025495464,-0.046215694,1,0
13248000,-0.08539392,-0.025958292,-0.046231784,1,0
13251999,-0.085557796,-0.026463874,-0.04619643,1,0
13256000,-0.08568299,-0.026938796,-0.04619204,1,0
13260000,-0.08575471,-0.022967122,-0.0461959,1,0
13264000,-0.08584293,-0.023332028,-0.046163682,1,0
13268000,-0.08572457,-0.02378682,-0.046136074,1,0
13271999,-0.08569039,-0.024271075,-0.04616102,1,0
13276000,-0.08586667,-0.024773864,-0.046182565,1,0
13284000,-0.08646265,-0.021412704,-0.046215013,1,0
13288000,-0.08659249,-0.021868937,-0.04628496,1,0
13292000,-0.08652968,-0.02234059,-0.046284586,1,0
13296000,-0.08636214,-0.022849616,-0.046200663,1,0
13300000,-0.08643263,-0.023327826,-0.046204515,1,0
13303999,-0.08629823,-0.023776554,-0.046138305,1,0
13308000,-0.08618921,-0.0197243,-0.046197183,1,0
13312000,-0.08615363,-0.020184088,-0.046283774,1,0
13316000,-0.08621865,-0.02064914,-0.04628764,1,0
13320000,-0.08626166,-0.021106753,-0.046429344,1,0
13323999,-0.08637027,-0.021538775,-0.046417058,1,0
13332000,-0.0863979,-0.017820524,-0.046377324,1,0
13335999,-0.08629813,-0.01814942,-0.046399117,1,0
13340000,-0.08624898,-0.018565897,-0.046382576,1,0
13344000,-0.08622856,-0.019109167,-0.04636378,1,0
13348000,-0.086319566,-0.01966171,-0.046344303,1,0
13352000,-0.0863365,-0.020157276,-0.046424087,1,0
13356000,-0.08615769,-0.01610444,-0.0465056,1,0
13364000,-0.08617597,-0.01704234,-0.04660619,1,0
13367999,-0.086243264,-0.017502112,-0.04665142,1,0
13372000,-0.086203374,-0.01796526,-0.04664029,1,0
13376000,-0.08611286,-0.018452775,-0.04667635,1,0
13380000,-0.086196594,-0.014445328,-0.046749987,1,0
13384000,-0.08638546,-0.014961995,-0.046815325,1,0
13387999,-0.08641119,-0.015432351,-0.046784475,1,0
13396000,-0.086425595,-0.016242879,-0.046780344,1,0
13404000,-0.08677847,-0.012559734,-0.046892256,1,0
13408000,-0.08690814,-0.013055515,-0.046950214,1,0
13416000,-0.086916976,-0.013921943,-0.04694888,1,0
13419999,-0.08641514,-0.014346444,-0.047005095,1,0
13424000,-0.08636924,-0.014798374,-0.04713964,1,0
13428000,-0.08662792,-0.010767933,-0.04724086,1,0
13436000,-0.087103546,-0.011771028,-0.047265746,1,0
13440000,-0.08699204,-0.012225108,-0.04717736,1,0
13444000,-0.08663411,-0.012613399,-0.047177315,1,0
13448000,-0.08619836,-0.013019899,-0.04725915,1,0
13451999,-0.08614184,-0.008882359,-0.04732769,1,0
13456000,-0.08659922,-0.009324225,-0.04738851,1,0
13460000,-0.087076575,-0.009805068,-0.04741677,1,0
13468000,-0.087375365,-0.01071253,-0.04747949,1,0
13476000,-0.08785621,-0.00706882,-0.04758508,1,0
13480000,-0.08800597,-0.007565234,-0.04771,1,0
13483999,-0.087994225,-0.008015841,-0.047755547,1,0
13488000,-0.08760744,-0.008448433,-0.047788873,1,0
13492000,-0.08766059,-0.00888497,-0.047793,1,0
13495999,-0.08704491,-0.009233462,-0.047763675,1,0
13500000,-0.08723383,-0.005093138,-0.047724776,1,0
13504000,-0.08745509,-0.00561936,-0.047727272,1,0
13508000,-0.08763839,-0.006161088,-0.047723576,1,0
13512000,-0.087826915,-0.006639651,-0.04776703,1,0
13515999,-0.08813293,-0.007089079,-0.04778028,1,0
13520000,-0.08832557,-0.007566815,-0.04780955,1,0
13524000,-0.088312864,-0.003510043,-0.047835164,1,0
13527999,-0.08827398,-0.004058576,-0.04792675,1,0
13532000,-0.08822286,-0.004550797,-0.048017904,1,0
13536000,-0.08813009,-0.005000021,-0.048113998,1,0
13540000,-0.08809783,-0.005382069,-0.048093498,1,0
13544000,-0.088155836,-0.005740208,-0.04807868,1,0
13547999,-0.08817414,-0.001558129,-0.048059843,1,0
13552000,-0.0881161,-0.002048409,-0.048062705,1,0
13556000,-0.087994665,-0.002516512,-0.048050307,1,0
13564000,-0.08791888,-0.003494248,-0.04809087,1,0
13568000,-0.08816235,-0.004018847,-0.048161466,1,0
13572000,-0.08840011,9.15E-05,-0.048209876,1,0
13576000,-0.088578515,-0.000429057,-0.048218384,1,0
13579999,-0.08863564,-0.000902282,-0.04822257,1,0
13584000,-0.08858708,-0.00138592,-0.04816757,1,0
13588000,-0.088495895,-0.001843616,-0.048202854,1,0
13592000,-0.088474505,-0.002301714,-0.048315585,1,0
13596000,-0.088570714,0.001831982,-0.048399307,1,0
13600000,-0.08862577,0.001307199,-0.048434734,1,0
13604000,-0.08871232,0.000886455,-0.048381835,1,0
13608000,-0.088994086,0.000541367,-0.048365366,1,0
13612000,-0.08911344,0.000116255,-0.04836027,1,0
13616000,-0.08894054,-0.00047514,-0.048432555,1,0
13620000,-0.0888658,0.003582846,-0.048501782,1,0
13624000,-0.08904961,0.003132818,-0.04859387,1,0
13628000,-0.08920702,0.002728796,-0.048598148,1,0
13632000,-0.089150324,0.002272638,-0.048558917,1,0
13636000,-0.08921595,0.00180969,-0.04856316,1,0
13640000,-0.08929896,0.001432594,-0.048387233,1,0
13644000,-0.0895141,0.005680652,-0.0483298,1,0
13648000,-0.0895765,0.00514962,-0.048369728,1,0
13652000,-0.08963265,0.004672665,-0.048373923,1,0
13656000,-0.08913466,0.004056225,-0.04856375,1,0
13660000,-0.08901644,0.003597863,-0.048604786,1,0
13664000,-0.08903679,0.003143668,-0.048616804,1,0
13668000,-0.08922538,0.00729599,-0.048589826,1,0
13672000,-0.08955739,0.006759102,-0.048630048,1,0
13676000,-0.08973274,0.00626244,-0.048618525,1,0
13680000,-0.08967781,0.005765002,-0.048599392,1,0
13684000,-0.08965455,0.005271368,-0.048576467,1,0
13688000,-0.08967035,0.004764279,-0.048681907,1,0
13692000,-0.089676134,0.00889357,-0.048761517,1,0
13696000,-0.08976489,0.008380048,-0.048795693,1,0
13700000,-0.08990521,0.007949919,-0.048745222,1,0
13704000,-0.08998126,0.007532761,-0.048751228,1,0
13708000,-0.08995453,0.007072631,-0.048745207,1,0
13712000,-0.08985932,0.006548978,-0.04872168,1,0
13716000,-0.08981896,0.010695996,-0.048651643,1,0
13720000,-0.08996444,0.010154828,-0.04871375,1,0
13724000,-0.09028481,0.009645112,-0.04876201,1,0
13728000,-0.09067452,0.00916516,-0.048786387,1,0
13732000,-0.090927,0.008689119,-0.04877194,1,0
13736000,-0.0907985,0.008241959,-0.048826054,1,0
13740000,-0.09045919,0.012529282,-0.04882049,1,0
13744000,-0.09029894,0.01204378,-0.04881183,1,0
13748000,-0.09029609,0.011503372,-0.048796024,1,0
13752000,-0.090370476,0.010923382,-0.048851192,1,0
13756000,-0.09051248,0.010347622,-0.048848033,1,0
13760000,-0.09056269,0.009832794,-0.048866548,1,0
13764000,-0.09052985,0.014104644,-0.04883415,1,0
13768000,-0.090571776,0.013680946,-0.048823796,1,0
13772000,-0.09072794,0.013245128,-0.048748355,1,0
13776000,-0.09093518,0.012821969,-0.048720635,1,0
13780000,-0.09107603,0.012390574,-0.048731398,1,0
13784000,-0.091009974,0.011963958,-0.048820727,1,0
13788000,-0.09066423,0.016230643,-0.048830945,1,0
13792000,-0.09022209,0.015673343,-0.04890482,1,0
13796000,-0.08997371,0.015153965,-0.048998345,1,0
13800000,-0.08989385,0.014715022,-0.04909461,1,0
13804000,-0.08993998,0.014263444,-0.04907613,1,0
13808000,-0.090212196,0.013716657,-0.049022853,1,0
13812000,-0.090277284,0.017961212,-0.04902713,1,0
13816000,-0.0911011,0.017312983,-0.04889687,1,0
13820000,-0.09124409,0.016761998,-0.048884243,1,0
13824000,-0.09102157,0.016214436,-0.048960533,1,0
13828000,-0.090618476,0.015757484,-0.049012676,1,0
13832000,-0.090430364,0.01540699,-0.0491101,1,0
13836000,-0.09063098,0.019763215,-0.049158536,1,0
13840000,-0.09090345,0.019269766,-0.049217362,1,0
13844000,-0.091038235,0.018738747,-0.04916297,1,0
13848000,-0.091068454,0.018175585,-0.04912307,1,0
13852000,-0.09097802,0.017571403,-0.049066316,1,0
13856000,-0.090867795,0.016976168,-0.049029052,1,0
13860000,-0.090918876,0.021228364,-0.049033314,1,0
13864000,-0.09090531,0.020689568,-0.049052924,1,0
13868000,-0.09089891,0.02017545,-0.049168654,1,0
13872000,-0.090902746,0.019640964,-0.049304202,1,0
13876000,-0.090899624,0.019153433,-0.049356088,1,0
13880000,-0.09080157,0.018697418,-0.04944417,1,0
13884000,-0.09070076,0.022983922,-0.04948567,1,0
13888000,-0.09072025,0.022474438,-0.04956469,1,0
13892000,-0.09080556,0.02194229,-0.049579427,1,0
13896000,-0.09081398,0.021438822,-0.049604915,1,0
13900000,-0.09087233,0.021006597,-0.049589027,1,0
13904000,-0.09119977,0.020582981,-0.049616538,1,0
13908000,-0.091544084,0.024893297,-0.04956878,1,0
13912000,-0.091621704,0.024374051,-0.049537905,1,0
13916000,-0.09150144,0.023818335,-0.049474154,1,0
13920000,-0.09133828,0.023272917,-0.04949312,1,0
13924000,-0.09138765,0.022782026,-0.04949745,1,0
13928000,-0.091434956,0.022397056,-0.049584627,1,0
13932000,-0.091413885,0.026779769,-0.049629673,1,0
13936000,-0.091449045,0.026293147,-0.04967939,1,0
13940000,-0.09098581,0.025833983,-0.049724907,1,0
13944000,-0.090985194,0.025304262,-0.04980004,1,0
13948000,-0.091038555,0.024707684,-0.049849015,1,0
13952000,-0.09135402,0.02409755,-0.049904343,1,0
13960000,-0.091877125,0.027779924,-0.049705986,1,0
13964000,-0.09219398,0.027234184,-0.049682736,1,0
13968000,-0.09252266,0.026734121,-0.049796265,1,0
13972000,-0.092637755,0.026271844,-0.049893342,1,0
13976000,-0.0925124,0.025802704,-0.050015133,1,0
13980000,-0.0923457,0.03007463,-0.050045185,1,0
13984000,-0.0922954,0.029519767,-0.05015234,1,0
13988000,-0.09233181,0.029021017,-0.050223384,1,0
13992000,-0.092464395,0.028570494,-0.050275583,1,0
13996000,-0.092520185,0.028079929,-0.050264128,1,0
14000000,-0.09238306,0.027530069,-0.0502782,1,0
14004000,-0.092272595,0.027533552,-0.05020667,1,0
14008000,-0.0922193,0.026950791,-0.050198622,1,0
14012000,-0.092147164,0.026455551,-0.050182648,1,0
14016000,-0.09216927,0.026020143,-0.05022987,1,0
14020000,-0.09222407,0.02551312,-0.050234325,1,0
14024000,-0.09250796,0.025070893,-0.05032953,1,0
14028000,-0.092781805,0.024551613,-0.050406747,1,0
14032000,-0.09303658,0.024021566,-0.0505088,1,0
14036000,-0.093336366,0.02344049,-0.05049593,1,0
14040000,-0.093446545,0.022832897,-0.05048883,1,0
14044000,-0.09333019,0.022352602,-0.050410885,1,0
14048000,-0.093293175,0.02196786,-0.05043441,1,0
14052000,-0.09323657,0.021545367,-0.050499313,1,0
14056000,-0.093033545,0.021138785,-0.050589018,1,0
14060000,-0.09289419,0.020754173,-0.05060043,1,0
14068000,-0.09325453,0.01985564,-0.05071929,1,0
14072000,-0.09333279,0.019409204,-0.050773427,1,0
14076000,-0.09328529,0.019010993,-0.050731435,1,0
14080000,-0.09333582,0.018641166,-0.05076868,1,0
14084000,-0.093460314,0.018218068,-0.05080712,1,0
14088000,-0.09336611,0.017755,-0.050868858,1,0
14092000,-0.093412265,0.017290274,-0.050873417,1,0
14096000,-0.09312979,0.016846187,-0.050923225,1,0
14100000,-0.23954372,0.023214102,0.009706812,1,0
14108000,-0.23977126,0.022474702,0.009820879,1,0
14112000,-0.23970948,0.021986758,0.009935261,1,0
14116000,-0.23861718,0.021504777,0.010057401,1,0
14120000,-0.2358754,0.021067036,0.010143153,1,0
14124000,-0.22885507,0.02067753,0.010172056,1,0
14128000,-0.2242893,0.02032598,0.010173393,1,0
14132000,-0.21976498,0.019958591,0.01017428,1,0
14136000,-0.21567456,0.019531272,0.01017741,1,0
14140000,-0.2121034,0.01906736,0.010195459,1,0
14148000,-0.20678042,0.018191604,0.010256016,1,0
14152000,-0.20344329,0.01775331,0.010261277,1,0
14156000,-0.20062183,0.01737389,0.010291408,1,0
14160000,-0.19819048,0.017024346,0.01036161,1,0
14164000,-0.19571519,0.016588982,0.010417619,1,0
14168000,-0.19306253,0.016112465,0.010439658,1,0
14172000,-0.19167124,0.015651057,0.010403061,1,0
14176000,-0.18915342,0.01516835,0.010324956,1,0
14180000,-0.1871109,0.014712706,0.010268655,1,0
14184000,-0.18510321,0.014273789,0.010212926,1,0
14188000,-0.18279819,0.0138334,0.010140194,1,0
14192000,-0.18048367,0.013407959,0.010124836,1,0
14196000,-0.17994362,0.013002232,0.010259674,1,0
14200000,-0.17840943,0.012572926,0.010300385,1,0
14204000,-0.17677261,0.01219473,0.010326235,1,0
14208000,-0.1750255,0.011815164,0.010303849,1,0
14212000,-0.17429277,0.011345958,0.010246449,1,0
14216000,-0.17183806,0.010925602,0.010262353,1,0
14220000,-0.17557001,0.010565845,0.010260428,1,0
14228000,-0.17256331,0.009894416,0.010098879,1,0
14236000,-0.16976075,0.009133974,0.010159451,1,0
14240000,-0.16836974,0.008725602,0.010170712,1,0
14244000,-0.16797629,0.008286279,0.0101436,1,0
14248000,-0.16645376,0.007893158,0.010083186,1,0
14252000,-0.16562581,0.00748915,0.010002876,1,0
14256000,-0.16428654,0.007245507,0.009944634,1,0
14260000,-0.16332299,0.006843776,0.009814826,1,0
14264000,-0.16214547,0.006443054,0.009694826,1,0
14268000,-0.16226196,0.00603886,0.009607832,1,0
14272000,-0.16084504,0.005750246,0.009698908,1,0
14276000,-0.15970585,0.00545704,0.009683328,1,0
14280000,-0.15846917,0.005160047,0.009613318,1,0
14284000,-0.15735,0.004869958,0.00950089,1,0
14292000,-0.15656738,0.004256936,0.009331944,1,0
14296000,-0.15571946,0.003875917,0.00931211,1,0
14300000,-0.15497907,0.003473954,0.009261302,1,0
14304000,-0.15437981,0.003170967,0.009164298,1,0
14308000,-0.15351003,0.002956234,0.009028788,1,0
14312000,-0.15244412,0.002726041,0.008943845,1,0
14316000,-0.1561546,0.002480311,0.008907217,1,0
14320000,-0.15528879,0.002219467,0.008880053,1,0
14324000,-0.15435113,0.00191447,0.008829663,1,0
14328000,-0.15355252,0.001549514,0.008743524,1,0
14332000,-0.15273042,0.001166979,0.008610197,1,0
14336000,-0.15175232,0.000865929,0.008467848,1,0
14340000,-0.1514769,0.000653511,0.008373743,1,0
14344000,-0.1509572,0.000488525,0.008284515,1,0
14348000,-0.15040448,0.000342522,0.008169401,1,0
14352000,-0.14964332,0.000165481,0.008063102,1,0
14356000,-0.14877269,-7.68E-05,0.007981844,1,0
14364000,-0.14789173,-0.000589652,0.007848762,1,0
14368000,-0.14730407,-0.000860957,0.007790536,1,0
14372000,-0.14672527,-0.001120001,0.007760921,1,0
14380000,-0.14557448,-0.001607919,0.007690269,1,0
14388000,-0.14809766,-0.002053583,0.007439633,1,0
14396000,-0.14674999,-0.002391575,0.007220431,1,0
14400000,-0.14632714,-0.002698036,0.00700345,1,0
14404000,-0.14616846,-0.00293364,0.006837951,1,0
14408000,-0.14577319,-0.003094779,0.00676149,1,0
14416000,-0.14446227,-0.003451003,0.006623006,1,0
14420000,-0.14382687,-0.003623469,0.006560682,1,0
14424000,-0.1432894,-0.00379489,0.00651953,1,0
14428000,-0.14248282,-0.003997024,0.006410218,1,0
14436000,-0.14173347,-0.004360205,0.006217333,1,0
14440000,-0.14100595,-0.004635824,0.006068299,1,0
14444000,-0.14019383,-0.004825048,0.005955796,1,0
14448000,-0.13976923,-0.004910866,0.005890858,1,0
14452000,-0.13932672,-0.005073171,0.005787361,1,0
14456000,-0.13880941,-0.005208042,0.005676726,1,0
14460000,-0.13831872,-0.005331148,0.005568474,1,0
14464000,-0.13790473,-0.005511751,0.005443061,1,0
14468000,-0.13759312,-0.005736856,0.005294024,1,0
14472000,-0.13728121,-0.005919432,0.005152066,1,0
14476000,-0.13689971,-0.006057216,0.005058173,1,0
14480000,-0.13644306,-0.006219514,0.005032872,1,0
14484000,-0.13955453,-0.006370208,0.005018755,1,0
14488000,-0.13878605,-0.006465385,0.004944694,1,0
14492000,-0.13804767,-0.006583948,0.004829699,1,0
14496000,-0.13748725,-0.006779564,0.004726068,1,0
14500000,-0.13718244,-0.00696739,0.004621819,1,0
14504000,-0.1369534,-0.007123518,0.004541325,1,0
14508000,-0.13655783,-0.00729289,0.004455102,1,0
14512000,-0.13620323,-0.00745883,0.004311682,1,0
14516000,-0.13572322,-0.007639748,0.004158276,1,0
14520000,-0.13498089,-0.007804632,0.004049532,1,0
14524000,-0.13450503,-0.007947233,0.003974801,1,0
14528000,-0.13397847,-0.008017943,0.003955243,1,0
14532000,-0.13337243,-0.008163939,0.003985583,1,0
14536000,-0.1329853,-0.008392699,0.004000153,1,0
14540000,-0.13225798,-0.008538715,0.003894715,1,0
14544000,-0.1319833,-0.008627629,0.003762578,1,0
14548000,-0.13129066,-0.008660263,0.003590619,1,0
14552000,-0.13066536,-0.008788032,0.003418058,1,0
14556000,-0.13002655,-0.008986756,0.003241773,1,0
14560000,-0.12980437,-0.009127703,0.003098571,1,0
14564000,-0.1296093,-0.009237088,0.003046437,1,0
14568000,-0.12945685,-0.009387268,0.0030524,1,0
14572000,-0.12875609,-0.009536409,0.002947644,1,0
14576000,-0.12866,-0.009772593,0.002954616,1,0
14580000,-0.13166168,-0.009905078,0.002834701,1,0
14584000,-0.13126911,-0.009997495,0.002676666,1,0
14588000,-0.13088939,-0.010107948,0.002530796,1,0
14592000,-0.13056673,-0.010215888,0.002419129,1,0
14596000,-0.13022733,-0.01033003,0.002300938,1,0
14604000,-0.12890677,-0.010533515,0.00216313,1,0
14608000,-0.12848721,-0.010627776,0.002133266,1,0
14612000,-0.12816513,-0.010728769,0.002066561,1,0
14620000,-0.12737772,-0.010961517,0.001856019,1,0
14624000,-0.12737297,-0.011134025,0.001758821,1,0
14628000,-0.12629928,-0.011314151,0.001673934,1,0
14632000,-0.12571412,-0.011437999,0.001578446,1,0
14636000,-0.12549451,-0.011553269,0.001471123,1,0
14640000,-0.12556948,-0.011679078,0.00136142,1,0
14644000,-0.1255427,-0.011793547,0.001294966,1,0
14648000,-0.12535767,-0.011887347,0.001295021,1,0
14652000,-0.12825006,-0.011957115,0.001314389,1,0
14656000,-0.1277399,-0.012026495,0.001275564,1,0
14664000,-0.12702423,-0.012211276,0.001057504,1,0
14668000,-0.12643111,-0.012330234,0.000965342,1,0
14672000,-0.12659857,-0.012526731,0.000868012,1,0
14676000,-0.12568559,-0.012652143,0.000826788,1,0
14680000,-0.12533078,-0.012697365,0.00082853,1,0
14684000,-0.12504506,-0.012731163,0.000795265,1,0
14688000,-0.12470128,-0.0128834,0.000703589,1,0
14692000,-0.12420097,-0.013100771,0.000582679,1,0
14696000,-0.12354447,-0.013275084,0.000468794,1,0
14700000,-0.12235494,-0.013370648,0.000402495,1,0
14704000,-0.12195586,-0.013405965,0.000373696,1,0
14708000,-0.12170388,-0.013484509,0.000341472,1,0
14712000,-0.12163011,-0.013661016,0.00029914,1,0
14716000,-0.121626176,-0.013863815,0.000223611,1,0
14720000,-0.12151893,-0.014042586,0.000102853,1,0
14724000,-0.120574504,-0.014190038,-1.19E-06,1,0
14728000,-0.12021996,-0.014302321,-8.36E-05,1,0
14732000,-0.119795024,-0.014368918,-0.000193696,1,0
14736000,-0.11928022,-0.014394539,-0.000309923,1,0
14740000,-0.118767895,-0.014383229,-0.000405795,1,0
14744000,-0.11822461,-0.014411817,-0.000522401,1,0
14748000,-0.12061398,-0.014557323,-0.000644443,1,0
14752000,-0.12014421,-0.014735001,-0.000700521,1,0
14756000,-0.120002836,-0.01486335,-0.000701191,1,0
14760000,-0.12024617,-0.014965341,-0.000676667,1,0
14764000,-0.12053036,-0.015026592,-0.000679098,1,0
14768000,-0.12051407,-0.015045196,-0.000751883,1,0
14772000,-0.11950053,-0.015065317,-0.000833994,1,0
14776000,-0.119352624,-0.015087873,-0.000895465,1,0
14780000,-0.11905855,-0.015133459,-0.00097346,1,0
14784000,-0.118520506,-0.015229089,-0.001063023,1,0
14788000,-0.118073516,-0.015347719,-0.001122846,1,0
14792000,-0.11767411,-0.015457919,-0.001159406,1,0
14796000,-0.11638592,-0.015546331,-0.00124891,1,0
14800000,-0.11614788,-0.015613517,-0.001335442,1,0
14804000,-0.11592532,-0.015663134,-0.001393503,1,0
14808000,-0.11571182,-0.015752453,-0.001441455,1,0
14812000,-0.115585685,-0.015877564,-0.00150335,1,0
14816000,-0.11552325,-0.015961386,-0.001551724,1,0
14820000,-0.11451499,-0.021022603,-0.001814329,0.3956679,0
14824000,-0.11420351,-0.021092633,-0.001872075,0.3956679,0
14828000,-0.11396633,-0.02110242,-0.001907466,0.3956679,0
14832000,-0.11401414,-0.02112379,-0.001937048,0.3956679,0
14836000,-0.11408147,-0.02116012,-0.001997459,0.3956679,0
14844000,-0.11571579,-0.026335368,-0.002367045,0.41817087,0
14848000,-0.11434476,-0.026546352,-0.002434572,0.41817087,0
14852000,-0.11287088,-0.02678574,-0.002528333,0.41817087,0
14860000,-0.11000033,-0.027196763,-0.002848234,0.41817087,0
14864000,-0.10815908,-0.027337726,-0.003065873,0.41817087,0
14868000,-0.10504101,-0.032460324,-0.00355166,0.4394011,0
14872000,-0.10314009,-0.03267632,-0.003771812,0.4394011,0
14876000,-0.10141427,-0.03296267,-0.00395142,0.4394011,0
14880000,-0.09976551,-0.033296607,-0.004116427,0.4394011,0
14884000,-0.09810946,-0.03364404,-0.004326108,0.4394011,0
14892000,-0.09344126,-0.039211873,-0.005030501,0.45947355,0
14896000,-0.09160515,-0.03947854,-0.005246275,0.45947355,0
14900000,-0.08986935,-0.039737694,-0.005462577,0.45947355,0
14904000,-0.08822574,-0.040011935,-0.005740866,0.45947355,0
14908000,-0.08671919,-0.04027722,-0.005998188,0.45947355,0
14912000,-0.08531252,-0.040551715,-0.006219011,0.45947355,0
14916000,-0.08254902,-0.04585094,-0.006783099,0.4788231,0
14920000,-0.08106755,-0.04623445,-0.007048041,0.4788231,0
14924000,-0.07982305,-0.04660049,-0.007278889,0.4788231,0
14928000,-0.0787998,-0.04688362,-0.007512556,0.4788231,0
14932000,-0.07781042,-0.04709403,-0.007772628,0.4788231,0
14936000,-0.07683962,-0.047303684,-0.008045334,0.4788231,0
14940000,-0.07834715,-0.052525803,-0.008661135,0.49692696,0
14944000,-0.07765469,-0.052824154,-0.008919977,0.49692696,0
14948000,-0.07711703,-0.053111866,-0.009176543,0.49692696,0
14956000,-0.07560801,-0.05351522,-0.009587063,0.49692696,0
14960000,-0.07443871,-0.05373592,-0.009764371,0.49692696,0
14964000,-0.071847394,-0.058960658,-0.010334719,0.51375175,0
14968000,-0.070985466,-0.05924005,-0.010513078,0.51375175,0
14972000,-0.070241295,-0.059490398,-0.010710284,0.51375175,0
14976000,-0.070156254,-0.059743837,-0.010894664,0.51375175,0
14980000,-0.0694634,-0.059846558,-0.011199683,0.51375175,0
14984000,-0.06839844,-0.059940927,-0.011505649,0.51375175,0
14988000,-0.06588292,-0.065080754,-0.012104513,0.52929264,0
14992000,-0.065250516,-0.06527889,-0.012222326,0.52929264,0
14996000,-0.064793624,-0.06538017,-0.012526816,0.52929264,0
15000000,-0.06444108,-0.06549306,-0.012671468,0.52929264,0
15004000,-0.06409174,-0.06561878,-0.012836541,0.52929264,0
15012000,-0.062021926,-0.07081182,-0.01371069,0.54474324,0
15016000,-0.061691623,-0.07094605,-0.013942963,0.54474324,0
15020000,-0.061184395,-0.07106741,-0.014185593,0.54474324,0
15028000,-0.060169436,-0.07119475,-0.014604405,0.54474324,0
15032000,-0.059972733,-0.07113586,-0.014732505,0.54474324,0
15036000,-0.062001076,-0.076016605,-0.015331505,0.5588677,0
15040000,-0.061761968,-0.0759922,-0.015507214,0.5588677,0
15044000,-0.061566416,-0.07600351,-0.015712442,0.5588677,0
15048000,-0.06139431,-0.07598884,-0.0158799,0.5588677,0
15052000,-0.061012328,-0.075920254,-0.016041087,0.5588677,0
15056000,-0.060372926,-0.075795434,-0.016211424,0.5588677,0
15060000,-0.058489382,-0.080613464,-0.016812075,0.5717013,0
15064000,-0.058612388,-0.080464154,-0.016906941,0.5717013,0
15068000,-0.05797398,-0.080481105,-0.017093185,0.5717013,0
15072000,-0.05873911,-0.080342874,-0.017149197,0.5717013,0
15076000,-0.058247056,-0.08028252,-0.017241787,0.5717013,0
15080000,-0.05771349,-0.08016211,-0.01737548,0.5717013,0
15084000,-0.055887405,-0.08498484,-0.0180218,0.58329517,0
15088000,-0.05588572,-0.084830746,-0.018103765,0.58329517,0
15092000,-0.055934023,-0.084613666,-0.018170059,0.58329517,0
15100000,-0.05525655,-0.084227696,-0.018647619,0.58329517,0
15104000,-0.056035742,-0.08394949,-0.018726787,0.58329517,0
15108000,-0.054362275,-0.08874483,-0.019441603,0.59491616,0
15112000,-0.054040365,-0.08853161,-0.019545915,0.59491616,0
15116000,-0.05378125,-0.08829562,-0.019582,0.59491616,0
15120000,-0.053705025,-0.08804612,-0.01963365,0.59491616,0
15124000,-0.053667627,-0.087768614,-0.019741222,0.59491616,0
15128000,-0.05342538,-0.087484896,-0.019856935,0.59491616,0
15132000,-0.051643413,-0.09218321,-0.020515526,0.6053492,0
15136000,-0.05164948,-0.09185731,-0.02054224,0.6053492,0
15140000,-0.051815316,-0.09149857,-0.020526288,0.6053492,0
15144000,-0.051824205,-0.0911791,-0.020550365,0.6053492,0
15148000,-0.051698014,-0.09089054,-0.020650133,0.6053492,0
15156000,-0.05343057,-0.095319405,-0.021510921,0.61466,0
15160000,-0.05391943,-0.09483729,-0.021576682,0.61466,0
15164000,-0.053991057,-0.094441965,-0.021619141,0.61466,0
15168000,-0.05419348,-0.094093286,-0.021652546,0.61466,0
15172000,-0.054330356,-0.09378253,-0.021664249,0.61466,0
15176000,-0.054472283,-0.09345642,-0.021666469,0.61466,0
15180000,-0.053239875,-0.09809624,-0.02231408,0.6229423,0
15184000,-0.05329178,-0.09771885,-0.022344839,0.6229423,0
15188000,-0.053175695,-0.0973326,-0.02238984,0.6229423,0
15196000,-0.05205691,-0.096470855,-0.02258325,0.6229423,0
15200000,-0.051506232,-0.09596758,-0.022834035,0.6229423,0
15204000,-0.050208244,-0.10059636,-0.023472272,0.63110965,0
15212000,-0.050450813,-0.09984289,-0.023489397,0.63110965,0
15216000,-0.05045617,-0.09939465,-0.02355564,0.63110965,0
15220000,-0.050017048,-0.09901863,-0.023657145,0.63110965,0
15224000,-0.050470434,-0.098452955,-0.023701377,0.63110965,0
15228000,-0.049114533,-0.103001095,-0.0244498,0.63830864,0
15232000,-0.048938613,-0.10250591,-0.024491413,0.63830864,0
15236000,-0.048526086,-0.102102324,-0.024583813,0.63830864,0
15240000,-0.048966292,-0.10157341,-0.024525046,0.63830864,0
15244000,-0.049067527,-0.1011486,-0.024569431,0.63830864,0
15248000,-0.048964083,-0.10074119,-0.024603562,0.63830864,0
15256000,-0.047595486,-0.104836196,-0.025329571,0.64458644,0
15260000,-0.047603212,-0.10435567,-0.025296114,0.64458644,0
15268000,-0.047154166,-0.10349586,-0.025347408,0.64458644,0
15272000,-0.04781887,-0.103037596,-0.025323171,0.64458644,0
15280000,-0.050155085,-0.10662809,-0.026094325,0.65004873,0
15284000,-0.050716765,-0.10602645,-0.026100744,0.65004873,0
15292000,-0.050271478,-0.10505034,-0.026219584,0.65004873,0
15296000,-0.050444018,-0.104465246,-0.026389679,0.65004873,0
15300000,-0.049066752,-0.10321282,-0.026245937,0.65532166,0
15304000,-0.048717514,-0.1027102,-0.026185922,0.65532166,0
15308000,-0.04860036,-0.102153264,-0.026149064,0.65532166,0
15312000,-0.048912805,-0.10158911,-0.026169397,0.65532166,0
15316000,-0.049429122,-0.10105931,-0.026205868,0.65532166,0
15320000,-0.049656853,-0.10055646,-0.02625977,0.65532166,0
15324000,-0.048282936,-0.09935516,-0.026256043,0.65984523,0
15328000,-0.047883756,-0.09880044,-0.026343925,0.65984523,0
15332000,-0.04750507,-0.09824774,-0.026351977,0.65984523,0
15336000,-0.0474996,-0.09778643,-0.026297143,0.65984523,0
15340000,-0.047808643,-0.09737044,-0.026278066,0.65984523,0
15344000,-0.04807333,-0.09694846,-0.026301641,0.65984523,0
15348000,-0.046601932,-0.09586016,-0.02624475,0.6636867,0
15352000,-0.046867315,-0.095454246,-0.026326127,0.6636867,0
15356000,-0.046576716,-0.09496686,-0.02636061,0.6636867,0
15360000,-0.04625858,-0.09447475,-0.026369654,0.6636867,0
15364000,-0.0462389,-0.094033144,-0.026414976,0.6636867,0
15368000,-0.046433732,-0.09360851,-0.026540082,0.6636867,0
15372000,-0.045531385,-0.09261417,-0.026535321,0.66689503,0
15376000,-0.045629635,-0.09211315,-0.026487391,0.66689503,0
15380000,-0.04552884,-0.091590025,-0.026439043,0.66689503,0
15384000,-0.045395426,-0.09109938,-0.026461925,0.66689503,0
15388000,-0.045442346,-0.090703316,-0.026456889,0.66689503,0
15392000,-0.045736276,-0.09037446,-0.026402263,0.66689503,0
15396000,-0.048703596,-0.08949479,-0.026458237,0.6695441,0
15404000,-0.048609335,-0.08871191,-0.026513599,0.6695441,0
15408000,-0.04853129,-0.08849193,-0.026586223,0.6695441,0
15412000,-0.048564993,-0.088173896,-0.026616102,0.6695441,0
15416000,-0.048521668,-0.08776668,-0.026669584,0.6695441,0
15420000,-0.047192503,-0.0869039,-0.026690684,0.67212796,0
15424000,-0.04722912,-0.08641506,-0.026746761,0.67212796,0
15428000,-0.047444392,-0.08596772,-0.026742049,0.67212796,0
15432000,-0.047618642,-0.08561413,-0.026726123,0.67212796,0
15436000,-0.047661446,-0.085350335,-0.026738511,0.67212796,0
15440000,-0.04767185,-0.085099384,-0.026795119,0.67212796,0
15444000,-0.046459697,-0.08448189,-0.026845925,0.67420775,0
15448000,-0.04626189,-0.08416136,-0.026933022,0.67420775,0
15452000,-0.04611344,-0.08383481,-0.026995532,0.67420775,0
15456000,-0.046252694,-0.08353275,-0.027049312,0.67420775,0
15460000,-0.04627305,-0.08325479,-0.027058247,0.67420775,0
15464000,-0.046103787,-0.08301653,-0.027051458,0.67420775,0
15468000,-0.044736743,-0.08238491,-0.027021628,0.6758348,0
15476000,-0.04424657,-0.08188565,-0.027120385,0.6758348,0
15484000,-0.04435542,-0.081317164,-0.02715721,0.6758348,0
15488000,-0.04445222,-0.08102691,-0.027166095,0.6758348,0
15492000,-0.04343926,-0.08049111,-0.02715705,0.6770593,0
15496000,-0.043706752,-0.08025418,-0.027162008,0.6770593,0
15500000,-0.043964032,-0.08006237,-0.027151119,0.6770593,0
15504000,-0.044302635,-0.079866454,-0.027140228,0.6770593,0
15508000,-0.044506907,-0.07959814,-0.027193548,0.6770593,0
15512000,-0.044608634,-0.07934167,-0.027330408,0.6770593,0
15516000,-0.043433998,-0.07887496,-0.027448364,0.67786664,0
15520000,-0.043398224,-0.07862642,-0.027561665,0.67786664,0
15524000,-0.04330091,-0.078364454,-0.027616141,0.67786664,0
15528000,-0.043288164,-0.0781094,-0.027615879,0.67786664,0
15532000,-0.043195195,-0.077877216,-0.027608063,0.67786664,0
15540000,-0.04563029,-0.077363275,-0.02764958,0.6783205,0
15548000,-0.04615815,-0.07693578,-0.027745444,0.6783205,0
15552000,-0.04643197,-0.076656416,-0.027827824,0.6783205,0
15556000,-0.04640909,-0.076436296,-0.027924094,0.6783205,0
15560000,-0.046264634,-0.07627055,-0.027970076,0.6783205,0
15564000,-0.04483389,-0.075924486,-0.02795525,0.6784607,0
15572000,-0.045170266,-0.07557578,-0.028030459,0.6784607,0
15576000,-0.045189906,-0.07531189,-0.028051876,0.6784607,0
15580000,-0.045052055,-0.07503876,-0.028060716,0.6784607,0
15584000,-0.04501007,-0.07483792,-0.028120184,0.6784607,0
15588000,-0.04362244,-0.07455419,-0.028186385,0.67831355,0
15596000,-0.043808796,-0.074243195,-0.02831488,0.67831355,0
15600000,-0.043809995,-0.07403466,-0.02839292,0.67831355,0
15604000,-0.043660216,-0.07389142,-0.028411813,0.67831355,0
15608000,-0.043440267,-0.07374994,-0.028399412,0.67831355,0
15612000,-0.042008936,-0.07346322,-0.028341502,0.6780038,0
15616000,-0.042279128,-0.07333571,-0.02831503,0.6780038,0
15620000,-0.042441446,-0.073211774,-0.028352296,0.6780038,0
15628000,-0.04233663,-0.07291901,-0.028424464,0.6780038,0
15632000,-0.042602107,-0.072711304,-0.028407158,0.6780038,0
15636000,-0.041316394,-0.07229653,-0.028397717,0.67744476,0
15640000,-0.04153459,-0.072028294,-0.028481293,0.67744476,0
15644000,-0.041659303,-0.07182875,-0.028594036,0.67744476,0
15648000,-0.04174701,-0.071723975,-0.028650641,0.67744476,0
15652000,-0.04169306,-0.07156523,-0.028656524,0.67744476,0
15656000,-0.04201681,-0.0715632,-0.028661855,0.67744476,0
15660000,-0.040509734,-0.07133966,-0.028650913,0.67668474,0
15664000,-0.04048369,-0.071235694,-0.028646791,0.67668474,0
15668000,-0.04067949,-0.071079165,-0.028606838,0.67668474,0
15672000,-0.04106575,-0.07090692,-0.028578643,0.67668474,0
15676000,-0.041356947,-0.070786744,-0.028593555,0.67668474,0
15680000,-0.041423474,-0.070662096,-0.028625948,0.67668474,0
15684000,-0.043885432,-0.0703838,-0.028644927,0.6757369,0
15692000,-0.04405823,-0.070186734,-0.02877995,0.6757369,0
15696000,-0.044027336,-0.07001496,-0.028810842,0.6757369,0
15700000,-0.043652445,-0.06980283,-0.028783377,0.6757369,0
15704000,-0.04326404,-0.06965004,-0.028787725,0.6757369,0
15708000,-0.04172867,-0.0694249,-0.028772473,0.67472655,0
15712000,-0.04203093,-0.06927957,-0.028724946,0.67472655,0
15716000,-0.042313777,-0.06916788,-0.028678693,0.67472655,0
15720000,-0.04237348,-0.069067575,-0.028637482,0.67472655,0
15724000,-0.042382263,-0.06895679,-0.028577909,0.67472655,0
15728000,-0.04245826,-0.0688482,-0.028533429,0.67472655,0
15732000,-0.040940084,-0.068634056,-0.028497819,0.6735592,0
15740000,-0.040870257,-0.06833881,-0.028494123,0.6735592,0
15744000,-0.041231334,-0.06820653,-0.028461847,0.6735592,0
15748000,-0.04129533,-0.06809672,-0.028469078,0.6735592,0
15752000,-0.0412447,-0.068002164,-0.02851786,0.6735592,0
15756000,-0.039638706,-0.0678227,-0.028572038,0.6722664,0
15760000,-0.03962939,-0.06769177,-0.028624093,0.6722664,0
15764000,-0.03973352,-0.06754011,-0.028614175,0.6722664,0
15768000,-0.039832693,-0.06741184,-0.028558489,0.6722664,0
15772000,-0.03990993,-0.06725297,-0.02850735,0.6722664,0
15780000,-0.0385694,-0.0668401,-0.028452342,0.67087084,0
15784000,-0.039001107,-0.066684574,-0.02847418,0.67087084,0
15788000,-0.03909804,-0.06659819,-0.028531186,0.67087084,0
15792000,-0.039077505,-0.06650377,-0.02856993,0.67087084,0
15796000,-0.0391544,-0.06633985,-0.028544867,0.67087084,0
15800000,-0.039149314,-0.06616046,-0.028474957,0.67087084,0
15804000,-0.03747449,-0.065965444,-0.028422084,0.6694141,0
15808000,-0.037575237,-0.0658977,-0.028381163,0.6694141,0
15812000,-0.03805354,-0.06587187,-0.028333107,0.6694141,0
15816000,-0.0386715,-0.06581748,-0.028295048,0.6694141,0
15820000,-0.038867325,-0.06572663,-0.028269432,0.6694141,0
15824000,-0.03866321,-0.0655924,-0.028238732,0.6694141,0
15828000,-0.036917143,-0.065354764,-0.028161077,0.6678816,0
15836000,-0.03689646,-0.06502581,-0.028052885,0.6678816,0
15840000,-0.037326902,-0.06488453,-0.028048411,0.6678816,0
15844000,-0.037330423,-0.064756885,-0.028036516,0.6678816,0
15848000,-0.037590645,-0.06461711,-0.028071873,0.6678816,0
15852000,-0.035705756,-0.064410344,-0.028051687,0.66628134,0
15860000,-0.035689715,-0.06416667,-0.028012577,0.66628134,0
15864000,-0.03602829,-0.06406871,-0.028009448,0.66628134,0
15868000,-0.036005702,-0.06392923,-0.02805822,0.66628134,0
15872000,-0.035823442,-0.063777536,-0.028074034,0.66628134,0
15876000,-0.038201302,-0.063634776,-0.028016198,0.664605,0
15880000,-0.03843404,-0.063565716,-0.027924642,0.664605,0
15884000,-0.038915478,-0.063470855,-0.02783975,0.664605,0
15888000,-0.039353997,-0.06337841,-0.027750216,0.664605,0
15892000,-0.039536912,-0.06327484,-0.027670847,0.664605,0
15896000,-0.039680388,-0.06311199,-0.027680336,0.664605,0
15900000,-0.038327765,-0.06288583,-0.027635805,0.66300166,0
15904000,-0.038543023,-0.062707,-0.027586889,0.66300166,0
15912000,-0.038284246,-0.062437683,-0.02759171,0.66300166,0
15916000,-0.038203187,-0.062322818,-0.027589682,0.66300166,0
15920000,-0.03821275,-0.06223704,-0.027571995,0.66300166,0
15924000,-0.036629803,-0.062052555,-0.027545393,0.6613504,0
15928000,-0.0365839,-0.061899476,-0.02750257,0.6613504,0
