timestamp,gyro_rad[0],gyro_rad[1],gyro_rad[2],accelerometer_m_s2[0],accelerometer_m_s2[1],accelerometer_m_s2[2]
11000000,-0.001135136,-0.004566953,0.000300673,-0.23818748,0.23783849,-9.947128
11004000,-0.000384431,-0.009483173,-0.002630537,-0.15203708,0.25066122,-9.929984
11012000,-0.001238002,-0.003000254,-0.000801176,-0.22550128,0.19073442,-9.920653
11016000,-0.00591291,-0.006549244,-0.001573959,-0.21520226,0.11810619,-9.973098
11020000,-0.001459016,-0.00779111,-0.001759108,-0.11420017,0.17842327,-10.040336
11024000,0.000510767,-0.013022008,-0.000554666,-0.09576932,0.26882166,-10.054569
11028000,-0.002955511,-0.014814936,-0.001226933,-0.2527488,0.26193818,-9.957731
11036000,-0.002213295,-0.005634976,-0.002837898,-0.16036868,0.18437153,-9.889233
11044000,-0.004890986,-0.003681022,0.001513846,-0.18103492,0.15624663,-9.824737
11048000,-0.002425413,-0.002112707,-0.005094866,-0.15339479,0.1526797,-9.913535
11056000,-0.004429738,-0.004455491,-0.001399885,-0.17436092,0.12870392,-9.99265
11060000,0.000119439,-0.005516361,-0.008110869,-0.14210756,0.13720791,-9.99176
11064000,0.004564626,-0.010673136,-0.006242054,-0.09104825,0.17746325,-9.869613
11072000,0.003578194,0.000853324,-0.002691359,-0.21039082,0.12194809,-9.972228
11076000,0.004735581,0.007662182,0.002101933,-0.15987624,0.17052758,-9.987218
11080000,-0.002854864,-0.000999809,0.001458272,-0.11873767,0.23529871,-9.893602
11084000,-0.004469334,-0.00562147,-0.001259698,-0.21660246,0.23934779,-9.907462
11088000,-0.004277487,-0.001454299,-0.002182951,-0.27269545,0.24258575,-9.973626
11092000,-0.008392197,-0.008405999,-0.003455104,-0.15755837,0.22647688,-9.929718
11100000,-0.002654737,-0.005313734,-0.00472541,-0.07122287,0.22979613,-9.969583
11104000,-0.00136101,-0.012002231,-0.000163828,-0.16407408,0.12927704,-9.957955
11108000,0.003732477,-0.012597835,0.006823542,-0.15182696,0.12550515,-9.90349
11116000,0.002002413,-0.007490743,-0.002108363,-0.1811392,0.18984133,-9.908444
11124000,-0.001166652,-0.000651538,-0.001020129,-0.14831713,0.22802098,-9.947321
11132000,-0.002987284,-0.001433848,0.002199672,-0.17508408,0.19483382,-9.913948
11136000,-0.000930354,-0.004255526,-0.001147792,-0.16177653,0.17026943,-9.925388
11140000,0.003758589,-0.009085097,-0.000850714,-0.14306046,0.16431066,-9.907607
11144000,0.003707453,-0.005960931,0.006542352,-0.16335371,0.2142661,-9.91043
11148000,0.001360837,-0.000826413,0.007654415,-0.2357298,0.2365096,-9.968415
11156000,-0.00528135,0.003579523,-0.001623829,-0.2227109,0.20268838,-9.956075
11160000,-8.98E-05,-0.002553135,0.003650295,-0.15001747,0.21364771,-9.904595
11168000,-0.00452224,-0.001950958,-0.00014415,-0.1743327,0.15501541,-10.019695
11172000,-0.004544057,-0.00592195,-0.003333598,-0.20604303,0.14917581,-9.959673
11176000,0.002022036,-0.005105703,-0.003471747,-0.16923094,0.21120049,-9.91641
11180000,0.003508634,-0.003737085,-0.004608397,-0.16718112,0.20697315,-9.932468
11188000,-0.007343073,-0.005119127,0.000675569,-0.10740892,0.20081325,-10.005863
11196000,-0.00037254,-0.005110545,0.003068463,-0.19556981,0.13985683,-10.030269
11204000,0.003109732,-0.006423561,-0.001305023,-0.1712489,0.15080695,-9.898391
11208000,-0.000372154,-0.007317415,-0.000190494,-0.19993578,0.17021845,-9.926444
11216000,0.006566275,-0.004682493,-0.003720875,-0.05492609,0.06172358,-10.013864
11220000,0.002489112,-0.00498431,-0.005432195,-0.09532315,0.13792716,-10.02363
11228000,-0.000741216,-0.008674985,-0.003752925,-0.18091376,0.110290825,-9.908553
11232000,-0.002517651,-0.004157031,0.000361161,-0.15661718,0.1741038,-9.952099
11236000,-0.005507836,-0.004901317,0.000590757,-0.070378274,0.16750877,-10.013152
11240000,0.00208756,-0.007735286,0.003431821,-0.10147982,0.16653487,-9.984433
11244000,-0.000305499,-0.009512091,0.001988249,-0.10147982,0.16653487,-9.984433
11248000,-0.005302467,-0.008462623,0.001079685,-0.23229216,0.21369138,-10.046371
11256000,-0.002578794,-0.0049406,0.001203369,-0.16110384,0.19685504,-9.93636
11264000,0.002937116,-0.010767729,-4.90E-05,-0.1741785,0.18755528,-9.995106
11268000,0.002777349,-0.01114592,0.006384417,-0.21663015,0.19206755,-9.848092
11272000,-0.000413119,-0.010515001,0.006234211,-0.22069044,0.21043849,-9.896503
11280000,-0.000221083,-0.002871019,0.003568623,-0.2236167,0.25698343,-9.942142
11284000,-0.003179169,-0.005543775,0.00130723,-0.1772139,0.26823556,-9.927214
11288000,-0.002460718,-0.007329551,-0.005549504,-0.24766126,0.23963441,-9.897599
11292000,-0.000630478,-0.008450352,0.000798122,-0.18316343,0.22379617,-9.925669
11296000,-0.002916797,-0.00656469,0.001596012,-0.116236635,0.24234307,-9.8868265
11300000,-0.002667558,-0.001620195,0.002029173,-0.1644158,0.20043193,-9.831652
11308000,0.002504724,0.003825726,0.000597322,-0.2262409,0.23013127,-9.9165
11312000,0.002310675,-0.007110493,0.000576515,-0.17284419,0.2432558,-9.902093
11316000,-0.005295546,-0.009865792,-0.000674351,-0.19697551,0.19125299,-9.989147
11320000,-0.005283915,-0.003935396,-0.005404185,-0.20274538,0.18463133,-9.967072
11324000,0.001485,-0.00694652,-0.000263155,-0.2140788,0.1942117,-9.889892
11328000,0.008446716,-0.009750765,-0.006388287,-0.20689882,0.14808534,-9.94208
11332000,0.009772255,-0.007426977,-0.006634196,-0.17520784,0.14154938,-9.987635
11336000,0.00526577,-0.004804106,0.00174796,-0.1569417,0.17585722,-9.938398
11340000,0.000677106,-0.002618253,0.001364587,-0.12314455,0.22244763,-9.865837
11348000,-0.008877263,-0.004556381,0.002937049,-0.25227436,0.2177618,-9.953487
11356000,0.001456188,-0.004536105,0.004436739,-0.14380936,0.19691496,-9.910556
11360000,-0.003455543,-0.009452143,0.00156703,-0.13965392,0.1958357,-9.967542
11364000,-0.000138271,-0.005384089,-0.000685834,1.1492966,0.18247032,-10.033944
11368000,-0.002532465,0.001137647,0.004499915,7.924647,0.15113705,-9.997886
11372000,-0.006119243,-4.29E-05,0.004436809,18.376894,0.18917924,-9.85707
11380000,-0.002518864,0.001223478,-0.006129929,34.86127,0.12358857,-9.971934
11384000,-0.000389685,-0.004053211,-0.003129034,40.525,0.1385452,-9.834233
11388000,0.000609776,-0.010271821,-0.000347101,44.742714,0.15305905,-9.806924
11396000,-0.0028764,-0.012774911,-0.003299708,49.721184,0.16094144,-9.9450245
11400000,-0.008387082,-0.008966791,0.000339244,50.94195,0.12610944,-9.931167
11408000,-0.005241048,-0.005976344,0.000904075,52.26363,0.15893117,-9.857114
11412000,-0.007368358,-0.008352052,-0.000820763,52.505367,0.19642125,-9.869578
11416000,-0.005398271,-0.007427595,0.00500136,52.356304,0.2240497,-9.879423
11420000,-0.00216338,-0.006502308,0.002071164,52.08018,0.22870702,-9.836708
11424000,0.001237822,-0.012084297,0.003783456,51.831985,0.17287879,-9.817262
11428000,-0.001034943,-0.007217913,0.003129464,51.57991,0.13696076,-9.864257
11436000,0.002359943,-0.005705844,-0.002033338,50.696785,0.18960215,-9.904533
11444000,0.007806307,-0.004229462,-0.000256205,49.55161,0.2387499,-9.872169
11448000,0.000841787,-0.005527146,-0.005154987,49.21714,0.2946108,-9.867179
11456000,0.003722421,-0.01027745,-0.001446616,48.330482,0.27410007,-9.796688
11460000,0.007115183,-0.007388444,0.001140369,47.667625,0.25649777,-9.845342
11468000,0.001646744,-0.005350738,-0.004420801,46.577705,0.15991592,-9.859077
11472000,-0.005256586,-0.01032915,0.000170043,46.255116,0.15273975,-9.822979
11480000,-0.001559349,-0.009982995,-0.00619662,45.263405,0.21652961,-9.884831
11484000,-0.004286673,-0.01299025,-0.003777986,44.782696,0.15015471,-9.914988
11492000,-0.004785756,-0.014837565,0.002012704,43.98497,0.12102412,-9.810716
11496000,-0.001588387,-0.007893012,0.000407517,43.53098,0.12640037,-9.877169
11504000,-0.007108624,-0.006762674,-0.001187432,42.63175,0.1866025,-9.868893
11512000,-0.000773898,-0.004975557,-0.004922031,41.9653,0.17385879,-9.825802
11516000,-0.003193392,-0.005665974,0.002308259,41.618557,0.19914669,-9.847546
11520000,-0.001164528,-0.007135584,0.002698556,41.121227,0.26424736,-9.861387
11524000,0.006836148,-0.0021336,-2.92E-05,40.61714,0.2128732,-9.856661
11528000,0.0058212,-0.001799731,0.003240171,40.300682,0.2075749,-9.817725
11532000,0.00320314,-0.00617159,-0.00179838,40.067226,0.2730344,-9.899443
11536000,0.001717656,-0.009701693,-0.002359417,39.607914,0.23157246,-9.90023
11540000,0.001914433,-0.007015141,0.001717262,39.113247,0.19554563,-9.827335
11548000,-0.003758388,-0.00064422,0.004936077,38.31517,0.25200015,-9.818892
11552000,-0.000543495,-0.005668805,0.004385351,38.04939,0.2544918,-9.888057
11556000,0.002261084,-0.011390862,0.001303055,37.693176,0.26822144,-9.894599
11560000,0.000815334,-0.011835302,-0.001674212,37.256966,0.2772203,-9.859795
11564000,-0.002921506,-0.007641972,0.004292965,36.87736,0.21351354,-9.881756
11568000,0.001349222,-7.79E-05,0.004848999,36.50601,0.13412037,-9.875465
11576000,-0.002667456,-0.007216838,-0.00666098,35.817318,0.17488638,-9.800943
11580000,-0.007325817,-0.008523272,-0.007468283,35.372173,0.15014859,-9.892203
11588000,-0.009118235,-0.007342273,-0.000310548,34.48706,0.17059335,-9.8486595
11592000,-0.001422468,-0.010814981,0.002224461,34.331764,0.17445946,-9.861872
11600000,0.002157459,-0.001643097,-0.000749675,33.723167,0.15059087,-9.838162
11604000,0.001038365,-0.005397483,-0.002625496,33.25412,0.12800767,-9.824507
11608000,-0.002499508,-0.004471181,-0.005650796,32.85285,0.19189054,-9.8637295
11612000,-0.002514608,-0.004166481,-0.001137028,32.645485,0.21086884,-9.839844
11616000,-0.001514328,-0.008194696,0.00233997,32.469616,0.1683824,-9.891286
11620000,0.000294796,-0.004668946,0.003518967,32.171963,0.17595321,-9.955683
11628000,-0.00272032,-0.009315465,-0.000691332,31.42447,0.16087915,-9.786561
11636000,-0.001915148,-0.008518427,0.002292548,30.96197,0.15822516,-9.890414
11640000,0.00150538,-0.010618965,0.008356037,30.790365,0.13002326,-9.835734
11644000,0.000997504,-0.004985805,0.007246226,30.432207,0.2220625,-9.775379
11648000,-0.002461153,-0.004717254,0.004227363,29.999836,0.20171948,-9.84508
11652000,-0.004531688,-0.004994788,-0.001556852,29.7235,0.105007395,-9.821588
11660000,0.00088462,-0.000647185,-0.002816854,29.39926,0.16973352,-9.909403
11664000,0.00469902,-0.01403287,0.000526119,29.071304,0.1942545,-9.917085
11668000,0.002301432,-0.015229902,0.003910439,28.752975,0.18954805,-9.839074
11672000,-0.001216989,-0.007611216,-0.00132721,28.475151,0.15494712,-9.87456
11676000,0.001253064,-0.00477206,-0.00299981,28.281542,0.1827802,-9.89797
11680000,0.001693877,-0.000811016,0.001123068,28.09638,0.19755006,-9.776066
11684000,-0.000405229,-0.004444378,0.002698954,27.79159,0.18433143,-9.818974
11688000,-0.006132789,-0.006285514,0.005945989,27.450523,0.2142468,-9.956378
11692000,-0.004789448,0.000907325,0.009702771,27.22364,0.18216541,-9.981278
11696000,0.004211702,0.002274812,0.005003879,27.084997,0.13471587,-9.930315
11704000,-0.002332583,-0.003745408,-0.006242602,26.52003,0.16625378,-9.868905
11708000,0.000692283,-0.00399464,-0.006692337,26.199512,0.16047984,-9.874919
11712000,-0.004778024,-0.0038225,0.002156319,25.939466,0.15573041,-9.897517
11716000,-0.004363026,-0.006860964,0.006847562,25.82721,0.1609808,-9.847699
11720000,-0.000968938,-0.002607737,0.001725654,25.661715,0.16146994,-9.887608
11728000,0.002819728,-0.00658353,-0.000167455,24.949705,0.14585459,-9.9419365
11736000,-0.001385845,-0.001553469,0.001495694,24.485521,0.1334902,-9.879718
11744000,-0.006460758,-0.010171532,-0.000855897,24.152842,0.18106559,-9.869795
11748000,-0.005106073,-0.007714988,0.006715726,23.911343,0.036757924,-9.849459
11752000,0.003947272,-0.001295328,0.008435726,23.658548,0.021754343,-9.884915
11756000,0.002925439,-0.003842696,0.006935734,23.43709,0.12688686,-9.917865
11760000,-0.001225772,-0.004999939,0.005193899,23.273638,0.064877145,-9.838953
11764000,0.002198368,-0.004539271,0.01262195,23.085157,0.066880636,-9.826877
11768000,0.007387356,-0.002050313,0.021690255,22.83291,0.06744086,-9.860508
11776000,0.002738616,-0.001491993,0.014174921,22.410505,0.118221216,-9.926516
11780000,0.004816437,-0.003135133,0.015692951,22.324736,0.11257488,-9.879886
11784000,0.005294554,-0.00756654,0.018558294,22.244585,0.0894475,-9.865382
11788000,0.001725632,-0.003878246,0.021027328,21.964788,0.11773312,-9.929873
11796000,0.006682158,-0.003448317,0.013539858,21.530373,0.00921727,-9.993607
11800000,0.006104747,-0.001520807,0.01645748,21.421638,0.005982226,-9.97038
11804000,-0.00157777,-0.002900517,0.024058525,21.325657,0.030085634,-9.9089985
11808000,-0.003883269,-0.002215027,0.02659011,21.144901,0.025939392,-9.824433
11812000,-0.002146011,-0.004401438,0.032605432,20.962027,-0.018146044,-9.846753
11816000,-0.002081947,-0.007092971,0.03600777,20.72657,-0.08038274,-9.784775
11820000,-0.001533244,-0.00726729,0.02864128,20.577467,0.015881265,-9.846369
11824000,-0.000785623,-0.009890911,0.03371734,20.507118,0.09821956,-9.927075
11832000,0.000550512,-0.008777358,0.051850963,20.447664,-0.3994062,-10.182386
11836000,0.009346035,-0.014497011,0.06734936,20.510984,-0.75416213,-10.376732
11844000,0.024581797,-0.018753441,0.100197114,20.267618,-0.5842228,-10.425691
11852000,0.03790523,-0.020087708,0.12978087,19.770521,-0.662278,-10.548295
11856000,0.041845556,-0.02360237,0.14888035,19.526482,-0.59513086,-10.496412
11860000,0.05210552,-0.022940692,0.15872818,19.400919,-0.5530552,-10.492752
11868000,0.06144718,-0.032244354,0.18516164,19.050158,-0.41205627,-10.459302
11876000,0.07282405,-0.042655278,0.21047856,18.653511,-0.428045,-10.515559
11880000,0.076000735,-0.04311301,0.22491316,18.51387,-0.4236706,-10.605216
11888000,0.09717315,-0.04865425,0.24542093,18.280346,-0.33351326,-10.502427
11896000,0.107926354,-0.06138449,0.2587787,17.737122,-0.31840008,-10.517725
11900000,0.12132144,-0.06108362,0.26680723,17.71142,-0.3021224,-10.492646
11904000,0.11952827,-0.05825305,0.26814413,17.56047,-0.2340649,-10.457853
11912000,0.1345803,-0.060681295,0.27772173,17.213575,-0.1797494,-10.268484
11916000,0.14411388,-0.05398259,0.2816061,17.06821,-0.16661535,-10.227819
11920000,0.14926492,-0.059431627,0.293564,16.884548,-0.12519598,-10.322241
11924000,0.15909657,-0.061627336,0.2960436,16.709581,-0.1632046,-10.392169
11928000,0.16825077,-0.05569271,0.2931839,16.635511,-0.1258422,-10.350855
11936000,0.1858665,-0.051283788,0.2881597,16.254547,-0.092851825,-10.209215
11940000,0.18344127,-0.049371623,0.29620633,16.173231,-0.06692342,-10.215288
11944000,0.19513236,-0.051925093,0.2982645,16.16637,-0.06093066,-10.31277
11948000,0.20799872,-0.049565434,0.29069582,16.06893,0.06288764,-10.286198
11952000,0.20647074,-0.047629885,0.28211242,15.893249,0.11009539,-10.172987
11960000,0.22282478,-0.038021274,0.27909955,15.535217,0.050665602,-10.235534
11964000,0.22959363,-0.03227171,0.27759603,15.535217,0.050665602,-10.235534
11968000,0.23761672,-0.03537631,0.26935053,15.385344,0.192172,-10.199701
11976000,0.24266386,-0.032415897,0.24493271,14.98547,0.11636155,-10.22021
11980000,0.2466406,-0.028990367,0.23617782,14.799687,0.09025106,-10.263997
11984000,0.25442305,-0.020295419,0.23259065,14.770818,0.06690748,-10.240376
11988000,0.26102686,-0.023612149,0.2262187,14.692679,0.15314415,-10.132708
11992000,0.26852363,-0.024663538,0.21571405,14.487395,0.16439344,-10.184326
11996000,0.27681026,-0.018879708,0.20405678,14.250406,0.065663874,-10.272415
12000000,0.2841191,-0.016985595,0.19721131,14.062507,0.08176356,-10.260181
12004000,0.28813958,-0.017162526,0.18826637,13.947984,0.19951916,-10.251456
12008000,0.28935903,-0.011687189,0.16588637,13.894298,0.24382557,-10.201565
12012000,0.29670608,-0.011588709,0.15662187,13.74379,0.29476166,-10.198183
12020000,0.30798566,-0.007433405,0.13271445,13.487804,0.18099971,-10.141295
12024000,0.3151232,-0.0101274,0.12813699,13.387061,0.27862597,-10.142043
12028000,0.32145518,-0.008057077,0.11582772,13.350972,0.4043325,-10.16253
12032000,0.32433498,-0.003195504,0.10418917,13.207952,0.4600476,-10.186445
12040000,0.3267831,-0.005508313,0.073190786,12.940763,0.4520715,-10.084115
12044000,0.33341074,-0.00295874,0.061045628,12.838505,0.54675233,-10.120784
12048000,0.3377897,-0.004099772,0.0489451,12.722068,0.652359,-10.152048
12052000,0.3334864,5.36E-05,0.033866268,12.577233,0.5618218,-10.164446
12060000,0.33918652,-0.006929691,0.019884989,12.334975,0.6383826,-10.061375
12068000,0.33727425,-0.006614761,-0.00529194,12.2360325,0.69384885,-10.195981
12072000,0.34016132,-0.009512967,-0.020000188,12.174838,0.70990014,-10.188325
12076000,0.34887192,-0.006306023,-0.03775995,11.946961,0.710748,-10.223916
12080000,0.34844446,-0.008373344,-0.05084176,11.770064,0.75460875,-10.210261
12088000,0.3536063,-0.015433964,-0.067127205,11.627807,0.8031206,-10.089925
12092000,0.34523278,-0.01755877,-0.07217249,11.549878,0.8157275,-10.122792
12096000,0.34804213,-0.016374948,-0.08124408,11.348807,0.76682794,-10.181394
12100000,0.35084856,-0.018659417,-0.094667174,11.23552,0.759097,-10.085124
12108000,0.35448802,-0.026841408,-0.122325554,10.88775,0.76166445,-10.065528
12112000,0.34970322,-0.027617842,-0.12051463,10.852612,0.73596704,-10.046138
12116000,0.34437317,-0.034192402,-0.12769806,10.688557,0.7030748,-10.120108
12120000,0.34720793,-0.030691547,-0.14255439,10.569379,0.6536359,-10.048704
12124000,0.3517091,-0.025563078,-0.15329067,10.399815,0.62399703,-9.991484
12132000,0.34564134,-0.029674215,-0.16690841,10.214037,0.6939017,-10.000402
12136000,0.34627742,-0.03829142,-0.17371865,10.00189,0.65098023,-10.015424
12140000,0.35384706,-0.035361152,-0.17332318,9.876632,0.6025222,-9.943114
12144000,0.35255483,-0.031315442,-0.179763,9.771777,0.50795937,-9.926748
12148000,0.34824657,-0.033177055,-0.1871505,9.651347,0.42766112,-9.977209
12156000,0.341403,-0.041213993,-0.20713769,9.384131,0.42972246,-9.96773
12160000,0.33588576,-0.03288516,-0.21027836,9.264583,0.3214216,-10.00869
12168000,0.33440825,-0.04729836,-0.2145619,8.970276,0.2331672,-9.878452
12172000,0.3310307,-0.043188196,-0.21263108,8.863927,0.1927942,-9.890455
12176000,0.3295568,-0.042457618,-0.21669179,8.801678,0.17434587,-9.933699
12180000,0.32363135,-0.048197504,-0.22428073,8.636951,0.19672316,-9.919842
12184000,0.32014346,-0.04932537,-0.22602618,8.412958,0.17468648,-9.909481
12188000,0.3223688,-0.045238685,-0.22569942,8.313906,0.10061996,-9.839536
12196000,0.3211529,-0.043656938,-0.22987682,8.275017,0.118915625,-9.737167
12200000,0.31570452,-0.049595874,-0.23141474,8.182979,0.028928988,-9.731007
12204000,0.31255856,-0.052611824,-0.2340423,7.951417,-0.11879181,-9.79469
12208000,0.31359103,-0.051581625,-0.23827815,7.85863,-0.16735785,-9.762147
12216000,0.30992725,-0.051533204,-0.23146124,7.7748384,-0.10930767,-9.702311
12220000,0.30810583,-0.04731982,-0.23008153,7.549341,-0.08602777,-9.672374
12224000,0.30284548,-0.043702543,-0.23325554,7.431192,-0.29685923,-9.7434225
12228000,0.29304227,-0.03938083,-0.23258191,7.4221573,-0.3251221,-9.773201
12232000,0.29320598,-0.031782836,-0.2285179,7.3546014,-0.26454705,-9.830872
12240000,0.2908787,-0.030960757,-0.23075636,7.1265473,-0.32894745,-9.656355
12244000,0.28705978,-0.027793936,-0.23547068,7.0466647,-0.3661414,-9.635313
12248000,0.28690127,-0.027045691,-0.23623297,7.0262847,-0.38155258,-9.681044
12252000,0.2839344,-0.032009404,-0.22549608,7.0302143,-0.4046189,-9.74491
12256000,0.280668,-0.0228341,-0.2210885,6.89783,-0.41610497,-9.783545
12260000,0.27770492,-0.01356273,-0.21391429,6.808904,-0.45723227,-9.737169
12268000,0.2814605,-0.009340307,-0.20446545,6.7071505,-0.40143523,-9.63059
12276000,0.26354364,-0.005421476,-0.20022684,6.520527,-0.42829576,-9.66426
12280000,0.266642,-0.006200597,-0.19525018,6.4666767,-0.45966476,-9.689305
12284000,0.2682375,-0.004867144,-0.18734847,6.4291463,-0.47409585,-9.660318
12288000,0.26606962,-0.002320193,-0.18205622,6.3633223,-0.47144994,-9.662966
12292000,0.26742116,0.006942223,-0.17999683,6.2799416,-0.39462912,-9.658419
12300000,0.26393,0.011117575,-0.16539223,6.1391535,-0.42410445,-9.67714
12304000,0.26397026,0.012042277,-0.16173907,6.053363,-0.4328642,-9.697655
12308000,0.26129913,0.001323135,-0.13058123,4.7869782,-1.760088,-10.680322
12312000,0.24869858,-0.015695741,-0.08531963,4.6913147,-1.784913,-10.75175
12316000,0.24546066,-0.015034415,-0.07297395,5.7622333,-0.6551507,-9.84936
12320000,0.24896522,-0.010626561,-0.073761724,5.708565,-0.6817289,-9.898014
12324000,0.2479484,-0.012333185,-0.06215863,5.598895,-0.6609694,-9.875363
12328000,0.24243943,-0.01820606,-0.056705806,5.4565673,-0.70636636,-9.84916
12332000,0.23644352,-0.014924318,-0.048642557,5.390379,-0.7065769,-9.839738
12336000,0.23835525,-0.009811565,-0.035628878,5.4150267,-0.6733537,-9.834456
12344000,0.23268834,-0.00065377,-0.006875245,5.3395696,-0.58907115,-9.8438225
12352000,0.23378527,-0.009655974,0.008753398,5.1877713,-0.66325253,-9.859853
12360000,0.23191307,0.003918222,0.031864963,5.1841903,-0.6307219,-9.91102
12368000,0.22904162,0.003081873,0.053322636,5.099332,-0.59673905,-9.917214
12372000,0.23604979,0.003287078,0.060015682,5.0295997,-0.50193083,-9.96088
12380000,0.22801468,0.011351452,0.08261075,4.86626,-0.51606804,-10.043397
12384000,0.2235761,0.011553517,0.097208045,4.862327,-0.4481216,-10.068336
12388000,0.22031648,0.020584933,0.10493696,4.8408685,-0.4760737,-10.093647
12396000,0.21895692,0.025813555,0.11547619,4.8120966,-0.35200813,-10.106071
12400000,0.21956983,0.032300163,0.124874696,4.8133674,-0.33929148,-10.192946
12404000,0.22050485,0.039005503,0.1298915,4.762725,-0.30778044,-10.263351
12408000,0.21475023,0.04754173,0.1392976,4.609108,-0.25629354,-10.333616
12416000,0.21283194,0.05510758,0.14575332,4.4959016,-0.24503513,-10.321377
12424000,0.20716879,0.07249182,0.15077181,4.533622,-0.103890255,-10.404958
12432000,0.20881103,0.09250553,0.16214511,4.413051,-0.05983631,-10.510956
12436000,0.2061267,0.09923312,0.16044283,4.413578,-0.062176436,-10.587703
12440000,0.20368642,0.108784065,0.15667556,4.259395,-0.08759215,-10.667465
12448000,0.20746382,0.12023347,0.16208884,4.113837,-0.04631526,-10.938002
12456000,0.1966006,0.1440313,0.15209104,4.0576673,-0.05406394,-11.159479
12464000,0.19635229,0.14612398,0.1539152,3.9908583,0.059117667,-11.357616
12468000,0.19870391,0.15232931,0.15674019,3.918466,0.038401358,-11.458655
12472000,0.19453728,0.16283675,0.15771626,3.8232028,0.062016644,-11.5414
12476000,0.18640217,0.17594564,0.15220176,3.733792,0.030395763,-11.687458
12484000,0.18577999,0.17898908,0.1524683,3.6204207,0.05345045,-11.911054
12488000,0.1880753,0.18401499,0.15187551,3.5978901,0.039384924,-12.046388
12496000,0.18175568,0.19790605,0.13968301,3.5261796,-0.029825479,-12.309411
12504000,0.18809141,0.20037968,0.13984895,3.3634405,0.040836893,-12.625754
12508000,0.1839319,0.20636784,0.13429043,3.2457922,0.070374526,-12.63732
12516000,0.17448834,0.22403596,0.13107519,3.217801,0.09898749,-12.95328
12520000,0.17239,0.2286741,0.12521312,3.134324,0.094305806,-13.000629
12524000,0.17328264,0.23354578,0.1248945,3.0730715,0.120560676,-13.096896
12528000,0.17400904,0.22810826,0.12115456,3.0701077,0.07764746,-13.182649
12532000,0.17093627,0.22834449,0.116607755,3.065122,0.08405095,-13.235733
12540000,0.16865055,0.23955148,0.109244816,2.8734474,0.16693357,-13.530083
12544000,0.16637436,0.23858042,0.10329942,2.8236434,0.10804972,-13.585906
12548000,0.16306825,0.23817982,0.09488155,2.8489017,0.13907705,-13.677423
12552000,0.16237098,0.24109478,0.09493208,2.8580084,0.15513492,-13.803481
12560000,0.16143924,0.24947949,0.08964573,2.746456,0.122421056,-13.938904
12564000,0.1514233,0.24595839,0.08792254,2.680989,0.07876026,-13.976114
12568000,0.15011151,0.24156523,0.08355953,2.632847,0.073366575,-14.088413
12576000,0.15769376,0.2515614,0.073431976,2.5569165,0.047409605,-14.197102
12580000,0.15133522,0.24881147,0.06958001,2.6202927,0.12339346,-14.26635
12584000,0.15187085,0.25061122,0.061612632,2.6067104,0.13708209,-14.48656
12588000,0.14604937,0.24625571,0.058038022,2.56437,0.13804306,-14.547965
12592000,0.14227156,0.23963547,0.054982703,2.5419905,0.13214865,-14.510676
12596000,0.142004,0.2435657,0.05351552,2.4689188,0.10306259,-14.599675
12600000,0.1402933,0.24637094,0.051548783,2.3903759,0.15341131,-14.668654
12604000,0.14088486,0.23993789,0.04744014,2.3569427,0.13508761,-14.651884
12608000,0.14281578,0.2340943,0.045131877,2.4014277,0.11632325,-14.6575985
12612000,0.14500675,0.23296681,0.044164356,2.3795307,0.12346336,-14.714295
12616000,0.1402212,0.23350884,0.043949068,2.3463755,0.060379416,-14.804797
12624000,0.13309745,0.2306852,0.03598178,2.1865354,0.06663386,-14.780324
12628000,0.13162553,0.2271908,0.034011435,2.2309349,0.04282474,-14.804156
12632000,0.13605303,0.2193878,0.034334913,2.2254353,0.006446634,-14.781767
12640000,0.124962024,0.2235513,0.017679604,2.1506233,0.014399944,-14.808372
12644000,0.12315194,0.21905954,0.021585608,2.1159484,-0.018078145,-14.8297
12652000,0.12326674,0.21440238,0.011555116,2.126468,0.123401314,-14.866923
12660000,0.118370675,0.21063957,0.009536587,2.12271,-0.008182461,-14.777022
12664000,0.11724499,0.20937711,0.013305085,2.0329547,-0.009303388,-14.806793
12668000,0.11577662,0.20178187,0.01057228,2.0132842,0.021091158,-14.813777
12672000,0.105985045,0.19560064,-0.002689288,2.0500016,-0.00160732,-14.799509
12676000,0.10784009,0.19395046,-0.003435359,2.0056472,-0.011030299,-14.740209
12680000,0.10826499,0.1888228,-0.00124276,1.9493631,-0.005326472,-14.755376
12684000,0.10298101,0.18572102,-0.004701267,1.9772246,-0.08021102,-14.7600565
12692000,0.10123309,0.19238104,-0.000200471,1.8774496,-0.08106537,-14.711701
12696000,0.09857506,0.19496113,0.00011548,1.8717157,-0.077408604,-14.643377
12700000,0.10344571,0.18506093,-0.001990976,1.9210073,-0.023641367,-14.624386
12704000,0.10304789,0.17151575,-0.007180982,1.8867046,-0.08906321,-14.59348
12708000,0.10531124,0.17202961,-0.006430531,1.826912,-0.094267584,-14.582931
12716000,0.10219977,0.17037691,-0.008777889,1.7111385,-0.028913429,-14.508198
12720000,0.10617115,0.16639909,-0.004352347,1.6628469,-0.09199855,-14.408685
12724000,0.103365116,0.1658482,-0.003078942,1.7569965,-0.11199439,-14.269719
12728000,0.0978422,0.16910811,-0.008368013,1.7306076,-0.13784574,-14.213463
12732000,0.09809465,0.16505049,-0.006479832,1.6733627,-0.11512994,-14.251903
12736000,0.101707175,0.1646114,-0.007862808,1.7230389,-0.087395445,-14.264608
12740000,0.10519216,0.16078858,-0.003117472,1.7479935,-0.14049071,-14.156609
12744000,0.09813603,0.15302016,0.0017509,1.7253162,-0.17378661,-14.1325865
12748000,0.09595193,0.14984189,-0.004977041,1.687517,-0.1432514,-14.200383
12756000,0.08459161,0.15386172,0.007233682,1.7250865,-0.1051588,-14.169136
12760000,0.08275594,0.15280515,0.007091115,1.6969678,-0.16550307,-14.078755
12764000,0.08586609,0.1567887,0.00419874,1.6146431,-0.1945562,-14.027582
12768000,0.080134876,0.15362485,0.010689711,1.5205476,-0.1985981,-14.008644
12776000,0.08086289,0.15342364,0.007550117,1.580158,-0.23178887,-13.830243
12780000,0.07870418,0.14478382,0.010366865,1.6029097,-0.28248635,-13.831566
12784000,0.08003204,0.14254089,0.013910125,1.6311593,-0.28812075,-13.829775
12788000,0.088642105,0.14165539,0.011148579,1.5581666,-0.22359857,-13.8848095
12792000,0.09030198,0.13782866,0.009643415,1.5197803,-0.22781403,-13.788004
12796000,0.08380082,0.14117852,0.014141904,1.5225955,-0.25912514,-13.718712
12800000,0.07771034,0.1394799,0.010962784,1.4804648,-0.28070152,-13.707538
12804000,0.07747066,0.13584307,0.008700282,1.4568014,-0.29705226,-13.64172
12808000,0.07652723,0.14348884,0.014412285,1.4497339,-0.21534956,-13.691157
12812000,0.07676667,0.14656943,0.022510238,1.4369125,-0.21309397,-13.734247
12816000,0.07915251,0.1469706,0.020173099,1.449261,-0.27033484,-13.635047
12823999,0.07286544,0.14962144,0.026529163,1.478072,-0.20552334,-13.500075
12828000,0.07610686,0.13643028,0.025814863,1.405587,-0.29384798,-13.487299
12835999,0.07570901,0.14075214,0.038446534,1.4204038,-0.24174786,-13.634233
12840000,0.079535544,0.13775648,0.033836424,1.4693737,-0.2739987,-13.55092
12848000,0.070817076,0.1429273,0.041714918,1.3605537,-0.31144688,-13.457498
12855999,0.073442504,0.14813153,0.046055112,1.408942,-0.34353855,-13.375397
12860000,0.0736378,0.14262323,0.04834198,1.3494606,-0.35606945,-13.373671
12864000,0.06556721,0.13954571,0.052250303,1.3672636,-0.3614436,-13.428902
12867999,0.06408009,0.14613195,0.05330274,1.3583981,-0.2759837,-13.432138
12872000,0.06779182,0.14831387,0.05464097,1.3449264,-0.28517568,-13.357667
12876000,0.07037973,0.14802662,0.055704694,1.3291603,-0.3188164,-13.361439
12880000,0.07177243,0.14743146,0.062200587,1.2602578,-0.26979512,-13.366306
12887999,0.07275722,0.14959289,0.06632541,1.3716271,-0.27824488,-13.411436
12892000,0.07885492,0.14949505,0.071333304,1.2864795,-0.33295968,-13.346888
12896000,0.07329956,0.15488882,0.07406785,1.2009478,-0.34118754,-13.342844
12899999,0.060111087,0.15390265,0.0757594,1.2739319,-0.31005514,-13.378329
12904000,0.058587972,0.14983077,0.07732635,1.2917595,-0.34302515,-13.327075
12912000,0.06530735,0.15629692,0.07645332,1.203652,-0.3690092,-13.391427
12919999,0.061888464,0.1564874,0.0787277,1.1433746,-0.33723646,-13.385702
12928000,0.068620875,0.1660367,0.0777119,1.1203363,-0.2989545,-13.3479395
12931999,0.068270676,0.16376221,0.08224567,1.123594,-0.30439112,-13.423114
12940000,0.06020571,0.16132301,0.09077212,1.1088728,-0.3604296,-13.347396
12944000,0.06134317,0.1625703,0.08377226,1.1036292,-0.24112298,-13.256003
12948000,0.06051713,0.16102779,0.08690191,1.0376718,-0.28360504,-13.290088
12951999,0.060248166,0.16068679,0.09117126,1.100337,-0.3690399,-13.419163
12956000,0.056511976,0.1655461,0.09381454,1.1547146,-0.3685276,-13.457187
12960000,0.056606688,0.1668012,0.08710655,1.1127464,-0.3222924,-13.473705
12968000,0.062199075,0.16764705,0.09382121,1.1097584,-0.2793995,-13.415382
12972000,0.06071632,0.17382853,0.09601936,1.0228982,-0.30775622,-13.457518
12976000,0.05946031,0.17786999,0.10045306,1.0525386,-0.33559284,-13.530389
12983999,0.055784687,0.17098396,0.0947429,1.0462339,-0.25947097,-13.569063
12988000,0.055169083,0.17201556,0.09603664,1.0371512,-0.29511648,-13.53001
12995999,0.059377484,0.17547041,0.09384086,1.0362267,-0.29380366,-13.62785
13000000,0.055137064,0.1717928,0.09753134,1.04334,-0.33604902,-13.622459
13004000,0.050069526,0.17208044,0.0935859,1.0283402,-0.34657246,-13.561772
13008000,0.04895193,0.17848471,0.10025312,1.0384412,-0.35288757,-13.503067
13015999,0.04856741,0.17808445,0.09566039,1.0001404,-0.2142418,-13.730137
13020000,0.048186578,0.17877086,0.0973013,0.97978705,-0.2744012,-13.710875
13027999,0.04371053,0.17865,0.104296304,1.0628731,-0.26627392,-13.603603
13032000,0.045206137,0.18389079,0.102590665,0.96577305,-0.25180334,-13.68502
13040000,0.044834726,0.1733624,0.10059993,0.9939701,-0.18059216,-13.715819
13044000,0.046291687,0.17706802,0.09591305,1.0356165,-0.23797385,-13.651818
13047999,0.04514669,0.18694597,0.09378458,1.0213395,-0.2539985,-13.685477
13056000,0.0461847,0.18167819,0.090710625,0.9171298,-0.25047708,-13.854174
13064000,0.04535797,0.18947555,0.092022404,0.9359939,-0.30293602,-13.807205
13068000,0.04372129,0.19478858,0.09234225,0.991003,-0.29766956,-13.8519535
13072000,0.039002247,0.19235,0.08961405,0.9902017,-0.27268165,-13.890769
13079999,0.04156027,0.18628697,0.093242235,0.9157598,-0.22087064,-13.866414
13084000,0.042683277,0.18241714,0.08990795,0.91015136,-0.239072,-13.890228
13088000,0.045390803,0.17847718,0.09004414,0.92829275,-0.22839317,-13.851742
13091999,0.04435449,0.185879,0.091180444,0.8510234,-0.20864317,-13.857452
13100000,0.040966332,0.1843113,0.07353891,0.93669266,-0.24537691,-13.940415
13104000,0.03879999,0.18156922,0.08078975,0.88947093,-0.2715258,-13.906234
13108000,0.042045273,0.18678436,0.08372433,0.9225659,-0.21947391,-13.918061
13116000,0.037024427,0.18143931,0.07845442,0.85862315,-0.32122117,-13.898354
13120000,0.03405347,0.1830218,0.076285414,0.85755956,-0.3152457,-13.931673
13128000,0.031860754,0.18673946,0.08261073,0.94012874,-0.21540597,-13.879185
13132000,0.033081893,0.18822682,0.07992372,0.96053827,-0.23586312,-13.845489
13136000,0.039043553,0.18830878,0.07655987,0.87935096,-0.29711628,-13.868979
13140000,0.036195498,0.18009879,0.074291155,0.8565791,-0.27283192,-13.94913
13143999,0.033749424,0.18111745,0.07306966,0.85131145,-0.2054306,-14.007076
13148000,0.036546186,0.18999855,0.070670806,0.89112955,-0.22795308,-13.967024
13152000,0.032885745,0.19011591,0.066863745,0.8986063,-0.20218036,-13.9894905
13160000,0.031651363,0.18050735,0.06784305,0.85627663,-0.30301186,-14.014717
13168000,0.037986264,0.1785749,0.06579777,0.9233872,-0.20517664,-13.911088
13172000,0.032552686,0.18175451,0.06418487,0.85861033,-0.23165663,-13.98739
13175999,0.02966785,0.18241888,0.06628767,0.9089735,-0.28418773,-13.994936
13180000,0.029046673,0.17954543,0.06610027,0.9214313,-0.30245718,-13.957978
13184000,0.028167032,0.18102542,0.06200747,0.89273566,-0.278474,-13.919441
13187999,0.03442505,0.1821713,0.059764877,0.8681328,-0.28979504,-13.892835
13192000,0.03712052,0.18679851,0.059084695,0.8572293,-0.320209,-13.931447
13196000,0.03241393,0.18620048,0.055965524,0.8628235,-0.2968294,-14.014669
13204000,0.020912858,0.17843498,0.055758037,0.83535916,-0.2949242,-13.896517
13207999,0.025255317,0.17920376,0.056968942,0.88017875,-0.24967791,-13.967928
13212000,0.02875726,0.1797851,0.057645433,0.8473704,-0.2896476,-13.974265
13216000,0.029652543,0.17984515,0.053975154,0.87183505,-0.31399086,-13.90025
13219999,0.028318824,0.18058959,0.054600645,0.8489046,-0.33936962,-13.939377
13224000,0.022217322,0.1764418,0.051214967,0.8552615,-0.39970362,-14.02931
13228000,0.01826552,0.17899196,0.04739064,0.8935776,-0.40461516,-13.965751
13236000,0.023212979,0.17761879,0.052146327,0.9441028,-0.30956233,-13.91382
13239999,0.015724646,0.1734751,0.04910515,0.83566046,-0.25982606,-13.90802
13248000,0.023498774,0.17882642,0.048321098,0.85195434,-0.37063572,-13.874367
13256000,0.022107879,0.17436387,0.049940318,0.79907125,-0.41300726,-13.785849
13260000,0.022298513,0.17121918,0.04654034,0.87912387,-0.4219432,-13.834858
13264000,0.016977701,0.17172962,0.04510176,0.93790567,-0.3579418,-13.877405
13268000,0.01782772,0.1761935,0.046310678,0.89970034,-0.3211118,-13.861346
13271999,0.019567685,0.17464645,0.048660804,0.8949133,-0.27579242,-13.834647
13276000,0.023937821,0.17721456,0.04688113,0.89416957,-0.27102733,-13.87724
13284000,0.022898544,0.1772395,0.049562044,0.83594626,-0.3842976,-13.848646
13292000,0.017790241,0.18051326,0.04183752,0.8882976,-0.37272045,-13.787475
13296000,0.018950209,0.18124351,0.037618652,0.9162047,-0.38453797,-13.839267
13300000,0.021136902,0.17878045,0.044012524,0.89119166,-0.40611157,-13.824452
13308000,0.01569138,0.17487833,0.04785138,0.8710767,-0.30788893,-13.850154
13312000,0.01782369,0.17907341,0.04747992,0.884276,-0.41728327,-13.784994
13316000,0.016648533,0.17554468,0.051063616,0.9811281,-0.42259005,-13.74841
13320000,0.016901556,0.17423393,0.050570726,0.98240143,-0.39882606,-13.775482
13328000,0.016015945,0.16927096,0.04734121,0.8922913,-0.3338424,-13.696072
13332000,0.012900491,0.16478382,0.048571702,0.95797676,-0.37097347,-13.678708
13335999,0.014388686,0.16138625,0.045842614,0.93200237,-0.37472153,-13.729835
13344000,0.013147851,0.17626178,0.041880976,0.95371515,-0.4446785,-13.734489
13352000,0.009124641,0.1715295,0.052086897,0.9168659,-0.52212995,-13.744559
13356000,0.008065993,0.1693953,0.049495243,0.88020676,-0.534589,-13.666629
13364000,0.011606775,0.1751754,0.052086804,0.91611004,-0.46757525,-13.673905
13367999,0.009955032,0.17063692,0.05003025,0.8876687,-0.45258296,-13.683949
13376000,0.007760809,0.17599659,0.054846868,0.9304804,-0.49025962,-13.613471
13380000,0.013345066,0.17742424,0.057542637,0.93422526,-0.45101497,-13.572853
13387999,0.006832575,0.17363906,0.049759768,0.8851001,-0.4386055,-13.748581
13396000,0.010611773,0.16830863,0.0519165,0.924573,-0.4221515,-13.550799
13404000,0.01180035,0.17773063,0.058596153,0.99504995,-0.41268492,-13.681968
13408000,0.010620512,0.17167488,0.051823806,1.006489,-0.47773144,-13.593575
13416000,0.003810834,0.17424367,0.058017787,1.0209131,-0.41764528,-13.627153
13419999,0.004442221,0.17223467,0.060026497,0.96442056,-0.37291044,-13.630838
13428000,0.013133828,0.1801438,0.061773453,1.015416,-0.48579723,-13.629218
13431999,0.012706731,0.18020977,0.056071863,0.98800564,-0.42713478,-13.6472225
13436000,0.004206012,0.17480703,0.057608426,0.98174864,-0.41898084,-13.669004
13440000,0.003880364,0.17274272,0.057820737,0.9392415,-0.44669452,-13.649255
13444000,-0.001837536,0.17211203,0.061457973,0.9663516,-0.43171987,-13.598479
13448000,-0.003555417,0.17359318,0.0644271,1.0679834,-0.46483982,-13.610184
13456000,0.011422502,0.17400429,0.06257994,1.0003554,-0.5056021,-13.653273
13463999,0.006729834,0.17173836,0.065388836,0.9949449,-0.4418112,-13.583565
13468000,0.01256753,0.17442118,0.066792116,0.962036,-0.44855064,-13.529056
13476000,0.009216202,0.1764476,0.06978014,1.0933421,-0.46885648,-13.54538
13480000,0.012185585,0.17572656,0.071243666,1.0445709,-0.45212054,-13.551676
13488000,-0.003637298,0.17394407,0.06785445,1.048305,-0.4348431,-13.702945
13492000,0.000690593,0.1704367,0.06908039,0.97535485,-0.48097578,-13.692607
13495999,0.006973081,0.1718737,0.06723523,1.0414982,-0.4534323,-13.662546
13504000,0.006191972,0.18161382,0.06741959,0.9186593,-0.46465912,-13.624918
13508000,0.004804216,0.17961895,0.06677895,0.9781696,-0.48474738,-13.669446
13512000,0.008678723,0.17581351,0.06881873,1.0477138,-0.44750288,-13.651019
13515999,0.011806812,0.17812376,0.066012464,1.0585389,-0.53487253,-13.672538
13524000,0.006376445,0.18797053,0.07051772,0.9558566,-0.5890615,-13.635536
13532000,0.00468634,0.18301964,0.07658125,1.0000132,-0.47629404,-13.655422
13536000,0.003416082,0.18222262,0.07265484,0.98213834,-0.50179386,-13.551204
13540000,0.005430121,0.1749469,0.06768262,1.036176,-0.43438423,-13.514972
13544000,0.004959402,0.17626657,0.0723591,1.0963073,-0.4844353,-13.633692
13547999,0.002423614,0.18195193,0.07013251,1.0492194,-0.501942,-13.698971
13552000,0.001570871,0.18140803,0.068252996,1.0420167,-0.4327675,-13.76914
13556000,-0.000926536,0.17779224,0.071169965,1.0564718,-0.46836835,-13.742623
13564000,0.004166676,0.1860457,0.07057476,1.0482659,-0.51670283,-13.672087
13568000,0.004635491,0.18451461,0.07431851,0.9842295,-0.52459896,-13.742746
13576000,0.004944856,0.18780322,0.065031305,1.0821136,-0.51324916,-13.618485
13584000,0.001046711,0.18504652,0.07085412,1.0277866,-0.505762,-13.660264
13588000,0.000927132,0.18606508,0.07255397,1.0079732,-0.4924278,-13.639377
13592000,0.002079461,0.18534872,0.07720789,1.0544639,-0.52308625,-13.678317
13600000,-0.000890269,0.1891102,0.06961076,1.166096,-0.5618507,-13.771267
13604000,0.00454429,0.17863016,0.06979703,1.1044872,-0.54119533,-13.813927
13608000,0.007450644,0.17794085,0.07055902,1.1102242,-0.52369404,-13.760896
13612000,-0.001633357,0.18745294,0.07315516,1.1632348,-0.48000672,-13.665278
13616000,-0.002251146,0.19804369,0.075377926,1.1395279,-0.44801173,-13.655483
13620000,0.003065937,0.18973832,0.07692849,1.1341547,-0.5502151,-13.690877
13624000,0.005337246,0.18090808,0.076505736,1.1584183,-0.53936994,-13.733438
13628000,0.000179928,0.18599404,0.07153384,1.1920123,-0.4633981,-13.762308
13632000,-0.002154372,0.1888918,0.068024606,1.2167788,-0.51708424,-13.722178
13636000,0.002988957,0.18280548,0.065660015,1.1846603,-0.5343558,-13.685315
13640000,0.004038949,0.17844824,0.06462048,1.1040511,-0.5795182,-13.712038
13644000,0.003956047,0.1841311,0.06590898,1.1606025,-0.6157733,-13.76327
13648000,-0.00082487,0.1926384,0.06933557,1.2393782,-0.55025274,-13.781207
13656000,-0.003633436,0.18735813,0.07244184,1.1172631,-0.44942003,-13.832337
13660000,-0.00300026,0.18553948,0.068936326,1.1439947,-0.4098392,-13.856938
13664000,-0.002399792,0.18836378,0.06722862,1.1439947,-0.4098392,-13.856938
13668000,0.001395798,0.19542047,0.07008272,1.1458331,-0.46872187,-13.841151
13672000,0.003318197,0.19155656,0.07088061,1.1218016,-0.47031292,-13.818458
13680000,-0.002728164,0.19364996,0.06396996,1.1084106,-0.5062521,-13.804741
13684000,-4.57E-05,0.1919299,0.06974538,1.1788139,-0.5472203,-13.781564
13688000,-0.002696838,0.19558583,0.075358614,1.1165326,-0.5157462,-13.794088
13692000,-0.001842553,0.19999383,0.06991809,1.1137298,-0.46476424,-13.876625
13696000,0.000165902,0.1920164,0.066289715,1.2024894,-0.5214976,-13.873734
13700000,-0.00033998,0.18907763,0.06637287,1.2219374,-0.5368202,-13.815207
13704000,-0.002134953,0.19081901,0.069130786,1.1779611,-0.4627442,-13.820083
13708000,-0.00353267,0.19283904,0.06696734,1.1474173,-0.57176,-13.811084
13712000,-0.004784191,0.19631425,0.058661535,1.1774633,-0.5688268,-13.8217325
13716000,-0.002730991,0.19713923,0.06471434,1.2251136,-0.48651078,-13.895372
13724000,0.003461446,0.19510175,0.0642441,1.2425393,-0.56546617,-13.856333
13728000,0.00517607,0.19438833,0.061888643,1.2588547,-0.5432762,-13.784933
13732000,0.001708941,0.19543827,0.06616072,1.2241715,-0.525974,-13.784772
13740000,-0.004883763,0.18977053,0.061507158,1.3393427,-0.6123924,-13.838939
13744000,-0.001476279,0.1967236,0.060662024,1.3061668,-0.6328677,-13.860847
13748000,-0.004013828,0.19699404,0.06531245,1.272108,-0.5915601,-13.8903055
13752000,-0.001623199,0.20138171,0.06312557,1.2234651,-0.56929904,-13.850788
13756000,-0.001864534,0.19989048,0.061067786,1.2028893,-0.59777635,-13.79981
13760000,-0.00515644,0.1963628,0.060990874,1.2136288,-0.6298178,-13.926869
13768000,-0.002081139,0.19266804,0.056652065,1.2396216,-0.50777113,-13.897066
13776000,-3.06E-05,0.18814668,0.054950822,1.3047789,-0.5836292,-13.8405905
13780000,-0.001840353,0.19003233,0.060258374,1.3347158,-0.61296874,-13.786545
13784000,-0.006459573,0.18542518,0.057432175,1.3058072,-0.6019659,-13.896159
13788000,-0.012553816,0.19136287,0.054375526,1.2921913,-0.60013926,-13.895993
13792000,-0.012925536,0.19806564,0.063711315,1.2991325,-0.6194927,-13.849744
13796000,-0.010400685,0.18789256,0.06405865,1.287083,-0.58545387,-13.8902235
13800000,-0.01290711,0.18690044,0.06039203,1.4136715,-0.5669192,-13.870865
13804000,-0.010238398,0.19146712,0.056893848,1.3413495,-0.611961,-13.891864
13808000,-0.005410808,0.19902696,0.05238461,1.2679344,-0.5690046,-13.860349
13816000,-0.003082361,0.197418,0.052457917,1.2933122,-0.5815418,-13.875036
13820000,-0.008371137,0.20111632,0.056409694,1.2633832,-0.6063609,-13.892162
13824000,-0.013222891,0.20111954,0.05641122,1.3085489,-0.69883907,-13.905528
13828000,-0.015095971,0.19148357,0.05794637,1.3242944,-0.6432477,-13.886502
13832000,-0.008688478,0.18601577,0.05916917,1.266414,-0.53681165,-13.872676
13836000,-0.005253281,0.19451663,0.059230432,1.2950389,-0.5156294,-13.882275
13844000,-0.008916111,0.19531925,0.050300226,1.3452376,-0.56722754,-13.959394
13852000,-0.012774309,0.20394018,0.05050626,1.3648192,-0.60609365,-13.895771
13860000,-0.010368058,0.20183301,0.050364822,1.4271517,-0.5643367,-13.892018
13864000,-0.012100066,0.20109707,0.056606032,1.4140303,-0.5292555,-13.918583
13868000,-0.013199163,0.20497203,0.058974747,1.4043643,-0.5190459,-13.974848
13872000,-0.011899989,0.20468542,0.055484924,1.3739157,-0.6404993,-13.983691
13876000,-0.014272108,0.1990235,0.058665834,1.4209414,-0.6210639,-13.859351
13880000,-0.016718116,0.19972856,0.059863113,1.4774622,-0.5299531,-13.832351
13888000,-0.013838399,0.20218186,0.06167364,1.3779526,-0.6934555,-13.996847
13892000,-0.014662189,0.20412755,0.05889516,1.3830714,-0.6138994,-13.972806
13896000,-0.017465508,0.1993947,0.058507733,1.4270626,-0.56768245,-13.891727
13900000,-0.01225405,0.19436562,0.059640218,1.4165502,-0.5182514,-13.894371
13908000,-0.010825227,0.19817697,0.05360374,1.4043376,-0.55124086,-13.821789
13912000,-0.013696549,0.20070848,0.052067444,1.4486934,-0.59865546,-13.813998
13916000,-0.014957823,0.20245822,0.05216378,1.4821031,-0.6388535,-13.925603
13920000,-0.015247799,0.20084982,0.053747367,1.4493905,-0.6729927,-13.943288
13924000,-0.011942931,0.19575444,0.054180715,1.3891228,-0.68881935,-13.905522
13928000,-0.01165766,0.18983653,0.055332284,1.4297072,-0.5952548,-13.964777
13932000,-0.019114064,0.19456713,0.056534156,1.431923,-0.57552856,-13.897327
13936000,-0.02126368,0.19540842,0.054918453,1.4218895,-0.618761,-13.866273
13940000,-0.01593366,0.19379775,0.0567195,1.4362048,-0.65149635,-13.946224
13944000,-0.018839868,0.19997309,0.058126375,1.4888225,-0.6187665,-13.917447
13952000,-0.008345049,0.20434538,0.053493734,1.4604809,-0.5533761,-14.009242
13960000,-0.011292691,0.20714045,0.04938904,1.6485125,-0.5778359,-14.065045
13964000,-0.004944635,0.2056387,0.055675585,1.5812719,-0.5640656,-14.020282
13968000,-0.008271293,0.20211941,0.05593448,1.5617832,-0.59841174,-13.919206
13972000,-0.01017582,0.20113905,0.058714215,1.5303774,-0.6203568,-13.838853
13976000,-0.014354833,0.20223734,0.056284096,1.5165759,-0.6406829,-13.848895
13980000,-0.011425757,0.20723712,0.0568939,1.5670518,-0.62738425,-13.970832
13984000,-0.012127805,0.2066385,0.06470427,1.574996,-0.58346575,-14.000799
13988000,-0.010995586,0.1998714,0.06001358,1.5850842,-0.5971037,-13.978459
13992000,-0.009564912,0.19999383,0.057855505,1.5994273,-0.64259183,-13.920862
14000000,-0.016643377,0.2068843,0.055103566,1.561338,-0.6607555,-13.89473
14008000,-0.017175388,0.20898935,0.056157302,1.5931596,-0.59415936,-13.949099
14016000,-0.014925541,0.20159882,0.055927712,1.6586556,-0.6310423,-13.991755
14020000,-0.015211838,0.20356278,0.056157604,1.6010544,-0.60177845,-13.956311
14024000,-0.011201599,0.20454846,0.05968484,1.6215127,-0.5782576,-14.012946
14028000,-0.011769027,0.20488775,0.06244262,1.6843418,-0.62593216,-14.041875
14032000,-0.00954535,0.20516273,0.058416765,1.5876739,-0.7025193,-14.063812
14040000,-0.014287863,0.21177919,0.054929227,1.7045002,-0.69993776,-13.9154825
14044000,-0.012960525,0.19748746,0.05136797,1.6295472,-0.6481584,-13.954214
14048000,-0.010429438,0.19871451,0.05970579,1.5847927,-0.60747355,-13.973787
14056000,-0.018254936,0.1921699,0.054907773,1.6664184,-0.643653,-14.029321
14064000,-0.011126255,0.19528572,0.060017794,1.7002859,-0.6312268,-14.04544
14068000,-0.013004345,0.19283155,0.060338955,1.7475286,-0.7034239,-14.028626
14072000,-0.016903738,0.18962623,0.056845006,1.7377567,-0.7250742,-14.02662
14076000,-0.015762953,0.18460503,0.054833576,1.6455868,-0.65918016,-14.09739
14080000,-0.012563313,0.1833848,0.060979802,1.6138444,-0.7065195,-14.049325
14088000,-0.02168929,0.18594113,0.05603961,1.6874944,-0.68655515,-14.069698
14092000,-0.019802395,0.18670377,0.058181617,1.677384,-0.69158036,-14.027043
14100000,-0.01671527,0.17375791,0.061403796,1.73934,-0.71088195,-14.009959
14108000,-0.015631251,0.18141843,0.056264535,1.6126218,-0.6811102,-13.869818
14112000,-0.024753086,0.1825124,0.053177714,1.6469948,-0.6714697,-13.794829
14116000,-0.058640584,0.17837992,0.051792648,1.7264687,-0.65557426,-13.810308
14120000,-0.09790758,0.17621821,0.05448284,1.7691673,-0.701237,-13.831571
14124000,-0.13182276,0.17198172,0.05613254,1.7949086,-0.7000465,-13.757616
14132000,-0.1915358,0.16931972,0.055417333,1.7026927,-0.60775006,-13.794469
14136000,-0.21425463,0.17143008,0.055547263,1.691311,-0.5522405,-13.790811
14140000,-0.23613614,0.17000644,0.052719705,1.7772082,-0.5772969,-13.769733
14144000,-0.26385462,0.16552113,0.051718682,1.7897114,-0.6641279,-13.779435
14148000,-0.29055953,0.16712302,0.05240187,1.7946709,-0.65950316,-13.752411
14152000,-0.30702975,0.1650819,0.0526765,1.815402,-0.56612796,-13.65517
14160000,-0.33503816,0.15629403,0.04304088,1.9175433,-0.66619414,-13.557685
14164000,-0.35455233,0.16353343,0.043689504,1.9457309,-0.6858582,-13.565371
14168000,-0.37303492,0.15857466,0.042387832,1.8851155,-0.71692574,-13.624583
14176000,-0.39502078,0.16125171,0.047139592,1.8964652,-0.65739834,-13.619266
14180000,-0.40480036,0.15483575,0.044387773,1.818817,-0.7248757,-13.568694
14188000,-0.4398728,0.1546946,0.04813236,1.9111865,-0.6224005,-13.454869
14192000,-0.44541445,0.15204965,0.039040223,1.8828197,-0.711929,-13.452525
14196000,-0.44585413,0.15376687,0.0386906,1.8399799,-0.6825256,-13.442527
14200000,-0.45663226,0.14918007,0.036047537,1.8967301,-0.6779302,-13.478274
14204000,-0.46810952,0.14347394,0.034347393,1.9310356,-0.7106469,-13.51552
14212000,-0.4798251,0.15043882,0.033237,1.8967856,-0.8284009,-13.408656
14216000,-0.48352882,0.1408883,0.026257128,1.8669509,-0.77033836,-13.389544
14224000,-0.49786824,0.13551368,0.037060846,1.9508663,-0.6795338,-13.237443
14228000,-0.50397724,0.13288948,0.026779734,1.9100367,-0.63417506,-13.260628
14236000,-0.5099823,0.13076477,0.02090848,2.093137,-0.6717815,-13.237019
14240000,-0.51717407,0.13271864,0.020189563,2.0749948,-0.67821115,-13.259566
14244000,-0.52429116,0.13338964,0.019760532,2.0267036,-0.6633446,-13.193947
14248000,-0.52599484,0.12585361,0.020175848,1.9655277,-0.6691276,-13.164512
14252000,-0.52278006,0.12045585,0.016990522,1.959874,-0.69601476,-13.142256
14256000,-0.52413964,0.12591705,0.020643335,1.9651703,-0.643001,-13.052822
14264000,-0.53477436,0.121891335,0.017728698,2.0527887,-0.73497105,-13.036265
14268000,-0.5324778,0.119612195,0.010047047,2.0329347,-0.72280127,-13.073291
14272000,-0.5349721,0.11608531,0.011221403,2.034376,-0.6794894,-12.9781
14280000,-0.5427331,0.11223515,0.013782121,2.0246758,-0.800885,-12.90385
14288000,-0.5363093,0.105314545,0.00997229,2.0097418,-0.73574513,-12.811078
14292000,-0.5400703,0.10942903,0.010120729,2.0677133,-0.74925596,-12.785192
14296000,-0.54007614,0.110594355,0.00870164,2.1093163,-0.7131724,-12.777397
14300000,-0.5333731,0.10938194,0.00650512,2.1270187,-0.6193958,-12.788095
14304000,-0.53374463,0.09860469,0.014699508,2.1376722,-0.66719455,-12.739873
14308000,-0.54245204,0.09533141,0.010262763,2.1758032,-0.756244,-12.694538
14316000,-0.5349455,0.09249729,0.003043051,2.1679506,-0.8532791,-12.5901985
14320000,-0.53996825,0.092589505,0.001681468,2.237254,-0.8045546,-12.55353
14328000,-0.53400576,0.098157935,0.003603302,2.1072438,-0.8164362,-12.466194
14332000,-0.54007244,0.09713739,0.008186881,2.196702,-0.8061386,-12.441279
14336000,-0.5396417,0.08845662,0.00393222,2.213216,-0.8061313,-12.417718
14340000,-0.53119725,0.08500529,0.001079491,2.2036767,-0.8565938,-12.406101
14344000,-0.5295893,0.08081219,0.005273843,2.1754644,-0.79441017,-12.330481
14348000,-0.53091526,0.076929145,0.004943864,2.2153344,-0.7737645,-12.285777
14356000,-0.5309133,0.07947683,0.000600952,2.2031116,-0.89592654,-12.302822
14360000,-0.525223,0.07590587,-0.000297845,2.2286768,-0.7944499,-12.298087
14364000,-0.52352625,0.07566269,-0.002521372,2.2323992,-0.8743077,-12.218901
14372000,-0.5184776,0.07370611,-0.011236344,2.355049,-0.8219286,-12.115813
14380000,-0.51743007,0.07420411,-0.003265876,2.2943423,-0.86939067,-12.1782
14388000,-0.51675594,0.06214319,-0.015031498,2.2754815,-0.8286244,-11.977098
14392000,-0.51342684,0.0676196,-0.006773654,2.3101728,-0.8496486,-11.925111
14396000,-0.51265866,0.073584296,-0.000164781,2.3450887,-0.87021154,-11.937753
14400000,-0.5010392,0.07089694,0.001291721,2.369862,-0.8578876,-11.893709
14404000,-0.49819884,0.064027034,-0.006075895,2.3643038,-0.82583284,-11.838044
14408000,-0.50425136,0.061506666,-0.008965139,2.3282437,-0.8361333,-11.822074
14416000,-0.49987173,0.061303675,-0.00719914,2.3707628,-0.9018218,-11.767674
14420000,-0.4958276,0.059743725,-0.01224422,2.3815196,-0.7915226,-11.784114
14424000,-0.4949525,0.059033044,-0.013558954,2.4495978,-0.74378234,-11.699141
14428000,-0.48874727,0.055466745,-0.009777932,2.4873686,-0.8303074,-11.637609
14436000,-0.49437314,0.06392876,-0.00888208,2.4414144,-0.8867178,-11.613944
14444000,-0.4897169,0.051398497,-0.013075925,2.333795,-0.87218994,-11.496909
14452000,-0.4819679,0.054955393,-0.011343879,2.3872643,-0.89686155,-11.446521
14460000,-0.4775679,0.049978796,-0.012092168,2.4509878,-0.88735825,-11.468159
14464000,-0.47328013,0.054851077,-0.008453323,2.4875655,-0.91550475,-11.367877
14472000,-0.4673457,0.049064092,-0.00878725,2.5010815,-0.9409612,-11.345375
14480000,-0.46323317,0.052392274,-0.019957226,2.4841182,-0.93117404,-11.363984
14484000,-0.46650022,0.046917412,-0.017883254,2.4731057,-0.93904835,-11.333268
14488000,-0.46410197,0.04265671,-0.014242275,2.48449,-0.93162847,-11.39667
14492000,-0.46307275,0.047656443,-0.016588833,2.4710457,-0.927919,-11.326223
14496000,-0.4567356,0.051683653,-0.017326958,2.5446396,-0.92193425,-11.214319
14504000,-0.449966,0.046575133,-0.021908956,2.4419014,-0.89601034,-11.264466
14508000,-0.44535658,0.04917368,-0.016298007,2.5275,-0.97122586,-11.246708
14512000,-0.44620618,0.046853084,-0.012897882,2.5660067,-0.9565352,-11.157156
14516000,-0.44314405,0.050441697,-0.015648505,2.5205197,-0.96347165,-11.147331
14520000,-0.44374415,0.048651207,-0.018110976,2.4761457,-0.9323298,-11.173992
14524000,-0.44272578,0.042824313,-0.021449175,2.5040634,-0.97156674,-11.09698
14528000,-0.4358103,0.040634733,-0.027213654,2.527205,-1.0087997,-11.112473
14532000,-0.43440676,0.05054532,-0.03401299,2.5738132,-0.9459412,-11.178995
14536000,-0.43301788,0.05148957,-0.030329011,2.6298623,-0.9773558,-11.108132
14540000,-0.43146074,0.042816862,-0.024867592,2.623551,-0.9835031,-10.999826
14544000,-0.43220553,0.037368182,-0.02443906,2.5642617,-0.88490325,-11.038358
14548000,-0.43305215,0.038218644,-0.023270385,2.5444047,-0.9021976,-11.042617
14556000,-0.41956758,0.04586422,-0.017702244,2.573603,-0.94412124,-11.064026
14564000,-0.41251424,0.041442163,-0.030148657,2.5991297,-0.9661953,-10.865961
14568000,-0.41103813,0.045047134,-0.031390544,2.5970695,-0.95426446,-10.912003
14572000,-0.41330233,0.04642877,-0.028806863,2.639076,-0.9212603,-11.029223
14576000,-0.40647265,0.046900243,-0.02815947,2.6383226,-0.9431938,-11.034689
14580000,-0.40549237,0.04028166,-0.025950784,2.5869298,-0.9915866,-11.067984
14584000,-0.40310875,0.041723724,-0.022430448,2.6325727,-0.9126767,-10.956729
14588000,-0.40012035,0.043123104,-0.027021589,2.691418,-0.88862765,-10.840288
14592000,-0.3962775,0.040026177,-0.025013803,2.686293,-0.8832514,-10.893448
14600000,-0.39533,0.039118357,-0.02895698,2.6593783,-0.95489985,-10.913148
14604000,-0.39149478,0.03803622,-0.031924017,2.581155,-0.964644,-10.938244
14608000,-0.39011234,0.038170647,-0.031885665,2.5747664,-0.95744145,-10.8940525
14612000,-0.3842755,0.037730217,-0.028722571,2.6026483,-0.98718613,-10.853332
14620000,-0.38161972,0.0386772,-0.031117335,2.7204392,-0.96393985,-10.779127
14624000,-0.38141593,0.044132434,-0.03147108,2.7369816,-0.979427,-10.853894
14628000,-0.38173527,0.042508353,-0.030436635,2.753553,-0.97469616,-10.80389
14636000,-0.36578,0.042339694,-0.028524397,2.7213254,-0.9703552,-10.6882715
14640000,-0.3639508,0.041344073,-0.029906724,2.7108095,-0.9082302,-10.76179
14644000,-0.3635098,0.04010714,-0.036206104,2.7696269,-0.9591218,-10.805575
14652000,-0.36221284,0.036312573,-0.042306792,2.694731,-0.9061247,-10.722393
14660000,-0.3542557,0.034976754,-0.03763588,2.6987798,-1.0333267,-10.801883
14664000,-0.35348043,0.04002364,-0.03829342,2.778666,-1.0242227,-10.773314
14668000,-0.34819162,0.041470632,-0.03896056,2.807421,-1.0924041,-10.73858
14672000,-0.34688416,0.039452787,-0.040322203,2.8325717,-1.0193149,-10.7416
14676000,-0.34793577,0.03932777,-0.046989713,2.82787,-0.86085004,-10.750419
14680000,-0.34225586,0.031026477,-0.04888529,2.7546463,-0.9053636,-10.788588
14688000,-0.3409459,0.045776576,-0.04413687,2.7545936,-1.018655,-10.711408
14692000,-0.34275463,0.044418983,-0.042143542,2.7193289,-1.0321941,-10.651926
14696000,-0.34394664,0.041172408,-0.04510984,2.7175026,-0.9771253,-10.671258
14704000,-0.33661816,0.03496981,-0.050747477,2.7964687,-0.86466765,-10.6704035
14708000,-0.33247516,0.04184487,-0.050608493,2.748215,-0.9006318,-10.6414995
14712000,-0.32607037,0.04712941,-0.052892003,2.7187734,-0.9934032,-10.707291
14716000,-0.32426843,0.04549056,-0.048030384,2.764863,-0.92853695,-10.713478
14720000,-0.3227565,0.04586724,-0.04725205,2.760949,-0.89818144,-10.712516
14728000,-0.31955498,0.043659557,-0.04895622,2.8268917,-1.0321409,-10.704952
14732000,-0.32097408,0.040069517,-0.045802996,2.810704,-0.99127966,-10.713042
14736000,-0.32034382,0.036994863,-0.048074383,2.810704,-0.99127966,-10.713042
14740000,-0.31892666,0.032312926,-0.048094757,2.8057044,-0.9600605,-10.6917095
14744000,-0.32102865,0.037103128,-0.042271376,2.7997537,-0.96573716,-10.715762
14748000,-0.32015267,0.044617802,-0.046642214,2.8153093,-1.0106251,-10.666581
14752000,-0.31587407,0.040857572,-0.05293595,2.7708101,-1.0384669,-10.597787
14756000,-0.30668533,0.038469587,-0.054776702,2.8188195,-1.0052347,-10.557163
14764000,-0.298284,0.03499007,-0.055472918,2.8042562,-0.98667264,-10.662383
14768000,-0.2986913,0.032819074,-0.05373918,2.8154325,-0.9837669,-10.6758375
14772000,-0.29308143,0.03321824,-0.058946952,2.7880976,-0.97961056,-10.664638
14776000,-0.2894344,0.030272389,-0.058147542,2.8506544,-1.0439786,-10.546813
14780000,-0.29382804,0.03232266,-0.05604098,2.9455113,-1.0706081,-10.520305
14788000,-0.28683615,0.034755994,-0.061731394,2.8371463,-1.0217681,-10.541949
14792000,-0.2921414,0.03448542,-0.061726257,2.8465438,-0.9777891,-10.600341
14796000,-0.2868654,0.033732016,-0.057830136,2.885766,-0.992301,-10.51428
14800000,-0.28275204,0.03245468,-0.060215812,2.8469436,-0.9836704,-10.546178
14804000,-0.28427476,0.031623427,-0.06470962,2.7727518,-1.0266271,-10.555843
14808000,-0.27857426,0.03671479,-0.06153394,2.8279223,-1.0826714,-10.505667
14816000,-0.2714174,0.031691488,-0.06604312,2.9125507,-1.0810382,-10.533865
14820000,-0.2723804,0.036542628,-0.06483538,2.9090233,-1.0805928,-10.548207
14824000,-0.27351686,0.032365263,-0.06668252,2.8928235,-1.0637689,-10.567488
14828000,-0.26395234,0.02725587,-0.07055822,2.8815806,-0.9849384,-10.584654
14832000,-0.2584881,0.031825386,-0.06923846,2.9062548,-0.88415885,-10.547117
14840000,-0.26481083,0.030925408,-0.07048063,1.5983014,-0.9568081,-10.632345
14844000,-0.2764122,0.039492574,-0.07184177,0.9593082,-0.8538329,-10.691822
14852000,-0.28718573,0.04660956,-0.0686596,-0.018593473,-0.77506036,-10.744999
14856000,-0.29248387,0.0477774,-0.064761534,-0.29153162,-0.71390414,-10.885843
14860000,-0.30753323,0.046582095,-0.05965847,-0.49296498,-0.76411724,-10.960303
14864000,-0.32031026,0.04790035,-0.056251295,-0.6878768,-0.7365565,-10.981955
14868000,-0.3290874,0.051305175,-0.052307256,-0.81482095,-0.648336,-10.957981
14872000,-0.33658612,0.058965847,-0.051292144,-0.8403027,-0.6144025,-10.854916
14876000,-0.34338292,0.06452677,-0.052519582,-0.9705692,-0.5600413,-10.864528
14884000,-0.36123767,0.074350774,-0.040369563,-1.1166989,-0.60883623,-11.041205
14888000,-0.3700542,0.074585475,-0.04171249,-1.0980624,-0.5534431,-10.984351
14892000,-0.38056877,0.08004818,-0.043377172,-1.1326238,-0.5416051,-10.951171
14896000,-0.3884798,0.08009637,-0.040464666,-1.1918261,-0.52479243,-11.047787
14900000,-0.39444593,0.0824606,-0.031376842,-1.2308438,-0.4892712,-11.051085
14904000,-0.40204152,0.08652467,-0.027427947,-1.2938454,-0.50484467,-11.033744
14908000,-0.4048233,0.08557712,-0.031038597,-1.2460632,-0.5188033,-11.032528
14912000,-0.41220948,0.09027977,-0.02652041,-1.1370413,-0.5392514,-11.07111
14916000,-0.42114538,0.09703466,-0.019319355,-1.2063961,-0.5535537,-11.091789
14920000,-0.42231333,0.10186849,-0.020759828,-1.2272098,-0.5493891,-11.082665
14924000,-0.42292878,0.100859046,-0.020151509,-1.2371012,-0.552901,-11.129462
14928000,-0.42437539,0.09681793,-0.013873502,-1.1955278,-0.47115442,-11.133441
14932000,-0.42906335,0.09548617,-0.011505095,-1.1522464,-0.4676138,-11.125384
14936000,-0.42823225,0.09809639,-0.007357282,-1.2181257,-0.49565688,-11.200474
14940000,-0.42716438,0.10118801,-0.006321636,-1.1447563,-0.4604202,-11.213295
14948000,-0.42209497,0.1005729,-0.00023113,-1.0413005,-0.47031146,-11.2508955
