timestamp,control[0],control[1],control[2],control[3],control[4],output[2],output[3],output[4],output[5],output[6],output[7],indicated_airspeed_m_s,true_airspeed_m_s,indicated_airspeed_m_s.1,equivalent_airspeed_m_s,true_airspeed_m_s.1,equivalent_ground_minus_wind_m_s,true_ground_minus_wind_m_s,Unnamed: 6,Unnamed: 7,differential_pressure_raw_pa,differential_pressure_filtered_pa,temperature,gyro_bias[0],gyro_bias[1],gyro_bias[2],accel_bias[0],accel_bias[1],accel_bias[2],instance_count,seq_reached,seq_current,seq_total,item_changed_index,item_do_jump_remaining,valid,warning,finished,failure,stay_in_failsafe,flight_termination,item_do_jump_changed,execution_mode,nav_roll,nav_pitch,nav_bearing,target_bearing,xtrack_error,wp_dist,acceptance_radius,rollspeed_integ,pitchspeed_integ,yawspeed_integ,additional_integ1,x,y,z,temperature.1,pressure,temperature.2,gyro_rad[0],gyro_rad[1],gyro_rad[2],accelerometer_m_s2[0],accelerometer_m_s2[1],accelerometer_m_s2[2],x.1,y.1,z.1,temperature.3,altitude_sp,altitude_filtered,height_rate_setpoint,height_rate,airspeed_sp,airspeed_filtered,airspeed_derivative_sp,airspeed_derivative,throttle_integ,pitch_integ,timestamp_sample,baro_device_id,baro_alt_meter,baro_temp_celcius,baro_pressure_pa,rho,xyz[0],xyz[1],xyz[2],xyz[0].1,xyz[1].1,xyz[2].1,roll_body,pitch_body,yaw_body,q_d[0],q_d[1],q_d[2],q_d[3],thrust_body[0],lat,lon,alt,vel_m_s,vel_n_m_s,vel_e_m_s,vel_d_m_s,cog_rad,ground_contact,maybe_landed,landed,ref_lat,ref_lon,x.2,y.2,z.2,vx,vy,vz,ax,ay,az,yaw,dist_bottom,roll,pitch,yaw.1,thrust_body[0].1,timestamp.1,isTakeoff,isClimbing,isDescending,isCruise,isLand
51001241.0,-0.040104936,0.054289157000000005,0.164273655,0.0,0.0,1588.0,1500.0,1000.0,1520.0,1479.0,1523.0,14.99208608,15.35943411,15.15876674,15.19802392,15.57042042,14.91060907,15.27596328,,,140.7176126,140.7176126,11.75451306,-0.001520493,-0.005750725999999999,8.87e-05,-0.19990902,0.185639326,-0.036491372,2.0,1.149229846,2.149229846,11.0,0.0,0.0,1.0,0.0,0.0,0.0,0.0,0.0,0.0,0.0,0.316432047,-0.114134036,-3.0333958739999995,-3.1326726560000004,-5.167687462,257.8566645,43.40578196,-0.011546604,0.013778355,0.070126757,0.0,-1.249029963,0.117662407,-9.312856266,-7.209999999999999e-21,954.6562306,11.75448808,-0.14978376,0.024527596,0.3461091020000001,-1.3699507990000002,0.197476363,-9.29345858,-0.148357775,0.031852724,0.34588346299999995,-7.209999999999999e-21,94.5550908,98.91674509,-2.523064051,-2.777665022,15.36681228,15.31432329,0.001049768,-0.241396847,-0.1,75.46683854,46161605.92,6620172.0,499.4366495,11.756378,95468.2132,1.1343203309999998,0.211873733,-0.463318526,-0.53470989,-0.148300364,0.093112314,0.36932326,0.283790876,-0.136941673,-3.027013223,0.06620652,-0.05954029,-0.144734696,-0.985452589,0.0,398728092.8,327429979.6,500506.6139,15.41196812,-13.86779519,6.708463547000001,1.440512002,2.691042709,0.0,0.0,0.0,39.8714138,32.7364368,152.5418005,561.0748662999998,-100.0680634,-14.18034594,5.706333363,1.829409514,-1.4322883569999998,-5.185442631,1.931055517,2.777064119,100.1891886,-0.181320073,0.083135111,0.137212917,0.0,51001241.0,0.0,0.0,1.0,0.0,0.0
51028560.0,-0.040405076096192385,0.05599027626052104,0.16070772003607214,0.0,0.0,1587.0238275531062,1500.0,1000.0,1520.8436873747496,1478.1563126252504,1523.3974560601202,15.018044838757515,15.386043925430862,15.135677766973947,15.175216679498998,15.547032132004007,14.884087571763528,15.248769978817634,,,140.27832424188378,140.27832424188378,11.754708154268538,-0.0015200154729458916,-0.005750580885771544,8.819378757515029e-05,-0.1999010640280561,0.18561960396392785,-0.03638979878957915,2.0,1.1514238718917835,2.1514238718917835,11.0,0.0,0.0,1.0,0.0,0.0,0.0,0.0,0.0,0.0,0.0,0.3089735139759519,-0.11606023924048096,-3.032694428098196,-3.1325025930921844,-5.201216478238477,257.4040748198397,43.431294053787575,-0.01154262854509018,0.013949219410821643,0.06969499914228457,0.0,-1.3185750846152304,0.17039370907815632,-9.214341487276553,-7.209999999999999e-21,954.6654038440881,11.754842960220442,-0.15522167441683365,0.02976819471943888,0.3443829868136273,-1.3375856258717433,0.24016122058717435,-9.203477313507014,-0.15129686711823645,0.030387512384769538,0.34512547991983966,-7.209999999999999e-21,94.4728927688978,98.83755606991984,-2.5159911320400803,-2.815362971755511,15.366748851583164,15.327250428256512,0.0007899561603206414,-0.21249087141482967,-0.1,75.34485409372745,46192531.559138276,6620172.0,499.35788183426854,11.75637561236473,95469.11904182365,1.1343310669218436,-0.02542498656513023,-0.500106064521042,-0.45658837489979964,-0.1557152235470942,0.07168769486973949,0.3649811115591182,0.2748617638216433,-0.1503272481963928,-3.0271674153046093,0.06674287906212426,-0.06645198705210421,-0.1406409426212425,-0.9855600823647295,0.0,398728054.4122245,327430002.63266534,500460.0290266533,15.391458898296593,-13.920532898196392,6.545855872547094,1.4947145699939879,2.7020113459759516,0.0,0.0,0.0,39.8714138,32.7364368,152.1342815274549,561.232194590581,-100.01562308316633,-14.218476188416833,5.563171209456914,1.8865385660480962,-1.3721752974488979,-5.082080605078157,1.9820081902585172,2.785986496022044,100.13674980180362,-0.17549257159519038,0.08299490703206412,0.1352096015771543,0.0,51028560.44088177,0.0,0.0,1.0,0.0,0.0
51055880.0,-0.040363951126252504,0.060036109152304604,0.15654063461122245,0.0,0.0,1584.4798515971945,1500.0,1000.0,1520.312625250501,1478.687374749499,1524.5220253787575,15.048119315691382,15.41681826951904,15.112588800821642,15.152409438997996,15.52364383713427,14.857566073527055,15.221576677635271,,,139.8390358150301,139.8390358150301,11.754903255410822,-0.0015195379458917836,-0.005750435084168336,8.76875751503006e-05,-0.19989310874348698,0.18559988124048096,-0.036288226266533066,2.0,1.1536178977835672,2.153617897783567,11.0,0.0,0.0,1.0,0.0,0.0,0.0,0.0,0.0,0.0,0.0,0.3015149816392786,-0.11798644248096192,-3.0319929828837675,-3.1323325308717433,-5.234745494476955,256.95148520841684,43.45680614757515,-0.011541515318637275,0.014099291422845692,0.06925011586372745,0.0,-1.3881202069178356,0.2231250111563126,-9.115826708553106,-7.209999999999999e-21,954.6745770194389,11.755197840440882,-0.16030194293987976,0.025760130440881764,0.33411070699799605,-1.3118658158537073,0.1834536126713427,-9.094243022593187,-0.15423595923647293,0.028922300769539083,0.3443674975270541,-7.209999999999999e-21,94.39069474466933,98.75836704983968,-2.508918213767535,-2.8530609221983965,15.366685423166333,15.340177559639278,0.0005301443206412826,-0.18358489651703402,-0.1,75.22286964745491,46223457.19827655,6620172.0,499.39841561743486,11.756356494028056,95468.65611430861,1.1343255739258518,-0.2124414919038076,-0.06998571569739487,0.010922228815631208,-0.1546322986492986,0.05497214611022044,0.35914712826653306,0.2659254665150301,-0.16179186735871742,-3.02734138750501,0.06709296300400802,-0.07241951233466934,-0.13649419058717435,-0.9856986182605211,0.0,398728016.02444893,327430025.66533065,500413.4440845691,15.370949669719439,-13.973270606392784,6.383248198094188,1.548917137987976,2.7129799829519037,0.0,0.0,0.0,39.8714138,32.7364368,151.7267626236473,561.3895228811623,-99.96318279382766,-14.256606436833668,5.420009055913828,1.943667618783567,-1.3120622378977955,-4.978718578468938,2.032960863517034,2.794908873731463,100.08431100360721,-0.1740559651002004,0.09196672352304609,0.12807673833867736,0.0,51055879.881763525,0.0,0.0,1.0,0.0,0.0
51087448.0,-0.039618517993987974,0.06091770768937876,0.15468943800400803,0.0,0.0,1581.5967714509018,1500.0,1000.0,1518.937875751503,1480.062124248497,1527.6553106212425,15.059583381643288,15.4285234345491,15.089499830921845,15.129602198496993,15.500255546012024,14.831044575290582,15.194383376452906,,,139.3997474256513,139.3997474256513,11.75509835280561,-0.0015190604188376755,-0.005750289657314629,8.71813627254509e-05,-0.19988515361523046,0.18558015889178356,-0.03618665336873748,2.0,1.1558119236753508,2.155811923675351,11.0,0.0,0.0,1.0,0.0,0.0,0.0,0.0,0.0,0.0,0.0,0.29405644892785576,-0.11991264572144289,-3.0312915372945892,-3.132162468276553,-5.268274510715431,256.49889561262523,43.482318246673344,-0.011539323308617235,0.014205578170340682,0.06883050189378759,0.0,-1.4344184353887777,0.26482220074949897,-9.036252966803607,-7.209999999999999e-21,954.682472071944,11.755583984288577,-0.16079250866533065,0.03172504380561122,0.33116636955711426,-1.3522652164509017,0.1888358208056112,-9.026022793761523,-0.15644559451102205,0.02834878229058117,0.3431097677755511,-7.209999999999999e-21,94.30849671669338,98.67917802975953,-2.5018452951202406,-2.8907588722665327,15.366621994749499,15.353104694769538,0.0002703324809619239,-0.15467892124448895,-0.1,75.10088520118236,46254382.83741482,6620172.0,499.3652842222445,11.756348,95469.02744901803,1.1343300301883767,-0.28200003658316636,-0.20200905676352685,-0.1159931831823646,-0.15065852515831663,0.04295755627855712,0.3512316044008016,0.2569720054228457,-0.1621266238236473,-3.0275436535891784,0.06670104505210421,-0.07289643131863727,-0.13208012552905812,-0.986294736757515,0.0,398727977.63667333,327430048.6448898,500366.8591799599,15.350440444889779,-14.026008314589177,6.220640523641282,1.603119705981964,2.7239486199278558,0.0,0.0,0.0,39.8714138,32.7364368,151.31142044689378,561.5465035915831,-99.90847559240481,-14.294489667014027,5.27636827944489,2.002728463789579,-1.2571664733867736,-4.878159485911824,2.0767030407835674,2.8039324869078155,100.02960440551102,-0.17802994749298598,0.09509587760721443,0.1202938777254509,0.0,51087447.81963928,0.0,0.0,1.0,0.0,0.0
51118519.0,-0.03987442990981964,0.05819823693587175,0.15447375230861723,0.0,0.0,1578.875751503006,1500.0,1000.0,1518.749498997996,1480.250501002004,1530.0,15.025488713527055,15.393516106653307,15.07349322244489,15.11372443973948,15.48395690769539,14.812895464288577,15.175758145450901,,,139.09388075691382,139.09388075691382,11.755379542024048,-0.0015185832665330662,-0.005750144168336673,8.667515030060121e-05,-0.19987719848697394,0.18556043685571144,-0.03608508053306613,2.0,1.1580059495671342,2.1580059495671344,11.0,0.0,0.0,1.0,0.0,0.0,0.0,0.0,0.0,0.0,0.0,0.2865979159038076,-0.12183884896192385,-3.030590091767535,-3.131992405743487,-5.301803526953908,256.0463060168337,43.507830345150296,-0.011534821316633265,0.01427024184769539,0.06843823273947897,0.0,-1.4323133682925853,0.28354481834468936,-8.996117122887776,-7.209999999999999e-21,954.6877057927856,11.756035218677356,-0.15993903808617235,0.039399617128256514,0.33151749528657315,-1.375600680496994,0.21611984013426855,-8.978990576583167,-0.1571363974008016,0.029631895623246498,0.3408114933086172,-7.209999999999999e-21,94.22629868559119,98.59998900593186,-2.494772376160321,-2.9284568223967935,15.36655856258517,15.366031833026051,1.0521016032064188e-05,-0.12577294603406813,-0.1,74.97890075490982,46285308.4803006,6620172.0,499.3837573965932,11.756340145250501,95468.81618472945,1.1343275439258518,-0.15868124636673353,-0.24353246288777564,-0.023302752332665544,-0.1509331836312625,0.03760185023647295,0.34426408995190383,0.24834717969338677,-0.1569180531763527,-3.02759148650501,0.06605046524448897,-0.07061390089979959,-0.12770338618436874,-0.9870829763687375,0.0,398727939.2863727,327430071.6306613,500320.2743066132,15.329931219438878,-14.078746022785571,6.058032848813627,1.657322273975952,2.7349172565290583,0.0,0.0,0.0,39.8714138,32.7364368,150.879789147495,561.7027606607213,-99.84904833378758,-14.331858564288577,5.1317309421543085,2.0658115717054106,-1.2131338493667334,-4.783436494747495,2.1054319528456915,2.8131668878957914,99.97017587092185,-0.1813597393026052,0.10263423899398798,0.1113379870260521,0.0,51118518.76352705,0.0,0.0,1.0,0.0,0.0
51146712.0,-0.04125910041082164,0.057339865825651294,0.15276910728456913,0.0,0.0,1577.1481299078157,1500.0,1000.0,1519.8518700921843,1479.1481299078157,1529.7074981723447,14.977529615971944,15.344301416172344,15.069676891062125,15.109773812845692,15.479861085531063,14.809157041322646,15.171880414408818,,,139.01766158737473,139.01766158737473,11.755808919539078,-0.0015181063647294588,-0.005749998428857716,8.61689378757515e-05,-0.19986924335871745,0.18554071460120244,-0.03598350794789579,2.0,1.1601999754589178,2.1601999754589176,11.0,0.0,0.0,1.0,0.0,0.0,0.0,0.0,0.0,0.0,0.0,0.27913938287975953,-0.1237650522024048,-3.029888646490982,-3.131822343679359,-5.335332543192385,255.5937164210421,43.53334243893787,-0.011529719501002005,0.014303778759519038,0.0680840545991984,0.0,-1.3867639716472946,0.2816466316492986,-8.99137872485972,-7.209999999999999e-21,954.690550790982,11.756544873346694,-0.16100464501402806,0.04061074214829659,0.32833069283767535,-1.3487003154328656,0.19809925742284573,-8.938104113442886,-0.156463973501002,0.03258142731062124,0.33757927888577155,-7.209999999999999e-21,94.14722460541083,98.5196839244489,-2.493109345637275,-2.9643502945971947,15.366496176412825,15.379842651102205,-0.0002669423006012022,-0.09759585363727456,-0.1,74.85817530232464,46316234.125691384,6620172.0,499.48989506953905,11.756324846893788,95467.61113206412,1.134313201234469,0.02903771576152311,-0.06526230279158252,0.5405221531743489,-0.15619763556713426,0.03750535815831664,0.33959303211222447,0.2418558286753507,-0.15447728539478958,-3.025980451637275,0.06647389856513027,-0.06952184498396793,-0.12449944419639279,-0.9875440468416834,0.0,398727901.07034063,327430093.74589175,500271.6429855712,15.310338358196391,-14.128429325991984,5.898784961775551,1.7130520213106213,2.745667335210421,0.0,0.0,0.0,39.8714138,32.7364368,150.43353758436874,561.8583682509017,-99.78538458941884,-14.368765820360721,4.986199142442886,2.1325048578817634,-1.17885142598998,-4.693951690402805,2.1206857233386773,2.8225904818697396,99.9065091461523,-0.181349684254509,0.11646972298396793,0.10209074560721443,0.0,51146711.73346693,0.0,0.0,1.0,0.0,0.0
51177157.0,-0.0409066296513026,0.06588722762124248,0.14637828073947898,0.0,0.0,1577.6360073106212,1500.0,1000.0,1519.4189463707414,1479.5810536292586,1528.5577478476953,15.00809611521042,15.375662978657314,15.075386156653305,15.11514315741483,15.485300658637275,14.816679272965933,15.17952652466934,,,139.1208911248497,139.1208911248497,11.756354093446893,-0.0015176288376753506,-0.0057498533146292585,8.56627254509018e-05,-0.19986128823046093,0.18552099178356715,-0.0358819347995992,2.0,1.1623940014128256,2.162394001412826,11.0,0.0,0.0,1.0,0.0,0.0,0.0,0.0,0.0,0.0,0.0,0.2716808499178357,-0.12569125544288576,-3.0291872006513025,-3.1316522815531065,-5.368861559430862,255.1411268252505,43.558854532725455,-0.011527582953907817,0.014314305494989977,0.06780021665330661,0.0,-1.3445713852104209,0.2782540132965932,-8.9881948291002,-7.209999999999999e-21,954.6936960108217,11.757052228176352,-0.162672434246493,0.04287445542084168,0.322836986995992,-1.3708037069759518,0.15531923428056113,-8.940306029100201,-0.15583644058316634,0.03572643474348697,0.33425100565130267,-7.209999999999999e-21,94.07757766563125,98.436010931503,-2.5077717243647295,-2.9947983960521043,15.36643695983968,15.396320148697395,-0.0005976749659318634,-0.07161830803406816,-0.1,74.74124911272544,46347159.76482966,6620172.0,499.4523873705411,11.756317,95468.03106474949,1.1343181606472945,-0.08368139711823627,-0.865643459875752,0.23121650825450915,-0.1583309466553106,0.0370749038256513,0.3346597367775551,0.23979687433266533,-0.157336417252505,-3.0206573845791582,0.06919554564529058,-0.07067395177354709,-0.12373804353907816,-0.9873702724448898,0.0,398727863.1168336,327430113.1667335,500217.01323747495,15.293431509218436,-14.169159720501002,5.749385107072144,1.773258155288577,2.7557767898998,0.0,0.0,0.0,39.8714138,32.7364368,149.98840893567137,562.0130623226453,-99.72167516947897,-14.405490059639279,4.841246498088177,2.1988908613727456,-1.1450720315951903,-4.60573716716032,2.1332141736192387,2.8319880234188375,99.84279695637274,-0.18335753418236475,0.11539614891182365,0.09745041608817635,0.0,51177156.64529058,0.0,0.0,1.0,0.0,0.0
51204476.0,-0.03979891959318637,0.06155683005811625,0.14328984836272546,0.0,0.0,1577.063872529058,1500.0,1000.0,1520.7373875991984,1478.2626124008016,1527.156440488978,14.99139036274549,15.358374120100201,15.081095414428859,15.120512501983967,15.490740231743487,14.824201496793586,15.18717262711423,,,139.22412066232465,139.22412066232465,11.75689926735471,-0.0015171513106212425,-0.005749708200400801,8.51565130260521e-05,-0.1998533331022044,0.18550126974749498,-0.035780362432865725,2.0,1.1645880281482965,2.1645880281482968,11.0,0.0,0.0,1.0,0.0,0.0,0.0,0.0,0.0,0.0,0.0,0.26422231773747495,-0.12761745868336674,-3.0284857555931866,-3.131482218645291,-5.4023905756693384,254.68853722945892,43.58436662651303,-0.011526142779559118,0.014316702410821643,0.06751232942885771,0.0,-1.344609644745491,0.2560604726793587,-9.004567574783566,-7.209999999999999e-21,954.7006182126252,11.757530649539078,-0.16183703778757516,0.04783162749098196,0.3182827583286573,-1.335664574971944,0.17281732899398797,-9.013927617783567,-0.15577366518036073,0.041330661034068135,0.3297142505931864,-7.209999999999999e-21,94.01403471823647,98.3501572367535,-2.5330046630921843,-3.021720667727455,15.366379783146293,15.414524306813627,-0.0009628987935871741,-0.04706495020641284,-0.1,74.62678291651302,46378085.40396793,6620172.0,499.45001171563126,11.756317,95468.04145054109,1.1343182509218437,-0.41632235330460904,-0.08655896118837714,-0.01562716886973936,-0.15825074826452906,0.04681976129659318,0.33266638024048095,0.23189325572144287,-0.1610621212945892,-3.020781261509018,0.06905783308617235,-0.07279686156913827,-0.11992537979559117,-0.987697653519038,0.0,398727825.3196393,327430131.72785574,500160.6133270541,15.277317384088176,-14.207247868917836,5.602891680084169,1.8347853943366732,2.7656971782164326,0.0,0.0,0.0,39.8714138,32.7364368,149.55740727494987,562.1562637430861,-99.65739104272545,-14.439911829579158,4.70358000176954,2.26141105043487,-1.1176210741943886,-4.533503591853708,2.111456345222445,2.841057808655311,99.77851278743486,-0.1849558020460922,0.10863228023046093,0.09470052676953908,0.0,51204476.08617234,0.0,0.0,1.0,0.0,0.0
51234724.0,-0.040490334661322645,0.06002881899198397,0.141820813501002,0.0,0.0,1575.5010020040081,1500.0,1000.0,1519.0449384549095,1479.9550615450905,1528.4989979959919,14.880001623547093,15.244280967795591,15.086804679699398,15.125881846553106,15.4961798048497,14.831723720621243,15.194818737054108,,,139.3273501248497,139.3273501248497,11.757444441262525,-0.0015166737835671342,-0.005749562336673347,8.46503006012024e-05,-0.1998453779739479,0.1854815469619239,-0.035678789316633264,2.0,1.1667820541342686,2.1667820541342686,11.0,0.0,0.0,1.0,0.0,0.0,0.0,0.0,0.0,0.0,0.0,0.25676378480761525,-0.1295436619238477,-3.0277843097855714,-3.131312156486974,-5.435919591907815,254.23594763366737,43.60987872030061,-0.01152645343486974,0.01435003489779559,0.06722709618036071,0.0,-1.3864976993186373,0.21523565212625254,-9.0403205013006,-7.209999999999999e-21,954.7112833374749,11.75798038757515,-0.156119195745491,0.05102394452705411,0.3162229230360722,-1.3727601859619238,0.16913700965130263,-9.025635404198397,-0.15627055192184366,0.049371916294589174,0.3239799168056112,-7.209999999999999e-21,93.9504917708417,98.264303542004,-2.5582376025691382,-3.048642939402806,15.366322606452906,15.432728464929859,-0.001328122621242485,-0.022511593128256523,-0.1,74.5123167203006,46409011.04310621,6620172.0,499.36041131603207,11.75629451503006,95469.08828851703,1.1343306839458918,0.470826665378757,0.04682874050501,0.22747980438677348,-0.15890763941683367,0.05133408036673347,0.3313639486052104,0.2240383125731463,-0.15355495718837675,-3.020994840727455,0.06827384028256514,-0.06936464443486974,-0.11584504972344689,-0.9884788794709419,0.0,398727787.5224449,327430150.36392784,500104.2133416834,15.261203251462925,-14.24533600983968,5.456398253845691,1.8963126333847695,2.775617566533066,0.0,0.0,0.0,39.8714138,32.7364368,149.14040520621242,562.288076151503,-99.59253740915831,-14.472051907214428,4.5731339097274555,2.3201003065310624,-1.0964414522244488,-4.477106768482966,2.0557216039158317,2.849802796252505,99.71366179488979,-0.18387302954909818,0.11573114951302604,0.08898931669338678,0.0,51234723.81963928,0.0,0.0,1.0,0.0,0.0
51263077.0,-0.041178873054108216,0.06167326393186373,0.13913833974549097,0.0,0.0,1572.627254509018,1500.0,1000.0,1519.3613375911823,1479.6386624088177,1529.5931863727455,14.947883316993988,15.31379820977956,15.092513945911824,15.131251191122246,15.501619377955912,14.839245944448898,15.202464842004009,,,139.43057963727455,139.43057963727455,11.757989615170342,-0.0015161968496993988,-0.005749416971943888,8.414408817635271e-05,-0.19983742225250503,0.18546182467535072,-0.0355772166993988,2.0,1.168976080026052,2.168976080026052,11.0,0.0,0.0,1.0,0.0,0.0,0.0,0.0,0.0,0.0,0.0,0.24930525178356713,-0.13146986516432865,-3.027082864476954,-3.1311420938296592,-5.469448608146292,253.78335803787576,43.635390814088176,-0.011524861100200401,0.014417508108216433,0.06693652677755511,0.0,-1.4336449521402805,0.17206946751703409,-9.078508905088176,-7.209999999999999e-21,954.7224188296593,11.758426521022045,-0.16097572481162326,0.0582722574769539,0.3166140070681363,-1.382977744521042,0.11840601183366736,-9.052887625863727,-0.15683776994388776,0.05771942920641282,0.31809508515631263,-7.209999999999999e-21,93.8869488234469,98.17844984725451,-2.583470541547094,-3.0755652110781564,15.366265429759519,15.450932617114228,-0.0016933464488977955,0.0020417644488977867,-0.1,74.39785052408818,46439936.68224449,6620172.0,499.44457570320645,11.756287,95468.1159175551,1.134319095799599,0.19982151925651337,0.4772859197414827,-0.363466440573146,-0.15654494132064128,0.05464847329859719,0.32559077251903806,0.21629100371743487,-0.14986294811422846,-3.02122061450501,0.06769801522845692,-0.06781447681362725,-0.11191296524448897,-0.9890823230200401,0.0,398727749.7252505,327430168.9501002,500047.8133468938,15.245089117895791,-14.283424155751502,5.309904827108217,1.9578398730260522,2.7855379548496995,0.0,0.0,0.0,39.8714138,32.7364368,148.72516244448897,562.4184573797595,-99.52761220062123,-14.503905248116233,4.443595194693387,2.3783081358156313,-1.0760499392525051,-4.422700125168337,1.9957170366553107,2.858506967034068,99.64873957050101,-0.18606916231462925,0.1149298581743487,0.08414162500400801,0.0,51263077.13426854,0.0,0.0,1.0,0.0,0.0
51292182.0,-0.03959795181563127,0.061428474839679365,0.1386455675791583,0.0,0.0,1570.563126252505,1500.0,1000.0,1519.3539091623247,1479.6460908376753,1531.310621242485,14.996782636793588,15.363845550621242,15.098223207755511,15.136620535691383,15.507058955430862,14.846768172645291,15.210110948817634,,,139.5338091747495,139.5338091747495,11.758534789078157,-0.0015157197294589178,-0.005749271420841683,8.363787575150301e-05,-0.19982946671743487,0.1854421022024048,-0.03547564389579158,2.0,1.1711701059178357,2.1711701059178354,11.0,0.0,0.0,1.0,0.0,0.0,0.0,0.0,0.0,0.0,0.0,0.24184671875951905,-0.1333960684048096,-3.026381418981964,-3.1309720313587173,-5.5029776239478965,253.33076844208415,43.66090290787575,-0.011520127128256513,0.014511495052104209,0.0666442891703407,0.0,-1.4480304670240483,0.14263669443887778,-9.12903297736473,-7.209999999999999e-21,954.7329873470942,11.758881916192385,-0.16403133088977956,0.061747991196392786,0.31427000189178356,-1.3592836860320643,0.12567138815030052,-9.132480800503005,-0.15805754253707413,0.061877149004008015,0.3136348948657315,-7.209999999999999e-21,93.8234058760521,98.09259615250501,-2.608703480711423,-3.102487482753507,15.36620825743487,15.469136771162324,-0.002058570276553106,0.02659512227655307,-0.1,74.28338432350702,46470862.32138277,6620172.0,499.4519074667335,11.756282766693387,95468.02122559118,1.1343179974128257,-0.17496970301803613,0.5531778024108222,-0.5848528029318644,-0.1551123029298597,0.05880871932464929,0.3217961588056112,0.20870529365731463,-0.14788742997995993,-3.0214484136533066,0.06722740307214428,-0.06710500191983967,-0.10810199318637274,-0.9895872534388778,0.0,398727711.9280561,327430187.5549098,499991.4133957916,15.228974988697395,-14.321512299799599,5.163411400120241,2.019367112480962,2.7954583431663327,0.0,0.0,0.0,39.8714138,32.7364368,148.296995603006,562.5478204114229,-99.45868155194388,-14.536029476953908,4.310947922420842,2.4356651615911824,-1.0562442433947896,-4.395775710831662,1.92778659446493,2.8675068279478957,99.57981037068136,-0.18711140843687374,0.12108676571342683,0.0775052051462926,0.0,51292181.90380762,0.0,0.0,1.0,0.0,0.0
51321754.0,-0.0383820178997996,0.062223335903807624,0.13777283659118236,0.0,0.0,1569.438877755511,1500.0,1000.0,1519.2165858436874,1479.7834141563126,1532.438877755511,14.968163516813627,15.334487050941885,15.103932468336673,15.141989880260521,15.512498534168337,14.854290402104208,15.217757056893788,,,139.63703871222444,139.63703871222444,11.759079962985972,-0.0015152422024048097,-0.005749125743486974,8.31316633266533e-05,-0.19982151158917835,0.1854223796032064,-0.03537407096593186,2.0,1.1733641318096193,2.1733641318096195,11.0,0.0,0.0,1.0,0.0,0.0,0.0,0.0,0.0,0.0,0.0,0.23438818573547096,-0.1353222716452906,-3.0256799733607216,-3.130801969014028,-5.536506639623247,252.87817884629257,43.68641500166333,-0.011512728793587175,0.01462321225250501,0.06635129402004009,0.0,-1.4212000117454908,0.1304812674509018,-9.195075962218436,-7.209999999999999e-21,954.7428426192384,11.759348963066133,-0.16212420850901804,0.06286899073547093,0.3097043553727455,-1.3371364041322646,0.1834486591723447,-9.219111055601202,-0.16009826289779558,0.06076389093787575,0.31096697726653305,-7.209999999999999e-21,93.75986292865731,98.00674245775551,-2.633936420002004,-3.129409754428858,15.366151086372746,15.487340929278556,-0.002423794104208417,0.051148480104208416,-0.1,74.16891812166332,46501787.96052104,6620172.0,499.41055032905814,11.756271331242486,95468.50462785571,1.1343237863807616,-0.19406036734669335,0.21418590882364733,-0.2568830994729459,-0.1570581878016032,0.06562890646092184,0.32194011097194386,0.20128479751302605,-0.1463171812224449,-3.021677813472946,0.06678746575751503,-0.06658816180761523,-0.10438111377955912,-0.9900513396853707,0.0,398727674.1028056,327430206.1442886,499934.7709963928,15.212995555350702,-14.35955554719439,5.017007770086172,2.0808270036733467,2.8053728537274547,0.0,0.0,0.0,39.8714138,32.7364368,147.8525696286573,562.6759024248498,-99.3847118503006,-14.568494491322646,4.174389923380762,2.4919518321242484,-1.037175535733467,-4.403425369781562,1.8498849895791583,2.8768786830020043,99.5058401837074,-0.18734076265531063,0.1317235425811623,0.06990018037675351,0.0,51321753.8496994,0.0,0.0,1.0,0.0,0.0
51349073.0,-0.041038484813627256,0.06919841493787575,0.13204636569939882,0.0,0.0,1568.248496993988,1500.0,1000.0,1520.627254509018,1478.372745490982,1530.751503006012,14.97861200472946,15.345136036052104,15.109641734549099,15.147359224829659,15.51793810727455,14.861812625931863,15.225403160581163,,,139.7402682496994,139.7402682496994,11.759625136893787,-0.0015148021983967936,-0.005749026476953908,8.268757515030061e-05,-0.1998155994789579,0.18540281126252506,-0.03527489920440882,2.0,1.1755581577014027,2.1755581577014027,11.0,0.0,0.0,1.0,0.0,0.0,0.0,0.0,0.0,0.0,0.0,0.22692965283567135,-0.13724847488577155,-3.0249785281783566,-3.130631906230461,-5.570035655861725,252.42558925050102,43.7119270954509,-0.011504371823647294,0.014745671879759519,0.06605491995190381,0.0,-1.372876106482966,0.12733569200400802,-9.269211804511023,-7.209999999999999e-21,954.7523260028056,11.75982208731463,-0.16221091663527054,0.06770548780961924,0.30786472951503,-1.3465765711783566,0.1938430912164329,-9.247491988292586,-0.16256709379759518,0.05690190451102205,0.3092337000180361,-7.209999999999999e-21,93.69036712643286,97.91888050969939,-2.6621978088657317,-3.1546892395631265,15.366088422865731,15.505455867034069,-0.00278734380761523,0.07517046587575149,-0.1,74.05337502024048,46532896.13312625,6620172.0,499.5303759226453,11.756256,95467.15485581163,1.134307698490982,-0.3219933933867735,0.046828470444889685,-0.2072722347775553,-0.16031585443286572,0.0744280675771543,0.3214200466332665,0.19399227223446894,-0.14712537792985972,-3.0218957010941887,0.06647518561322646,-0.06724285128456912,-0.10078440983166334,-0.9904025352204409,0.0,398727635.93547094,327430224.2234469,499875.41929258517,15.198521226853709,-14.397097136733468,4.87160755793988,2.1415343301743484,2.815221682953908,0.0,0.0,0.0,39.8714138,32.7364368,147.3996648188377,562.8033163577153,-99.30811435941884,-14.60113721268537,4.035792544721443,2.5476803301022044,-1.018491154981964,-4.4291048384889775,1.7667835879378757,2.8864445276052106,99.42924120074149,-0.1903663766693387,0.1293363792224449,0.06532969639278557,0.0,51349073.29058116,0.0,0.0,1.0,0.0,0.0
51376393.0,-0.03836113404809619,0.06654085201603208,0.1328045031743487,0.0,0.0,1569.935871743487,1500.0,1000.0,1518.0961923847694,1480.9038076152306,1529.064128256513,15.037072368456915,15.40484528488978,15.115351000761523,15.152728569398798,15.523377680380761,14.869334849759518,15.233049271462924,,,139.84349778717436,139.84349778717436,11.760170310801604,-0.0015145794649298596,-0.005749192683366733,8.260320641282566e-05,-0.19982151710220442,0.18538413286773547,-0.035189627721442886,2.0,1.1777521835931863,2.1777521835931863,11.0,0.0,0.0,1.0,0.0,0.0,0.0,0.0,0.0,0.0,0.0,0.21947112065531063,-0.13917467812625253,-3.024277082276553,-3.130461844166333,-5.603564672100201,251.97299965470944,43.73743918923848,-0.011497132142284568,0.014872948869739479,0.06575564294789579,0.0,-1.3245522019398797,0.12419011583767536,-9.343347646803608,-7.209999999999999e-21,954.7618093863728,11.760295218757516,-0.1608976657715431,0.06104407821042084,0.3082608736412826,-1.318265103276553,0.17335109423446896,-9.316655364150302,-0.16503592469739478,0.053039918803607214,0.30750042276953904,-7.209999999999999e-21,93.58640237446893,97.81939012717434,-2.7079949009378756,-3.170456460693387,15.365993988937875,15.52305419012024,-0.003141199791583166,0.09611563603206413,-0.1,73.93159629026052,46565061.23338677,6620172.0,499.4736137328657,11.756256,95467.79386462926,1.1343152866152304,-0.34371010383567135,0.1293254469819639,-0.06135220050901802,-0.15619293646893787,0.0754062446252505,0.31352291935270543,0.18680553900400804,-0.15168432534068135,-3.022046032685371,0.06636166916432866,-0.0697486044749499,-0.09733913481763527,-0.9905817740721443,0.0,398727596.11342686,327430240.00040084,499803.1980503006,15.19119655242485,-14.432255707294589,4.73097383843487,2.198666781438878,2.824758507366733,0.0,0.0,0.0,39.8714138,32.7364368,146.9467599370742,562.9307303625252,-99.23151686853707,-14.633779941242484,3.897195166781563,2.603408827360721,-0.9998067742304609,-4.454784307196393,1.6836821870160321,2.896010371488978,99.35264222496994,-0.19001773889178356,0.11884270449098196,0.06458184009218437,0.0,51376392.731462926,0.0,0.0,1.0,0.0,0.0
51403712.0,-0.03907029913426854,0.06689662707014028,0.12969371704208418,0.0,0.0,1566.0698215631262,1500.0,1000.0,1519.7511842885772,1479.2488157114228,1533.058116232465,15.067128353426854,15.435630578116232,15.121060266973947,15.158097905851704,15.528817253486974,14.876857073587175,15.240695382344688,,,139.9467273246493,139.9467273246493,11.760715484709419,-0.0015144874028056113,-0.005749517156312625,8.276232464929859e-05,-0.19983451451503007,0.18536598608617236,-0.03511267456513026,2.0,1.17994620948497,2.17994620948497,11.0,0.0,0.0,1.0,0.0,0.0,0.0,0.0,0.0,0.0,0.0,0.21201258766332667,-0.1411008813667335,-3.0235756371863727,-3.1302917812905813,-5.637093688338678,251.52041005891783,43.76295128302605,-0.011491935316633266,0.015038636741482965,0.06540101161523047,0.0,-1.3437390281382766,0.14625826593386773,-9.38135813839479,2.8129266088376723,954.7702405004007,11.760790345190381,-0.16165491207214427,0.06179784526452906,0.3069349764348697,-1.3336970588016033,0.19158842588977956,-9.382559091420841,-0.16427371510621244,0.053938207324649295,0.30482893502004005,2.8129266088376723,93.47877837851703,97.71866525757515,-2.755653593771543,-3.185213853687375,15.365896178657316,15.540597663707414,-0.0034940258256513025,0.11673417003607212,-0.1,73.80915557601203,46595183.87563126,6620172.0,499.3534856002004,11.756234216032064,95469.1503240481,1.1343314609018036,-0.12617431824248523,-0.28516321203206363,-0.5936220317314624,-0.15700663736272544,0.07808005522044088,0.30975709074949903,0.1795830854228457,-0.1421785236533066,-3.022289071941884,0.06559003502004009,-0.0652839067234469,-0.09350187742885771,-0.9913018981342686,0.0,398727556.29138273,327430255.858517,499730.976808016,15.183871886112223,-14.467414277855712,4.590340119741484,2.255799232703407,2.8342953317795594,0.0,0.0,0.0,39.8714138,32.7364368,146.5194802737475,563.0400285306613,-99.15580065440881,-14.663607132525051,3.7677251212565133,2.649538743456914,-0.9880522161843688,-4.453765894270541,1.6115773071362727,2.9049388029979957,99.27692571092184,-0.1900471990501002,0.10671663951903809,0.06499834742885771,0.0,51403712.17234469,0.0,0.0,1.0,0.0,0.0
51433652.0,-0.040838919382765536,0.06713611701202404,0.12678439723647295,0.0,0.0,1565.7096446973947,1500.0,1000.0,1519.2044885991984,1479.7955114008016,1533.3446893787575,15.069175352324649,15.437651893186374,15.126769526633266,15.163467248537074,15.534256826593186,14.884379303967936,15.248341486673347,,,140.04995686212425,140.04995686212425,11.761260652064127,-0.0015143998476953907,-0.005749848537074148,8.293106212424849e-05,-0.19984779096793587,0.18534786096192385,-0.035036050034068136,2.0,1.1821402353767534,2.1821402353767536,11.0,0.0,0.0,1.0,0.0,0.0,0.0,0.0,0.0,0.0,0.0,0.20455405463927856,-0.14302708460721444,-3.022874191472946,-3.130121719038076,-5.670622704577154,251.0678203975952,43.78846338336673,-0.011485889965931863,0.015178698458917835,0.06508141443286573,0.0,-1.376472474777555,0.17338577064128258,-9.412119761923847,6.190291614671343,954.7784604488978,11.761289885791584,-0.1609902833166333,0.0656172436492986,0.3047590087895792,-1.395844777458918,0.21109369723046092,-9.469428154519038,-0.16286316996593186,0.055791686266533067,0.30196918758717434,6.190291614671343,93.37100981983968,97.61789161811623,-2.8033858313266533,-3.1999313528917837,15.365798241543088,15.558138970400801,-0.003846811825651303,0.1373397998957916,-0.1,73.6866887092986,46625635.87569138,6620172.0,499.3553149743487,11.756227089218436,95469.13278212424,1.1343312685611222,0.07439452227855714,0.06056508379959924,-0.46030929099599194,-0.15673471652905813,0.07771602747094189,0.3133719163727455,0.17245010962925852,-0.14099068520641284,-3.0225420306292583,0.0651779662745491,-0.06493997722645291,-0.08992650698797595,-0.9916851649498998,0.0,398727516.40380764,327430271.6543086,499658.7555002004,15.176547213567133,-14.502572848416833,4.44970640042485,2.312931683967936,2.843832156847695,0.0,0.0,0.0,39.8714138,32.7364368,146.0973424701403,563.1456916681362,-99.08026127507014,-14.69286936218437,3.640086555541082,2.693742619216433,-0.9776881876472946,-4.447390316853707,1.5416789755671343,2.9137393328436874,99.20138627507013,-0.19045322236873746,0.12094743145090181,0.05610130435270541,0.0,51433652.2004008,0.0,0.0,1.0,0.0,0.0
51464346.0,-0.04030623838677355,0.06552352760721443,0.12575463709018037,0.0,0.0,1565.002004008016,1500.0,1000.0,1519.1021198376752,1479.8978801623248,1532.4983069158318,15.056810397855712,15.424956512084169,15.132478789398798,15.168836593106212,15.539696399699398,14.891901531242485,15.255987594108216,,,140.15318639959918,140.15318639959918,11.76180582252505,-0.0015143121042084167,-0.005750180106212425,8.30997995991984e-05,-0.19986106773146292,0.1853297360260521,-0.03495942550300601,2.0,1.184334261268537,2.1843342612685372,11.0,0.0,0.0,1.0,0.0,0.0,0.0,0.0,0.0,0.0,0.0,0.19720858508016034,-0.1446059957214429,-3.022268770250501,-3.1299670216212423,-5.700216309248497,250.61656693426855,43.81570472821643,-0.011479710230460922,0.015305990396793586,0.06475680091983968,0.0,-1.4121940426372745,0.20155984824248493,-9.44118682181964,9.679180663026049,954.7866317951904,11.761790540320641,-0.15958458333066133,0.06301235545090181,0.30033782931462927,-1.4011504024929862,0.21506744058917837,-9.484199226775551,-0.1613116490220441,0.057851653494989976,0.29905596859118233,9.679180663026049,93.26324126116234,97.51711797865731,-2.851118068881764,-3.2146488517855714,15.365700301322645,15.575680277094188,-0.00419959751503006,0.15794543025450902,-0.1,73.56422184258517,46656416.166212425,6620172.0,499.3992393008016,11.756226,95468.63180088176,1.1343253183507014,0.158762098757515,0.5589096059659315,-0.3789600177314629,-0.15774637695991983,0.07382045358717436,0.31281252041082164,0.16541956821042084,-0.1422653256513026,-3.022798022458918,0.06486982463126252,-0.0658125653987976,-0.08646555244488978,-0.991955566470942,0.0,398727476.5472946,327430287.4811623,499586.5342234469,15.169222539138277,-14.537731413987975,4.309072681418838,2.370064134733467,2.8533689816052106,0.0,0.0,0.0,39.8714138,32.7364368,145.6762875008016,563.2505017338676,-99.00473348444889,-14.72200343709419,3.5128498282204412,2.7374961004529057,-0.967650448486974,-4.439709253264529,1.4723183368577155,2.9225116904108215,99.1258584844489,-0.18941198920641283,0.12304258000200402,0.0519019985991984,0.0,51464346.04609218,0.0,0.0,1.0,0.0,0.0
51496411.0,-0.03938090393186373,0.06731343916432864,0.12418528033066133,0.0,0.0,1563.314629258517,1500.0,1000.0,1519.6731180921843,1479.3268819078157,1532.339135214429,15.019128156312625,15.386335115751502,15.138188055611222,15.17420593767535,15.545135976232466,14.89942375507014,15.263633701563126,,,140.25641593707414,140.25641593707414,11.762350996432867,-0.0015142247034068135,-0.0057505116753507005,8.323426853707415e-05,-0.19987434449699398,0.185311610747495,-0.034882800971943885,2.0,1.1865282875030059,2.1865282875030063,11.0,0.0,0.0,1.0,0.0,0.0,0.0,0.0,0.0,0.0,0.0,0.19031035181162326,-0.14481114798997996,-3.0220431843547098,-3.1298731022184367,-5.714242899232465,250.17059889919838,43.8497863354509,-0.011472902200400802,0.0154236096252505,0.06441689261122245,0.0,-1.426781075961924,0.21131001080360723,-9.467061012316634,10.318529531563133,954.7948261362726,11.7623059752505,-0.15997476536472946,0.05910179878356713,0.2986224082244489,-1.386052360785571,0.19471519477755517,-9.467035664503006,-0.1610802621242485,0.05778301805210421,0.2946245275350701,10.318529531563133,93.15547270248497,97.41634433919839,-2.898850306779559,-3.2293663503346695,15.36560235765531,15.593221587214428,-0.004552383202404809,0.17855106061523043,-0.1,73.44175497587175,46687341.805350706,6620172.0,499.4520184917836,11.756215376753508,95468.0333560521,1.1343181906052104,0.1315333062364731,0.3495522297855732,-0.3969372488096194,-0.15908840258517035,0.07173044718436873,0.30905427336272545,0.15845128219438878,-0.14264399725851704,-3.023059208531062,0.06452412023046092,-0.06623707215430862,-0.08301040348897797,-0.9922449514268538,0.0,398727436.7252505,327430303.30821645,499514.31298116234,15.161897868136272,-14.572889979539077,4.16843896241483,2.4271965854969944,2.8629058060180363,0.0,0.0,0.0,39.8714138,32.7364368,145.23941505831664,563.353216188577,-98.92477042925852,-14.751482858897795,3.3824295099559123,2.780379148084168,-0.958411121242485,-4.421606887282565,1.4072469738677356,2.931489730783567,99.04589542925852,-0.1898391521523046,0.11375864470741484,0.05076614783967937,0.0,51496410.977955915,0.0,0.0,1.0,0.0,0.0
51530356.0,-0.0410035996753507,0.07372780865731463,0.12022532096593187,0.0,0.0,1562.0633048577154,1500.0,1000.0,1519.873390284569,1479.126609715431,1532.7503223967935,14.974067025490982,15.340096881282564,15.143897319959919,15.179575282244489,15.550575555911823,14.906945978897795,15.271279805871742,,,140.35964545591182,140.35964545591182,11.762896170340682,-0.0015141376172344689,-0.005750843058116232,8.333727454909818e-05,-0.1998876209478958,0.18529348515430863,-0.03480617644088176,2.0,1.1887223140521044,2.1887223140521046,11.0,0.0,0.0,1.0,0.0,0.0,0.0,0.0,0.0,0.0,0.0,0.18395179120240482,-0.14335860705811623,-3.0222759391402807,-3.1298525228096192,-5.709485018775552,249.73100866973948,43.892121985771546,-0.011465187681362727,0.01553079918036072,0.06407068622845691,0.0,-1.4106103723126253,0.19424728408617234,-9.488288522266533,6.810855104008018,954.8030539629259,11.762842921342685,-0.161793274250501,0.059858615460921846,0.30024710256513026,-1.3891414589498998,0.16506607713827653,-9.495000646422847,-0.162770107004008,0.05461656146693387,0.2879835714488978,6.810855104008018,93.04834916124248,97.31584902879759,-2.9437104313967937,-3.2445192918436874,15.365506055931863,15.610838888376753,-0.00490665627254509,0.19903639413627253,-0.1,73.32003688216433,46718267.44448898,6620172.0,499.48770002324653,11.756194979498998,95467.6323157515,1.1343133900701403,0.050188161669338746,-0.4627597080340684,-0.24488260089579178,-0.15945465294188377,0.07418304226853707,0.30628045301402806,0.15152023519438876,-0.1427024066312625,-3.0233142125170342,0.06416905902204409,-0.06649962225651303,-0.07956445406012025,-0.9925334870821643,0.0,398727396.9032064,327430318.8615231,499441.6090148297,15.15494452002004,-14.607862866933868,4.0281765755090175,2.4836792105370744,2.872416705236473,0.0,0.0,0.0,39.8714138,32.7364368,144.77952294509018,563.4528808937876,-98.83835259450902,-14.78146487775551,3.2473760138356713,2.8219954268637273,-0.9503337467174349,-4.388338079416834,1.3484179253206414,2.940767107829659,98.95947759450902,-0.19238089452304608,0.11024203307014029,0.04674862196993988,0.0,51530355.97995992,0.0,0.0,1.0,0.0,0.0
51563904.0,-0.04429231214028056,0.0730775176993988,0.11670830582965931,0.002662841452905844,0.0,1562.2693372985973,1500.0,1000.0,1519.3410849218437,1479.6589150781563,1531.79423453507,15.007921572124248,15.374697643547094,15.149606578036073,15.184944626813628,15.556015129018036,14.914468203026052,15.278925916753506,,,140.46287491202403,140.46287491202403,11.763441344248498,-0.0015140498737474949,-0.005751173813627254,8.35060120240481e-05,-0.1999008980260521,0.18527536021843688,-0.03472955190981964,2.0,1.1909163399438878,2.190916339943888,11.0,0.0,0.0,1.0,0.0,0.0,0.0,0.0,0.0,0.0,0.0,0.17759322996593185,-0.14190606675350703,-3.022508693925852,-3.1298319427735475,-5.704727138288577,249.29141843727453,43.93445763609218,-0.011457930090180361,0.015633687829659317,0.06372378287374748,0.0,-1.394631773513026,0.17751540981362723,-9.509476069004009,3.325106382364728,954.8112991519039,11.763379918877757,-0.15851664999799597,0.05791562842885771,0.29257882091382764,-1.3178740033286573,0.17277699729058116,-9.565268694128257,-0.16446358892184368,0.05150480486172345,0.28137782069338674,3.325106382364728,92.94397065206412,97.2165382172946,-2.9763475560701407,-3.26152536998998,15.365416740641283,15.628779569058116,-0.005267257246492986,0.21900977652905812,-0.1,73.2015053790982,46749193.083627254,6620172.0,499.4424042709419,11.756193991503006,95468.11774490982,1.1343191540701403,-0.03150821929258518,-0.03456948350501016,0.10358903166132255,-0.1604731898737475,0.07395766027254509,0.3014053460180361,0.1446725279318637,-0.14548043923046092,-3.023525768044088,0.06393451067535069,-0.06810663792985971,-0.07623285124248498,-0.9927023708216434,0.0,398727357.0841683,327430333.53286576,499367.0089807615,15.14944965,-14.642106420661323,3.889372723737475,2.5376094218276553,2.8818257744208418,0.0,0.0,0.0,39.8714138,32.7364368,144.3198349757515,563.5524207052105,-98.75195145304609,-14.81141869537074,3.1124115456913826,2.863566821941884,-0.9420835812144288,-4.355002073324651,1.2898636870280562,2.950037979324649,98.87307646236474,-0.18931082031663327,0.11474270150300601,0.04327802800400802,0.0,51563903.84769539,0.0,0.0,1.0,0.0,0.0
51598534.0,-0.04214661941082165,0.086645497262525,0.10670225371543089,0.07739992489779539,0.0,1560.2953889458918,1500.0,1000.0,1519.9142321282566,1479.0857678717434,1535.5524323527052,14.993080259078155,15.359444071102203,15.155315844248495,15.190313971382764,15.56145470212425,14.921990435290581,15.286572027635271,,,140.566104449499,140.566104449499,11.763986518156312,-0.001513962130260521,-0.005751505382765532,8.367474949899799e-05,-0.19991417429058117,0.18525723528256513,-0.03465292737875751,2.0,1.1931103658356714,2.1931103658356714,11.0,0.0,0.0,1.0,0.0,0.0,0.0,0.0,0.0,0.0,0.0,0.1712346695430862,-0.14045352563527055,-3.0227414487114226,-3.1298113635511022,-5.699969256987976,248.8518281234469,43.97679328641283,-0.011449091621242484,0.01574468671543086,0.06333974313026051,0.0,-1.3838528126452907,0.16973860838276555,-9.529581962583165,0.432813434068144,954.820012502004,11.763918486713427,-0.16139261320841683,0.051294124398797616,0.2869300369619239,-1.3768482258196388,0.1742354897795591,-9.550808161661323,-0.1662555311282565,0.049873594380761534,0.2757249608877756,0.432813434068144,92.85231704533065,97.12271829136272,-2.952323473705411,-3.287121889042084,15.365359783306614,15.648219357955911,-0.005657194364729458,0.23660994897795587,-0.1,73.09774569378759,46780118.72276553,6620172.0,499.4642814220441,11.756168773687374,95467.89334937875,1.134316489705411,-0.0611908605711422,-0.3415158824789571,-0.1281571357775545,-0.15916842313026053,0.07401228565531062,0.3016704081242485,0.13785782708617236,-0.13591504503206417,-3.0237573754148297,0.06327866776352706,-0.06357976329458918,-0.07258478078156314,-0.9933164925490982,0.0,398727317.34649295,327430345.6819639,499287.17000080156,15.14798457,-14.674334831222446,3.754598800302605,2.584487317923848,2.890953487232465,0.0,0.0,0.0,39.8714138,32.7364368,143.86567072184368,563.6485800581164,-98.66600214320641,-14.840609021442885,2.9798567680961927,2.903923347044088,-0.9291565576993989,-4.319847235236473,1.2387476640821646,2.959132767236473,98.78712741406814,-0.1869653820701403,0.09973493568737479,0.04497990658316633,0.0,51598533.83967936,0.0,0.0,1.0,0.0,0.0
51627017.0,-0.041320028260521044,0.09526081873346692,0.10126492011823647,0.02992962972545101,0.0,1559.1831085691383,1500.0,1000.0,1520.8168914308617,1478.1831085691383,1535.4144666673346,14.968542333086173,15.33424363725451,15.16102511046092,15.195683315951904,15.56689427523046,14.92951266038076,15.294218131342685,,,140.66933398697395,140.66933398697395,11.764531692064129,-0.0015138743867735471,-0.005751836951903808,8.38434869739479e-05,-0.1999274512725451,0.18523910962925852,-0.03457630284769539,2.0,1.1953043917274548,2.195304391727455,11.0,0.0,0.0,1.0,0.0,0.0,0.0,0.0,0.0,0.0,0.0,0.16487610840280564,-0.13900098523446894,-3.022974203496994,-3.1297907836112224,-5.69521137640481,248.41223788136273,44.019128929559116,-0.011439189913827655,0.015843248150300603,0.06296646490981965,0.0,-1.3946228934048097,0.19907462882364724,-9.545205120062123,-7.209999999999999e-21,954.8306663699399,11.764463532985971,-0.1639622704709419,0.0553560484769539,0.2874022179158317,-1.3625160144068136,0.1492441315671343,-9.623364262829659,-0.16845552159118235,0.054378260689378746,0.2740211990821643,-7.209999999999999e-21,92.76066343859719,97.02889836543086,-2.9282993913406816,-3.3127184080941885,15.365302833146293,15.667659139679358,-0.006047130765531061,0.2542101214268537,-0.1,72.9939860013026,46811044.36190381,6620172.0,499.38367056272546,11.756165,95468.82808466934,1.1343275269118236,0.01700324796993974,-0.1250108840020045,0.1984706886072138,-0.15743242565731463,0.07110057182364729,0.2957402056172345,0.13122041085370742,-0.13604950658517034,-3.0240201173066135,0.06293918780160321,-0.06386539943687375,-0.0692832256232465,-0.9935558628897796,0.0,398727277.6805611,327430357.9028056,499207.33109258517,15.146519490000001,-14.706563234609218,3.6198248768677357,2.631365214737475,2.9000811993266535,0.0,0.0,0.0,39.8714138,32.7364368,143.43439902545092,563.7307295581163,-98.58192533837675,-14.866635208637275,2.8572885504448897,2.9392450426513026,-0.8968470647935872,-4.27715455146493,1.218458093492986,2.9674978098136275,98.70305191823648,-0.1888975602725451,0.11701598407214425,0.03623839856513028,0.0,51627016.8496994,0.0,0.0,1.0,0.0,0.0
51656554.0,-0.042181812476953906,0.10143732429659319,0.09712880221242486,0.0029968254048096214,0.0,1556.1335480320643,1500.0,1000.0,1519.938596256513,1479.061403743487,1537.8664519679357,15.049349937334672,15.416961921162326,15.166734371062125,15.201052660521041,15.572333848336674,14.937034884208417,15.301864239398798,,,140.7725635244489,140.7725635244489,11.765076865971944,-0.0015137872044088177,-0.00575216795991984,8.40122244488978e-05,-0.19994072781963929,0.18522098441082166,-0.03449967831663327,2.0,1.1974984176192385,2.1974984176192387,11.0,0.0,0.0,1.0,0.0,0.0,0.0,0.0,0.0,0.0,0.0,0.15851754769739482,-0.1375484443987976,-3.023206958282565,-3.1297702041062125,-5.690453495947895,247.97264759579159,44.0614645770541,-0.01142970598997996,0.015919975420841684,0.06262961137875751,0.0,-1.409185124509018,0.23494167713827654,-9.560039415599197,-7.209999999999999e-21,954.8416616695391,11.765009719318638,-0.16646777078356714,0.06031749139478958,0.2804245867815631,-1.4407136936893785,0.19975718042885768,-9.6510540361503,-0.17072731886773546,0.05996270419839679,0.2730123902765531,-7.209999999999999e-21,92.66900983186372,96.935078439499,-2.904275308975952,-3.3383149265851704,15.365245878637275,15.687098920140281,-0.006437067601202404,0.2718102938757515,-0.1,72.89022631316632,46841970.00104208,6620172.0,499.3886206248497,11.756154810020039,95468.76519707414,1.1343268322024047,-0.1795762499018035,0.3370704333687373,-0.05556825165731438,-0.15757153407815633,0.06669551735470942,0.28669459221442883,0.12470380621843687,-0.13984280206613225,-3.024287857296593,0.06270582441683366,-0.06596474524448898,-0.06613957206012025,-0.9936471404308617,0.0,398727237.9711423,327430370.0801603,499127.49219699396,15.14505441,-14.73879164234469,3.4850509534328658,2.6782431116773546,2.9092089118557114,0.0,0.0,0.0,39.8714138,32.7364368,143.00715596372746,563.810413637074,-98.49817805258517,-14.892104583707415,2.7364777441803607,2.9736807207775553,-0.8611266898416834,-4.233135374735471,1.203593290220441,2.975734432957916,98.61930612577154,-0.18977232189779558,0.12282321732865732,0.03043775248697395,0.0,51656553.75951904,0.0,0.0,1.0,0.0,0.0
51685586.0,-0.0438940353246493,0.09694565023046091,0.09698692600400803,0.0,0.0,1552.609524701403,1500.0,1021.2248508456913,1519.387237238477,1479.612762761523,1542.6049041563126,15.1192818296994,15.48854991765531,15.172443632885772,15.20642200509018,15.577773421442886,14.944557108036072,15.309510346232464,,,140.87579306192384,140.87579306192384,11.76562203987976,-0.0015136998997995993,-0.005752499090180361,8.414048096192386e-05,-0.199954004488978,0.18520285947494994,-0.034423053785571145,2.0,1.199692443511022,2.1996924435110223,11.0,0.0,0.0,1.0,0.0,0.0,0.0,0.0,0.0,0.0,0.0,0.1521589872745491,-0.13609590368537075,-3.0234397130681363,-3.1297496248837677,-5.685695615490982,247.5330573224449,44.10380022737475,-0.01142016801002004,0.015988080501002006,0.062293491541082165,0.0,-1.4187741292545089,0.26094823256112226,-9.59467807503006,-7.209999999999999e-21,954.8517515436874,11.765584574268537,-0.16773009686372747,0.07058506439078158,0.27459348280160323,-1.4303811147294587,0.22423047809418833,-9.648325954102205,-0.1727841510240481,0.0667864063727455,0.271861548753507,-7.209999999999999e-21,92.57735622513026,96.84125851356714,-2.880251227016032,-3.3639114451983967,15.365188921302606,15.706538700601202,-0.006827004314629259,0.2894104659198397,-0.1,72.78646662785572,46872895.640180364,6620172.0,499.4813137663327,11.756141642244488,95467.70746128257,1.1343142860480961,-0.2023465576553104,0.5598486502244489,-0.4107859733707416,-0.15844713391382767,0.06319419676753507,0.28473813414428856,0.1182132509018036,-0.14227690724649297,-3.0245562384228455,0.0624254968757515,-0.06738645521843688,-0.06297151777154308,-0.9937757414549099,0.0,398727198.2739479,327430382.22925854,499047.6533014028,15.14358933,-14.771020052905811,3.350277029997996,2.725121008212425,2.9183366242625253,0.0,0.0,0.0,39.8714138,32.7364368,142.5735193266533,563.8889776482964,-98.41269021901805,-14.917687101843688,2.6144564093987976,3.0076226465390783,-0.8279907685911824,-4.189287046004008,1.1693081031943888,2.984082850472946,98.53381933619238,-0.1884065492024048,0.12895886813026053,0.025977791424849694,0.0,51685586.14028056,0.0,0.0,1.0,0.0,0.0
51712905.0,-0.04402820915430863,0.08398954903006013,0.10056213946292585,0.0,0.0,1549.6791931362727,1500.0,1039.4025696392787,1520.2325772284569,1478.7674227715431,1547.8178008517034,15.114126408877757,15.48319374002004,15.178152899098196,15.211791349659318,15.583212997034067,14.952079334348698,15.317156451162326,,,140.9790225993988,140.9790225993988,11.766167213787575,-0.0015136121563126253,-0.0057528306593186375,8.424969939879761e-05,-0.19996728134869743,0.18518473429058116,-0.034346429254509016,2.0,1.2018864694028055,2.2018864694028055,11.0,0.0,0.0,1.0,0.0,0.0,0.0,0.0,0.0,0.0,0.0,0.1458004266032064,-0.13464336316232467,-3.0236724678537077,-3.1297290454128257,-5.680937734785572,247.09346709298597,44.14613587769539,-0.011410427805611223,0.016058789054108215,0.06195067176553106,0.0,-1.417209821797595,0.26484094362124255,-9.673731413214428,-7.209999999999999e-21,954.8598108683367,11.766223727134268,-0.16787950426252507,0.0863345977094188,0.27533977595190384,-1.3312582811062124,0.2089352628837674,-9.664244124246494,-0.17435888678557115,0.07638935910220439,0.270392174258517,-7.209999999999999e-21,92.48570261839679,96.74743858763527,-2.856227145246493,-3.389507964250501,15.365131966452907,15.725978483547093,-0.00721694083767535,0.3070106377735471,-0.1,72.6827069425451,46903821.27931864,6620172.0,499.5229796717435,11.756134,95467.24122370742,1.1343087053426852,0.13450134509418754,0.6928497115651285,-0.27818153610821805,-0.160214833753507,0.06354109317635269,0.2873625643707415,0.11175642473747496,-0.1420488643326653,-3.0248270234328656,0.06206624325450902,-0.06748237791382765,-0.05974755131863728,-0.9939903191482966,0.0,398727158.5957916,327430394.3783567,498967.81438096194,15.14212425,-14.803248460981964,3.2155031065631268,2.771998904557114,2.927464336478958,0.0,0.0,0.0,39.8714138,32.7364368,142.12554398597192,563.9650298016031,-98.32329890967937,-14.943523359118236,2.4897202570240484,3.0404572480581162,-0.8006509277635272,-4.145821873965932,1.0914693786152307,2.9926819862444893,98.44442806929861,-0.18655465198597193,0.14959630703206406,0.01888504663927858,0.015025461691382646,51712905.33266533,0.0,0.0,1.0,0.0,0.0
51740961.0,-0.040901948661322636,0.07546810320440885,0.10332540113827655,0.0,0.0,1547.0921843687374,1500.0,1000.0,1521.0610170120242,1477.9389829879758,1551.63126252505,15.096437886513026,15.464937253326653,15.183862164388778,15.217160694228456,15.58865257765531,14.959601565691383,15.324802561122246,,,141.0822521368738,141.0822521368738,11.76671238769539,-0.00151352450501002,-0.005753162228456914,8.44184368737475e-05,-0.19998055770541082,0.1851666086032064,-0.034269804815631265,2.0,1.2040804952945892,2.204080495294589,11.0,0.0,0.0,1.0,0.0,0.0,0.0,0.0,0.0,0.0,0.0,0.1394418654288577,-0.13319082213627254,-3.0239052226392786,-3.1297084654388776,-5.676179853577155,246.6538768543086,44.18847152801603,-0.01140105696993988,0.016134011048096194,0.061630877521042085,0.0,-1.4018456807474948,0.2413725111382766,-9.807738399515031,-7.209999999999999e-21,954.8653577661323,11.766942438176352,-0.1690778658276553,0.09955414319839678,0.27646805688176357,-1.3859959794829662,0.25778229829258525,-9.741945116166331,-0.1753371305771543,0.08943103963927855,0.2685286830521042,-7.209999999999999e-21,92.39416931503006,96.6534179643487,-2.8320421500881765,-3.4145049286132267,15.365074093867737,15.745339845671342,-0.007605327691382764,0.32440246801803607,-0.1,72.57930647206413,46934808.73176353,6620172.0,499.35443221042084,11.756131188376752,95469.15765533065,1.1343315336633266,0.47747538470340656,1.2941210362605218,0.257465910062125,-0.16481565826853706,0.06937324089779559,0.28023806554709424,0.10546630444288578,-0.1408562056993988,-3.0250904633727456,0.06169694072344689,-0.0670917030501002,-0.05657984994789579,-0.9942273446252505,0.0,398727118.8765531,327430406.3338677,498887.6206847695,15.14099701741483,-14.835139049799599,3.081489301324649,2.8182855970521046,2.936536036869739,0.0,0.0,0.0,39.8714138,32.7364368,141.65982763627255,564.0379741591182,-98.22907788633266,-14.969673566492986,2.3616250995250505,3.07192177301002,-0.7804824941703407,-4.102830776422846,0.9597424835991986,3.0015913315791583,98.35020585543087,-0.18658524039478958,0.17981723490781562,0.008943205695390788,0.05489140440480968,51740961.49699399,0.0,0.0,1.0,0.0,0.0
51775030.0,-0.04448792288777555,0.05924536429258519,0.10614420790380762,0.0,0.0,1547.935871743487,1500.0,1000.0,1521.004310252505,1477.995689747495,1548.256513026052,15.071300676773546,15.43920612985972,15.18957142216433,15.222530038797595,15.594092150761524,14.967123789519038,15.332448663567135,,,141.1854816743487,141.1854816743487,11.767257561603206,-0.001513437605210421,-0.0057534937975951906,8.45871743486974e-05,-0.19999383481362726,0.18514848366733466,-0.03419318112825651,2.0,1.2062745211863728,2.206274521186373,11.0,0.0,0.0,1.0,0.0,0.0,0.0,0.0,0.0,0.0,0.0,0.133083305006012,-0.13173828186172346,-3.02413797742485,-3.129687886216433,-5.671421973120241,246.21428654048094,44.230807178336676,-0.011391053368737475,0.016222092010020037,0.06127704094188376,0.0,-1.3864815396973948,0.2179040779038076,-9.941745385815631,-7.209999999999999e-21,954.8709045887775,11.767661141703407,-0.1743505963807615,0.10788742816633266,0.2674509405170341,-1.4307318191422846,0.20029843014428855,-9.956830061492985,-0.1763153751202405,0.1024727194248497,0.2666651910941884,-7.209999999999999e-21,92.30361674563126,96.55776122132266,-2.8065453658517034,-3.4346142188777558,15.365008691222446,15.764061859098197,-0.007981076519038077,0.34009585637875756,-0.1,72.4788343833467,46966300.09703407,6620172.0,499.2216196188377,11.756105455911824,95470.69783194388,1.1343498349298597,0.6594294037715431,0.764058993470942,-0.3507164826953907,-0.16988666063927857,0.0742683808537074,0.27585244948897797,0.0994727603006012,-0.13420035768737473,-3.0252657858276555,0.06125488819238477,-0.06396996105210422,-0.053412812905811624,-0.9946343841302605,0.0,398727079.3076152,327430416.71122247,498804.5352801603,15.142623975711423,-14.864275725791583,2.9536721118176352,2.859752688094189,2.945151114264529,0.0,0.0,0.0,39.8714138,32.7364368,141.19411136172346,564.1109184414829,-98.13485686298597,-14.995823766352705,2.233529942026052,3.103386297210421,-0.7603140605771543,-4.05983967887976,0.8280155885831664,3.0105006761623248,98.25598363404809,-0.18332094729058115,0.19484230306412825,0.004622040603206413,0.0038775385010020105,51775030.43687375,0.0,0.0,1.0,0.0,0.0
