timestamp,control[0],control[1],control[2],control[3],control[4],output[2],output[3],output[4],output[5],output[6],output[7],indicated_airspeed_m_s,true_airspeed_m_s,indicated_airspeed_m_s.1,equivalent_airspeed_m_s,true_airspeed_m_s.1,equivalent_ground_minus_wind_m_s,true_ground_minus_wind_m_s,Unnamed: 6,Unnamed: 7,differential_pressure_raw_pa,differential_pressure_filtered_pa,temperature,gyro_bias[0],gyro_bias[1],gyro_bias[2],accel_bias[0],accel_bias[1],accel_bias[2],instance_count,seq_reached,seq_current,seq_total,item_changed_index,item_do_jump_remaining,valid,warning,finished,failure,stay_in_failsafe,flight_termination,item_do_jump_changed,execution_mode,nav_roll,nav_pitch,nav_bearing,target_bearing,xtrack_error,wp_dist,acceptance_radius,rollspeed_integ,pitchspeed_integ,yawspeed_integ,additional_integ1,x,y,z,temperature.1,pressure,temperature.2,gyro_rad[0],gyro_rad[1],gyro_rad[2],accelerometer_m_s2[0],accelerometer_m_s2[1],accelerometer_m_s2[2],x.1,y.1,z.1,temperature.3,altitude_sp,altitude_filtered,height_rate_setpoint,height_rate,airspeed_sp,airspeed_filtered,airspeed_derivative_sp,airspeed_derivative,throttle_integ,pitch_integ,timestamp_sample,baro_device_id,baro_alt_meter,baro_temp_celcius,baro_pressure_pa,rho,xyz[0],xyz[1],xyz[2],xyz[0].1,xyz[1].1,xyz[2].1,roll_body,pitch_body,yaw_body,q_d[0],q_d[1],q_d[2],q_d[3],thrust_body[0],lat,lon,alt,vel_m_s,vel_n_m_s,vel_e_m_s,vel_d_m_s,cog_rad,ground_contact,maybe_landed,landed,ref_lat,ref_lon,x.2,y.2,z.2,vx,vy,vz,ax,ay,az,yaw,dist_bottom,roll,pitch,yaw.1,thrust_body[0].1,timestamp.1,isTakeoff,isClimbing,isDescending,isCruise,isLand
8000000.0,0.032622553,0.037613362,-0.004780792,0.15,0.1900002,900.0,900.0,900.0,900.0,900.0,900.0,-0.55010766,-0.56085265,-1.3745495,-1.3745495,-1.4013966,0.08425379,0.085899405,,,-1.1572492,-1.1572492,12.404602,-0.0004974490000000001,-0.004638251,-0.001274799,0.030775223,0.002218546,-0.09675976,2.0,-1.0,0.0,11.0,0.0,0.0,1.0,0.0,0.0,0.0,0.0,0.0,0.0,0.0,0.0,-0.18215673,1.5687871,1.5737354,0.378227,286.8845,60.171734,-0.001471943,-0.0071009559999999985,0.0,-0.003004941,-0.30141100000000004,0.21761239,-9.981898,-7.209999999999999e-21,966.17804,12.404602,-0.002881979,-0.004996156,-0.0016020479999999998,-0.13232364,0.118072666,-9.834413,-0.002849396,-0.015153681,-0.000126335,-7.209999999999999e-21,-0.1169878,-0.1289878,0.40060008,-0.2889668,13.254137,21.825756,-0.17143238,15.915196,0.10999999,-18.705496,1776000.0,6620172.0,399.60654,12.404602,96616.42,1.1479629,0.045718424,-0.1955162,0.026430383,-0.001446002,0.004852557,0.002846098,0.0,-0.16690682,1.6225462,0.6861794,0.06044722,-0.05739732,0.7226406999999999,1.0,398714138.0,327364368.0,400131.0,0.0,-0.01,0.0,-0.04,3.4686672999999995,0.0,0.0,1.0,39.8714138,32.7364368,0.008077262,0.018292708,-0.05748276400000001,0.024659678,0.046222717,-0.06287782,0.10664077,0.008288043,-0.002779066,1.6229187,0.10777761,-0.11083593,-0.26536456,-0.005465881,1.0,8000000.0,1.0,0.0,0.0,0.0,0.0
8023686.0,0.0326828204248497,0.03835002489579158,-0.0045566929719438876,0.15,0.13078665961923847,900.0,900.0,900.0,900.0,900.0,900.0,-0.37366409768537073,-0.3809639697194389,-0.8372518929559118,-0.8371236148396795,-0.8534683445490983,0.5862263898296592,0.5976819218436874,,,4.993416252655311,4.993416252655311,12.40459963006012,-0.0004483970961923848,-0.004676630859719439,-0.0011632904028056113,0.03072443314028056,0.002327528124248497,-0.0968814183767535,2.0,-1.0,0.0,11.0,0.0,0.0,1.0,0.0,0.0,0.0,0.0,0.0,0.0,0.0,0.0,-0.17473726674348697,1.568854683517034,1.5737415325851702,0.3757958513026052,286.304855495992,60.50082584128257,-0.0016102019278557114,-0.007322737753507013,0.0,-0.00285803471743487,-0.28905583631262527,0.195860027745491,-9.929639989589178,3.2072186309318633,966.1743840751503,12.404602,-0.005212062196392786,-0.0043342464208416835,-0.002416742629258517,-0.16231875848697394,0.1290811786452906,-9.88390953232465,-0.000962119246492986,-0.010904840348697396,0.00022845012024048093,3.2072186309318633,-0.11727703214428857,-0.12927703214428857,0.40060008,-0.2845595917735471,13.254131002004009,22.188138401402806,-0.17868014696392784,15.443185738877755,0.10999999,-19.612740241382767,1801269.1979659318,6620172.0,399.6054885220441,12.404602,96616.42277955911,1.1479629080460922,-0.32679536359519035,0.009300672424849693,0.11256476024448897,-0.0018100137935871743,-0.0007088572985971941,0.00036393488376753507,0.0,-0.15898649847695392,1.6225462,0.6863985148396794,0.057584746633266536,-0.05467927398797595,0.7228714421743486,1.0,398714138.0,327364368.0,400130.74596292584,0.0,-0.007459852354709419,0.0,-0.034919705440881764,3.780046647304609,0.0,0.0,0.9739547110921843,39.8714138,32.7364368,0.008073017320641283,0.017504121476953908,-0.05699378176553107,0.024386689452905813,0.04501622449498998,-0.06255263133266532,0.0908342467735471,0.02407050255911823,-0.020863424757515032,1.6228796588977956,0.10706211637274549,-0.11942045350701402,-0.2557610823046092,-0.005465881,1.0,8023685.501002004,1.0,0.0,0.0,0.0,0.0
8049223.0,0.03223305651503006,0.03816396222645291,-0.004591738446893787,0.15,0.06694387553507014,900.0,900.0,900.0,900.0,900.0,900.0,-0.9266383880921842,-0.9447461041763525,-0.29995428544889785,-0.2996977301422847,-0.3055400890981965,1.0881989891963926,1.1094644386873747,,,11.14408170531062,11.14408170531062,12.40459726012024,-0.00039934565531062126,-0.004715010719438878,-0.0010517822685370741,0.03067364281763527,0.002436510248496994,-0.09700307629058116,2.0,-1.0,0.0,11.0,0.0,0.0,1.0,0.0,0.0,0.0,0.0,0.0,0.0,0.0,0.0,-0.16731780348697395,1.5689222665711422,1.573747664707415,0.37336470260521043,285.72521099198394,60.82991768256513,-0.0017580073126252504,-0.00755753235270541,0.0,-0.0026631679278557117,-0.27670067262525055,0.17410766549098197,-9.877381979178358,6.414437262326652,966.1707281503006,12.404602,-0.0023729292364729464,-0.006307719553106212,-0.003341302987975952,-0.19983865845891782,0.13324300174148296,-9.92221555851503,0.0009251575070140278,-0.0066559996973947905,0.0005832357034068136,6.414437262326652,-0.11756626428857715,-0.12956626428857715,0.40060008,-0.28015238308416834,13.254125004008015,22.55052080280561,-0.18592791346492987,14.97117547775551,0.10999999,-20.51998448276553,1828491.222713427,6620172.0,399.6410870226453,12.404602,96616.01160156312,1.1479580030601202,-0.14223557848496998,-0.104695705262525,0.19019698991182363,-0.0015131933787575153,0.0007199305210420833,5.479154509018035e-05,0.0,-0.15117163655511023,1.6225462,0.6866065898236473,0.054759717949899804,-0.05199678438476954,0.7230905838897795,1.0,398714138.0,327364368.0,400130.4919721443,0.0,-0.00491970517234469,0.0,-0.029839410881763527,4.091425994609218,0.0,0.0,0.9479094217214429,39.8714138,32.7364368,0.008068772641282565,0.016715534953907814,-0.056504799068136276,0.024113700905811622,0.043809731989979964,-0.06222744266533066,0.0750277235470942,0.03985296165531062,-0.03894778351503006,1.6228406177955912,0.10634662274549098,-0.12874543848697395,-0.24048858824248495,-0.005465881,1.0,8049222.705410821,1.0,0.0,0.0,0.0,0.0
8075057.0,0.03156482596993988,0.03769683113026052,-0.004762074392785571,0.15,0.014578189226452907,900.0,900.0,900.0,900.0,900.0,900.0,-1.1725917823747498,-1.1955074770260523,0.23734332213226442,0.2377281544809618,0.24238816635270533,1.5901715884889778,1.621246955531062,,,17.294747158937874,17.294747158937874,12.40459489018036,-0.0003502942885771543,-0.0047533905791583165,-0.0009402742084168337,0.030622852420841683,0.002545492372745491,-0.09712473413026051,2.0,-1.0,0.0,11.0,0.0,0.0,1.0,0.0,0.0,0.0,0.0,0.0,0.0,0.0,0.0,-0.15989834003607215,1.568989849551102,1.573753796755511,0.3709335539078156,285.1455664685371,61.15900952190381,-0.0019104794128256511,-0.007799903715430861,0.0,-0.002429930995991984,-0.23200964394989987,0.15409013210220443,-9.830136135466933,9.330310721919838,966.1672312549098,12.404602,0.0008717432705410827,-0.009346969410821642,-0.0032755646012024055,-0.2406805054488978,0.14677645908817635,-9.935656634977954,0.002563344480961924,-0.0025517403647294596,0.0009450325751503006,9.330310721919838,-0.11785549643286573,-0.12985549643286573,0.40060008,-0.2757451743206413,13.254119006012024,22.91290320420842,-0.19317567989178358,14.499165214689379,0.10999999,-21.427228724148296,1856436.046983968,6620172.0,399.66531535050103,12.404602,96615.73338272545,1.1479546933727454,0.10605997365731472,-0.27580052155511026,0.22743564351903808,-0.0007477189438877757,0.003955233460921845,0.0014999357014028052,0.0,-0.14346147981162324,1.6225462,0.6868031974909818,0.051971845671342685,-0.049349576130260524,0.723297652004008,1.0,398714138.0,327364368.0,400130.2379887776,0.0,-0.002379558064128257,0.0,-0.024759116322645294,4.402805341913828,0.0,0.0,0.9218641322765531,39.8714138,32.7364368,0.008065647835671342,0.015917713214428857,-0.05600808623246493,0.023849470350701403,0.04257921711422846,-0.06189984590981964,0.05992864153707415,0.05475765407014028,-0.05605970774749498,1.622799327809619,0.10569558046693388,-0.13807520719839678,-0.22435814251903807,-0.005465881,1.0,8075056.503006012,1.0,0.0,0.0,0.0,0.0
8098742.0,0.031110430959919843,0.03793200450701403,-0.004890868190380762,0.15,0.0013417736352705455,900.0,900.0,900.0,900.0,900.0,900.0,0.598766536833667,0.6104632252985971,0.7746409291763525,0.7751540396412824,0.7903164218036072,2.0921441883186374,2.1330294723747496,,,23.4454126152505,23.4454126152505,12.404592520240481,-0.0003012423847695391,-0.004791770438877755,-0.0008287656112224448,0.030572062561122246,0.002654474496993988,-0.09724639250701403,2.0,-1.0,0.0,11.0,0.0,0.0,1.0,0.0,0.0,0.0,0.0,0.0,0.0,0.0,0.0,-0.1524788760480962,1.5690574330681362,1.5737599293406812,0.3685024052104208,284.5659218913828,61.48810135587175,-0.002060544883767535,-0.008042352953907815,0.0,-0.002167548661322645,-0.09797828726653313,0.13886573413627254,-9.796738339955912,11.441230510226452,966.1641737398797,12.404602,-0.0030478966392785563,-0.011107076214428857,-0.000297659801603207,-0.27864044693186374,0.1971759604509018,-9.898333849637275,0.003513324641282565,0.001153057180360721,0.0013262001002004007,11.441230510226452,-0.11814472857715431,-0.13014472857715428,0.40060008,-0.27133796609418837,13.254113008016033,23.275285605611224,-0.20042344685571142,14.027154946252505,0.10999999,-22.334472965531063,1883248.0626452905,6620172.0,399.5993897673347,12.404602,96616.48597030061,1.147963665496994,-0.36237907845691375,-0.09372319740681367,0.16669793335871746,0.0002534687414829657,0.0009784419478957923,0.004309249268537074,0.0,-0.13587159008216435,1.6225462,0.6869858159879759,0.04922661922845692,-0.046742859507014026,0.7234899543386774,1.0,398714138.0,327364368.0,400129.9839517034,0.0,0.00016058958116232404,0.0,-0.019678821763527057,4.7141846892184365,0.0,0.0,0.8958188433687374,39.8714138,32.7364368,0.008065617114228457,0.015094375619238473,-0.05549001664328657,0.023609437134268534,0.04128233115230461,-0.06156559587975952,0.04678413938276553,0.0672371774268537,-0.07048490566332664,1.6227518244128256,0.10522260995591183,-0.14623144526452905,-0.21494308235871742,-0.005465881,1.0,8098742.004008016,1.0,0.0,0.0,0.0,0.0
8122428.0,0.030412026298597194,0.03736562673346693,-0.004892088392785572,0.15,0.0,900.0,900.0,900.0,900.0,900.0,900.0,-0.403697067885771,-0.41158658484168287,1.3119385362204408,1.3125799241442886,1.338244677254509,2.5941167881482965,2.6448119892184367,,,29.59607806498998,29.59607806498998,12.404590150300601,-0.0002521911382765531,-0.004830149641282565,-0.0007172570140280562,0.030521272701402806,0.002763456621242485,-0.09736805022645291,2.0,-1.0,0.0,11.0,0.0,0.0,1.0,0.0,0.0,0.0,0.0,0.0,0.0,0.0,0.0,-0.1450594127174349,1.5691250165851702,1.5737660612685371,0.366071256513026,283.98627737995986,61.81719319641282,-0.0022087251763527054,-0.00828423295791583,0.0,-0.001900682126252505,0.5664698722224447,0.1520983565310621,-9.845556914673347,8.773110842997998,966.1637243835671,12.404602,-0.00047397659719438994,-0.006752465038076153,0.0017819042685370734,-0.23246365706412828,0.1792597795691383,-9.904185154124248,0.00037739236873747615,0.002486234621242485,0.0018223746793587176,8.773110842997998,-0.11843396072144288,-0.13043396072144287,0.40060008,-0.26693075786773546,13.254107016593187,23.637668000440883,-0.20767121316232465,13.555144684388777,0.10999999,-23.241717200340684,1910060.0783066133,6620172.0,399.61901742985975,12.404602,96616.27657134269,1.1479611563066132,-0.5512637746112223,-0.3821537922324648,-0.06576941428456903,0.0029512801382765522,0.005744344158316632,0.004476469593186373,0.0,-0.1283836971783567,1.6225462,0.6871549240400802,0.04651749907815632,-0.04417043038677355,0.7236680468456913,1.0,398714138.0,327364368.0,400129.72991462925,0.0,0.002700736569138276,0.0,-0.01459852720440882,5.025564036523046,0.0,0.0,0.8697735538036072,39.8714138,32.7364368,0.008083954392785572,0.014119546064128255,-0.05484514646092185,0.023513064631262525,0.03959139690180361,-0.06119184518436874,0.04524405111222445,0.06531838092785572,-0.06895891209218437,1.6226674318617234,0.10580685772144288,-0.15479034901402805,-0.19707695495991984,-0.005465881,1.0,8122427.50501002,1.0,0.0,0.0,0.0,0.0
8147668.0,0.03059293419038076,0.03715366002805611,-0.004906002248496994,0.15,0.0,900.0,900.0,900.0,900.0,900.0,900.0,-0.1492544604028062,-0.15217308726853784,1.8492361436533065,1.8500058089619238,1.8861729327054106,3.0960893879779556,3.156594506062124,,,35.74674351787576,35.74674351787576,12.404587780360721,-0.00020313957715430863,-0.004868529158316633,-0.0006057488056112225,0.030470482452905814,0.0028724391342685373,-0.09748970826052104,2.0,-1.0,0.0,11.0,0.0,0.0,1.0,0.0,0.0,0.0,0.0,0.0,0.0,0.0,0.0,-0.13763994946092184,1.5691925997134268,1.573772193511022,0.3636401078156313,283.4066328759518,62.146285037695385,-0.0023619871843687376,-0.008519612925851704,0.0,-0.0016609786613226453,1.2907516344669336,0.16854106963727453,-9.903649897396793,5.565892212408819,966.1635692402805,12.404602,-0.002405186254509016,-0.0050676327755511015,0.0003460580841683383,-0.19648584559318638,0.16707894031462928,-9.92292434943487,-0.0032194507575150286,0.003551882134268537,0.002331522615230461,5.565892212408819,-0.11872319286573146,-0.13072319286573147,0.40060008,-0.26252354964128255,13.254101022024047,24.000050398416832,-0.21491897978356714,13.083134423266534,0.10999999,-24.148961438296595,1935882.2239358719,6620172.0,399.60230127615233,12.404602,96616.46780647295,1.147963431282565,-0.5836654173246493,-0.3753441330060121,0.025877225923847558,0.0026796812865731473,0.006877377448897797,0.004381615889779559,0.0,-0.12096857474749499,1.6225462,0.6873139526092183,0.04383414529258517,-0.04162246688777555,0.7238355156092184,1.0,398714138.0,327364368.0,400129.4759164329,0.0,0.005240883871743486,0.0,-0.009518232645290583,5.336943384216433,0.0,0.0,0.8437282645531062,39.8714138,32.7364368,0.00810436406012024,0.013127627476953906,-0.05418597216432866,0.023432898146292586,0.037856012470941884,-0.06081363901002004,0.04501299733466934,0.061775383713426855,-0.06563354592184369,1.6225788780340682,0.10651036486573146,-0.16232079910821642,-0.18431448803206413,-0.005465881,1.0,8147667.72745491,1.0,0.0,0.0,0.0,0.0
8173798.0,0.031636585022044084,0.03724039131062124,-0.004859815234468938,0.15,0.0,900.0,900.0,900.0,900.0,900.0,900.0,1.2316861997074147,1.2557477636332663,2.386533751308617,2.3874316941222444,2.4341011881563124,3.5980619876873745,3.6683770229058115,,,41.89740897298597,41.89740897298597,12.404585410420841,-0.00015408875551102208,-0.004906909018036072,-0.0004942408196392786,0.03041969198196393,0.002981421869739479,-0.09761136663727454,2.0,-1.0,0.0,11.0,0.0,0.0,1.0,0.0,0.0,0.0,0.0,0.0,0.0,0.0,0.0,-0.13022048620440882,1.5692601826192387,1.573778325975952,0.3612089591182365,282.8269883719439,62.475376878977954,-0.0025158711122244487,-0.008743309498997997,0.0,-0.0014618730300601202,2.615878546010018,0.18460252278356715,-9.957606016094187,2.5388870896132274,966.1635128865731,12.404602,-0.007338394290581165,-0.005994202264529059,-0.002496659821643289,-0.18796623393987974,0.16668501590581164,-9.9456305115992,-0.006523685667334668,0.004440250190380762,0.0026416325150300604,2.5388870896132274,-0.11875300232464929,-0.1307530024448898,0.40060008,-0.2553528420561122,13.254095186352705,24.352434506833667,-0.22196677768937875,12.614853165751503,0.10999999,-25.064304728577152,1961365.3486853708,6620172.0,399.55876558777555,12.404602,96616.95261198397,1.1479692180561123,-0.4628095117635272,-0.10778857884769541,0.3276099778076153,-0.0004932810581162307,0.004672457108216433,0.003631020509018038,0.0,-0.11362197815430862,1.6225462,0.6874631635310621,0.04117504968136273,-0.03909753687775551,0.7239926371322645,1.0,398714138.0,327364368.0,400129.221940481,0.0,0.00757994915230461,0.0,-0.004538479208416836,5.619009234336674,0.0,0.0,0.8176829755250501,39.8714138,32.7364368,0.008072678198396794,0.013246660593186368,-0.05351561359719439,0.02129561553106213,0.07623589635871733,-0.05933819321843688,0.005889977464929967,0.8077475846953888,-0.042837594559118286,1.6224905305390782,0.10708439742084169,-0.16897946447895792,-0.1758152772705411,-0.005465881,1.0,8173797.507014028,1.0,0.0,0.0,0.0,0.0
8197483.0,0.033002603739478956,0.03685236778356713,-0.004386758410821643,0.15,0.0,900.0,900.0,900.0,900.0,900.0,900.0,1.3052053130941883,1.3307012231523043,2.923831358352705,2.9248575792825653,2.9820294436072143,4.100034586785571,4.180159539749499,,,48.04807442198397,48.04807442198397,12.404583040480961,-0.0001050434348697395,-0.0049452888777555114,-0.0003827322224448898,0.03036890212224449,0.0030904039939879764,-0.09773302501402806,2.0,-1.0,0.0,11.0,0.0,0.0,1.0,0.0,0.0,0.0,0.0,0.0,0.0,0.0,0.0,-0.12280102294789579,1.5693277661362728,1.5737844578296594,0.35877781042084167,282.24734386793585,62.804468720260516,-0.002649194128256513,-0.008936452284569138,0.0,-0.0013451644629258518,6.995301633154306,0.19872590446693386,-9.9905330742505,0.4279672998436883,966.1639587132265,12.404602,-0.004063646474949901,-0.005142366873747495,0.0028063593466933837,-0.23080135607414828,0.16598015774949898,-9.952577675827655,-0.008340495476953907,0.004427445931863728,0.0019399657314629263,0.4279672998436883,-0.1174640797995992,-0.1294640806513026,0.40060008,-0.23413434606412825,13.254090175831664,24.653993959238477,-0.22799806621643287,12.165527676573147,0.10999999,-26.020818184088174,1989560.3983547094,6620172.0,399.58498407174346,12.404602,96616.64839655311,1.1479656170641284,-0.1227449841583168,-0.07546310725450903,0.15823333263727463,-0.004252349494989978,0.0056907712665330654,-0.0006140845611222424,0.0,-0.10634921417635271,1.6225462,0.6876008021783567,0.03854206549298597,-0.03659740171743487,0.7241375794368737,1.0,398714138.0,327364368.0,400128.9679034068,0.0,0.008896845745490982,0.0,-6.980980961924111e-05,5.75206480338477,0.0,0.0,0.7916376858857715,39.8714138,32.7364368,0.007776171655310621,0.019013031535070137,-0.05278840339679359,0.00870132417835672,0.3185350591242484,-0.05228511096392786,-0.23093387004008004,5.363755376509015,0.0789338297895791,1.6224032319018038,0.10700026748096192,-0.17601824297595192,-0.16184828016633268,-0.005465881,1.0,8197483.008016032,1.0,0.0,0.0,0.0,0.0
8223501.0,0.027736131795591187,0.036770054044088174,-0.0012153052404809644,0.6456913827655307,0.0,900.0,900.0,900.0,900.0,900.0,900.0,0.6996221672925855,0.7132904338036076,3.461128965396793,3.462283463859719,3.5299576990581163,4.602007186466933,4.691942056593186,,,54.198739876813626,54.198739876813626,12.404580670541081,-5.596953907815634e-05,-0.00498366873747495,-0.0002712236252505011,0.03031811226252505,0.003199386118236473,-0.09785468280761524,2.0,-1.0,0.0,11.0,0.0,0.0,1.0,0.0,0.0,0.0,0.0,0.0,0.0,0.0,0.0,-0.11538155910821643,1.5693953496533068,1.5737905902665332,0.3563466617234469,281.66769936392785,63.13356055571142,-0.002796332937875752,-0.00916372721242485,0.0,-0.0012768027174348698,16.98581264262524,0.209288828254509,-9.984827365460921,-7.209999999999999e-21,966.1653271090181,12.404602,-0.006045829404809617,-0.005890145070140279,0.0008518495951903827,-0.2257711245210421,0.21262498436873745,-9.954379113298597,-0.007424738308617235,0.002759086689378759,-0.0006204504308617216,-7.209999999999999e-21,-0.11272455858517035,-0.12472455958517034,0.40060008,-0.17615834485971948,13.254087328857716,24.822565373607215,-0.2313695511783567,11.765801953567134,0.10999999,-27.085057676052102,2014702.3115971945,6620172.0,399.4991859837675,12.404602,96617.65500490983,1.147977567951904,-0.16556762426452898,-0.13709873296392783,0.09414971724048099,-0.002596821170340683,0.005220652498997997,-0.0005305267254509024,0.0,-0.09913602355511023,1.6225462,0.6877273484188376,0.035930099202404815,-0.0341172236753507,0.7242708770761522,1.0,398714137.88336676,327364368.0,400128.71386633266,0.0,0.007138674192384771,0.0,0.002861325807615229,5.436841253438878,0.0,0.0,0.7655923968296593,39.8714138,32.7364368,0.006993159765531063,0.03515420037474949,-0.051956749272545094,-0.023103675076152283,0.9354570292565128,-0.03498528014228458,-0.830956523306613,16.919229976360715,0.38253440618436857,1.6223178600460921,0.10570701737875751,-0.18217988040881763,-0.1573744273547094,-0.005465881,1.0,8223501.174348697,1.0,0.0,0.0,0.0,0.0
8248854.0,0.023624592308617236,0.03693089003406814,0.0011067953186372744,1.0,0.0,1088.7775551102202,1088.7775551102202,1246.092184368737,1084.8874559899798,1092.3530249719436,1094.4408817635267,0.2773108165851703,0.28273053366733464,3.998426572755511,3.999709348603206,4.077885954194389,5.103979786296593,5.203724573436873,,,60.34940532997996,60.34940532997996,12.404578300601202,-6.919839679358755e-06,-0.005022048597194389,-0.00015970464529058124,0.030267322088176354,0.00330836824248497,-0.09797634076753507,2.0,-1.0,0.0,11.0,0.0,0.0,1.0,0.0,0.0,0.0,0.0,0.0,0.0,0.0,0.0,-0.10796209543486975,1.5694629328557115,1.5737967225370741,0.3539155130260521,281.08805485991985,63.46265239282565,-0.002943298216432866,-0.009411699056112225,0.0,-0.0012442529458917837,28.40319824717434,0.21894634350501002,-9.969297516937875,-7.209999999999999e-21,966.1669301100201,12.404602,-0.0036923619078156377,-0.004279636509018039,-0.0016454335410821638,6.679736652665321,0.24112316739078157,-9.933326752533066,-0.0058141015651302615,0.0006697275250501015,-0.0036535382565130244,-7.209999999999999e-21,-0.1071075652244489,-0.11910756653907816,0.40060008,-0.1088350742885772,13.254085032064129,24.957318524008016,-0.23406465997595188,11.378689226372746,0.10999999,-28.17669141783567,2041378.673961924,6620172.0,399.45484306152304,12.404602,96618.17869462926,1.1479837921563127,-0.13225600776953925,0.21318989147494935,0.035094232635270596,0.0008642387655310595,0.0056869436993987965,-0.0002990057535070134,0.0,-0.09196676603006013,1.6225462,0.687845437012024,0.03333364271142285,-0.03165177346492986,0.7243952682945891,1.0,398714137.73707414,327364368.0,400128.45982925856,0.0,0.004598526861723448,0.0,0.005401473138276551,5.007622325839679,0.0,0.0,0.7395471079218437,39.8714138,32.7364368,0.0060864314248496995,0.05393363397194388,-0.05109853521042084,-0.059793871843687355,1.6476439057294585,-0.015079746935871757,-1.523339010340681,30.254637715771537,0.7323733236492984,1.6222329781623246,0.10410629373547094,-0.18872470565731464,-0.15371054613026053,-0.005465881,1.0,8248854.01002004,1.0,0.0,0.0,0.0,0.0
8272724.0,0.023385074931863727,0.03721938066533066,0.0014268128076152299,1.0,0.0,1500.0460921843687,1500.0,2000.0,1487.606615735471,1511.393384264529,1517.9958324368738,0.40876595632665236,0.41675221560120146,4.53572418048497,4.537135233717435,4.62581420895992,5.60595238608016,5.7155070902805605,,,66.50007077943887,66.50007077943887,12.404575930661323,4.209218637274546e-05,-0.005060428456913828,-4.81755511022045e-05,0.030216531543086178,0.003417350366733467,-0.0980979990981964,2.0,-1.0,0.0,11.0,0.0,0.0,1.0,0.0,0.0,0.0,0.0,0.0,0.0,0.0,0.0,-0.10054263217835673,1.5695305156873747,1.5738028544368738,0.3514843643286573,280.5084103513026,63.791744234108215,-0.003086374260521042,-0.00968151968537074,0.0,-0.0012452049038076153,39.37132578096192,0.22878382389178356,-9.95300460322445,-7.209999999999999e-21,966.1684687893787,12.404602,0.005107679138276557,0.0003635573186372779,-0.0022088144428857735,23.105490717915817,0.22740324066733472,-9.884337386480963,-0.004217283442885773,-0.0014118595731462912,-0.006548312056112224,-7.209999999999999e-21,-0.10149057149298597,-0.11349057349298598,0.40060008,-0.04151180371743492,13.254082735270542,25.09207167486974,-0.2367597687735471,10.991576495470943,0.10999999,-29.268325159619238,2070794.6804268537,6620172.0,399.50405254228457,12.404602,96617.60944843687,1.1479770483767535,0.11652635825851701,1.01752757633467,-0.029582663525050294,0.004327350865731466,0.007715362735470943,-0.0010534111643286596,0.0,-0.08483887585370742,1.6225462,0.687955271971944,0.030751791529058117,-0.029200192342685373,0.724510953272545,1.0,398714137.59078157,327364368.0,400128.20579679357,0.0,0.002058379901803609,0.0,0.00794162009819639,4.57840339786974,0.0,0.0,0.713501818967936,39.8714138,32.7364368,0.004969104711422849,0.0766147324889779,-0.05013414498797596,-0.09733589679759516,2.376191996198396,0.005259679795591164,-2.187746792068136,43.06239874300601,1.0691652858196392,1.6221467078897795,0.10254442317835671,-0.19594862691182366,-0.14845283631462924,-0.005465881,1.0,8272723.879759519,1.0,0.0,0.0,0.0,0.0
8299335.0,0.024742953198396794,0.03614751318036072,0.0022266199719438873,1.0,0.0,1500.7775551102204,1500.0,2000.0,1487.141458711423,1511.858541288577,1517.9296950220441,1.7620570689018027,1.7964812188376742,5.073021787529058,5.074561118146292,5.173742464410822,6.107924985178356,6.227289607124248,,,72.6507362357515,72.6507362357515,12.404573560721444,9.116383967935869e-05,-0.005098808316633266,6.32993987975951e-05,0.030165741683366734,0.003526332490981964,-0.09821965674348697,2.0,-1.0,0.0,11.0,0.0,0.0,1.0,0.0,0.0,0.0,0.0,0.0,0.0,0.0,0.0,-0.09312316892184369,1.5695980992044087,1.573808987022044,0.34905321563126257,279.9287657741483,64.12083607539077,-0.0032442488296593186,-0.010039484474949898,0.0,-0.001281020985971944,43.65918107014028,0.24129730760921841,-9.925365235699399,-7.209999999999999e-21,966.1690510338677,12.404602,-0.0019809836673346645,-0.004369710016032061,0.00031950178957915664,45.39488284136271,0.18060542690981968,-9.84437440107014,-0.0028259422104208428,-0.0033778856252504996,-0.007386416424849698,-7.209999999999999e-21,-0.09587357844689379,-0.10787358044689378,0.40060008,0.025811466853707367,13.254080438476954,25.22682483258517,-0.23945487757114228,10.604463771422846,0.10999999,-30.359958901402806,2095424.7443747495,6620172.0,399.5665316915832,12.404602,96616.86879102203,1.1479681991382766,0.1513338891002004,-0.012155446180359908,0.2505723798817633,-0.0006228288737474908,0.0070684357114228465,0.0023017931843687355,0.0,-0.077759063749499,1.6225462,0.6880534247875751,0.028186865577154312,-0.026764679737474956,0.7246143002064128,1.0,398714137.44448894,327364368.0,400127.9518328657,0.0,-0.0004817677434869722,0.0,0.010481767743486973,4.14918447058517,0.0,0.0,0.6874565293286573,39.8714138,32.7364368,0.0007202779579158353,0.1573118919879759,-0.047590967623246494,-0.14754423032464925,3.3480242252164323,0.03205091459519036,-2.4361828688016027,48.02428258418837,1.2119546953486973,1.6220397928797594,0.10156027492184369,-0.20132758290380762,-0.1510959015250501,-0.005465881,1.0,8299335.23246493,1.0,0.0,0.0,0.0,0.0
8325947.0,0.024735524454909823,0.036113858224448896,0.0022255656452905815,1.0,0.0,1500.4909819639279,1500.0,2000.0,1487.0,1512.0,1517.9556063927855,3.1794840712404806,3.241601571228456,5.610319394573146,5.6119870030841685,5.721670719861724,6.609897584785571,6.739072123967935,,,78.80140168697393,78.80140168697393,12.404571190781564,0.00014022174949899797,-0.005137188176352705,0.00017480336272545082,0.030114951823647294,0.003635314615230461,-0.09834131489779559,2.0,-1.0,0.0,11.0,0.0,0.0,1.0,0.0,0.0,0.0,0.0,0.0,0.0,0.0,0.0,-0.08570370566533067,1.5696656827214428,1.5738151196072143,0.34662206693386777,279.3491212478958,64.44992791667335,-0.003383390517034068,-0.010381647308617235,0.0,-0.0013223415891783566,43.23209033094189,0.25569951903807614,-9.889717523553106,-7.209999999999999e-21,966.1689582186373,12.404602,-0.000589482344689383,-0.004196586605210423,-0.001923816815631259,50.49391181190381,0.21462050257114224,-9.86127008224048,-0.001579626833667336,-0.0052623486633266514,-0.00677292046492986,-7.209999999999999e-21,-0.09025658489178356,-0.10225658790981965,0.40060008,0.09313473742484965,13.254078141683367,25.36157798521042,-0.24214998687775552,10.217351044320642,0.10999999,-31.451592643186373,2121611.4933887776,6620172.0,399.5814538965932,12.404602,96616.71065893787,1.1479663041042083,0.05115085837474964,-0.25481976799799605,0.1633700417214431,-0.0019032308657314632,0.004052337176352708,0.003258817593186373,0.0,-0.07070804628657315,1.6225462,0.6881428245290581,0.025632037525050104,-0.02433875754108217,0.724708437985972,1.0,398714137.3490982,327364368.0,400127.6978180361,0.0,-0.0030219148797595166,0.0,0.013021914879759518,3.7199655433006016,0.0,0.0,0.6614112401983968,39.8714138,32.7364368,-0.0057387661903807565,0.27895687301803596,-0.04393348004208417,-0.2066924639078156,4.491566759440881,0.0633958451062124,-2.3910255003607213,47.44853469154309,1.2178168151983968,1.6219183067194387,0.1009838847254509,-0.2062172575250501,-0.14679074888777555,-0.005465881,1.0,8325946.585170341,1.0,0.0,0.0,0.0,0.0
8351596.0,0.023891767561122247,0.03620431985771543,0.002607993551102203,1.0,0.0,1500.4809619238476,1500.0,2000.0,1487.2404809619238,1511.7595190380762,1517.7596633266533,4.432552631190381,4.51914989456513,6.147617001617234,6.149412888004009,6.269598975312625,7.11187018461523,7.250854640811623,,,84.95206713837675,84.95206713837675,12.404568820841684,0.00018927365330661318,-0.005175567795591183,0.0002863173607214428,0.030064161963927857,0.003744296739478958,-0.09846297303406813,2.0,-1.0,0.0,11.0,0.0,0.0,1.0,0.0,0.0,0.0,0.0,0.0,0.0,0.0,0.0,-0.07828424240881764,1.569733265997996,1.5738212519519037,0.34419091823647296,278.7694767438878,64.77901975795591,-0.003517043503006012,-0.010733241637274548,0.0,-0.0013694810981963927,40.744531049378764,0.27092711910821643,-9.85057010198998,-7.209999999999999e-21,966.168570396994,12.404602,0.0015846263326653339,-0.004017602186372742,-0.005170767637274549,47.975341646072145,0.26265166919438876,-9.886084394064127,-0.0003966886573146303,-0.007111168022044086,-0.005525063731462927,-7.209999999999999e-21,-0.08463959111422846,-0.09663959535470942,0.40060008,0.1604580079959919,13.25407584488978,25.49633113561122,-0.24484509616633265,9.83023831636473,0.10999999,-32.54322638496994,2149159.704470942,6620172.0,399.616125350501,12.404602,96616.32276394789,1.1479617042244488,-0.09167807235671332,-0.17104102987174352,-0.03043654560320634,-0.0011491130100200414,0.0028167516753506974,0.002321810068136275,0.0,-0.0636800335511022,1.6225462,0.6882246346192384,0.023085272595190384,-0.02192049175951904,0.7247945905711423,1.0,398714137.25190383,327364368.0,400127.4437809619,0.0,-0.005562062034068133,0.0,0.015562062034068134,3.290746616016033,0.0,0.0,0.6353659510501003,39.8714138,32.7364368,-0.01316369298396793,0.4184963744809618,-0.039789030122244495,-0.26974750420841676,5.710148048849699,0.09673077649899797,-2.2175654848597195,44.45279812781563,1.1638406315310623,1.6217904530921843,0.10058568825250501,-0.21073534696392787,-0.14235745547094186,-0.005465881,1.0,8351596.0140280565,1.0,0.0,0.0,0.0,0.0
8375282.0,0.022558667601202405,0.03562186763326653,0.004487912519038075,1.0,0.0,1501.943887775551,1500.0,2000.0,1487.9719438877755,1511.0280561122245,1517.0286392785572,5.292832431561122,5.3962282340340675,6.684914608661322,6.686838772432864,6.8175272307635275,7.613842784444889,7.76263715765531,,,91.10273259468937,91.10273259468937,12.404566450901804,0.00023832555711422843,-0.005213946923847696,0.0003978259579158316,0.030013372104208416,0.003853278863727455,-0.09858463067935873,2.0,-1.0,0.0,11.0,0.0,0.0,1.0,0.0,0.0,0.0,0.0,0.0,0.0,0.0,0.0,-0.07086477915230462,1.569800848783567,1.5738273838056112,0.3417597695390781,278.18983223987976,65.10811159923847,-0.0036562043246492985,-0.0111181908256513,0.0,-0.0014235896052104207,38.25697176290581,0.28615471868737474,-9.811422680917836,-7.209999999999999e-21,966.1681825753507,12.404602,-0.0022096510721442853,-0.008204253128256508,-0.006209431825651301,45.24183485579158,0.267195788993988,-9.876335219925853,0.0007862500100200391,-0.00895998738076152,-0.0042772069979959935,-7.209999999999999e-21,-0.07902259733667334,-0.09102260230861724,0.40060008,0.2277812785671342,13.254073548096192,25.631084286012022,-0.24754020496392787,9.443125589390782,0.10999999,-33.6348601267535,2178098.6548617235,6620172.0,399.7335496541083,12.404602,96614.94602637274,1.147945377240481,-0.20113384152504998,-0.12297167314829664,-0.1141282521462925,0.0004845509178356697,0.007330212937875747,-0.00034246464128256243,0.0,-0.05667329751903807,1.6225462,0.6882987588777555,0.020545960280561125,-0.019509301028056113,0.7248726566833666,1.0,398714137.10561126,327364368.0,400127.18974388775,0.0,-0.008102209679358714,0.0,0.018102209679358716,2.8615276887314636,0.0,0.0,0.6093206614108216,39.8714138,32.7364368,-0.02058862026853707,0.5580358759438876,-0.03564458020240481,-0.332802544509018,6.9287293377675345,0.13006570789178357,-2.0441054698496997,41.45706156408818,1.1098644483547093,1.6216625999559118,0.10018749227054109,-0.21493133210420842,-0.14386191086172345,-0.005465881,1.0,8375281.51503006,1.0,0.0,0.0,0.0,0.0
8401781.0,0.02313093069539078,0.03569153472144288,0.00512464435270541,1.0,0.0,1502.3841367915832,1500.0,2000.0,1488.0,1511.0,1517.0001779559118,6.474671874104207,6.601178001076152,7.222212216408817,7.224264657565129,7.365455486214429,8.115815384274548,8.274419674498997,,,97.25339804396793,97.25339804396793,12.404564080961924,0.00028737675751503,-0.0052523267555110225,0.0005093345551102203,0.029962581541082167,0.0039622609879759515,-0.09870628902805612,2.0,-1.0,0.0,11.0,0.0,0.0,1.0,0.0,0.0,0.0,0.0,0.0,0.0,0.0,0.0,-0.06344531519238478,1.569868432272545,1.5738335163627255,0.33932862084168336,277.61018773587176,65.43720343348697,-0.003792634521042084,-0.011507482847695389,0.0,-0.0014778683366733468,36.01245574406814,0.2682682439098197,-9.820383532977955,-7.209999999999999e-21,966.1679987416834,12.404602,-0.0015032137434869749,-0.006858513114228459,-0.006163426529058116,42.191235453326655,0.18800111358116242,-9.79562410286573,0.0014991989739478952,-0.00899352407214429,-0.001776596797595193,-7.209999999999999e-21,-0.06341960713426856,-0.07541961143086173,0.40060008,0.31905262285971936,13.254070336873747,25.70319761767535,-0.2489825349719439,9.083394343577154,0.10999999,-34.76387397579158,2204992.2515811627,6620172.0,399.64019283046093,12.404602,96616.01473182364,1.1479581065851705,-0.14794611606813635,-0.3624280243787573,0.04034600005210405,7.66272144288582e-05,0.004500759827655314,0.0008795066232464914,0.0,-0.049688432515030065,1.6225462,0.6883609308476953,0.01801422506412826,-0.01710530685170341,0.7249381339238476,1.0,398714137.1,327364371.30601203,400127.406285972,0.38701305018036036,-0.008877859925851703,0.3864248663266529,0.01828969436072144,2.574002437715431,0.0,0.0,0.58327537247495,39.8714138,32.7364368,-0.031005136731462914,0.7563553652064127,-0.030032488847695396,-0.38357353229859714,7.9243574679719435,0.15741404659118235,-1.91533715446493,38.982939959619245,1.0419219618136273,1.6215322138517034,0.10005107898196393,-0.21898639883366733,-0.14398436108016033,-0.005465881,1.0,8401780.643286573,1.0,0.0,0.0,0.0,0.0
8430131.0,0.022471526563126256,0.03567254842284569,0.004954060729458918,1.0,0.0,1502.3086227214428,1500.0,2000.0,1488.3950278436873,1510.6049721563127,1517.0,7.60655107839078,7.755138183999999,7.759509823749499,7.76169054272545,7.9133837416653305,8.617787983669338,8.786202191342685,,,103.40406350601202,103.40406350601202,12.404561711022044,0.00033642836472945887,-0.005290706615230461,0.0006208427174348696,0.029911791384769543,0.004071243112224448,-0.09882794740480962,2.0,-1.0,0.0,11.0,0.0,0.0,1.0,0.0,0.0,0.0,0.0,0.0,0.0,0.0,0.0,-0.05602585163927856,1.5699360157895792,1.5738396485130262,0.33689747214428856,277.03054323186376,65.76629527180361,-0.0039264748717434865,-0.01188711959719439,0.0,-0.0015270758837675352,33.847165168316636,0.23958748694388782,-9.845026365476953,-7.209999999999999e-21,966.1678814038077,12.404602,-0.0001633254288577171,-0.0055084099679358735,-0.00596300318236473,39.473783461643286,0.1508077434228457,-9.810043025813627,0.0020589441002004005,-0.008435329230460923,0.0011323773687374715,-7.209999999999999e-21,-0.042039529991983994,-0.054039533991983996,0.40060008,0.42417837721042073,13.254066593426852,25.739072643587175,-0.24970010922044086,8.739503798601202,0.10999999,-35.91451292511022,2231804.267242485,6620172.0,399.59318736252504,12.404602,96616.5472102004,1.1479644564048097,0.06371850227254477,-0.09791186776553173,0.21778488488977937,0.0006350456412825637,0.003660912957915831,0.0010767075991983974,0.0,-0.04271209965531063,1.6225462,0.6884162730761523,0.015485413462925856,-0.014704087607214433,0.724996407266533,1.0,398714137.186974,327364376.91823643,400127.9547472946,1.0470438940100193,-0.008408747797595192,1.0454525936292578,0.016817496030060122,2.386434785012024,0.0,0.0,0.5572300831322645,39.8714138,32.7364368,-0.04239682949298596,0.973835520791583,-0.023941986701402813,-0.4303402554909819,8.847308972418837,0.18281092066132262,-1.8011371096573148,36.67885055292585,0.9694268428797597,1.621401002224449,0.1,-0.22296304203807615,-0.1394986645991984,-0.005465881,1.0,8430131.04008016,1.0,0.0,0.0,0.0,0.0
8459668.0,0.02165323733066132,0.03560502281162324,0.004291411551102205,1.0,0.0,1501.9396423667336,1500.0,2000.0,1488.7572884008016,1510.2427115991984,1517.0,8.640902664428856,8.809658686569136,8.296807430793587,8.299116427719438,8.461311997116232,9.119760582933868,9.297984708186371,,,109.5547289769539,109.5547289769539,12.404559341082164,0.0003854801022044088,-0.0053290864749499,0.0007323507494989978,0.029861001525050102,0.004180225402805611,-0.09894960561523046,2.0,-1.0,0.0,11.0,0.0,0.0,1.0,0.0,0.0,0.0,0.0,0.0,0.0,0.0,0.0,-0.048606388382765535,1.5700035991402805,1.5738457805330661,0.33446632344689375,276.45089872785576,66.09538711308618,-0.004058223294589178,-0.012255144068136273,0.0,-0.001570333605210421,31.729296938116235,0.20444554604809623,-9.879056034338678,-7.209999999999999e-21,966.1678038521042,12.404602,0.0004398094148296629,-0.003944196961923851,-0.005352819881763529,37.01004810034069,0.14884060292384768,-9.877834932466934,0.00252698528256513,-0.0075229387835671355,0.00428578775350701,-7.209999999999999e-21,-0.016990972863727482,-0.028990976531062154,0.40060008,0.5381017536933866,13.2540625102004,25.751936156252505,-0.24995745982164327,8.40567218069539,0.10999999,-37.07888392374749,2257950.952242485,6620172.0,399.5869598705411,12.404602,96616.61172096193,1.1479652311523045,0.21422214445290627,0.3459877656833669,0.38125161441282557,0.0015870129098196394,0.004001576432865733,0.0006857902525050097,0.0,-0.03574270853907817,1.6225462,0.6884644487314628,0.012958956420841687,-0.012305103591182368,0.7250471281322645,1.0,398714137.3166333,327364384.01342684,400128.7167853708,1.8827523581282555,-0.007138673775551104,1.879890946254508,0.014277348384769545,2.2631864311202405,0.0,0.0,0.5311847936593187,39.8714138,32.7364368,-0.054372238110220426,1.2027847661322641,-0.017565120144288585,-0.47471012728456913,9.726758089226452,0.20703969746492984,-1.69565726297996,34.4765381154509,0.8942066336272546,1.6212692964729458,0.1,-0.2267753130460922,-0.13351854786172346,-0.005465881,1.0,8459667.679358717,1.0,0.0,0.0,0.0,0.0
8489205.0,0.023325308182364727,0.03563828535671342,0.00371277463727455,1.0,0.0,1501.674214220441,1500.0,2000.0,1488.0928406452906,1510.9071593547094,1517.0,9.48938620023046,9.674783360156312,8.834105037837675,8.836542312148296,9.009240252567134,9.621733182763526,9.80976722503006,,,115.70539444789577,115.70539444789577,12.404556971142284,0.00043453127454909813,-0.005367466334669339,0.0008438593466933866,0.029810211665330662,0.004289208258517034,-0.09907126326052104,2.0,-1.0,0.0,11.0,0.0,0.0,1.0,0.0,0.0,0.0,0.0,0.0,0.0,0.0,0.0,-0.041186925126252515,1.5700711819258517,1.5738519131182365,0.332035174749499,275.8712542238477,66.42447895436874,-0.004188613144288577,-0.012606489849699398,0.0,-0.0016051431943887777,29.611428713567136,0.1693036057174349,-9.91308570263527,-7.209999999999999e-21,966.1677262438878,12.404602,-0.0025121240621242442,-0.0011513003486973983,-0.003608013819639281,34.607044304248504,0.16149057469739475,-9.899967509881764,0.0029950264649298594,-0.006610547771543088,0.007439197573146289,-7.209999999999999e-21,0.008057583699398768,-0.003942418505010051,0.40060008,0.6520251301763526,13.254058421322645,25.764799663266533,-0.25021481042284566,8.071840562789578,0.10999999,-38.24325491673346,2281837.1162004005,6620172.0,399.59238988557115,12.404602,96616.5548643487,1.1479645326052104,-0.19527234741082128,0.20495355411022062,0.4660445903246492,0.0014481454048096195,0.0030640384569138287,0.0010305272665330658,0.0,-0.02877915295791584,1.6225462,0.6885029968276553,0.010434424777555113,-0.00990794890180361,0.7250877184729458,1.0,398714137.38977957,327364391.10861725,400129.4788234469,2.718460822246492,-0.005868600318637276,2.7143292988797585,0.01173720073947896,2.1399380777935875,0.0,0.0,0.505139504751503,39.8714138,32.7364368,-0.0663476467274549,1.4317340114729458,-0.011188254152304617,-0.5190799990781563,10.606207208294588,0.23126847426853703,-1.5901774168677354,32.274225677975956,0.8189864249398799,1.6211375907214431,0.1,-0.23019781710420842,-0.13301150068737477,-0.005465881,1.0,8489204.883767536,1.0,0.0,0.0,0.0,0.0
8513708.0,0.023034996705410822,0.03551303705210421,0.003635946220440882,1.0,0.0,1501.2362094088176,1500.0,2000.0,1488.0,1511.0,1517.0,10.310442329999999,10.511903637294587,9.371402645511022,9.37396819720641,9.557168508018034,10.123705781963928,10.321549741873747,,,121.85605985591181,121.85605985591181,12.404554601202404,0.0004835830761523045,-0.005405846194388778,0.0009553679438877755,0.029759421176352704,0.00439819048496994,-0.09919292153507014,2.0,-1.0,0.0,11.0,0.0,0.0,1.0,0.0,0.0,0.0,0.0,0.0,0.0,0.0,0.0,-0.03418560100801604,1.5699081559378756,1.5738047871503007,0.34376003771142283,275.29264799639276,66.55333881629258,-0.004327720112224449,-0.012957634268537074,0.0,-0.0016364641743486976,27.921006700561126,0.15763944853306613,-9.913784359657315,-7.209999999999999e-21,966.1662725731463,12.404602,-0.001022346312625253,-0.005677118252505003,0.0007981297615230402,32.398490413486975,0.1672422370521042,-9.901518637633266,0.0029259992785571147,-0.005011830158316636,0.008051639476953908,-7.209999999999999e-21,0.033106140891783535,0.021106138891783536,0.40060008,0.7659485060300599,13.254054338737475,25.77766317028056,-0.25047216102404807,7.738008945513027,0.10999999,-39.40762591601202,2310529.763108216,6620172.0,399.5502473903808,12.404602,96617.05514693387,1.14797046895992,-0.025159849114228805,-0.193654162132264,0.2889530441883771,4.515606012024274e-05,0.006487605579158312,0.0012862619559118234,0.0,-0.02181445464328658,1.6225462,0.6885326654569138,0.007909349454909821,-0.007510278220440885,0.7251190108897795,1.0,398714137.5258517,327364398.26673347,400130.240861523,3.554169286993987,-0.004598526861723448,3.548767651505009,0.009197053723446896,2.0166897238376755,0.0,0.0,0.4790942158436874,39.8714138,32.7364368,-0.07939720907214427,1.7376555580881758,-0.0031770307454909927,-0.5530231434529058,11.393834571543085,0.2516819257975952,-1.4778358766312625,30.430350583426854,0.7693171337434871,1.6208869557394792,0.1,-0.23342446193186372,-0.12373095119639281,-0.005465881,1.0,8513708.02004008,1.0,0.0,0.0,0.0,0.0
8538836.0,0.022607169611222444,0.03535397437675351,0.0032479793266533075,1.0,0.0,1501.0,1500.0,2000.0,1488.0,1511.0,1517.0,11.091615088637274,11.308369804649297,9.90870025256513,9.91139408164529,10.105096764551101,10.625678381062123,10.8333322597996,,,128.00672528977955,128.00672528977955,12.404552231262524,0.0005326346192384768,-0.005444226054108217,0.0010668761803607214,0.029708630945891785,0.004507172609218436,-0.0993145795511022,2.0,-1.0,0.0,11.0,0.0,0.0,1.0,0.0,0.0,0.0,0.0,0.0,0.0,0.0,0.0,-0.027328786438877765,1.5696654313787572,1.5737392548356715,0.3603772357975952,274.71440061462926,66.61299825507014,-0.004455869450901804,-0.01326910738476954,0.0,-0.001664522501002004,26.34171492951904,0.15207919857314628,-9.90581740333467,-7.209999999999999e-21,966.1644611052103,12.404602,-3.2597434869739136e-05,-0.007989876869739482,0.0025323966953907837,30.5614380945491,0.16320356557915836,-9.906787823915831,0.002717341763527055,-0.00323467695190381,0.008003464456913828,-7.209999999999999e-21,0.058154698186372714,0.04615469654709416,0.40060008,0.8798718821422844,13.254050257174349,25.79052667729459,-0.2507295116252505,7.404177327977957,0.10999999,-40.57199691270541,2338821.120733467,6620172.0,399.56242220200403,12.404602,96616.91579122245,1.147968807967936,0.11074191847094188,-0.3018909938557117,0.26301202684368713,4.188014829659104e-05,0.006372012593186379,0.0028849374468937834,0.0,-0.014846409002004016,1.6225462,0.6885546712384769,0.0053829792144288605,-0.005111378080160324,0.725142186521042,1.0,398714137.6721443,327364405.39899796,400131.0028995992,4.389877751482965,-0.003328453404809621,4.383206004130259,0.006656906448897799,1.8934413697795591,0.0,0.0,0.4530489265751504,39.8714138,32.7364368,-0.09272603699799598,2.0635888642304607,0.005259103252504999,-0.5842554797054108,12.15758951993988,0.27110344424448896,-1.363710388715431,28.67966435697395,0.7262907363787576,1.6206054008997997,0.1,-0.2365762222024048,-0.11521888935270543,-0.005465881,1.0,8538836.406813627,1.0,0.0,0.0,0.0,0.0
8565448.0,0.022107003328657317,0.03482493090981965,0.002578430036072144,1.0,0.0,1501.0,1500.0,2000.0,1488.1339154028055,1510.8660845971945,1516.8660845971945,11.834048876893787,12.065340007434868,10.445997858877755,10.4488199652505,10.653025021182364,11.12765098016032,11.34511477791583,,,134.15739076072143,134.15739076072143,12.404549861322645,0.000581685883767535,-0.005482605913827656,0.001178384138276553,0.029657841086172344,0.004616154733466934,-0.09943623728857716,2.0,-1.0,0.0,11.0,0.0,0.0,1.0,0.0,0.0,0.0,0.0,0.0,0.0,0.0,0.0,-0.020550694653306622,1.569379290304609,1.5736636954468939,0.37965957511823645,274.1363487248497,66.63496017340681,-0.004573796492985972,-0.01354324759719439,0.0,-0.0016910994729458916,24.80725228947896,0.14833075695791584,-9.895138127466934,-7.209999999999999e-21,966.1625158322643,12.404602,-0.00010821424849699572,-0.006413642284569145,0.000916570402805615,29.052923302364732,0.1552417884328657,-9.91793771707014,0.002499199501002004,-0.0014242168396793608,0.007835286076152304,0.010293652396793473,0.08320325548096189,0.07120325448096189,0.40060008,0.9937952586252504,13.254046175611222,25.803390184308615,-0.2509868622264529,7.070345710072145,0.10999999,-41.73636790569138,2365864.3455490978,6620172.0,399.62156480460925,12.404602,96616.2243109018,1.1479605920400802,0.0869056657254512,-0.08828928939478968,0.36351483264128315,0.001430859541082165,0.0025583329318637263,0.005511875869739479,0.0,-0.0078737832224449,1.6225462,0.6885689719839678,0.002854880543086176,-0.002710836593186376,0.7251572023466933,1.0,398714137.81843686,327364412.4941884,400131.7649376753,5.225586215601202,-0.0020583798557114244,5.21764435675551,0.0041167588957915875,1.7701930158136274,0.0,0.0,0.42700363702805627,39.8714138,32.7364368,-0.10616045482765529,2.3973603094649296,0.013859834729458906,-0.6143916625991984,12.911504242204408,0.29012605173346695,-1.2490167552605211,26.96668857212425,0.6858369336873749,1.620312820783567,0.1,-0.2396222271983968,-0.1088407718236473,-0.005465881,1.0,8565447.759519039,1.0,0.0,0.0,0.0,0.0
8592059.0,0.019813583979959918,0.031787662042084164,0.002754693583166333,1.0,0.0,1501.0,1500.0,2000.0,1489.196505012024,1509.803494987976,1515.803494987976,12.560350688116232,12.805754071863728,10.983295465190382,10.986245848216432,11.200953270781563,11.629623579258517,11.85689728963928,,,140.30805623166333,140.30805623166333,12.404547491382765,0.0006307377875751503,-0.005520985773547094,0.0012898927354709421,0.029607051226452907,0.004725136857715431,-0.09955789566533066,2.0,-1.0,0.0,11.0,0.0,0.0,1.0,0.0,0.0,0.0,0.0,0.0,0.0,0.0,0.0,-0.013772602228456908,1.5690931485911823,1.5735881360581163,0.39894191507815635,273.55829683507017,66.65692209174348,-0.00470902496993988,-0.013841012987975953,0.0,-0.0017266193126252505,23.286426304909817,0.1408204928196393,-9.88882770171543,-7.209999999999999e-21,966.1605998382765,12.404602,0.0011338946492985985,-0.002113896933867732,-0.0018069849879759545,27.400001301563123,0.18186816099799602,-9.919543027300602,0.002588755432865732,0.00013995225851703573,0.008601881897795592,0.09197154641482974,0.10825181277555113,0.09625181177555112,0.40060008,1.1077186351082167,13.254042094048096,25.816253691322647,-0.2512442128276553,6.736514092166334,0.10999999,-42.90073889867736,2392676.3612104207,6620172.0,399.5642050911824,12.404602,96616.90789957915,1.1479687493146291,-0.1298701296052106,-0.010577991549098123,-0.039601905965932216,0.0010350927474949896,0.0033728695651302613,0.00559486472745491,0.0,-0.0008919300961923778,1.6225462,0.6885741770741484,0.0003233956132264507,-0.0003070782565130236,0.725162719771543,1.0,398714137.9647295,327364419.5893788,400132.5269757515,6.06129467971944,-0.000788305667334668,6.0520827093807625,0.0015766119819639254,1.646944662486974,0.0,0.0,0.40095834812024045,39.8714138,32.7364368,-0.1195801545470942,2.7319614468497,0.02246549312625252,-0.6441769448537075,13.66103144230461,0.30903545385771547,-1.13515473754509,25.26597124767535,0.6454555529458917,1.620026484501002,0.1,-0.24224184170741483,-0.10162722781563124,-0.005465881,1.0,8592059.112224448,1.0,0.0,0.0,0.0,0.0
8616450.0,0.020132051476953905,0.030950831214428858,0.0036427455450901785,1.0,0.0,1501.5551102204408,1500.0,2000.0,1489.2013975991983,1509.7986024008017,1515.2434921803608,13.22608338513026,13.484436543567133,11.520593071503006,11.523671736733467,11.748881525931862,12.131596178356713,12.368679806913827,,,146.4587217026052,146.4587217026052,12.404545121442885,0.0006797896913827655,-0.005559365633266533,0.0014014013326653304,0.029556260811623245,0.004834118981963928,-0.09967955404208417,2.0,-1.0,0.0,11.0,0.0,0.0,1.0,0.0,0.0,0.0,0.0,0.0,0.0,0.0,0.0,-0.006994510358717444,1.5688070074328657,1.5735125766693387,0.41822425503807614,272.98024500080163,66.67888401008017,-0.004826990629258517,-0.014091949280561122,0.0,-0.0017672061983967935,22.218724741843687,0.008310818438878015,-10.027687267210421,-7.209999999999999e-21,966.1596551761523,12.404602,0.0005455653426853725,-0.0061987389679358604,-1.0663655310626241e-05,25.67553857182365,0.14062527531262534,-9.881793625813627,0.012902632829659299,-0.006479754270541068,0.04042958017635264,2.5456351503647245,0.1476611874909819,0.1356611887114228,0.4006000611262525,1.2115608247414826,13.254065179579158,25.77971623008016,-0.25051300260921844,6.431990659100202,0.10999999,-44.106926394529054,2417267.93598998,6620172.0,399.57032783807614,12.404602,96616.84175639278,1.1479679437795591,-0.027977683128256853,-0.21445328579358672,-0.2657676522945889,-0.0010717191442885733,0.004500904140280559,0.002672973128256519,0.0,0.006103903480961913,1.6225462,0.6885700235611223,-0.0022131546973947857,0.0021014884448897764,0.7251583279238477,1.0,398714138.0,327364439.56312627,400131.82690901804,6.903269371224448,-0.0002144795831663332,6.8941798261242475,0.001821454709418836,1.5912846982925852,0.0,0.0,0.37491305865731467,39.8714138,32.7364368,-0.13251079161523044,3.0941319468156308,0.03123488239278556,-0.6623023628577154,14.264768146733466,0.324183203753507,-1.0489259933607216,23.97258311711423,0.6074806421783567,1.6199476389819638,0.1,-0.24494331721042084,-0.09810554369338677,-0.005465881,1.0,8616450.024048096,1.0,0.0,0.0,0.0,0.0
8641063.0,0.020234466034068144,0.030945937330661324,0.004436967176352704,1.0,0.0,1502.0,1500.0,2000.0,1489.2865731462925,1509.7134268537075,1515.0,13.868936619138275,14.139873549198393,12.05789067781563,12.061097624148294,12.296809782845688,12.633568777454908,12.880462325951902,,,152.60938714488975,152.60938714488975,12.404542751503007,0.0007288413086172342,-0.0055977452064128255,0.0015129096432865727,0.029505470507014027,0.004943101106212424,-0.09980121213226452,2.0,-1.0,0.0,11.0,0.0,0.0,1.0,0.0,0.0,0.0,0.0,0.0,0.0,0.0,0.0,-0.00021641866533068845,1.5685208661643286,1.5734370172805612,0.4375065949979959,272.40219315551104,66.7008459255511,-0.004944699452905811,-0.014336247723446893,0.0,-0.0018202653867735467,21.29497606645291,-0.163909859917835,-10.212665820240481,-7.209999999999999e-21,966.1590191246493,12.404602,-0.0011155192785571046,-0.008647376963927873,0.004516378865731437,24.05760795651303,0.09559086791983976,-9.877004184084168,0.0264646701142284,-0.01569939240681359,0.0821250655170339,5.752853781583154,0.19346770950901784,0.18146771365531045,0.400600034250501,1.3109122645290576,13.254100366212425,25.72117268731463,-0.2493414298537074,6.140522804036074,0.10999999,-45.331741399498995,2443425.130519038,6620172.0,399.60003138416835,12.404602,96616.4948693988,1.1479637873446893,0.033909732194389405,-0.33588140408817696,-0.18330413319639466,-0.0008284211783567326,0.004864183268537078,0.0013581914048096087,0.0,0.01311167066933865,1.6225462,0.6885586358617235,-0.004754007440881752,0.004514140665330652,0.7251463102985972,1.0,398714138.0,327364466.2074148,400130.3722202405,7.74847818062124,0.0,7.740229774945888,0.0035036828456913726,1.5705083740761523,0.0,0.0,0.34886776930460933,39.8714138,32.7364368,-0.14528605859919835,3.465060944641281,0.040056286955911784,-0.676723563773547,14.822188737014026,0.33813591611823646,-0.9714760505891786,22.808599206993993,0.5702702417274551,1.6199347113927856,0.1,-0.24759696610220439,-0.09209967375551108,-0.005465881,1.0,8641062.875751503,1.0,0.0,0.0,0.0,0.0
8667071.0,0.018669384344689382,0.03100084198997997,0.0047121959378757525,1.0,0.0,1502.0,1500.0,2000.0,1490.0360721442885,1508.9639278557115,1514.9278557114228,14.50406126523046,14.787540824949899,12.595188284308616,12.598523507114226,12.84473803975952,13.135541376553105,13.39224484498998,,,158.760052544489,158.760052544489,12.404540381743487,0.0007778924989979959,-0.005636124352705411,0.001624417527054108,0.02945468064729459,0.005052083230460921,-0.09992286979559117,2.0,-1.0,0.0,11.0,0.0,0.0,1.0,0.0,0.0,0.0,0.0,0.0,0.0,0.0,0.0,0.006561673046092173,1.5682347244689379,1.5733614578917836,0.4567889349398797,271.82414126573155,66.7228078367535,-0.005070336765531062,-0.01459278213226453,0.0,-0.001890734633266533,20.37041640713427,-0.3344455046352704,-10.396328619058115,-7.209999999999999e-21,966.1583939591183,12.404601962484971,-0.003393539116232471,-0.004612847699398792,0.011185270316633248,22.646841538056115,0.07792980250701406,-9.940228600462927,0.04016655212224446,-0.024878335951903793,0.12376422829859714,8.929012436052101,0.2421227647074148,0.230122771761523,0.40060000424248493,1.4082640551102203,13.254140940460921,25.652830233607215,-0.24797377192785572,5.854868359775552,0.10999999,-46.56485088965932,2473005.804152305,6620172.0,399.63237721843683,12.404602,96616.11263777556,1.1479592155511023,-0.11416960819639314,-0.19669275010220422,0.2848137594388774,0.003669068607214437,0.003894932436873749,0.004112009657314618,0.0,0.020131710112224435,1.6225462,0.6885403293146293,-0.0072992704969939825,0.006930981631262521,0.7251270221402806,1.0,398714138.0,327364496.8539078,400128.4671250501,8.59561730804609,0.0,8.588639013863725,0.006043829777555105,1.5705527255811622,0.0,0.0,0.3228224803967937,39.8714138,32.7364368,-0.1580463973066132,3.8363949838236464,0.04887357459318636,-0.6910326499278556,15.379323005370741,0.3519875545330661,-0.8944063471462927,21.6455372492986,0.5327629893166334,1.6199438984929861,0.1,-0.250130705997996,-0.08063419645090182,-0.005465881,1.0,8667070.805611223,1.0,0.0,0.0,0.0,0.0
8691315.0,0.015367324434869737,0.02526117602805611,0.004106333973947896,1.0,0.0,1502.0,1500.0,2000.0,1491.4989979959919,1507.5010020040081,1512.002004008016,15.05683572735471,15.35102762014028,13.132485897935872,13.13594939008016,13.392666296673347,13.637513975651306,13.904027364028057,,,164.9107180154309,164.9107180154309,12.404538019118236,0.0008269444028056113,-0.005674504212424851,0.0017359261242484972,0.02940389078757515,0.005161065354709418,-0.10004452817234469,2.0,-1.0,0.0,11.0,0.0,0.0,1.0,0.0,0.0,0.0,0.0,0.0,0.0,0.0,0.0,0.013339765470941888,1.567948583486974,1.573285898503006,0.47607127416833667,271.2460893759519,66.74476975509018,-0.005188587256513026,-0.014827360829659322,0.0,-0.0019828214268537074,19.41377765202405,-0.4383287076212426,-10.527945958637275,-7.209999999999999e-21,966.1581976344689,12.404600441042085,9.151672545090446e-05,-0.00818095384168337,0.023064978713426866,21.492990481442888,0.05182802418036071,-9.902018715903807,0.05940006985771544,-0.03244758233466934,0.16317552096392787,10.876576437054108,0.29077782061923857,0.2787778298677355,0.4005999735210421,1.5056158456913828,13.254181514709419,25.5844877798998,-0.246606114002004,5.569213916228457,0.10999999,-47.79796038695391,2498544.8197735474,6620172.0,399.55964968837674,12.404602,96616.94596422846,1.147969133456914,0.10581413994989997,-0.3049485909138277,0.5074976005711425,-0.0012520801002004044,0.003294687376753507,0.010491100759519041,0.0,0.027177106885771546,1.6225462,0.6885100065190382,-0.009853601208416836,0.00935643223246493,0.7250951106072144,1.0,398714138.0,327364527.4290581,400126.56202985975,9.442756435470942,0.0,9.437048252781565,0.008583977422845694,1.5705970763727455,0.0,0.0,0.29677719148897796,39.8714138,32.7364368,-0.17021623974148298,4.223750658893788,0.057528032539078164,-0.7009069920020039,15.925131650961925,0.36184115670741485,-0.8323772391903808,20.51894363196393,0.4835135927134268,1.6208278268196392,0.1,-0.2524553098056112,-0.07778283473747495,-0.005465881,1.0,8691315.144288577,1.0,0.0,0.0,0.0,0.0
8715192.0,0.013890315426853709,0.023394042811623248,0.0031138045951903826,1.0,0.0,1501.5190380761524,1500.0,2000.0,1492.2617919038078,1506.7382080961922,1511.0,15.603695204308616,15.908549491883768,13.669783506753506,13.67337527304609,13.940594553587173,14.13948657955912,14.415809878256512,,,171.06138348637273,171.06138348637273,12.404535651683366,0.0008759958256513025,-0.005712884072144289,0.0018474347214428855,0.02935310044689379,0.005270047478957916,-0.10016618606813628,2.0,-1.0,0.0,11.0,0.0,0.0,1.0,0.0,0.0,0.0,0.0,0.0,0.0,0.0,0.0,0.02011785741482965,1.5676624420240481,1.5732103391142285,0.49535361387775545,270.66803748617235,66.76673167342685,-0.005308329691382766,-0.015064129346693388,0.0,-0.00209823054509018,18.36863913739479,-0.3583311966993991,-10.515980335490982,-7.209999999999999e-21,966.159184428056,12.404594816993988,0.007421677016032048,-0.011200532048096188,0.052076267070140216,20.71710779677355,-0.29166625835470855,-10.208916506214429,0.09389426174148288,-0.03557599617234469,0.19644056657515024,9.434694323907822,0.3394328760501001,0.3274328879739478,0.4005999427995992,1.602967636272545,13.254222088957915,25.516145326192387,-0.2452384560761523,5.283559472200402,0.10999999,-49.031069884248495,2524011.4842925854,6620172.0,399.5723031442886,12.404602,96616.81460611222,1.1479676150501001,0.0775072136272548,-0.09687529344889845,0.6606629835070138,-0.0014620201503006052,0.0017692985891783605,0.019703697753506996,0.0,0.03424068834869738,1.6225462,0.6884721489739479,-0.012414408553106208,0.01178803289378757,0.7250552309779559,1.0,398714138.0,327364558.0523046,400124.65693466936,10.289895560971942,0.0,10.285457491699397,0.011124124587174345,1.5706414271643288,0.0,0.0,0.2707319021002005,39.8714138,32.7364368,-0.18075702229659316,4.6553068122004,0.06573327781963927,-0.6985467617314629,16.43969518713427,0.36066497884168336,-0.8118421131182365,19.492958865931865,0.40186997871543106,1.6241249926613226,0.1,-0.25469102944488975,-0.0752603677735471,-0.005465881,1.0,8715191.547094189,1.0,0.0,0.0,0.0,0.0
