timestamp,control[0],control[1],control[2],control[3],control[4],output[2],output[3],output[4],output[5],output[6],output[7],indicated_airspeed_m_s,true_airspeed_m_s,indicated_airspeed_m_s.1,equivalent_airspeed_m_s,true_airspeed_m_s.1,equivalent_ground_minus_wind_m_s,true_ground_minus_wind_m_s,Unnamed: 6,Unnamed: 7,differential_pressure_raw_pa,differential_pressure_filtered_pa,temperature,gyro_bias[0],gyro_bias[1],gyro_bias[2],accel_bias[0],accel_bias[1],accel_bias[2],instance_count,seq_reached,seq_current,seq_total,item_changed_index,item_do_jump_remaining,valid,warning,finished,failure,stay_in_failsafe,flight_termination,item_do_jump_changed,execution_mode,nav_roll,nav_pitch,nav_bearing,target_bearing,xtrack_error,wp_dist,acceptance_radius,rollspeed_integ,pitchspeed_integ,yawspeed_integ,additional_integ1,x,y,z,temperature.1,pressure,temperature.2,gyro_rad[0],gyro_rad[1],gyro_rad[2],accelerometer_m_s2[0],accelerometer_m_s2[1],accelerometer_m_s2[2],x.1,y.1,z.1,temperature.3,altitude_sp,altitude_filtered,height_rate_setpoint,height_rate,airspeed_sp,airspeed_filtered,airspeed_derivative_sp,airspeed_derivative,throttle_integ,pitch_integ,timestamp_sample,baro_device_id,baro_alt_meter,baro_temp_celcius,baro_pressure_pa,rho,xyz[0],xyz[1],xyz[2],xyz[0].1,xyz[1].1,xyz[2].1,roll_body,pitch_body,yaw_body,q_d[0],q_d[1],q_d[2],q_d[3],thrust_body[0],lat,lon,alt,vel_m_s,vel_n_m_s,vel_e_m_s,vel_d_m_s,cog_rad,ground_contact,maybe_landed,landed,ref_lat,ref_lon,x.2,y.2,z.2,vx,vy,vz,ax,ay,az,yaw,dist_bottom,roll,pitch,yaw.1,thrust_body[0].1,timestamp.1,isTakeoff,isClimbing,isDescending,isCruise,isLand
150026360.0,0.004793995,0.57334576,0.031570121,0.03611755,1.0,1515.0,2000.0,1028.0,1498.0,1501.0,1794.0,10.13529346,10.35726136,10.15688122,10.22125782,10.44523915,10.40984583,10.63795619,,,63.38809282,63.38809282,12.09330573,-0.0006723380000000001,-0.005810939,4.04e-05,-0.256575844,0.17399082300000002,-0.01129729,2.0,8.448889778,9.448889778,11.0,0.0,0.0,1.0,0.0,0.0,0.0,0.0,0.0,0.0,0.0,0.00766616,0.102174692,-1.579151126,-1.574508812,0.137482782,339.41736769999994,29.5153917,-0.007887158,0.4,0.015226438,0.0,-0.219776627,0.26913622800000003,-9.013120841000001,-7.209999999999999e-21,960.6248166,12.09336324,0.013343529,-0.08606383599999999,-0.005144671,-0.317559919,0.224356848,-8.948900795,0.008822708,-0.086898845,-0.00145274,-7.209999999999999e-21,48.80776511,49.34473769,-1.217594424,-0.871639732,10.21996432,10.29654163,-0.001531544,-0.7646436,-0.207104923,185.1989953,149053120.2,6620172.0,449.0582797,12.08338737,96046.28445,1.141188662,0.518726384,-0.125329129,0.331584642,0.012283389,-0.07613642,-0.003824212,0.008651841,0.112020947,-1.579514694,0.702735054,0.042797224,0.036344015,-0.709232539,0.036446055,398688593.0,327344096.2,448315.7982,10.24328666,-0.196643322,-10.2565033,1.696223211,4.692493722,0.0,0.0,0.0,39.8714138,32.7364368,-284.0422922,-174.2756041,-48.11132718,-0.188094303,-10.31665924,1.7730146180000002,-0.080096396,-0.25813997,0.888900355,-1.595526003,48.23245294,0.021948552000000003,0.290555215,-0.0050241140000000005,0.018752843,150026360.0,0.0,0.0,0.0,0.0,1.0
150098019.0,0.003400346266533066,0.5730613862364731,0.030339874593186374,0.015901822925851704,1.0,1515.0,2000.0,1029.7274549098197,1497.9659318637275,1501.0340681362725,1800.8363993587175,10.187797187334668,10.411001340681363,10.177950485310621,10.242688836432865,10.4670640802004,10.443798269659318,10.672575060901805,,,63.92670281967936,63.92670281967936,12.094212791302606,-0.0006721502705410822,-0.005811620178356713,4.0893186372745487e-05,-0.2565777352264529,0.17400732796392784,-0.011474411631262525,2.0,8.45400222313026,9.45400222313026,11.0,0.0,0.0,1.0,0.0,0.0,0.0,0.0,0.0,0.0,0.0,0.007817946667334668,0.10285730679358718,-1.5792301652905811,-1.5745108968877757,0.14014149449098198,338.6977775599199,29.579237509458917,-0.007870552408817635,0.4,0.015198596751503006,0.0,-0.3966027252825651,0.20999667738677355,-8.975078578124249,-7.209999999999999e-21,960.6333637853708,12.094168633306614,0.018250700366733468,-0.08421963585370741,-0.00165995968737475,-0.3447450770541082,0.186292524498998,-9.015749004200401,0.01942748217234469,-0.08356950596793586,-0.005426474144288577,-7.209999999999999e-21,48.70358100298597,49.27634927488978,-1.2075487695871743,-0.9730207207294589,10.219893530020041,10.254749410981963,-0.0006971072304609218,-0.726722722737475,-0.2071813426212425,185.16525309639277,149125182.1222445,6620172.0,449.0887966118237,12.083539675871744,96045.88104128257,1.1411839526472944,0.4521293385851704,0.15616169977955913,0.16512200200400806,0.013218480611222445,-0.06839171331262525,-0.0017399443667334667,0.008637755286573146,0.109359655248497,-1.5796144540821642,0.7027558163486974,0.041850718068136276,0.03541134182765531,-0.7093155901743486,0.024593673957915833,398688592.01703405,327344012.5513026,448198.5731681363,10.250562011242485,-0.1999447886492986,-10.279837734488979,1.761416722238477,4.692316971975952,0.0,0.0,0.0,39.8714138,32.7364368,-284.0558704981964,-174.96391577094184,-47.98715771460922,-0.1897335146813628,-10.336369368316634,1.8313864377995992,-0.07367622872144289,-0.30244303878557116,0.8654952785751502,-1.595697434224449,48.10828276687374,0.0207101839258517,0.3101049067835671,-0.004229722082164328,0.028987529709418838,150098018.83967936,0.0,0.0,0.0,0.0,1.0
150173405.0,0.0035829998697394787,0.5885664951482966,0.030188473903807612,0.02322812260521042,1.0,1514.0681362725452,2000.0,1018.8857715430862,1498.8286819238476,1500.1713180761524,1802.0681362725452,10.079875263507015,10.300671529138276,10.199019760621244,10.264119862865732,10.488889019719439,10.477750709318638,10.707193931122244,,,64.46531280935872,64.46531280935872,12.095119842605211,-0.0006719634729458917,-0.0058123004248497,4.138637274549098e-05,-0.25657962645290583,0.1740238329278557,-0.01165153326252505,2.0,8.459114668260522,9.459114668260522,11.0,0.0,0.0,1.0,0.0,0.0,0.0,0.0,0.0,0.0,0.0,0.007969734266533067,0.10353992258717434,-1.5793092045811623,-1.5745129807755514,0.14280020598196394,337.97818751983965,29.6430833095992,-0.007853190026052104,0.4,0.015164759340681363,0.0,-0.3605529248496994,0.19495621336272545,-9.048021054178358,-7.209999999999999e-21,960.6676940470942,12.095032758557114,0.010937407533066133,-0.07673991015631262,-0.004867655975951904,-0.24761598566533066,0.2243105758176353,-9.127088860174348,0.0132860972004008,-0.07718159328456914,-0.00398949839478958,-7.209999999999999e-21,48.604492895971944,49.20297076046092,-1.2059562841743487,-1.0560115493907816,10.219797170040081,10.237156561963927,-0.0003471644609218436,-0.6812876084068136,-0.20725263024248497,185.12658468597195,149197243.94448897,6620172.0,448.98105294048094,12.083776820821644,96047.12878563126,1.1411987895511022,0.14064274040681363,0.8167894065110222,-0.11565768436873752,0.012022704609218435,-0.06225297878557114,-0.0018667239458917831,0.008550343280561123,0.11161861153306613,-1.579676524076152,0.7026883280541083,0.0426218884488978,0.036235116611222445,-0.7092948867454911,0.028675075781563128,398688590.6476954,327343926.5775551,448067.38926212426,10.27082211244489,-0.19999999,-10.286940823166333,1.8363489741442887,4.692196674076153,0.0,0.0,0.0,39.8714138,32.7364368,-284.06981076693387,-175.6538721631263,-47.85696798705411,-0.19387395718036074,-10.358860998056112,1.8875254921783566,-0.04953098284569138,-0.31866065505611224,0.7998333816052104,-1.5957985665531063,47.97809235158317,0.019894009637274546,0.32613266791182366,-0.0036046082985971943,0.03618704633266533,150173405.13426852,0.0,0.0,0.0,0.0,1.0
150241507.0,0.002747740867735471,0.6049813476993988,0.03087023634468938,0.029766632028056114,1.0,1515.0,2000.0,1028.5536293246494,1498.8977955911823,1500.1022044088177,1809.8977955911823,10.319222247735471,10.54514865018036,10.220089025931863,10.285550888276553,10.510713950601202,10.511703157955912,10.74181279270541,,,65.00392280903807,65.00392280903807,12.096026903907815,-0.0006717757094188378,-0.005812981535070139,4.186933867735471e-05,-0.2565815186793587,0.17404033789178358,-0.011828654893787576,2.0,8.464227114288576,9.464227114288576,11.0,0.0,0.0,1.0,0.0,0.0,0.0,0.0,0.0,0.0,0.0,0.008121521002004008,0.10422253738076152,-1.579388243973948,-1.5745150656633267,0.14545891757515028,337.25859747975954,29.7069291093988,-0.007832256142284569,0.4,0.01515218827254509,0.0,-0.3348494552645291,0.19362023653306612,-9.12288618580962,-7.209999999999999e-21,960.6926421356713,12.095902427835671,0.007621098723446893,-0.06963767512224449,-0.006713049090180362,-0.3770905074709419,0.23872634673947896,-9.06332382878958,0.009742075106212425,-0.06778855030861723,-0.0009140542805611222,-7.209999999999999e-21,48.50540479895792,49.12959225466934,-1.204363799761523,-1.1390023770861724,10.219700809038079,10.21956372294589,2.8043446893787603e-06,-0.6358524932124249,-0.20732391786372745,185.08791618917834,149269889.98877755,6620172.0,448.8753845256513,12.084104969238478,96048.33812855711,1.1412131788797595,0.1927988225490982,-0.4804458972665331,-0.0400866123667335,0.014098144212424848,-0.056489487032064134,-0.0015774882084168339,0.008610373503006011,0.11219561341683366,-1.5797464423587173,0.7026496628877755,0.042848757899799604,0.036415135575150304,-0.7093096519679358,0.027546240460921842,398688589.2715431,327343840.5663327,447935.96790340677,10.291303013667335,-0.19999999,-10.293767895771543,1.9114468301142284,4.692077337114228,0.0,0.0,0.0,39.8714138,32.7364368,-284.08441873426864,-176.37257683967937,-47.71829907288577,-0.19704325400801603,-10.384945263907817,1.9435314548256513,-0.03894299509819639,-0.37148459791382765,0.7444562401022045,-1.5958550625931864,47.83942274763527,0.018925940248496996,0.3368067141963928,-0.0029333769539078157,0.03632648869138277,150241506.7795591,0.0,0.0,0.0,0.0,1.0
150324575.0,0.0030853252845691385,0.6164323544849699,0.030555033168336673,0.03233015865731463,1.0,1515.0,2000.0,1033.8196392785571,1498.9615739158317,1500.0384260841683,1816.1823647294589,10.190939338817635,10.4140350003006,10.241158299879759,10.306981905731462,10.532538880801605,10.54565559727455,10.776431663607214,,,65.54253279871743,65.54253279871743,12.09693396521042,-0.0006715879458917836,-0.005813661849699399,4.2359118236472945e-05,-0.25658340990581163,0.1740568428557114,-0.012005776388777556,2.0,8.46933955952104,9.46933955952104,11.0,0.0,0.0,1.0,0.0,0.0,0.0,0.0,0.0,0.0,0.0,0.008273308533066133,0.1049051521743487,-1.5794672832985972,-1.5745171495511023,0.14811762996392785,336.53900733967936,29.770774909198398,-0.0078166750501002,0.4,0.015125438362725452,0.0,-0.3419649232705411,0.20114872736673348,-9.186979559611222,-7.209999999999999e-21,960.7041528204409,12.09677591478958,0.010970281100200398,-0.06039349008617234,-0.0012355620681362724,-0.3384100522084169,0.2069780171943888,-9.163758278917836,0.010702330366733468,-0.05658208430260521,0.0024844026232464936,-7.209999999999999e-21,48.40820007885772,49.045708118817636,-1.198065266987976,-1.2116719336152304,10.219655167835672,10.207407103406814,0.00024499198797595193,-0.5842032259238478,-0.20739745549098196,185.04610163647297,149341367.77535072,6620172.0,448.9105117290581,12.08446681226453,96047.92140501001,1.1412082032044089,0.015131922811623252,0.11572543128657324,-0.16038594393386776,0.005015888577154307,-0.045087589316633266,0.00324872973947896,0.008660810100200401,0.11194569650701403,-1.5798299748897793,0.70262455349499,0.042779417511022044,0.036307635813627254,-0.7093447476553106,0.023875282184368737,398688587.8953908,327343754.9006012,447803.57788116235,10.312706600380762,-0.20092263575951905,-10.303362913246493,1.9805474989438878,4.691893594450902,0.0,0.0,0.0,39.8714138,32.7364368,-284.09964098657315,-177.11797723286577,-47.57152405597194,-0.1987621369519038,-10.414791056132264,1.998586947460922,-0.044126197266533065,-0.46125045842885776,0.7002429641503006,-1.5958644401342685,47.69264722368737,0.01767320601202405,0.3402487030681363,-0.002372509857715431,0.025238459278557113,150324575.35270542,0.0,0.0,0.0,0.0,1.0
150395972.0,0.004630631559118236,0.622611172490982,0.03094430724649299,0.022273646046092187,1.0,1515.0,2000.0,1035.807615230461,1498.3880803066133,1500.6119196933867,1818.0,10.243815738296593,10.46794398024048,10.262227566553106,10.328412930460923,10.554363819298597,10.579608036593186,10.811050532805611,,,66.0811427983968,66.0811427983968,12.097841026513027,-0.0006714003527054107,-0.005814342891783567,4.276593186372745e-05,-0.25658530196192386,0.1740733478196393,-0.012182897985971945,2.0,8.474452004651303,9.474452004651303,11.0,0.0,0.0,1.0,0.0,0.0,0.0,0.0,0.0,0.0,0.0,0.008425095336673346,0.10558776696793587,-1.5795463226232465,-1.574519234268537,0.15077634145490984,335.8194172995992,29.834620717294587,-0.007802288531062126,0.4,0.015100097651302605,0.0,-0.341393311501002,0.1927055195711423,-9.238566925462926,-7.209999999999999e-21,960.7121611382765,12.097685304509017,0.006394336054108217,-0.05883240104609218,0.001928293410821643,-0.35369688210821637,0.21110580774749507,-9.244189111130261,0.010585967336673347,-0.05659275374148296,-0.0028262325490981954,-7.209999999999999e-21,48.31168427607214,48.957981192725455,-1.1900453343146293,-1.280566125519038,10.21962807729459,10.197238970961925,0.0004478004849699399,-0.5302809155751503,-0.20747181503406814,185.0031362955912,149413429.61122245,6620172.0,448.817813582966,12.084888293426854,96049.00060182365,1.1412209677274547,0.30509936296192375,-0.32304405743887754,0.6445541380901801,0.008971915987975951,-0.03820626095591183,0.0021304407695390782,0.008761808899799599,0.11576576207214428,-1.5798858408797594,0.7025202067474949,0.044170097318637275,0.03761321235671343,-0.709295076727455,0.03271461909218437,398688586.5192385,327343671.78837675,447665.33218557114,10.33968724507014,-0.2074220554268537,-10.32968824507014,2.0133992139839676,4.691320565645291,0.0,0.0,0.0,39.8714138,32.7364368,-284.1140499531062,-177.8169627248497,-47.43082114082164,-0.19939392525450902,-10.445368186553106,2.0438906336092186,-0.03921706320641283,-0.4900595901563126,0.6125691531382765,-1.595826031529058,47.551945579879764,0.016916329,0.3513517611723447,-0.0020602677515030063,0.028071405188376752,150395971.83567134,0.0,0.0,0.0,0.0,1.0
150463494.0,0.001481853456913828,0.635512981991984,0.03079992125450902,0.031956378140280566,1.0,1515.0,2000.0,1025.8617234468938,1499.2044088176353,1499.7955911823647,1819.2044088176353,10.286201329278557,10.51121393264529,10.28329683981964,10.349843948597195,10.576188751202405,10.613560477955913,10.845669395410821,,,66.61975278807616,66.61975278807616,12.098748087815633,-0.000671212623246493,-0.005815023274549098,4.325911823647295e-05,-0.25658719335871744,0.1740898527835671,-0.01236001878757515,2.0,8.479564449781563,9.479564449781563,11.0,0.0,0.0,1.0,0.0,0.0,0.0,0.0,0.0,0.0,0.0,0.008576882799599199,0.10627038276152305,-1.579625361947896,-1.5745213183266533,0.1534350531503006,335.09982717995985,29.898466518797594,-0.007784725907815631,0.4,0.015077371218436874,0.0,-0.36493570603006015,0.2287783973466934,-9.312697775935872,-7.209999999999999e-21,960.7308906046093,12.098748771042084,0.00603232372745491,-0.04381399611623246,0.003016233338677355,-0.3872950706332666,0.20440472886973945,-9.31211170986974,0.00798620083767535,-0.049811147004008016,-0.0052646271623246485,-7.209999999999999e-21,48.215168473286575,48.87025427322646,-1.1820254007775552,-1.3494603174228457,10.219600986753507,10.187070837154309,0.0006506089819639279,-0.47635860509018035,-0.20754617544088177,184.9601709547094,149485889.149499,6620172.0,448.7228400246492,12.085375502044089,96050.07913338677,1.1412337770781562,0.2179796368016032,0.1987259215811623,-0.1052074400981964,0.007920106412825652,-0.02834490143486974,0.004231905553106213,0.008744106468937876,0.11345059027855711,-1.579961464721443,0.7025436753406814,0.04334456180961924,0.03680416080160321,-0.7093644176513025,0.021112335539078157,398688585.1430862,327343588.82605207,447526.7424426854,10.366995572084168,-0.21424913931663325,-10.356996572084169,2.0441211121763527,4.690724663378758,0.0,0.0,0.0,39.8714138,32.7364368,-284.12897875310625,-178.54959799098197,-47.28091510298597,-0.20056817090581164,-10.478454974609217,2.0863419869719437,-0.03507316514228457,-0.4784350297855711,0.5420536634108216,-1.5957143466673347,47.402038859659314,0.016262507180360722,0.3599480684188377,-0.0017063359158316636,0.02874601271743487,150463494.4028056,0.0,0.0,0.0,0.0,1.0
150539807.0,-0.00042904799398797667,0.6404359549498997,0.03044612826252505,0.037335195070140284,1.0,1515.0,2000.0,1025.5991631503007,1498.7615230460922,1500.2384769539078,1822.8453976112223,10.441336869999999,10.669651884288578,10.30436610717435,10.37127497503006,10.598013681402806,10.64751291761523,10.880288266312625,,,67.15836278775551,67.15836278775551,12.099655149118236,-0.0006710256553106212,-0.0058157034869739475,4.375230460921844e-05,-0.2565890845851704,0.17410635698597193,-0.012537140418837677,2.0,8.484676894911823,9.484676894911823,11.0,0.0,0.0,1.0,0.0,0.0,0.0,0.0,0.0,0.0,0.0,0.008615114280561123,0.10735485762124249,-1.5796975598737475,-1.5745234198757516,0.15609375458316632,334.3707795527054,29.991115185711422,-0.007767288715430862,0.4,0.015052763711422845,0.0,-0.38904588043286575,0.26767707382965933,-9.407449014420843,-7.209999999999999e-21,960.7577348060121,12.099869937995992,0.009934775478957915,-0.035288194324649295,0.008220028903807616,-0.34577006653507014,0.18843168924048098,-9.425451113084168,0.006065773629258518,-0.039582031999999996,-0.0035857486653306605,-7.209999999999999e-21,48.11020716410821,48.7617881848497,-1.1766290115330662,-1.41879020452505,10.21958452511022,10.19961743771543,0.00039934227254509013,-0.41408653533867734,-0.20762883949098196,184.9130692312625,149560308.24148297,6620172.0,448.7096935492986,12.085891455350701,96050.25205398798,1.1412358951262525,0.5240526132865733,0.29356068832464915,0.5814595361563129,0.00528117184769539,-0.02686482812224449,0.0014066312925851707,0.00862585762725451,0.11502071098396793,-1.58003173098998,0.7024876615871744,0.043860962527054105,0.037396384709418834,-0.7093577931022044,0.02164537491783567,398688583.7669339,327343505.4306613,447385.97733306617,10.395754196893787,-0.21672553245290582,-10.385755120741482,2.076293232943888,4.690571756412826,0.0,0.0,0.0,39.8714138,32.7364368,-284.14423235731465,-179.29514328096192,-47.126443946372746,-0.20237482845490984,-10.513610652164328,2.1253411082945894,-0.03814236370941884,-0.45910388256913826,0.5007748320901804,-1.5955384754789579,47.24756635783567,0.015693110064128254,0.3628696846993988,-0.0014023564268537073,0.02325464902805611,150539806.80561122,0.0,0.0,0.0,0.0,1.0
150610539.0,0.0024853337755511044,0.6382053608016032,0.030562870314629256,0.016789796152304602,1.0,1515.0,2000.0,1026.9951300521043,1499.3028271122246,1499.6971728877754,1824.9202330420842,10.41003437529058,10.63757311242485,10.325435379759519,10.392705998737474,10.619838618877756,10.681465357274549,10.914907134488978,,,67.69697277743487,67.69697277743487,12.100562210420842,-0.0006708793567134268,-0.005816419617234468,4.4e-05,-0.25659225422244486,0.17412156784168342,-0.012726892122244489,2.0,8.489789341042083,9.489789341042083,11.0,0.0,0.0,1.0,0.0,0.0,0.0,0.0,0.0,0.0,0.0,0.008585219320641282,0.10868042183967935,-1.5797656531282565,-1.5745255320140281,0.15875245038076152,333.6360579316633,30.10104362523046,-0.007747650759519037,0.4,0.015040109078156312,0.0,-0.3577362578737475,0.21013203116032061,-9.518894203440881,-7.209999999999999e-21,960.7870486154309,12.100836303026053,0.0029716007414829675,-0.03033605875350701,-0.002668949176352709,-0.33874918549098193,0.1779393550801603,-9.424633616771542,0.012117576777555112,-0.034980893330661324,0.004292126350701406,-7.209999999999999e-21,48.00334285054108,48.64864898541082,-1.1718237796092184,-1.4882182648857716,10.219570468697395,10.217282298817636,4.5758597194388686e-05,-0.3499330328156312,-0.20771337456112224,184.86503542144288,149629615.27795592,6620172.0,448.48406163507013,12.086465231162325,96052.84624589178,1.1412666995891785,0.21497930979358726,0.21302219411823645,0.15134765735671357,0.005464246250501007,-0.014234992837675348,0.00026474858917835767,0.008474110715430862,0.11525186317234469,-1.5800959406893789,0.7024628573587175,0.04389079682364729,0.03753000166733467,-0.709372738745491,0.019650913975951916,398688582.3907815,327343420.2284569,447237.7079715431,10.42951591517034,-0.20419338794388778,-10.419516521503006,2.1134681728356712,4.691947042943887,0.0,0.0,0.0,39.8714138,32.7364368,-284.15927208316634,-179.99979829879757,-46.978594158296595,-0.20493512393787575,-10.550161586833667,2.1576177353146293,-0.06279526547294591,-0.4983125772925852,0.5138227921583166,-1.5953048585871745,47.09971776751503,0.015562701699398798,0.37529100403807614,-0.0012610307294589178,0.03388133629258517,150610538.80961925,0.0,0.0,0.0,0.0,1.0
150683865.0,0.00019067995791583167,0.6473949418737475,0.030801590124248497,0.024489781164328664,1.0,1514.7744655511021,2000.0,1023.6793587174349,1499.9603775991984,1499.0396224008016,1824.9198396793588,10.542973055891784,10.773287585671342,10.34650464779559,10.414137017895792,10.641663551803607,10.715417803867735,10.949525998116233,,,68.2355827740481,68.2355827740481,12.101469271723447,-0.0006708429058116232,-0.005817227368737475,4.3661322645290585e-05,-0.2565987779158317,0.1741333789158317,-0.012949811004008016,2.0,8.494901786172344,9.494901786172344,11.0,0.0,0.0,1.0,0.0,0.0,0.0,0.0,0.0,0.0,0.0,0.008555324360721442,0.11000598651302605,-1.5798337461442886,-1.5745276436973947,0.1614111458717435,332.90133637995996,30.210972067134268,-0.007730471382765531,0.4,0.01503157735270541,0.0,-0.34067425072945895,0.17289739823246494,-9.590113002561123,-7.209999999999999e-21,960.8004682402806,12.101806077054109,0.0036538836432865747,-0.023704925597194393,0.0003327731923847654,-0.3391755331082164,0.23612806084168336,-9.52847894706413,0.008605310058116235,-0.023972101773547104,0.0008020094008016065,-7.209999999999999e-21,47.89687485150301,48.535560896192386,-1.1674127362925852,-1.5571757655531062,10.219553392985972,10.235249767775551,-0.0003139369759519036,-0.28609589078156317,-0.20779773143086172,184.81748323807616,149701677.2002004,6620172.0,448.5132896384769,12.087067220460922,96052.51455412825,1.141262818993988,-0.18277202000601195,0.17023091708817586,-0.12603162365130205,0.00645299304008016,-0.005048945979959925,0.004195921527054107,0.008370560873747495,0.11612890198196393,-1.5801670184288577,0.7024208382865731,0.04416669586973948,0.03787336072745491,-0.7093791313226453,0.019831525841683368,398688581.01462924,327343334.9070141,447088.877592986,10.463651658316634,-0.19053922274348697,-10.453651927374748,2.15101711756513,4.693436575436874,0.0,0.0,0.0,39.8714138,32.7364368,-284.1752245635271,-180.7461075763527,-46.82062034392786,-0.20584231540881764,-10.591657463386774,2.1870946210861724,-0.01956033006212428,-0.5640784121583166,0.3990749261623247,-1.5951654951543086,46.94174434392786,0.01496882172745491,0.37597032555911825,-0.0009992921983967937,0.02579679934669338,150683864.5270541,0.0,0.0,0.0,0.0,1.0
150750946.0,0.0006974116573146292,0.6543638988577154,0.030685536743486973,0.03254210359719439,1.0,1515.0,2000.0,1031.3627254509017,1498.4951247755512,1500.5048752244488,1828.0,10.463281822244488,10.691816825430863,10.367573919699398,10.435568040921844,10.663488482004007,10.749370243186373,10.984144869018037,,,68.77419276679359,68.77419276679359,12.102376333026053,-0.0006708124509018035,-0.005818040298597195,4.32681362725451e-05,-0.2566054915731463,0.17414499657314628,-0.013174608448897795,2.0,8.500014231302606,9.500014231302606,11.0,0.0,0.0,1.0,0.0,0.0,0.0,0.0,0.0,0.0,0.0,0.008525429400801603,0.11133155045891784,-1.5799018398196394,-1.5745297561082165,0.16406984097595192,332.1666147895792,30.32090050244489,-0.007709167024048095,0.4,0.015011776811623247,0.0,-0.33203398411222446,0.14248516612825654,-9.663242290501001,-7.209999999999999e-21,960.8121655278557,12.102781505671341,0.007337564006012024,-0.013112064330661324,0.005934063008016033,-0.3623551521703407,0.19153018990380763,-9.61504519591984,0.00382348449498998,-0.011681067232464934,-0.003518805392785572,-7.209999999999999e-21,47.79880047274549,48.42355518240481,-1.171350282987976,-1.6161671762044088,10.219472588937876,10.259626328557115,-0.000803083396793587,-0.22895900927254512,-0.20787831153306613,184.78013160681363,149773739.0224449,6620172.0,448.4175839308617,12.08768739977956,96053.62108258517,1.141275910791583,0.3344914332224447,-0.03420921924849751,0.1455621187655307,0.009268651673346697,-0.0009124408817635262,0.005566132426853705,0.008251043288577155,0.11910556898997995,-1.5802276226312624,0.7023363323967936,0.04518115597194388,0.038960305,-0.7093406418256514,0.026382349835671347,398688579.7044088,327343248.7943888,446937.6982599198,10.499594211442886,-0.18230574170741484,-10.487787329378758,2.1840488257034067,4.694374246362726,0.0,0.0,0.0,39.8714138,32.7364368,-284.19103043647294,-181.49357060881763,-46.661587332985974,-0.2058163588256513,-10.63367150533066,2.2120153099058117,0.0323764998997996,-0.6076563808016032,0.26798191727855714,-1.5950308558537074,46.78271174835671,0.01423856149498998,0.37737134351903806,-0.000778875238476954,0.021252571619238485,150750946.39679357,0.0,0.0,0.0,0.0,1.0
150818605.0,0.0015805654228456907,0.6543788168917836,0.030506947969939878,0.029302274434869737,1.0,1514.0,2000.0,1025.12625250501,1499.0,1500.0,1825.250501002004,10.566872583066132,10.797595983446895,10.396167736673346,10.464757472705411,10.693237706092185,10.782365681663327,11.017781942064127,,,69.19547281490982,69.19547281490982,12.1033168650501,-0.000670782621242485,-0.0058188532284569145,4.2874949899799596e-05,-0.2566122052304609,0.17415661523046091,-0.013399405893787575,2.0,8.505126676432866,9.505126676432866,11.0,0.0,0.0,1.0,0.0,0.0,0.0,0.0,0.0,0.0,0.0,0.008495534440881764,0.11265711440480962,-1.5799699328016032,-1.574531867519038,0.1667285363987976,331.4318931685371,30.430828940941883,-0.007692852298597195,0.4,0.014992904084168337,0.0,-0.3256493009539078,0.10508938903807616,-9.777006065763528,-7.209999999999999e-21,960.8342117044087,12.103756895651303,0.0013091609158316642,-0.011379729392785573,0.0063299072645290584,-0.4431367768496994,0.21052961438476953,-9.673430131332665,0.005124898685370742,-0.0028560479959919846,0.0008436901442885768,-7.209999999999999e-21,47.70214270002004,48.31173214264529,-1.1766968253867736,-1.673476604799599,10.219381032084168,10.28508455016032,-0.0013140782364729458,-0.1729529328997996,-0.20795825518637276,184.74450148496993,149845800.94468936,6620172.0,448.2513162084168,12.088360191563126,96055.53579757515,1.1412987251543085,0.3890308440160321,0.07690636098797587,-0.12405882266533058,0.006975904639278555,0.00445148151503006,0.000645135388777556,0.008067305230460921,0.11863692636873747,-1.5802931390360722,0.7023273050921843,0.04495174991583166,0.038859316194388774,-0.7093688701903808,0.020497997310621238,398688578.36232466,327343160.8513026,446780.31700501003,10.54030727947896,-0.18838453666332666,-10.521922734569138,2.205153640240481,4.693854832358717,0.0,0.0,0.0,39.8714138,32.7364368,-284.2056851923848,-182.20487846432866,-46.509353496853706,-0.20520025366332667,-10.672615870260522,2.2284627756032065,0.04102099929859719,-0.5821601829739479,0.2153562628517034,-1.5948181995951904,46.63047923701403,0.013560756214428857,0.37779679798797594,-0.0006025420360721444,0.01793551476352705,150818605.23647293,0.0,0.0,0.0,0.0,1.0
150884629.0,0.0013844488396793585,0.6526409059298598,0.0299546638997996,0.027731156028056113,1.0,1514.5911823647295,2000.0,1020.314629258517,1499.9691343687375,1499.0308656312625,1827.4267232064128,10.55832822971944,10.788744950440881,10.433949379098197,10.503420278857716,10.732662863466933,10.814192575450901,11.050220201342684,,,69.47348750126253,69.47348750126253,12.104298268236473,-0.0006707521322645291,-0.0058196661583166335,4.248176352705411e-05,-0.25661891947895793,0.17416823388777555,-0.013624202929859719,2.0,8.510239121563126,9.510239121563126,11.0,0.0,0.0,1.0,0.0,0.0,0.0,0.0,0.0,0.0,0.0,0.008465639480961925,0.11398267875951903,-1.5800380257835671,-1.5745339799298597,0.1693872315711423,330.697171647495,30.54075738284569,-0.007677650166332665,0.4,0.014980878793587175,0.0,-0.29741557918837674,0.1522872738276553,-9.856491019336673,-7.209999999999999e-21,960.8521155374749,12.10475009543086,-0.0016360637174348696,-0.004909306893787574,4.6031048096193024e-05,-0.36651954738076153,0.21756011894789581,-9.732588380446895,0.0020684151623246495,-0.005844629679358717,0.005073621072144289,-7.209999999999999e-21,47.6056222293988,48.19852033865732,-1.1807351698897797,-1.7307371617815632,10.219301020340682,10.310114693206412,-0.0018162798296593185,-0.11705807980360722,-0.2080381806953908,184.7098175755511,149920731.61462927,6620172.0,448.2599643717435,12.089061279278557,96055.43198971944,1.1412974295951903,0.2999862893446894,0.05004563373346693,0.3309463464428858,0.0033018215711422844,0.010170971294589179,0.0057052582344689386,0.007925734224448897,0.1189796654248497,-1.5803681430881764,0.7022965693306613,0.04502501543486974,0.039028279549098197,-0.7093860665470942,0.01787602322044088,398688576.9861723,327343072.81503004,446622.6114236473,10.581269766252506,-0.19521161745090185,-10.556058137254508,2.2256348825350702,4.693259237573146,0.0,0.0,0.0,39.8714138,32.7364368,-284.2209423723448,-182.96594455931864,-46.3455405801002,-0.20508566788577157,-10.71473494963928,2.239929475985972,0.008609506444889779,-0.6164719105470943,0.07398919018236472,-1.59457954349499,46.466665997274546,0.013026852967935872,0.38438888251503006,-0.00043785088176352704,0.025804093765531062,150884628.80561122,0.0,0.0,0.0,0.0,1.0
150953922.0,9.543207214428853e-05,0.6502458192124249,0.02921105114228457,0.021597451523046103,1.0,1515.0,2000.0,1015.9138276553106,1499.4428857715432,1499.5571142284568,1827.6713426853707,10.6550162697996,10.887475723086173,10.471731021523047,10.542083086833667,10.772088019018037,10.846019469238476,11.082658460621243,,,69.75150218943888,69.75150218943888,12.105279666993988,-0.0006707220861723447,-0.0058204790881763524,4.203286573146293e-05,-0.2566256335450902,0.17417985198797595,-0.013848999783567136,2.0,8.515351567693386,9.515351567693386,11.0,0.0,0.0,1.0,0.0,0.0,0.0,0.0,0.0,0.0,0.0,0.008435744521042085,0.11530824329659319,-1.5801061192084167,-1.5745360918977958,0.17204592692585166,329.9624500264529,30.650685819178356,-0.00765864707014028,0.4,0.014968398480961924,0.0,-0.31211112309218436,0.19392566962925853,-9.878965525543085,-7.209999999999999e-21,960.8648620677354,12.10574700006012,0.0031697499098196384,0.002211541851703411,0.0005043278977955906,-0.3970813588677355,0.22119803087975956,-9.818061187657316,-0.0019461254428857723,-0.003766895979959917,0.006704158799599198,-7.209999999999999e-21,47.51001793294589,48.07604189951904,-1.1760444933647296,-1.7876716186813628,10.219298123707414,10.332288441783566,-0.002259808358717435,-0.06190537060721442,-0.20811799259519037,184.68144746312626,149992455.25330663,6620172.0,448.09881385991986,12.089789260821643,96057.29314983968,1.1413195566172345,-0.043172529705410884,0.07740975201001982,0.14526964012625257,0.00010762977354709442,0.02303438035470942,-0.0013011558717434877,0.007747619799599198,0.12085420443486974,-1.5804261111683366,0.7022377455671343,0.04562818078557114,0.03974864429458918,-0.7093653214428858,0.02077964537675351,398688575.61002004,327342985.40981966,446465.31355811626,10.622232246773548,-0.19999999,-10.597329022084168,2.2461161248296593,4.692894863569139,0.0,0.0,0.0,39.8714138,32.7364368,-284.23587270561126,-183.71597355090182,-46.18406622328657,-0.20461840296192385,-10.756573233507014,2.2471652150320645,-0.014760919541082164,-0.6441756743927856,-0.028912225122244492,-1.5943383532945892,46.30519122328657,0.012548084701402805,0.3843763945851703,-0.0003191450941883768,0.024177372446893785,150953921.91583166,0.0,0.0,0.0,0.0,1.0
151026072.0,-0.0018531077034068123,0.6556431260941884,0.030536021961923846,0.014581552298597186,1.0,1515.0,2000.0,1016.3386773547094,1500.1303566492986,1498.8696433507014,1827.4769539078156,10.639753279579157,10.871768030841684,10.509512663947897,10.580745893667336,10.811513170480962,10.877846363026052,11.115096725130261,,,70.02951687647295,70.02951687647295,12.106261069839679,-0.0006706916312625251,-0.005821292018036072,4.1595390781563126e-05,-0.25663234720240485,0.17419147020240477,-0.014073797228456914,2.0,8.520464012823647,9.520464012823647,11.0,0.0,0.0,1.0,0.0,0.0,0.0,0.0,0.0,0.0,0.0,0.00835149203206413,0.11638577344889779,-1.5801729199238477,-1.5745382140741482,0.17470463505811623,329.23396879438883,30.76053746074148,-0.007643126851703407,0.4,0.014942848967935874,0.0,-0.3876373145611223,0.2027133584288577,-9.849569855575151,-7.209999999999999e-21,960.8726404394789,12.106768519358718,0.0016365253887775555,0.008874863338677357,0.0006166136973947919,-0.3387454841703407,0.2086041334088176,-9.892609757004008,-0.004898491601202405,0.008797599957915835,0.00538966902004008,-7.209999999999999e-21,47.41457034855711,47.951978417174345,-1.1698607288697396,-1.844550296503006,10.219308410761524,10.353973609458919,-0.002693300709418838,-0.006879603192384754,-0.20819778487174348,184.65415733567133,150062080.85751504,6620172.0,447.9304859206413,12.09055333498998,96059.21910098197,1.1413424253066131,0.4039453256052105,0.2707242367835672,-0.0850336778617237,-0.0003602874448897864,0.025817452352705418,0.001319669767535072,0.0074349001783567134,0.11892170140480962,-1.5805092567194388,0.7022587998416834,0.044834868931863725,0.03917884530861723,-0.7094271203867736,0.011375802418837669,398688574.2338677,327342899.69519037,446308.97341643285,10.663194737294589,-0.19999999,-10.65535920747495,2.2665973676012023,4.693073561843687,0.0,0.0,0.0,39.8714138,32.7364368,-284.25022196833663,-184.43948165711421,-46.02860998901804,-0.20352745061122243,-10.79725038028056,2.2490001467995993,-0.009122083781563123,-0.6370991716352705,-0.05178953311422847,-1.5941162003787575,46.14973484256513,0.012024889725450901,0.38139850248697393,-0.00023740728456913824,0.018807472945891794,151026072.28256512,0.0,0.0,0.0,0.0,1.0
151097870.0,-0.0005120622985971972,0.6588627824649299,0.03067300428456914,0.02227245127054108,1.0,1514.5110220440881,2000.0,1028.5551102204408,1498.6190098917834,1500.3809901082166,1828.3891992484969,10.706101071723447,10.939571569639279,10.547294306372747,10.619408706072145,10.850938321943888,10.909673256813628,11.147534984068136,,,70.30753156396793,70.30753156396793,12.107242472685371,-0.0006706616653306612,-0.005822104947895792,4.1202204408817634e-05,-0.25663906085971944,0.1742030888597194,-0.014298594673346694,2.0,8.525576457953909,9.525576457953909,11.0,0.0,0.0,1.0,0.0,0.0,0.0,0.0,0.0,0.0,0.0,0.008178754462925852,0.11705954448096192,-1.5802376177755513,-1.574540354008016,0.1773633632765531,328.51564589398794,30.87026409008016,-0.007626415753507014,0.4,0.014930976152304608,0.0,-0.39000198453707413,0.2372347975711423,-9.969104061432866,-7.209999999999999e-21,960.8891140981964,12.107964664168337,0.0007521588176352557,0.015453347306613234,-0.0005990973346693375,-0.34678066415230463,0.17978136557314633,-9.962424943438878,-0.0009967205791583142,0.014581191352705414,0.009701261657314632,-7.209999999999999e-21,47.31720044024048,47.823335866533064,-1.1655712376392786,-1.9010719191983967,10.219299240921844,10.380536835210421,-0.003224744681362726,0.04819267091583169,-0.20827922011422845,184.62894291282566,150134048.48256513,6620172.0,447.68658168336674,12.091347565551102,96062.01905210421,1.1413756748256514,-0.11258140143286588,0.15575929031062136,0.013581092426852737,0.0030904932384769536,0.03192096543887776,0.004883833042084163,0.007337505380761522,0.12287764173547094,-1.5805607640841683,0.7021536686332666,0.04620426238076152,0.040601792549098195,-0.709363634264529,0.02146146856513026,398688572.8577154,327342814.0805611,446152.6332747495,10.70415721781563,-0.19999999,-10.713389392404808,2.2870786099298597,4.693252261118237,0.0,0.0,0.0,39.8714138,32.7364368,-284.26539235450906,-185.21079063486974,-45.8634553091984,-0.20295838481963926,-10.84032615016032,2.246144844953908,0.012218529877755523,-0.5996134414188377,-0.12790755037474955,-1.5939978403927855,45.984578972024046,0.011897968296593186,0.3800654912084168,-0.00022751301803607214,0.01788417269739478,151097869.91583166,0.0,0.0,0.0,0.0,1.0
151171877.0,-0.0004211361943887771,0.6579191069138277,0.029870397779559115,0.026303844751503016,1.0,1514.0,2000.0,1016.8236472945893,1499.4403994188376,1499.5596005811624,1823.8196392785571,10.64726805507014,10.879348140981964,10.585075943346693,10.658071513026051,10.890363483406814,10.941500150601202,11.179973243006012,,,70.58554624623247,70.58554624623247,12.108223875531062,-0.0006706311763527054,-0.005822917877755511,4.080901803607214e-05,-0.2566457745170341,0.17421470751703405,-0.014523391573146293,2.0,8.530688903084169,9.530688903084169,11.0,0.0,0.0,1.0,0.0,0.0,0.0,0.0,0.0,0.0,0.0,0.008006015893787575,0.11773331505811623,-1.5803023150821645,-1.5745424933967935,0.18002209149499,327.79732299358716,30.979990719418836,-0.007604731428857716,0.4,0.014897304675350703,0.0,-0.38711846682565126,0.22809949786573144,-10.01742972511022,-7.209999999999999e-21,960.9103991729459,12.109061548096193,0.002456930551102202,0.018811891494989994,0.007075668314629256,-0.36137495702605205,0.18123021228056108,-9.99920579963928,0.00023603991182364573,0.021515477112224454,0.008159051859719435,-7.209999999999999e-21,47.21086919176352,47.67334693641283,-1.1701123406713427,-1.9559290478697395,10.219199348496995,10.429840275430863,-0.004212814775551103,0.1034817450440882,-0.20836831186973948,184.61340512384768,150207178.71162325,6620172.0,447.5987417440882,12.092156516673347,96063.0240976553,1.1413876758056112,0.20021980601002043,-0.22996555405611227,0.017310157883767052,0.0029767612124248473,0.03799371409018037,0.0022861833567134333,0.0070334285090180365,0.12170774970140281,-1.5806354447995994,0.7021604819098196,0.04568422454909819,0.04029700433066132,-0.7094072716312625,0.014257932242484981,398688571.48156315,327342727.5200401,445995.537108016,10.745119576452906,-0.19999999,-10.762599625671344,2.28866022092986,4.693342950110221,0.0,0.0,0.0,39.8714138,32.7364368,-284.2800272951904,-185.96221881342686,-45.70324348987976,-0.20168044576152303,-10.880869355511022,2.2390136961162326,0.05462921793386777,-0.5871176156032064,-0.1771312211563126,-1.5938067446352704,45.82436684909819,0.011516673052104208,0.3820539184769539,-0.00017493991783567133,0.023403035501002006,151171877.18436873,0.0,0.0,0.0,0.0,1.0
151247923.0,-0.00012886838476953457,0.6482453506412825,0.02932807892985972,0.015104333408817653,1.0,1514.0,2000.0,1019.0541082164328,1499.0,1500.0,1824.1583166332666,10.761904596993988,10.996374286292586,10.622857585430863,10.696734320881763,10.92978863486974,10.973327044388776,11.212411501943887,,,70.86356093849699,70.86356093849699,12.109205274168337,-0.0006706006873747495,-0.00582373080761523,4.041583166332665e-05,-0.2566524881743487,0.17422632517434872,-0.014748188563126253,2.0,8.535801348214429,9.535801348214429,11.0,0.0,0.0,1.0,0.0,0.0,0.0,0.0,0.0,0.0,0.0,0.007833278324649298,0.1184070861242485,-1.580367012478958,-1.5745446328757515,0.18268081971342687,327.0790000931864,31.08971735296593,-0.007565724827655309,0.4,0.014870107104208417,0.0,-0.37737978976352715,0.18716930893186373,-10.00230782001002,-7.209999999999999e-21,960.9312459264531,12.11003718531062,0.0014960825350701372,0.027070290402805605,-0.0002349967274549125,-0.3567600243386773,0.27456880146292595,-10.048964927715431,-0.0015558390220440886,0.02903286527054108,0.0017677814849699407,-7.209999999999999e-21,47.10342979108216,47.52071831260521,-1.1757454328216432,-2.0105803465490983,10.219088238236473,10.48195576264529,-0.005257350182364728,0.15879762850100196,-0.20845835112825653,184.59906390200402,150278172.22024047,6620172.0,447.5025840260521,12.093011954168336,96064.14010056113,1.1414009561863727,-0.47470272492986054,-0.3645740963807622,0.41201753010220366,0.0014696436152304756,0.04272220348096192,0.00158508383166333,0.006815097601202404,0.12400546102404811,-1.5807034802845692,0.7020891611442887,0.04642362249699399,0.04117988866933868,-0.7093796625490981,0.018570047861723463,398688570.1054108,327342639.4462926,445837.148858517,10.786081723106212,-0.19999999,-10.796734690400802,2.257938357408818,4.69328321330461,0.0,0.0,0.0,39.8714138,32.7364368,-284.29415137855716,-186.6974372805611,-45.5474832749499,-0.19986079520040081,-10.91892936034068,2.2275555881503006,0.0891157832124249,-0.5882746886332666,-0.2059816043466933,-1.5935572460941885,45.66860722282565,0.010918335573146294,0.3743499541242485,-9.86762204408818e-05,0.014488313581162354,151247923.00801602,0.0,0.0,0.0,0.0,1.0
151320215.0,-0.0005294691362725556,0.6524057522204408,0.029621096861723453,0.024850819687374757,1.0,1514.0,2000.0,1022.7735470941884,1500.0,1499.0,1824.0,10.79049663967936,11.02552127254509,10.66063922751503,10.735397133286574,10.969213786332666,11.005153942044087,11.244849767014028,,,71.14157562076153,71.14157562076153,12.110186677354708,-0.0006705708116232465,-0.00582454373747495,4.002264529058116e-05,-0.2566592022184369,0.17423794383166333,-0.014972986008016031,2.0,8.54091379434469,9.54091379434469,11.0,0.0,0.0,1.0,0.0,0.0,0.0,0.0,0.0,0.0,0.0,0.007660540142284569,0.11908085719038076,-1.5804317103306613,-1.5745467721963928,0.18533954831863728,326.36067719278554,31.199443981963928,-0.007533495244488977,0.4,0.014842832815631262,0.0,-0.2957182447715432,0.2063198229799599,-10.120145332124247,-7.209999999999999e-21,960.9363123831663,12.111012824108217,0.0032266839058116238,0.03411649541683366,0.0016360602364729544,-0.37605605377955903,0.1472628598677354,-10.169632290460921,-0.0003906003206412839,0.028574071136272545,0.002462976270541081,-7.209999999999999e-21,46.99803243028056,47.36972134557114,-1.178839543765531,-2.0617074874348695,10.218984818617233,10.532687082424848,-0.006274048108216432,0.21138383760521037,-0.20854711503607218,184.58844955951903,150350234.1004008,6620172.0,447.4547744296593,12.09388186517034,96064.6941391984,1.1414075359579159,0.0003058719018039363,0.007776172158316528,-0.14626485494789543,2.1822248496988078e-05,0.04811718876352706,0.007241776739478952,0.006669113983967935,0.12110493463527054,-1.5807839991843686,0.7021297448456915,0.04534557807014028,0.04021113684168336,-0.7094644694268537,0.006137534543086162,398688568.72925854,327342551.37254506,445678.76060901803,10.827043869759517,-0.19999999,-10.83086975513026,2.2272164934328655,4.693223476498998,0.0,0.0,0.0,39.8714138,32.7364368,-284.30886053346694,-187.48226778396793,-45.3832632754509,-0.19898266739478962,-10.95817540533066,2.210052028480962,0.006714029022044172,-0.5199319478336675,-0.29973514461322637,-1.5934333735631263,45.5043872754509,0.010658362689378758,0.37623303558517035,-2.9336873747495e-05,0.022548133412825647,151320215.11422846,0.0,0.0,0.0,0.0,1.0
151383874.0,-0.0007883464088176354,0.6464082197294589,0.028952897266533065,0.01259146133266531,1.0,1514.0,2000.0,1015.062124248497,1499.7936966092184,1499.2063033907816,1821.4427763366734,10.871691630541083,11.108455031482965,10.698420869599198,10.774059935691382,11.008638941322646,11.036980835490983,11.277288026292586,,,71.41959031302605,71.41959031302605,12.111168080541082,-0.0006705407094188378,-0.00582535666733467,3.9629458917835675e-05,-0.25666591648897796,0.17424956248897797,-0.015197783452905811,2.0,8.54602623947495,9.54602623947495,11.0,0.0,0.0,1.0,0.0,0.0,0.0,0.0,0.0,0.0,0.0,0.007487802186372745,0.11975462825651302,-1.5804964071823648,-1.5745489117434872,0.1879982771503006,325.64235429238477,31.309170610961925,-0.007509622206412826,0.4,0.014820598248496993,0.0,-0.307277408755511,0.18690026677955915,-10.211748273266533,-7.209999999999999e-21,960.9709341258517,12.11197456498998,0.0022112724268537037,0.030893822941883756,0.000851435925851699,-0.36107983313426845,0.2076564162845691,-10.186387626472946,0.00016656556112224446,0.03585581794789578,0.005045542250500999,-7.209999999999999e-21,46.901664278817634,47.22593898667335,-1.1707071853306612,-2.0972520612545087,10.218915397595191,10.577298067254508,-0.0071676584048096185,0.2519003945310621,-0.2086302405250501,184.59431399278557,150422296.0226453,6620172.0,447.3028883018036,12.09477601234469,96066.44740354709,1.1414282938517033,-0.15055620681763568,0.4684636980320639,-0.06386406966533259,0.0021677529939879885,0.05073984807214429,-0.00016427346292585267,0.018401788416833667,0.12426537499799599,-1.5675205814048097,0.7064639682324649,0.05033633969539078,0.03749345217635271,-0.7049602090280561,0.012771758953907825,398688567.3883768,327342461.9344689,445519.77207034064,10.865005119779559,-0.20150058868737475,-10.866505713346694,2.213001193316633,4.69313770409018,0.0,0.0,0.0,39.8714138,32.7364368,-284.3236316106213,-188.2742273044088,-45.22026601621242,-0.19725618004408818,-10.996644894248497,2.1874277560240483,-0.025188989110220446,-0.5145050478777554,-0.3605249649298597,-1.5932135693246494,45.34139001621242,0.01025529815230461,0.3661774233246493,-4.1578356713426864e-05,0.010604137943887787,151383873.95390782,0.0,0.0,0.0,0.0,1.0
151447533.0,-0.0012219283306613214,0.6476407840220441,0.029564579414829657,0.021096231793587186,1.0,1514.0,2000.0,1020.3627254509018,1499.7702301402805,1499.2297698597195,1820.681362725451,10.816698334248496,11.052070599839679,10.736202511683368,10.812722748096194,11.048064099258518,11.068807728937875,11.309726285571143,,,71.69760499529058,71.69760499529058,12.112149483727455,-0.0006705102204408817,-0.005826169597194389,3.923627254509017e-05,-0.25667263014629255,0.17426118082765532,-0.015422580216432866,2.0,8.551138684605212,9.551138684605212,11.0,0.0,0.0,1.0,0.0,0.0,0.0,0.0,0.0,0.0,0.0,0.007315063935871743,0.12042839932264529,-1.5805611050340682,-1.5745510516773547,0.19065700536873748,324.924031391984,31.41889723995992,-0.007488021384769539,0.4,0.014793328360721444,0.0,-0.359386041006012,0.1621163385330661,-10.285801211823648,-7.209999999999999e-21,961.0136815809619,12.112924363486973,0.002244764509018042,0.03980883117234469,0.005344463334669343,-0.3447467453306613,0.1789888589599198,-10.223072146633266,-0.0002558091823647282,0.04504646665330661,0.007339826627254509,-7.209999999999999e-21,46.80560971296593,47.08240718915832,-1.1621849326112224,-2.1322554535310623,10.218847156913828,10.621696495531063,-0.008056992899799598,0.2919977734509018,-0.2087131703947896,184.6007507503006,150496324.97094187,6620172.0,447.09552486833667,12.095723055511023,96068.81601923848,1.14145653195992,0.08167496280962094,0.03820347763126325,-0.026244988897795498,0.0030131633326653333,0.05958659940681363,0.005253045282565127,0.01815511656513026,0.12331972905811624,-1.5676313233967936,0.7064543626232465,0.04991829790581162,0.03724317693386773,-0.7050117168376754,0.006662354132264512,398688566.07695395,327342370.8152305,445360.01838456915,10.89914086292585,-0.20491413251302606,-10.904054998757514,2.2198282740701405,4.693018742621242,0.0,0.0,0.0,39.8714138,32.7364368,-284.3381301362725,-189.05542688096193,-45.06159511841683,-0.19519286799398797,-11.033304320300601,2.161675586224449,-0.01686080177755513,-0.5407664708757515,-0.4146732535711422,-1.5929614052925851,45.18271925993988,0.00984150995991984,0.3677562181262525,9.397595190380739e-06,0.02054002051903808,151447532.79358718,0.0,0.0,0.0,0.0,1.0
151511191.0,-0.0009795887955911815,0.6388587238777556,0.028854889571142284,0.010691044152304596,1.0,1513.7817488456915,2000.0,1011.7845329298598,1499.2845691382765,1499.7154308617235,1815.7882432625252,10.803237014709419,11.03822522765531,10.773984153767536,10.851385553346693,11.087489250721443,11.100634622384769,11.3421645448497,,,71.97561968470941,71.97561968470941,12.113130886913828,-0.0006704797314629258,-0.005826982527054108,3.8843086172344685e-05,-0.2566793438036072,0.17427279880360722,-0.01564737734268537,2.0,8.556251129735472,9.556251129735472,11.0,0.0,0.0,1.0,0.0,0.0,0.0,0.0,0.0,0.0,0.0,0.007361377126252505,0.12111600883967935,-1.5803673169238477,-1.574546892527054,0.1850089726252505,324.1981943296593,31.524107637214428,-0.007471292793587174,0.4,0.014783397871743487,0.0,-0.35476477368737475,0.20698187312024047,-10.372158870901805,-7.209999999999999e-21,961.0216288677356,12.113856815330662,-0.002002341448897788,0.043289085971943884,-0.00021770393186372846,-0.36328775639679356,0.19142772232264527,-10.298240263406813,-0.0022464825811623246,0.043567251310621245,0.005831268785571143,-7.209999999999999e-21,46.70936556410822,46.93774825166333,-1.1599791260781562,-2.1644233519498997,10.21877575753507,10.670384842745491,-0.00903218753507014,0.33090099413426854,-0.20879687549499,184.6120745755511,150566419.76713428,6620172.0,447.05321553146297,12.096677425571142,96069.31187651303,1.1414623191482967,-0.15665870357715447,-0.0847283339839684,-0.009669502577153849,0.0006291563126252463,0.05621784401002004,0.004243909977955915,0.017843976835671346,0.12563162688176352,-1.567732207769539,0.7063688025731463,0.05062435300601203,0.038167850146292585,-0.7049986121342685,0.011368830981963935,398688564.7008016,327342279.6244489,445200.2646987976,10.933276608917836,-0.20832767633867735,-10.941604287695391,2.2266553548236474,4.692899780152304,0.0,0.0,0.0,39.8714138,32.7364368,-284.3515770557114,-189.79053948977955,-44.91536787715431,-0.19386912253306612,-11.064793817935872,2.133285610188377,0.013278511877755503,-0.5377677746573147,-0.522884669012024,-1.5928084981082165,45.03649263991984,0.009520795543086172,0.35570483625450905,2.8621843687374798e-05,0.009018568340681373,151511190.63326654,0.0,0.0,0.0,0.0,1.0
151574849.0,0.00045520012024048093,0.6391976260240481,0.028725819749499,0.018233535050100204,1.0,1514.0,2000.0,1021.7489481462926,1500.4989979959919,1498.5010020040081,1816.4634198396793,10.872365161543087,11.10876198264529,10.811765795851702,10.890048362905812,11.126914402184369,11.132461515831663,11.374602806633266,,,72.25363436981964,72.25363436981964,12.11411228260521,-0.0006704537494989979,-0.005827814995991984,3.84498997995992e-05,-0.2566863673306613,0.1742849755771543,-0.015870659256513025,2.0,8.561363575116232,9.561363575116232,11.0,0.0,0.0,1.0,0.0,0.0,0.0,0.0,0.0,0.0,0.0,0.008718683589178357,0.12188644449298597,-1.578626527743487,-1.5745050397635272,0.12964601788577157,323.42738598196394,31.602288971062123,-0.007454290330661323,0.4,0.014772930785571141,0.0,-0.3411213117094189,0.17961047555711424,-10.396513198757514,-7.209999999999999e-21,961.025658962525,12.114774339839679,-0.0009074639559118226,0.046378056314629254,0.003727873775551105,-0.35292633390581163,0.20575441443887774,-10.359107500941883,0.0013579759138276537,0.04270522418837675,0.0011743201563126269,-7.209999999999999e-21,46.61250683382765,46.789435366152304,-1.1782498704028055,-2.187399193709419,10.218694141703406,10.732980189418837,-0.010285721703406813,0.3659330106292585,-0.2088830907214429,184.6392412232465,150640645.34188378,6620172.0,446.86674758697393,12.097640199298597,96071.43683056113,1.1414876250821642,-0.09410860910420855,-0.04865370940681393,0.225058290422846,0.006858511781563127,0.05990868475751502,0.005964733414829661,0.017391035154308617,0.12261247368937876,-1.567842969531062,0.7064164758597195,0.049403307340681366,0.03725719960320641,-0.7050855077094188,0.0031064823146292517,398688563.3246493,327342189.9274549,445048.86881362734,10.965670961723447,-0.21,-10.973929744308617,2.21432902102004,4.69287181464529,0.0,0.0,0.0,39.8714138,32.7364368,-284.36516342625254,-190.5280968286573,-44.771575665330666,-0.19336270621442886,-11.094607428617234,2.1015670985711425,0.0089999208236473,-0.46823394850300615,-0.5626502083286573,-1.5925543399118236,44.892699599979956,0.026417358096192386,0.35430308569939883,-3.017064128256515e-05,0.015048497438877758,151574849.4729459,0.0,0.0,0.0,0.0,1.0
151638508.0,-0.0013162288597194387,0.6307007243226453,0.02797742508016032,0.009470637675350698,1.0,1513.7946073747494,2000.0,1006.7314629258517,1499.0651738496995,1499.9348261503005,1811.2164328657313,10.9091197802004,11.146304221883767,10.849547437935872,10.928711175310621,11.166339563647295,11.164288409278559,11.407041065571143,,,72.53164905991983,72.53164905991983,12.115093685450901,-0.0006704919258517034,-0.005828987278557115,3.793507014028056e-05,-0.2566988249759519,0.17430693506813627,-0.01606737009218437,2.0,8.56647602099599,9.56647602099599,11.0,0.0,0.0,1.0,0.0,0.0,0.0,0.0,0.0,0.0,0.0,0.010085567525050099,0.12265748418637275,-1.5768744361863727,-1.5744629110601203,0.07391986365330662,322.6562491084168,31.680272838837677,-0.0074389902845691394,0.4,0.014764676204408817,0.0,-0.33768726683767536,0.1647562180320641,-10.433831146392786,-7.209999999999999e-21,961.0305219663327,12.115679206553107,0.004714962771543085,0.04840603136272545,0.007168286673346692,-0.3606262299118236,0.243593898741483,-10.400876938957916,0.0073897938637274545,0.045661629955911824,-0.0018067295330661324,-7.209999999999999e-21,46.51564810354709,46.64112248563126,-1.196520615012024,-2.210375035468938,10.218612525871743,10.795575528937876,-0.011539256655310621,0.4009650268396794,-0.20896930566332664,184.6664079208417,150711382.7517034,6620172.0,446.7095536114229,12.098648047815631,96073.26732048097,1.1415093160801604,-0.12047684986172352,0.4121017720420844,-0.18893400774749494,0.012807762659318638,0.06425284981162324,0.004241733280561123,0.01704300474749499,0.12617846946492986,-1.5679338224969939,0.7063041895851704,0.05053790910621243,0.038638438398797596,-0.7050439745611223,0.009663580979959922,398688561.948497,327342101.4821643,444905.50018697395,10.996392824529059,-0.21,-11.001238069158315,2.183607122657315,4.692931244549098,0.0,0.0,0.0,39.8714138,32.7364368,-284.3792465490982,-191.28795169138277,-44.62554568667335,-0.19237286115230462,-11.123070118196392,2.0666943048036073,0.017069848625250492,-0.4042072372224449,-0.5697636395731462,-1.5922513757294587,44.74666914034068,0.02569113330260521,0.3418429537214429,0.00011170585170340678,0.0039581537675350675,151638508.31262526,0.0,0.0,0.0,0.0,1.0
151706897.0,8.003283166332649e-05,0.6296824491823648,0.028344567492985973,0.016688168895791583,1.0,1513.0,2000.0,1013.3587174348697,1494.1823647294589,1504.8176352705411,1809.4529058116232,10.875790944068136,11.112225828817635,10.88732908002004,10.967373979539078,11.20576471511022,11.19611530272545,11.439479324509017,,,72.8096637443487,72.8096637443487,12.116075088296594,-0.0006705546533066132,-0.005830287725450902,3.7345290581162325e-05,-0.25671332175751505,0.1743325678537074,-0.016254105096192385,2.0,8.571588466126252,9.571588466126252,11.0,0.0,0.0,1.0,0.0,0.0,0.0,0.0,0.0,0.0,0.0,0.011452450643286573,0.12342852462925852,-1.5751223456292585,-1.5744207821062124,0.018193710420841683,321.8851122348698,31.758256706613224,-0.007421996805611223,0.4,0.014755910573146291,0.0,-0.3616079573446894,0.23070747555911825,-10.538270751743486,-7.209999999999999e-21,961.0406879,12.116580654849699,0.0060191731162324656,0.05591249569739479,0.004433816398797596,-0.4006481854789579,0.23481431918637274,-10.397307325931862,0.013514955414829659,0.055377366863727455,0.0009107490641282567,-7.209999999999999e-21,46.41455000921844,46.48567895551103,-1.207676906509018,-2.228635168739479,10.218527511623247,10.850754427815632,-0.012644530923847696,0.4326097680200401,-0.2090582025731463,184.70179543827655,150782622.94088176,6620172.0,446.5360701448898,12.099656016052103,96075.26398663328,1.1415330370661323,-0.040987264773547125,0.20677747424248497,-0.17700137063727459,0.013162700551102203,0.06860024431663327,0.004119985424849699,0.01669578220841683,0.12793680606012026,-1.5680176476352705,0.7062385939238477,0.051036108096192384,0.03938029489178357,-0.7050324725230461,0.013372665601202406,398688560.57234466,327342013.09358716,444762.13146032067,11.027114687334668,-0.21,-11.028546388336673,2.152885225294589,4.692990673885772,0.0,0.0,0.0,39.8714138,32.7364368,-284.39415940260534,-192.0881945973948,-44.47379681046092,-0.18969667014829658,-11.149687576312624,2.0279754810300603,0.07022854504809618,-0.40150106763326654,-0.5674718775490982,-1.591931399771543,44.594921503106214,0.02452256524248497,0.34167505599398795,0.0004501606132264529,0.014568490761523046,151706896.61122245,0.0,0.0,0.0,0.0,1.0
151790418.0,0.0007579632444889821,0.6239791940541082,0.027666391218436875,0.013906619583166333,1.0,1513.0,2000.0,1007.8162891282566,1496.1482965931864,1502.8517034068136,1806.3556429358719,10.894987882945893,11.131735295711422,10.920865583386773,11.001743254228456,11.240804227194388,11.224706106873747,11.468612408757515,,,73.05966528270541,73.05966528270541,12.11703845753507,-0.000670616745490982,-0.005831588172344689,3.675551102204409e-05,-0.25672781853907817,0.17435820063927854,-0.0164408401002004,2.0,8.576700911256513,9.576700911256513,11.0,0.0,0.0,1.0,0.0,0.0,0.0,0.0,0.0,0.0,0.0,0.012819334545090181,0.12419956507214429,-1.5733702540721444,-1.574378654004008,-0.037532442811623254,321.1139753613226,31.836240565871744,-0.007406350140280561,0.4,0.01473210188777555,0.0,-0.3747104392184369,0.26054108122044095,-10.516802222304609,-7.209999999999999e-21,961.0573609901804,12.117630193126253,0.005972747515030065,0.05670573662925852,0.003755643122244489,-0.35123722005210417,0.2463260521603206,-10.506298058056112,0.013945342661322645,0.057116913863727456,0.00010857896793587146,-7.209999999999999e-21,46.30442994793587,46.31506037014028,-1.2036926075951904,-2.2368595886452907,10.218435261923847,10.890150060641282,-0.013434289004008016,0.4570458961042084,-0.20915280618036072,184.75467821903806,150856195.90821642,6620172.0,446.3665002270541,12.100694691342685,96077.22026561122,1.1415563476232464,0.18318992720240468,0.3204593381823649,0.11240481679559099,0.00968114033266533,0.06857282689178357,0.004649340681362724,0.01618803829258517,0.12698906985571143,-1.568128308296593,0.7062367024649299,0.05052523694589178,0.03922148604008016,-0.7050803370861723,0.008431958903807612,398688559.4258517,327341923.4783567,444617.57363827655,11.053872870561122,-0.21,-11.049909192464929,2.1082904718917836,4.6930156,0.0,0.0,0.0,39.8714138,32.7364368,-284.4080075136273,-192.84173043547096,-44.33340907256513,-0.18642442638476955,-11.170467729458917,1.9886333906152305,0.015357807432865717,-0.35476261335070136,-0.6040199985551101,-1.5916399589739478,44.45453283727455,0.022656777567134266,0.323953123761523,0.0009113852525050101,0.0016146304689378798,151790418.1783567,0.0,0.0,0.0,0.0,1.0
