timestamp,control[0],control[1],control[2],control[3],control[4],output[2],output[3],output[4],output[5],output[6],output[7],indicated_airspeed_m_s,true_airspeed_m_s,indicated_airspeed_m_s.1,equivalent_airspeed_m_s,true_airspeed_m_s.1,equivalent_ground_minus_wind_m_s,true_ground_minus_wind_m_s,differential_pressure_raw_pa,differential_pressure_filtered_pa,temperature,gyro_bias[0],gyro_bias[1],gyro_bias[2],accel_bias[0],accel_bias[1],accel_bias[2],instance_count,seq_reached,seq_current,seq_total,item_changed_index,item_do_jump_remaining,valid,warning,finished,failure,stay_in_failsafe,flight_termination,item_do_jump_changed,execution_mode,nav_roll,nav_pitch,nav_bearing,target_bearing,xtrack_error,wp_dist,acceptance_radius,rollspeed_integ,pitchspeed_integ,yawspeed_integ,additional_integ1,x,y,z,temperature.1,pressure,temperature.2,gyro_rad[0],gyro_rad[1],gyro_rad[2],accelerometer_m_s2[0],accelerometer_m_s2[1],accelerometer_m_s2[2],x.1,y.1,z.1,altitude_sp,altitude_filtered,height_rate_setpoint,height_rate,airspeed_sp,airspeed_filtered,airspeed_derivative_sp,airspeed_derivative,throttle_integ,pitch_integ,baro_alt_meter,baro_temp_celcius,baro_pressure_pa,rho,xyz[0],xyz[1],xyz[2],xyz[0].1,xyz[1].1,xyz[2].1,roll_body,pitch_body,yaw_body,yaw_sp_move_rate,q_d[0],q_d[1],q_d[2],q_d[3],thrust_body[0],lat,lon,alt,vel_m_s,vel_n_m_s,vel_e_m_s,vel_d_m_s,cog_rad,ref_lat,ref_lon,x.2,y.2,z.2,vx,vy,vz,ax,ay,az,yaw,dist_bottom,roll,pitch,yaw.1,thrust_body[0].1,isTakeoff,isClimbing,isDescending,isCruise,isLand,Unnamed: 127,Unnamed: 128,Unnamed: 129,Unnamed: 130,Unnamed: 131
27087602,0.012593971,-0.061900123,-0.0077368459999999995,0.5985938000000001,0.0,1496.0,1500.0,1599.0,1499.563713,1499.436287,1468.0,19.57063792,19.99225927,19.57900292,19.58157035,20.00322602,19.62260724,20.04514589,234.7969838,234.7969838,12.14203583,-0.00136636,-0.006338244,0.0028454979999999997,-0.16344341099999998,-0.004743238,-0.099608192,3.0,-1.0,0.0,15,0,0,1,0,0.0,0,0,0,0,0,0.021754091,0.212040008,1.4995353130000002,1.5709929930000002,9.437376709,78.35179509,55.91245444,-0.019491006,-0.035484154,-0.011174878999999999,0.0,2.529175098,0.522365774,-9.34264254,-2.46e+27,961.4759995999999,12.14034267,0.24266344899999998,-0.060031069000000006,0.044802489,2.7588020369999997,0.44931979899999996,-9.019538537999999,0.08656733800000001,-0.039385281,0.031518672000000005,42.72702327,46.64516903,3.80405699,4.419947614,15.32743279,20.35137852,-0.100478913,0.087478524,-0.083150358,-40.73686655,440.1954382,12.1406353,96148.24492000001,1.1424002420000001,1.883311023,-0.22651690600000002,0.43537876700000006,0.096697382,-0.030568591000000003,0.026247036,0.106914983,0.192951453,1.637345992,0,0.6827750690000001,-0.033907133,0.104549821,0.722261536,0.598344311,398713846.4,327388595.9,440156.7594,19.38,1.7601839869999998,19.289998999999998,-4.7750228539999995,1.479592912,39.8714138,32.7368418,-2.9760784410000003,175.2607826,-40.78760799,1.706209869,19.45310102,-4.704366392,-0.40471168799999996,0.84729981,0.275611062,1.4682389980000001,41.02513068,0.23654958,-0.074483763,0.002391504,0.59690595,0,1,0,0,0,,,,,
27124339,0.017313993,-0.060463132,-0.007396908000000001,0.59781235,0.0,1496.0,1500.0,1597.0,1489.142829,1509.857171,1469.0,19.5862258,20.00839884,19.59073526,19.5940139,20.01612817,19.63629189,20.05931661,235.08019610000002,235.08019610000002,12.14080416,-0.00136746,-0.006340207,0.002840016,-0.163436597,-0.004657134,-0.099520703,3.0,-1.0,0.0,15,0,0,1,0,0.0,0,0,0,0,0,0.060053075,0.210452456,1.527198104,1.639411722,11.81845457,92.58185596,55.97919835,-0.019484351,-0.035572609,-0.011272632,0.0,2.7918981880000002,0.531924525,-9.261302687,-2.24e+27,961.4567872000001,12.13913624,0.333698256,-0.053648367,0.044385524,2.722824205,0.529275493,-8.886514297,0.144793334,-0.04934474900000001,0.035122194,42.94457676,46.83851948,3.805267122,4.408035462,15.32759898,20.35316933,-0.100511407,0.076744807,-0.084166474,-40.51501996,440.37419950000003,12.13938687,96146.15478,1.14237539,2.077521392,-0.48671000700000006,0.312158575,0.171050197,-0.040015423,0.028789452000000004,0.171159586,0.193159047,1.651719163,0,0.6783531759999999,-0.012953999999999999,0.127675924,0.723436382,0.596883009,398713853.0,327388690.5,440351.98799999995,19.38,1.74414876,19.289998999999998,-4.773018513,1.4804674930000001,39.8714138,32.7368418,-2.908272075,176.0367257,-40.97733084,1.687850265,19.484849,-4.69337239,-0.474831157,0.888493733,0.43124358799999996,1.4695299659999999,41.21485374,0.328219096,-0.069182192,0.008049562,0.5949045000000001,0,1,0,0,0,,,,,
27161076,0.035999907000000005,-0.058998207999999996,-0.006725934,0.59592575,0.0,1496.0,1500.0,1596.0,1487.0,1512.0,1470.0,19.61077543,20.03345699,19.60246761,19.60645745,20.02903032,19.64997654,20.07348733,235.36340840000003,235.36340840000003,12.13957249,-0.00136856,-0.00634217,0.0028345329999999998,-0.163429784,-0.004571029,-0.099433214,3.0,-1.0,0.0,15,0,0,1,0,0.0,0,0,0,0,0,0.098352059,0.20886490300000002,1.5548608959999999,1.707830451,14.19953243,106.8119168,56.04594225,-0.019449179,-0.035670969,-0.011352682,0.0,2.767129165,0.536327222,-9.106296954,-1.23e+27,961.4348354,12.13793979,0.391247155,-0.047168679000000005,0.059348302,2.66303395,0.490011831,-8.914133396,0.22393202199999998,-0.052349132,0.037638607000000004,43.14741569,47.01715204,3.8064774389999996,4.394103342,15.32774334,20.35603751,-0.100565882,0.067025246,-0.085109756,-40.30482539,440.60559119999994,12.13813871,96143.51024,1.142343954,1.9802428369999998,-0.077689442,0.606338351,0.267569956,-0.046429387,0.036910293,0.235404195,0.19338852,1.6679884269999998,0,0.6725308390000001,0.007510315,0.15099666,0.724414564,0.5951827439999999,398713859.7,327388785.1,440547.2166,19.38,1.7281135330000001,19.289998999999998,-4.771014172,1.4813420730000002,39.8714138,32.7368418,-2.837730023,176.8646323,-41.17782591,1.661319746,19.52073371,-4.670151186,-0.6068801770000001,0.8944827040000001,0.528068292,1.4713917440000002,41.41534841,0.397006422,-0.063827993,0.015670864,0.59237003,0,1,0,0,0,,,,,
27205813,0.05008043,-0.057067488,-0.005750348000000001,0.5936433000000001,0.0,1496.30106,1500.0,1594.0,1480.30106,1518.69894,1471.0,19.64668857,20.07047636,19.61419996,19.618901,20.04193248,19.66366119,20.08765804,235.64662080000002,235.64662080000002,12.13834081,-0.00136966,-0.006344133,0.00282905,-0.163422971,-0.004484925,-0.099345725,3.0,-1.0,0.0,15,0,0,1,0,0.0,0,0,0,0,0,0.136651043,0.20727735100000003,1.582523687,1.77624918,16.58061029,121.0419777,56.11268616,-0.019404116000000003,-0.035741304,-0.01145877,0.0,2.742360142,0.540729919,-8.951291222,-2.25e+26,961.4128836000001,12.13674335,0.431258352,-0.03185725,0.064071193,2.700062431,0.600174289,-8.967287842000001,0.303070711,-0.055353515,0.040155021,43.34079695,47.18632481,3.8076878730000003,4.378872905,15.32787367,20.35959817,-0.100634487,0.057957525999999995,-0.08600622599999999,-40.10212006,440.7974615,12.13689101,96141.29102,1.14231761,1.789091683,-0.040002111,0.6329947779999999,0.35596167799999995,-0.041081768,0.041437349,0.294543975,0.193674265,1.683862336,0,0.6662971289999999,0.025918958,0.172652055,0.724930634,0.593093647,398713866.0,327388878.9,440741.8512,19.39584307,1.707127325,19.30881286,-4.756137227,1.482527734,39.8714138,32.7368418,-2.7671879710000002,177.6925389,-41.37832098,1.634789228,19.55661842,-4.646929982,-0.738929197,0.900471674,0.624892996,1.4732535219999998,41.61584307,0.38821285299999997,-0.059928428,0.023208782999999997,0.59106752,0,1,0,0,0,,,,,
27250550,0.044653890999999994,-0.055594156,-0.004385251,0.591585852,0.0,1497.0,1500.0,1592.0,1476.880176,1522.119824,1472.0,19.61970696,20.04303302,19.6259323,19.63134455,20.05483463,19.67734584,20.10182876,235.92983309999997,235.92983309999997,12.13710914,-0.00137076,-0.006346096,0.002823567,-0.163416157,-0.004398821,-0.099258236,3.0,-1.0,0.0,15,0,0,1,0,0.0,0,0,0,0,0,0.17495002699999998,0.205689798,1.610186479,1.84466791,18.96168815,135.2720386,56.17943007,-0.019353448,-0.035790081,-0.0115599,0.0,2.6644040490000003,0.531407173,-8.925558775,-7.79e+26,961.3913277999999,12.13554659,0.465172805,-0.026798234,0.077954785,2.528939573,0.564315244,-9.069216613,0.36108851,-0.045808222999999995,0.05072065,43.53417822,47.35549759,3.8088983080000003,4.363642468,15.328004,20.36315883,-0.100703091,0.048889805,-0.086902695,-39.89941473,441.00315980000005,12.13564257,96138.96041,1.142289862,0.7161039840000001,-0.153740393,0.085607295,0.42212641,-0.027389219,0.059379699,0.319623906,0.193984725,1.699415965,0,0.660298044,0.032752703,0.182082943,0.7278528809999999,0.590977578,398713872.0,327388971.9,440935.8772,19.42791328,1.681070114,19.34689668,-4.728075615,1.4840320169999999,39.8714138,32.7368418,-2.703260378,178.47347050000002,-41.56505087,1.597235856,19.58868619,-4.625077279,-0.9310837890000001,0.8492788659999999,0.575288956,1.475780111,41.80257287,0.408425109,-0.056011213,0.031588007,0.58870745,0,1,0,0,0,,,,,
27287287,0.038467789,-0.054582396,-0.003217554,0.5899441999999999,0.0,1498.0,1500.0,1589.0,1479.459292,1519.540708,1472.0,19.6956337,20.12095021,19.63766465,19.643788100000002,20.06773678,19.69103049,20.11599947,236.2130454,236.2130454,12.13587747,-0.00137186,-0.0063480590000000005,0.002818084,-0.163409344,-0.004312717,-0.09917074699999999,3.0,-1.0,0.0,15,0,0,1,0,0.0,0,0,0,0,0,0.21324901,0.20410224600000001,1.63784927,1.913086639,21.34276601,149.5020994,56.24617398,-0.019305808,-0.035825752999999995,-0.011670927,0.0,2.5710693719999997,0.518115832,-8.937204588,-1.78e+27,961.3698866000001,12.13434974,0.473338854,-0.013465841999999999,0.081826913,2.435745145,0.5703081170000001,-9.181007676,0.412999385,-0.032634300000000005,0.063613641,43.72755948,47.52467037,3.8101087419999997,4.3484120310000005,15.32813433,20.36671949,-0.100771696,0.039822084,-0.087799165,-39.69670939,441.392516,12.134394300000002,96134.45366,1.142236413,-0.230014002,0.958435961,-0.301265901,0.459665958,-0.016394335,0.067298152,0.34721194,0.19431012399999997,1.7210831180000001,0,0.651898037,0.039650092000000005,0.192650087,0.732346112,0.58890537,398713878.0,327389065.0,441129.9032,19.4599835,1.655012903,19.3849805,-4.700014003,1.485536299,39.8714138,32.7368418,-2.6412452999999996,179.2408197,-41.74780068,1.556495322,19.61965033,-4.603620266,-1.140617392,0.781552437,0.483346303,1.4784989240000002,41.98532268,0.39408314899999997,-0.052377197,0.04050445,0.587422009,0,1,0,0,0,,,,,
27324024,0.037239562999999996,-0.053390035999999995,-0.001594093,0.58751935,0.0,1499.0,1500.0,1587.9615919999999,1481.9615919999999,1517.0384080000001,1473.0,19.63446125,20.05863913,19.64939699,19.65623165,20.08063894,19.70471514,20.13017019,236.4962577,236.4962577,12.134645800000001,-0.00137296,-0.0063500219999999994,0.0028126009999999996,-0.163402531,-0.004226613,-0.099083259,3.0,-1.0,0.0,15,0,0,1,0,0.0,0,0,0,0,0,0.251547994,0.202514694,1.665512062,1.981505368,23.72384387,163.7321603,56.31291788,-0.019278994,-0.035861646000000004,-0.011778461,0.0,2.50392937,0.5144233429999999,-8.987280764,-2.46e+27,961.3471955,12.13316105,0.48647885,-0.005597251,0.08714424,2.440189324,0.55153041,-9.311753032,0.45374339700000005,-0.020797819,0.074938525,43.92094075,47.69384315,3.8113191769999997,4.333181594,15.32826467,20.37028015,-0.10084030000000001,0.030754363,-0.088695635,-39.49400406,441.4055319,12.13316304,96134.28984,1.142234337,-0.002472878,-0.024801717,0.305160883,0.478034921,-0.003225444,0.071461756,0.36470746299999995,0.19466018300000001,1.736031788,0,0.646059024,0.043726833,0.19949219399999998,0.7354463240000001,0.586916233,398713884.0,327389158.0,441323.9292,19.49205371,1.628955691,19.42306431,-4.67195239,1.4870405819999999,39.8714138,32.7368418,-2.579367608,180.0302865,-41.93490441,1.5076116819999998,19.64950063,-4.58472158,-1.359352811,0.709988053,0.389219779,1.4815234780000002,42.17242654,0.38851455799999995,-0.04816241,0.051678343,0.5853626999999999,0,1,0,0,0,,,,,
27364761,0.031691221,-0.052647529000000005,0.000140602,0.5864109000000001,0.0,1499.617524,1500.0,1586.0,1483.617524,1515.382476,1473.0,19.68279291,20.10815114,19.66112934,19.6686752,20.09354109,19.71839979,20.14434091,236.77947000000003,236.77947000000003,12.13341413,-0.00137406,-0.006351985,0.002807118,-0.163395717,-0.0041405090000000006,-0.09899577,3.0,-1.0,0.0,15,0,0,1,0,0.0,0,0,0,0,0,0.28984697800000003,0.200927141,1.6931748530000001,2.049924097,26.10492174,177.9622212,56.37966179,-0.019284306,-0.035907786000000004,-0.011907731000000001,0.0,2.490549144,0.53043074,-9.116228224,-2.46e+27,961.3219391000001,12.13198912,0.480982955,0.009275961999999999,0.08949264800000001,2.426754389,0.531574983,-9.530394229,0.47156946899999996,-0.011706191000000001,0.08304515900000001,44.11432215,47.86127041,3.81263342,4.3172202760000005,15.32838046,20.37034524,-0.10083928699999999,0.021550382000000003,-0.089587733,-39.28745069,441.5858296,12.13193673,96132.24972,1.142210096,-0.08703384800000001,0.019698429,-0.21191571,0.48676776899999996,0.007721212,0.08254821700000001,0.380793418,0.1950145,1.7505336,0,0.640364933,0.047298614,0.205857231,0.7384489340000001,0.5851205079999999,398713890.0,327389251.0,441517.9552,19.52412392,1.60289848,19.46114813,-4.643890778,1.488544865,39.8714138,32.7368418,-2.517771877,180.8651455,-42.13094376,1.442015813,19.67706497,-4.57107339,-1.5969732719999998,0.630546965,0.29061126,1.485175509,42.368466299999994,0.38436760700000006,-0.04465481599999999,0.062091343,0.5834448,0,1,0,0,0,,,,,
27405498,0.029393842000000003,-0.051693664,0.00191392,0.5843871,0.0,1500.0,1500.0,1584.0,1484.196639,1514.803361,1474.0,19.75148583,20.17836113,19.67286169,19.68111876,20.10644324,19.73208444,20.15851162,237.06268230000003,237.06268230000003,12.13218246,-0.00137516,-0.0063539469999999995,0.002801635,-0.163388904,-0.004054405,-0.098908281,3.0,-1.0,0.0,15,0,0,1,0,0.0,0,0,0,0,0,0.328145962,0.19933958899999998,1.720837645,2.1183428269999998,28.485999600000003,192.192282,56.4464057,-0.01931232,-0.035962636,-0.012031778,0.0,2.4771689180000003,0.546438137,-9.245175683,-2.46e+27,961.2966825999999,12.13081718,0.478437975,0.0036969090000000004,0.098195941,2.314116424,0.5173799170000001,-9.694006697999999,0.489395541,-0.0026145639999999998,0.09115179300000001,44.30770362,48.02773482,3.8140049260000004,4.300855791,15.32848823,20.36848212,-0.100799871,0.012271238,-0.090477419,-39.07877466,441.8211767,12.1307109,96129.51282999999,1.1421776000000001,-0.347140415,0.134677922,0.19756305,0.48855037700000004,0.01812161,0.082797412,0.396079691,0.19537431,1.764994105,0,0.63465947,0.05052872,0.21197316300000002,0.741431684,0.5834896620000001,398713895.7,327389343.6,441708.0336,19.55113333,1.560646039,19.49113423,-4.616841368,1.490791133,39.8714138,32.7368418,-2.456176146,181.7000044,-42.32698311,1.3764199430000001,19.70462932,-4.557425199,-1.8345937330000002,0.551105878,0.192002741,1.488827539,42.56450607,0.371481145,-0.040702577999999996,0.074633133,0.5817694999999999,0,1,0,0,0,,,,,
27448470,0.026093188,-0.050796448,0.004111682,0.58257717,0.0,1501.0,1500.0,1583.0,1487.7757550000001,1511.2242449999999,1474.0,19.75119787,20.17833961,19.68459403,19.69356231,20.1193454,19.74576909,20.17268234,237.3458946,237.3458946,12.13095078,-0.00137626,-0.00635591,0.002796152,-0.163382091,-0.003968301,-0.09882079199999999,3.0,-1.0,0.0,15,0,0,1,0,0.0,0,0,0,0,0,0.366444945,0.19775203600000002,1.748500436,2.186761556,30.86707746,206.4223429,56.51314961,-0.019356068,-0.036025499,-0.012146816999999999,0.0,2.414187763,0.57948181,-9.389017476,-2.46e+27,961.2721052,12.129393400000001,0.477092061,0.022246569,0.09566648400000001,2.360592611,0.6061100660000001,-9.74437117,0.48591327799999995,0.001917915,0.097842746,44.50108508,48.19419924,3.815376432,4.2844913060000005,15.328596,20.366619,-0.100760455,0.0029920940000000003,-0.09136710599999999,-38.87009864,441.9538204,12.12949342,96128.02976,1.142160034,-0.05070685,0.109994453,0.243512305,0.48005932,0.020302031,0.088046468,0.41178827700000004,0.19573218899999997,1.7804532819999999,0,0.628523252,0.053688112,0.21831990199999998,0.744587025,0.582046909,398713901.1,327389435.8,441894.2424,19.57318194,1.502518434,19.51318264,-4.590784157,1.4937647219999999,39.8714138,32.7368418,-2.4017932280000003,182.5376334,-42.52268224,1.290894617,19.72644532,-4.552021112,-2.0126632669999998,0.5281333770000001,0.140812782,1.492952875,42.76020488,0.36243467700000004,-0.036920116,0.08526063699999999,0.5805206,0,1,0,0,0,,,,,
27490972,0.02337962,-0.050051765,0.006173107,0.5812186779999999,0.0,1502.354871,1500.0,1581.0,1489.0,1510.0,1474.0,19.69050803,20.11654228,19.69632638,19.70600586,20.13224755,19.75945374,20.18685305,237.62910699999998,237.62910699999998,12.12971911,-0.00137736,-0.006357873000000001,0.0027906690000000004,-0.16337527699999999,-0.003882197,-0.09873330300000001,3.0,-1.0,0.0,15,0,0,1,0,0.0,0,0,0,0,0,0.404743929,0.19616448399999997,1.7761632280000001,2.255180285,33.24815532,220.65240380000003,56.57989351,-0.019410953999999998,-0.036102208,-0.012247082,0.0,2.344412717,0.61485896,-9.534899361,-2.46e+27,961.2476208999999,12.12793512,0.460473367,0.020714048,0.101911927,2.267292816,0.552900844,-9.76208725,0.47951239,0.005825922,0.10433979199999999,44.69446655,48.36066365,3.816747939,4.26812682,15.32870377,20.36475588,-0.100721039,-0.006287051,-0.09225679199999999,-38.66142262,442.1559554,12.12828681,96125.67113999999,1.142132006,-0.5118335589999999,-0.628770217,0.09658500699999999,0.47778905,0.031169968,0.09053785199999999,0.42631371799999995,0.196072403,1.7955915390000001,0,0.6224930089999999,0.056425018,0.22425663,0.747679935,0.5808450589999999,398713906.6,327389528.0,442080.4513,19.59523055,1.4443908280000002,19.53523105,-4.564726945,1.49673831,39.8714138,32.7368418,-2.348398257,183.3756418,-42.71833476,1.202639532,19.74747395,-4.5477462289999995,-2.182576049,0.5128954370000001,0.096117793,1.497143039,42.95585699,0.336764702,-0.033162607000000004,0.096532415,0.579991732,0,1,0,0,0,,,,,
27539709,0.017546817,-0.048989244,0.00873117,0.580087743,0.0,1503.933987,1500.0,1580.0,1490.0,1509.0,1475.0,19.83723111,20.26657604,19.70805873,19.71844941,20.1451497,19.77313839,20.20102377,237.9123193,237.9123193,12.12848744,-0.00137846,-0.006359836,0.002785186,-0.163368464,-0.003796093,-0.098645815,3.0,-1.0,0.0,15,0,0,1,0,0.0,0,0,0,0,0,0.42019439399999997,0.19606110399999999,1.7924056000000002,2.272603808,33.32297923,223.4497716,56.61620591,-0.019476900000000002,-0.036191008,-0.01231632,0.0,2.3073841,0.622633191,-9.659134800000002,-2.46e+27,961.2284306,12.12660584,0.443550195,0.025126473,0.104448035,2.271647921,0.538579149,-9.776777811,0.471335835,0.010918553000000001,0.106873711,44.88784802,48.52712806,3.818119445,4.251762335,15.32881154,20.36289275,-0.100681624,-0.015566195,-0.093146478,-38.45274659,442.35581849999994,12.127060499999999,96123.35832999999,1.142104464,-0.208131056,0.368015776,0.16568946,0.45705529,0.0312251,0.094984313,0.433579015,0.196377227,1.80554829,0,0.618574643,0.057436769000000006,0.22734994100000003,0.7499171920000001,0.580027956,398713912.0,327389620.2,442266.6601,19.61727916,1.386263223,19.55727946,-4.538669734,1.499711899,39.8714138,32.7368418,-2.30069854,184.18635659999998,-42.90728858,1.109304325,19.76665864,-4.544373,-2.375773719,0.48138184700000003,0.083565403,1.5014016890000002,43.14481022,0.324968259,-0.029520629,0.105414399,0.57931405,0,1,0,0,0,,,,,
27580446,0.015656341,-0.047788823,0.01066559,0.57965577,0.0,1505.0,1500.0,1579.0,1491.0,1508.0,1475.513103,19.81615777,20.24521863,19.71979107,19.73089296,20.15805186,19.78682304,20.21519448,238.1955316,238.1955316,12.12725577,-0.00137956,-0.0063617990000000004,0.0027797029999999997,-0.163361651,-0.0037099890000000003,-0.098558326,3.0,-1.0,0.0,15,0,0,1,0,0.0,0,0,0,0,0,0.428920453,0.196394522,1.8052868990000002,2.275019248,32.71906386,222.8824545,56.64356219,-0.019546031999999998,-0.036287161,-0.01236179,0.0,2.313509406,0.5940317279999999,-9.754844103,-2.46e+27,961.216217,12.12544657,0.436534114,0.025978082000000003,0.09750737599999999,2.239627569,0.49377161,-9.947797142,0.46081927,0.017572303,0.10418494,45.09767168,48.70533408,3.81969108,4.233244067,15.32893473,20.35661146,-0.10055353300000001,-0.024922726,-0.09409980400000001,-38.22418378,442.6008565,12.12586419,96120.5571,1.142071204,0.143100305,0.061391685,0.237121854,0.44762656100000003,0.038581507,0.09789040800000001,0.445705303,0.19667923399999998,1.819897347,0,0.6128463670000001,0.059403855,0.23241261,0.752909864,0.579393003,398713917.4,327389712.4,442452.869,19.63932777,1.328135617,19.57932787,-4.5126125230000005,1.502685488,39.8714138,32.7368418,-2.260504145,184.96110339999998,-43.08741471,1.009274429,19.78341333,-4.5421879910000005,-2.599656695,0.428419871,0.11337119300000001,1.505750589,43.32493554,0.32689284399999996,-0.025732552000000002,0.11399496699999999,0.5777688,0,1,0,0,0,,,,,
27617183,0.017608278,-0.04686699,0.011981348000000001,0.57851833,0.0,1505.0,1500.0,1578.0,1490.092218,1508.907782,1476.0,19.7447375,20.17250203,19.73152342,19.74333651,20.17095401,19.80050769,20.2293652,238.4787439,238.4787439,12.126024099999999,-0.00138066,-0.006363761999999999,0.00277422,-0.163354837,-0.003623885,-0.09847083699999999,3.0,-1.0,0.0,15,0,0,1,0,0.0,0,0,0,0,0,0.437646511,0.19672794,1.8181681980000002,2.277434688,32.11514848,222.3151374,56.67091847,-0.019625442,-0.03638808,-0.012377381000000002,0.0,2.319634712,0.565430264,-9.850553407,-2.46e+27,961.2040034,12.1242873,0.422603564,0.029007745,0.11351874599999999,2.229238533,0.521660648,-9.934600841,0.450302704,0.024226054,0.101496169,45.31522437,48.88905951,3.8213567889999998,4.213713363,15.32906516,20.3482533,-0.100383759,-0.034315634,-0.095083045,-37.98627273,442.56337360000003,12.12463762,96120.98067,1.142076266,-0.306984996,0.47180731200000003,0.164779109,0.43518865799999995,0.035099221,0.10941579300000001,0.464603228,0.197071535,1.84035938,0,0.604569889,0.06258403,0.240282295,0.756862499,0.5781637310000001,398713922.0,327389805.8,442638.9744,19.65620524,1.250358072,19.60034196,-4.505171003,1.506705994,39.8714138,32.7368418,-2.22030975,185.7358502,-43.26754084,0.909244532,19.80016803,-4.540002981000001,-2.823539672,0.375457895,0.143176983,1.5100994890000001,43.50506085,0.308916885,-0.021082007000000003,0.12422084300000001,0.576970768,0,1,0,0,0,,,,,
27655839,0.013762145,-0.045598726,0.013730107,0.577443546,0.0,1506.0,1500.0,1577.0,1493.0,1506.0,1477.0,19.82005126,20.24943808,19.74325577,19.75578006,20.18385616,19.81419234,20.24353592,238.7619562,238.7619562,12.12479242,-0.00138176,-0.006365725,0.0027687370000000003,-0.163348024,-0.00353778,-0.09838334800000001,3.0,-1.0,0.0,15,0,0,1,0,0.0,0,0,0,0,0,0.44637257,0.19706135800000002,1.831049497,2.279850128,31.511233100000002,221.74782030000003,56.69827475,-0.019698697,-0.036478246,-0.012359802,0.0,2.240618246,0.562372613,-9.881579322999999,-2.46e+27,961.1802856,12.12312763,0.408593967,0.035004638,0.128207385,2.155678493,0.39530889,-9.985433131,0.433392834,0.026527977999999997,0.11228177,45.53277706,49.07278493,3.823022499,4.19418266,15.32919559,20.33989514,-0.10021398599999999,-0.043708542,-0.096066286,-37.74836168,442.91337869999995,12.12343609,96116.9396,1.142028204,-0.578321468,0.745222323,0.691714295,0.42451182299999995,0.040065382999999996,0.11244328699999999,0.475293291,0.197474263,1.854626906,0,0.598847803,0.063911824,0.24490057,0.75981536,0.576982636,398713925.8,327389900.4,442824.9828,19.66823165,1.154146829,19.62038577,-4.515192947,1.5117086180000001,39.8714138,32.7368418,-2.190641068,186.5108139,-43.44716768,0.793793967,19.81252794,-4.53717934,-2.9052122639999998,0.352936408,0.135622011,1.515185152,43.68468848,0.292598621,-0.015686141,0.134952411,0.5762027510000001,0,1,0,0,0,,,,,
27698657,0.009618843,-0.044188143,0.015867071,0.5764794,0.0,1507.0,1500.0,1576.0,1494.25045,1504.74955,1477.0,19.75100044,20.17923942,19.75498811,19.76822361,20.19675832,19.82787699,20.25770663,239.04516850000002,239.04516850000002,12.12356075,-0.00138286,-0.006367688000000001,0.002763254,-0.163341211,-0.003451676,-0.098295859,3.0,-1.0,0.0,15,0,0,1,0,0.0,0,0,0,0,0,0.455098629,0.19739477600000002,1.843930796,2.282265568,30.90731773,221.18050319999998,56.72563104,-0.019773856,-0.036577899999999997,-0.012327635,0.0,2.160160138,0.559747477,-9.911510003,-2.46e+27,961.1563731000001,12.12196795,0.395936048,0.040026864,0.131631624,2.182148712,0.515175984,-10.05314723,0.41637471,0.028756215,0.123295523,45.75032975,49.25651036,3.8246882089999996,4.174651956,15.32932602,20.33153698,-0.100044212,-0.053101449,-0.097049527,-37.51045063,442.9997459,12.12221427,96115.94381,1.142016315,-0.05165774,0.013687096000000001,0.652690224,0.405062524,0.046762381,0.11919121199999999,0.48438646799999996,0.197827675,1.86808927,0,0.593453848,0.064819454,0.248894229,0.7626656359999999,0.576269015,398713929.6,327389995.0,443010.9912,19.68025805,1.057935587,19.64042958,-4.525214892,1.516711242,39.8714138,32.7368418,-2.161150609,187.2857813,-43.62678607,0.678082295,19.82481343,-4.534344886,-2.984476912,0.330930347,0.12743443699999998,1.520283289,43.86430769,0.276611985,-0.010614631999999999,0.144443406,0.5759371999999999,0,1,0,0,0,,,,,
27743393,0.007439116999999999,-0.042805508,0.017615456,0.5760602,0.0,1508.0,1500.0,1576.0,1495.829566,1503.170434,1478.0,19.81013727,20.23973726,19.76672046,19.78066716,20.20966047,19.84156164,20.27187735,239.32838080000002,239.32838080000002,12.12232908,-0.00138396,-0.006369651,0.0027577709999999996,-0.163334397,-0.0033655720000000003,-0.09820837,3.0,-1.0,0.0,15,0,0,1,0,0.0,0,0,0,0,0,0.463824688,0.197728194,1.856812095,2.284681008,30.30340235,220.6131861,56.75298732,-0.019847047,-0.036675683,-0.012271183,0.0,2.120099825,0.542637638,-9.946121626,-1.92e+27,961.1314722999999,12.12080849,0.38179694799999997,0.053796312,0.143922611,2.148836371,0.371148949,-10.04225852,0.400154389,0.032814795,0.13444972,45.96788244,49.44023579,3.8263539189999998,4.155121253,15.32945646,20.32317882,-0.09987443800000001,-0.062494357,-0.098032768,-37.27253957,443.14109400000007,12.1210004,96114.33849,1.141997334,0.026468697000000003,-0.186649857,0.747343965,0.39482071,0.052532592,0.13082494,0.49176925899999996,0.1981393,1.8804698990000002,0,0.588504599,0.065324459,0.252204221,0.765362676,0.575988181,398713933.4,327390089.6,443196.9996,19.69228446,0.961724345,19.66047339,-4.535236836,1.521713866,39.8714138,32.7368418,-2.137488296,188.09612090000002,-43.81396997,0.548274771,19.83646727,-4.530301703,-3.118669062,0.300780292,0.13617505400000002,1.526197558,44.05149197,0.25492196,-0.005774881,0.151990701,0.57545745,0,1,0,0,0,,,,,
27780130,0.005275793000000001,-0.041542287000000004,0.0190977,0.5758666,0.0,1509.0,1500.0,1575.0,1497.0,1502.0,1479.0,19.83202029,20.26224229,19.77845281,19.79311072,20.22256262,19.85524629,20.28604806,239.61159320000002,239.61159320000002,12.12109741,-0.00138506,-0.006371614,0.002752288,-0.163327584,-0.003279468,-0.09812088199999999,3.0,-1.0,0.0,15,0,0,1,0,0.0,0,0,0,0,0,0.472550746,0.198061612,1.869693394,2.2870964480000002,29.69948697,220.04586890000002,56.7803436,-0.019925184,-0.036774164,-0.012202316000000001,0.0,2.1151150000000003,0.512951418,-9.984797489,-9.17e+26,961.1057135,12.11964922,0.35598453799999996,0.052534932,0.162460154,2.140266834,0.39734178600000003,-10.07610648,0.384626762,0.038462574,0.145725857,46.16812969,49.60632174,3.828097122,4.134431439,15.32959525,20.32181244,-0.099844332,-0.070068626,-0.098927623,-37.04986846,443.5301217,12.11979166,96109.84531,1.141943916,-0.632042953,-0.40102496,0.847455588,0.378491662,0.06194762400000001,0.14393645,0.496967823,0.198458291,1.891320225,0,0.584199549,0.065350509,0.254637202,0.7678534109999999,0.575748086,398713937.2,327390184.2,443383.008,19.70431086,0.865513103,19.6805172,-4.54525878,1.526716489,39.8714138,32.7368418,-2.1188862840000002,188.9371724,-44.00772264,0.40622848799999994,19.84757266,-4.525209039,-3.300552155,0.263559195,0.159613615,1.532820435,44.24524464,0.23825201699999998,-0.000107501,0.161003084,0.5747571,0,1,0,0,0,,,,,
27824867,0.000412449,-0.040170855,0.020122432,0.575377879,0.0,1509.987798,1500.0,1575.0,1499.0,1500.0,1479.0,19.76242556,20.19154717,19.79018515,19.80555427,20.23546478,19.86893094,20.30021878,239.89480550000002,239.89480550000002,12.11986574,-0.00138616,-0.006373576999999999,0.002746805,-0.163320771,-0.003193364,-0.09803339300000001,3.0,-1.0,0.0,15,0,0,1,0,0.0,0,0,0,0,0,0.481276805,0.19839503,1.882574694,2.2895118880000003,29.095571600000003,219.47855180000002,56.80769989,-0.019997484,-0.03686416,-0.012140136000000001,0.0,2.110340019,0.483134745,-10.02782533,-8.76e+25,961.0809929,12.11848995,0.33765488899999996,0.062110933,0.165456938,2.121018796,0.33848723399999997,-10.206863199999999,0.368778345,0.043681178,0.15599798,46.36151237,49.76541062,3.8298710660000004,4.113281841,15.32973737,20.3232195,-0.099869628,-0.076921493,-0.099787419,-36.833242600000005,443.67348330000004,12.11859535,96108.22484,1.141924658,-0.286090901,-0.177318886,0.10139582,0.356450027,0.06557895,0.15544397599999998,0.50500356,0.198846923,1.90496615,0,0.578715555,0.065782189,0.258280804,0.7707476609999999,0.575092776,398713940.0,327390279.9,443570.4951,19.71316863,0.747121424,19.69316774,-4.5499997,1.532769864,39.8714138,32.7368418,-2.101644472,189.77266,-44.20010665,0.263795418,19.85829794,-4.5201750910000005,-3.482811287,0.229106538,0.17986245,1.5394884619999998,44.43762865,0.22014183199999998,0.006165185,0.170450209,0.5744079000000001,0,1,0,0,0,,,,,
27867209,-0.0016197420000000002,-0.038596424,0.021488782999999997,0.5747571,0.0,1510.0,1500.0,1574.0,1500.0,1499.0,1480.0,19.78756228,20.21721549,19.8019175,19.81799782,20.24836693,19.88261558,20.31438949,240.17801780000002,240.17801780000002,12.11863406,-0.00138726,-0.00637554,0.002741323,-0.16331395699999998,-0.00310726,-0.097945904,3.0,-1.0,0.0,15,0,0,1,0,0.0,0,0,0,0,0,0.490002864,0.19872844899999997,1.8954559930000001,2.291927327,28.49165622,218.9112347,56.83505617,-0.020080577,-0.036965071,-0.012063252,0.0,2.1077625,0.45195197600000003,-10.11642664,-1.09e+27,961.0671454,12.11733068,0.320470257,0.062597937,0.175255192,2.042294655,0.37107923600000003,-10.29726615,0.349570641,0.044405493,0.155756155,46.55489505,49.924499499999996,3.83164501,4.092132242,15.32987949,20.32462656,-0.09989492400000001,-0.083774359,-0.100647214,-36.61661673,443.70781270000003,12.11737811,96107.82735,1.141919912,-0.275725167,-0.204315125,0.41469651,0.338990801,0.071742017,0.15929226400000002,0.51074329,0.19922690199999998,1.9170470000000002,0,0.573890066,0.065712722,0.26099636,0.773438269,0.574567819,398713941.8,327390376.5,443759.3097,19.71918184,0.608817764,19.69918114,-4.5499997,1.539766526,39.8714138,32.7368418,-2.098646543,190.54988219999998,-44.3781581,0.117311957,19.86504279,-4.515756014,-3.669008274,0.223644733,0.166708764,1.5466292940000002,44.615680100000006,0.20806783,0.01062318,0.177086508,0.5743644,0,1,0,0,0,,,,,
27910341,-0.003627023,-0.036977163,0.02326409,0.5744079000000001,0.0,1511.0,1500.0,1574.0,1501.0,1498.0,1481.0,19.80874304,20.23903178,19.81364985,19.83044137,20.26126908,19.89630023,20.32856021,240.4612301,240.4612301,12.11740239,-0.00138836,-0.0063775030000000005,0.00273584,-0.16330714400000002,-0.0030211559999999997,-0.097858415,3.0,-1.0,0.0,15,0,0,1,0,0.0,0,0,0,0,0,0.498728923,0.199061867,1.908337292,2.294342767,27.88774084,218.3439176,56.86241245,-0.020161725,-0.037063745,-0.01200006,0.0,2.10518498,0.420769206,-10.20502795,-2.1e+27,961.0532979000001,12.1161714,0.310006147,0.070832327,0.17758958600000002,2.149009389,0.401053306,-10.33287354,0.33036293699999997,0.045129808,0.15551433,46.74827772,50.08358837,3.8334189530000002,4.070982644,15.330021599999998,20.32603362,-0.09992022,-0.09062722599999999,-0.10150701,-36.39999087,443.90885539999994,12.11617274,96105.46977000001,1.141891953,0.156220823,-0.257382887,0.26582173600000003,0.324247497,0.074714913,0.171689886,0.515995916,0.199567943,1.929049635,0,0.569093808,0.065502571,0.26351538,0.77614089,0.57439041,398713943.6,327390473.1,443948.1242,19.72519504,0.47051410299999996,19.70519455,-4.5499997,1.5467631880000001,39.8714138,32.7368418,-2.095648614,191.3271044,-44.55620955,-0.029171505,19.87178764,-4.511336936,-3.85520526,0.218182928,0.15355507699999998,1.5537701259999999,44.79373155,0.194261942,0.01600653,0.18414160899999998,0.5743965,0,1,0,0,0,,,,,
27947078,-0.005274566,-0.035496457,0.024413977000000003,0.574366401,0.0,1512.0,1500.0,1574.0,1501.0,1498.0,1481.7251449999999,19.84263629,20.27382531,19.82538219,19.84288492,20.27417124,19.90998488,20.34273093,240.74444240000003,240.74444240000003,12.11617072,-0.00138946,-0.0063794659999999994,0.002730357,-0.163300331,-0.002935052,-0.097770926,3.0,-1.0,0.0,15,0,0,1,0,0.0,0,0,0,0,0,0.507454982,0.199395285,1.921218591,2.296758207,27.28382547,217.7766005,56.88976873,-0.020233931,-0.037155256,-0.011941593,0.0,2.076421835,0.413698375,-10.27695012,-2.46e+27,961.0339865,12.11502023,0.290060248,0.072269155,0.18040260600000002,2.053418998,0.300780858,-10.35620654,0.313118732,0.053349818,0.16297641599999999,46.941660399999996,50.24267725,3.8351928969999998,4.049833045,15.33016372,20.32744068,-0.099945516,-0.09748009199999999,-0.102366805,-36.18336501,444.1363879,12.11497643,96102.89629,1.141861348,-0.082198368,0.129675882,0.191317063,0.31181887399999997,0.083350615,0.17195084100000002,0.520713069,0.199898872,1.940933861,0,0.564346225,0.06513505,0.26582352600000003,0.7788491809999999,0.574370134,398713945.4,327390569.7,444136.9388,19.73120824,0.332210442,19.71120795,-4.5499997,1.55375985,39.8714138,32.7368418,-2.103077555,192.1461785,-44.74338896,-0.193306867,19.87632373,-4.505923407,-3.992934875,0.173123972,0.12693622300000001,1.5618406169999999,44.98091096,0.17483745899999997,0.020261878,0.18995504600000002,0.5744543000000001,0,1,0,0,0,,,,,
27987815,-0.007837163000000001,-0.034231375,0.025757178999999998,0.5743965,0.0,1512.0,1500.0,1574.0,1503.0,1496.0,1482.0,19.84975895,20.281377600000003,19.83711454,19.85532847,20.28707339,19.92366953,20.35690164,241.02765469999997,241.02765469999997,12.11493905,-0.00139056,-0.006381429,0.0027248740000000004,-0.163293517,-0.002848948,-0.097683437,3.0,-1.0,0.0,15,0,0,1,0,0.0,0,0,0,0,0,0.51618104,0.199728703,1.93409989,2.299173647,26.67991009,217.2092833,56.91712502,-0.020311583,-0.037253522000000004,-0.011890013,0.0,2.032870334,0.420244784,-10.33945272,-2.46e+27,961.0115894999999,12.11387362,0.274530814,0.080683808,0.190660081,2.126444143,0.26810022,-10.45426785,0.296983415,0.065803028,0.17478929399999998,47.153213799999996,50.41265245,3.8372419439999996,4.027802955,15.33029955,20.32698288,-0.099933646,-0.105407664,-0.103295305,-35.940472799999995,444.37759960000005,12.11378013,96100.10066,1.141828138,-0.481320993,-0.23271834600000002,-0.550840708,0.287293652,0.08811266,0.176124528,0.5259721279999999,0.200220383,1.953671652,0,0.559231671,0.064782159,0.268372041,0.781689675,0.574443339,398713947.2,327390666.4,444325.7534,19.73722144,0.19390678100000003,19.71722135,-4.5499997,1.560756512,39.8714138,32.7368418,-2.116395079,192.9888885,-44.93572338,-0.367411155,19.87961242,-4.499948259,-4.103292496,0.10570248800000001,0.09271290199999999,1.5704361340000002,45.17324538,0.161598562,0.025539842000000004,0.19635375800000002,0.5743366,0,1,0,0,0,,,,,
28028552,-0.009070281,-0.032706995,0.026699002000000003,0.57438445,0.0,1513.0,1500.0,1574.0,1505.0,1494.0,1483.0,19.83188251,20.26330175,19.84884688,19.86777202,20.29997554,19.93735418,20.37107236,241.310867,241.310867,12.11370738,-0.00139166,-0.006383392,0.002719391,-0.163286704,-0.0027628440000000004,-0.097595949,3.0,-1.0,0.0,15,0,0,1,0,0.0,0,0,0,0,0,0.52144015,0.200064629,1.9462606359999999,2.301638845,26.07910844,216.60555930000004,56.93760689,-0.020386747,-0.037350386,-0.011830743999999999,0.0,2.0029981119999998,0.418074114,-10.39507146,-2.46e+27,960.9883545,12.11272451,0.258124784,0.08307271599999999,0.187247201,2.1478797469999997,0.292174931,-10.4293321,0.280634282,0.076542152,0.185178153,47.37076810000001,50.58622287,3.8393818439999996,4.0054820819999994,15.33043331,20.3259092,-0.099909502,-0.11369015699999999,-0.104246495,-35.68890611,444.53568729999995,12.11258482,96098.28012000001,1.141806546,-0.564042009,0.03645239,0.228990015,0.270589775,0.09499159900000001,0.181574325,0.531325973,0.200568644,1.966800118,0,0.553946182,0.06436047,0.270981585,0.7845820109999999,0.574359831,398713947.5,327390762.0,444512.1958,19.74323465,0.041586317000000005,19.72539108,-4.542452223,1.5684871040000001,39.8714138,32.7368418,-2.132816361,193.81913319999998,-45.12504063,-0.541346236,19.88204044,-4.493922541,-4.220438886,0.044567165,0.06717152,1.579003402,45.36256263,0.150422015,0.029995913,0.202023048,0.574319432,0,1,0,0,0,,,,,
28065289,-0.012335536999999999,-0.031445545,0.027881512,0.5743309120000001,0.0,1513.0,1500.0,1574.0,1505.0,1494.0,1484.0,19.86096715,20.293242000000003,19.84698743,19.86702237,20.29938175,19.93810359,20.37201199,241.26564539999998,241.26564539999998,12.11253376,-0.001392344,-0.006385473000000001,0.002707957,-0.163253496,-0.002778289,-0.097518261,3.0,-1.0,0.0,15,0,0,1,0,0.0,0,0,0,0,0,0.523864066,0.200402605,1.9578321280000002,2.3041447330000002,25.48085312,215.97206260000002,56.95246704,-0.020463513,-0.037451485,-0.011781123000000001,0.0,2.031069913,0.37897878799999996,-10.42153086,-2.46e+27,960.9615704,12.11156483,0.23562807800000002,0.08592355900000001,0.187610594,2.014608967,0.331106219,-10.51504163,0.263379443,0.08002058,0.18953501,47.58832241,50.75979329,3.8415217439999996,3.983161209,15.33056706,20.32483552,-0.099885359,-0.121972651,-0.105197685,-35.43733942,444.75626680000005,12.11138173,96095.73129,1.14177636,-0.520899357,0.365692402,0.457190149,0.252343557,0.095988386,0.18686811,0.5362179260000001,0.200920983,1.979818389,0,0.548702339,0.06379367400000001,0.273410681,0.787465326,0.574319267,398713946.5,327390856.8,444696.6007,19.74924785,-0.122774555,19.73541308,-4.528421477,1.5768481419999998,39.8714138,32.7368418,-2.162384839,194.596576,-45.30157743,-0.7145645740000001,19.88082275,-4.487682616,-4.3663418080000005,0.010059378,0.078405945,1.5874510069999999,45.53909943,0.13204199,0.034709399,0.207554921,0.5744064,0,1,0,0,0,,,,,
28102026,-0.014584834,-0.029935006,0.029115857999999998,0.5743204000000001,0.0,1514.0,1500.0,1574.0,1506.0,1493.0,1484.0,19.84722558,20.27932598,19.84442737,19.86559266,20.2980923,19.93818622,20.37226962,241.2034942,241.2034942,12.11136314,-0.001393006,-0.00638756,0.0026962170000000003,-0.16321892699999999,-0.002798969,-0.097441079,3.0,-1.0,0.0,15,0,0,1,0,0.0,0,0,0,0,0,0.526287982,0.200740582,1.9694036209999999,2.3066506209999997,24.8825978,215.3385659,56.96732718,-0.020540711,-0.037554254,-0.011729264,0.0,2.059141715,0.339883463,-10.44799026,-2.46e+27,960.9347862,12.11040515,0.225912422,0.08883674,0.19250843199999998,2.0623423780000003,0.290679853,-10.54073596,0.246124604,0.083499008,0.193891868,47.80587671,50.93336371,3.8436616439999995,3.9608403360000004,15.33070082,20.32376185,-0.099861215,-0.13025514400000002,-0.106148875,-35.18577273,444.9942366,12.11016121,96092.99539,1.141743748,-0.033876166,0.396798616,-0.237397777,0.230507288,0.10122710800000001,0.185344153,0.535591854,0.20125946399999997,1.988047683,0,0.545505741,0.062358867000000005,0.273508572,0.789764165,0.574399759,398713945.5,327390951.6,444881.0056,19.75526105,-0.287135427,19.74543509,-4.514390731000001,1.585209179,39.8714138,32.7368418,-2.191953318,195.37401880000002,-45.47811423,-0.887782913,19.87960507,-4.48144269,-4.51224473,-0.024448407999999998,0.08964037,1.5958986130000001,45.71563623,0.12161923599999999,0.039084787999999995,0.212665297,0.574559019,0,1,0,0,0,,,,,
28138763,-0.016288446,-0.028494923,0.029941817000000003,0.574482354,0.0,1514.0,1500.0,1574.0,1508.0,1491.0,1485.0,19.83361961,20.26560759,19.84186732,19.86416294,20.29680284,19.93826886,20.37252724,241.1413429,241.1413429,12.11019251,-0.0013936679999999998,-0.006389646,0.002684476,-0.163184359,-0.002819649,-0.09736389699999999,3.0,-1.0,0.0,15,0,0,1,0,0.0,0,0,0,0,0,0.5287118989999999,0.201078559,1.980975114,2.309156509,24.28434248,214.7050691,56.98218732,-0.020615603,-0.037654684,-0.011655751,0.0,2.051796043,0.339101776,-10.5134691,-2.46e+27,960.9136798000001,12.10905126,0.221528957,0.09770147800000001,0.197289573,2.104430213,0.27922014,-10.58227307,0.235236689,0.088956324,0.19645563100000002,48.02343101,51.10693413,3.845801545,3.938519463,15.33083458,20.32268817,-0.099837071,-0.138537637,-0.10710006400000001,-34.93420604,445.06525819999996,12.1089959,96092.18596,1.141734037,0.112691785,0.450399764,0.633993849,0.222762574,0.109603793,0.19215158699999998,0.53967766,0.201589607,2.000919064,0,0.5403147939999999,0.061565703,0.275605681,0.792659875,0.574590676,398713944.5,327391046.4,445065.4105,19.76127425,-0.451496299,19.75545709,-4.500359985,1.593570217,39.8714138,32.7368418,-2.237549771,196.1996754,-45.66511041,-1.079087478,19.87402423,-4.47406236,-4.612538785,-0.086210915,0.139707881,1.6051444119999998,45.90263272,0.11145295699999999,0.04328005099999999,0.217203852,0.5747729,0,1,0,0,0,,,,,
28175500,-0.018472724,-0.027282373,0.03120673,0.5746349000000001,0.0,1515.0,1500.0,1574.0,1509.0,1490.0,1486.0,19.83657689,20.26881509,19.83930726,19.86273323,20.29551338,19.938351500000003,20.37278486,241.0791917,241.0791917,12.10902189,-0.00139433,-0.006391733,0.0026727359999999998,-0.16314979,-0.0028403290000000004,-0.097286715,3.0,-1.0,0.0,15,0,0,1,0,0.0,0,0,0,0,0,0.531135815,0.201416536,1.992546607,2.311662396,23.68608715,214.07157239999998,56.99704746,-0.020690825,-0.03775393,-0.011571105,0.0,2.03219317,0.35157958899999997,-10.59245169,-2.46e+27,960.8945384,12.10763015,0.20239668600000002,0.094484082,0.191116845,2.024012036,0.17554385399999997,-10.55878727,0.22655222600000002,0.09509849,0.198398844,48.22194903,51.2627681,3.847923155,3.920940108,15.33093787,20.31927436,-0.09976672800000001,-0.14778039999999998,-0.107954649,-34.69908074,445.19779360000007,12.10779959,96090.65172000001,1.141715894,-0.387333662,-0.130027804,-0.384646353,0.199890266,0.10748186800000001,0.18651193800000002,0.5434852729999999,0.20191875399999998,2.0137134580000002,0,0.5351468070000001,0.06068455,0.27758957,0.795536288,0.574798127,398713943.5,327391141.2,445249.8154,19.76728746,-0.615857171,19.765479100000004,-4.486329239,1.6019312540000001,39.8714138,32.7368418,-2.28869315,197.0420178,-45.85572636,-1.2766512840000002,19.86693339,-4.46628736,-4.697048623,-0.157405676,0.20321466100000002,1.6146664469999998,46.09324907,0.09714452400000001,0.047560118,0.221908463,0.574884285,0,1,0,0,0,,,,,
28212237,-0.020674127,-0.026068647,0.031779072,0.5748491,0.0,1515.0,1500.0,1574.0,1509.778956,1489.221044,1486.0,19.88880091,20.32233476,19.836747199999998,19.86130351,20.29422393,19.93843413,20.37304248,241.0170404,241.0170404,12.10785127,-0.001394993,-0.00639382,0.0026609959999999997,-0.163115222,-0.0028610090000000003,-0.097209533,3.0,-1.0,0.0,15,0,0,1,0,0.0,0,0,0,0,0,0.533559731,0.201754513,2.0041181,2.314168284,23.08783183,213.43807569999998,57.01190761,-0.020766003999999998,-0.03784922,-0.011480201,0.0,2.023608522,0.329732715,-10.63245662,-2.46e+27,960.8747129000001,12.10629358,0.18837629399999997,0.09648408,0.190347341,2.065712281,0.28342701600000003,-10.58686447,0.213627473,0.101013771,0.20127678699999998,48.41532989,51.41381568,3.850039829,3.904640305,15.33103295,20.31522903,-0.09968391800000001,-0.15728230199999998,-0.108783164,-34.46839233,445.4232795,12.106603300000002,96088.06726,1.141685209,-0.39599955299999995,-0.206396838,-0.025268192000000002,0.18949397399999998,0.109729221,0.18799965,0.546793733,0.20225935399999997,2.02625527,0,0.530079682,0.059678509000000005,0.279368479,0.798377661,0.574944098,398713940.8,327391235.1,445431.9098,19.77220033,-0.7923204640000001,19.76339868,-4.47889978,1.610868345,39.8714138,32.7368418,-2.344413114,197.8651814,-46.04174463,-1.4721519369999998,19.85886748,-4.45804556,-4.783638379,-0.21250459100000002,0.248536173,1.624083725,46.27926763,0.073473072,0.05252493900000001,0.227269384,0.5750564,0,1,0,0,0,,,,,
28248974,-0.02118368,-0.024884034,0.032932947000000004,0.57494,0.0,1516.0,1500.0,1574.0,1510.0,1489.0,1487.0,19.8100177,20.24203678,19.83418714,19.859873800000003,20.29293447,19.93851677,20.3733001,240.9548892,240.9548892,12.10668065,-0.001395655,-0.006395906999999999,0.002649255,-0.16308065300000002,-0.002881689,-0.09713235099999999,3.0,-1.0,0.0,15,0,0,1,0,0.0,0,0,0,0,0,0.535983647,0.20209249,2.0156895919999998,2.316674172,22.48957651,212.8045789,57.02676775,-0.020839056,-0.037945082000000005,-0.011357065,0.0,2.041379763,0.225780277,-10.57922594,-2.46e+27,960.8532513,12.10515923,0.1667881,0.100288554,0.20079742399999997,2.106863416,0.173483539,-10.61529277,0.190559838,0.106386337,0.20639063100000002,48.60871076,51.56486326,3.8521565030000002,3.8883405019999997,15.33112803,20.31118371,-0.09960110800000001,-0.166784204,-0.109611679,-34.23770392,445.5523423,12.10540785,96086.59331,1.141667624,-0.794726038,0.742860431,0.283958764,0.16847162699999998,0.11378565800000001,0.197684432,0.543164247,0.202597293,2.03256908,0,0.527691526,0.05769717,0.278184731,0.8005134620000001,0.575155547,398713936.8,327391328.1,445612.1054,19.77620893,-0.978729746,19.75137227,-4.476895379,1.6202788469999998,39.8714138,32.7368418,-2.41108039,198.6424689,-46.21676514,-1.662717471,19.84846917,-4.448687163,-4.87520335,-0.229101815,0.25035804300000003,1.633250422,46.45428814,0.062361754000000005,0.057347681,0.23179758,0.5753861,0,1,0,0,0,,,,,
28293711,-0.025340931,-0.023321569,0.034035161,0.5751904999999999,0.0,1516.0,1500.0,1575.0,1512.0,1487.0,1488.0,19.86544189,20.2987485,19.83162708,19.85844409,20.29164501,19.938599399999998,20.37355772,240.89273799999998,240.89273799999998,12.10551002,-0.0013963170000000002,-0.006397994000000001,0.002637515,-0.163046084,-0.002902369,-0.09705516900000001,3.0,-1.0,0.0,15,0,0,1,0,0.0,0,0,0,0,0,0.5384075629999999,0.202430467,2.027261085,2.31918006,21.89132119,212.17108219999997,57.04162789,-0.020913506999999998,-0.038042183,-0.011247438,0.0,2.059151005,0.12182783900000001,-10.52599526,-2.46e+27,960.8317897,12.10402487,0.157728969,0.102682126,0.21211671199999999,2.104151177,0.142935962,-10.55651251,0.16749220199999998,0.111758902,0.211504474,48.80209162,51.71591084,3.854273177,3.872040699,15.33122311,20.30713839,-0.099518298,-0.17628610600000003,-0.110440194,-34.00701551,445.78182180000005,12.10422498,96083.9352,1.141636155,-0.543888088,0.578951112,-0.114461273,0.154511616,0.12207154199999999,0.194634289,0.5446910629999999,0.20292185899999998,2.043828623,0,0.523162005,0.056394169,0.279195807,0.803221947,0.5754654579999999,398713932.8,327391421.1,445792.3011,19.78021753,-1.165139028,19.73934587,-4.474890978,1.629689349,39.8714138,32.7368418,-2.477747667,199.4197565,-46.39178566,-1.8532830059999998,19.83807086,-4.439328765,-4.966768321,-0.24569903899999998,0.252179912,1.642417119,46.62930866,0.050830966,0.062169498,0.236240233,0.5757704,0,1,0,0,0,,,,,
28330448,-0.025440345,-0.022169742000000003,0.034673837,0.5754955970000001,0.0,1517.0,1500.0,1575.0,1513.0,1486.0,1488.0,19.86652403,20.30013015,19.82906702,19.85701437,20.29035556,19.93868204,20.37381535,240.8305867,240.8305867,12.1043394,-0.001396979,-0.006400081,0.0026257740000000004,-0.163011516,-0.002923049,-0.09697798699999999,3.0,-1.0,0.0,15,0,0,1,0,0.0,0,0,0,0,0,0.540831479,0.20276844300000002,2.038832578,2.3216859480000003,21.29306587,211.5375855,57.05648803,-0.020993442999999997,-0.038141415,-0.011087568999999999,0.0,2.049386806,0.094713586,-10.554182699999998,-2.46e+27,960.8057418,12.10289052,0.139382465,0.107769418,0.207371709,1.959516197,0.099678066,-10.59202158,0.15569196400000002,0.11171949,0.210413508,48.99547248,51.86695843,3.8563898510000003,3.855740897,15.33131819,20.30309306,-0.099435488,-0.185788008,-0.11126870900000001,-33.7763271,445.96910870000005,12.10304544,96081.7943,1.141610728,-0.72097176,0.020520028,0.11954732800000001,0.14256508099999998,0.11659202800000001,0.204971017,0.5461010860000001,0.203249298,2.0550321559999998,0,0.518645435,0.05505941,0.280152763,0.8059077240000001,0.575803166,398713928.8,327391514.1,445972.4967,19.78422613,-1.35154831,19.72731946,-4.472886577,1.63909985,39.8714138,32.7368418,-2.566362452,200.250595,-46.5778235,-2.061648801,19.82123351,-4.4268319169999995,-4.979330409,-0.310385332,0.310079888,1.6525712030000002,46.81534615,0.041984839,0.066375556,0.23989496300000002,0.576078242,0,1,0,0,0,,,,,
28375185,-0.027623283999999998,-0.02088675,0.035813117,0.5757704,0.0,1517.0,1500.0,1575.0,1513.0,1486.0,1489.0,19.86021815,20.29396314,19.82650696,19.85558466,20.289066100000003,19.93876468,20.37407297,240.7684355,240.7684355,12.10316878,-0.0013976420000000002,-0.006402168000000001,0.002614034,-0.16297694699999998,-0.002943728,-0.09690080400000001,3.0,-1.0,0.0,15,0,0,1,0,0.0,0,0,0,0,0,0.543255395,0.20310642,2.050404071,2.324191836,20.69481055,210.90408870000002,57.07134818,-0.021060937999999998,-0.038219361,-0.010949098999999999,0.0,2.034637879,0.081509311,-10.59710922,-2.46e+27,960.7788637,12.10175617,0.126648566,0.108001671,0.210758726,2.035907206,0.08841640699999999,-10.51201863,0.14593145800000001,0.110700351,0.208199288,49.18885401,52.01606228,3.858603753,3.8444408969999997,15.33143591,20.30299473,-0.09943116699999999,-0.19539131899999998,-0.11208556300000001,-33.53847718,446.21723660000004,12.10184998,96078.94741000001,1.141576889,-0.095550975,-0.073091318,0.992844917,0.133072589,0.115412283,0.209767095,0.548018359,0.20357892100000002,2.066865555,0,0.51384666,0.053756622000000004,0.281325596,0.808657363,0.5761580620000001,398713924.8,327391607.1,446152.6923,19.78823474,-1.537957592,19.71529306,-4.470882176,1.648510352,39.8714138,32.7368418,-2.658950384,201.0911278,-46.76585579,-2.273236969,19.80323049,-4.413766915,-4.977590644,-0.383777165,0.37813165600000004,1.6629040330000002,47.00337804,0.026300967,0.071810211,0.243907879,0.576471482,0,1,0,0,0,,,,,
28415922,-0.029187816000000002,-0.019240498999999998,0.036238772999999995,0.5761869000000001,0.0,1518.0,1500.0,1576.0,1514.0,1485.0,1490.0,19.84909941,20.2827808,19.8239469,19.85415494,20.28777665,19.93884731,20.37433059,240.70628419999997,240.70628419999997,12.10199815,-0.001398304,-0.006404255,0.002602294,-0.162942379,-0.002964408,-0.096823622,3.0,-1.0,0.0,15,0,0,1,0,0.0,0,0,0,0,0,0.545679311,0.203444397,2.061975564,2.326697724,20.09655523,210.270592,57.08620832,-0.021134987,-0.03831113,-0.010791296,0.0,2.023109554,0.059931187999999996,-10.61625601,-2.46e+27,960.7586455000001,12.10062686,0.11303592300000001,0.10816014,0.21431702800000002,2.007196315,0.11701867099999999,-10.58945845,0.13465796300000002,0.11037060000000001,0.20755954699999998,49.38223568,52.16474878,3.860838532,3.8342144389999997,15.33155849,20.30374389,-0.0994437,-0.20501640399999999,-0.112899913,-33.29908957,446.3025154,12.10068375,96077.95541000001,1.141564968,-0.565301514,-0.383933993,0.033021100000000005,0.11467887800000001,0.11908266699999999,0.20525874300000002,0.548234618,0.203920225,2.077264698,0,0.509659922,0.05220314,0.28176818,0.811247955,0.5764934110000001,398713918.5,327391701.0,446334.1224,19.79224356,-1.732222444,19.701022199999997,-4.45989998,1.6583909540000001,39.8714138,32.7368418,-2.756657544,201.9043715,-46.94757898,-2.480353933,19.78313052,-4.4000899239999995,-5.00607832,-0.45648729600000004,0.414322585,1.673040651,47.18510114,0.007276222,0.07620857,0.246971117,0.57680684,0,1,0,0,0,,,,,
28464659,-0.030821078,-0.01754043,0.037098282,0.5765899999999999,0.0,1518.0,1500.0,1576.0,1515.0,1484.0,1491.0,19.81506554,20.24788047,19.82138684,19.85272523,20.28648719,19.93892995,20.37458821,240.644133,240.644133,12.10082753,-0.001398966,-0.006406342,0.0025905529999999998,-0.16290781,-0.002985088,-0.09674644,3.0,-1.0,0.0,15,0,0,1,0,0.0,0,0,0,0,0,0.548103228,0.203782374,2.0735470559999998,2.3292036119999997,19.49829991,209.63709519999998,57.10106846,-0.021196775,-0.038388395,-0.010651144,0.0,2.016439824,0.025720282,-10.59952868,-2.46e+27,960.7484742999999,12.09950517,0.098114273,0.11569901699999999,0.217460364,1.966594129,0.103478462,-10.61183688,0.121101975,0.11108086,0.209295063,49.57561735,52.31343528,3.86307331,3.82398798,15.33168106,20.30449305,-0.099456233,-0.214641489,-0.11371426300000001,-33.05970196,446.6466151000001,12.09951844,96073.99636,1.141517973,-0.448006475,-0.366608275,0.409235625,0.096842809,0.123929594,0.210446616,0.543451764,0.204266072,2.083106457,0,0.507441104,0.05002163900000001,0.280054595,0.813367595,0.5768476579999999,398713910.5,327391795.6,446516.5229,19.79625256,-1.932662533,19.684987,-4.441860372,1.668641099,39.8714138,32.7368418,-2.862087568,202.6764468,-47.11978424,-2.680725643,19.75986708,-4.3854896860000006,-5.080167096,-0.528169012,0.402448267,1.682881261,47.35730681,-1.0300000000000001e-05,0.079986431,0.249068958,0.5771173,0,1,0,0,0,,,,,
28501395,-0.033850325,-0.016352724,0.037599315,0.5769638000000001,0.0,1518.0,1500.0,1576.0,1517.0,1482.0,1491.0,19.92412018,20.35980622,19.81882678,19.85129552,20.28519773,19.93901259,20.37484583,240.5819818,240.5819818,12.09965691,-0.001399628,-0.006408429,0.0025788129999999997,-0.162873241,-0.003005768,-0.09666925800000001,3.0,-1.0,0.0,15,0,0,1,0,0.0,0,0,0,0,0,0.549046761,0.20413160800000002,2.084251173,2.331581523,18.93657534,208.9875946,57.11377745,-0.021269692000000003,-0.038468695,-0.010486071999999999,0.0,2.009770094,-0.008490625,-10.58280136,-2.46e+27,960.7383030999999,12.09838348,0.09880569199999999,0.110118848,0.214703366,1.9645743519999999,0.011667539,-10.62401239,0.107545987,0.11179112,0.211030579,49.76899902,52.46212178,3.8653080889999996,3.8137615210000004,15.33180364,20.3052422,-0.099468765,-0.224266574,-0.11452861199999999,-32.82031435,446.66598489999996,12.09835203,96073.76496,1.141515321,-0.19464524800000002,0.58967056,0.051750943,0.083400095,0.123111981,0.21427352300000002,0.544213207,0.204627627,2.094264011,0,0.502910749,0.048498840999999994,0.280722318,0.816041323,0.577111804,398713902.5,327391890.2,446698.9234,19.80026157,-2.133102621,19.66895179,-4.423820763999999,1.6788912440000001,39.8714138,32.7368418,-2.967517593,203.4485221,-47.2919895,-2.881097352,19.73660364,-4.370889447,-5.154255872,-0.5998507279999999,0.390573949,1.692721871,47.52951248,-0.004428049,0.083238212,0.251554911,0.57727087,0,1,0,0,0,,,,,
28538132,-0.035730332999999996,-0.015680579,0.038154242000000005,0.5771173,0.0,1519.0,1500.0,1577.0,1517.0,1482.0,1492.0,19.8456585,20.27962712,19.81626672,19.8498658,20.28390828,19.93909522,20.37510346,240.5198305,240.5198305,12.09848629,-0.0014002910000000001,-0.006410516,0.002567072,-0.16283867300000002,-0.0030264479999999997,-0.096592076,3.0,-1.0,0.0,15,0,0,1,0,0.0,0,0,0,0,0,0.5469521970000001,0.20450394600000002,2.093175228,2.333696795,18.44982058,208.3052503,57.12207174,-0.021332082000000002,-0.038531571,-0.010343616,0.0,1.980150087,0.021033964,-10.5848954,-2.46e+27,960.7082521,12.0972614,0.079046903,0.106119825,0.226726925,1.9936545719999998,-0.004238159,-10.63450957,0.095782325,0.112165112,0.21248914800000002,49.96238069,52.61080828,3.867542867,3.803535063,15.33192622,20.30599136,-0.09948129800000001,-0.23389165899999997,-0.115342962,-32.58092674,446.9028632,12.09717688,96071.03016000001,1.141482788,-0.128742484,0.181167093,-0.34602964700000005,0.074311535,0.129463216,0.216412021,0.546111637,0.204991993,2.106545386,0,0.497878815,0.047092823,0.281873785,0.818806812,0.577379294,398713894.5,327391984.8,446881.3239,19.80427057,-2.333542709,19.65291658,-4.405781156000001,1.68914139,39.8714138,32.7368418,-3.1017213210000003,204.27958069999997,-47.47658276,-3.100445239,19.70579985,-4.353704211,-5.141066432,-0.6640066139999999,0.42032274399999997,1.7035950659999999,47.71410615,-0.012000957,0.087155803,0.253441193,0.57760304,0,1,0,0,0,,,,,
28574869,-0.036241882999999996,-0.01412192,0.038596448,0.5774331,0.0,1519.0,1500.0,1577.0,1517.0,1482.0,1492.0,19.89545163,20.33080599,19.81370666,19.84843609,20.28261882,19.93917786,20.37536108,240.4576793,240.4576793,12.09731566,-0.001400953,-0.006412603,0.002555332,-0.162804104,-0.003047128,-0.096514894,3.0,-1.0,0.0,15,0,0,1,0,0.0,0,0,0,0,0,0.544857633,0.20487628300000002,2.1020992819999997,2.335812067,17.96306583,207.6229059,57.13036604,-0.021401563999999998,-0.038596591,-0.01017405,0.0,1.9493358619999999,0.053875031,-10.58796882,-2.46e+27,960.6771666000001,12.0961393,0.068747722,0.12069069,0.220441255,2.01010901,-0.010895461,-10.56165771,0.08411192699999999,0.112521606,0.213933307,50.17652651,52.77443771,3.87006869,3.802880342,15.33201488,20.29891745,-0.099338044,-0.244177213,-0.116224712,-32.30930556,447.1734322,12.09602152,96067.9459,1.141446085,0.145665147,-0.20019702,0.07669754200000001,0.057891454,0.132547029,0.21565337199999998,0.545806589,0.205360947,2.1168674519999997,0,0.493687095,0.045405006,0.28207014199999997,0.821367581,0.577634462,398713886.4,327392079.4,447063.7243,19.80827957,-2.5339827969999997,19.63688138,-4.387741548,1.699391535,39.8714138,32.7368418,-3.23742229,205.1137085,-47.66182063,-3.320780552,19.67460369,-4.336384464,-5.1233354669999995,-0.727770893,0.45223739799999996,1.7145219919999999,47.89934443,-0.030343078,0.090753576,0.255249892,0.5776874,0,1,0,0,0,,,,,
28611606,-0.035848299,-0.013202706000000002,0.038801117,0.57760304,0.0,1519.0,1500.0,1577.0,1517.0,1482.0,1493.0,19.83576398,20.27015608,19.8111466,19.84700637,20.28132936,19.9392605,20.3756187,240.3955281,240.3955281,12.09614504,-0.001401615,-0.00641469,0.002543592,-0.162769536,-0.003067808,-0.096437712,3.0,-1.0,0.0,15,0,0,1,0,0.0,0,0,0,0,0,0.542763068,0.20524862,2.111023336,2.337927339,17.47631108,206.9405615,57.13866034,-0.021467392999999998,-0.038666782000000004,-0.0100105,0.0,1.9541062059999998,0.030277888,-10.65426202,-2.46e+27,960.6538926000001,12.09489201,0.057991734,0.114955032,0.220078627,1.991595393,0.002016963,-10.57031271,0.07192541,0.111723079,0.217124974,50.39408101,52.94052019,3.8726422910000005,3.8037969360000004,15.33209797,20.29055929,-0.09916921599999999,-0.254571192,-0.117117526,-32.03239284,447.3305887,12.09485851,96066.09939,1.14142421,-0.517955728,-0.568518203,0.026075396,0.053226117,0.13084283300000002,0.213077315,0.5439718060000001,0.205748294,2.125847783,0,0.49007092399999996,0.043524115,0.281601244,0.823793969,0.577785801,398713876.1,327392174.8,447245.2094,19.81343269,-2.743576692,19.61054811,-4.370846135,1.7100610630000002,39.8714138,32.7368418,-3.378472785,205.913674,-47.83904856,-3.533617445,19.64095573,-4.319503318,-5.148182907,-0.794375112,0.461671266,1.7251164280000002,48.07657215,-0.036965418,0.09451794300000001,0.257046103,0.57788295,0,1,0,0,0,,,,,
28652343,-0.039254625,-0.011939777,0.039174844,0.57777774,0.0,1519.0,1500.0,1577.0,1519.0,1480.0,1493.14923,19.91055165,20.34659256,19.80858655,19.84557666,20.28003991,19.93934313,20.37587632,240.33337680000002,240.33337680000002,12.09497442,-0.0014022770000000002,-0.006416776999999999,0.002531851,-0.16273496699999998,-0.003088488,-0.09636053,3.0,-1.0,0.0,15,0,0,1,0,0.0,0,0,0,0,0,0.540668504,0.205620957,2.1199473909999997,2.340042611,16.98955632,206.2582171,57.14695464,-0.021532164,-0.03872568,-0.009839922,0.0,1.994114292,-0.049207385,-10.78315883,-2.46e+27,960.6383539999999,12.09352073,0.051702565,0.11924704900000001,0.21920671,2.066470341,-0.109340392,-10.64559836,0.059227804,0.10978079,0.222047117,50.61163552,53.10660267,3.875215892,3.804713529,15.33218107,20.28220113,-0.09900038800000001,-0.26496517,-0.11801034099999999,-31.75548013,447.5359112,12.09371411,96063.76742,1.141396439,-0.631802793,-0.078028298,0.39922126799999996,0.035758917,0.132974879,0.22006700699999998,0.540570046,0.20613799300000002,2.133503856,0,0.487021052,0.041451628,0.280446333,0.8260997520000001,0.577980997,398713864.1,327392270.8,447426.0064,19.81944589,-2.9600519469999997,19.57647329,-4.354810868,1.721045861,39.8714138,32.7368418,-3.524820666,206.67981,-48.00834462,-3.739029002,19.60487985,-4.303056497,-5.215193757,-0.863791593,0.448843458,1.735381614,48.24586739,-0.043180274000000005,0.09787848800000001,0.25828819199999997,0.57808733,0,1,0,0,0,,,,,
