timestamp,control[0],control[1],control[2],control[3],control[4],output[2],output[3],output[4],output[5],output[6],output[7],indicated_airspeed_m_s,true_airspeed_m_s,air_temperature_celsius,indicated_airspeed_m_s.1,equivalent_airspeed_m_s,true_airspeed_m_s.1,equivalent_ground_minus_wind_m_s,true_ground_minus_wind_m_s,differential_pressure_raw_pa,differential_pressure_filtered_pa,temperature,gyro_bias[0],gyro_bias[1],gyro_bias[2],accel_bias[0],accel_bias[1],accel_bias[2],instance_count,seq_reached,seq_current,seq_total,item_changed_index,item_do_jump_remaining,valid,warning,finished,failure,stay_in_failsafe,flight_termination,item_do_jump_changed,execution_mode,nav_roll,nav_pitch,nav_bearing,target_bearing,xtrack_error,wp_dist,acceptance_radius,rollspeed_integ,pitchspeed_integ,yawspeed_integ,additional_integ1,x,y,z,temperature.1,pressure,temperature.2,gyro_rad[0],gyro_rad[1],gyro_rad[2],accelerometer_m_s2[0],accelerometer_m_s2[1],accelerometer_m_s2[2],x.1,y.1,z.1,temperature.3,altitude_sp,altitude_filtered,height_rate_setpoint,height_rate,airspeed_sp,airspeed_filtered,airspeed_derivative_sp,airspeed_derivative,throttle_integ,pitch_integ,baro_alt_meter,baro_temp_celcius,baro_pressure_pa,rho,xyz[0],xyz[1],xyz[2],xyz[0].1,xyz[1].1,xyz[2].1,roll_body,pitch_body,yaw_body,q_d[0],q_d[1],q_d[2],q_d[3],thrust_body[0],lat,lon,alt,vel_m_s,vel_n_m_s,vel_e_m_s,vel_d_m_s,cog_rad,ground_contact,maybe_landed,landed,ref_timestamp,ref_lat,ref_lon,x.2,y.2,z.2,vx,vy,vz,ax,ay,az,dist_bottom,roll,pitch,yaw,thrust_body[0].1,timestamp.1,isTakeoff,isClimbing,isDescending,isCruise,isLand
23119311,-0.000505265,-0.076261309,-0.016821869,0.13602376,0.0,1488.0,1500.0,1350.0,1519.0,1480.0,1468.0,16.4505262,16.81775136,12.039764,17.07457791,17.10029848,17.48203733,16.95947275,17.33806731,177.4322448,177.4322448,12.03997334,-0.001609351,-0.006756495,0.0030729940000000003,-0.142284158,0.002236461,-0.105741222,2.0,-1.0,0.0,11,0,0,1,0,0.0,0,0,0,0,0,-0.858465438,0.243916015,0.326781917,0.091156814,-18.71061902,176.8791468,56.00043787,-0.020450016,-0.040079821,-0.01108815,0.0,2.6862907000000003,0.199204771,-8.034313931,-1.3900000000000002e-25,959.6971947000001,12.03983906,-0.06367017700000001,-0.100299124,-0.021398885,2.04708,0.28422922100000003,-7.649068517999999,-0.133314063,-0.067413876,-0.021240359,-1.3900000000000002e-25,56.41092761,57.34639378,3.947368187,2.34763438,15.33548071,20.43548249,-0.102000036,1.199598126,-0.18029224100000002,-18.98692867,455.71999960000005,12.039764,95969.6404,1.14027813,-0.031298477000000005,-0.173378754,-0.31305300199999997,0.003357042,-0.129924055,-0.038377881,-0.43976669399999996,0.057189193,0.7707359,0.9015855490000001,-0.212512946,-0.056102075,0.37248205799999995,0.518620657,398713738.0,327393684.1,456227.6095,16.80478096,0.742940588,16.80411882,-0.37794558100000003,1.526147928,0,0,0.0,787999,39.8714138,32.7364368,-4.323709432,253.2138839,-56.23324914,0.739963849,16.76162493,0.133224503,0.532283651,2.240102563,2.17945858,56.38211099,-0.360708759,0.081387118,-0.046241950999999996,0.4843436,23119311,0,1,0,0,0
23158385,-0.020479156999999998,-0.074062093,-0.023185061,0.31957322,0.0,1488.0,1500.0,1404.0,1535.0,1464.0,1479.0,16.56145622,16.93107813,12.03980376,17.16132135,17.18732373,17.57099681,17.04833432,17.42890418,179.4961259,179.4961259,12.03994979,-0.001606797,-0.006752752,0.00306333,-0.142215172,0.002062206,-0.10576697800000001,2.0,-1.0,0.0,11,0,0,1,0,0.0,0,0,0,0,0,-0.856086618,0.24490251,0.31364649699999997,0.08732513300000001,-18.00755751,176.4822205,56.00535259,-0.020591322,-0.039878883999999996,-0.011151326000000001,0.0,3.173194837,0.210264431,-8.512035569,-1.3900000000000002e-25,959.7012099,12.0399101,-0.122498218,-0.070872633,-0.023956584,2.743682634,0.251884111,-7.971528227,-0.198000585,-0.030908964,-0.026389175,-1.3900000000000002e-25,56.59338473,57.43700854,3.952613373,2.398101947,15.33554853,20.43459389,-0.101980907,1.144338158,-0.180942446,-18.67736989,455.74910930000004,12.03980376,95969.31089,1.140274199,0.089937885,-0.648401338,-0.5581404729999999,0.004515009,-0.119696371,-0.037377844,-0.500474407,0.073430261,0.7707359,0.893742582,-0.24267631899999997,-0.06006899,0.37237241600000004,0.53408396,398713740.7,327393762.3,456247.5215,16.76495699,0.758111622,16.77377676,-0.264162832,1.525188075,0,0,0.0,787999,39.8714138,32.7364368,-4.293995286,253.84339989999998,-56.22539419,0.762731753,16.86887249,0.20729743899999997,0.580501366,2.8006444760000004,1.9118278519999998,56.37425566,-0.453516009,0.12423047699999999,-0.047449661,0.51218086,23158385,0,1,0,0,0
23205459,-0.05626214400000001,-0.052905481,-0.022563127000000002,0.37902695,0.0,1489.0,1500.0,1449.0,1550.0,1449.0,1488.0,16.68791301,17.06032308,12.03987206,17.24806479,17.27434897,17.6599563,17.1371959,17.51974104,181.5600071,181.5600071,12.03992624,-0.001604243,-0.006749009,0.003053665,-0.142146186,0.0018879510000000001,-0.105792734,2.0,-1.0,0.0,11,0,0,1,0,0.0,0,0,0,0,0,-0.853707797,0.24588900600000002,0.300511077,0.083493452,-17.304496,176.0852941,56.01026731,-0.020726066,-0.039707289,-0.011207256,0.0,3.660098974,0.221324092,-8.989757207,-1.3900000000000002e-25,959.7052251,12.03998114,-0.193042147,-0.026183027999999997,-0.02336302,3.3020644630000002,0.406162381,-8.347568517000001,-0.262687106,0.0055959469999999996,-0.03153799,-1.3900000000000002e-25,56.77584185,57.52762329,3.95785856,2.448569514,15.33561635,20.43370529,-0.101961779,1.08907819,-0.18159265100000002,-18.36781112,455.7880381,12.03987206,95968.87391000001,1.140269021,0.015242186999999999,-0.182624956,0.103651041,0.007648058,-0.120532531,-0.034109598,-0.561182139,0.08958290099999999,0.7707359,0.884836338,-0.27252044,-0.064122878,0.372329476,0.546387145,398713743.3,327393838.7,456248.0076,16.79984797,0.774942982,16.79988581,-0.160342068,1.5242862019999999,0,0,0.0,787999,39.8714138,32.7364368,-4.26428114,254.47291600000003,-56.21753924,0.785499657,16.97612006,0.281370375,0.6287190810000001,3.3611863889999998,1.644197123,56.36640032,-0.49363102200000003,0.143461704,-0.048730264,0.5229404000000001,23205459,0,1,0,0,0
23245067,-0.072855629,-0.040205071,-0.022345737,0.407955285,0.0,1489.0,1500.0,1467.0,1553.670934,1445.329066,1493.0,16.81904837,17.19442951,12.03994368,17.33480824,17.36137421,17.74891579,17.22605748,17.6105779,183.6238882,183.6238882,12.03990269,-0.001601688,-0.006745266,0.0030440009999999997,-0.14207720000000001,0.001713696,-0.10581849,2.0,-1.0,0.0,11,0,0,1,0,0.0,0,0,0,0,0,-0.8513289759999999,0.24687550100000002,0.287375657,0.07966177099999999,-16.60143449,175.6883677,56.01518203,-0.02086726,-0.039543462,-0.011247315,0.0,3.934922928,0.276213363,-9.495938162,2.825208395,959.7048289999999,12.04006625,-0.265969605,0.016000641,-0.025581447,3.704987762,0.37428445,-8.997376981,-0.32578291,0.043054157,-0.038711538,2.825208395,56.95829897,57.61823805,3.9631037460000003,2.49903708,15.33568417,20.43281669,-0.10194265,1.033818223,-0.182242856,-18.05825234,455.71605710000006,12.03994368,95969.68857,1.140278685,0.02528122,-0.064480695,0.522406168,-0.014630403,-0.11652635,-0.038111017999999997,-0.621889832,0.10561357699999999,0.7707359,0.8748732659999999,-0.301995802,-0.068286691,0.372342715,0.554756269,398713746.0,327393915.0,456245.7319,16.84536107,0.792010388,16.83402045,-0.057937588,1.523392571,0,0,0.0,787999,39.8714138,32.7364368,-4.230080282,255.15512379999998,-56.20439658,0.82109985,17.1251038,0.322821173,0.7811446879999999,3.6878109739999996,1.10782312,56.35325727,-0.580364189,0.179798299,-0.050864334000000004,0.54057145,23245067,0,1,0,0,0
23287608,-0.098112796,-0.022611282000000003,-0.021656225,0.449193,0.0,1489.0,1500.0,1499.0,1566.519104,1432.480896,1501.0,16.94657984,17.32469685,12.04003866,17.42155168,17.44839945,17.83787527,17.31491906,17.70141477,185.6877694,185.6877694,12.03987914,-0.0015991339999999999,-0.006741523,0.0030343370000000002,-0.142008215,0.00153944,-0.105844246,2.0,-1.0,0.0,11,0,0,1,0,0.0,0,0,0,0,0,-0.848950155,0.247861996,0.274240237,0.07583009,-15.89837299,175.2914414,56.02009674,-0.021008376000000002,-0.039394412000000004,-0.011265086,0.0,4.072880131000001,0.35938824,-10.02048545,7.473675747000001,959.7015858999999,12.04016046,-0.33376625,0.054863222,-0.034212345,3.985712429,0.412649902,-9.551271405,-0.387852139,0.08112758,-0.047191752999999996,7.473675747000001,57.1407561,57.70885281,3.968348932,2.549504647,15.33575199,20.43192809,-0.10192352199999999,0.978558255,-0.18289306100000002,-17.74869357,455.69375279999997,12.04003866,95969.94569,1.140281695,0.33851349,-0.49595240700000004,-0.04710033,-0.04131964,-0.10103389199999999,-0.032830124,-0.6825975240000001,0.121521621,0.7707359,0.863952249,-0.33109750600000004,-0.072561947,0.37239947799999995,0.56103174,398713748.6,327393991.2,456243.4563,16.89087417,0.809077794,16.86815509,0.044466893,1.52249894,0,0,0.0,787999,39.8714138,32.7364368,-4.194754841,255.85053880000004,-56.18992857,0.859916426,17.28454862,0.35609530799999994,0.9596897609999999,3.955804726,0.504089241,56.33878887,-0.662729341,0.21295850100000002,-0.05179052,0.55287564,23287608,0,1,0,0,0
23326682,-0.123203887,-0.005622439,-0.021254307000000004,0.4843436,0.0,1489.0,1500.0,1512.0,1566.0,1433.0,1504.0,17.12634767,17.50857807,12.04013697,17.50829512,17.53542469,17.92683476,17.40378064,17.79225163,187.75165049999998,187.75165049999998,12.03985559,-0.00159658,-0.00673778,0.003024672,-0.141939229,0.001365185,-0.10587000199999999,2.0,-1.0,0.0,11,0,0,1,0,0.0,0,0,0,0,0,-0.846571335,0.248848491,0.261104818,0.071998409,-15.19531148,174.89451499999998,56.02501146,-0.021150565,-0.039259844,-0.011249167,0.0,4.20806129,0.44023100299999995,-10.54616175,11.958362900000001,959.6984673000001,12.04025445,-0.39890203,0.09517054400000001,-0.048876089000000005,4.204193425,0.43519177700000006,-10.13976488,-0.44997829799999994,0.11901371300000001,-0.055776885,11.958362900000001,57.32321322,57.79946757,3.973594119,2.599972214,15.33581981,20.43103948,-0.10190439300000001,0.923298288,-0.183543266,-17.43913479,455.782105,12.04013697,95968.93347,1.14026964,-1.0311167209999998,0.296481753,-0.204853413,-0.09844043,-0.06893547,-0.027475476000000002,-0.7433052170000001,0.137284378,0.7707359,0.8519558070000001,-0.359732096,-0.07697315,0.372495688,0.56500896,398713751.3,327394067.4,456241.1806,16.93638728,0.8261451999999999,16.90228972,0.146871374,1.5216053090000001,0,0,0.0,787999,39.8714138,32.7364368,-4.158984085,256.5379929,-56.17557462,0.902500869,17.44378746,0.37695412899999997,1.162249512,4.171379418,-0.08227211799999999,56.324434700000005,-0.689642841,0.225602568,-0.056891627,0.55725443,23326682,0,1,0,0,0
23367513,-0.13533499400000001,0.005512439,-0.021624311,0.504841588,0.0,1489.0,1500.0,1532.0,1576.0,1423.0,1510.0,17.27004658,17.65543895,12.04023527,17.59503857,17.62244993,18.01579425,17.49264222,17.8830885,189.81553169999998,189.81553169999998,12.03983203,-0.001594025,-0.006734036999999999,0.003015008,-0.141870243,0.00119093,-0.105895758,2.0,-1.0,0.0,11,0,0,1,0,0.0,0,0,0,0,0,-0.8441925140000001,0.249834986,0.247969398,0.068166728,-14.49224997,174.4975886,56.02992618,-0.021285553999999998,-0.039129713999999996,-0.011201521,0.0,4.188437178,0.391024142,-11.13479746,7.30989555,959.7022895,12.04033668,-0.46568029,0.12503633,-0.056066505,4.231503527,0.345938001,-10.75638734,-0.515279186,0.146455657,-0.070212685,7.30989555,57.5236247,57.90807931,3.9785340469999997,2.650962816,15.33591125,20.41593806,-0.101600535,0.876159968,-0.184222987,-17.08769983,455.6998178,12.04023527,95969.88068999999,1.140280936,-1.1893413240000001,-0.391611545,0.310478582,-0.167242287,-0.029513091,-0.033820266,-0.771973965,0.152897898,0.7707359,0.845165594,-0.37444029799999995,-0.075536924,0.37387080799999994,0.567047131,398713753.9,327394143.7,456238.905,16.98190038,0.8432126059999999,16.93642436,0.249275855,1.520711678,0,0,0.0,787999,39.8714138,32.7364368,-4.121545862,257.1956376,-56.16164778,0.9591939829999999,17.602255,0.351324154,1.454731542,4.190672421,-0.603582566,56.31050824,-0.7666562440000001,0.256360988,-0.059244209000000006,0.563932,23367513,0,1,0,0,0
23404831,-0.146185754,0.01574353,-0.020778081,0.5229404000000001,0.0,1489.0,1500.0,1546.554711,1585.427485,1413.572515,1516.745549,17.4725423,17.86242512,12.04033357,17.68178201,17.70947517,18.10475374,17.58150379,17.97392536,191.8794128,191.8794128,12.03980848,-0.0015914710000000001,-0.006730295,0.0030053429999999997,-0.14180125699999999,0.001016674,-0.10592151400000001,2.0,-1.0,0.0,11,0,0,1,0,0.0,0,0,0,0,0,-0.841813693,0.250821481,0.234833978,0.064335047,-13.78918846,174.1006623,56.0348409,-0.021426641,-0.038997306,-0.011108933,0.0,4.168813067,0.34181728,-11.72343318,2.661428199,959.7061117000001,12.04041892,-0.533366294,0.151998201,-0.06469317200000001,4.264085786,0.398810017,-11.29686651,-0.580580074,0.173897601,-0.08464848400000001,2.661428199,57.72900075,58.02166741,3.983389569,2.702098042,15.33600922,20.39690664,-0.101217946,0.831267365,-0.18491086899999998,-16.72468569,455.627317,12.04033357,95970.70675,1.14029077,-1.626216871,0.563641149,-0.636384455,-0.236240074,0.015477761999999999,-0.032598236,-0.773208925,0.168365541,0.7707359,0.8433099409999999,-0.37742961700000005,-0.069063545,0.376301634,0.5682162270000001,398713756.9,327394220.6,456230.0044,17.09366273,0.871702305,17.04708853,0.295711142,1.519379443,0,0,0.0,787999,39.8714138,32.7364368,-4.084107638,257.8532824,-56.14772094,1.015887096,17.76072254,0.325694179,1.747213572,4.209965425,-1.1248930129999999,56.29658179,-0.804003644,0.284509371,-0.060282006,0.5668221,23404831,0,1,0,0,0
23447905,-0.162638132,0.028494072999999998,-0.021216959,0.54057145,0.0,1489.0,1500.0,1552.0,1582.9117820000001,1416.0882179999999,1518.0,17.55069491,17.94218203,12.04043188,17.76852545,17.79650041,18.19371322,17.67036537,18.06476223,193.94329399999998,193.94329399999998,12.03978493,-0.001588917,-0.006726551999999999,0.0029956790000000002,-0.141732271,0.000842419,-0.10594727,2.0,-1.0,0.0,11,0,0,1,0,0.0,0,0,0,0,0,-0.839434872,0.251807976,0.22169855800000002,0.060503365999999996,-13.08612695,173.70373590000003,56.03975562,-0.021528236,-0.038889497,-0.010988877,0.0,4.10125799,0.343083295,-12.24469904,-1.3900000000000002e-25,959.7075474,12.04048118,-0.588595195,0.17314327100000002,-0.08426498800000001,4.1359319260000005,0.429247361,-11.84153239,-0.632745355,0.196371955,-0.09871143800000001,-1.3900000000000002e-25,57.934376799999995,58.13525550000001,3.988245091,2.7532332680000002,15.336107199999999,20.37787523,-0.10083535800000001,0.786374762,-0.18559875,-16.36167154,455.71832,12.04043188,95969.68927999999,1.140278657,-1.4415662219999998,0.8922954670000001,-0.031534675,-0.31492580800000003,0.064719848,-0.040357882000000005,-0.778950675,0.18088222,0.7612917109999999,0.842636139,-0.382123308,-0.062911366,0.374132791,0.5681115489999999,398713760.2,327394298.0,456216.7297,17.24916583,0.9077335190000001,17.20828096,0.305193039,1.517757622,0,0,0.0,787999,39.8714138,32.7364368,-4.0399478989999995,258.5548949,-56.13645869,1.096743029,17.9189789,0.264051992,2.08049777,4.073549728,-1.6405054190000001,56.28531969,-0.7678247640000001,0.29532184,-0.06610585299999999,0.5676861,23447905,0,1,0,0,0
23486979,-0.159217697,0.031111095,-0.02057094,0.547671,0.0,1489.0,1500.0,1560.0,1590.7599519999999,1408.2400480000001,1523.7599519999999,17.71926868,18.11463831,12.04048286,17.85526889,17.88352565,18.28267271,17.75922695,18.15559909,196.00717509999998,196.00717509999998,12.03976138,-0.001586362,-0.006722809000000001,0.0029860140000000004,-0.141663285,0.000668164,-0.105973026,2.0,-1.0,0.0,11,0,0,1,0,0.0,0,0,0,0,0,-0.837056052,0.252794471,0.208563138,0.056671686,-12.38306545,173.30680949999999,56.04467034,-0.021593276,-0.0387515,-0.010797388,0.0,3.9695044680000002,0.411952374,-12.67573012,-1.3900000000000002e-25,959.7057868999999,12.0405167,-0.660178214,0.19326162800000002,-0.104823178,4.059473357,0.385298391,-12.46498719,-0.6673168820000001,0.212192751,-0.112275007,-1.3900000000000002e-25,58.13975285,58.2488436,3.993100613,2.8043684939999998,15.33620517,20.35884382,-0.100452769,0.741482159,-0.18628663199999998,-15.998657399999999,455.6818731000001,12.04048286,95970.0979,1.140283497,-1.4705416530000002,1.611892523,0.332339953,-0.384929464,0.10088539199999999,-0.054467157,-0.794597349,0.186583033,0.7323256909999999,0.84433021,-0.39046186899999996,-0.05772450900000001,0.36236789399999997,0.566057933,398713763.4,327394375.3,456203.4551,17.40466893,0.943764733,17.36947339,0.314674935,1.5161358,0,0,0.0,787999,39.8714138,32.7364368,-3.991702642,259.2832323,-56.12681605,1.192285773,18.0771069,0.180520617,2.4385826180000003,3.8424901080000002,-2.152654401,56.27567705,-0.73217455,0.323225891,-0.062837503,0.56869495,23486979,0,1,0,0,0
23522053,-0.177888405,0.043108112999999997,-0.020424288999999998,0.55725443,0.0,1489.391878,1500.0,1563.783757,1591.135027,1407.864973,1525.567514,17.89519238,18.29455931,12.040527,17.94201234,17.97055089,18.371632199999997,17.84808853,18.24643596,198.0710563,198.0710563,12.03973783,-0.001583808,-0.006719066,0.00297635,-0.1415943,0.0004939090000000001,-0.10599878199999999,2.0,-1.0,0.0,11,0,0,1,0,0.0,0,0,0,0,0,-0.8346772309999999,0.253780966,0.19542771899999997,0.052840005,-11.68000394,172.9098832,56.04958506,-0.021618996,-0.038612464,-0.010554093999999998,0.0,3.837750947,0.48082145299999995,-13.1067612,-1.3900000000000002e-25,959.7040264000001,12.04055222,-0.692985748,0.20157576600000002,-0.119401033,4.0136657819999995,0.438647024,-12.80437163,-0.70188841,0.22801354699999998,-0.125838575,-1.3900000000000002e-25,58.3451289,58.36243169,3.997956134,2.8555037210000003,15.33630314,20.3398124,-0.10007018,0.696589557,-0.18697451399999998,-15.63564325,455.7033801,12.040527,95969.85579,1.140280655,-1.792461818,0.7764582320000001,-0.45858403600000003,-0.446458316,0.13060482199999998,-0.056721664000000005,-0.8038182970000001,0.19163094100000003,0.7132293740000001,0.845389305,-0.395618185,-0.053425331,0.354881902,0.5639512289999999,398713766.6,327394452.7,456190.1804,17.56017203,0.9797959470000001,17.53066582,0.32415683100000003,1.514513979,0,0,0.0,787999,39.8714138,32.7364368,-3.9432293439999997,260.0101841,-56.117516200000004,1.288806991,18.23398606,0.09603549,2.7981067189999997,3.608460273,-2.6567444190000002,56.2663772,-0.702544285,0.32270075800000003,-0.071055294,0.5674823,23522053,0,1,0,0,0
23565127,-0.190974303,0.053653162000000004,-0.020942263,0.563932,0.0,1489.0,1500.0,1566.0,1589.456291,1409.543709,1529.456291,18.08913073,18.49269049,12.04055078,18.02875578,18.05757613,18.46059169,17.93695011,18.33727282,200.1349375,200.1349375,12.03971428,-0.001581254,-0.0067153230000000005,0.0029666859999999996,-0.141525314,0.000319653,-0.106024538,2.0,-1.0,0.0,11,0,0,1,0,0.0,0,0,0,0,0,-0.8302236690000001,0.25465565,0.183804597,0.049341578,-11.04822388,172.4521885,56.05014249,-0.021628931,-0.038476574,-0.010277489,0.0,3.67088012,0.49759618200000005,-13.37443728,-1.3900000000000002e-25,959.7069759,12.04050854,-0.7055825290000001,0.224433162,-0.12905685,3.8568780680000003,0.453293455,-13.17155603,-0.694271854,0.232896114,-0.136761792,-1.3900000000000002e-25,58.53850591,58.47412583,4.002229969,2.8992168210000004,15.33638132,20.317187,-0.09961610800000001,0.662583126,-0.187598243,-15.29087978,455.63807589999993,12.04055078,95970.59057,1.140289364,-1.789839035,1.055974404,0.095807645,-0.527964794,0.162394191,-0.0702335,-0.815655703,0.19629234899999998,0.6872530790000001,0.8470624170000001,-0.40193560799999994,-0.048282578,0.344376578,0.560784473,398713769.8,327394530.1,456176.9058,17.71567514,1.01582716,17.69185824,0.333638728,1.5128921569999998,0,0,0.0,787999,39.8714138,32.7364368,-3.88810364,260.69671850000003,-56.11821613,1.4138721719999998,18.35443387,-0.01627237,3.1996165089999997,3.2877837110000003,-2.925739324,56.26707713,-0.6830889290000001,0.328170029,-0.078625716,0.56485766,23565127,0,1,0,0,0
23604202,-0.18384428600000002,0.054883039,-0.020425917,0.56558853,0.0,1490.0,1500.0,1568.0,1580.304461,1418.695539,1535.0,18.23870017,18.64558051,12.040527,18.11549922,18.14460137,18.54955117,18.02581168,18.42810969,202.1988186,202.1988186,12.03969073,-0.001578699,-0.00671158,0.0029570209999999998,-0.14145632800000002,0.000145398,-0.106050294,2.0,-1.0,0.0,11,0,0,1,0,0.0,0,0,0,0,0,-0.823572665,0.255411911,0.173783212,0.046196113,-10.49194083,171.93013169999998,56.04608495,-0.021631435,-0.038345908,-0.009983846999999999,0.0,3.4971857560000004,0.504248616,-13.61037235,-1.3900000000000002e-25,959.7108404999999,12.04044947,-0.692706492,0.226636274,-0.137727944,3.764215578,0.554981906,-13.40820593,-0.6784578609999999,0.235653308,-0.14717197,-1.3900000000000002e-25,58.72110533,58.5841188,4.00598133,2.936263341,15.33644172,20.29133345,-0.09909783,0.6383546929999999,-0.18816434899999998,-14.96250913,455.55928099999994,12.040527,95971.49874,1.1403002009999998,-1.88318409,1.111326463,-0.29534426399999997,-0.5921615729999999,0.191847422,-0.093671579,-0.8256529490000001,0.200525023,0.663156101,0.8486709440000001,-0.40728692,-0.043255008,0.33466076699999997,0.5576396779999999,398713773.4,327394609.3,456165.3163,17.87055411,1.070582116,17.84743349,0.315659132,1.510344441,0,0,0.0,787999,39.8714138,32.7364368,-3.832977935,261.38325299999997,-56.11891607,1.5389373519999998,18.47488169,-0.12858023,3.6011262989999997,2.967107149,-3.19473423,56.26777707,-0.666050312,0.33202288,-0.081297172,0.56179458,23604202,0,1,0,0,0
23643276,-0.170203931,0.065816158,-0.020269175,0.5676861,0.0,1490.0,1500.0,1567.1526310000002,1570.8473689999998,1428.1526310000002,1535.8473689999998,18.37298804,18.78292682,12.040497300000002,18.20224266,18.23162661,18.63851066,18.11467326,18.51894655,204.2626998,204.2626998,12.03966718,-0.001576145,-0.0067078369999999995,0.0029473570000000003,-0.141387342,-2.8899999999999998e-05,-0.10607605,2.0,-1.0,0.0,11,0,0,1,0,0.0,0,0,0,0,0,-0.816921661,0.25616817199999997,0.163761826,0.043050648,-9.935657788,171.4080749,56.042027399999995,-0.021627736,-0.038220948,-0.00966839,0.0,3.3315696110000004,0.5072681370000001,-13.79352554,-1.3900000000000002e-25,959.713917,12.04037008,-0.6874940279999999,0.236403652,-0.153267988,3.4827034919999997,0.46212409600000004,-13.69877645,-0.662007661,0.23759217600000002,-0.158583773,-1.3900000000000002e-25,58.90370475,58.69411178,4.009732691,2.973309861,15.33650212,20.26547991,-0.09857955300000001,0.614126261,-0.18873045600000002,-14.63413847,455.65092699999997,12.040497300000002,95970.4394,1.140287494,-1.735863201,0.7076688940000001,-0.337587993,-0.665259495,0.21132963600000002,-0.107439446,-0.8313631690000001,0.20434594600000003,0.646406765,0.849865613,-0.410541883,-0.039104532000000004,0.328098361,0.554694117,398713777.8,327394692.1,456157.1618,18.02416083,1.163504701,17.99155831,0.241700341,1.5059093209999999,0,0,0.0,787999,39.8714138,32.7364368,-3.76895445,262.0999418,-56.12549087,1.6869291880000001,18.58352827,-0.252081638,3.9895700310000004,2.62989683,-3.3673384389999996,56.27435187,-0.631982898,0.334550853,-0.090685504,0.5586788979999999,23643276,0,1,0,0,0
23680700,-0.154850751,0.073442206,-0.020286643,0.568529936,0.0,1490.0,1500.0,1566.0,1569.0008,1429.9992,1536.0,18.49515459,18.90778276,12.04042931,18.28898611,18.31865185,18.72747015,18.20353484,18.60978342,206.3265809,206.3265809,12.03964363,-0.001573591,-0.006704094,0.002937692,-0.141318356,-0.000203113,-0.10610180599999999,2.0,-1.0,0.0,11,0,0,1,0,0.0,0,0,0,0,0,-0.810270657,0.256924432,0.15374044,0.039905183,-9.379374743,170.88601809999997,56.03796985,-0.021622525,-0.038083853,-0.00935176,0.0,3.1905606989999997,0.49922136200000006,-13.81589871,-1.3900000000000002e-25,959.7145926000001,12.04022877,-0.6593837810000001,0.23080875899999997,-0.157367497,3.35026423,0.5199318070000001,-13.86481494,-0.643619498,0.237038325,-0.17304664600000003,-1.3900000000000002e-25,59.08630417,58.80410475,4.013484053,3.01035638,15.33656252,20.23962637,-0.098061275,0.589897828,-0.189296563,-14.30576782,455.5860469,12.04042931,95971.20963,1.140296708,-2.120632948,0.75752958,-0.915934041,-0.693895563,0.224021479,-0.127771411,-0.839417368,0.207889297,0.623567244,0.851517843,-0.414819913,-0.034142285,0.318862947,0.551694893,398713782.2,327394775.0,456149.0074,18.17776755,1.256427285,18.13568314,0.16774155,1.5014742019999998,0,0,0.0,787999,39.8714138,32.7364368,-3.693803553,262.85434130000004,-56.13941269,1.863592704,18.67741643,-0.38958150399999997,4.3616735769999995,2.2720096780000003,-3.419398106,56.28827369,-0.606462663,0.33798324799999996,-0.095707708,0.55577826,23680700,0,1,0,0,0
23721424,-0.140759975,0.071594216,-0.019010913,0.5674823,0.0,1489.15103,1500.0,1563.0,1565.84897,1433.15103,1536.69794,18.59034488,19.00506816,12.040301,18.37572955,18.40567709,18.81642963,18.29239642,18.70062028,208.3904621,208.3904621,12.03962008,-0.001571036,-0.006700350999999999,0.002928028,-0.14124937,-0.00037736800000000005,-0.106127562,2.0,-1.0,0.0,11,0,0,1,0,0.0,0,0,0,0,0,-0.803619654,0.257680693,0.143719055,0.036759718999999996,-8.823091698999999,170.3639612,56.033912300000004,-0.021614127,-0.037943565,-0.009017411999999999,0.0,3.049551787,0.491174586,-13.83827189,-1.3900000000000002e-25,959.7152683,12.04008747,-0.640696587,0.236744526,-0.167494285,3.177157075,0.568114669,-13.94692238,-0.625231335,0.23648447399999997,-0.18750952,-1.3900000000000002e-25,59.26890359,58.91409773,4.017235414,3.0474029,15.33662292,20.21377283,-0.09754299699999999,0.565669396,-0.18986266899999998,-13.97739716,455.7343063,12.040301,95969.50022,1.140276325,-1.5468853319999998,0.267541055,0.28161735600000004,-0.70426084,0.239701728,-0.134148202,-0.8454851440000001,0.211094712,0.603533126,0.853060961,-0.41809648899999996,-0.02951521,0.310804111,0.549367211,398713786.5,327394857.9,456140.85299999994,18.33137427,1.34934987,18.27980796,0.09378275800000001,1.4970390830000002,0,0,0.0,787999,39.8714138,32.7364368,-3.618652656,263.6087408,-56.15333451,2.040256221,18.77130459,-0.52708137,4.733777122,1.9141225259999999,-3.471457773,56.30219551,-0.582232214,0.34211835,-0.10187960800000001,0.552893094,23721424,0,1,0,0,0
23756997,-0.13839195,0.073904401,-0.019882109,0.56485766,0.0,1489.0,1500.0,1561.0,1563.0,1436.0,1536.0,18.63189397,19.04773512,12.04017714,18.46247299,18.49270233,18.90538912,18.381258,18.79145715,210.4543432,210.4543432,12.03959653,-0.0015684820000000002,-0.006696608000000001,0.0029183629999999998,-0.141180385,-0.000551623,-0.10615331800000001,2.0,-1.0,0.0,11,0,0,1,0,0.0,0,0,0,0,0,-0.79696865,0.258436953,0.133697669,0.033614253999999996,-8.266808655,169.8419044,56.02985476,-0.021600467,-0.037792873,-0.008665596999999999,0.0,2.870310279,0.505731261,-13.86315874,-1.3900000000000002e-25,959.7094124,12.03989975,-0.622144821,0.229709689,-0.175282295,3.0599193889999996,0.490868064,-13.971917999999999,-0.60448559,0.237770707,-0.196065507,-1.3900000000000002e-25,59.45150691,59.02612953,4.020858851,3.0862914089999998,15.33670294,20.189306600000002,-0.097052074,0.545078064,-0.19041794899999998,-13.64800169,455.65458370000005,12.04017714,95970.41895,1.1402873759999999,-0.8771011679999999,0.51789373,-0.825855659,-0.688752589,0.240852371,-0.149762384,-0.849098455,0.214108826,0.587829935,0.854403455,-0.420194235,-0.025457918,0.30459703899999996,0.5469296570000001,398713790.9,327394940.8,456132.6985,18.484981,1.442272454,18.42393279,0.019823966999999998,1.492603964,0,0,0.0,787999,39.8714138,32.7364368,-3.5336456089999997,264.31951549999997,-56.17673839,2.231523331,18.83250603,-0.650678861,5.052572356000001,1.571132356,-3.339144657,56.32559972,-0.55078272,0.34687058200000004,-0.109850356,0.55034494,23756997,0,1,0,0,0
23795573,-0.128141001,0.07101497799999999,-0.019813274,0.56356597,0.0,1489.0,1500.0,1557.0,1561.0,1438.0,1537.0,18.76406157,19.18263985,12.0399858,18.54921644,18.57972757,18.99434861,18.47011957,18.88229401,212.5182244,212.5182244,12.03957298,-0.0015659279999999999,-0.006692865,0.0029086990000000003,-0.141111399,-0.0007258789999999999,-0.106179074,2.0,-0.99879976,0.00120024,11,0,0,1,0,0.0,0,0,0,0,0,-0.790317646,0.259193214,0.12367628300000001,0.030468789,-7.71052561,169.3198476,56.02579721,-0.021583347000000003,-0.03764586,-0.008333184,0.0,2.671108218,0.5320887910000001,-13.88935794,-1.3900000000000002e-25,959.7001465,12.03968779,-0.60351463,0.227671289,-0.183767955,2.948100844,0.48112552700000005,-13.92994591,-0.582508994,0.240017614,-0.20153761399999998,-1.3900000000000002e-25,59.63412079,59.14366697,4.024136842,3.130154006,15.33683591,20.16858663,-0.09663501699999999,0.534308317,-0.19094399399999998,-13.31583883,455.5870998,12.0399858,95971.16034,1.140296147,-0.13299561099999999,0.318731224,-0.463952869,-0.682649979,0.253505424,-0.158508123,-0.854411035,0.21688531600000002,0.567368365,0.856065537,-0.423002239,-0.020720598,0.296293755,0.545028986,398713795.4,327395023.9,456126.0072,18.63593718,1.539965993,18.56487698,-0.057951587,1.4879171869999999,0,0,0.0,787999,39.8714138,32.7364368,-3.4469739930000003,265.0229225,-56.20174366,2.425256787,18.88818712,-0.771928433,5.362364552,1.2306580809999998,-3.175693522,56.35060538,-0.523190202,0.351956886,-0.11439147599999999,0.547419,23795573,0,1,0,0,0
23833294,-0.124983789,0.073581379,-0.020883119,0.5593828000000001,0.0,1489.0,1500.0,1555.0,1557.3934789999998,1441.6065210000002,1536.0,18.81025198,19.22990626,12.03978772,18.63595988,18.66675281,19.0833081,18.55898115,18.97313088,214.5821055,214.5821055,12.03954943,-0.0015633729999999998,-0.006689122,0.0028990340000000004,-0.141042413,-0.0009001339999999999,-0.10620483,2.0,-0.99619924,0.00380076,11,0,0,1,0,0.0,0,0,0,0,0,-0.783666642,0.259949475,0.113654898,0.027323325,-7.154242566000001,168.7977908,56.02173966,-0.02156569,-0.037500901,-0.007982995,0.0,2.481746378,0.557574274,-13.912854800000002,0.310662063,959.6905857,12.03947108,-0.587809068,0.235784735,-0.196581255,2.7071498519999997,0.552462756,-13.92090932,-0.560440694,0.242610522,-0.207100062,0.310662063,59.81673467,59.26120441,4.027414834,3.174016603,15.33696889,20.14786666,-0.09621796,0.52353857,-0.191470038,-12.98367597,455.7523908,12.03978772,95969.25666,1.140273471,0.624098578,0.129940093,-0.009014171999999999,-0.655595114,0.245662469,-0.165446335,-0.8577869220000001,0.219473172,0.5502089579999999,0.8575869420000001,-0.424871425,-0.016433823,0.289388899,0.543484414,398713802.4,327395111.1,456144.0228,18.74213423,1.718225645,18.65211042,-0.20018002399999998,1.4789807080000001,0,0,0.0,787999,39.8714138,32.7364368,-3.352525187,265.74296319999996,-56.23056791,2.629988311,18.93606296,-0.892044377,5.656073181,0.899260802,-3.0280612939999996,56.37942981,-0.496038441,0.355628103,-0.120869442,0.545958677,23833294,0,1,0,0,0
23871442,-0.120567574,0.074627475,-0.021941436,0.556755171,0.0,1488.0,1500.0,1551.0,1555.241648,1443.758352,1538.0,18.91300872,19.33505294,12.03954181,18.72270332,18.75377805,19.17226758,18.64784273,19.06396774,216.6459867,216.6459867,12.03952588,-0.001560819,-0.006685379,0.00288937,-0.14097342699999998,-0.001074389,-0.106230585,2.0,-0.99359872,0.00640128,11,0,0,1,0,0.0,0,0,0,0,0,-0.777015638,0.260705735,0.103633512,0.02417786,-6.597959522000001,168.275734,56.01768211,-0.021544942,-0.037354835,-0.007628596,0.0,2.429766216,0.570884904,-13.8986236,4.958551843,959.676907,12.03918809,-0.55465269,0.240962797,-0.202009683,2.520067348,0.565541921,-13.86665311,-0.537092095,0.250034018,-0.21392376,4.958551843,59.99934854,59.37874184,4.030692826,3.2178792,15.33710186,20.1271467,-0.095800903,0.5127688229999999,-0.19199608199999998,-12.65151311,455.747566,12.03954181,95969.34748,1.140274616,0.13146154300000001,-0.19872014,-0.392493186,-0.63600282,0.25247056100000004,-0.17597289800000002,-0.86010694,0.22194036399999997,0.5347612279999999,0.859053707,-0.426225187,-0.012392935,0.283201157,0.541844089,398713809.4,327395198.3,456162.0384,18.84833128,1.896485297,18.73934387,-0.34240846,1.470044229,0,0,0.0,787999,39.8714138,32.7364368,-3.236692883,266.5087385,-56.26989248,2.8649591819999998,18.96247814,-1.009043393,5.90555981,0.59282086,-2.92392338,56.41875399,-0.467921239,0.36039475299999996,-0.125720293,0.5442234,23871442,0,1,0,0,0
23908795,-0.11325885699999999,0.074719717,-0.022203816,0.5537430999999999,0.0,1487.089818,1500.0,1549.0,1552.089818,1446.910182,1539.0,18.93884758,19.36154436,12.03928747,18.80944676,18.84080329,19.26122707,18.73670431,19.15480461,218.70986780000004,218.70986780000004,12.03950232,-0.001558265,-0.0066816359999999995,0.0028797059999999997,-0.140904441,-0.001248644,-0.10625634099999999,2.0,-0.9909982,0.009001799999999999,11,0,0,1,0,0.0,0,0,0,0,0,-0.770364635,0.26146199600000003,0.09361212599999999,0.021032395,-6.041676477,167.7536772,56.01362457,-0.021524493,-0.037215511,-0.007264699,0.0,2.377786054,0.584195534,-13.88439241,9.606441623,959.6632283,12.0389051,-0.536328564,0.243637231,-0.203900396,2.4138903330000003,0.531537034,-13.83902927,-0.513743497,0.257457515,-0.22074745899999998,9.606441623,60.18196242,59.49627928,4.033970818,3.261741797,15.33723484,20.10642673,-0.095383846,0.501999076,-0.192522127,-12.31935025,455.90022360000006,12.03928747,95967.58097000001,1.140253553,0.7400258340000001,-0.405571589,-0.607507143,-0.6177527279999999,0.247612437,-0.18818174699999998,-0.86308021,0.22422177699999998,0.516985817,0.860666699,-0.427809485,-0.008003424,0.275970967,0.54095272,398713816.4,327395285.6,456180.054,18.95452833,2.074744949,18.82657732,-0.484636897,1.461107751,0,0,0.0,787999,39.8714138,32.7364368,-3.120860579,267.2745139,-56.30921705,3.099930053,18.98889333,-1.126042408,6.15504644,0.286380917,-2.819785465,56.45807817,-0.446671837,0.365896282,-0.129360039,0.5419792,23908795,0,1,0,0,0
23951870,-0.10767669099999999,0.077295915,-0.023304831,0.55034494,0.0,1487.0,1500.0,1546.9379880000001,1549.0,1450.0,1538.0620119999999,19.1086221,19.53518607,12.03899256,18.86591816,18.89729731,19.31901678,18.79486327,19.21429629,220.00468859999998,220.00468859999998,12.03923389,-0.001554451,-0.006674729,0.0028546509999999997,-0.140517006,-0.0014811689999999998,-0.10618300800000001,2.0,-0.98839768,0.01160232,11,0,0,1,0,0.0,0,0,0,0,0,-0.7637136309999999,0.262218257,0.08359074,0.017886931000000002,-5.485393433,167.23162040000003,56.00956702,-0.021503869,-0.037085399,-0.006889599000000001,0.0,2.269773088,0.600915935,-13.89425679,9.823182597,959.6550817,12.03859413,-0.509608894,0.254213779,-0.216904512,2.4265535369999998,0.577568425,-13.86724181,-0.48838494,0.26611302800000003,-0.22776260899999998,9.823182597,60.36488848,59.61418088,4.037246539,3.305846861,15.33736741,20.08571951,-0.094967052,0.491324706,-0.19304852399999997,-11.98655511,455.79755989999995,12.03899256,95968.771,1.140267786,0.655831436,0.41855533899999997,-0.662351748,-0.598576121,0.245891418,-0.19577233100000002,-0.8648790340000001,0.22633193199999999,0.50103014,0.862241044,-0.42882249899999997,-0.0038972779999999997,0.269490517,0.540680471,398713823.5,327395372.8,456198.0696,19.06072538,2.2530046009999998,18.91381076,-0.626865334,1.452171272,0,0,0.0,787999,39.8714138,32.7364368,-2.9957219889999998,268.0022761,-56.35329293,3.336903204,18.99615584,-1.229074611,6.341937652,0.02604866,-2.712492858,56.50215393,-0.417490605,0.36969259600000004,-0.136522537,0.54128504,23951870,0,1,0,0,0
23990944,-0.10257479900000001,0.076276063,-0.023668515,0.5490471,0.0,1487.0,1500.0,1545.0,1546.786157,1452.213843,1539.0,19.03506234,19.46003101,12.03865184,18.88915611,18.92027334,19.34258749,18.81931608,19.23937641,220.45521490000002,220.45521490000002,12.03869663,-0.0015492529999999998,-0.00666435,0.0028127,-0.13977997,-0.0017776620000000002,-0.10600089,2.0,-0.9857971590000001,0.014202841,11,0,0,1,0,0.0,0,0,0,0,0,-0.757062627,0.262974517,0.073569355,0.014741466000000002,-4.929110388,166.7095636,56.00550947,-0.021482067,-0.036954492,-0.006522875,0.0,2.100245849,0.621379672,-13.93057392,5.175292817,959.6530085,12.03825245,-0.48997830600000003,0.267327988,-0.21998520800000002,2.174561514,0.5629018610000001,-13.89948458,-0.460819799,0.276121079,-0.23498794,5.175292817,60.57033929,59.75835849,4.0403584530000005,3.367446835,15.33747033,20.06593228,-0.09456924900000001,0.487532155,-0.193600414,-11.60813815,455.99464589999997,12.03865184,95966.51347,1.140240913,0.08508740199999999,-0.427153323,0.083888246,-0.575188519,0.252933385,-0.199841555,-0.86616221,0.228304032,0.4855916,0.8638277879999999,-0.429565385,0.00011667,0.26320112,0.541027296,398713830.5,327395460.0,456216.0852,19.16692243,2.431264253,19.00104421,-0.769093771,1.443234793,0,0,0.0,787999,39.8714138,32.7364368,-2.8661613139999997,268.7119756,-56.399626500000004,3.574827782,18.99431755,-1.325470178,6.499085282999999,-0.212374521,-2.60370123,56.5484875,-0.387875078,0.37588188200000006,-0.143598337,0.5406644,23990944,0,1,0,0,0
24030018,-0.096868383,0.078679354,-0.024508932999999997,0.54607344,0.0,1487.0,1500.0,1542.0,1544.634327,1454.365673,1539.0,19.10873484,19.53532685,12.03830748,18.91239406,18.94324937,19.3661582,18.843768899999997,19.26445652,220.90574109999997,220.90574109999997,12.03815936,-0.001544056,-0.00665397,0.0027707490000000003,-0.139042933,-0.002074156,-0.105818773,2.0,-0.9831966390000001,0.016803361,11,0,0,1,0,0.0,0,0,0,0,0,-0.750411623,0.263730778,0.06354796900000001,0.011596001000000002,-4.372827344,166.18750680000002,56.00145192,-0.021461915,-0.036827136,-0.006146539,0.0,1.9307186109999999,0.641843409,-13.96689104,0.527403037,959.6509353,12.03791077,-0.464506225,0.273925483,-0.224478612,2.1659166880000003,0.624758071,-13.89679353,-0.43325465799999996,0.28612913100000004,-0.242213271,0.527403037,60.77579010000001,59.90253611,4.043470367,3.429046809,15.33757324,20.04614505,-0.09417144599999999,0.483739604,-0.194152304,-11.22972119,455.99461160000004,12.03830748,95966.51167,1.140240896,1.029249595,-0.549289174,-0.218800332,-0.548817761,0.25749803,-0.209287528,-0.867209923,0.23013229300000002,0.469987634,0.865444378,-0.430151484,0.004147036,0.256804035,0.5420349489999999,398713840.5,327395547.0,456253.9904,19.23601235,2.646631297,19.04078016,-0.896479238,1.4324590030000002,0,0,0.0,787999,39.8714138,32.7364368,-2.7332640489999998,269.4268055,-56.44720594,3.816330979,18.989853699999998,-1.421674645,6.66119151,-0.453652902,-2.494286193,56.59606694,-0.36144188200000005,0.38203607799999995,-0.150048984,0.54101354,24030018,0,1,0,0,0
24073092,-0.09254304599999999,0.080707326,-0.025509919,0.5442234,0.0,1487.0,1500.0,1541.0,1541.482496,1457.517504,1540.0,19.16898075,19.59712782,12.03794111,18.935632000000002,18.96622541,19.38972891,18.86822172,19.28953664,221.3562674,221.3562674,12.037622099999998,-0.0015388589999999998,-0.006643591,0.002728799,-0.13830589599999998,-0.002370649,-0.105636655,2.0,-0.9805961190000001,0.019403881,11,0,0,1,0,0.0,0,0,0,0,0,-0.74160909,0.264402105,0.054709212,0.0087345,-3.880780329,165.6280178,55.99851686,-0.021442004,-0.036708456,-0.005774533,0.0,1.883412904,0.6750444409999999,-13.96501203,-1.3900000000000002e-25,959.6453606000001,12.03751707,-0.432308209,0.271938079,-0.230505774,2.066203652,0.523411716,-13.98012546,-0.40899134600000003,0.292671007,-0.24675862899999998,-1.3900000000000002e-25,60.98124092,60.04671372,4.046582281,3.490646782,15.33767616,20.02635782,-0.093773643,0.47994705200000004,-0.194704195,-10.85130423,456.1323704,12.03794111,95964.92837000001,1.1402220570000001,0.716679269,0.39254716,-0.40816758399999997,-0.526525247,0.26188527699999997,-0.21232559199999998,-0.8678311759999999,0.231865977,0.45489724299999995,0.8670547670000001,-0.43051322399999997,0.008084921,0.25060140000000003,0.543283732,398713851.3,327395633.8,456297.4175,19.2948003,2.872300392,19.06732947,-1.019743882,1.421172569,0,0,0.0,787999,39.8714138,32.7364368,-2.566244331,270.1941028,-56.50752661,4.094431791,18.95853898,-1.515924789,6.8740080279999995,-0.724130675,-2.3784957230000003,56.65638761,-0.337526599,0.386026077,-0.155922228,0.54155076,24073092,0,1,0,0,0
24108166,-0.087746055,0.079262081,-0.025097374,0.5429586999999999,0.0,1486.0,1500.0,1540.0,1540.0,1459.0,1541.0,19.25146022,19.68142688,12.0375479,18.95886995,18.98920144,19.41329961,18.89267454,19.31461675,221.80679359999996,221.80679359999996,12.03708483,-0.001533662,-0.006633211,0.002686848,-0.13756886,-0.002667142,-0.10545453800000001,2.0,-0.9779955990000001,0.022004401,11,0,0,1,0,0.0,0,0,0,0,0,-0.7299940159999999,0.26496240600000004,0.047416422,0.006244205,-3.4727045089999997,165.01959630000002,55.99704914,-0.02141928,-0.036593038,-0.005395326999999999,0.0,1.851750982,0.709875787,-13.9582441,-1.3900000000000002e-25,959.6393377999999,12.03711671,-0.42238537600000003,0.28176810399999996,-0.243754075,1.97762974,0.581510595,-13.96134319,-0.385150654,0.29876922699999997,-0.250960964,-1.3900000000000002e-25,61.18669173,60.19089133,4.049694195,3.552246756,15.33777908,20.00657059,-0.09337584,0.476154501,-0.195256085,-10.47288727,456.1072885,12.0375479,95965.20341,1.140225346,0.367083935,-0.621236773,-0.8304395040000001,-0.495968113,0.26973767600000004,-0.22065010000000002,-0.868671485,0.23349191600000002,0.438935069,0.8686917009999999,-0.430922376,0.012140536,0.243991309,0.544919915,398713862.1,327395720.7,456340.8446,19.35358825,3.097969488,19.09387878,-1.143008525,1.409886135,0,0,0.0,787999,39.8714138,32.7364368,-2.399224612,270.9614,-56.56784728,4.372532603,18.92722425,-1.6101749330000001,7.086824546,-0.994608449,-2.262705253,56.71670828,-0.310185021,0.391668649,-0.161600814,0.54305685,24108166,0,1,0,0,0
24147241,-0.082837439,0.081558016,-0.026044074,0.54128504,0.0,1486.0,1500.0,1540.0,1537.0,1462.0,1542.0,19.21292104,19.64210007,12.03712556,18.9821079,19.01217748,19.43687032,18.91712736,19.33969687,222.25731980000003,222.25731980000003,12.03654757,-0.001528464,-0.0066228319999999995,0.0026448970000000002,-0.13683182300000002,-0.002963636,-0.10527242,2.0,-0.9753950790000001,0.024604921000000002,11,0,0,1,0,0.0,0,0,0,0,0,-0.718378941,0.265522706,0.040123632,0.00375391,-3.0646286889999996,164.41117490000002,55.99558142,-0.021399237,-0.036480427999999995,-0.005005475,0.0,1.829369716,0.7172967490000001,-13.98594869,-1.3900000000000002e-25,959.6335747000002,12.03666382,-0.395661751,0.293342963,-0.240240923,1.9851679430000002,0.5988972610000001,-14.0506557,-0.359793354,0.303779294,-0.256029047,-1.3900000000000002e-25,61.39214254,60.33506894,4.052806109,3.61384673,15.337882,19.98678336,-0.09297803699999999,0.472361949,-0.195807975,-10.09447031,456.2743761,12.03712556,95963.29503,1.140202677,0.7091622590000001,-0.578607992,0.020435663,-0.47953590799999996,0.279944972,-0.227832174,-0.8682747759999999,0.23503063,0.42518336100000004,0.870282832,-0.430763175,0.015837233,0.238306293,0.546876716,398713872.9,327395807.5,456384.2717,19.41237619,3.323638584,19.12042809,-1.266273169,1.398599701,0,0,0.0,787999,39.8714138,32.7364368,-2.225779747,271.6975724,-56.63039001,4.647404185,18.88575793,-1.697144926,7.262859421,-1.248790993,-2.186331602,56.77925139,-0.288710969,0.39771459200000003,-0.16649424599999998,0.5450775999999999,24147241,0,1,0,0,0
24192630,-0.07836915700000001,0.083414591,-0.026985591,0.5406644,0.0,1485.0,1500.0,1541.0,1534.0270050000001,1464.9729949999999,1543.0,19.27283219,19.70344093,12.03668339,19.00534585,19.03515351,19.46044103,18.94158017,19.36477699,222.7078461,222.7078461,12.036010300000001,-0.001523267,-0.006612453000000001,0.002602947,-0.136094786,-0.003260129,-0.10509030300000001,2.0,-0.9727945590000001,0.027205441,11,0,0,1,0,0.0,0,0,0,0,0,-0.706763867,0.266083006,0.032830842,0.001263615,-2.65655287,163.8027535,55.9941137,-0.021380417000000002,-0.036365265,-0.004612498,0.0,1.829021899,0.6596420129999999,-14.095495399999999,-1.3900000000000002e-25,959.6284283,12.03608625,-0.36291723299999995,0.304714623,-0.252213801,1.795504711,0.670944781,-14.02418657,-0.33083544,0.306205943,-0.26315252699999997,-1.3900000000000002e-25,61.58031177,60.47517284,4.055221068,3.664854739,15.3379541,19.9747986,-0.092736897,0.47764174200000004,-0.196291782,-9.745097485,456.1996096,12.03668339,95964.16055,1.140212963,1.128920885,-0.560110436,-0.4041493,-0.44811753200000004,0.28658760899999997,-0.23024919800000002,-0.868066307,0.23651054300000002,0.41054606,0.871911353,-0.430646853,0.019672862,0.232215422,0.548799696,398713883.7,327395894.4,456427.6987,19.47116414,3.54930768,19.146977399999997,-1.389537812,1.387313267,0,0,0.0,787999,39.8714138,32.7364368,-2.0459163869999997,272.402652,-56.69515248,4.91904988,18.83415052,-1.776842306,7.402150729,-1.486695176,-2.149333967,56.84401464,-0.26781377,0.400371108,-0.169841775,0.54636973,24192630,0,1,0,0,0
24237389,-0.074901541,0.085259924,-0.027950314,0.54101354,0.0,1485.0,1500.0,1543.0,1533.0,1466.0,1543.0,19.32437815,19.75598968,12.03621022,19.028583800000003,19.05812955,19.48401174,18.96603299,19.389857100000004,223.15837230000002,223.15837230000002,12.03547304,-0.00151807,-0.006602073000000001,0.002560996,-0.13535775,-0.003556623,-0.104908185,2.0,-0.970194039,0.029805961000000002,11,0,0,1,0,0.0,0,0,0,0,0,-0.695148792,0.266643306,0.025538052000000002,-0.00122668,-2.24847705,163.194332,55.99264598,-0.021361104,-0.036249727,-0.004200366,0.0,1.8286740819999998,0.601987276,-14.20504211,-1.3900000000000002e-25,959.6232819,12.03550868,-0.33707283299999996,0.30202209,-0.263337378,1.8599037459999999,0.649633262,-14.10666843,-0.301877525,0.308632593,-0.270276007,-1.3900000000000002e-25,61.76293649,60.61396976,4.05741242,3.712464493,15.33801631,19.96531714,-0.09254602,0.485832245,-0.19675374699999998,-9.40504298,456.21419289999994,12.03621022,95963.96588999999,1.140210654,0.337888116,0.09931153300000001,-0.044067447,-0.43032466700000005,0.291089932,-0.236466121,-0.8683440840000001,0.23791060100000003,0.39424286799999997,0.87358488,-0.43068275899999997,0.023775935,0.22537522399999999,0.551148958,398713896.6,327395980.4,456482.0438,19.514492899999997,3.799131646,19.14164233,-1.491546219,1.374627186,0,0,0.0,787999,39.8714138,32.7364368,-1.866053027,273.1077316,-56.75991495,5.190695573999999,18.7825431,-1.8565396859999999,7.541442037,-1.7245993590000002,-2.112336331,56.90877788,-0.24579780399999998,0.40649667700000003,-0.174808484,0.54869235,24237389,0,1,0,0,0
24272463,-0.06948034,0.086766499,-0.028659984,0.54155076,0.0,1484.7233449999999,1500.0,1543.0,1531.0,1468.0,1544.0,19.31512695,19.74675317,12.03574382,19.05182175,19.08110558,19.50758245,18.99048581,19.41493722,223.6088986,223.6088986,12.03493577,-0.0015128729999999999,-0.006591694,0.002519045,-0.134620713,-0.0038531159999999997,-0.104726068,2.0,-0.967593519,0.032406481,11,0,0,1,0,0.0,0,0,0,0,0,-0.683533718,0.26720360600000004,0.018245261999999998,-0.003716975,-1.84040123,162.5859106,55.99117826,-0.021346514,-0.036130338,-0.003792119,0.0,1.7982358390000002,0.603689221,-14.23761653,-1.3900000000000002e-25,959.6161450999999,12.03498128,-0.319319627,0.314422322,-0.270365913,1.802955004,0.5961915320000001,-14.17780947,-0.281390766,0.314326427,-0.27435005100000004,-1.3900000000000002e-25,61.94556121,60.75276668,4.059603772,3.760074247,15.33807851,19.95583568,-0.092355143,0.49402274799999996,-0.19721571100000002,-9.064988475,456.39588160000005,12.03574382,95961.88577000001,1.140185904,0.723347435,0.579776614,-0.27350558,-0.39746606,0.302451918,-0.249535271,-0.866820549,0.239270628,0.38189708,0.875158507,-0.429942809,0.027210692999999998,0.22022270000000002,0.553450332,398713911.6,327396065.5,456546.9,19.54293859,4.072210299,19.10561112,-1.5730905469999998,1.36059362,0,0,0.0,787999,39.8714138,32.7364368,-1.6455238090000002,273.860566,-56.83778395,5.495594177999999,18.70488001,-1.935253593,7.663481965,-1.979064617,-2.02497034,56.98664624,-0.22425627,0.412309054,-0.179410756,0.5516336,24272463,0,1,0,0,0
24315075,-0.066483751,0.08793002400000001,-0.029095042999999998,0.54305685,0.0,1485.0,1500.0,1546.0,1529.0,1470.0,1544.0,19.37370394,19.80665455,12.03522131,19.075059699999997,19.10408161,19.53115316,19.01493863,19.44001734,224.05942480000002,224.05942480000002,12.03439851,-0.0015076760000000001,-0.0065813140000000004,0.002477095,-0.133883676,-0.00414961,-0.104543951,2.0,-0.964992999,0.035007001,11,0,0,1,0,0.0,0,0,0,0,0,-0.6719186429999999,0.267763906,0.010952472,-0.00620727,-1.43232541,161.9774892,55.98971054,-0.021333879,-0.036024242000000005,-0.003422179,0.0,1.755280154,0.6300831960000001,-14.23817094,-1.3900000000000002e-25,959.6081803999999,12.03447474,-0.28485839399999996,0.304168795,-0.270417505,1.722513023,0.627562215,-14.19665563,-0.264427958,0.32137938899999996,-0.27715554600000003,-1.3900000000000002e-25,62.12818594,60.891563600000005,4.061795124,3.807684001,15.33814072,19.94635421,-0.092164266,0.502213251,-0.19767767600000002,-8.72493397,456.42176330000007,12.03522131,95961.57417,1.140182223,0.509025459,-0.668113243,0.180684822,-0.38740911899999997,0.305441336,-0.251247382,-0.866250363,0.240564135,0.36716928,0.876763889,-0.42955707600000004,0.03101509,0.214015913,0.555929332,398713926.6,327396150.7,456611.7562,19.57138428,4.345288953,19.06957992,-1.654634875,1.3465600530000001,0,0,0.0,787999,39.8714138,32.7364368,-1.421043534,274.6180402,-56.91692636,5.803723605,18.62468538,-2.013871946,7.783845765,-2.235138935,-1.9327106059999999,57.06578789,-0.204014081,0.41540615200000003,-0.183000202,0.55300933,24315075,0,1,0,0,0
24354612,-0.063042301,0.08975195400000001,-0.030059821,0.544696032,0.0,1484.0,1500.0,1547.0,1528.419684,1470.580316,1545.0,19.3168701,19.74867711,12.03469937,19.09829765,19.12705765,19.55472387,19.03939145,19.46509745,224.5099511,224.5099511,12.03386124,-0.0015024779999999998,-0.006570935,0.0024351439999999998,-0.13314664,-0.004446103,-0.104361833,2.0,-0.9623924779999999,0.037607522000000004,11,0,0,1,0,0.0,0,0,0,0,0,-0.660303569,0.268324206,0.0036596809999999997,-0.008697565,-1.02424959,161.3690677,55.98824282,-0.021319151,-0.035903481,-0.0029871209999999997,0.0,1.715361541,0.6535740520000001,-14.23789145,-1.3900000000000002e-25,959.5991733,12.03396274,-0.266758695,0.318240798,-0.274719545,1.7146601069999998,0.546383324,-14.10461756,-0.24668970399999998,0.328174529,-0.280412069,-1.3900000000000002e-25,62.31081066,61.03036051,4.063986476,3.855293755,15.33820293,19.93687275,-0.091973388,0.510403755,-0.198139641,-8.384879465,456.51943330000006,12.03469937,95960.45042000001,1.140168905,0.672467514,-0.0014384139999999998,-0.508438333,-0.35556800899999996,0.317380624,-0.26035329,-0.8650124570000001,0.24178956899999998,0.35361683299999996,0.878345103,-0.428857978,0.034603702,0.20828770100000002,0.558760119,398713941.6,327396235.8,456676.6123,19.59982997,4.618367607,19.03354871,-1.736179202,1.332526486,0,0,0.0,787999,39.8714138,32.7364368,-1.192885843,275.35424480000006,-56.99633049,6.106952057000001,18.54021511,-2.0876914419999997,7.8746079920000005,-2.473675484,-1.8456533019999999,57.14519137,-0.186039697,0.42070211700000004,-0.18679416699999998,0.55607486,24354612,0,1,0,0,0
24389686,-0.059659181,0.08997416400000001,-0.029933607,0.54636973,0.0,1484.0,1500.0,1550.0,1527.0,1472.0,1546.0,19.46618212,19.90128095,12.0341584,19.1215356,19.15003368,19.57829458,19.06384427,19.49017757,224.9604773,224.9604773,12.03332398,-0.001497281,-0.006560555,0.002393193,-0.13240960300000001,-0.004742597,-0.10417971599999999,2.0,-0.959791958,0.040208042,11,0,0,1,0,0.0,0,0,0,0,0,-0.648688494,0.268884506,-0.0036331090000000003,-0.01118786,-0.61617377,160.76064630000002,55.9867751,-0.02130865,-0.035804164,-0.0026252740000000004,0.0,1.698573475,0.6549545370000001,-14.23126096,-1.3900000000000002e-25,959.5822284,12.03340911,-0.243345315,0.32199782,-0.279934067,1.7363004030000002,0.606517154,-14.23013117,-0.223045606,0.333006065,-0.287103648,-1.3900000000000002e-25,62.49343614,61.17326185,4.065972698,3.8993254530000003,15.33828523,19.93044953,-0.09184327800000001,0.521578165,-0.198593422,-8.041950867999999,456.51561780000003,12.0341584,95960.52281000001,1.140169732,0.49138887200000003,-0.38562136700000005,0.08842982699999999,-0.328647917,0.317927942,-0.264501938,-0.863844253,0.242943535,0.339584361,0.8799343740000001,-0.42815122899999997,0.038247111,0.20232382,0.561971581,398713956.6,327396321.0,456741.4685,19.62827566,4.89144626,18.997517499999997,-1.81772353,1.318492919,0,0,0.0,787999,39.8714138,32.7364368,-0.957007352,276.0457931,-57.07628409,6.3998908210000005,18.44676808,-2.151435649,7.90322117,-2.675391167,-1.769518595,57.22514458,-0.166672399,0.427157171,-0.19192677600000002,0.5596960999999999,24389686,0,1,0,0,0
24428760,-0.05696395,0.092238654,-0.030418035,0.54869235,0.0,1484.0,1500.0,1553.0,1525.0,1474.0,1547.0,19.45482217,19.88974938,12.03361032,19.14477354,19.17300972,19.60186529,19.08829708,19.51525769,225.41100350000002,225.41100350000002,12.03278671,-0.0014920839999999999,-0.006550176,0.002351243,-0.131672566,-0.00503909,-0.10399759800000001,2.0,-0.957191438,0.042808562,11,0,0,1,0,0.0,0,0,0,0,0,-0.63707342,0.269444807,-0.010925899,-0.013678155,-0.208097951,160.1522249,55.98530738,-0.021299172999999998,-0.035686068,-0.002236289,0.0,1.681785409,0.656335021,-14.22463047,-1.3900000000000002e-25,959.5652835000001,12.03285547,-0.220184522,0.332413101,-0.284815667,1.7967390559999998,0.5202440620000001,-14.28085712,-0.199401508,0.337837601,-0.293795227,-1.3900000000000002e-25,62.67606238,61.32025898,4.06775422,3.939786612,15.33838758,19.92707813,-0.091773807,0.535730213,-0.199039038,-7.696154217999999,456.6435281,12.03361032,95959.03526,1.140152057,0.709717775,0.49727654,0.00358889,-0.308719285,0.327096343,-0.269628312,-0.86306139,0.244059523,0.32420975,0.88153393,-0.427553035,0.042114186,0.195755768,0.565405469,398713972.8,327396406.2,456809.999,19.65268854,5.16990198,18.95162833,-1.897923585,1.3041074129999999,0,0,0.0,787999,39.8714138,32.7364368,-0.721128861,276.7373414,-57.15623769,6.692829586,18.35332104,-2.215179855,7.931834349,-2.8771068489999996,-1.6933838890000001,57.30509779,-0.149463583,0.431195066,-0.19591738,0.562353588,24428760,0,1,0,0,0
24467834,-0.053719267,0.09359202900000001,-0.031083363,0.55008256,0.0,1484.0,1500.0,1554.071614,1523.964193,1475.035807,1547.035807,19.38032318,19.81369042,12.033020500000001,19.16801149,19.19598575,19.62543599,19.112749899999997,19.5403378,225.8615298,225.8615298,12.03224945,-0.001486887,-0.006539796,0.002309292,-0.130935529,-0.0053355830000000005,-0.103815481,2.0,-0.954590918,0.045409082,11,0,0,1,0,0.0,0,0,0,0,0,-0.625458345,0.27000510699999997,-0.018218689,-0.01616845,0.19997786899999997,159.5438034,55.98383966,-0.021290982000000003,-0.035557939,-0.00180408,0.0,1.676723629,0.641524262,-14.23604643,2.442801251,959.5559403999999,12.03228925,-0.19908644,0.326461497,-0.28241277600000003,1.713180764,0.6193277110000001,-14.26086986,-0.17770146,0.343009474,-0.296786465,2.442801251,62.85868863,61.46725611,4.069535742,3.980247772,15.33848992,19.92370673,-0.091704336,0.549882261,-0.199484653,-7.3503575670000005,456.7345832,12.033020500000001,95958.02257999999,1.140139944,0.9516302259999999,0.024856222999999997,-0.42754733100000003,-0.280743055,0.319983474,-0.276371365,-0.860748283,0.24515188699999999,0.312002765,0.883108163,-0.426314454,0.04543486,0.19053383899999998,0.568498461,398713993.3,327396491.5,456890.4055,19.66406681,5.4657371470000005,18.87387678,-1.973778756,1.288584392,0,0,0.0,787999,39.8714138,32.7364368,-0.447421674,277.46335519999997,-57.24584553,7.007843022,18.23886505,-2.277736095,7.994332536,-3.089770026,-1.6127489680000002,57.39470582,-0.131171809,0.43469101,-0.19852879,0.56597143,24467834,0,1,0,0,0
24510909,-0.05011730599999999,0.094271609,-0.031210016,0.55300933,0.0,1483.812362,1500.0,1557.0,1523.0,1476.0,1548.0,19.37122938,19.80455172,12.03243068,19.19124944,19.21896179,19.649006699999997,19.13720272,19.56541792,226.312056,226.312056,12.03171218,-0.00148169,-0.006529416999999999,0.002267341,-0.130198493,-0.005632076999999999,-0.103633363,2.0,-0.951990398,0.048009602,11,0,0,1,0,0.0,0,0,0,0,0,-0.61384327,0.270565407,-0.025511479,-0.018658745,0.608053689,158.935382,55.98237194,-0.02128456,-0.035443605,-0.0014169389999999999,0.0,1.682232835,0.612117456,-14.26373087,7.08773368,959.5534502,12.03171168,-0.181139577,0.337751942,-0.292171255,1.7381405859999999,0.663072859,-14.18959214,-0.15775393199999999,0.34848815299999997,-0.296441925,7.08773368,63.04131487,61.61425324,4.071317265,4.020708932,15.33859227,19.92033533,-0.091634865,0.564034309,-0.199930269,-7.004560917,456.92429569999996,12.03243068,95955.82535,1.140113953,0.560222711,0.350258558,-1.228735079,-0.260920749,0.332595513,-0.28452035,-0.859209028,0.24622499899999997,0.297982473,0.884661182,-0.425351541,0.049046617,0.184512042,0.571610576,398714013.8,327396576.8,456970.81200000003,19.67544509,5.7615723139999995,18.79612523,-2.049633927,1.2730613709999998,0,0,0.0,787999,39.8714138,32.7364368,-0.159992575,278.20187089999996,-57.33895535,7.330863784,18.1167883,-2.339861413,8.069122109,-3.3064042760000003,-1.5304816469999998,57.48781602,-0.11420760199999999,0.439355056,-0.201718578,0.5697426,24510909,0,1,0,0,0
24549983,-0.047746807,0.09610525199999999,-0.031767646000000004,0.55607486,0.0,1483.0,1500.0,1561.0,1522.0,1477.0,1549.0,19.44954069,19.88469496,12.03183822,19.21448739,19.24193782,19.67257741,19.16165554,19.59049804,226.76258230000002,226.76258230000002,12.03117492,-0.001476492,-0.006519036999999999,0.00222539,-0.129461456,-0.00592857,-0.103451246,2.0,-0.949389878,0.050610122,11,0,0,1,0,0.0,0,0,0,0,0,-0.602228196,0.271125707,-0.032804269,-0.02114904,1.016129509,158.32696049999998,55.98090422,-0.021280828999999998,-0.035339765,-0.001047099,0.0,1.687742041,0.582710649,-14.29141531,11.73266611,959.5509599999999,12.03113411,-0.166099259,0.340257752,-0.287502492,1.6187005719999998,0.633123703,-14.26031323,-0.137806403,0.353966832,-0.296097386,11.73266611,63.22394111,61.76125037,4.073098787,4.061170091,15.33869462,19.91696393,-0.09156539300000001,0.578186357,-0.20037588399999998,-6.6587642670000005,456.88991960000004,12.03183822,95956.19041,1.140118219,0.762527243,-0.061538625,-0.018000919,-0.236463227,0.34077070600000003,-0.286016202,-0.8572690470000001,0.24725352,0.284591215,0.886197782,-0.424191706,0.052530189000000005,0.178735526,0.574790911,398714034.3,327396662.2,457051.2184,19.68682336,6.057407481,18.71837367,-2.125489098,1.25753835,0,0,0.0,787999,39.8714138,32.7364368,0.12850126,278.9304027,-57.43177346,7.650976479,17.99317024,-2.40050211,8.133658702,-3.524644027,-1.451995832,57.5806344,-0.095491939,0.443503026,-0.204629007,0.57364964,24549983,0,1,0,0,0
24593057,-0.045134749,0.09845703900000001,-0.032615782,0.558265881,0.0,1483.0,1500.0,1563.9825970000002,1520.5087019999999,1478.4912980000001,1550.0,19.45591343,19.89140617,12.03121938,19.23772534,19.26491385,19.69614812,19.18610836,19.61557815,227.2131085,227.2131085,12.03063765,-0.001471295,-0.0065086580000000005,0.00218344,-0.128724419,-0.006225064000000001,-0.103269128,2.0,-0.946789358,0.053210642,11,0,0,1,0,0.0,0,0,0,0,0,-0.588515321,0.271646891,-0.038743807000000005,-0.023243436,1.3486947919999999,157.6770841,55.98383712,-0.021277578999999998,-0.035217253,-0.000599835,0.0,1.67517293,0.5440900089999999,-14.3580066,7.684595463,959.5367825999999,12.03051282,-0.136610337,0.34642486899999997,-0.300707314,1.711307275,0.568147443,-14.30299889,-0.121784545,0.355635635,-0.299804754,7.684595463,63.41213744,61.91470298,4.074841933,4.101466257,15.338804999999999,19.91493089,-0.09152252699999999,0.591672445,-0.20083163199999998,-6.300862901,457.06100210000005,12.03121938,95954.24967,1.1400951959999999,0.36431013700000003,0.060620241,-0.166233627,-0.21291500800000002,0.34604728700000004,-0.28756604,-0.854705466,0.248260604,0.27211985899999996,0.887756652,-0.422756116,0.055849628,0.173332806,0.578043862,398714054.8,327396747.5,457131.6249,19.69820164,6.353242648999999,18.64062212,-2.2013442690000002,1.242015328,0,0,0.0,787999,39.8714138,32.7364368,0.423273234,279.6000645,-57.52287154,7.953941958,17.86046392,-2.452388841,8.137739335,-3.75235049,-1.395807402,57.6717321,-0.082282569,0.447102435,-0.20679329300000002,0.5776817,24593057,0,1,0,0,0
