timestamp,control[0],control[1],control[2],control[3],control[4],output[2],output[3],output[4],output[5],output[6],output[7],indicated_airspeed_m_s,true_airspeed_m_s,air_temperature_celsius,indicated_airspeed_m_s.1,equivalent_airspeed_m_s,true_airspeed_m_s.1,equivalent_ground_minus_wind_m_s,true_ground_minus_wind_m_s,differential_pressure_raw_pa,differential_pressure_filtered_pa,temperature,gyro_bias[0],gyro_bias[1],gyro_bias[2],accel_bias[0],accel_bias[1],accel_bias[2],instance_count,seq_reached,seq_current,seq_total,item_changed_index,item_do_jump_remaining,valid,warning,finished,failure,stay_in_failsafe,flight_termination,item_do_jump_changed,execution_mode,nav_roll,nav_pitch,nav_bearing,target_bearing,xtrack_error,wp_dist,acceptance_radius,rollspeed_integ,pitchspeed_integ,yawspeed_integ,additional_integ1,x,y,z,temperature.1,pressure,temperature.2,gyro_rad[0],gyro_rad[1],gyro_rad[2],accelerometer_m_s2[0],accelerometer_m_s2[1],accelerometer_m_s2[2],x.1,y.1,z.1,temperature.3,altitude_sp,altitude_filtered,height_rate_setpoint,height_rate,airspeed_sp,airspeed_filtered,airspeed_derivative_sp,airspeed_derivative,throttle_integ,pitch_integ,baro_alt_meter,baro_temp_celcius,baro_pressure_pa,rho,xyz[0],xyz[1],xyz[2],xyz[0].1,xyz[1].1,xyz[2].1,roll_body,pitch_body,yaw_body,q_d[0],q_d[1],q_d[2],q_d[3],thrust_body[0],lat,lon,alt,vel_m_s,vel_n_m_s,vel_e_m_s,vel_d_m_s,cog_rad,ground_contact,maybe_landed,landed,ref_timestamp,ref_lat,ref_lon,x.2,y.2,z.2,vx,vy,vz,ax,ay,az,dist_bottom,roll,pitch,yaw,thrust_body[0].1,timestamp.1,isTakeoff,isClimbing,isDescending,isCruise,isLand
39857009,-0.011484953999999999,0.022252666,0.020537735,0.27455685,0.0,1508.0,1500.0,1408.0,1486.0,1513.0,1514.0,16.11696845,16.47105513,12.085724,16.09900531,16.025696300000003,16.37778627,16.16091172,16.51597392,161.21815759999998,161.21815759999998,12.085724,-0.001706971,-0.006078556,0.00128767,-0.205663507,0.21072685,-0.077421806,2.0,-0.327865573,0.672134427,11,0,0,1,0,0.0,0,0,0,0,0,0.7054629920000001,0.304757002,-1.354786007,-0.856489053,31.09897866,236.06205260000002,53.25660010000001,-0.020196247,-0.01521379,0.018684386,0.0,1.8511903769999998,0.648020449,-9.949348356,-5.32e+20,960.5094952,12.08572145,0.00194599,0.002688685,-0.010332095,-0.08046938,0.512170549,-9.868398092,0.070448334,0.009713285,0.009683328,-5.32e+20,52.80250516,49.59053489,4.010765017,2.281801418,15.32990076,18.4432198,-0.062266373,2.660771458,-0.24965336800000001,33.22949564,448.64258190000004,12.085724,96051.01813,1.14124499,0.230868171,0.865422275,0.47288325299999995,0.051900105999999994,0.013504433,-0.006693451,0.733458939,0.313656855,-1.294927956,0.701658956,0.370427413,-0.097325174,-0.60081494,0.59629004,398701700.4,327344711.5,449178.23,16.50309862,-8.448643148,-14.17796517,-0.027433487000000003,4.174681368,0,0,0.0,764000,39.8714138,32.7364368,-139.05080149999998,-169.1606489,-49.02633304,-8.446045356,-14.30626897,0.060484034000000006,-1.5419724590000001,-2.752702844,-0.392791719,49.19648796,0.329156133,0.320093639,0.130053719,0.5992069999999999,39857009,0,1,0,0,0
39889147,0.008172826,0.020543551,0.02248046,0.37736884,0.0,1509.0,1500.0,1461.0,1473.0,1526.0,1523.0,16.15084254,16.50562048,12.085724,16.09492584,16.02167707,16.37367788,16.16210745,16.5171951,161.28946059999998,161.28946059999998,12.085724,-0.00170563,-0.006077723,0.001286642,-0.205666527,0.210672395,-0.07727086,2.0,-0.325265053,0.674734947,11,0,0,1,0,0.0,0,0,0,0,0,0.708719193,0.306639547,-1.3384040640000001,-0.853994468,30.47359414,235.7758466,53.380105099999994,-0.020321778999999998,-0.015303106,0.018147008,0.0,2.523999769,0.636997916,-10.0602474,-5.32e+20,960.5035953,12.0857104,0.001115787,-0.010385307,-0.01254414,-0.068698003,0.452065251,-9.847086907000001,0.14802647900000002,0.029935559,0.025493126,-5.32e+20,52.98768575,49.69368131,4.033176869,2.471559538,15.33000304,18.58121803,-0.065024293,2.6090910419999997,-0.24982824,33.57903167,448.75470020000006,12.085724,96049.74132999999,1.1412298140000001,1.450123784,0.25880570199999997,0.354892383,0.111297881,0.026438892999999998,0.010319688,0.7338153190000001,0.314743504,-1.279155431,0.706133,0.371584426,-0.09408838800000001,-0.595354305,0.594790695,398701672.6,327344651.2,449176.6565,16.55030406,-8.473120218,-14.21468034,-0.022188437999999998,4.174620333,0,0,0.0,764000,39.8714138,32.7364368,-139.3455376,-169.65491469999998,-49.02809694,-8.505165721000001,-14.41987675,0.033965222999999996,-1.639499755,-3.188693995,-0.731976464,49.198251500000005,0.291813261,0.315814672,0.136487652,0.5984974000000001,39889147,0,1,0,0,0
39925286,0.043754901,0.038003266,0.017947387,0.4361813,0.0,1509.0,1500.0,1484.0,1470.7609519999999,1528.2390480000001,1526.0,16.24099849,16.59783881,12.085724,16.09084637,16.01765785,16.3695695,16.16330317,16.51841628,161.3607635,161.3607635,12.085724,-0.0017042889999999999,-0.00607689,0.0012856130000000001,-0.20566954699999998,0.21061794,-0.077119914,2.0,-0.32266453300000003,0.677335467,11,0,0,1,0,0.0,0,0,0,0,0,0.711975395,0.30852209199999997,-1.322022121,-0.851499883,29.84820963,235.48964049999998,53.5036101,-0.020448038,-0.015410453999999999,0.017601671,0.0,3.196809162,0.625975382,-10.17114645,-5.32e+20,960.4976955,12.08569936,-0.000543528,-0.0027395009999999997,-0.007832599,-0.08122411,0.452846584,-9.829261779,0.225604625,0.050157833,0.041302925,-5.32e+20,53.17286634,49.79682773,4.055588721,2.6613176569999997,15.33010531,18.71921625,-0.06778221400000001,2.557410626,-0.250003111,33.92856771,448.7291299,12.085724,96050.02197999999,1.141233243,2.099507675,0.668336279,0.394807488,0.188882207,0.04499787400000001,0.017628455,0.7312494559999999,0.315737032,-1.26712719,0.71001273,0.371480617,-0.090706671,-0.591310985,0.593812064,398701644.8,327344590.8,449175.083,16.5975095,-8.497597288,-14.25139551,-0.016943389,4.174559298,0,0,0.0,764000,39.8714138,32.7364368,-139.6402737,-170.1491805,-49.02986084,-8.564286085,-14.53348452,0.007446411,-1.737027052,-3.6246851469999997,-1.071161209,49.20001505,0.260203822,0.315640335,0.144911343,0.595962734,39925286,0,1,0,0,0
39961424,0.052198258,0.046022499,0.018055642,0.4617529,0.0,1509.0,1500.0,1524.0,1459.171434,1539.828566,1533.0,16.39955057,16.75985611,12.085693,16.09288187,16.01977048,16.3717312,16.1703008,16.52557039,161.5511055,161.5511055,12.08569734,-0.0017029229999999999,-0.0060761059999999995,0.001284556,-0.20567348,0.21056270800000002,-0.076968551,2.0,-0.320064013,0.679935987,11,0,0,1,0,0.0,0,0,0,0,0,0.715231597,0.310404637,-1.305640178,-0.8490052990000001,29.22282511,235.20343450000001,53.627115100000005,-0.020571585,-0.015530295,0.017044116,0.0,3.741127878,0.6524888000000001,-10.43356837,-5.32e+20,960.4957624,12.08568377,0.0190396,-0.005873051,-0.003694447,1.172836135,0.576726127,-9.878396703,0.302135792,0.076135015,0.055186334000000004,-5.32e+20,53.35804692,49.89997415,4.078000573,2.8510757769999997,15.33020759,18.85721447,-0.070540135,2.50573021,-0.250177983,34.27810374,448.7038524,12.085693,96050.31206,1.141236647,2.084636116,0.760624845,1.007726115,0.26190077,0.070803223,0.044445844000000005,0.730629713,0.316648017,-1.25161422,0.714547158,0.37217799100000004,-0.08728663699999999,-0.5859056810000001,0.593255044,398701617.0,327344530.5,449173.5095,16.64471494,-8.522074358,-14.28811068,-0.01169834,4.174498263,0,0,0.0,764000,39.8714138,32.7364368,-139.9478008,-170.6668627,-49.03395777,-8.622544437,-14.66577491,-0.04141762,-1.692281802,-3.967087264,-1.51396415,49.20411207,0.22865477899999997,0.314468436,0.155026723,0.5949055999999999,39961424,0,1,0,0,0
39993563,0.06391448400000001,0.056134711,0.01838887,0.493080659,0.0,1509.0,1500.0,1541.0,1460.581916,1538.418084,1536.0,16.53702402,16.9002109,12.085693,16.18775377,16.11497584,16.46908431,16.26538196,16.62279698,163.54867819999998,163.54867819999998,12.08526592,-0.00170119,-0.006076081,0.001283076,-0.205691282,0.210495684,-0.076810855,2.0,-0.317463493,0.682536507,11,0,0,1,0,0.0,0,0,0,0,0,0.718487798,0.312287182,-1.289258235,-0.8465107140000001,28.597440600000002,234.9172284,53.75062009,-0.020694546,-0.015655576,0.016488023,0.0,4.1112363510000005,0.7298942159999999,-10.90142806,-5.32e+20,960.4992074999999,12.08566204,0.079698301,0.006458684,0.008416926,2.138087322,0.616895937,-9.846624771,0.377247445,0.109914816,0.066457905,-5.32e+20,53.54322751,50.00312057,4.100412425,3.0408338969999997,15.33030987,18.995212699999996,-0.073298056,2.454049794,-0.25035285399999996,34.62763978,448.6441107,12.085693,96050.98371,1.1412445759999998,2.364246045,0.756140411,0.20552911199999999,0.33874401,0.09552786,0.056417774000000004,0.726788432,0.317478718,-1.240260485,0.718439218,0.371490586,-0.083728564,-0.582083858,0.5931066620000001,398701589.4,327344470.2,449176.9014,16.75812563,-8.564284857,-14.39339568,-0.059653927999999995,4.175510179,0,0,0.0,764000,39.8714138,32.7364368,-140.27267030000002,-171.2162936,-49.04121787,-8.679634055,-14.82339555,-0.120577747,-1.454640575,-4.182599486,-2.097254725,49.21137288,0.193197735,0.31455343199999997,0.164783282,0.5938797020000001,39993563,0,1,0,0,0
40029701,0.077516759,0.067534512,0.018397931,0.5244013000000001,0.0,1509.0,1500.0,1568.0,1452.984797,1546.015203,1541.0,16.65677712,17.022634,12.08565122,16.28262567,16.2101812,16.56643742,16.36046313,16.72002358,165.54625090000002,165.54625090000002,12.08483451,-0.0016994579999999998,-0.006076055,0.001281595,-0.205709084,0.210428659,-0.076653158,2.0,-0.314862973,0.685137027,11,0,0,1,0,0.0,0,0,0,0,0,0.7217439999999999,0.314169727,-1.272876292,-0.8440161290000001,27.97205608,234.6310223,53.87412509,-0.020824032,-0.015795946,0.015905374,0.0,4.481344825,0.807299633,-11.36928775,-5.32e+20,960.5026527000001,12.08564031,0.145543949,0.02153584,0.024675566,2.752201093,0.535891324,-9.986166621,0.45235909799999996,0.143694616,0.07772947599999999,-5.32e+20,53.72118017,50.11424307,4.117336732,3.207718617,15.33038396,19.10750906,-0.075542503,2.393382324,-0.250538899,34.98112491,448.6684614,12.08565122,96050.73487,1.141241569,1.958851907,1.26468737,0.318630028,0.414262577,0.128702163,0.069107148,0.725391398,0.318243489,-1.224907903,0.7230251870000001,0.37180414,-0.080171096,-0.5766869179999999,0.593246898,398701562.0,327344409.9,449182.6709,16.90323865,-8.614986997,-14.531515300000002,-0.133084611,4.177035876000001,0,0,0.0,764000,39.8714138,32.7364368,-140.5975398,-171.76572439999998,-49.04847796,-8.736723674,-14.98101618,-0.199737875,-1.216999347,-4.398111709,-2.6805453,49.21863369,0.15248024,0.314699154,0.17736596899999998,0.59322617,40029701,0,1,0,0,0
40065840,0.084441484,0.076486735,0.019057591999999998,0.54795509,0.0,1509.0,1500.0,1578.0,1453.402881,1545.597119,1542.597119,16.82136192,17.19087256,12.085606,16.37749757,16.30538656,16.66379053,16.45554429,16.81725018,167.5438236,167.5438236,12.08440309,-0.001697725,-0.006076029,0.001280114,-0.205726885,0.210361635,-0.076495462,2.0,-0.31226245199999997,0.687737548,11,0,0,1,0,0.0,0,0,0,0,0,0.725000202,0.31605227199999997,-1.256494348,-0.841521545,27.34667157,234.34481630000002,53.99763009,-0.020933792,-0.015917028,0.015436229,0.0,4.711902708,0.842046042,-11.90131964,-4.15e+20,960.5022162,12.08559173,0.21661120399999997,0.043208203,0.036393101000000004,3.3492067710000004,0.645212705,-10.19653964,0.525877721,0.173614364,0.09400064,-4.15e+20,53.88839302,50.23721705,4.126107228,3.340616308,15.33041617,19.18161566,-0.077023992,2.31936121,-0.25074154600000004,35.340477899999996,448.72198139999995,12.085606,96050.13136,1.14123448,2.321079932,1.710947798,0.198209148,0.478838329,0.16258519800000001,0.081916179,0.720571101,0.318935495,-1.214095892,0.726913833,0.370645823,-0.076505415,-0.573024296,0.59333735,398701534.5,327344349.6,449188.4405,17.04835167,-8.665689138,-14.66963493,-0.206515294,4.1785615730000005,0,0,0.0,764000,39.8714138,32.7364368,-140.9098624,-172.2984429,-49.06172897,-8.77155452,-15.13856333,-0.309264098,-0.872834725,-4.532466376,-3.247183451,49.23188453,0.11793996699999999,0.315503662,0.18714196,0.5931065999999999,40065840,0,1,0,0,0
40097978,0.09175219400000001,0.08269181,0.018792791,0.56822747,0.0,1509.0,1500.0,1594.506901,1446.679736,1552.320264,1547.253451,17.01620334,17.38999222,12.08554945,16.47236947,16.40059192,16.76114364,16.55062545,16.91447678,169.54139619999998,169.54139619999998,12.08397168,-0.0016959929999999998,-0.006076003000000001,0.001278633,-0.20574468699999998,0.21029461100000002,-0.076337766,2.0,-0.309661932,0.690338068,11,0,0,1,0,0.0,0,0,0,0,0,0.724865488,0.31735689899999997,-1.241982984,-0.8390871209999999,26.73988749,234.01051230000002,54.06889957,-0.021048668,-0.016049635,0.014946806000000002,0.0,4.85606609,0.850382647,-12.47307996,-2.25e+20,960.4993767999999,12.08552653,0.293743038,0.06996297,0.051999243,3.8434468089999996,0.6484563289999999,-10.43534747,0.598410112,0.201144388,0.11336700699999999,-2.25e+20,54.05560587,50.36019102,4.134877725,3.4735139999999998,15.33044839,19.25572226,-0.078505482,2.245340095,-0.250944192,35.69983089,448.6965239,12.08554945,96050.40753,1.141237762,2.28282887,0.7335545040000001,0.317534885,0.54819594,0.19349770100000002,0.10167404599999999,0.7186952679999999,0.319567444,-1.198776507,0.731531378,0.370686894,-0.072880965,-0.567574738,0.593611737,398701507.1,327344289.3,449194.21,17.19346469,-8.716391278,-14.80775455,-0.27994597600000004,4.1800872710000005,0,0,0.0,764000,39.8714138,32.7364368,-141.2144173,-172.82081499999998,-49.07868891,-8.792605164,-15.29606497,-0.437589694,-0.46272243700000004,-4.616577138,-3.803512237,49.24884376,0.085977756,0.315472876,0.19423727699999999,0.593265914,40097978,0,1,0,0,0
40130116,0.091209619,0.086037396,0.019485092,0.5789668,0.0,1509.223845,1500.0,1602.0,1449.44769,1549.55231,1547.0,17.17942354,17.55689391,12.08545876,16.56724137,16.49579728,16.85849675,16.64570661,17.01170338,171.53896890000001,171.53896890000001,12.08354026,-0.00169426,-0.006075977,0.001277152,-0.205762489,0.21022758600000002,-0.07618007,2.0,-0.307061412,0.692938588,11,0,0,1,0,0.0,0,0,0,0,0,0.719899882,0.31783819,-1.230136554,-0.836738407,26.15960268,233.6076852,54.06575131,-0.021162259,-0.016185123,0.014490767,0.0,5.000229471,0.8587192509999999,-13.04484028,-3.59e+19,960.4965373,12.08546134,0.362050673,0.096443741,0.065356871,4.309988977,0.6926285670000001,-10.76187682,0.670942504,0.228674412,0.132733375,-3.59e+19,54.22281872,50.48316499,4.143648221,3.6064116910000004,15.330480599999998,19.32982885,-0.07998697099999999,2.17131898,-0.251146838,36.05918388,448.77551189999997,12.08545876,96049.50038,1.1412270279999999,1.7838656780000002,0.841703054,0.381151064,0.623476703,0.225960661,0.10811670300000001,0.7110093759999999,0.32015564399999996,-1.191341537,0.73496246,0.36827094299999996,-0.069097695,-0.565179435,0.594102398,398701479.6,327344228.9,449199.9796,17.33857772,-8.767093419,-14.94587418,-0.353376659,4.1816129680000005,0,0,0.0,764000,39.8714138,32.7364368,-141.51897230000003,-173.343187,-49.09564885,-8.813655807,-15.45356661,-0.56591529,-0.05261015,-4.7006879,-4.359841023,49.26580298,0.05753675,0.31534698,0.203898733,0.59339404,40130116,0,1,0,0,0
40162255,0.10100552,0.093423656,0.019857756,0.592943095,0.0,1510.0,1500.0,1612.0,1443.634327,1555.365673,1551.365673,17.30835869,17.68858998,12.08535827,16.66211327,16.59100264,16.95584986,16.74078778,17.10892997,173.5365416,173.5365416,12.08310884,-0.0016925279999999998,-0.006075951,0.001275672,-0.205780291,0.210160562,-0.076022374,2.0,-0.304460892,0.695539108,11,0,0,1,0,0.0,0,0,0,0,0,0.7149342759999999,0.318319481,-1.218290123,-0.834389692,25.57931786,233.20485809999997,54.06260305,-0.021273815,-0.016325384,0.014088085,0.0,4.937049299999999,0.860101288,-13.57669966,-1.54e+20,960.4935736,12.08533447,0.427830005,0.13193137900000002,0.07514979299999999,4.48109598,0.819089796,-11.16091097,0.727417243,0.253963483,0.141532435,-1.54e+20,54.39003157,50.60613896,4.152418718,3.739309383,15.33051282,19.40393545,-0.08146846,2.097297866,-0.251349485,36.41853687,448.66551069999997,12.08535827,96050.76247,1.1412420079999999,1.732042425,1.152932693,1.363580377,0.6916778729999999,0.250784888,0.12617688,0.710626173,0.320696152,-1.17335277,0.740002246,0.36886315799999997,-0.065457718,-0.558614934,0.5945732220000001,398701452.2,327344168.6,449205.7491,17.48369074,-8.817795559,-15.0839938,-0.42680734200000003,4.183138665,0,0,0.0,764000,39.8714138,32.7364368,-141.84297019999997,-173.9146504,-49.12695288,-8.788701517,-15.62341014,-0.74095707,0.57164583,-4.691746424,-4.758985715,49.29710746,0.032855283,0.315641278,0.211112204,0.593748291,40162255,0,1,0,0,0
40198393,0.10183174,0.095995884,0.019842403,0.60273254,0.0,1510.0,1500.0,1616.0,1446.044809,1552.955191,1552.0,17.47579373,17.8597016,12.08519777,16.75698516,16.686207999999997,17.05320297,16.83586894,17.20615657,175.53411430000003,175.53411430000003,12.08267743,-0.001690795,-0.006075925,0.001274191,-0.20579809300000002,0.210093538,-0.075864677,2.0,-0.301860372,0.698139628,11,0,0,1,0,0.0,0,0,0,0,0,0.70996867,0.318800773,-1.206443693,-0.832040977,24.99903305,232.80203109999997,54.0594548,-0.021383886,-0.01646683,0.013712051999999999,0.0,4.825479393999999,0.85986027,-14.09924698,-3.43e+20,960.4905809,12.08519321,0.494711216,0.156569575,0.087002879,4.717333097,0.737215389,-11.65493822,0.7801444559999999,0.278729561,0.147865303,-3.43e+20,54.55724442,50.72911293,4.161189214,3.872207075,15.33054503,19.47804205,-0.08294995,2.023276751,-0.251552131,36.77788986,448.66051960000004,12.08519777,96050.8323,1.141242812,1.934378411,1.261482792,0.32635541100000004,0.751030248,0.277130494,0.133631496,0.702588698,0.321189596,-1.165809605,0.74350359,0.366235194,-0.061634759000000004,-0.556121195,0.595217758,398701423.9,327344103.6,449235.2659,17.61709742,-8.801604321000001,-15.24552627,-0.582182403,4.188371259,0,0,0.0,764000,39.8714138,32.7364368,-142.17150569999998,-174.4975708,-49.16160454,-8.753010619,-15.796134,-0.926901451,1.245878559,-4.661088464,-5.121446862,49.33175983,0.00045498800000000003,0.315105023,0.21803889199999998,0.59424007,40198393,0,1,0,0,0
40230532,0.099390812,0.09784122099999999,0.020582027,0.6080065,0.0,1510.0,1500.0,1617.910582,1448.544709,1550.455291,1552.365873,17.51238748,17.89706898,12.08501574,16.85185706,16.78141336,17.15055609,16.9309501,17.30338317,177.531687,177.531687,12.08224601,-0.001689063,-0.0060758999999999995,0.00127271,-0.20581589399999997,0.210026513,-0.07570698099999999,2.0,-0.299259852,0.700740148,11,0,0,1,0,0.0,0,0,0,0,0,0.705003064,0.319282064,-1.194597262,-0.829692263,24.41874823,232.399204,54.05630654,-0.021501287,-0.016619313,0.013349633999999999,0.0,4.714038008999999,0.8596184659999999,-14.62124797,-5.32e+20,960.4875963999999,12.08505156,0.5615760320000001,0.183723642,0.10507889599999999,4.888590866,0.81554693,-12.051691499999999,0.832633593,0.303462208,0.154204051,-5.32e+20,54.72518843,50.86877219,4.166480688,3.9831189680000003,15.33063047,19.52207602,-0.08382892,1.9527051130000002,-0.251770557,37.15441249,448.8088541,12.08501574,96049.11107,1.141222341,0.955626888,0.170081972,-0.25404494899999996,0.793846341,0.300918193,0.138246224,0.6975836040000001,0.32165074899999996,-1.153871983,0.74765385,0.36483376,-0.057879805,-0.551867903,0.5958173000000001,398701395.6,327344038.4,449265.862,17.74997199,-8.782372473999999,-15.40812297,-0.7412822090000001,4.193772348,0,0,0.0,764000,39.8714138,32.7364368,-142.499919,-175.0803762,-49.19631918,-8.717088315,-15.96878873,-1.112884713,1.919829033,-4.63021247,-5.482941626000001,49.36647517,-0.02499943,0.315156915,0.226298972,0.594977681,40230532,0,1,0,0,0
40262670,0.114841266,0.107263995,0.021064693,0.61618686,0.0,1510.0,1500.0,1620.0,1457.865773,1541.134227,1555.0,17.71207953,18.10120538,12.08478602,16.94672896,16.87661872,17.2479092,17.02603126,17.40060977,179.52925969999998,179.52925969999998,12.0818146,-0.00168733,-0.006075874,0.001271229,-0.205833696,0.20995948899999997,-0.075549285,2.0,-0.296659332,0.703340668,11,0,0,1,0,0.0,0,0,0,0,0,0.700037459,0.319763355,-1.182750832,-0.827343548,23.83846341,231.99637689999997,54.05315829,-0.021598062999999997,-0.016746762,0.013074603,0.0,4.635167391,0.8591771770000001,-15.00479161,-5.32e+20,960.4866879000001,12.08481232,0.623750134,0.21602068100000002,0.11008297800000001,4.9335632810000005,0.855557483,-12.55783034,0.824787777,0.319722132,0.162033108,-5.32e+20,54.89341454,51.01486909,4.170429862,4.085548151,15.33073644,19.55450716,-0.08447542300000001,1.883464375,-0.25199507,37.53755964,448.6105443,12.08478602,96051.42483999999,1.141249859,1.6415704780000002,0.756627713,-0.314281168,0.8336239190000001,0.315011013,0.150369669,0.692416537,0.32206399999999996,-1.141942005,0.7518047040000001,0.36332408200000005,-0.05411853,-0.547579167,0.596424325,398701367.3,327343973.2,449296.4581,17.88284657,-8.763140628,-15.57071966,-0.900382015,4.199173438,0,0,0.0,764000,39.8714138,32.7364368,-142.7973485,-175.63407519999998,-49.24699520000001,-8.62252092,-16.12392027,-1.308721642,2.5222479190000002,-4.544080688,-5.599527332,49.41715048,-0.050308773,0.313809758,0.23264372100000003,0.5954828000000001,40262670,0,1,0,0,0
40297617,0.106111855,0.103747985,0.020297966,0.6179879,0.0,1510.276255,1500.0,1620.0,1465.5525109999999,1533.4474890000001,1555.0,17.83014181,18.22166179,12.08451396,17.04160086,16.97182408,17.34526231,17.12111242,17.49783637,181.5268324,181.5268324,12.08138318,-0.001685598,-0.006075848000000001,0.001269748,-0.205851498,0.209892465,-0.07539158900000001,2.0,-0.294058812,0.7059411879999999,11,0,0,1,0,0.0,0,0,0,0,0,0.695071853,0.320244646,-1.170904401,-0.8249948340000001,23.2581786,231.5935498,54.05001003,-0.021700359,-0.016881101000000003,0.012810317,0.0,4.556296773,0.8587358890000001,-15.38833525,-5.32e+20,960.4857794,12.08457309,0.6837114759999999,0.237177725,0.127808619,4.983291257,0.9081903659999999,-13.06109665,0.81694196,0.33598205600000003,0.169862166,-5.32e+20,55.06164065,51.16096599,4.174379036,4.187977334,15.33084242,19.5869383,-0.085121925,1.814223638,-0.252219584,37.92070678,448.6845285,12.08451396,96050.55886,1.141239539,0.73440047,-0.115295774,0.461289124,0.842458404,0.333105652,0.154983184,0.688340233,0.322457297,-1.128524061,0.7561461279999999,0.362228417,-0.050416252,-0.542669243,0.597114176,398701338.9,327343908.0,449327.0542,18.01572114,-8.743908782,-15.73331636,-1.0594818209999999,4.204574527,0,0,0.0,764000,39.8714138,32.7364368,-143.094778,-176.18777419999998,-49.29767122,-8.527953525,-16.27905182,-1.50455857,3.124666804,-4.457948905,-5.716113039,49.46782579,-0.072680112,0.313293716,0.239040146,0.596050089,40297617,0,1,0,0,0
40330947,0.088995746,0.110225166,0.020549147,0.619907495,0.0,1510.0,1500.0,1620.0,1470.686737,1528.313263,1555.313263,17.99937925,18.39484547,12.08419552,17.13647276,17.06702944,17.44261542,17.21619359,17.59506296,183.5244051,183.5244051,12.08095176,-0.001683865,-0.006075822,0.001268267,-0.20586929999999998,0.20982544,-0.075233893,2.0,-0.291458292,0.7085417079999999,11,0,0,1,0,0.0,0,0,0,0,0,0.690106247,0.320725938,-1.159057971,-0.8226461190000001,22.67789378,231.1907228,54.04686177,-0.021800312999999998,-0.017013831,0.012571222,0.0,4.469571662,0.8624167979999999,-15.72438622,-5.32e+20,960.4824837000001,12.0842867,0.744686581,0.263400278,0.137267892,4.973214535,0.848971708,-13.58807295,0.8050563359999999,0.34949080899999996,0.177785859,-5.32e+20,55.22986676,51.30706289,4.178328209,4.290406518,15.33094839,19.61936944,-0.08576842800000001,1.7449829,-0.252444098,38.30385392,448.936851,12.08419552,96047.67383,1.141205242,0.724141788,0.7046069759999999,-0.526690255,0.827438406,0.35230737100000004,0.163952052,0.680925245,0.32280584,-1.119523805,0.7598645559999999,0.35971365,-0.046644002000000004,-0.5394714420000001,0.59789248,398701310.6,327343842.8,449357.6503,18.14859572,-8.724676935,-15.89591305,-1.218581627,4.209975616,0,0,0.0,764000,39.8714138,32.7364368,-143.39425769999997,-176.753741,-49.35322853,-8.419653457,-16.43485644,-1.7033787530000002,3.7235603619999997,-4.371581604,-5.784975299,49.52338267,-0.08725683699999999,0.31254898,0.24503048100000002,0.59667885,40330947,0,1,0,0,0
40371085,0.068456032,0.11173855699999999,0.021811112,0.6206963000000001,0.0,1511.0,1500.0,1619.0,1474.097219,1524.902781,1553.0,18.04289038,18.43949654,12.08383277,17.23134466,17.1622348,17.53996853,17.31127475,17.69228956,185.52197769999998,185.52197769999998,12.08052035,-0.001682133,-0.006075796,0.001266787,-0.20588710100000002,0.209758416,-0.075076197,2.0,-0.288857772,0.7111422279999999,11,0,0,1,0,0.0,0,0,0,0,0,0.6851406409999999,0.321207229,-1.14721154,-0.8202974040000001,22.09760896,230.7878957,54.04371352,-0.021895381000000002,-0.017136166,0.012366756999999999,0.0,4.35084676,0.882891842,-15.86694852,-5.32e+20,960.4694619999999,12.08380823,0.799092316,0.293154284,0.13684137300000002,4.950332797,0.903115727,-14.23230669,0.776712236,0.351791085,0.18609511,-5.32e+20,55.39809287,51.45315979,4.182277383,4.392835701,15.33105436,19.65180059,-0.08641493,1.675742162,-0.252668611,38.68700106,449.06488099999996,12.08383277,96046.19595,1.141187711,0.171096818,0.21357249899999997,0.16798356899999997,0.8125900509999999,0.36024488,0.16708208900000002,0.674351391,0.323148449,-1.109297631,0.76374195,0.35751613200000004,-0.042902937,-0.535758587,0.598745356,398701282.5,327343776.3,449397.8946,18.26614923,-8.673560712,-16.05726745,-1.389275759,4.216778748,0,0,0.0,764000,39.8714138,32.7364368,-143.7020904,-177.3696876,-49.42867253,-8.255405462,-16.59340321,-1.914352935,4.308091473999999,-4.2842547810000005,-5.659408707000001,49.59882738,-0.10744817599999999,0.311733398,0.250537644,0.59716624,40371085,0,1,0,0,0
40403224,0.057867909,0.111830708,0.020794036000000002,0.62031657,0.0,1512.0,1500.0,1617.4922980000001,1476.4922980000001,1522.5077019999999,1552.0,18.11385027,18.51210659,12.0834249,17.32621656,17.25744016,17.63732164,17.40635591,17.78951616,187.51955039999999,187.51955039999999,12.08008893,-0.0016804000000000003,-0.00607577,0.0012653060000000001,-0.205904903,0.209691391,-0.0749185,2.0,-0.286257251,0.713742749,11,0,0,1,0,0.0,0,0,0,0,0,0.680175035,0.32168852,-1.13536511,-0.81794869,21.51732415,230.38506859999998,54.04056526,-0.021990938999999998,-0.017258763,0.01217297,0.0,4.232121858999999,0.9033668859999999,-16.00951082,-5.32e+20,960.4564402000001,12.08332976,0.8334677109999999,0.30103468699999997,0.15760075699999998,4.8584735089999995,0.827170098,-14.66440967,0.748368136,0.354091361,0.19440436,-5.32e+20,55.56719998,51.60082569,4.186129892,4.49444557,15.33116343,19.68316324,-0.08704000099999999,1.606730775,-0.252894625,39.07251754,448.93102919999995,12.0834249,96047.72318,1.141205833,-0.786049404,0.42690032299999997,0.398689609,0.789492105,0.36870607299999997,0.176825373,0.666618786,0.32344994899999996,-1.100527828,0.7674147929999999,0.354802171,-0.039152208,-0.5325889,0.59959347,398701255.3,327343705.6,449469.2272,18.33433487,-8.519705941,-16.21461892,-1.5973293880000001,4.228099575,0,0,0.0,764000,39.8714138,32.7364368,-144.009923,-177.98563430000002,-49.50411653,-8.091157466,-16.75194997,-2.125327117,4.892622585,-4.196927959,-5.533842115,49.67427209,-0.128248966,0.305582585,0.24958011,0.598162451,40403224,0,1,0,0,0
40435362,0.052185865,0.10852325300000001,0.022465354,0.6191995,0.0,1512.0,1500.0,1615.0,1479.9181839999999,1519.0818160000001,1550.0,18.37161052,18.77537068,12.08296422,17.42108846,17.35264552,17.73467475,17.50143707,17.88674276,189.5171231,189.5171231,12.07965752,-0.0016786670000000002,-0.006075744,0.001263825,-0.205922705,0.209624367,-0.074760804,2.0,-0.283656731,0.716343269,11,0,0,1,0,0.0,0,0,0,0,0,0.675209429,0.322169812,-1.123518679,-0.815599975,20.93703933,229.98224150000001,54.03741701,-0.022082172999999997,-0.017380333,0.011984296,0.0,4.09515865,0.904610648,-16.10983341,-5.32e+20,960.4460531,12.08283439,0.843399737,0.319968357,0.15676489999999998,4.748828936000001,0.907334236,-14.97629285,0.719292907,0.354374234,0.204928401,-5.32e+20,55.75696171,51.78527591,4.187716145,4.57684707,15.3313451,19.68947587,-0.087162621,1.543096389,-0.253155805,39.51358185,449.1304829,12.08296422,96045.43144,1.141178594,-0.248326123,-0.05229345,0.071856186,0.761042083,0.366758232,0.187953801,0.66017365,0.323739816,-1.090126476,0.77127248,0.35258152600000003,-0.035483297000000004,-0.528737047,0.60038393,398701228.0,327343635.0,449540.5599,18.402520499999998,-8.36585117,-16.37197039,-1.805383016,4.239420401,0,0,0.0,764000,39.8714138,32.7364368,-144.301962,-178.58816480000002,-49.58459556,-7.913767756,-16.90119703,-2.322831159,5.4025526,-4.099324783999999,-5.366193127,49.75475128,-0.14607962300000002,0.297919621,0.247721837,0.59883434,40435362,0,1,0,0,0
40471501,0.044844981,0.10436463,0.024236857,0.61816823,0.0,1513.0,1500.0,1612.671334,1484.342669,1514.657331,1548.0,18.27864,18.68042548,12.08246547,17.51596036,17.44785088,17.83202786,17.59651824,17.98396936,191.5146958,191.5146958,12.0792261,-0.001676935,-0.006075719,0.0012623439999999999,-0.205940507,0.209557343,-0.074603108,2.0,-0.281056211,0.7189437890000001,11,0,0,1,0,0.0,0,0,0,0,0,0.670243823,0.322651103,-1.1116722490000002,-0.8132512609999999,20.35675452,229.5794145,54.03426875,-0.022171736,-0.017500804,0.011771476999999999,0.0,3.9296964460000003,0.8758038020000001,-16.14415266,-5.32e+20,960.4397826999999,12.08231263,0.823115446,0.342522194,0.167984695,4.56574882,0.865663671,-15.42954259,0.689075222,0.35150473299999996,0.218913252,-5.32e+20,55.94672344,51.96972613,4.189302399,4.659248569,15.33152677,19.69578849,-0.087285241,1.479462003,-0.253416984,39.95464616,449.1701811000001,12.08246547,96044.97329,1.141173096,-0.501177978,-0.042522678,0.31018273399999996,0.737827145,0.366834193,0.196580279,0.656333075,0.324003947,-1.076634904,0.775457617,0.351381241,-0.031988921000000003,-0.523609883,0.601193596,398701200.7,327343564.4,449611.8926,18.47070614,-8.211996399,-16.52932186,-2.013436644,4.250741227,0,0,0.0,764000,39.8714138,32.7364368,-144.5693222,-179.1697313,-49.67294228,-7.715842935,-17.03591245,-2.499286896,5.795911692000001,-3.985663887,-5.13278661,49.84309729,-0.163838757,0.29029239100000004,0.243815917,0.59995544,40471501,0,1,0,0,0
40503639,0.040372963,0.100904036,0.024268044,0.61536014,0.0,1513.0,1500.0,1610.0,1486.0,1513.0,1546.0,18.35498887,18.75870291,12.08189322,17.61083226,17.54305624,17.92938097,17.691599399999998,18.08119596,193.5122685,193.5122685,12.07879469,-0.0016752020000000002,-0.006075693,0.001260863,-0.20595830899999998,0.209490318,-0.074445412,2.0,-0.278455691,0.7215443090000001,11,0,0,1,0,0.0,0,0,0,0,0,0.665278217,0.323132394,-1.099825818,-0.8109025459999999,19.7764697,229.1765874,54.03112049,-0.022258845,-0.017619111,0.011535085,0.0,3.764234243,0.846996955,-16.17847192,-5.32e+20,960.4335123999999,12.08179088,0.8083072640000001,0.345739436,0.171558673,4.476953873,0.904406336,-15.75818307,0.658857538,0.348635231,0.232898103,-5.32e+20,56.13648516,52.15417634,4.190888652,4.741650068999999,15.33170844,19.70210111,-0.08740786099999999,1.415827617,-0.253678164,40.39571047,449.2632663,12.08189322,96043.88023,1.141160154,-1.111034314,-0.089341153,0.06268963599999999,0.6941234940000001,0.364140134,0.212572962,0.6505641910000001,0.324245662,-1.065612906,0.7793081159999999,0.349358048,-0.028453787999999997,-0.519436909,0.601848925,398701173.4,327343493.7,449683.2252,18.53889178,-8.058141628,-16.68667333,-2.221490272,4.262062053999999,0,0,0.0,764000,39.8714138,32.7364368,-144.8366824,-179.7512978,-49.761289,-7.5179181139999995,-17.17062788,-2.675742633,6.189270784,-3.872002989,-4.899380094,49.9314433,-0.177343225,0.28449597,0.24156798399999999,0.6004863,40503639,0,1,0,0,0
40539778,0.03138321,0.097650932,0.026334886000000002,0.6136636999999999,0.0,1513.0,1500.0,1607.70074,1489.1496300000001,1509.8503699999999,1545.0,18.356558,18.76030779,12.08130375,17.70570416,17.6382616,18.02673408,17.78668056,18.17842255,195.50984119999998,195.50984119999998,12.07836327,-0.00167347,-0.006075667,0.0012593819999999999,-0.20597611,0.20942329399999998,-0.07428771599999999,2.0,-0.275855171,0.7241448290000001,11,0,0,1,0,0.0,0,0,0,0,0,0.660312611,0.323613685,-1.087979388,-0.8085538320000001,19.19618488,228.77376030000002,54.02797224,-0.022344514,-0.017733871000000002,0.01129884,0.0,3.6318213839999998,0.8248955240000001,-16.14773759,-5.32e+20,960.4241036000001,12.08120552,0.786096522,0.356662519,0.17883098,4.322567752,0.926531058,-15.947676000000001,0.624742275,0.352031284,0.247925693,-5.32e+20,56.32624689,52.33862656,4.192474905,4.824051568,15.33189011,19.70841373,-0.087530481,1.352193231,-0.253939344,40.83677478,449.3058598,12.08130375,96043.40976000001,1.14115461,-0.450234562,0.24680938300000002,0.618473179,0.6704693070000001,0.361471827,0.230506921,0.645620656,0.32446464,-1.053765506,0.7832012209999999,0.34763223,-0.025019875,-0.514896304,0.60229751,398701146.2,327343423.1,449754.5579,18.60707742,-7.904286857000001,-16.844024800000003,-2.4295438999999996,4.27338288,0,0,0.0,764000,39.8714138,32.7364368,-145.1027561,-180.3694341,-49.86439829,-7.285560181,-17.30386243,-2.847721317,6.604849282000001,-3.737659341,-4.694718565,50.03455229,-0.185979426,0.280482591,0.24180822800000001,0.6010314,40539778,0,1,0,0,0
40575916,0.028110932,0.096025186,0.027977161,0.61058575,0.0,1514.0,1500.0,1604.0,1492.0,1507.0,1544.439888,18.4493391,18.85514034,12.08067308,17.80057606,17.73346695,18.12408719,17.88176172,18.27564915,197.5074139,197.5074139,12.07793185,-0.0016717370000000002,-0.006075641,0.001257902,-0.205993912,0.20935627,-0.07413002,2.0,-0.273254651,0.7267453490000001,11,0,0,1,0,0.0,0,0,0,0,0,0.6549559420000001,0.323999861,-1.076861859,-0.806308356,18.64486077,228.33958959999998,54.02917973,-0.022433579,-0.017853305,0.011043483,0.0,3.523010657,0.807582754,-16.07054537,-5.32e+20,960.4124535,12.08057474,0.75356681,0.35398931899999997,0.19069867,4.234730623,0.8753193429999999,-16.14311855,0.5878435639999999,0.359901872,0.263697953,-5.32e+20,56.51600862,52.52307678,4.194061158,4.906453068,15.33207177,19.71472636,-0.087653101,1.288558845,-0.254200524,41.27783908,449.4058683,12.08067308,96042.24467999999,1.141140753,-1.434310797,0.314027476,0.50773342,0.6453704,0.359077249,0.242428963,0.6396060060000001,0.32467067,-1.043301843,0.7868960970000001,0.345436749,-0.021577927,-0.510878606,0.602792772,398701121.3,327343352.2,449844.3359,18.65175435,-7.706127225,-16.98419684,-2.614088818,4.2862660319999994,0,0,0.0,764000,39.8714138,32.7364368,-145.36791100000002,-181.0136865,-49.97805025,-7.0286119010000006,-17.43603942,-3.016502721,7.036295731,-3.588545142,-4.510585219,50.14820425,-0.201095692,0.271921316,0.23860705399999999,0.6019260000000001,40575916,0,1,0,0,0
40608054,0.022481884,0.091259807,0.027488716,0.60833275,0.0,1515.0,1500.0,1602.0,1494.970594,1504.029406,1544.0,18.55236663,18.96067722,12.07997233,17.89544795,17.82867231,18.2214403,17.97684288,18.37287575,199.5049865,199.5049865,12.07750044,-0.001670005,-0.006075615,0.001256421,-0.20601171399999998,0.209289245,-0.07397232299999999,2.0,-0.270654131,0.7293458690000001,11,0,0,1,0,0.0,0,0,0,0,0,0.648646294,0.324154249,-1.0675205859999999,-0.804314463,18.16411078,227.82903790000003,54.04100173,-0.022501602000000002,-0.017953177,0.010855982,0.0,3.4141999289999996,0.790269984,-15.99335314,-5.32e+20,960.4008034,12.07994396,0.735584363,0.353942645,0.199551925,4.100675139,0.905417678,-16.18540236,0.550944853,0.36777246,0.279470214,-5.32e+20,56.69824269,52.70451135,4.195115398,4.976477445,15.33219922,19.71606831,-0.087677391,1.231443847,-0.25445058600000003,41.70056571,449.62430989999996,12.07997233,96039.75248,1.141111169,-1.231555809,-0.22156193899999999,1.2268521609999998,0.599045531,0.36235034899999996,0.26658765,0.631906734,0.32486039,-1.034937164,0.790324157,0.342524208,-0.01809937,-0.50767544,0.6032644779999999,398701098.8,327343281.0,449951.3349,18.6744829,-7.466603321,-17.10832967,-2.776685337,4.300607814,0,0,0.0,764000,39.8714138,32.7364368,-145.6330658,-181.6579389,-50.09170220000001,-6.771663622,-17.56821641,-3.1852841260000004,7.467742179,-3.4394309439999997,-4.326451872,50.261856200000004,-0.21508128199999998,0.264995236,0.235817954,0.60255504,40608054,0,1,0,0,0
40640193,0.014962488999999999,0.090018816,0.028963554,0.6061639639999999,0.0,1516.0,1500.0,1600.0,1497.381076,1501.618924,1544.0,18.66994728,19.08094415,12.07927312,17.99031985,17.92387767,18.31879341,18.07192405,18.47010235,201.5025592,201.5025592,12.07706902,-0.0016682720000000002,-0.006075589,0.00125494,-0.20602951600000002,0.209222221,-0.07381462700000001,2.0,-0.268053611,0.7319463890000001,11,0,0,1,0,0.0,0,0,0,0,0,0.6423366460000001,0.324308638,-1.058179312,-0.80232057,17.68336079,227.31848619999997,54.05282373,-0.022583577999999997,-0.018072385,0.010635795,0.0,3.3611540360000003,0.797266987,-15.99397383,-3.85e+20,960.3857782,12.07923752,0.697486582,0.34976081,0.212594898,3.908444114,0.891402134,-16.20783097,0.5171967679999999,0.37656675,0.29458783,-3.85e+20,56.86710746,52.88059003,4.195224769,5.024519742,15.33223038,19.70858224,-0.087527045,1.185907447,-0.254680902,42.09072416,449.8164597,12.07927312,96037.5565,1.141085025,-0.21136186699999998,0.101773889,0.481627089,0.559088791,0.369440658,0.279969142,0.6227876370000001,0.325020833,-1.028373473,0.793516703,0.33900040200000003,-0.014604735,-0.505165802,0.603541349,398701076.2,327343209.9,450058.3339,18.69721144,-7.2270794160000005,-17.23246249,-2.939281856,4.314949596,0,0,0.0,764000,39.8714138,32.7364368,-145.8630468,-182.27350769999998,-50.21035332,-6.501430602,-17.68364607,-3.331805179,7.819646347000001,-3.3005906460000003,-4.1532645310000005,50.38050787,-0.22275698100000002,0.260108419,0.23524674,0.6029925420000001,40640193,0,1,0,0,0
40676331,0.011973183,0.089284335,0.030185061000000003,0.60272545,0.0,1516.0,1500.0,1599.0,1499.0,1500.0,1543.0,18.66020835,19.07112667,12.07850152,18.08519175,18.01908303,18.41614652,18.16700521,18.56732895,203.5001319,203.5001319,12.07663761,-0.00166654,-0.006075564,0.001253459,-0.20604731699999998,0.209155197,-0.073656931,2.0,-0.26545309100000003,0.7345469090000001,11,0,0,1,0,0.0,0,0,0,0,0,0.636026998,0.324463026,-1.048838039,-0.800326677,17.20261081,226.80793450000002,54.06464573,-0.022652553,-0.018171815,0.010438226,0.0,3.3241561560000004,0.8112598609999999,-16.01698753,-1.95e+20,960.3697816,12.0785093,0.672430072,0.345400741,0.233375378,3.847362864,0.847324238,-16.20319366,0.48435537,0.38562686399999996,0.309517053,-1.95e+20,57.03597222,53.05666872,4.19533414,5.072562038,15.33226154,19.70109617,-0.087376698,1.1403710470000001,-0.25491121699999997,42.48088261,449.7915948,12.07850152,96037.7969,1.141087914,-1.252016899,0.654062479,-0.09929774,0.527036029,0.38571789,0.289036681,0.61389108,0.325181738,-1.021577035,0.7967070709999999,0.335541408,-0.011149093999999998,-0.50253665,0.603797559,398701053.7,327343138.7,450165.3329,18.71993999,-6.987555511,-17.35659532,-3.101878376,4.329291378,0,0,0.0,764000,39.8714138,32.7364368,-146.0829053,-182.880822,-50.330443100000004,-6.227374498,-17.79425619,-3.471920143,8.148659822,-3.164706972,-3.983227235,50.50059836,-0.236618633,0.253004811,0.23066103,0.60342515,40676331,0,1,0,0,0
40708470,0.005528879,0.088285548,0.031695864,0.6013217,0.0,1516.0,1500.0,1597.0,1503.0,1496.0,1541.7979599999999,18.72486044,19.13722574,12.0776964,18.18006365,18.11428839,18.51349963,18.26208637,18.66455554,205.4977046,205.4977046,12.07620619,-0.0016648070000000001,-0.006075538,0.001251978,-0.206065119,0.209088172,-0.073499235,2.0,-0.26285257100000003,0.7371474290000001,11,0,0,1,0,0.0,0,0,0,0,0,0.629717349,0.324617414,-1.0394967659999998,-0.798332783,16.72186082,226.2973828,54.07646773,-0.022727792,-0.018270994,0.010225368,0.0,3.287158277,0.825252735,-16.04000122,-5.75e+18,960.353785,12.07778108,0.649614261,0.346159155,0.24590251899999999,3.64419869,0.8630940340000001,-16.13140291,0.45151397299999996,0.39468697700000005,0.324446275,-5.75e+18,57.20483699,53.23274741,4.19544351,5.120604335,15.3322927,19.69361009,-0.087226352,1.094834647,-0.25514153300000003,42.87104106,450.0160304,12.0776964,96035.23211,1.1410574279999999,-0.29897052399999996,0.55468375,-0.080567819,0.496710841,0.38937986399999996,0.294574447,0.608009517,0.325319869,-1.011571347,0.800174103,0.333269224,-0.007945497,-0.49858209700000006,0.60402119,398701031.1,327343067.6,450272.3319,18.74266853,-6.7480316060000005,-17.48072815,-3.264474895,4.3436331610000005,0,0,0.0,764000,39.8714138,32.7364368,-146.3027639,-183.48813619999999,-50.45053287,-5.953318392999999,-17.9048663,-3.612035108,8.477673297,-3.028823299,-3.8131899380000003,50.62068885,-0.24598974899999998,0.24780152800000002,0.22854071199999998,0.6035965,40708470,0,1,0,0,0
40740608,0.0034742329999999997,0.087785435,0.033138399,0.5992069999999999,0.0,1517.0,1500.0,1595.0,1505.0,1494.0,1541.0,18.70185628,19.11394005,12.07687931,18.27493555,18.20949375,18.61085274,18.35716753,18.76178214,207.4952773,207.4952773,12.07577477,-0.001663075,-0.006075512,0.001250497,-0.206082921,0.20902114800000002,-0.073341539,2.0,-0.26025205,0.73974795,11,0,0,1,0,0.0,0,0,0,0,0,0.623407701,0.324771803,-1.0301554929999999,-0.79633889,16.24111083,225.78683109999997,54.08828973,-0.022802962000000003,-0.018369529,0.009986349,0.0,3.2778124010000003,0.840913659,-16.02933825,-1.84e+20,960.3465426000001,12.07696822,0.604764424,0.349460134,0.264482004,3.6743885360000004,0.894504764,-16.15710416,0.413169048,0.39275918299999996,0.32752443600000003,-1.84e+20,57.37370175,53.408826100000006,4.195552881,5.1686466310000005,15.33232386,19.68612402,-0.087076006,1.049298246,-0.255371849,43.2611995,450.09105530000005,12.07687931,96034.3559,1.141047039,-0.93254003,1.06452857,0.499296991,0.459281614,0.39989804,0.306184224,0.6017529629999999,0.325461016,-1.002295015,0.803498398,0.330820255,-0.004791177,-0.494896771,0.604204449,398701008.6,327342996.4,450379.3309,18.76539708,-6.508507702,-17.60486097,-3.427071414,4.357974943,0,0,0.0,764000,39.8714138,32.7364368,-146.5090766,-184.155258,-50.59459475,-5.627710147,-18.0086603,-3.7458946980000003,8.746829932999999,-2.859307657,-3.6442034210000003,50.76475006,-0.258261421,0.242073932,0.22420359399999998,0.603882676,40740608,0,1,0,0,0
40776747,-0.005249338,0.085929545,0.034691334,0.5984974000000001,0.0,1518.0,1500.0,1594.0,1507.023005,1491.976995,1541.0,18.72784624,19.14052124,12.076026800000001,18.36980745,18.30469911,18.70820585,18.4522487,18.85900874,209.49285,209.49285,12.07534336,-0.0016613420000000001,-0.006075486,0.001249017,-0.206100723,0.208954124,-0.073183842,2.0,-0.25765153,0.74234847,11,0,0,1,0,0.0,0,0,0,0,0,0.617098053,0.32492619100000003,-1.020814219,-0.794344997,15.76036085,225.27627940000002,54.10011173,-0.02287785,-0.018448699,0.009724001999999999,0.0,3.26933115,0.8566267390000001,-16.01762227,-3.73e+20,960.339574,12.07615272,0.571518188,0.35471111299999997,0.278208313,3.42283976,0.813382308,-16.05957177,0.374652039,0.39048781899999996,0.330232037,-3.73e+20,57.54256652,53.58490478,4.195662252,5.216688928,15.33235502,19.67863795,-0.086925659,1.003761846,-0.25560216399999997,43.65135795,450.0393818,12.076026800000001,96034.95868,1.141054195,-1.194606972,-0.13991779999999998,0.86215965,0.418149592,0.406004927,0.318983364,0.597587037,0.32558896800000003,-0.991132627,0.806917476,0.329187042,-0.001869724,-0.490420691,0.604375736,398700989.5,327342920.8,450513.9366,18.76860572,-6.2062412479999995,-17.70668534,-3.5743308239999996,4.374993573,0,0,0.0,764000,39.8714138,32.7364368,-146.7149657,-184.82425,-50.73940619,-5.300489963,-18.11224118,-3.879558695,9.01411496,-2.688740407,-3.4752497589999995,50.90956079,-0.262256565,0.239447302,0.222802102,0.6040671999999999,40776747,0,1,0,0,0
40808885,-0.010093575,0.083054348,0.034172854,0.596837653,0.0,1518.0,1500.0,1593.0,1510.0,1489.0,1541.0,18.78149117,19.19547537,12.07511991,18.46467935,18.39990447,18.80555896,18.54732986,18.95623534,211.49042269999998,211.49042269999998,12.07491194,-0.00165961,-0.00607546,0.001247536,-0.206118525,0.208887099,-0.073026146,2.0,-0.25505101,0.74494899,11,0,0,1,0,0.0,0,0,0,0,0,0.610788405,0.325080579,-1.011472946,-0.7923511040000001,15.27961086,224.76572769999999,54.11193373,-0.022943402,-0.018507658,0.009475502,0.0,3.256484903,0.8741678829999999,-15.9994815,-5.32e+20,960.3305876000001,12.07532485,0.535144199,0.36518464799999995,0.288359238,3.319330382,0.891972805,-16.00152819,0.337149262,0.38962598,0.33187365,-5.32e+20,57.71148093,53.76619178,4.195331155,5.249075706,15.33248139,19.670132199999998,-0.086753016,0.965027394,-0.255831382,44.03787804,450.29237340000003,12.07511991,96032.03491,1.14101946,-1.1438819679999999,-0.41387897,0.696866925,0.37967420700000004,0.409848689,0.321117692,0.5900423370000001,0.32570830100000003,-0.9837994179999999,0.809930733,0.32616366199999997,0.001228265,-0.487469395,0.604541817,398700971.3,327342844.0,450655.5529,18.76685737,-5.888041607999999,-17.80284457,-3.717695445,4.392691977,0,0,0.0,764000,39.8714138,32.7364368,-146.9133378,-185.4860844,-50.88435906,-4.974350112,-18.21194422,-4.008806558,9.258501415,-2.520509847,-3.303801871,51.054513,-0.268376968,0.23634698699999998,0.22010667899999997,0.6042161070000001,40808885,0,1,0,0,0
40845023,-0.013882145,0.082746344,0.035635855,0.5949055999999999,0.0,1520.0,1500.0,1593.0,1514.0,1485.0,1541.0,18.75712084,19.17071531,12.07421015,18.55955125,18.49510983,18.90291207,18.64241102,19.05346194,213.4879954,213.4879954,12.07448053,-0.001657877,-0.006075434,0.001246055,-0.206136326,0.208820075,-0.07286845,2.0,-0.25245049,0.74754951,11,0,0,1,0,0.0,0,0,0,0,0,0.604478757,0.325234968,-1.002131673,-0.7903572109999999,14.79886087,224.25517599999998,54.12375573,-0.023010595,-0.018561796000000002,0.009206679,0.0,3.221196556,0.901107797,-15.94830848,-5.32e+20,960.3112279,12.07443346,0.5059201489999999,0.376367977,0.294875761,3.341074473,0.824295543,-15.98887041,0.30486103600000003,0.39601105200000003,0.328034614,-5.32e+20,57.88041875,53.94993486,4.194792347,5.274079782,15.33265268,19.6611456,-0.08656985800000001,0.92950055,-0.256060081,44.42268237,450.45850369999994,12.07421015,96030.16636,1.140997258,-0.890440993,0.22604374600000002,0.512172785,0.34308703799999996,0.409034742,0.32236251,0.5864541010000001,0.32582891399999997,-0.972485905,0.813242102,0.324716125,0.003990133,-0.482883715,0.604687922,398700953.1,327342767.3,450797.1692,18.76510902,-5.5698419679999995,-17.8990038,-3.861060065,4.410390381,0,0,0.0,764000,39.8714138,32.7364368,-147.0730613,-186.1111196,-51.03003909,-4.653764661,-18.29170979,-4.115349405,9.385157627,-2.364293096,-3.11953022,51.20019267,-0.27472505399999997,0.233189545,0.21716639699999998,0.60442436,40845023,0,1,0,0,0
40881162,-0.020807507,0.082476486,0.037426504,0.593991866,0.0,1520.0,1500.0,1593.0,1515.0,1484.0,1540.745549,18.79973462,19.21432146,12.07325772,18.65442315,18.59031519,19.00026518,18.73749218,19.15068853,215.48556800000003,215.48556800000003,12.07404911,-0.001656144,-0.006075408000000001,0.001244574,-0.20615412800000002,0.20875305100000002,-0.072710754,2.0,-0.24984997,0.75015003,11,0,0,1,0,0.0,0,0,0,0,0,0.598169109,0.325389356,-0.9927904000000001,-0.7883633179999999,14.31811089,223.74462430000003,54.13557773,-0.023081882999999997,-0.018621919,0.008908042,0.0,3.185908209,0.9280477109999999,-15.89713546,-5.32e+20,960.2918681,12.07354207,0.466418758,0.384632154,0.305846015,3.175135492,0.994714159,-16.08712487,0.27257281,0.402396125,0.324195577,-5.32e+20,58.04935657,54.13367795,4.194253538,5.299083858,15.33282396,19.652159,-0.086386701,0.893973705,-0.256288781,44.80748671,450.5656847,12.07325772,96028.92508,1.140982479,-0.86192694,-0.247910856,0.19006116,0.303169591,0.414153516,0.32382064899999996,0.573789832,0.325939713,-0.970749029,0.815687253,0.319577202,0.007373988000000001,-0.482151365,0.604790287,398700935.0,327342690.5,450938.7856,18.76336067,-5.251642328,-17.99516303,-4.004424686,4.428088785,0,0,0.0,764000,39.8714138,32.7364368,-147.23278480000002,-186.7361547,-51.17571912,-4.333179211,-18.37147536,-4.221892253,9.511813839,-2.208076345,-2.935258568,51.34587235,-0.27963410699999997,0.229748124,0.214779141,0.604613882,40881162,0,1,0,0,0
40929300,-0.026395172,0.082410373,0.039901245,0.593218985,0.0,1521.0,1500.0,1593.0,1518.0,1481.0,1540.0,18.79799105,19.21273066,12.07227318,18.74929505,18.68552055,19.09761829,18.83257334,19.24791513,217.48314069999998,217.48314069999998,12.07361769,-0.001654412,-0.006075383,0.001243093,-0.20617193,0.20868602600000002,-0.072553058,2.0,-0.24724945,0.75275055,11,0,0,1,0,0.0,0,0,0,0,0,0.591859461,0.32554374399999997,-0.9834491259999999,-0.786369425,13.8373609,223.2340726,54.14739973,-0.023140578999999998,-0.018671076,0.008668293,0.0,3.1521954130000003,0.934729155,-15.84253625,-5.32e+20,960.2722470000001,12.07253451,0.43374659600000004,0.38934392,0.319865995,3.221731063,0.911669045,-16.05059931,0.240676599,0.40546802299999996,0.320729628,-5.32e+20,58.21829439,54.31742103,4.193714729,5.324087934,15.33299524,19.64317241,-0.08620354300000001,0.8584468609999999,-0.256517481,45.19229105,450.7636493,12.07227318,96026.64321000001,1.14095533,-0.45383475799999995,-0.248830697,-0.067557503,0.269459457,0.413500583,0.319508886,0.570622408,0.326040897,-0.959288131,0.81892729,0.318252086,0.010003743,-0.47746179299999997,0.6045783060000001,398700916.8,327342613.8,451080.4019,18.76161232,-4.933442689,-18.09132226,-4.147789306,4.445787189,0,0,0.0,764000,39.8714138,32.7364368,-147.384252,-187.3825764,-51.32939561,-3.9984101180000002,-18.44693242,-4.3261477919999995,9.632452822000001,-2.023747167,-2.757633606,51.49954887,-0.284065099,0.226848863,0.21249518899999997,0.6047299,40929300,0,1,0,0,0
40965439,-0.030336952,0.082462728,0.041361554,0.5931065999999999,0.0,1522.0,1500.0,1593.0,1520.075415,1478.924585,1540.0,18.81833369,19.23369413,12.07125947,18.76352618,18.70238742,19.1150195,18.84633016,19.26213816,217.6967982,217.6967982,12.07247145,-0.001652014,-0.006076521,0.0012344930000000001,-0.206219508,0.208445552,-0.072361808,2.0,-0.24464893,0.75535107,11,0,0,1,0,0.0,0,0,0,0,0,0.585549813,0.325698133,-0.974107853,-0.7843755309999999,13.35661091,222.72352090000004,54.15922173,-0.023202338,-0.018719263,0.008405018,0.0,3.1213330239999997,0.904760023,-15.78173856,-5.32e+20,960.2521534,12.07131678,0.39680825700000005,0.39076985299999994,0.32588625600000004,3.1997808439999997,0.922945432,-16.00916696,0.20948960000000003,0.40254590100000004,0.31793864899999996,-5.32e+20,58.38723221,54.50116412,4.193175921,5.34909201,15.33316652,19.63418581,-0.08602038599999999,0.822920016,-0.25674618,45.57709539,450.88222980000006,12.07125947,96025.28306,1.140939268,-0.691250887,0.12220585,-0.35145859399999996,0.235480219,0.418458285,0.31730696399999997,0.567696995,0.326134223,-0.947810575,0.82210706,0.317006664,0.01256297,-0.472745775,0.604333506,398700899.1,327342537.0,451223.6369,18.75931986,-4.612930585,-18.184488899999998,-4.286665037,4.463575808,0,0,0.0,764000,39.8714138,32.7364368,-147.5207823,-188.0676896,-51.497538899999995,-3.637980715,-18.51459474,-4.426265252,9.742205745,-1.788558439,-2.59203349,51.66769286,-0.29371675199999997,0.221092232,0.206956558,0.60479414,40965439,0,1,0,0,0
41001577,-0.034975806,0.081708665,0.042548523,0.59325496,0.0,1523.0,1500.0,1593.0,1522.0,1477.0,1540.0,18.89151847,19.30849331,12.07024581,18.775903500000002,18.7174534,19.13058273,18.85821746,19.27445306,217.8694461,217.8694461,12.07130877,-0.0016495999999999998,-0.006077686,0.0012257289999999998,-0.20626777100000002,0.20820109,-0.072169788,2.0,-0.24204841,0.75795159,11,0,0,1,0,0.0,0,0,0,0,0,0.579240164,0.325852521,-0.96476658,-0.7823816379999999,12.87586092,222.21296919999997,54.17104373,-0.023266178,-0.018766417,0.00812911,0.0,3.090470635,0.874790891,-15.72094087,-5.32e+20,960.2320597000001,12.07009904,0.364010103,0.394825715,0.324258576,3.110555329,0.957621444,-16.064856,0.178302601,0.399623778,0.31514767,-5.32e+20,58.55617003,54.684907200000005,4.192637112,5.374096086000001,15.33333781,19.62519921,-0.085837228,0.787393171,-0.25697488,45.96189972,450.9525949,12.07024581,96024.46787000001,1.140929508,-0.932179165,0.622828414,-0.21210659,0.198085344,0.417020228,0.31319481600000004,0.558066003,0.32623846,-0.943307096,0.824670158,0.313029606,0.01558956,-0.470831548,0.604106231,398700887.4,327342460.1,451386.0586,18.75057812,-4.265008983,-18.24218444,-4.372334223,4.4824337530000005,0,0,0.0,764000,39.8714138,32.7364368,-147.65731259999998,-188.7528028,-51.66568219,-3.277551312,-18.58225707,-4.526382711,9.851958667,-1.5533697119999998,-2.426433374,51.83583686,-0.297024935,0.21848327899999997,0.204396758,0.6045039000000001,41001577,0,1,0,0,0
41041716,-0.039161432999999995,0.081378264,0.044712245,0.59339404,0.0,1523.0,1500.0,1594.0,1524.0,1475.0,1540.0,18.88557247,19.30259138,12.06918783,18.78828082,18.73251937,19.14614596,18.87010475,19.28676796,218.042094,218.042094,12.07014609,-0.001647187,-0.006078851,0.0012169639999999998,-0.20631603399999998,0.207956628,-0.071977767,2.0,-0.23944789,0.76055211,11,0,0,1,0,0.0,0,0,0,0,0,0.572930516,0.326006909,-0.9554253070000001,-0.780387745,12.39511094,221.70241749999997,54.18286573,-0.023326666,-0.018804104,0.007850318,0.0,3.090092265,0.85463728,-15.66444255,-5.32e+20,960.2136777999999,12.06897678,0.320089797,0.39679138799999997,0.330064853,3.1364948110000004,0.9126478109999999,-15.98998454,0.14862831599999998,0.39611905,0.313220418,-5.32e+20,58.74623725,54.89483777,4.191755953,5.379597545,15.33353423,19.61613243,-0.085651964,0.7548283140000001,-0.257231029,46.38661425,451.20167239999995,12.06918783,96021.62561,1.140895746,-1.1629933890000002,0.5842618039999999,-0.423358713,0.16814325100000002,0.414690895,0.30981169,0.552323815,0.326330087,-0.934938209,0.8275183840000001,0.310605348,0.018280493999999998,-0.46733513200000004,0.6038398620000001,398700875.7,327342383.2,451548.4803,18.74183637,-3.9170873810000004,-18.29987998,-4.45800341,4.501291697,0,0,0.0,764000,39.8714138,32.7364368,-147.7697499,-189.4120036,-51.83170103,-2.930004785,-18.63722339,-4.614614116,9.892321326,-1.366249166,-2.291073882,52.00185564,-0.294048687,0.217986701,0.204567212,0.60433084,41041716,0,1,0,0,0
41073854,-0.043700089000000004,0.0813569,0.046033265,0.59377087,0.0,1524.0,1500.0,1594.0,1526.0,1473.0,1540.0,18.83973251,19.25594622,12.06809906,18.80065814,18.74758535,19.16170919,18.88199205,19.29908286,218.2147418,218.2147418,12.06898341,-0.001644773,-0.006080016,0.0012082,-0.206364297,0.207712166,-0.071785746,2.0,-0.23684736899999997,0.763152631,11,0,0,1,0,0.0,0,0,0,0,0,0.5664020329999999,0.326150955,-0.946626497,-0.7784965770000001,11.94045749,221.17967280000002,54.19334761,-0.023381379,-0.01883699,0.007573071999999999,0.0,3.114743207,0.842542833,-15.61147428,-5.32e+20,960.1967015,12.0679329,0.295230277,0.39730452,0.324595072,3.111589267,0.887658775,-15.96598955,0.120196063,0.392135966,0.31200234,-5.32e+20,58.93632852,55.10479813,4.190874404,5.385076817000001,15.33373069,19.60706556,-0.08546669800000001,0.722266827,-0.25748721,46.81137417,451.4038245,12.06809906,96019.29207000001,1.140867982,-0.529961993,0.9346840209999999,-0.024151642,0.135273058,0.40781595600000003,0.308828323,0.545327922,0.326428752,-0.927837835,0.830240042,0.307654386,0.02104917,-0.464331134,0.603590685,398700863.9,327342306.2,451710.902,18.73309462,-3.569165779,-18.35757552,-4.543672596,4.520149641000001,0,0,0.0,764000,39.8714138,32.7364368,-147.8624053,-190.04992869999998,-51.99597557,-2.593035915,-18.68176549,-4.693086315,9.875710178,-1.218595644,-2.180543861,52.16612946,-0.304143615,0.212642792,0.199075534,0.604072823,41073854,0,1,0,0,0
41109992,-0.048727692,0.080665844,0.047260033,0.59424007,0.0,1525.0,1500.0,1595.0,1527.717343,1471.282657,1539.0,18.90379219,19.32154184,12.06700979,18.81303546,18.76265133,19.17727242,18.89387935,19.31139777,218.3873897,218.3873897,12.06782073,-0.001642359,-0.00608118,0.0011994360000000001,-0.20641256,0.207467705,-0.071593726,2.0,-0.23424684899999998,0.765753151,11,0,0,1,0,0.0,0,0,0,0,0,0.558801257,0.326244319,-0.94048576,-0.7771087609999999,11.61367711,220.5971824,54.19726293,-0.023438161000000002,-0.018878612,0.0072988459999999995,0.0,3.13939415,0.8304483859999999,-15.558506,-5.32e+20,960.1797251,12.06688903,0.252393988,0.404119219,0.322105701,3.177353195,0.905195486,-15.86712522,0.091763811,0.38815288200000003,0.310784263,-5.32e+20,59.12641979,55.31475849,4.189992854,5.3905560889999995,15.33392714,19.597998699999998,-0.08528143099999999,0.6897053390000001,-0.25774339,47.2361341,451.46183489999993,12.06700979,96018.61034,1.140859874,-0.988485325,0.181273972,-0.184749782,0.110208062,0.4076494,0.30946899899999997,0.537429885,0.326519613,-0.9216738000000001,0.832864492,0.304319544,0.023860943,-0.461687887,0.603473713,398700852.2,327342229.3,451873.3237,18.72435287,-3.221244178,-18.41527105,-4.629341782,4.539007586,0,0,0.0,764000,39.8714138,32.7364368,-147.9550608,-190.68785369999998,-52.1602501,-2.256067046,-18.72630759,-4.771558515,9.859099031,-1.070942122,-2.070013839,52.33040329,-0.30468873,0.210479618,0.197941722,0.6038286,41109992,0,1,0,0,0
41152262,-0.052860868,0.080489169,0.049046587,0.59499407,0.0,1526.0,1500.0,1596.0,1529.0,1470.0,1539.0,18.87029045,19.28744216,12.06589195,18.82541278,18.77771731,19.19283566,18.90576664,19.32371267,218.56003760000002,218.56003760000002,12.06665805,-0.001639946,-0.006082345,0.001190672,-0.20646082300000002,0.207223243,-0.071401705,2.0,-0.23164632899999998,0.768353671,11,0,0,1,0,0.0,0,0,0,0,0,0.551200481,0.32633768399999996,-0.934345023,-0.775720945,11.28689673,220.014692,54.20117824,-0.02349451,-0.018921788999999998,0.007033981,0.0,3.1417724989999996,0.7946294859999999,-15.40650832,-5.32e+20,960.160739,12.06581289,0.225847021,0.407900095,0.316719646,3.094035935,0.759552001,-15.73834265,0.066104679,0.38614817,0.308944992,-5.32e+20,59.31651105,55.52471885,4.189111305,5.396035361,15.3341236,19.58893183,-0.085096165,0.657143852,-0.25799957100000004,47.66089403,451.6553988,12.06589195,96016.36157000001,1.1408331729999999,-0.668074804,-0.13719980199999998,0.001170558,0.077038633,0.39777038600000003,0.302031205,0.53026629,0.326621552,-0.9149393020000001,0.8354851040000001,0.301265719,0.0265728,-0.45879644799999997,0.603418416,398700840.5,327342152.4,452035.7453,18.71561112,-2.873322576,-18.47296659,-4.715010969,4.55786553,0,0,0.0,764000,39.8714138,32.7364368,-148.02577730000002,-191.3682737,-52.34000016,-1.8991891840000001,-18.76078329,-4.84334241,9.841410767000001,-0.914313519,-1.950314628,52.51015316,-0.30654752399999996,0.207810252,0.196179976,0.60365826,41152262,0,1,0,0,0
41186269,-0.054980702,0.079867935,0.050072737,0.5954828000000001,0.0,1526.0,1500.0,1596.538308,1530.076615,1468.923385,1539.0,18.89683608,19.31484652,12.0647576,18.837790100000003,18.79278329,19.20839889,18.91765394,19.33602757,218.7326855,218.7326855,12.06549537,-0.0016375320000000001,-0.00608351,0.001181908,-0.206509086,0.20697878100000003,-0.07120968400000001,2.0,-0.229045809,0.770954191,11,0,0,1,0,0.0,0,0,0,0,0,0.543599705,0.326431049,-0.928204285,-0.7743331290000001,10.96011635,219.43220159999998,54.20509356,-0.023551289,-0.018959692,0.00677342,0.0,3.136417778,0.7505734279999999,-15.22012751,-5.32e+20,960.141055,12.06472555,0.19278549,0.40677723600000004,0.31417873,3.117150335,0.823644077,-15.68951635,0.041408377999999996,0.384830351,0.30689004,-5.32e+20,59.50660232,55.73467921,4.188229756,5.401514633,15.33432005,19.57986496,-0.08491089800000001,0.624582364,-0.25825575100000003,48.08565396,451.9067037,12.0647576,96013.49227999999,1.140799093,-0.532636609,-0.028969848,-0.325948949,0.060335337,0.399199526,0.302602363,0.527469813,0.326727029,-0.9042350290000001,0.8383354670000001,0.299967793,0.028867337000000003,-0.454287349,0.6033442760000001,398700831.1,327342075.6,452202.5499,18.7074955,-2.527279362,-18.52064413,-4.79754951,4.576548635,0,0,0.0,764000,39.8714138,32.7364368,-148.0888765,-192.063448,-52.52512334,-1.535398896,-18.79176393,-4.912804118,9.823348527,-0.754568756,-1.8274318630000002,52.69527634,-0.31471008100000003,0.203362198,0.19220584699999999,0.60347104,41186269,0,1,0,0,0
