timestamp,control[0],control[1],control[2],control[3],control[4],output[2],output[3],output[4],output[5],output[6],output[7],indicated_airspeed_m_s,true_airspeed_m_s,indicated_airspeed_m_s.1,equivalent_airspeed_m_s,true_airspeed_m_s.1,equivalent_ground_minus_wind_m_s,true_ground_minus_wind_m_s,Unnamed: 6,Unnamed: 7,differential_pressure_raw_pa,differential_pressure_filtered_pa,temperature,gyro_bias[0],gyro_bias[1],gyro_bias[2],accel_bias[0],accel_bias[1],accel_bias[2],instance_count,seq_reached,seq_current,seq_total,item_changed_index,item_do_jump_remaining,valid,warning,finished,failure,stay_in_failsafe,flight_termination,item_do_jump_changed,execution_mode,nav_roll,nav_pitch,nav_bearing,target_bearing,xtrack_error,wp_dist,acceptance_radius,rollspeed_integ,pitchspeed_integ,yawspeed_integ,additional_integ1,x,y,z,temperature.1,pressure,temperature.2,gyro_rad[0],gyro_rad[1],gyro_rad[2],accelerometer_m_s2[0],accelerometer_m_s2[1],accelerometer_m_s2[2],x.1,y.1,z.1,temperature.3,altitude_sp,altitude_filtered,height_rate_setpoint,height_rate,airspeed_sp,airspeed_filtered,airspeed_derivative_sp,airspeed_derivative,throttle_integ,pitch_integ,timestamp_sample,baro_device_id,baro_alt_meter,baro_temp_celcius,baro_pressure_pa,rho,xyz[0],xyz[1],xyz[2],xyz[0].1,xyz[1].1,xyz[2].1,roll_body,pitch_body,yaw_body,q_d[0],q_d[1],q_d[2],q_d[3],thrust_body[0],lat,lon,alt,vel_m_s,vel_n_m_s,vel_e_m_s,vel_d_m_s,cog_rad,ground_contact,maybe_landed,landed,ref_lat,ref_lon,x.2,y.2,z.2,vx,vy,vz,ax,ay,az,yaw,dist_bottom,roll,pitch,yaw.1,thrust_body[0].1,timestamp.1,isTakeoff,isClimbing,isDescending,isCruise,isLand
21003401,-0.031600743,-0.094172844,-0.022228286,0.33664501799999996,0.0,1489.0,1500.0,1309.0,1508.0,1491.0,1448.0,16.74681869,17.120309,16.82901466,16.85491746,17.230730899999998,16.78820745,17.16253152,,,174.3516554,174.3516554,12.0414049,-0.0017099510000000001,-0.006522981999999999,0.002729462,-0.104396285,0.016964962,-0.098929354,2.0,-1.0,0.0,11,0,0,1,0,0.0,0,0,0,0,0,-0.845621286,0.212581191,0.563182948,0.15066868,-29.88948659,181.377878,55.22687699,-0.022046477000000002,-0.038358901,-0.007377646,0.0,-0.014791241,0.24589854600000002,-6.747195822,-7.209999999999999e-21,959.7075053,12.04044572,-0.018849122,-0.172957275,-0.030845677999999998,-1.038230607,0.262031962,-6.768242472000001,-0.051946587999999995,-0.163827787,-0.025429979,-7.209999999999999e-21,53.76091008,56.84739042,3.78173525,1.629950384,15.33517161,19.401031699999997,-0.081317207,1.8976040140000001,-0.163495656,-25.64768478,15187851.17,6620172,430.32451510000004,12.20608992,96261.94712000001,1.143751103,0.11882233699999999,-0.14567621,-0.23538108300000002,-0.02244929,-0.159615757,-0.03956404,-0.862706027,0.219496324,0.522421052,0.8604788409999999,-0.427180834,-0.011204481,0.277423248,0.54280056,398713732.6,327393297.9,455783.9638,17.35490698,0.634024783,17.33940333,-1.8247829569999998,1.5338024609999998,0,0,0.0,39.8714138,32.7364368,-4.370630685,250.45157169999996,-56.10555791,0.641861599,17.03962092,-1.109582868,0.235159748,-0.390249754,3.125252628,1.5052023159999999,56.22668128,-0.342940389,0.359921549,-0.16843846399999998,0.542877,21003401,0,1,0,0,0
21035782,-0.05163505400000001,-0.08095812,-0.021875861,0.37037957,0.0,1488.0,1500.0,1341.0,1517.0,1482.0,1454.0,16.74289342,17.11633575,16.75475698,16.78069621,17.15494477,16.71160405,17.08431002,,,172.76187990000003,172.76187990000003,12.04075225,-0.001708951,-0.006522,0.0027236870000000002,-0.10442665,0.016908792,-0.099006897,2.0,-1.0,0.0,11,0,0,1,0,0.0,0,0,0,0,0,-0.8500958759999999,0.215106687,0.54631228,0.147152384,-29.22536559,181.1687146,55.371083299999995,-0.022027972000000003,-0.038250921,-0.007101476999999999,0.0,1.010845016,0.202981043,-6.786994677999999,-7.209999999999999e-21,959.7016872000002,12.04025166,-0.019703069,-0.170715363,-0.026570929,-0.9857372320000001,0.187642633,-6.733177464,-0.076993376,-0.151291345,-0.022813088,-7.209999999999999e-21,53.92525591,56.89686381,3.799017407,1.704347738,15.335196,19.5234223,-0.083764532,1.876587599,-0.164102948,-25.52463706,15226590.92,6620172,430.2746295,12.20487824,96262.49406,1.143757587,0.133565225,-0.579580433,-0.075004356,-0.014452072,-0.162502119,-0.033913212000000005,-0.8654590240000001,0.221227239,0.505105173,0.8620866229999999,-0.42860666399999997,-0.007111068000000001,0.270280393,0.542664471,398713734.7,327393370.2,455847.6877,17.30281656,0.647915554,17.28557639,-1.7032386480000001,1.5329236259999999,0,0,0.0,39.8714138,32.7364368,-4.348515297,251.031094,-56.1404186,0.652237544,17.03160492,-1.002648121,0.29915766,0.514679866,3.051968645,1.504642065,56.26154233,-0.322452556,0.366309786,-0.17305942100000002,0.543692666,21035782,0,1,0,0,0
21072162,-0.066932391,-0.068575092,-0.02161628,0.397673965,0.0,1489.0,1500.0,1396.0,1534.0,1465.0,1464.0,16.66598186,17.03786765,16.81572894,16.84176929,17.217425600000002,16.77102621,17.145102899999998,,,174.1697686,174.1697686,12.04047073,-0.001707951,-0.006521018000000001,0.002717911,-0.104457016,0.016852622,-0.099084441,2.0,-1.0,0.0,11,0,0,1,0,0.0,0,0,0,0,0,-0.854570466,0.217632183,0.5294416120000001,0.143636088,-28.56124459,180.9595512,55.51528960000001,-0.022010361000000003,-0.038146335,-0.006808951999999999,0.0,1.9327556909999999,0.18679100199999998,-6.891811949,0.9296510020000001,959.6969439,12.04006935,-0.031388832,-0.166164945,-0.027436305,0.8772656209999999,0.239742722,-6.771785622,-0.107326559,-0.13398881599999998,-0.021262554,0.9296510020000001,54.09129176,56.95843706,3.809497333,1.7679406969999998,15.33523559,19.61010004,-0.085497296,1.8250652719999998,-0.164741375,-25.34744331,15261161.83,6620172,430.6281625,12.20366656,96258.41864,1.143709253,-0.296785743,-0.190767753,0.199941605,-0.016316713,-0.15686002300000002,-0.032881369,-0.8650604609999999,0.22284195899999998,0.49458867799999995,0.863419515,-0.428607154,-0.004088994,0.266050415,0.5430384070000001,398713736.8,327393442.4,455911.4117,17.25072615,0.661806325,17.23174945,-1.581694339,1.532044791,0,0,0.0,39.8714138,32.7364368,-4.325560777,251.6222009,-56.17350141,0.664044094,17.04228338,-0.897061496,0.36155977200000006,1.335821372,2.94540862,1.5040995959999999,56.29462549,-0.29964359399999996,0.371746443,-0.17849045600000002,0.5445211999999999,21072162,0,1,0,0,0
21104543,-0.095289329,-0.05012744,-0.020984707000000002,0.44179147,0.0,1489.0,1500.0,1420.0,1539.292859,1459.707141,1470.0,16.77908302,17.15347042,16.90211319,16.92826681,17.30588948,16.85601021,17.23201928,,,176.1409768,176.1409768,12.04025896,-0.001706951,-0.006520036999999999,0.002712136,-0.10448738099999999,0.016796452,-0.099161985,2.0,-1.0,0.0,11,0,0,1,0,0.0,0,0,0,0,0,-0.8590450559999999,0.220157679,0.512570944,0.140119792,-27.89712359,180.7503878,55.6594959,-0.021991362,-0.038040589,-0.00652055,0.0,2.483565256,0.266224347,-7.229246915,5.1853331780000005,959.6960461000001,12.03992902,-0.056915487,-0.154406343,-0.025975544,1.484723795,0.261993823,-6.79986525,-0.156572984,-0.099634567,-0.023527147999999998,5.1853331780000005,54.25732761,57.02001031,3.819977259,1.8315336569999998,15.33527519,19.69677778,-0.087230059,1.7735429459999998,-0.165379801,-25.17024956,15297817.16,6620172,430.7316234,12.20247173,96257.2601,1.143695479,-0.35372079,-0.00989361,0.101272512,-0.013141372,-0.156805239,-0.034226694,-0.867027599,0.224370527,0.478160397,0.8650025290000001,-0.429606053,-0.000144185,0.25924049600000004,0.543751558,398713738.9,327393513.6,455964.95200000005,17.21145429,0.674272815,17.19287765,-1.461574315,1.531277805,0,0,0.0,39.8714138,32.7364368,-4.29960408,252.25475440000002,-56.20022344,0.6809689529999999,17.11984546,-0.7962980759999999,0.41825255899999997,1.857192449,2.719796229,1.503620749,56.32134787,-0.284074537,0.37495015,-0.180982246,0.5454372,21104543,0,1,0,0,0
21144924,-0.105881105,-0.038219197,-0.021327575,0.464805941,0.0,1489.0,1500.0,1460.0,1553.0,1446.0,1479.0,16.850089399999998,17.22610083,16.98849744,17.01476433,17.39435337,16.94099422,17.31893566,,,178.112185,178.112185,12.04004719,-0.001704365,-0.00651784,0.002703596,-0.10445779599999999,0.016627308,-0.099214855,2.0,-1.0,0.0,11,0,0,1,0,0.0,0,0,0,0,0,-0.863519646,0.222683175,0.495700276,0.136603496,-27.23300259,180.5412243,55.80370221,-0.021973827999999997,-0.037935069,-0.00621813,0.0,3.034374821,0.345657692,-7.56668188,9.441015355,959.6951482000001,12.03978869,-0.093982915,-0.133050905,-0.02209544,2.229625592,0.28649330300000003,-7.096599059,-0.205819408,-0.065280317,-0.025791742000000003,9.441015355,54.42336345,57.08158356,3.830457185,1.895126616,15.33531479,19.78345552,-0.08896282300000001,1.722020619,-0.16601822800000002,-24.99305581,15334472.49,6620172,430.883041,12.2012733,96255.47449,1.14367428,-1.6814341769999999,0.090730534,0.106435147,-0.012479437,-0.151476673,-0.034388759,-0.86735607,0.225798487,0.465014666,0.866474912,-0.429853886,0.003272986,0.253822855,0.544869716,398713741.2,327393583.2,456003.8462,17.19061812,0.6846908979999999,17.17551435,-1.343502701,1.5306716809999998,0,0,0.0,39.8714138,32.7364368,-4.273647383999999,252.8873079,-56.22694547,0.697893813,17.19740753,-0.695534655,0.474945345,2.378563525,2.494183838,1.5031419030000002,56.34807026,-0.261243724,0.381471441,-0.18483640199999998,0.54698694,21144924,0,1,0,0,0
21181305,-0.12698209400000002,-0.022629261,-0.021430812999999996,0.49312168,0.0,1489.0,1500.0,1477.0,1556.383877,1442.616123,1484.0,16.84478627,17.22061316,17.07488169,17.10126185,17.48281725,17.02597823,17.40585205,,,180.0833932,180.0833932,12.03983542,-0.001701265,-0.006515251,0.002694163,-0.10440882900000001,0.016421638,-0.09925974800000001,2.0,-1.0,0.0,11,0,0,1,0,0.0,0,0,0,0,0,-0.8645546940000001,0.224209052,0.481754742,0.133147387,-26.58373687,180.2833685,55.8594831,-0.021953871,-0.037835102999999995,-0.005918989,0.0,3.456736493,0.397635061,-7.9562056310000004,10.38270847,959.6935471,12.03966102,-0.151242384,-0.09706836099999999,-0.02011086,2.674018138,0.251002199,-7.347344277,-0.25946864,-0.031489042,-0.028378265,10.38270847,54.589399300000004,57.1431568,3.840937111,1.958719575,15.33535438,19.87013326,-0.090695586,1.6704982919999998,-0.16665665400000002,-24.81586207,15371127.83,6620172,431.04217769999997,12.20006152,96253.67105,1.143652793,-1.5106993569999998,1.0199079690000001,-0.60220765,-0.027722257,-0.150139763,-0.031791407,-0.867786773,0.227190522,0.451071505,0.8679999690000001,-0.430117711,0.006833709,0.248044923,0.546037487,398713743.4,327393652.8,456042.7403,17.16978196,0.695108982,17.15815105,-1.225431086,1.530065557,0,0,0.0,39.8714138,32.7364368,-4.247644115,253.50443470000002,-56.24978682,0.7182454,17.28862859,-0.610595355,0.573700485,2.8184151760000002,2.188987436,1.502547944,56.37091182,-0.244684385,0.386489504,-0.189545981,0.5479743,21181305,0,1,0,0,0
21213686,-0.129690324,-0.014833675,-0.021304985,0.5061215,0.0,1489.0,1500.0,1506.0,1566.929386,1432.070614,1492.0,17.01095941,17.39062427,17.16126594,17.18775936,17.57128114,17.11096223,17.49276843,,,182.0546013,182.0546013,12.03962365,-0.001698166,-0.0065126609999999995,0.0026847290000000003,-0.104359862,0.016215966999999998,-0.09930464,2.0,-1.0,0.0,11,0,0,1,0,0.0,0,0,0,0,0,-0.864141513,0.22531403600000002,0.469040842,0.129716621,-25.94072601,180.0050105,55.87803225,-0.021935436000000003,-0.03773386,-0.005623455,0.0,3.6776515410000004,0.40655284,-8.427420948,6.127026292,959.6908430999999,12.03955322,-0.20378627600000002,-0.07441477099999999,-0.018956194,3.1679533889999996,0.285601887,-7.618358337,-0.320022857,0.001419313,-0.031469673999999996,6.127026292,54.75543515,57.20473005,3.851417037,2.022312534,15.33539398,19.956811,-0.09242835,1.618975966,-0.16729508099999998,-24.63866832,15407783.16,6620172,431.2405573,12.19884984,96251.38012999999,1.143625656,-1.710257834,1.7961484769999998,-0.376766066,-0.056371423,-0.139072266,-0.031174347999999998,-0.867158478,0.22851785300000002,0.43917440399999996,0.869464861,-0.42989395700000005,0.01006054,0.243129531,0.547295255,398713745.7,327393722.4,456081.6345,17.14894579,0.705527065,17.14078775,-1.107359472,1.5294594330000002,0,0,0.0,39.8714138,32.7364368,-4.221567804,254.09736759999998,-56.26654204,0.743971174,17.40127122,-0.550473246,0.7384225999999999,3.130418774,1.758978318,1.501773455,56.38766704,-0.22739091600000003,0.39265646299999996,-0.192630529,0.5503388000000001,21213686,0,1,0,0,0
21258067,-0.148740955,-0.000361437,-0.021762551,0.52766925,0.0,1489.0,1500.0,1517.0,1568.9497900000001,1430.0502099999999,1496.0,17.18973802,17.57336608,17.24765019,17.27425688,17.65974502,17.19594624,17.57968481,,,184.0258095,184.0258095,12.03941188,-0.001695066,-0.0065100719999999996,0.0026752959999999998,-0.104310894,0.016010297,-0.099349533,2.0,-1.0,0.0,11,0,0,1,0,0.0,0,0,0,0,0,-0.863728333,0.22641902,0.456326942,0.126285855,-25.29771514,179.7266526,55.89658139,-0.021917834,-0.03763463,-0.005319053000000001,0.0,3.89856659,0.41547062,-8.898636265,1.871344115,959.6881390000001,12.03944541,-0.268074438,-0.037977974,-0.024158592000000003,3.471109133,0.23982694,-8.049687399,-0.38057707399999996,0.034327668,-0.034561084,1.871344115,54.92945759,57.27429452,3.860859765,2.0842030119999997,15.33544623,20.029673100000004,-0.093884547,1.562909136,-0.16796677100000001,-24.43499126,15444438.49,6620172,431.3395442,12.19763784,96250.20231000001,1.143611667,-1.835669655,0.617347154,0.01957912,-0.102213143,-0.114203725,-0.02190172,-0.8674227720000001,0.229786308,0.425043124,0.8709871290000001,-0.430019671,0.013630433999999999,0.23722692,0.548855483,398713748.0,327393792.1,456120.5287,17.12810962,0.7159451490000001,17.12342445,-0.989287858,1.528853309,0,0,0.0,39.8714138,32.7364368,-4.1954914930000005,254.6903006,-56.28329726,0.769696948,17.51391384,-0.490351136,0.9031447159999999,3.442422372,1.328969201,1.500998965,56.40442226,-0.20841124600000002,0.397587478,-0.196856248,0.5516603,21258067,0,1,0,0,0
21296895,-0.165231604,0.012674023999999999,-0.021647305,0.54412985,0.0,1489.0,1500.0,1536.0,1578.0204039999999,1420.9795960000001,1503.0,17.22614446,17.61068634,17.33403444,17.3607544,17.74820891,17.28093024,17.6666012,,,185.9970177,185.9970177,12.03920011,-0.0016919670000000002,-0.006507481999999999,0.002665862,-0.10426192699999999,0.015804626999999998,-0.099394426,2.0,-1.0,0.0,11,0,0,1,0,0.0,0,0,0,0,0,-0.863315153,0.227524005,0.443613043,0.122855088,-24.65470428,179.4482946,55.91513054,-0.021902293,-0.037535814,-0.0049990370000000004,0.0,4.012669827,0.38645534200000003,-9.457296664,-7.209999999999999e-21,959.6869203,12.03934968,-0.327978945,0.0047616590000000006,-0.030837997000000002,3.785054293,0.33609964299999995,-8.599455679,-0.439222747,0.06421883099999999,-0.04421422,-7.209999999999999e-21,55.11718913,57.35757602,3.868522131,2.143171162,15.33552019,20.07882048,-0.09486601300000001,1.499041616,-0.168695558,-24.18585533,15484244.85,6620172,431.630793,12.19643206,96246.87025,1.1435720329999999,-1.73798627,1.502518987,-0.012912672,-0.154227774,-0.084339316,-0.025683692,-0.8684240540000001,0.230991284,0.408945794,0.872540278,-0.43041468899999996,0.01751329,0.230451288,0.550661311,398713750.2,327393861.7,456159.4229,17.10727345,0.7263632329999999,17.10606115,-0.871216243,1.528247185,0,0,0.0,39.8714138,32.7364368,-4.165890018,255.31877369999998,-56.29867511,0.807046308,17.640988800000002,-0.458171657,1.093624476,3.5892372110000004,0.809454807,1.4995214940000001,56.41979991,-0.192195151,0.403691171,-0.19973591100000002,0.5546484,21296895,0,1,0,0,0
21330829,-0.164803924,0.017835405,-0.021802252999999997,0.5501351,0.0,1489.0,1500.0,1546.604521,1580.472695,1418.527305,1506.736347,17.31989019,17.70647207,17.42041869,17.44725191,17.83667279,17.36591425,17.75351758,,,187.96822590000002,187.96822590000002,12.03898834,-0.0016888670000000001,-0.006504893,0.002656429,-0.10421295900000001,0.015598957,-0.099439319,2.0,-1.0,0.0,11,0,0,1,0,0.0,0,0,0,0,0,-0.8629019729999999,0.22862898899999998,0.430899143,0.119424322,-24.01169341,179.1699367,55.93367969,-0.02188773,-0.037433771,-0.004682184,0.0,4.042941976,0.327668362,-10.084588199999999,-7.209999999999999e-21,959.6868673,12.03926343,-0.38529238600000004,0.039767248,-0.036390545,3.885430154,0.32701806,-9.067894356,-0.496370504,0.091741956,-0.059017319000000006,-7.209999999999999e-21,55.30492067,57.44085751,3.8761844969999997,2.202139311,15.33559415,20.12796785,-0.09584748,1.435174096,-0.169424345,-23.93671941,15517749.15,6620172,431.86546849999996,12.19524454,96244.18891,1.143540189,-1.2401010559999999,1.00565015,-0.386492158,-0.21926193300000002,-0.048288896,-0.025454424,-0.8664026690000001,0.23213680899999997,0.39948083700000003,0.873949258,-0.42951896,0.020290291000000002,0.226521665,0.55268858,398713752.6,327393933.0,456186.5627,17.16781345,0.742432451,17.16103221,-0.7791398279999999,1.527443825,0,0,0.0,39.8714138,32.7364368,-4.133521823,255.97514049999998,-56.31297194,0.853518422,17.77939096,-0.44792290799999995,1.304320086,3.6064039039999995,0.21969233300000002,1.49749229,56.43409639,-0.17512176,0.406293749,-0.201528857,0.55588686,21330829,0,1,0,0,0
21370419,-0.180758972,0.030101304,-0.022145441000000002,0.5595781,0.0,1488.1114220000002,1500.0,1555.0,1586.1114220000002,1412.8885779999998,1511.1114220000002,17.48880981,17.87923695,17.50680294,17.53374943,17.92513668,17.45089826,17.84043396,,,189.939434,189.939434,12.03877657,-0.0016857679999999998,-0.006502303,0.002646995,-0.104163992,0.015393287,-0.09948421199999999,2.0,-1.0,0.0,11,0,0,1,0,0.0,0,0,0,0,0,-0.8624887929999999,0.229733973,0.418185243,0.115993556,-23.36868254,178.89157869999997,55.95222883,-0.021873955,-0.037329989,-0.004360249,0.0,4.073214125,0.268881382,-10.71187974,-7.209999999999999e-21,959.6868142999999,12.03917718,-0.45417037200000004,0.072418475,-0.054100487,4.051236843,0.357727869,-9.756140489,-0.55351826,0.119265081,-0.073820417,-7.209999999999999e-21,55.4926522,57.52413901,3.8838468639999997,2.261107461,15.33566811,20.17711523,-0.096828947,1.3713065759999998,-0.17015313199999998,-23.68758348,15554404.48,6620172,431.9977869,12.19403239,96242.65617,1.143521941,-1.7679336769999998,0.592377387,-0.47176060200000003,-0.277919028,-0.011933088,-0.031979791,-0.866974513,0.23323874600000002,0.383658623,0.875490537,-0.429663956,0.024117534,0.21982221100000002,0.554866165,398713755.0,327394005.2,456207.3989,17.27199411,0.761532278,17.25479496,-0.7010042009999999,1.526534691,0,0,0.0,39.8714138,32.7364368,-4.1011536280000005,256.6315073,-56.32726877,0.8999905359999999,17.91779312,-0.43767416,1.515015695,3.623570598,-0.370070141,1.495463085,56.44839286,-0.160161839,0.41168831899999997,-0.204083862,0.5586491,21370419,0,1,0,0,0
21407181,-0.174064422,0.032540354,-0.021156364,0.5632329,0.0,1488.343069,1500.0,1563.0,1592.627726,1406.372274,1517.313863,17.63594927,18.02952962,17.59318719,17.62024695,18.01360056,17.53588226,17.92735034,,,191.91064219999998,191.91064219999998,12.0385648,-0.0016826679999999998,-0.006499714,0.002637562,-0.104115025,0.015187616000000001,-0.099529105,2.0,-1.0,0.0,11,0,0,1,0,0.0,0,0,0,0,0,-0.862075613,0.230838958,0.405471344,0.11256279,-22.72567168,178.6132207,55.97077798,-0.021861309,-0.03723029,-0.00404083,0.0,4.031176816,0.310154247,-11.17386248,-7.209999999999999e-21,959.6888676000001,12.03905941,-0.51710368,0.105557924,-0.066335731,4.039670557,0.344177807,-10.3549344,-0.605401216,0.13845511900000002,-0.0882296,-7.209999999999999e-21,55.68038374,57.607420499999996,3.89150923,2.32007561,15.33574207,20.22626261,-0.09781041300000001,1.307439057,-0.170881919,-23.43844755,15594236.45,6620172,432.1739051,12.19282044,96240.60367000001,1.1434975090000001,-1.423458647,0.627766675,-0.894607655,-0.342615897,0.026658731,-0.035840481,-0.86634058,0.23433106199999998,0.37035390700000004,0.876967663,-0.42927864600000004,0.027532814,0.21419770600000002,0.556745197,398713757.4,327394077.5,456228.235,17.37617477,0.780632105,17.34855771,-0.622868574,1.525625557,0,0,0.0,39.8714138,32.7364368,-4.066697091,257.2594832,-56.34209051,0.9623978559999999,18.04392399,-0.46453729899999996,1.790097384,3.557372871,-0.8514893090000001,1.4922044,56.46321425,-0.14285758099999998,0.416344091,-0.207795304,0.5601366,21407181,0,1,0,0,0
21447971,-0.182871743,0.043651414000000006,-0.021382962000000002,0.5665118,0.0,1489.0,1500.0,1565.0,1591.20244,1407.79756,1519.0,17.77622124,18.17294189,17.67957144,17.70674447,18.10206445,17.62086627,18.01426673,,,193.8818504,193.8818504,12.03835303,-0.001679569,-0.006497124,0.002628128,-0.10406605699999999,0.014981946000000001,-0.09957399800000001,2.0,-1.0,0.0,11,0,0,1,0,0.0,0,0,0,0,0,-0.861662433,0.231943942,0.392757444,0.10913202300000001,-22.08266081,178.3348628,55.98932712,-0.021850572000000002,-0.03712874,-0.003708715,0.0,3.962555146,0.388213821,-11.57506992,-7.209999999999999e-21,959.6916954,12.03893004,-0.586978535,0.130546751,-0.08192221400000001,4.055769007,0.381793734,-10.89095983,-0.655348583,0.154581523,-0.102493962,-7.209999999999999e-21,55.86811527,57.690702,3.899171597,2.37904376,15.33581603,20.27540999,-0.09879188,1.243571537,-0.171610707,-23.18931162,15627715.14,6620172,432.31148830000006,12.19163976,96239.01978999999,1.143478717,-1.88146915,0.870034065,-0.47394075700000005,-0.400975433,0.06061836,-0.040193529,-0.8648041679999999,0.23539042899999998,0.35878720000000003,0.878429782,-0.428499015,0.030649437999999998,0.20930633399999998,0.558809187,398713759.9,327394149.7,456249.0712,17.48035544,0.799731932,17.44232046,-0.5447329470000001,1.524716423,0,0,0.0,39.8714138,32.7364368,-4.031472782,257.8770212,-56.35710524,1.030663708,18.16554336,-0.505044513,2.088850426,3.46052646,-1.29307638,1.4884937,56.47822863,-0.130320236,0.421848946,-0.21045582,0.56349814,21447971,0,1,0,0,0
21480704,-0.166111386,0.049290575,-0.021872347,0.567612651,0.0,1489.0,1500.0,1566.25205,1588.74795,1410.25205,1522.008202,17.98027804,18.38171559,17.76595569,17.79324198,18.19052833,17.70585027,18.10118311,,,195.8530586,195.8530586,12.03814126,-0.0016764689999999999,-0.006494535,0.002618695,-0.10401709,0.014776276000000001,-0.09961889,2.0,-1.0,0.0,11,0,0,1,0,0.0,0,0,0,0,0,-0.861249252,0.233048927,0.380043544,0.10570125699999999,-21.43964995,178.05650480000003,56.00787627,-0.02184038,-0.037022934,-0.0033558090000000004,0.0,3.893933477,0.466273395,-11.97627736,-7.209999999999999e-21,959.6945231000001,12.03880067,-0.654982789,0.157104131,-0.094445368,3.9940281019999997,0.397620177,-11.54624524,-0.70529595,0.17070792699999998,-0.11675832300000001,-7.209999999999999e-21,56.04281478,57.77462149,3.905149909,2.427115132,15.33588068,20.30402313,-0.09936285,1.18786152,-0.172281486,-22.93917818,15664370.47,6620172,432.5329593,12.19042793,96236.45475,1.143448241,-1.5334395769999998,0.07999735200000001,-0.25123647600000004,-0.464214477,0.093195895,-0.057707491,-0.863791262,0.236393267,0.345974199,0.879877163,-0.42789975799999996,0.033947625,0.203853268,0.561028679,398713762.3,327394221.9,456269.9074,17.5845361,0.818831759,17.53608322,-0.466597319,1.523807289,0,0,0.0,39.8714138,32.7364368,-3.996248473,258.49455930000005,-56.37211997,1.09892956,18.28716273,-0.545551728,2.387603468,3.36368005,-1.734663452,1.484783,56.49324300000001,-0.11707979199999999,0.425351452,-0.213013235,0.5653544,21480704,0,1,0,0,0
21524733,-0.146628838,0.050868192,-0.021542027999999998,0.5678419,0.0,1489.0,1500.0,1568.0,1578.293459,1420.706541,1524.0,18.07486469,18.47812967,17.85233994,17.8797395,18.27899222,17.79083428,18.18809949,,,197.82426669999998,197.82426669999998,12.03792949,-0.00167337,-0.006491945,0.002609261,-0.10396812300000001,0.014570606000000002,-0.099663783,2.0,-1.0,0.0,11,0,0,1,0,0.0,0,0,0,0,0,-0.860836072,0.23415391100000002,0.367329645,0.10227049099999999,-20.79663908,177.7781469,56.02642542,-0.021835597,-0.036931166,-0.003065788,0.0,3.78707309,0.482442655,-12.29327878,-7.209999999999999e-21,959.6837673,12.03864196,-0.6976935879999999,0.16938318800000002,-0.113730044,3.92067092,0.478171489,-12.02864996,-0.7041841459999999,0.180119009,-0.128352868,-7.209999999999999e-21,56.21003382,57.85890721,3.910161563,2.468931675,15.33593999,20.32084947,-0.09969819199999999,1.136833969,-0.17291896899999998,-22.68847216,15702530.11,6620172,432.7059339,12.1892464,96234.4731,1.143424655,-1.941600391,0.566648819,-0.11250960199999999,-0.511540167,0.116398745,-0.069819384,-0.8622285590000001,0.23734924100000002,0.334150208,0.8813212220000001,-0.427053732,0.037060433,0.198806813,0.563571291,398713764.7,327394294.2,456290.7435,17.68871676,0.837931586,17.62984597,-0.388461692,1.522898155,0,0,0.0,39.8714138,32.7364368,-3.9500714169999998,259.16912290000005,-56.39397815,1.205095062,18.39897417,-0.622989414,2.7507338619999997,3.129484887,-2.033442995,1.478798546,56.51510179,-0.108282166,0.428459009,-0.21557399300000002,0.567221,21524733,0,1,0,0,0
21561114,-0.137537771,0.053866565,-0.022788845,0.5665365,0.0,1489.0,1500.0,1567.0,1571.838968,1427.161032,1526.0,18.23805984,18.64520566,17.93872419,17.96623702,18.367456100000002,17.87581829,18.27501588,,,199.79547490000002,199.79547490000002,12.03771772,-0.00167027,-0.006489356,0.0025998279999999998,-0.103919155,0.014364935,-0.099708676,2.0,-1.0,0.0,11,0,0,1,0,0.0,0,0,0,0,0,-0.860422892,0.235258895,0.354615745,0.098839724,-20.15362822,177.4997889,56.04497456,-0.021828617999999998,-0.036830641000000004,-0.002729955,0.0,3.676062579,0.491894836,-12.60114115,-7.209999999999999e-21,959.6715372000001,12.03848007,-0.707396397,0.17692123,-0.133502129,3.8168184160000003,0.352373426,-12.3417341,-0.6975307890000001,0.188801264,-0.139657652,-7.209999999999999e-21,56.37725286,57.94319293,3.915173217,2.5107482180000003,15.335999300000001,20.3376758,-0.100033535,1.085806418,-0.173556452,-22.43776614,15738067.61,6620172,432.85449800000004,12.18803462,96232.76981,1.143404447,-1.24420173,0.45948879600000003,-0.246929763,-0.574995366,0.141259122,-0.084964031,-0.860707854,0.23826087,0.321876834,0.882766232,-0.426188485,0.040237522000000005,0.193542491,0.566297595,398713767.9,327394370.4,456306.1606,17.82076731,0.895739132,17.76386477,-0.400128026,1.52015144,0,0,0.0,39.8714138,32.7364368,-3.902705637,259.8498757,-56.41657907,1.315373889,18.50972113,-0.704435237,3.1208512589999997,2.88038299,-2.316723352,1.472567317,56.53770341,-0.091265154,0.43157987299999995,-0.21673585,0.57085866,21561114,0,1,0,0,0
21593495,-0.130950741,0.052849445999999994,-0.022576657000000003,0.56575406,0.0,1488.0,1500.0,1566.0,1567.0,1432.0,1526.0,18.2537331,18.66110337,18.02510844,18.05273453,18.45591998,17.96080229,18.36193226,,,201.7666831,201.7666831,12.03750595,-0.001667171,-0.006486766,0.0025903939999999998,-0.103870188,0.014159265,-0.099753569,2.0,-1.0,0.0,11,0,0,1,0,0.0,0,0,0,0,0,-0.860009712,0.23636388,0.341901845,0.095408958,-19.51061735,177.221431,56.06352371,-0.021822464,-0.036724806,-0.002413886,0.0,3.562643491,0.496575316,-12.89301276,-7.209999999999999e-21,959.6603832000001,12.03831346,-0.69827551,0.188233273,-0.137062198,3.670931294,0.371823533,-12.644765199999998,-0.690039945,0.196865108,-0.150955745,-7.209999999999999e-21,56.544471900000005,58.02747864,3.9201848710000005,2.5525647609999997,15.336058600000001,20.35450214,-0.100368877,1.034778868,-0.174193935,-22.18706012,15774336.47,6620172,433.0531484,12.18685304,96230.48004,1.143377297,0.18556456600000001,-0.295058541,-0.483609026,-0.625843038,0.163931371,-0.097205866,-0.859021377,0.239151435,0.309805395,0.8842050459999999,-0.42523481,0.043367964,0.188349657,0.569067629,398713771.2,327394447.2,456320.9196,17.95620257,0.958247617,17.90277255,-0.42270054,1.5171815569999998,0,0,0.0,39.8714138,32.7364368,-3.854748013,260.5274559,-56.43965015,1.4275325209999998,18.61796104,-0.786539015,3.4888219080000002,2.629053426,-2.583086694,1.4662625930000002,56.56077518,-0.07653196400000001,0.43614843299999995,-0.219358752,0.5743399,21593495,0,1,0,0,0
21625876,-0.126743868,0.055212737000000005,-0.023457266,0.563340831,0.0,1488.0,1500.0,1564.0,1565.0,1434.0,1527.0,18.42674735,18.83801081,18.11149269,18.13923205,18.54438387,18.0457863,18.44884864,,,203.73789130000003,203.73789130000003,12.03729418,-0.001664071,-0.0064841759999999995,0.002580961,-0.10382122099999999,0.013953595,-0.09979846199999999,2.0,-1.0,0.0,11,0,0,1,0,0.0,0,0,0,0,0,-0.8595965320000001,0.23746886399999997,0.329187946,0.09197819199999999,-18.86760649,176.943073,56.08207285,-0.021817694,-0.036622338,-0.002086984,0.0,3.418641085,0.44066628399999996,-12.98183888,-7.209999999999999e-21,959.6628929,12.03808688,-0.6886075509999999,0.194816698,-0.150309986,3.5827760889999998,0.410555024,-12.81478271,-0.671914971,0.19707657899999997,-0.162168871,-7.209999999999999e-21,56.71169094,58.11176436,3.925196525,2.594381303,15.33611791,20.37132848,-0.100704219,0.9837513170000001,-0.174831417,-21.936354100000003,15810991.8,6620172,433.22940570000003,12.18564131,96228.44628999999,1.143353221,0.153203952,0.154778729,-0.107052514,-0.6726890990000001,0.170506541,-0.110306902,-0.857057953,0.24003823,0.29804320300000003,0.885635638,-0.424138626,0.04644732,0.183274452,0.571605747,398713774.5,327394523.9,456335.6785,18.09163783,1.020756101,18.04168034,-0.445273055,1.514211674,0,0,0.0,39.8714138,32.7364368,-3.799275347,261.16475299999996,-56.468691299999996,1.56356031,18.69436727,-0.8769972909999999,3.8295338660000002,2.349437676,-2.634643294,1.459024644,56.58981668,-0.0652959,0.439018156,-0.221725676,0.57610434,21625876,0,1,0,0,0
21658256,-0.12330946699999999,0.057446955999999993,-0.024634108,0.5609406,0.0,1487.475495,1500.0,1562.0,1562.0,1437.0,1527.475495,18.38204763,18.79254603,18.19787694,18.22572957,18.63284775,18.130770300000002,18.53576502,,,205.70909939999999,205.70909939999999,12.03708241,-0.0016609720000000001,-0.006481587,0.002571527,-0.10377225300000001,0.013747925,-0.099843355,2.0,-1.0,0.0,11,0,0,1,0,0.0,0,0,0,0,0,-0.8591833520000001,0.238573848,0.316474046,0.088547426,-18.22459562,176.6647151,56.100621999999994,-0.021815486000000002,-0.036527082,-0.001764556,0.0,3.27463868,0.384757251,-13.07066501,-7.209999999999999e-21,959.6654025,12.03786031,-0.670953163,0.188519267,-0.162092583,3.375280941,0.408261462,-12.98791108,-0.6537899979999999,0.19728805,-0.17338199699999998,-7.209999999999999e-21,56.87890998,58.19605008,3.9302081789999996,2.636197846,15.33617722,20.38815482,-0.101039562,0.932723766,-0.17546889999999998,-21.68564809,15849588.32,6620172,433.48967869999996,12.18445992,96225.46617,1.143317729,0.449367005,0.591151047,-0.154841485,-0.7043694009999999,0.189586119,-0.129354441,-0.85524651,0.24089829399999999,0.285602123,0.887073955,-0.42307424899999996,0.049632894000000004,0.17788618,0.5741679820000001,398713777.8,327394600.7,456350.4375,18.22707309,1.083264585,18.18058812,-0.46784556899999996,1.511241791,0,0,0.0,39.8714138,32.7364368,-3.7438026819999997,261.80205,-56.49773246,1.6995880980000002,18.77077349,-0.967455567,4.170245823,2.069821927,-2.686199893,1.451786695,56.61885819,-0.053348152,0.442534594,-0.223559387,0.57976395,21658256,0,1,0,0,0
21690637,-0.117188085,0.058360863,-0.025114337999999996,0.55950063,0.0,1487.0,1500.0,1560.0,1560.0,1439.0,1528.0,18.481169899999998,18.89382019,18.28426119,18.31222708,18.72131164,18.21575431,18.62268141,,,207.6803076,207.6803076,12.03687064,-0.0016578720000000001,-0.006478996999999999,0.002562094,-0.103723286,0.013542255,-0.099888247,2.0,-0.99879976,0.00120024,11,0,0,1,0,0.0,0,0,0,0,0,-0.8574338659999999,0.239521342,0.304543493,0.085188977,-17.60147362,176.3311468,56.10793216,-0.021812877999999997,-0.036423536,-0.00139442,0.0,3.126623905,0.359168425,-13.138995999999999,1.0377905790000002,959.6674423000001,12.03762322,-0.6581477029999999,0.19406153199999998,-0.166807598,3.234714447,0.42548733299999997,-13.06911602,-0.6344785079999999,0.19772489199999999,-0.18222221,1.0377905790000002,57.0462504,58.28722673,3.934441035,2.672862318,15.33622519,20.38583261,-0.100992157,0.892674286,-0.17608426800000002,-21.42038879,15888252.05,6620172,433.69415419999996,12.18327899,96223.07908,1.143289352,0.418366972,0.12279108,-0.220314083,-0.70458071,0.196629279,-0.143962338,-0.852786713,0.241733014,0.274421827,0.888501815,-0.42172686200000004,0.052586687,0.173023659,0.576783533,398713781.1,327394677.4,456365.1964,18.36250835,1.14577307,18.319495899999996,-0.490418084,1.5082719080000002,0,0,0.0,39.8714138,32.7364368,-3.683151205,262.4545006,-56.52957532,1.845864876,18.84226697,-1.058970633,4.493561624,1.800770005,-2.69950785,1.44415438,56.65070115,-0.042371436,0.444925597,-0.225536092,0.5815853,21690637,0,1,0,0,0
21730036,-0.113351837,0.061060225999999995,-0.025930092999999998,0.5560043,0.0,1487.0,1500.0,1557.0,1557.566513,1441.433487,1529.0,18.63469946,19.05087392,18.37064544,18.3987246,18.80977552,18.30073832,18.70959779,,,209.6515158,209.6515158,12.03665887,-0.0016547729999999998,-0.006476408,0.00255266,-0.103674318,0.013336583999999999,-0.09993314,2.0,-0.99619924,0.00380076,11,0,0,1,0,0.0,0,0,0,0,0,-0.854125356,0.240285098,0.293526844,0.081914898,-17.00155529,175.9331666,56.10213016,-0.021811878,-0.036332309,-0.0010664560000000001,0.0,2.9661717160000003,0.42756520200000003,-13.14379684,5.292491168,959.6680255000001,12.03735352,-0.635394549,0.18860533899999998,-0.179142778,3.09695974,0.441500615,-13.15387946,-0.611489092,0.198860332,-0.183706943,5.292491168,57.21360393,58.37914763,3.938589777,2.708970339,15.33627194,20.38144226,-0.100903414,0.853810493,-0.176697248,-21.15355766,15920957.79,6620172,433.91391680000004,12.18208305,96220.55455,1.143259318,0.505181936,-0.117961215,-0.20021165100000002,-0.693998683,0.199172908,-0.14708956199999998,-0.8509837240000001,0.24254458,0.261661215,0.8899042509999999,-0.420610042,0.055793047000000005,0.167460537,0.579463498,398713784.6,327394754.4,456382.1868,18.49311262,1.2167932609999998,18.45173232,-0.523572715,1.504852338,0,0,0.0,39.8714138,32.7364368,-3.606446615,263.15392369999995,-56.57010286,2.023911139,18.89853209,-1.153761506,4.762953375,1.5644635,-2.594253892,1.435299621,56.69122798,-0.032445012999999995,0.447467565,-0.22748423399999998,0.5833838000000001,21730036,0,1,0,0,0
21767399,-0.107776216,0.06265940099999999,-0.027285768,0.5545001,0.0,1486.0,1500.0,1556.0,1555.0,1444.0,1530.0,18.67171808,19.08860123,18.45702969,18.48522212,18.89823941,18.38572232,18.79651417,,,211.62272400000003,211.62272400000003,12.03644711,-0.001651673,-0.006473818,0.002543227,-0.10362535099999999,0.013130913999999999,-0.09997803300000001,2.0,-0.99359872,0.00640128,11,0,0,1,0,0.0,0,0,0,0,0,-0.850816846,0.241048853,0.282510196,0.078640819,-16.40163695,175.53518640000001,56.09632816,-0.021811833,-0.036246037,-0.000750342,0.0,2.8057195260000003,0.495961979,-13.14859768,9.547191756,959.6686087000002,12.03708382,-0.616884952,0.19145088100000002,-0.178761051,2.965527776,0.455278996,-13.18195031,-0.588499676,0.199995772,-0.185191675,9.547191756,57.38095745,58.47106854,3.9427385189999997,2.745078361,15.33631869,20.377051899999998,-0.100814671,0.8149466999999999,-0.17731022800000001,-20.88672653,15957613.12,6620172,434.0078795,12.18088772,96219.50413,1.1432469140000001,-0.151032293,0.844043092,-0.500972218,-0.68170077,0.20153901600000002,-0.159119338,-0.847210938,0.243343599,0.25272216399999997,0.8913705390000001,-0.418701184,0.058341541,0.16352825,0.582126037,398713789.5,327394832.5,456413.7884,18.59208442,1.343546629,18.54028586,-0.626017203,1.498488295,0,0,0.0,39.8714138,32.7364368,-3.529742025,263.85334680000005,-56.6106304,2.201957403,18.954797199999998,-1.248552378,5.032345126,1.328156994,-2.488999933,1.4264448619999999,56.73175481,-0.022365867999999997,0.450113462,-0.228570873,0.58713764,21767399,0,1,0,0,0
21803780,-0.103575924,0.063917185,-0.026954527000000002,0.5514363,0.0,1486.0,1500.0,1553.0,1553.657532,1445.342468,1532.0,18.84467563,19.26559986,18.54341394,18.57171964,18.98670329,18.47070633,18.88343056,,,213.5939321,213.5939321,12.03623534,-0.0016485739999999999,-0.006471229,0.002533793,-0.10357638400000001,0.012925243999999999,-0.100022926,2.0,-0.9909982,0.009001799999999999,11,0,0,1,0,0.0,0,0,0,0,0,-0.8475083370000001,0.24181260899999998,0.271493547,0.07536674,-15.80171862,175.13720619999998,56.09052616,-0.021813173999999998,-0.036157978,-0.000398486,0.0,2.657518349,0.544476031,-13.16116445,10.27195966,959.6625349999999,12.03679183,-0.587554381,0.196437936,-0.185225613,2.895191826,0.437107024,-13.10676589,-0.5650760770000001,0.204162189,-0.18865203600000002,10.27195966,57.54831098,58.56298944,3.94688726,2.781186382,15.33636544,20.37266155,-0.100725928,0.776082907,-0.177923208,-20.6198954,15994268.45,6620172,434.2150982,12.17970395,96217.11559,1.1432185209999999,0.275958224,-0.153468763,-0.20988432899999998,-0.662047571,0.203668165,-0.167653266,-0.8454077459999999,0.24411217600000001,0.23926009899999998,0.8927650290000001,-0.417515827,0.06164882,0.157619969,0.584837875,398713794.4,327394910.6,456445.3899,18.69105621,1.470299997,18.628839399999997,-0.728461692,1.492124252,0,0,0.0,39.8714138,32.7364368,-3.448310795,264.5317432,-56.65350957,2.383807481,18.99931671,-1.336648448,5.273628373,1.081238919,-2.413620381,1.4174548669999998,56.77463387,-0.012981253,0.451341405,-0.230262312,0.5889641999999999,21803780,0,1,0,0,0
21836161,-0.099860183,0.06529774599999999,-0.02786831,0.5498988,0.0,1486.0,1500.0,1551.0,1550.0,1449.0,1532.0,18.84679686,19.267906,18.62979819,18.65821715,19.07516718,18.55569033,18.97034694,,,215.5651403,215.5651403,12.03602357,-0.001645475,-0.006468639,0.002524359,-0.103527416,0.012719573999999999,-0.100067819,2.0,-0.98839768,0.01160232,11,0,0,1,0,0.0,0,0,0,0,0,-0.8441998270000001,0.242576364,0.260476898,0.072092661,-15.20180029,174.739226,56.08472417,-0.021816389,-0.036069514,-2.94e-05,0.0,2.5265989540000002,0.564942691,-13.18468616,6.017259067,959.6470706,12.03646841,-0.5704075129999999,0.202654604,-0.193577725,2.642181743,0.448241835,-13.13055182,-0.541039999,0.21260422899999998,-0.194899298,6.017259067,57.71566451,58.65491035,3.951036002,2.8172944039999996,15.33641219,20.3682712,-0.100637185,0.7372191140000001,-0.178536188,-20.35306428,16030923.78,6620172,434.55664709999996,12.17852239,96213.15396,1.143171442,0.558930971,0.238636775,-0.08725292400000001,-0.639430853,0.198585011,-0.173411727,-0.841979108,0.244876313,0.22896512300000002,0.8942204,-0.415682072,0.064404796,0.15306181300000002,0.587562217,398713799.2,327394988.8,456476.9914,18.79002801,1.597053365,18.71739293,-0.8309061809999999,1.48576021,0,0,0.0,39.8714138,32.7364368,-3.360211971,265.18047859999996,-56.69970607,2.571023376,19.02726741,-1.415300556,5.475260605,0.819351725,-2.380382895,1.4082741019999998,56.82083107,-0.0029482490000000004,0.45247712,-0.23116120899999998,0.5924121999999999,21836161,0,1,0,0,0
21872542,-0.095525895,0.067851668,-0.028794069,0.547569,0.0,1485.0,1500.0,1548.0,1548.74855,1450.25145,1533.0,18.96711517,19.39059722,18.71618244,18.74471467,19.16363106,18.64067434,19.05726332,,,217.53634849999997,217.53634849999997,12.0358118,-0.001642375,-0.00646605,0.0025149260000000002,-0.103478449,0.012513904,-0.10011271199999999,2.0,-0.9857971590000001,0.014202841,11,0,0,1,0,0.0,0,0,0,0,0,-0.8408913179999999,0.243340119,0.24946025,0.068818582,-14.60188196,174.3412457,56.07892217,-0.021820246,-0.035983113,0.00035578300000000003,0.0,2.39567956,0.585409351,-13.20820786,1.762558478,959.6316062999999,12.03614498,-0.552366743,0.21346417399999998,-0.201774462,2.6370330280000003,0.421186532,-13.15183233,-0.517003921,0.22104626800000002,-0.20114656,1.762558478,57.88658022,58.75006144,3.95516746,2.8537897689999996,15.33646719,20.36139706,-0.10049860099999999,0.6993387179999999,-0.179155418,-20.07880709,16070175.64,6620172,434.58461669999997,12.17733071,96212.85386,1.143167804,0.80385876,0.2682317,-0.256500971,-0.6191298670000001,0.20230667600000002,-0.18373063,-0.8376414109999999,0.24561892100000002,0.220169648,0.895725786,-0.413471487,0.066892011,0.149128105,0.590210778,398713804.1,327395066.9,456508.5929,18.8889998,1.7238067330000002,18.80594647,-0.93335067,1.479396167,0,0,0.0,39.8714138,32.7364368,-3.2721131469999998,265.8292139,-56.74590257,2.75823927,19.0552181,-1.4939526630000002,5.6768928370000005,0.557464531,-2.347145409,1.3990933369999998,56.86702828,0.00750774,0.45329953700000003,-0.232988785,0.59439804,21872542,0,1,0,0,0
21908923,-0.09110890199999999,0.067487036,-0.028682494,0.5467755999999999,0.0,1485.0,1500.0,1547.0,1546.0,1453.0,1534.0,19.01584314,19.44053595,18.80256669,18.83121219,19.25209495,18.72565835,19.1441797,,,219.50755669999998,219.50755669999998,12.03560003,-0.001639276,-0.00646346,0.0025054920000000002,-0.10342948199999999,0.012308233,-0.100157605,2.0,-0.9831966390000001,0.016803361,11,0,0,1,0,0.0,0,0,0,0,0,-0.837582808,0.244103875,0.238443601,0.065544503,-14.00196363,173.9432655,56.07312017,-0.021824582000000002,-0.035903864,0.00074913,0.0,2.3016835980000003,0.573420403,-13.24382617,-7.209999999999999e-21,959.6198582999999,12.03578988,-0.5250601979999999,0.219334855,-0.20242782,2.474398438,0.509022454,-13.22386732,-0.49314887399999996,0.231442394,-0.209845106,-7.209999999999999e-21,58.07492176,58.86101424,3.959214367,2.892179974,15.33656261,20.34237249,-0.10011619999999999,0.666268991,-0.17980522300000001,-19.76822246,16104234.45,6620172,434.7561423,12.17616009,96210.88891000001,1.143144513,0.87867421,0.620959472,-0.294410982,-0.5945454520000001,0.208031881,-0.187385578,-0.8361561340000001,0.24635850399999998,0.205446667,0.897049636,-0.412318057,0.070375573,0.142622427,0.592679367,398713809.0,327395145.0,456540.1944,18.98797159,1.850560101,18.89450001,-1.035795159,1.4730321240000002,0,0,0.0,39.8714138,32.7364368,-3.1674975119999997,266.51146719999997,-56.79938713,2.967217929,19.06969951,-1.5722727380000001,5.890879686,0.315051893,-2.277375219,1.388758296,56.92051293,0.020286648,0.454129945,-0.23437261899999998,0.5971501,21908923,0,1,0,0,0
21941303,-0.08752423599999999,0.069823799,-0.029141199,0.54462224,0.0,1485.0,1500.0,1545.0,1544.0,1455.0,1534.0,19.11014003,19.53718704,18.88895094,18.9177097,19.34055883,18.81064235,19.23109609,,,221.4787648,221.4787648,12.03538826,-0.001636176,-0.006460871,0.002496059,-0.103380514,0.012102563,-0.10020249699999999,2.0,-0.9805961190000001,0.019403881,11,0,0,1,0,0.0,0,0,0,0,0,-0.834274299,0.24486763,0.22742695300000002,0.062270424000000005,-13.402045300000001,173.54528530000002,56.06731818,-0.021829427000000002,-0.035833783,0.001133914,0.0,2.2338016019999998,0.538477344,-13.28799976,-7.209999999999999e-21,959.6107388,12.03541237,-0.499090672,0.229711952,-0.20835236399999998,2.367239037,0.465193586,-13.23488925,-0.46942186,0.24322053899999999,-0.220277312,-7.209999999999999e-21,58.26326329,58.97196704,3.9632612739999997,2.93057018,15.33665803,20.32334793,-0.099733799,0.633199264,-0.18045502800000002,-19.45763783,16140889.78,6620172,434.945559,12.17497005,96208.67795,1.143118252,0.972779605,0.329605745,-0.638654948,-0.583492586,0.211456137,-0.196387119,-0.831514687,0.24708714,0.19660855,0.898569175,-0.409932776,0.072848987,0.138630001,0.5950408229999999,398713814.9,327395223.0,456577.1106,19.07268454,1.99870174,18.961665399999998,-1.129813963,1.4655708180000002,0,0,0.0,39.8714138,32.7364368,-3.051200423,267.217426,-56.85802616,3.1915882239999998,19.07465482,-1.650357985,6.113604292000001,0.086412562,-2.181767405,1.3776068959999999,56.97915159,0.029968184,0.456097642,-0.23692977399999998,0.600375686,21941303,0,1,0,0,0
21973684,-0.083160966,0.071173524,-0.030118778,0.5439193,0.0,1485.0,1500.0,1544.0,1543.0,1456.0,1534.0,19.09298372,19.51968086,18.97533519,19.00420722,19.42902272,18.89562636,19.31801247,,,223.449973,223.449973,12.03517649,-0.0016330770000000001,-0.006458281,0.002486625,-0.103331547,0.011896893,-0.10024739,2.0,-0.9779955990000001,0.022004401,11,0,0,1,0,0.0,0,0,0,0,0,-0.8309657890000001,0.245631385,0.216410304,0.058996345,-12.80212697,173.1473051,56.06151618,-0.021835151,-0.035771035,0.00152484,0.0,2.165919605,0.503534284,-13.33217334,-7.209999999999999e-21,959.6016192,12.03503487,-0.485345426,0.238446315,-0.219283778,2.325619186,0.475131775,-13.2402047,-0.44569484600000003,0.254998685,-0.23070951899999997,-7.209999999999999e-21,58.45160483,59.08291983,3.9673081810000004,2.9689603860000005,15.33675344,20.30432336,-0.099351397,0.600129537,-0.18110483300000002,-19.147053200000002,16177545.11,6620172,435.1376289,12.17379755,96206.48201,1.14309219,0.461496202,0.27264431100000003,-0.138007934,-0.553371136,0.22095829399999997,-0.202135184,-0.8265925129999999,0.247798362,0.18789778199999999,0.900117345,-0.40741073899999997,0.075289084,0.134668765,0.597314149,398713822.5,327395300.8,456622.9502,19.13345669,2.182754551,18.99291982,-1.209685937,1.456267191,0,0,0.0,39.8714138,32.7364368,-2.9349033330000003,267.9233847,-56.91666518,3.4159585189999997,19.07961012,-1.728443231,6.336328898,-0.142226768,-2.086159591,1.3664554969999998,57.03779026,0.03802987,0.45627915399999996,-0.23805985899999998,0.6021073,21973684,0,1,0,0,0
22010065,-0.079783409,0.072314567,-0.030287726,0.543175978,0.0,1484.0,1500.0,1543.0,1541.0,1458.0,1535.069414,19.12730429,19.55482221,19.06171944,19.09070474,19.5174866,18.98061036,19.40492885,,,225.42118119999998,225.42118119999998,12.03496472,-0.0016299770000000001,-0.006455692,0.002477192,-0.10328258,0.011691223,-0.10029228300000001,2.0,-0.9753950790000001,0.024604921000000002,11,0,0,1,0,0.0,0,0,0,0,0,-0.8276572790000001,0.246395141,0.205393655,0.055722266,-12.20220864,172.7493249,56.05571418,-0.021842025,-0.035709108999999996,0.001947195,0.0,2.1079866640000002,0.512447015,-13.40209093,-7.209999999999999e-21,959.5966319,12.03463275,-0.45876503700000004,0.251634872,-0.226730321,2.1999278980000003,0.495681538,-13.43599799,-0.42500187799999994,0.260612816,-0.23925754600000002,-7.209999999999999e-21,58.63994636,59.19387263,3.971355088,3.0073505910000002,15.33684886,20.28529879,-0.09896899599999999,0.56705981,-0.181754637,-18.83646857,16214200.44,6620172,435.1289647,12.17260838,96206.57147000001,1.14309324,0.524585279,0.485745119,-0.245288516,-0.525167356,0.23464374100000002,-0.207059154,-0.823232435,0.248482929,0.17577786199999998,0.901545252,-0.40544154,0.078284915,0.12921239699999998,0.599791094,398713830.1,327395378.6,456668.7898,19.19422885,2.3668073609999998,19.02417425,-1.289557912,1.446963565,0,0,0.0,39.8714138,32.7364368,-2.809085487,268.58700560000005,-56.97689448,3.6417269,19.06674206,-1.7971132319999998,6.518693783,-0.39920194,-2.000417281,1.355107759,57.09801921,0.049730609,0.456284618,-0.239361966,0.604524182,22010065,0,1,0,0,0
22042446,-0.075615769,0.074109256,-0.031101259,0.54267824,0.0,1484.0,1500.0,1542.0,1539.0,1460.0,1536.0,19.27073155,19.70153718,19.14810369,19.17720226,19.60595049,19.06559437,19.49184524,,,227.39238939999998,227.39238939999998,12.03475295,-0.0016268779999999998,-0.006453102,0.002467758,-0.10323361199999999,0.011485553,-0.100337176,2.0,-0.9727945590000001,0.027205441,11,0,0,1,0,0.0,0,0,0,0,0,-0.82434877,0.24715889600000002,0.194377007,0.052448187,-11.60229031,172.3513447,56.04991219,-0.021849987999999997,-0.035662745,0.002327719,0.0,2.053253495,0.5354644510000001,-13.48028819,-7.209999999999999e-21,959.5929733999999,12.03422273,-0.429601681,0.253009573,-0.23647571,2.099809708,0.440504335,-13.4760217,-0.405284707,0.264244505,-0.24719959,-7.209999999999999e-21,58.82828789,59.30482543,3.975401994,3.0457407969999997,15.33694427,20.26627423,-0.098586595,0.533990083,-0.182404442,-18.52588394,16250855.77,6620172,435.50325180000004,12.17144304,96202.2472,1.143041829,1.154020435,0.386476117,-0.259365064,-0.49767031700000003,0.242567542,-0.21356058100000003,-0.8192309940000001,0.24914831,0.164530306,0.903021255,-0.40319940200000004,0.081115626,0.124107339,0.602150165,398713837.8,327395456.4,456714.6293,19.255001,2.5508601719999997,19.05542867,-1.369429886,1.4376599380000001,0,0,0.0,39.8714138,32.7364368,-2.680205619,269.2370099,-57.03763523,3.867944928,19.04814173,-1.8627551430000002,6.688078353,-0.665290359,-1.91784787,1.343696877,57.15875961,0.059592022,0.455797551,-0.24048364600000002,0.6064651999999999,22042446,0,1,0,0,0
22078827,-0.073518006,0.075855215,-0.031917994,0.54266423,0.0,1484.0,1500.0,1542.0,1537.0,1462.0,1537.0,19.24954033,19.67985211,19.18764001,19.21673698,19.6464332,19.10741068,19.53466053,,,228.2392838,228.2392838,12.0343205,-0.001623778,-0.006450513000000001,0.002458325,-0.103184645,0.011279882,-0.100382069,2.0,-0.970194039,0.029805961000000002,11,0,0,1,0,0.0,0,0,0,0,0,-0.82104026,0.24792265100000002,0.183360358,0.049174109,-11.00237198,171.9533644,56.04411019,-0.021859333999999998,-0.03561033,0.00278699,0.0,1.998520325,0.558481886,-13.55848546,-7.209999999999999e-21,959.589315,12.033812699999999,-0.408308805,0.257810567,-0.234079848,2.069028755,0.590602773,-13.55480054,-0.385567535,0.267876194,-0.255141635,-7.209999999999999e-21,59.0074964,59.41382255,3.9790415460000004,3.083953451,15.33703344,20.24511754,-0.09816167599999999,0.50782906,-0.183005538,-18.22850703,16287511.1,6620172,435.7649883,12.17027812,96199.27061,1.143006479,0.14461269,0.155148092,-0.197343658,-0.480478695,0.25094980899999997,-0.22496758100000003,-0.813745605,0.24981703100000002,0.155759494,0.9046086959999999,-0.400366535,0.083516061,0.12004544199999999,0.604366096,398713845.4,327395534.2,456760.4689,19.31577315,2.734912983,19.086683100000002,-1.44930186,1.4283563119999998,0,0,0.0,39.8714138,32.7364368,-2.55132575,269.8870142,-57.09837599,4.094162956,19.02954139,-1.928397055,6.857462924,-0.931378778,-1.835278459,1.332285995,57.21950002,0.066806147,0.45473259299999996,-0.24178992600000002,0.60775614,22078827,0,1,0,0,0
22111208,-0.068840166,0.077841098,-0.032130039,0.54323673,0.0,1484.0,1500.0,1542.0,1535.567113,1463.432887,1538.0,19.23168704,19.66159838,19.19579706,19.2248155,19.65477759,19.12031277,19.54793642,,,228.3331002,228.3331002,12.03374025,-0.0016206789999999999,-0.006447923,0.002448891,-0.103135677,0.011074212,-0.100426962,2.0,-0.967593519,0.032406481,11,0,0,1,0,0.0,0,0,0,0,0,-0.817731751,0.248686407,0.17234371,0.04590003,-10.40245365,171.5553842,56.03830819,-0.021868223,-0.035572365,0.003193625,0.0,1.924596692,0.5492758670000001,-13.61673702,-7.209999999999999e-21,959.5824861,12.03325284,-0.38229847100000003,0.268858915,-0.24806467199999999,1.9637328090000001,0.559694793,-13.53579554,-0.36512190200000005,0.275781826,-0.258424457,-7.209999999999999e-21,59.17493505,59.52029935,3.982156133,3.1219372930000002,15.33711455,20.22121316,-0.09768196300000001,0.49057138,-0.183543861,-17.948151100000004,16324166.43,6620172,435.7481143,12.16910283,96199.41578,1.143008271,0.08054159,0.084903016,0.058461378,-0.461531011,0.260123183,-0.229028285,-0.80802881,0.250462449,0.147108395,0.90621431,-0.39741934100000004,0.085874616,0.116010755,0.6064101,398713853.1,327395612.0,456806.3085,19.37654531,2.918965793,19.11793752,-1.529173835,1.419052685,0,0,0.0,39.8714138,32.7364368,-2.389569554,270.585405,-57.17054286,4.35207106,18.98890488,-1.994006868,7.025266198,-1.129092478,-1.777982762,1.3190132620000001,57.29166654,0.07473747900000001,0.45372666100000003,-0.24285917199999998,0.609113246,22111208,0,1,0,0,0
22143589,-0.06711531700000001,0.079311979,-0.033179255,0.54379964,0.0,1483.0,1500.0,1543.0,1533.112623,1465.887377,1539.0,19.28359417,19.71482348,19.20395411,19.23289401,19.66312198,19.13321486,19.5612123,,,228.42691659999997,228.42691659999997,12.03316,-0.001617497,-0.006443259000000001,0.002432684,-0.102886251,0.010906972,-0.10040980000000001,2.0,-0.964992999,0.035007001,11,0,0,1,0,0.0,0,0,0,0,0,-0.814423241,0.249450162,0.161327061,0.042625950999999995,-9.802535315,171.157404,56.03250619,-0.021875965,-0.035536103,0.003638013,0.0,1.849174352,0.537553312,-13.67343089,-7.209999999999999e-21,959.5754096000001,12.03268128,-0.362323612,0.278219628,-0.25261104300000004,1.8636458480000002,0.643137149,-13.64675319,-0.344619379,0.284021239,-0.261343411,-7.209999999999999e-21,59.34237371,59.62677615,3.9852707210000005,3.159921135,15.33719566,20.19730877,-0.09720225099999999,0.473313699,-0.184082185,-17.66779516,16360821.76,6620172,436.14343130000003,12.16791704,96194.875,1.14295427,0.938010847,0.124523521,-0.144028669,-0.431498993,0.26736906899999996,-0.23722199600000002,-0.80206685,0.25110812,0.138367291,0.9078451740000001,-0.39433945600000003,0.088238372,0.111908779,0.60826845,398713863.0,327395691.0,456863.13,19.42025805,3.128607722,19.12893368,-1.604780946,1.408465029,0,0,0.0,39.8714138,32.7364368,-2.225245836,271.2875745,-57.24360207,4.612454045,18.94654743,-2.059614175,7.19294598,-1.321466358,-1.722660852,1.305595126,57.36472539,0.08217034599999999,0.452241058,-0.24229936,0.61104286,22143589,0,1,0,0,0
22175970,-0.063484611,0.080987828,-0.033771309,0.5445211999999999,0.0,1483.0,1500.0,1544.0,1532.0,1467.0,1540.0,19.27365555,19.70472914,19.21211116,19.24097253,19.67146636,19.14611695,19.57448819,,,228.52073289999998,228.52073289999998,12.03257975,-0.001614164,-0.00643478,0.002404022,-0.102268239,0.010810394,-0.10027853800000001,2.0,-0.9623924779999999,0.037607522000000004,11,0,0,1,0,0.0,0,0,0,0,0,-0.810176663,0.250176472,0.150811668,0.039452914,-9.227399324,170.73425859999998,56.02416272,-0.021884213,-0.035515447,0.00410274,0.0,1.782339701,0.5276216220000001,-13.72610323,-7.209999999999999e-21,959.5676297,12.03211713,-0.341644591,0.280577217,-0.25557220399999997,1.9359421890000001,0.541853524,-13.71105269,-0.324096592,0.291817148,-0.264521038,-7.209999999999999e-21,59.50981236,59.73325294,3.9883853080000002,3.197904977,15.33727678,20.17340439,-0.09672253800000001,0.45605601799999995,-0.18462050800000002,-17.38743922,16397477.1,6620172,436.1623973,12.16675171,96194.67525,1.1429518220000001,0.304480973,0.521258086,-0.155287654,-0.41646466600000004,0.276675687,-0.242038802,-0.795779001,0.251739758,0.129730769,0.909510667,-0.391101105,0.090569596,0.107823421,0.6099705329999999,398713874.5,327395770.9,456926.854,19.45324865,3.3543328669999997,19.12719716,-1.677707513,1.397070337,0,0,0.0,39.8714138,32.7364368,-2.059717643,271.98382339999995,-57.316697899999994,4.872234765,18.90244089,-2.12416934,7.355987685,-1.515704951,-1.666106497,1.292188886,57.43782087,0.088869844,0.45135131799999995,-0.242817604,0.61192095,22175970,0,1,0,0,0
22208350,-0.060479915,0.081569004,-0.03332793,0.54614645,0.0,1483.0,1500.0,1545.0,1530.203641,1468.796359,1540.0,19.33024411,19.76280589,19.2202682,19.24905104,19.67981075,19.15901905,19.58776407,,,228.61454930000002,228.61454930000002,12.0319995,-0.0016108320000000002,-0.0064263,0.002375359,-0.10165022800000001,0.010713816000000001,-0.100147276,2.0,-0.959791958,0.040208042,11,0,0,1,0,0.0,0,0,0,0,0,-0.80259202,0.250769532,0.142079963,0.036639429,-8.740449841,170.221564,56.00677555,-0.021894397000000003,-0.035503895,0.004564619000000001,0.0,1.794126817,0.534085611,-13.74195781,-7.209999999999999e-21,959.5534096000001,12.03162086,-0.328416049,0.292802334,-0.261255212,1.834583465,0.63647378,-13.76523151,-0.303388285,0.295552711,-0.270066859,-7.209999999999999e-21,59.67725101,59.83972974,3.991499895,3.235888819,15.33735789,20.14950001,-0.09624282599999999,0.43879833799999995,-0.185158832,-17.10708329,16434132.43,6620172,436.494953,12.16558637,96190.82735,1.142906229,1.217311503,-0.065653516,-0.226568255,-0.39394196600000003,0.27917781399999997,-0.250178446,-0.7926818790000001,0.252376076,0.11515632099999999,0.9108309809999999,-0.38902142700000003,0.09386444099999999,0.101167041,0.611356576,398713886.0,327395850.8,456990.5779,19.48623925,3.580058012,19.12546064,-1.7506340809999998,1.385675645,0,0,0.0,39.8714138,32.7364368,-1.883162283,272.62586749999997,-57.39012896,5.1265016469999996,18.84232118,-2.17909197,7.476567001,-1.7270153169999998,-1.598268896,1.278891566,57.51125158,0.09876860900000001,0.44567401,-0.237950574,0.613187503,22208350,0,1,0,0,0
22245463,-0.057892524,0.083527955,-0.034037987,0.547167466,0.0,1483.0,1500.0,1546.0,1529.0,1470.0,1541.0,19.34636504,19.77914222,19.22842525,19.25712956,19.68815514,19.17192114,19.60103996,,,228.70836569999997,228.70836569999997,12.03141925,-0.0016074989999999999,-0.006417821,0.002346697,-0.101032216,0.010617238999999999,-0.100016014,2.0,-0.957191438,0.042808562,11,0,0,1,0,0.0,0,0,0,0,0,-0.795007378,0.251362592,0.133348258,0.033825944,-8.253500358,169.70886950000002,55.98938837,-0.021904134,-0.035493691,0.005042005,0.0,1.805913934,0.5405496,-13.75781238,-7.209999999999999e-21,959.5391894999999,12.03112459,-0.289362854,0.294371282,-0.27407711100000004,1.852557837,0.6058790039999999,-13.71195916,-0.282679978,0.299288275,-0.27561268,-7.209999999999999e-21,59.84468966,59.94620654,3.994614482,3.2738726610000004,15.337439000000002,20.12559563,-0.09576311300000001,0.42154065700000004,-0.185697155,-16.82672735,16470787.76,6620172,436.42166849999995,12.16442104,96191.7055,1.142916559,0.7824744220000001,-0.028103329,-0.014639563999999999,-0.37607272,0.28212734,-0.255378074,-0.7859055070000001,0.253009553,0.10644932800000001,0.9125315540000001,-0.38551989,0.096177132,0.09699494800000001,0.61256664,398713897.4,327395930.7,457054.3019,19.51922985,3.805783157,19.12372412,-1.823560649,1.374280952,0,0,0.0,39.8714138,32.7364368,-1.706606923,273.2679117,-57.46356003,5.380768528,18.78220147,-2.2340146,7.597146317999999,-1.9383256830000002,-1.530431295,1.265594246,57.58468229,0.106775574,0.44119094700000006,-0.235144104,0.61422133,22245463,0,1,0,0,0
22281112,-0.05513354,0.085505781,-0.034436053,0.5491067,0.0,1482.0,1500.0,1547.0,1528.0,1471.0,1542.0,19.31354219,19.74579267,19.236582300000002,19.26520807,19.69649952,19.18482323,19.61431584,,,228.8021821,228.8021821,12.030839,-0.001604166,-0.006409341,0.002318034,-0.100414204,0.010520661,-0.099884752,2.0,-0.954590918,0.045409082,11,0,0,1,0,0.0,0,0,0,0,0,-0.787422735,0.251955652,0.124616553,0.031012459,-7.766550876,169.196175,55.9720012,-0.021913834,-0.03548562,0.005561821999999999,0.0,1.799683217,0.5522674,-13.79119807,1.14541235,959.5268099,12.0306167,-0.283575957,0.299620011,-0.274556124,1.789591115,0.501914995,-13.77679444,-0.262397437,0.304105754,-0.27993411,1.14541235,60.01213544,60.05852684,3.99740609,3.31320793,15.337524900000002,20.10606097,-0.095370704,0.410879961,-0.186211425,-16.54464609,16507443.09,6620172,436.7070603,12.16328599,96188.41743,1.1428774640000001,1.273228198,0.367880077,-0.37507811799999996,-0.35639368,0.295521895,-0.254600654,-0.7788967090000001,0.25362413699999997,0.097847974,0.914242199,-0.38189983,0.09844173,0.092839745,0.613657062,398713908.9,327396010.5,457118.0258,19.55222044,4.031508302,19.1219876,-1.8964872169999998,1.36288626,0,0,0.0,39.8714138,32.7364368,-1.5190724430000002,273.92296560000005,-57.54026672,5.6429161379999995,18.71595509,-2.288190475,7.707634587,-2.139653551,-1.4684788309999999,1.251834028,57.66138891,0.114657253,0.435845865,-0.231375633,0.615187918,22281112,0,1,0,0,0
22318986,-0.052772728,0.087273686,-0.034797856,0.550832082,0.0,1482.0,1500.0,1550.0,1526.159832,1472.840168,1543.0,19.38712188,19.82110795,19.24473935,19.27328659,19.70484391,19.19772533,19.62759173,,,228.89599840000002,228.89599840000002,12.03025875,-0.001600834,-0.006400861999999999,0.002289372,-0.09979619199999999,0.010424083,-0.09975349,2.0,-0.951990398,0.048009602,11,0,0,1,0,0.0,0,0,0,0,0,-0.779838093,0.252548712,0.11588484800000001,0.028198973999999998,-7.279601392999999,168.6834805,55.95461403,-0.02192627,-0.035480369,0.00610583,0.0,1.744584806,0.578234506,-13.87213137,5.397394749,959.5194223999999,12.0300773,-0.259508262,0.30155697,-0.280141246,1.737402084,0.595079025,-13.77584718,-0.24326964899999998,0.311857589,-0.280934768,5.397394749,60.17958421,60.17330256,4.000061983,3.353111062,15.33761282,20.08836246,-0.09501498,0.40299128799999995,-0.186715587,-16.26183987,16544098.42,6620172,436.91642189999993,12.16212137,96185.98116,1.142848615,0.261789399,-0.288113092,-0.035140114,-0.328122768,0.29862880399999997,-0.266633197,-0.771782387,0.254216587,0.089129858,0.9159498359999999,-0.37820923799999995,0.100693644,0.08860598900000001,0.614772195,398713920.3,327396090.4,457181.7497,19.58521104,4.257233447,19.12025108,-1.969413785,1.3514915680000001,0,0,0.0,39.8714138,32.7364368,-1.301760559,274.61330449999997,-57.62585753,5.926437739,18.63309201,-2.340341011,7.790754069,-2.313907039,-1.422487946,1.236818346,57.74698043,0.12431885699999999,0.429640824,-0.226385559,0.616217,22318986,0,1,0,0,0
