timestamp,control[0],control[1],control[2],control[3],control[4],output[2],output[3],output[4],output[5],output[6],output[7],indicated_airspeed_m_s,true_airspeed_m_s,indicated_airspeed_m_s.1,equivalent_airspeed_m_s,true_airspeed_m_s.1,equivalent_ground_minus_wind_m_s,true_ground_minus_wind_m_s,differential_pressure_raw_pa,differential_pressure_filtered_pa,temperature,gyro_bias[0],gyro_bias[1],gyro_bias[2],accel_bias[0],accel_bias[1],accel_bias[2],instance_count,seq_reached,seq_current,seq_total,item_changed_index,item_do_jump_remaining,valid,warning,finished,failure,stay_in_failsafe,flight_termination,item_do_jump_changed,execution_mode,nav_roll,nav_pitch,nav_bearing,target_bearing,xtrack_error,wp_dist,acceptance_radius,rollspeed_integ,pitchspeed_integ,yawspeed_integ,additional_integ1,x,y,z,temperature.1,pressure,temperature.2,gyro_rad[0],gyro_rad[1],gyro_rad[2],accelerometer_m_s2[0],accelerometer_m_s2[1],accelerometer_m_s2[2],x.1,y.1,z.1,temperature.3,altitude_sp,altitude_filtered,height_rate_setpoint,height_rate,airspeed_sp,airspeed_filtered,airspeed_derivative_sp,airspeed_derivative,throttle_integ,pitch_integ,baro_alt_meter,baro_temp_celcius,baro_pressure_pa,rho,xyz[0],xyz[1],xyz[2],xyz[0].1,xyz[1].1,xyz[2].1,roll_body,pitch_body,yaw_body,yaw_sp_move_rate,q_d[0],q_d[1],q_d[2],q_d[3],thrust_body[0],lat,lon,alt,vel_m_s,vel_n_m_s,vel_e_m_s,vel_d_m_s,cog_rad,ref_lat,ref_lon,x.2,y.2,z.2,vx,vy,vz,ax,ay,az,yaw,dist_bottom,roll,pitch,yaw.1,thrust_body[0].1,isTakeoff,isClimbing,isDescending,isCruise,isLand
22009982,-0.058465652,-0.057661477,-0.007415692,0.6021318529999999,0.0,1496.0,1500.0,1542.0,1517.0,1482.0,1475.0,19.59255791,20.01403435,19.60531182,19.60965159,20.03144524,19.64898677,20.07162621,235.4912035,235.4912035,12.145607400000001,-0.0013849210000000001,-0.006863200000000001,0.0039614870000000005,-0.17461490300000002,-0.015398301000000001,-0.11112233,2.0,-1.0,0.0,15,0,0,1,0,0.0,0,0,0,0,0,-0.42673098200000004,0.197987622,1.170205952,0.80576921,-25.41233617,250.06273,56.65509961,-0.020666817,-0.037393181,-0.011372711,0.0,1.877109277,0.452533942,-9.487170834,2754.1082,961.5630472000001,12.14486816,-0.013649682,-0.0066137240000000005,0.027369485,1.967362563,0.54155217,-9.592848332,-0.007229693000000001,-0.014732345,0.028903623,2754.1082,38.0895854,42.26171805,3.791357488,4.56517861,15.32412094,20.15688195,-0.096655224,0.271399085,-0.060443277999999996,-44.96963725,439.6933955,12.14428385,96154.0259,1.1424689670000001,-2.266638215,-0.431399818,-0.026253152999999998,-0.021862003999999997,-0.000512681,0.013736446000000001,-0.478024216,0.19873455199999998,1.1429887090000002,0,0.8004437740000001,-0.250275275,-0.046347214000000005,0.5426731920000001,0.580642711,398713787.8,327388354.6,439188.6589,19.44182943,1.8754910919999999,19.34183031,-4.74305061,1.473849438,39.8714138,32.7368418,-3.602660381,172.9006801,-39.80336033,1.8714092169999998,19.41712288,-4.76427257,-0.480341646,-0.090666411,0.180681067,1.45207081,39.96168155,-0.412917307,-0.018892656,-0.103953641,0.57736444,0,1,0,0,0
22048874,-0.077307213,-0.063790529,-0.0074965809999999996,0.60164815,0.0,1496.0,1500.0,1602.0,1532.0,1467.0,1469.0,19.6035721,20.02551518,19.598388,19.60334922,20.02521192,19.64063874,20.06330402,235.2712281,235.2712281,12.14430151,-0.001389279,-0.006865153000000001,0.0039512620000000005,-0.174572157,-0.015158531999999999,-0.11111620300000001,2.0,-1.0,0.0,15,0,0,1,0,0.0,0,0,0,0,0,-0.45277482399999996,0.198322702,1.157935034,0.80380555,-24.84991202,249.4363244,56.73173885,-0.020695486000000003,-0.037463685,-0.011425656999999999,0.0,1.92099868,0.43726032600000003,-9.552231634,2754.1082,961.5223814999999,12.143313699999998,-0.008339992,-0.011813717,0.026628087999999998,1.9735827730000002,0.382315969,-9.574246528,-0.006799426,-0.016404791999999998,0.028854926,2754.1082,38.29160770000001,42.44546219,3.7922714589999997,4.549939383,15.3242712,20.18814397,-0.097277462,0.279828728,-0.061377615,-44.7861307,439.9038039,12.14297489,96151.61016,1.142440162,-1.978176561,0.10040427199999999,-0.471912603,-0.069457043,-0.022983761000000002,0.016322059,-0.490249594,0.19921192399999998,1.1304958459999999,0,0.8022213109999999,-0.255587118,-0.04787137,0.537415326,0.579020228,398713794.9,327388452.5,439393.2849,19.43558226,1.852332466,19.33852771,-4.737055411,1.475030087,39.8714138,32.7368418,-3.523034867,173.75201909999998,-40.01206252,1.849782306,19.41386733,-4.75621042,-0.482460328,-0.08438700800000001,0.171401312,1.453065567,40.17038445,-0.395229262,-0.013692773,-0.112022008,0.5764786,0,1,0,0,0
22090892,-0.100103367,-0.062172421,-0.007972933,0.6002805999999999,0.0,1496.0,1500.0,1601.0,1540.422484,1458.577516,1468.0,19.56755075,19.988926,19.60793487,19.61318613,20.03545512,19.64883105,20.07186733,235.49077200000002,235.49077200000002,12.14302992,-0.00139196,-0.006866361999999999,0.003941289000000001,-0.17454192600000001,-0.015074711000000001,-0.11111894900000001,2.0,-1.0,0.0,15,0,0,1,0,0.0,0,0,0,0,0,-0.473955805,0.198684565,1.145862195,0.801763736,-24.27587302,248.7996529,56.7919796,-0.020720857,-0.03752405,-0.011498791000000001,0.0,2.3374302080000002,0.42740299,-9.458905137,2754.1082,961.5023139,12.14205076,-0.03562555,-0.022454352,0.022259288,2.790364789,0.513799555,-9.532086925,-0.047096698,-0.0321442,0.027890767,2754.1082,38.493629999999996,42.62920634,3.79318543,4.534700156,15.32442145,20.21940598,-0.097899699,0.288258371,-0.062311952999999996,-44.60262414,440.06033099999996,12.14165993,96149.77174,1.142418456,-1.845551856,0.411769933,0.226053368,-0.116025234,-0.039299773999999996,0.013726838,-0.50170287,0.19965197199999998,1.118159347,0,0.8039982170000001,-0.26059341,-0.04916220599999999,0.53221862,0.577817569,398713801.7,327388550.8,439597.3617,19.42933522,1.827343469,19.33644529,-4.732890578,1.476338532,39.8714138,32.7368418,-3.451222045,174.5427612,-40.20541563,1.8311038130000001,19.42506202,-4.753351016,-0.44429579999999996,0.291981915,0.056316064000000006,1.45393736,40.36373671,-0.374707119,-0.007550459,-0.12116403099999999,0.5753888,0,1,0,0,0
22133347,-0.11860604599999999,-0.060431602,-0.008505853,0.5983797,0.0,1496.0,1500.0,1600.0,1549.0,1450.0,1468.366473,19.72413778,20.1491218,19.62217339,19.62762028,20.05039164,19.66173485,20.08524047,235.8355122,235.8355122,12.1417681,-0.001394163,-0.006867359,0.003931389,-0.174515261,-0.015035312,-0.11112422300000001,2.0,-1.0,0.0,15,0,0,1,0,0.0,0,0,0,0,0,-0.482418534,0.199116478,1.134307407,0.7995175179999999,-23.671456699999997,248.1361318,56.80933199,-0.020747388999999998,-0.037582646000000004,-0.011576697,0.0,2.762116523,0.417665667,-9.362069096,2754.1082,961.4827027000001,12.14079429,-0.07260335799999999,-0.03966722,0.024500012999999998,2.815820505,0.512831896,-9.46670586,-0.08829641,-0.048195302999999995,0.026906323,2754.1082,38.6956523,42.81260991,3.794116421,4.520249434,15.32456655,20.24917021,-0.09849208300000001,0.294214214,-0.063248264,-44.41683007,440.2542989,12.1403629,96147.54794,1.142391917,-1.080188614,-0.107109413,-0.612000181,-0.202691013,-0.050787733,0.014393623999999999,-0.512800499,0.200072433,1.105543245,0,0.805836269,-0.265475226,-0.050268726,0.526899676,0.576930582,398713808.6,327388649.1,439801.4385,19.42308818,1.802354471,19.33436287,-4.728725745,1.477646976,39.8714138,32.7368418,-3.3794092239999998,175.33350330000002,-40.39876873,1.81242532,19.43625672,-4.750491612,-0.406131271,0.668350837,-0.058769184,1.454809153,40.55708897,-0.367613477,-0.00236005,-0.12796138699999998,0.5745549,0,1,0,0,0
22179802,-0.119124464,-0.058325024,-0.009518562,0.5963797239999999,0.0,1495.0,1500.0,1598.0,1558.0,1441.0,1469.0,19.69355685,20.11796865,19.63641191,19.64205443,20.06532817,19.67463865,20.098613600000004,236.1802525,236.1802525,12.14050628,-0.0013963670000000001,-0.006868356,0.003921488,-0.17448859600000002,-0.014995913,-0.111129496,2.0,-1.0,0.0,15,0,0,1,0,0.0,0,0,0,0,0,-0.49088126299999996,0.19954839100000002,1.1227526190000001,0.7972713,-23.06704039,247.4726108,56.82668438,-0.020772837,-0.037637129,-0.011679984,0.0,2.8778665489999997,0.44069857,-9.213742065,2754.1082,961.4578329,12.13954574,-0.14521373199999998,-0.056490609000000004,0.019707913,2.792144755,0.48813165399999997,-9.17041964,-0.154679005,-0.055406452,0.025619245,2754.1082,38.8976746,42.99428309,3.795133887,4.509805046,15.32468545,20.27132429,-0.09893278400000001,0.287600867,-0.06419460099999999,-44.2194133,440.3879851,12.13906571,96145.99407999999,1.142373429,-0.40723834700000006,0.052948342,-0.450402584,-0.27786661,-0.048366824,0.005395181999999999,-0.518198726,0.200502972,1.097494437,0,0.807183305,-0.267958507,-0.050433171,0.523553472,0.5760931029999999,398713815.5,327388747.4,440005.5153,19.41684114,1.7773654730000001,19.33228046,-4.724560912,1.478955421,39.8714138,32.7368418,-3.303957013,176.1739542,-40.60308616,1.797051577,19.46462794,-4.741901045,-0.336487408,0.7913702229999999,0.115597916,1.45575048,40.76140616,-0.357843507,0.001907858,-0.134404684,0.57428384,0,1,0,0,0
22230256,-0.109123601,-0.056637892999999995,-0.011057476,0.59431946,0.0,1495.0,1500.0,1596.0,1558.0,1441.0,1470.407281,19.65006658,20.07369775,19.65065043,19.65648858,20.08026469,19.68754245,20.11198673,236.52499269999996,236.52499269999996,12.13924446,-0.00139857,-0.006869353000000001,0.003911587,-0.17446193100000001,-0.014956513000000001,-0.11113477,2.0,-1.0,0.0,15,0,0,1,0,0.0,0,0,0,0,0,-0.49934399100000004,0.199980303,1.111197831,0.795025082,-22.46262408,246.8090897,56.84403678,-0.020793898,-0.037682505,-0.011787797,0.0,2.80629033,0.483601989,-9.034193019,2754.1082,961.4297743999999,12.138302000000001,-0.234750376,-0.061610076,0.015733221000000002,2.7508474560000002,0.447153597,-8.886639147,-0.236331462,-0.057257417000000005,0.024148662999999997,2754.1082,39.0996969,43.17595628,3.7961513539999996,4.4993606580000005,15.32480435,20.29347837,-0.099373486,0.28098752,-0.065140938,-44.02199652,440.7096248,12.13776904,96142.32652,1.142329902,-0.396491331,0.163774774,0.448003389,-0.333343065,-0.036196931,0.00416178,-0.5260351360000001,0.20095727,1.086919977,0,0.8088305240000001,-0.271501527,-0.050856776,0.519120456,0.575191169,398713822.3,327388845.7,440209.5921,19.4105941,1.752376475,19.33019804,-4.7203960789999995,1.480263866,39.8714138,32.7368418,-3.227113969,177.0334019,-40.81159372,1.7829407830000001,19.49956337,-4.731120248,-0.254813355,0.8175691820000001,0.400582548,1.456718379,40.96991372,-0.349325195,0.007100805,-0.141087031,0.5738744,0,1,0,0,0
22269423,-0.104108695,-0.055311523,-0.012265766,0.593174061,0.0,1494.0,1500.0,1594.0,1554.0,1445.0,1471.0,19.689248100000004,20.1140668,19.66488895,19.67092273,20.09520121,19.70044624,20.12535987,236.869733,236.869733,12.13798263,-0.001400774,-0.00687035,0.0039016859999999997,-0.174435266,-0.014917113999999999,-0.11114004300000001,2.0,-1.0,0.0,15,0,0,1,0,0.0,0,0,0,0,0,-0.50780672,0.200412216,1.099643044,0.7927788640000001,-21.85820776,246.14556859999996,56.86138917,-0.020813183,-0.03773555,-0.011928438999999999,0.0,2.718710181,0.5143466179999999,-8.901297137,2443.654689,961.4060864,12.13706522,-0.309738365,-0.056256629,0.007523551,2.7118430780000002,0.571589157,-8.844982617000001,-0.304985121,-0.057125007,0.019916953,2443.654689,39.3017192,43.35762946,3.79716882,4.48891627,15.32492325,20.31563245,-0.099814187,0.27437417399999997,-0.066087275,-43.82457975,440.8557013,12.13647994,96140.62954,1.1423096959999999,-0.551876435,-0.074706391,-0.098855885,-0.36325994799999994,-0.031932617,-0.007345039,-0.534885863,0.20139986,1.0749521640000002,0,0.810664938,-0.275494685,-0.051322651,0.514087734,0.574497478,398713829.0,327388942.6,440410.2771,19.43449671,1.7368093619999998,19.354496899999997,-4.710578116000001,1.481111844,39.8714138,32.7368418,-3.1532045039999996,177.8697903,-41.01358385,1.771324985,19.53381558,-4.714942374,-0.163509863,0.8344789,0.587510486,1.457507265,41.17190385,-0.33304933800000003,0.011890211999999999,-0.14702383,0.573745162,0,1,0,0,0
22311166,-0.101866811,-0.054219782,-0.013425945,0.5911429,0.0,1493.0,1500.0,1592.55191,1551.8961789999998,1447.1038210000002,1472.0,19.73905769,20.16523044,19.67912747,19.68535688,20.11013773,19.71335004,20.138733,237.2144732,237.2144732,12.13672081,-0.0014029779999999998,-0.006871347,0.003891786,-0.17440860100000002,-0.014877713999999998,-0.111145317,2.0,-1.0,0.0,15,0,0,1,0,0.0,0,0,0,0,0,-0.5162694489999999,0.20084412899999998,1.088088256,0.790532646,-21.25379145,245.4820476,56.87874156,-0.020827278,-0.037780765,-0.01206168,0.0,2.587133361,0.5116653170000001,-8.896656242999999,1279.728274,961.3944130000001,12.13584759,-0.35492952200000005,-0.044599541,-0.000105697,2.6964365989999997,0.426076621,-8.777467155,-0.337903568,-0.05154007,0.008094584,1279.728274,39.5037415,43.53930264,3.798186287,4.478471882,15.32504215,20.33778653,-0.100254889,0.267760827,-0.067033612,-43.62716297,441.06359469999995,12.13520588,96138.26366,1.1422816709999999,-0.343450696,0.29334428,-0.138066366,-0.378184588,-0.019051806,-0.026181577,-0.543323232,0.201825893,1.0629506340000001,0,0.812520426,-0.279326051,-0.051639994,0.509038928,0.5740591620000001,398713835.7,327389039.5,440610.6055,19.46156792,1.722232446,19.38156831,-4.700166033,1.48191143,39.8714138,32.7368418,-3.0843154680000002,178.6667158,-41.20442028,1.76397904,19.56689854,-4.6895281230000005,-0.055726869000000005,0.835491323,0.6066274779999999,1.4579897919999998,41.36274028,-0.315999212,0.017216163,-0.153976541,0.573771456,0,1,0,0,0
22353621,-0.101222544,-0.052865573,-0.014889528,0.58879757,0.0,1493.0,1500.0,1591.0,1550.0,1449.0,1472.0,19.77629235,20.203201999999997,19.69336599,19.69979103,20.12507425,19.72625384,20.15210613,237.5592134,237.5592134,12.13545899,-0.0014051810000000001,-0.006872344,0.003881885,-0.174381935,-0.014838315,-0.11115059,2.0,-1.0,0.0,15,0,0,1,0,0.0,0,0,0,0,0,-0.5247321779999999,0.20127604100000002,1.076533468,0.7882864279999999,-20.64937513,244.81852650000002,56.89609395,-0.020840685,-0.037817668,-0.012191381999999999,0.0,2.455556542,0.508984015,-8.89201535,115.80186,961.3827397,12.13462995,-0.37484664100000004,-0.042859512999999995,-0.006795781999999999,2.4942607430000003,0.477345329,-8.861361372000001,-0.370822015,-0.045955132999999995,-0.003727786,115.80186,39.71618188,43.72894435,3.799326227,4.46803239,15.32518033,20.35632771,-0.10062294599999999,0.258343246,-0.068031047,-43.41420954,441.2847018,12.13393905,96135.69308,1.142251079,0.01285566,0.338590485,0.35596586399999997,-0.389278274,-0.008516346999999999,-0.032379434,-0.54811893,0.202247747,1.053857812,0,0.814107237,-0.281607553,-0.051403585,0.505256122,0.5737806879999999,398713842.4,327389136.3,440810.934,19.48863912,1.707655531,19.40863973,-4.689753951,1.482711015,39.8714138,32.7368418,-3.0153335439999998,179.46462739999998,-41.39544268,1.7568498,19.59993789,-4.664080437,0.052988982000000004,0.835234742,0.62519727,1.458458263,41.55376268,-0.303438179,0.022622293999999998,-0.160410587,0.57392734,0,1,0,0,0
22404076,-0.09886322199999999,-0.051579419,-0.016471748999999997,0.5864946999999999,0.0,1492.0,1500.0,1588.0,1550.0,1449.0,1473.0,19.73962535,20.16607358,19.70760451,19.71422518,20.14001077,19.73915764,20.16547927,237.9039537,237.9039537,12.13419717,-0.001407385,-0.006873341,0.003871984,-0.17435527,-0.014798916,-0.11115586400000001,2.0,-1.0,0.0,15,0,0,1,0,0.0,0,0,0,0,0,-0.533194907,0.201707954,1.06497868,0.78604021,-20.04495882,244.1550054,56.91344635,-0.020855081,-0.037859679,-0.012332332,0.0,2.444442627,0.482070658,-8.941451669,1072.393597,961.3559859999999,12.13341232,-0.387302081,-0.031885659,-0.017479887,2.570492954,0.481136044,-8.985518322999999,-0.384339329,-0.038123727,-0.014693137,1072.393597,39.94345724,43.92993296,3.8006405639999996,4.457599871,15.32534594,20.36972424,-0.10088756,0.24493254,-0.069101244,-43.17913246,441.5178181,12.13267275,96132.98538,1.1422188640000002,-0.146138809,-0.60472633,-0.565429113,-0.39705339799999995,-0.005277036999999999,-0.04359828,-0.555069357,0.20264674100000002,1.042339354,0,0.81597473,-0.28482672800000003,-0.051351427000000005,0.500420568,0.573752477,398713849.0,327389233.1,441011.2625,19.51571033,1.693078616,19.43571114,-4.679341868,1.4835106009999999,39.8714138,32.7368418,-2.939871065,180.3313329,-41.59944009,1.764839355,19.62993552,-4.6363000969999995,0.226787127,0.746443977,0.6055906320000001,1.457946093,41.75776009,-0.294720214,0.027831143,-0.16587955,0.57398236,0,1,0,0,0
22442531,-0.095962475,-0.050739382,-0.017948642,0.584650502,0.0,1491.0,1500.0,1586.0,1549.0,1450.0,1474.0,19.8163945,20.24475093,19.72184303,19.72865933,20.1549473,19.75206144,20.178852399999997,238.24869390000003,238.24869390000003,12.13293535,-0.0014095879999999998,-0.006874338000000001,0.003862083,-0.174328605,-0.014759516,-0.111161137,2.0,-1.0,0.0,15,0,0,1,0,0.0,0,0,0,0,0,-0.541657636,0.202139867,1.053423892,0.783793992,-19.4405425,243.4914844,56.93079874,-0.020870724,-0.037901534,-0.01247243,0.0,2.445107031,0.452788001,-8.996175413,2236.320012,961.3277577,12.13219468,-0.400558564,-0.019770063,-0.02875025,2.46047004,0.40937504799999996,-9.040993698,-0.395959688,-0.030072671000000002,-0.025574693,2236.320012,40.17073259,44.13092157,3.801954901,4.447167352,15.32551156,20.38312077,-0.101152174,0.23152183399999998,-0.070171441,-42.94405539,441.65357170000004,12.13141666,96131.42981,1.142200356,0.23392525600000003,0.478828894,-0.29145173,-0.400910169,-0.001902775,-0.056564275,-0.562943275,0.20304168,1.029571697,0,0.817980217,-0.288459586,-0.051314473,0.49504057799999995,0.573848575,398713855.6,327389329.8,441210.6919,19.54320964,1.6808561690000001,19.46342466,-4.668073615,1.4841981130000002,39.8714138,32.7368418,-2.864408586,181.1980384,-41.8034375,1.77282891,19.65993314,-4.608519757,0.400585271,0.657653212,0.585983994,1.4574339219999999,41.961757500000004,-0.278279058,0.032984372000000005,-0.17130242399999998,0.57414776,0,1,0,0,0
22488986,-0.09150555099999999,-0.049621247,-0.019595851,0.583019386,0.0,1490.529706,1500.0,1584.0,1547.0,1452.0,1474.0,19.77800459,20.20555855,19.73608155,19.74309348,20.16988382,19.76496524,20.19222553,238.59343419999996,238.59343419999996,12.13167352,-0.001411792,-0.006875335,0.003852183,-0.17430194,-0.014720117,-0.11116641099999999,2.0,-1.0,0.0,15,0,0,1,0,0.0,0,0,0,0,0,-0.550120365,0.20257178,1.041869105,0.7815477740000001,-18.83612619,242.8279633,56.94815113,-0.020883314,-0.037941175,-0.012609967,0.0,2.418001481,0.42795496899999996,-9.082917475,2754.1082,961.304914,12.1309913,-0.40682889899999997,-0.013610407,-0.038240781,2.343622087,0.449850889,-9.138599962999999,-0.399176362,-0.020025484,-0.035002766,2754.1082,40.39800794,44.33191018,3.803269238,4.436734832,15.32567718,20.39651731,-0.10141678800000001,0.21811112800000002,-0.071241638,-42.70897832,441.80505250000004,12.13017359,96129.71923999999,1.142180076,-0.42843231200000004,-0.028119649,0.742152205,-0.400189545,0.008459064,-0.056222083,-0.565795237,0.20344488800000002,1.021269263,0,0.819571198,-0.289928392,-0.050646632999999996,0.491608036,0.573945174,398713861.9,327389425.4,441402.2743,19.57444589,1.689185814,19.49674312,-4.649331866,1.483907345,39.8714138,32.7368418,-2.79234131,182.0229708,-41.99567367,1.790244395,19.68284814,-4.586203309,0.567502095,0.5585826429999999,0.51086389,1.456235811,42.15399395,-0.266688207,0.038033332999999996,-0.17700429899999998,0.574477091,0,1,0,0,0
22527441,-0.091343324,-0.048327827999999996,-0.020788408,0.581256,0.0,1490.0,1500.0,1582.0,1546.44989,1452.55011,1475.0,19.87764515,20.30778641,19.75032007,19.75752764,20.18482034,19.77786903,20.20559866,238.9381744,238.9381744,12.1304117,-0.001413995,-0.006876332,0.0038422820000000002,-0.174275275,-0.014680718,-0.111171684,2.0,-1.0,0.0,15,0,0,1,0,0.0,0,0,0,0,0,-0.558583094,0.20300369199999999,1.030314317,0.779301556,-18.23170987,242.16444219999997,56.96550352,-0.020895273,-0.037980887000000005,-0.012748019,0.0,2.36864225,0.406687681,-9.19531768,2754.1082,961.2863852,12.12979935,-0.407258823,-0.003936088,-0.050309243,2.362868171,0.398313216,-9.310422251,-0.39565867200000004,-0.008378680999999999,-0.043266078,2754.1082,40.62528329,44.53289879,3.804583575,4.426302313,15.325842800000002,20.40991384,-0.10168140199999999,0.204700422,-0.072311835,-42.47390125,442.0368367,12.12893052,96127.03573999999,1.142148214,-0.155178677,0.248025587,-0.669240016,-0.390404846,0.0030372740000000004,-0.062092524,-0.568365777,0.20385550800000002,1.012911999,0,0.821199755,-0.29128314,-0.049888218,0.488155444,0.574045657,398713868.1,327389521.0,441593.8566,19.60568214,1.6975154590000001,19.53006157,-4.630590118,1.4836165780000001,39.8714138,32.7368418,-2.722027414,182.8263303,-42.18183601,1.812527698,19.70210548,-4.566708572,0.730865208,0.454203291,0.407075045,1.45468346,42.34015672,-0.253036718,0.042810448,-0.182050661,0.57494575,0,1,0,0,0
22565896,-0.09048065699999999,-0.047102368,-0.022085168999999998,0.57934165,0.0,1489.0,1500.0,1581.0,1544.429486,1454.570514,1475.0,19.91180638,20.342572399999998,19.76455859,19.77196179,20.19975686,19.79077283,20.2189718,239.2829147,239.2829147,12.12914988,-0.001416199,-0.006877329000000001,0.0038323809999999997,-0.174248609,-0.014641318,-0.111176958,2.0,-1.0,0.0,15,0,0,1,0,0.0,0,0,0,0,0,-0.567045823,0.203435605,1.018759529,0.7770553379999999,-17.62729356,241.5009212,56.98285592,-0.020908404,-0.038021393,-0.012893588000000001,0.0,2.311568282,0.38929246700000003,-9.303503792,2754.1082,961.2660491,12.12854808,-0.39925844200000005,-0.009274820999999999,-0.052579901,2.300286292,0.508623983,-9.339185111,-0.392433624,0.0008160089999999999,-0.050428886,2754.1082,40.83587572,44.71805269,3.805855481,4.41830171,15.32598992,20.41674492,-0.101815081,0.192102749,-0.073301251,-42.25083424,442.15201940000003,12.12768745,96125.7247,1.142132632,0.419334955,0.297682535,-0.48780808299999995,-0.385973962,0.008435467,-0.07161964900000001,-0.573974942,0.204257303,1.001286684,0,0.8231577059999999,-0.293964942,-0.049378578,0.48327695600000004,0.57421064,398713874.4,327389616.6,441785.4389,19.63691838,1.705845104,19.56338003,-4.61184837,1.48332581,39.8714138,32.7368418,-2.648625417,183.6504769,-42.37228442,1.840687507,19.71926586,-4.549118465,0.887123518,0.361978885,0.33167706199999997,1.452852986,42.53060542,-0.23732181600000002,0.047919165,-0.18665003600000002,0.5756451,0,1,0,0,0
22608350,-0.088283725,-0.045581919000000005,-0.024065355,0.57844747,0.0,1488.0,1500.0,1579.0,1544.0,1455.0,1476.0,19.90393603,20.33483771,19.77879711,19.78639594,20.21469338,19.80367663,20.23234493,239.6276549,239.6276549,12.12788806,-0.001418402,-0.006878326,0.003822481,-0.174221944,-0.014601919,-0.11118223099999999,2.0,-1.0,0.0,15,0,0,1,0,0.0,0,0,0,0,0,-0.5724940829999999,0.203837993,1.008245497,0.7749253559999999,-17.06447465,240.8265751,56.98831994,-0.020919282,-0.038056457,-0.013028632,0.0,2.223507702,0.387449626,-9.3947638,2754.1082,961.2384533,12.12705856,-0.39500765299999996,-0.001713638,-0.064917382,2.265635831,0.42630782799999994,-9.357480569,-0.390383981,0.000161663,-0.053171460999999996,2754.1082,41.03789865,44.89507278,3.8071055910000005,4.411550307,15.32612755,20.42020354,-0.10188150300000001,0.17992270600000002,-0.074249173,-42.03393642,442.45354840000005,12.12644509,96122.23021000001,1.142091095,0.6427756570000001,0.16230595,-0.20059965600000002,-0.380208114,0.0062632059999999995,-0.07330192099999999,-0.5801768310000001,0.204615959,0.988744666,0,0.825216043,-0.296905811,-0.048863642,0.477992371,0.574715522,398713880.6,327389712.2,441977.0212,19.66815463,1.71417475,19.59669849,-4.5931066210000004,1.4830350419999998,39.8714138,32.7368418,-2.568178538,184.522045,-42.57251063,1.882253375,19.73164245,-4.535873392,1.027173653,0.297483537,0.32104710399999997,1.45038803,42.73083163,-0.228791925,0.052113482,-0.19076029100000003,0.576211548,0,1,0,0,0
22657611,-0.08744553099999999,-0.043850232999999995,-0.025734076,0.577031521,0.0,1487.0,1500.0,1577.0,1543.388678,1455.611322,1477.0,19.86990576,20.30030736,19.79303563,19.80083009,20.22962991,19.81658043,20.24571806,239.9723952,239.9723952,12.12662624,-0.001420606,-0.0068793230000000006,0.00381258,-0.17419527899999998,-0.014562519,-0.111187505,2.0,-1.0,0.0,15,0,0,1,0,0.0,0,0,0,0,0,-0.574384027,0.20420553100000002,0.998959987,0.772932582,-16.55075781,240.13945099999998,56.97975078,-0.020931232,-0.038094913,-0.013153203,0.0,2.135447121,0.385606784,-9.486023807999999,2754.1082,961.2108575,12.12556904,-0.38463049,-0.010608174,-0.060770304000000004,2.182261252,0.390571801,-9.454487323,-0.388334339,-0.000492683,-0.055914037,2754.1082,41.23992158,45.07209288,3.8083557010000004,4.404798904,15.32626518,20.42366215,-0.101947925,0.16774266300000001,-0.075197094,-41.8170386,442.583106,12.12520231,96120.73808,1.142073333,0.33032808199999997,0.082725214,-0.260674439,-0.37555989799999995,0.012011539,-0.072971685,-0.585493186,0.20496329800000002,0.976767939,0,0.827232573,-0.299466373,-0.048193743,0.47295142700000004,0.575336417,398713887.1,327389808.6,442168.2905,19.69563413,1.729391785,19.62438188,-4.569981996,1.482383651,39.8714138,32.7368418,-2.48773166,185.3936132,-42.77273684,1.923819243,19.74401904,-4.522628318,1.167223788,0.23298819,0.310417147,1.447923074,42.93105784,-0.21755078100000003,0.056178509,-0.19459028899999997,0.57661843,0,1,0,0,0
22702521,-0.08227053,-0.04238892599999999,-0.027107511,0.576299972,0.0,1486.0,1500.0,1576.0,1542.368274,1456.631726,1478.0,19.80818917,20.23723638,19.80727415,19.81526424,20.24456643,19.82948423,20.259091199999997,240.31713540000004,240.31713540000004,12.12536441,-0.001422809,-0.00688032,0.003802679,-0.17416861399999997,-0.01452312,-0.111192778,2.0,-1.0,0.0,15,0,0,1,0,0.0,0,0,0,0,0,-0.5762739720000001,0.204573069,0.989674477,0.770939808,-16.03704098,239.4523268,56.97118163,-0.020944962,-0.038130454,-0.013286912,0.0,2.13965669,0.39306567600000003,-9.504762498,2754.1082,961.1934919,12.12434164,-0.372501838,0.006790961,-0.06938358900000001,2.132346401,0.468668352,-9.504506055,-0.384414274,0.001379966,-0.060836090999999995,2754.1082,41.44194452,45.24911298,3.8096058110000004,4.398047501000001,15.32640281,20.42712077,-0.10201434699999999,0.15556262,-0.076145016,-41.60014078,442.71896150000003,12.12395924,96119.20048,1.142055096,0.576724357,0.167040315,-0.416893871,-0.369733573,0.017036336000000003,-0.08047984700000001,-0.582048048,0.20531045399999998,0.973274842,0,0.828533871,-0.298196042,-0.046709731,0.47162318299999995,0.575933089,398713893.9,327389906.8,442358.8316,19.71437588,1.760628053,19.63895879,-4.536663333,1.480893495,39.8714138,32.7368418,-2.409732457,186.20124980000003,-42.95747584,1.9770946059999999,19.74808515,-4.511888859,1.3461040180000001,0.187903933,0.286560059,1.445178747,43.11579644,-0.20043107100000002,0.062422177,-0.199474767,0.5771937979999999,0,1,0,0,0
22747715,-0.07876288099999999,-0.040653216,-0.028538037999999998,0.5753888,0.0,1486.0,1500.0,1575.3478699999998,1540.6521300000002,1458.3478699999998,1478.0,19.84925317,20.27942566,19.82151267,19.82969839,20.25950295,19.84238803,20.27246433,240.6618756,240.6618756,12.12410259,-0.001425013,-0.006881317,0.0037927779999999997,-0.174141949,-0.014483721000000001,-0.11119805199999999,2.0,-1.0,0.0,15,0,0,1,0,0.0,0,0,0,0,0,-0.578163916,0.204940607,0.980388967,0.7689470340000001,-15.52332415,238.76520269999997,56.96261247,-0.020958497,-0.038163882999999996,-0.013407117,0.0,2.1609800530000003,0.402249806,-9.510050306,2754.1082,961.1780236,12.12316284,-0.36849904299999997,0.003165103,-0.07472153599999999,2.175844376,0.339465112,-9.541679063,-0.380147292,0.0037213090000000003,-0.06616238299999999,2754.1082,41.64396745,45.42613307,3.810855922,4.391296098,15.32654044,20.43057938,-0.102080769,0.14338257699999998,-0.077092938,-41.38324296,442.8821999,12.12273886,96117.31933,1.142032699,0.188059266,0.41520837200000005,-0.257102515,-0.357173024,0.019155645,-0.08809328699999999,-0.587376353,0.20566083100000002,0.9608231909999999,0,0.830617079,-0.300767519,-0.045944507999999995,0.46637128299999997,0.576501504,398713900.8,327390005.1,442549.3727,19.73311762,1.791864321,19.65353571,-4.503344669,1.479403338,39.8714138,32.7368418,-2.331861887,187.0055266,-43.14140094,2.030985341,19.7517145,-4.501281079,1.527024898,0.143839791,0.262007842,1.442419739,43.29972111,-0.193291128,0.067689927,-0.20364102899999997,0.577593174,0,1,0,0,0
22786170,-0.079069967,-0.039050583,-0.029777428999999998,0.5745549,0.0,1485.0,1500.0,1575.0,1539.0,1460.0,1479.0,19.95504913,20.38771926,19.835751199999997,19.84413254,20.27443947,19.85529182,20.28583746,241.00661589999999,241.00661589999999,12.12284077,-0.001427216,-0.0068823140000000005,0.003782878,-0.17411528399999998,-0.014444321000000001,-0.111203325,2.0,-1.0,0.0,15,0,0,1,0,0.0,0,0,0,0,0,-0.58005386,0.205308145,0.971103457,0.766954259,-15.00960732,238.0780786,56.95404331,-0.020969155,-0.038193296,-0.013539023,0.0,2.159150906,0.426967967,-9.532761062999999,2754.1082,961.157926,12.12198394,-0.35562427799999996,0.003517227,-0.084497948,2.086625295,0.44471057700000005,-9.574375191,-0.371582808,0.007948779,-0.071881418,2754.1082,41.8689384,45.62301441,3.812260399,4.385418653,15.32667922,20.4297906,-0.102062216,0.131662035,-0.078138029,-41.13718532,443.1626518,12.1215041,96114.07444,1.141994184,0.21189537,0.22149169999999999,-0.759802304,-0.342095407,0.020123837,-0.094893572,-0.590353246,0.20601651699999998,0.9504183209999999,0,0.8325439929999999,-0.302314802,-0.044913884,0.46201484600000003,0.5770152820000001,398713907.7,327390103.4,442739.9138,19.75185937,1.823100589,19.66811262,-4.470026005,1.4779131819999998,39.8714138,32.7368418,-2.245490279,187.8498525,-43.33363825,2.0980795530000003,19.75325051,-4.490338373,1.69712883,0.075333971,0.233848697,1.4391902769999998,43.49195901,-0.170307247,0.07325055400000001,-0.20848187699999998,0.5782027,0,1,0,0,0
22824625,-0.077743678,-0.037942587,-0.030907868999999998,0.574247941,0.0,1485.0,1500.0,1574.0,1539.0,1460.0,1480.0,19.88705551,20.31852727,19.84998972,19.85856669,20.28937599,19.86819562,20.299210600000002,241.35135609999998,241.35135609999998,12.12157895,-0.00142942,-0.006883311,0.0037729770000000003,-0.174088618,-0.014404921999999999,-0.111208599,2.0,-1.0,0.0,15,0,0,1,0,0.0,0,0,0,0,0,-0.581943805,0.205675683,0.961817947,0.764961485,-14.49589049,237.3909545,56.94547416,-0.020980825,-0.038226282,-0.013680985,0.0,2.133006032,0.46800061200000004,-9.573770125,2754.1082,961.1329662999999,12.12080494,-0.34437405299999996,0.01270007,-0.085201493,2.136422022,0.391850837,-9.618440098999999,-0.35850490799999996,0.014157138,-0.07801292900000001,2754.1082,42.09621375,45.82189018,3.813680378,4.379628971,15.32681811,20.4285753,-0.10203513,0.119987636,-0.07919287900000001,-40.8881995,443.29758660000005,12.12026938,96112.5395,1.141975983,-0.19233260600000002,0.029447277,-0.35612094899999996,-0.329051523,0.027765206,-0.101855429,-0.592101213,0.206401552,0.941008582,0,0.8344017909999999,-0.303330059,-0.043725632,0.458095904,0.577309933,398713914.6,327390201.7,442930.4549,19.77060112,1.8543368569999998,19.68268954,-4.436707341,1.476423025,39.8714138,32.7368418,-2.1533414619999998,188.7213951,-43.53152444,2.174146698,19.7533639,-4.479168055,1.859881687,-0.009782136,0.203238324,1.4356411,43.68984648,-0.162011171,0.077503976,-0.21229383,0.5787866,0,1,0,0,0
22867080,-0.07603120000000001,-0.036384779,-0.032243018,0.5738744,0.0,1484.0,1500.0,1574.0,1538.713343,1460.286657,1481.0,19.83861159,20.26919441,19.86422824,19.87300084,20.30431251,19.88109942,20.31258373,241.69609640000002,241.69609640000002,12.12031713,-0.001431623,-0.0068843080000000004,0.0037630759999999997,-0.17406195300000002,-0.014365522,-0.11121387199999999,2.0,-1.0,0.0,15,0,0,1,0,0.0,0,0,0,0,0,-0.583833749,0.20604322,0.952532437,0.762968711,-13.98217366,236.7038304,56.936905,-0.020996302,-0.038252516,-0.013841088,0.0,2.103342047,0.497854067,-9.617176746,2600.525977,961.1087571,12.11962593,-0.33672295700000004,0.02022467,-0.09740634699999999,2.0754462190000003,0.35051394,-9.580825292,-0.34591304799999995,0.019424132,-0.084792622,2600.525977,42.3234891,46.02076595,3.815100357,4.373839288,15.326957,20.42735999,-0.102008044,0.10831323699999999,-0.080247728,-40.63921368,443.5152589,12.11905029,96110.05019,1.141946476,-0.229706185,0.497925286,-0.330170154,-0.32557226,0.035251129,-0.10581494400000001,-0.5961864570000001,0.20678519,0.928969625,0,0.836479932,-0.30537375699999997,-0.042658144,0.45302007,0.577612068,398713922.0,327390301.0,443121.7227,19.78519014,1.907375475,19.69103721,-4.418961792,1.4737912969999998,39.8714138,32.7368418,-2.0613813430000003,189.57686669999998,-43.72533766,2.252163136,19.75212502,-4.468270072,2.0138382409999998,-0.08698048900000001,0.180711779,1.431985604,43.88366046,-0.156984583,0.08085313599999999,-0.215223288,0.57907563,0,1,0,0,0
22905535,-0.073426699,-0.034838196,-0.033311764,0.5737445,0.0,1483.0,1500.0,1573.0,1537.266253,1461.733747,1481.0,19.88515497,20.31703638,19.87846676,19.88743499,20.31924904,19.89400322,20.32595686,242.0408366,242.0408366,12.119055300000001,-0.0014338270000000001,-0.006885305,0.003753175,-0.174035288,-0.014326123,-0.11121914599999999,2.0,-1.0,0.0,15,0,0,1,0,0.0,0,0,0,0,0,-0.585723694,0.206410758,0.943246927,0.760975937,-13.46845683,236.0167063,56.92833585,-0.021008274,-0.038275984,-0.013983371999999999,0.0,2.050527339,0.454164413,-9.676355883,1436.592126,961.0894855,12.11844692,-0.328683615,0.023906964,-0.100990394,2.0604770180000003,0.44061256,-9.681743289,-0.336518637,0.01849829,-0.09583643300000001,1436.592126,42.55076445,46.21964172,3.8165203360000004,4.368049605,15.32709589,20.42614469,-0.10198095800000001,0.096638838,-0.081302578,-40.39022786,443.8085225,12.1178359,96106.63689,1.141905839,-0.357107234,-0.09229922900000001,0.25360600899999997,-0.307351908,0.03684932,-0.115799916,-0.5928986070000001,0.207141081,0.924295592,0,0.837998743,-0.304165886,-0.041049283,0.451170604,0.578117196,398713930.2,327390401.4,443313.7215,19.79560243,1.9823424680000001,19.69311962,-4.416879376,1.470011399,39.8714138,32.7368418,-1.970016495,190.3816404,-43.90630229,2.336328811,19.74662025,-4.4582312,2.1400459830000003,-0.139201507,0.18368646800000002,1.4279947119999998,44.06462423,-0.144459154,0.08485783300000001,-0.217827312,0.5796409,0,1,0,0,0
22947990,-0.072403279,-0.033320251,-0.034453715,0.5738184479999999,0.0,1483.0,1500.0,1573.0,1536.0,1463.0,1482.0,19.91408085,20.34669684,19.89270528,19.90186914,20.33418556,19.90690702,20.33933,242.3855769,242.3855769,12.11779348,-0.00143603,-0.0068863019999999995,0.003743275,-0.174008623,-0.014286723999999999,-0.111224419,2.0,-1.0,0.0,15,0,0,1,0,0.0,0,0,0,0,0,-0.587613638,0.20677829600000003,0.933961417,0.758983162,-12.95474,235.32958219999998,56.91976669,-0.021025669,-0.038297759,-0.014158261,0.0,1.997712631,0.41047475899999997,-9.735535021,272.6582759,961.0702139,12.11726792,-0.311628637,0.02469795,-0.10789421699999999,2.013040642,0.359628345,-9.732967298,-0.327124226,0.017572448,-0.10688024300000001,272.6582759,42.77407907,46.41495879,3.817920221,4.3626176480000005,15.32723129,20.42452014,-0.101945757,0.085331024,-0.08233737599999999,-40.1448965,443.9000228,12.11661098,96105.58257,1.1418932929999999,0.714354466,-0.082889821,0.107273602,-0.298010908,0.042911465,-0.121907145,-0.595476888,0.207499905,0.913484645,0,0.839993203,-0.305536719,-0.039824927999999996,0.44662225200000005,0.578631503,398713938.3,327390501.8,443505.7203,19.80601472,2.057309462,19.69520204,-4.414796958999999,1.466231501,39.8714138,32.7368418,-1.878651646,191.18641409999998,-44.08726691,2.420494485,19.74111549,-4.448192327,2.266253725,-0.191422525,0.18666115600000002,1.42400382,44.24558801,-0.133022266,0.088540571,-0.22059858300000001,0.5802598000000001,0,1,0,0,0
22994444,-0.068989067,-0.031749472,-0.035476519,0.573937252,0.0,1482.0,1500.0,1573.0,1535.225445,1463.774555,1483.0,19.88535028,20.31756763,19.9069438,19.91630329,20.34912208,19.91981082,20.35270313,242.7303171,242.7303171,12.11653166,-0.001438234,-0.006887299,0.0037333740000000002,-0.17398195800000002,-0.014247323999999999,-0.111229693,2.0,-1.0,0.0,15,0,0,1,0,0.0,0,0,0,0,0,-0.5895035820000001,0.20714583399999997,0.924675907,0.756990388,-12.44102317,234.64245809999997,56.91119754,-0.021043457,-0.03831987,-0.01432694,0.0,1.967910984,0.44327651,-9.764127533,915.5095825,961.0477662000001,12.11609929,-0.29975749100000004,0.028871272000000003,-0.11757595300000001,2.033212367,0.40102374799999996,-9.741411506,-0.310381915,0.021698584,-0.114062808,915.5095825,42.97610179,46.59114511,3.819212083,4.359108737,15.32734787,20.42069556,-0.10186693599999999,0.075993876,-0.08326438900000001,-39.91921062,444.1779454,12.11539181,96102.39475,1.141855386,0.36789985,-0.08862526300000001,-0.50765611,-0.288380229,0.049072967,-0.129698799,-0.598035123,0.207856882,0.902377395,0,0.842030122,-0.306899711,-0.03853754,0.44194062,0.5791418779999999,398713946.4,327390602.2,443697.7191,19.81642701,2.132276455,19.69728446,-4.412714543,1.462451603,39.8714138,32.7368418,-1.770732041,192.04972869999997,-44.28025503,2.524599701,19.72998089,-4.438442209,2.387871587,-0.27044085100000004,0.18587009699999998,1.418964174,44.43857603,-0.120452751,0.09222040699999999,-0.223136077,0.58093774,0,1,0,0,0
23036899,-0.066946536,-0.030192017,-0.03660357,0.57398236,0.0,1482.0,1500.0,1573.0,1534.0,1465.0,1484.0,19.93897209,20.37250101,19.92118232,19.93073745,20.3640586,19.93271461,20.36607626,243.0750574,243.0750574,12.11526984,-0.0014404370000000001,-0.0068882959999999995,0.0037234729999999997,-0.17395529199999998,-0.014207925,-0.11123496599999999,2.0,-1.0,0.0,15,0,0,1,0,0.0,0,0,0,0,0,-0.591393527,0.207513372,0.915390397,0.7549976140000001,-11.92730634,233.955334,56.90262838,-0.021054705,-0.038342939,-0.014474678999999999,0.0,1.9447463759999999,0.49813862299999995,-9.783898766,2079.443433,961.0244025000001,12.11493365,-0.28244484,0.035515332000000004,-0.122591621,1.998339858,0.35870179,-9.870232786,-0.291520446,0.027281727000000002,-0.120131777,2079.443433,43.17812452,46.76733144,3.820503945,4.355599825,15.32746446,20.41687099,-0.101788115,0.066656729,-0.084191401,-39.69352474,444.29785189999996,12.1141725,96101.03307,1.141839277,0.260608982,0.919090505,0.438790788,-0.278257451,0.049943397,-0.131697073,-0.597900557,0.208216966,0.8939207579999999,0,0.843873475,-0.30707233300000003,-0.037053462,0.43841892600000004,0.579640619,398713954.5,327390702.5,443889.7179,19.8268393,2.207243449,19.69936687,-4.410632126,1.4586717040000001,39.8714138,32.7368418,-1.6606825840000001,192.92057490000002,-44.47479003,2.631270237,19.71812199,-4.428729239,2.5088989369999997,-0.35290678299999995,0.18459455600000002,1.413789601,44.63311103,-0.11423107199999999,0.094919959,-0.22544909600000002,0.5813880579999999,0,1,0,0,0
23079354,-0.065166401,-0.028740412000000003,-0.037417088,0.57414776,0.0,1481.0,1500.0,1573.0,1533.0,1466.0,1484.0,19.91965581,20.35288235,19.93179491,19.94146582,20.37520594,19.94203303,20.37578314,243.33974759999998,243.33974759999998,12.11401903,-0.001442249,-0.006888895999999999,0.0037136129999999997,-0.17392638800000002,-0.014205226000000001,-0.11124085,2.0,-1.0,0.0,15,0,0,1,0,0.0,0,0,0,0,0,-0.593283471,0.20788091,0.906104887,0.75300484,-11.41358951,233.26820980000002,56.89405922,-0.021070104,-0.038363935,-0.014648386999999999,0.0,1.938927894,0.524917276,-9.83562444,2754.1082,961.0020703,12.11377337,-0.267844202,0.042586781,-0.13101197,1.904493394,0.47991675200000006,-9.950929547000001,-0.275432142,0.032615757999999995,-0.125553531,2754.1082,43.38014724,46.94351776,3.821795807,4.352090914,15.32758104,20.41304641,-0.101709294,0.057319582,-0.085118413,-39.46783885,444.5204497,12.11298346,96098.45199,1.141808599,-0.004684196,0.599932947,-0.473526939,-0.259955173,0.05562268,-0.139555796,-0.5969530270000001,0.20856855600000002,0.886136101,0,0.845680883,-0.30688011600000004,-0.035498599,0.435186656,0.58017744,398713963.7,327390801.5,444080.1214,19.83435073,2.305415083,19.69564827,-4.41290058,1.453727455,39.8714138,32.7368418,-1.5500945119999998,193.75545780000002,-44.66093758,2.739931279,19.70382386,-4.420133891,2.644975441,-0.390040244,0.159984763,1.40843591,44.81925881,-0.10655365300000001,0.097495039,-0.22748383,0.5819236999999999,0,1,0,0,0
23117809,-0.064459675,-0.027197142,-0.03879403,0.5745972,0.0,1481.0,1500.0,1574.0,1532.0,1467.0,1485.0,19.89746341,20.33064091,19.92773112,19.93719465,20.37101611,19.93683918,20.37065045,243.28042569999997,243.28042569999997,12.11281281,-0.0014424779999999999,-0.00688789,0.003703915,-0.173888422,-0.014351079,-0.11124920099999999,2.0,-1.0,0.0,15,0,0,1,0,0.0,0,0,0,0,0,-0.593499367,0.20824368699999998,0.897206486,0.7509867590000001,-10.91475827,232.5593466,56.87652468,-0.021085949,-0.038381411000000004,-0.01481887,0.0,1.957028397,0.512970976,-9.931412853,2754.1082,960.9811601,12.11262047,-0.252913059,0.046352199999999996,-0.135343882,1.9968704240000001,0.475839224,-9.996132528,-0.263167818,0.037606282000000005,-0.130082825,2754.1082,43.58216996,47.11970409,3.8230876680000003,4.348582002,15.32769763,20.40922184,-0.10163047300000001,0.047982435,-0.086045425,-39.24215297,444.7457688999999,12.11176428,96095.83472,1.141777491,0.626220308,-0.454180714,0.192742882,-0.242130172,0.064136705,-0.146743668,-0.595389879,0.20891479,0.8788384770000001,0,0.84746557,-0.30641045,-0.033889737999999996,0.43216303899999997,0.5807807620000001,398713973.3,327390899.7,444269.8296,19.84059777,2.41370074,19.68940123,-4.417065413,1.44827571,39.8714138,32.7368418,-1.439031331,194.55861769999999,-44.83968662,2.850348131,19.68737412,-4.412524386,2.7943266860000002,-0.387186285,0.114792009,1.402924221,44.99800827,-0.09713935900000001,0.10064764699999999,-0.228914555,0.58249915,0,1,0,0,0
23160264,-0.060975663,-0.025647645,-0.039816507,0.5749691379999999,0.0,1480.0,1500.0,1574.0,1532.0,1467.0,1486.0,19.91026139,20.34376022,19.92366732,19.93292348,20.36682628,19.93164533,20.36551775,243.22110389999997,243.22110389999997,12.11160658,-0.001442706,-0.006886884,0.003694217,-0.173850455,-0.014496931999999999,-0.111257552,2.0,-1.0,0.0,15,0,0,1,0,0.0,0,0,0,0,0,-0.592776313,0.208603793,0.888525208,0.7489544840000001,-10.42427615,231.83829029999998,56.85396158,-0.021104646,-0.038396752,-0.014978605,0.0,1.97650907,0.500300996,-10.02295498,2754.1082,960.9597583999999,12.11144833,-0.24160087600000002,0.049353734,-0.150437845,2.00071233,0.469769506,-10.06607677,-0.250897242,0.042723287,-0.134867333,2754.1082,43.78419259,47.29553012,3.8243975110000004,4.345646661,15.32782546,20.40386626,-0.10152080599999999,0.039182958,-0.086966995,-39.01543622,444.9067943,12.11054466,96094.0028,1.141755769,-0.11691086,0.065319578,-0.297678088,-0.23132313899999998,0.061497962999999996,-0.149426494,-0.5970458829999999,0.20926508600000002,0.868098745,0,0.8494822959999999,-0.307356811,-0.03244433,0.427618285,0.581364704,398713982.8,327390998.0,444459.5377,19.84684481,2.521986397,19.68315419,-4.421230246,1.442823964,39.8714138,32.7368418,-1.323931444,195.37321369999998,-45.02102571,2.964598685,19.66981602,-4.405090341,2.934161108,-0.39573823700000005,0.076821918,1.3971818619999998,45.17934778,-0.08455698199999999,0.104308027,-0.23093498399999998,0.58299106,0,1,0,0,0
23202719,-0.058043169000000006,-0.024225181000000002,-0.040451923,0.5756451,0.0,1480.0,1500.0,1574.876575,1530.876575,1468.123425,1487.0,19.91257544,20.34630805,19.91960353,19.92865231,20.36263645,19.92645147,20.36038505,243.1617821,243.1617821,12.11040036,-0.0014429339999999999,-0.006885878000000001,0.0036845190000000002,-0.17381248800000001,-0.014642783999999999,-0.11126590300000001,2.0,-1.0,0.0,15,0,0,1,0,0.0,0,0,0,0,0,-0.592053258,0.2089639,0.8798439309999999,0.746922208,-9.933794025,231.117234,56.83139847,-0.021124224,-0.038411827999999995,-0.01515497,0.0,2.015987099,0.47714557799999996,-10.05297243,2754.1082,960.931233,12.10999744,-0.237990769,0.043260449000000006,-0.141415499,1.987088196,0.48201681799999996,-10.10655972,-0.23853608,0.04967286,-0.143349649,2754.1082,43.98621511,47.47082669,3.8257337760000003,4.343554173,15.32796982,20.39626088,-0.101365811,0.031173577999999997,-0.08788056699999999,-38.78720462,445.0962492,12.10934941,96091.82652,1.141729792,0.5915839829999999,0.345714643,0.019317167,-0.21659515399999998,0.07036028799999999,-0.15633088,-0.5965592239999999,0.20961272399999997,0.859360315,0,0.8513809840000001,-0.30735257899999996,-0.030845752,0.423949465,0.581942173,398713992.4,327391096.3,444649.2458,19.85309185,2.630272054,19.67690715,-4.425395078999999,1.437372219,39.8714138,32.7368418,-1.190015118,196.24111680000001,-45.21443785,3.0967194,19.64709156,-4.398474175,3.0296344439999996,-0.45745694299999995,0.07251907,1.3903642669999998,45.37276034,-0.075497486,0.10688156300000001,-0.232086003,0.58339876,0,1,0,0,0
23241174,-0.05851422,-0.022833298999999998,-0.041477816,0.57629603,0.0,1479.0,1500.0,1575.0,1529.0,1470.0,1487.0,19.92763955,20.36186654,19.91553974,19.92438114,20.35844662,19.92125762,20.35525235,243.1024602,243.1024602,12.10919413,-0.001443163,-0.0068848730000000006,0.0036748220000000003,-0.173774522,-0.014788637,-0.111274255,2.0,-1.0,0.0,15,0,0,1,0,0.0,0,0,0,0,0,-0.591330204,0.209324007,0.871162653,0.744889933,-9.443311902,230.39617760000002,56.80883537,-0.021141496,-0.038426385,-0.015327198,0.0,2.055465129,0.453990161,-10.08298988,2754.1082,960.9027076,12.10854655,-0.21976591,0.055180720999999995,-0.149989049,1.906034166,0.47604146399999997,-10.08183555,-0.22617491899999997,0.056622433,-0.151831965,2754.1082,44.18823762,47.64612327,3.827070042,4.3414616839999995,15.32811419,20.3886555,-0.101210816,0.023164197999999997,-0.08879413900000001,-38.55897302,445.3001556,12.10813675,96089.4744,1.141701909,0.458040647,-0.242659078,0.176394876,-0.199588883,0.073527907,-0.158555478,-0.594968198,0.209965567,0.851608122,0,0.853224607,-0.306855318,-0.029164599,0.420709128,0.5824509729999999,398714002.0,327391194.6,444838.95399999997,19.85933889,2.738557712,19.67066011,-4.429559912,1.4319204730000001,39.8714138,32.7368418,-1.056098792,197.1090199,-45.40784998,3.228840116,19.62436709,-4.391858008,3.125107779,-0.519175649,0.068216222,1.3835466719999998,45.56617291,-0.068902379,0.10871804199999999,-0.23350689100000002,0.583643559,0,1,0,0,0
23279629,-0.056368061,-0.021447635,-0.042316037,0.57661843,0.0,1479.0,1500.0,1576.0,1529.0,1470.0,1488.0,19.90452107,20.33857148,19.91147595,19.92010997,20.35425679,19.91606377,20.35011965,243.0431384,243.0431384,12.10798791,-0.001443391,-0.006883866999999999,0.003665124,-0.173736555,-0.01493449,-0.11128260599999999,2.0,-1.0,0.0,15,0,0,1,0,0.0,0,0,0,0,0,-0.59060715,0.20968411399999998,0.862481376,0.7428576579999999,-8.952829779,229.6751213,56.78627227,-0.021163032000000002,-0.03844628,-0.015501566999999999,0.0,1.98652657,0.45157996100000003,-10.12367041,2754.1082,960.883569,12.10730686,-0.20279567899999998,0.054693645,-0.150416946,1.9229563280000002,0.497833753,-10.13597809,-0.21279757800000001,0.057740512,-0.155864174,2754.1082,44.39026013,47.82141984,3.828406307,4.339369195,15.32825855,20.38105012,-0.10105582199999999,0.015154818,-0.089707711,-38.33074142,445.4002706,12.10694758,96088.32011,1.141688131,0.14587308599999999,0.220559216,0.002400986,-0.191458556,0.07652999,-0.164813234,-0.592878876,0.210322674,0.844330675,0,0.855032253,-0.306130823,-0.027454494,0.41767060100000003,0.582898469,398714013.2,327391291.0,445022.1438,19.86186137,2.859879976,19.65323865,-4.41510102,1.425753651,39.8714138,32.7368418,-0.920304645,197.92163390000002,-45.58892774,3.360851433,19.600317899999997,-4.385909821,3.2435497339999997,-0.587619705,0.064102906,1.3767650319999998,45.74725074,-0.059580426,0.110634985,-0.23449384199999998,0.583938,0,1,0,0,0
23330084,-0.053662637,-0.019810734,-0.042777567,0.577203259,0.0,1478.0,1500.0,1576.0,1528.0,1471.0,1489.0,19.92675162,20.36129118,19.90741215,19.9158388,20.35006695,19.91086992,20.34498695,242.98381659999998,242.98381659999998,12.10678168,-0.00144362,-0.006882861,0.003655426,-0.173698589,-0.015080342,-0.111290957,2.0,-1.0,0.0,15,0,0,1,0,0.0,0,0,0,0,0,-0.589884096,0.210044221,0.8538000990000001,0.740825383,-8.462347655,228.95406490000002,56.76370917,-0.021185012000000003,-0.038454325,-0.0156783,0.0,1.873039175,0.45769405799999996,-10.16873246,2754.1082,960.8682876,12.10615396,-0.193716523,0.063941396,-0.155316963,1.988524479,0.517439661,-10.16657783,-0.199002685,0.056462405,-0.158067816,2754.1082,44.59228264,47.99671642,3.829742572,4.337276706,15.32840291,20.37344475,-0.100900827,0.0071454380000000005,-0.09062128400000001,-38.10250982,445.6086874,12.1057284,96085.94505,1.141660041,0.053557328,-0.050265362,-0.34941208700000004,-0.166603044,0.08035656599999999,-0.158709973,-0.593805279,0.21069103399999997,0.8339459359999999,0,0.8570084929999999,-0.30673211300000003,-0.025893192000000002,0.413254743,0.583270728,398714024.7,327391387.2,445204.5635,19.86394379,2.9827425489999997,19.6344969,-4.398441688,1.4195023409999998,39.8714138,32.7368418,-0.7841037270000001,198.7222711,-45.76733363,3.492839052,19.57598176,-4.3801063319999995,3.3669671269999997,-0.657520599,0.060030647,1.36999118,45.92565663,-0.056879892,0.113140891,-0.236567527,0.5842352,0,1,0,0,0
23373077,-0.052747413,-0.018518132,-0.04353371,0.577473331,0.0,1478.0,1500.0,1577.0,1526.041808,1472.958192,1490.0,19.94276614,20.37785167,19.90334836,19.91156763,20.34587712,19.90567607,20.33985425,242.92449469999997,242.92449469999997,12.10557546,-0.001443848,-0.006881855,0.003645728,-0.173660622,-0.015226195,-0.111299309,2.0,-1.0,0.0,15,0,0,1,0,0.0,0,0,0,0,0,-0.5891610420000001,0.210404327,0.8451188209999999,0.738793108,-7.971865532000001,228.2330086,56.74114606,-0.021207412999999998,-0.038462478,-0.015838451,0.0,1.822726985,0.458656175,-10.22121138,2754.1082,960.8510658,12.10500106,-0.187151514,0.058199907,-0.159593595,1.92073562,0.5318025470000001,-10.23858109,-0.185264973,0.057639842999999996,-0.16012520800000002,2754.1082,44.81079645,48.18606289,3.8312009139999996,4.336440607,15.32853656,20.36749097,-0.10077908,-0.003008445,-0.091598767,-37.85357532,445.84278059999997,12.10453922,96083.2249,1.1416276840000001,0.319571638,-0.050915692,-0.270456673,-0.15725851300000002,0.084597634,-0.16988090100000003,-0.589415829,0.211062273,0.82877988,0,0.858705394,-0.30498005100000003,-0.02403414,0.411135496,0.583633217,398714036.1,327391483.5,445386.9832,19.86602621,3.1056051210000004,19.61575515,-4.381782356,1.413251031,39.8714138,32.7368418,-0.635266957,199.552468,-45.95266666,3.6349628519999997,19.54761471,-4.37459054,3.467089208,-0.7266304170000001,0.075064554,1.3627892730000002,46.11098946,-0.048352649000000004,0.11518718,-0.237550769,0.5849397,0,1,0,0,0
23430993,-0.048952839000000005,-0.016699185,-0.044627942000000004,0.5782027,0.0,1478.0,1500.0,1577.0,1526.0,1473.0,1490.0,19.91267976,20.34724138,19.89928457,19.90729646,20.34168729,19.90048222,20.33472156,242.86517290000003,242.86517290000003,12.10436924,-0.0014440770000000002,-0.00688085,0.00363603,-0.173622655,-0.015372048000000001,-0.11130766,2.0,-1.0,0.0,15,0,0,1,0,0.0,0,0,0,0,0,-0.588437988,0.21076443399999997,0.836437544,0.736760833,-7.481383408999999,227.5119522,56.71858296,-0.021228431000000002,-0.038468914,-0.015993663999999998,0.0,1.8882219480000002,0.450174139,-10.28728628,2754.1082,960.8302873,12.10384816,-0.163047115,0.064145973,-0.156587413,1.9942446269999998,0.49607956299999995,-10.25391669,-0.17163208,0.06331856799999999,-0.161914509,2754.1082,45.03807201,48.38287402,3.832724115,4.336272022,15.328664499999999,20.36241469,-0.10067499699999999,-0.014301692,-0.092610205,-37.59364146,446.01382390000003,12.10332005,96081.28663999999,1.141604625,-0.177494691,0.057950157,0.360530161,-0.152263777,0.088073176,-0.171121718,-0.586903006,0.21143805300000001,0.821562335,0,0.8605278820000001,-0.304050015,-0.022255089,0.408104505,0.583921758,398714047.6,327391579.7,445569.4029,19.86810862,3.228467694,19.597013399999998,-4.365123025,1.40699972,39.8714138,32.7368418,-0.47202378799999994,200.41636630000002,-46.14589746,3.788643123,19.51465194,-4.369402759,3.5406518160000005,-0.794838313,0.111881801,1.355099333,46.30421983,-0.035116388,0.117004255,-0.238067709,0.585498447,0,1,0,0,0
23477448,-0.048507981,-0.015475485,-0.045505164,0.5787866,0.0,1477.0,1500.0,1578.0,1524.0,1475.0,1491.0,19.93065764,20.36582161,19.89522077,19.90302529,20.33749746,19.89528837,20.32958886,242.80585109999998,242.80585109999998,12.10316301,-0.001444305,-0.006879844,0.003626333,-0.173584689,-0.0155179,-0.11131601099999999,2.0,-1.0,0.0,15,0,0,1,0,0.0,0,0,0,0,0,-0.587714934,0.21112454100000003,0.827756266,0.7347285579999999,-6.990901285,226.79089590000004,56.69601986,-0.021248565,-0.038479499,-0.016155015,0.0,1.953716912,0.44169210299999995,-10.35336117,2754.1082,960.8095088,12.10269526,-0.16120212,0.075469423,-0.158868785,1.946823905,0.56548312,-10.23179215,-0.15799918699999999,0.068997293,-0.163703811,2754.1082,45.26534757,48.57968514,3.8342473160000003,4.336103437,15.32879245,20.35733841,-0.100570915,-0.02559494,-0.093621643,-37.3337076,446.19304580000005,12.10213104,96079.22955,1.1415802320000001,-0.021823036,-0.15186896,-0.31447510300000003,-0.137057496,0.09072152800000001,-0.169163683,-0.5886855520000001,0.21181796600000002,0.8099606970000001,0,0.862569877,-0.305008528,-0.020682102,0.403130156,0.5841838429999999,398714059.3,327391676.0,445751.9954,19.869999,3.353826765,19.57750348,-4.349423879,1.4006243919999999,39.8714138,32.7368418,-0.30868047,201.2723928,-46.33742102,3.941723819,19.48142339,-4.3643198530000005,3.615903761,-0.861647788,0.142308303,1.34742703,46.49574298,-0.035534397,0.11858442699999999,-0.23893258399999998,0.585993368,0,1,0,0,0
23515903,-0.048600617,-0.014509332,-0.046040169000000006,0.57907563,0.0,1477.0,1500.0,1578.0,1524.0,1475.0,1492.0,19.89524119,20.32988998,19.89115698,19.89875412,20.33330763,19.89009451,20.32445616,242.7465292,242.7465292,12.10195679,-0.0014445329999999998,-0.006878838000000001,0.003616635,-0.173546722,-0.015663753,-0.111324362,2.0,-1.0,0.0,15,0,0,1,0,0.0,0,0,0,0,0,-0.5869918789999999,0.211484648,0.8190749890000001,0.732696283,-6.500419162000001,226.06983959999997,56.67345676,-0.021271561,-0.038493392,-0.016325921,0.0,1.9647124519999999,0.44106820700000005,-10.31933856,1593.45819,960.7919049000001,12.10154236,-0.144846842,0.077511684,-0.164931437,1.886575572,0.519177142,-10.31935132,-0.147759425,0.070051102,-0.166822582,1593.45819,45.49262313,48.77649626,3.835770517,4.335934851,15.3289204,20.35226212,-0.10046683199999999,-0.036888187,-0.094633082,-37.07377374,446.3446494,12.10094239,96077.44752,1.141559051,0.120628619,-0.18042189100000003,0.531490555,-0.12413269199999999,0.091745434,-0.175733516,-0.58355712,0.21215879199999998,0.8052315170000001,0,0.864263282,-0.302900249,-0.01877913,0.40117715299999995,0.584749463,398714073.5,327391773.4,445936.2893,19.869999,3.503760752,19.55043186,-4.3431765669999995,1.3930282569999999,39.8714138,32.7368418,-0.1445477,202.0663668,-46.51548675,4.090078158,19.446099800000002,-4.36006366,3.7044724839999996,-0.917433721,0.122357552,1.339893756,46.67380827,-0.028273468,0.119874127,-0.23949027899999997,0.58666205,0,1,0,0,0
23558358,-0.046647684,-0.013060266000000001,-0.046540917,0.5796409,0.0,1476.0,1500.0,1579.0,1524.0,1475.0,1492.0,19.88972976,20.3243307,19.88709319,19.89448295,20.329117800000002,19.88490066,20.31932346,242.6872074,242.6872074,12.10075056,-0.001444762,-0.0068778319999999995,0.003606937,-0.17350875600000001,-0.015809605,-0.111332714,2.0,-1.0,0.0,15,0,0,1,0,0.0,0,0,0,0,0,-0.586268825,0.211844755,0.8103937109999999,0.730664008,-6.0099370389999995,225.34878319999999,56.65089365,-0.021295312,-0.038505147,-0.016506449,0.0,1.9755534559999999,0.44046659299999996,-10.28503211,429.5171111,960.77431,12.10038946,-0.130981558,0.08240453,-0.168553934,1.834368918,0.5161110210000001,-10.36948532,-0.137529284,0.071091797,-0.169945122,429.5171111,45.71989869,48.97330739,3.8372937169999997,4.335766266,15.32904835,20.34718584,-0.10036275,-0.048181434,-0.09564452,-36.81383988,446.4935938,12.09972314,96075.74041,1.1415387320000001,0.370213616,-0.13841357,-0.5360443770000001,-0.108712764,0.09777407199999999,-0.181022491,-0.5790019129999999,0.212497767,0.799837514,0,0.865997265,-0.301036278,-0.016904656,0.398922531,0.585349502,398714087.6,327391870.9,446120.5831,19.869999,3.6536947389999996,19.52336024,-4.336929255,1.3854321219999999,39.8714138,32.7368418,0.019585071000000003,202.86034080000002,-46.69355247,4.238432498,19.410776199999997,-4.355807468,3.793041207,-0.973219655,0.10240680099999999,1.332360483,46.85187357,-0.015016541000000001,0.12083154199999999,-0.240205243,0.58732074,0,1,0,0,0
23600813,-0.044971968,-0.011964398000000001,-0.047357647,0.5802598000000001,0.0,1476.0,1500.0,1579.0,1523.0,1476.0,1493.0,19.89744964,20.33252806,19.883029399999998,19.89021178,20.32492797,19.87970681,20.31419076,242.6278856,242.6278856,12.09954434,-0.00144499,-0.006876826999999999,0.0035972390000000003,-0.173470789,-0.015955458,-0.111341065,2.0,-1.0,0.0,15,0,0,1,0,0.0,0,0,0,0,0,-0.585545771,0.21220486100000002,0.801712434,0.728631732,-5.519454915,224.6277269,56.62833055,-0.021321352000000002,-0.038514042000000005,-0.016680683999999998,0.0,1.957381883,0.468704577,-10.31087512,758.6239194,960.7517328,12.09924472,-0.11566875199999999,0.076367193,-0.17357772300000002,1.86865578,0.558953481,-10.40601079,-0.126989984,0.07537125900000001,-0.171396464,758.6239194,45.92441808,49.150121,3.838678976,4.335689371,15.32917516,20.33566736,-0.10012984400000001,-0.057676421,-0.09654002199999999,-36.57816204,446.78407310000006,12.0985342,96072.41648,1.141499221,0.021090014,-0.284747136,0.7398282840000001,-0.100376264,0.098845814,-0.184784174,-0.5809770479999999,0.21283375699999998,0.7879019629999999,0,0.8680305420000001,-0.302046127,-0.015346513,0.393770055,0.585976434,398714101.8,327391968.4,446304.87700000004,19.869999,3.8036287260000003,19.49628861,-4.330681943,1.3778359880000002,39.8714138,32.7368418,0.207117009,203.7009529,-46.88249399,4.4019597489999995,19.36780576,-4.352196291,3.849224645,-1.008903389,0.105654141,1.324059594,47.04081499,-0.008808474,0.121386736,-0.240525705,0.58793557,0,1,0,0,0
23647268,-0.042718604,-0.010859477,-0.048011934000000006,0.58093774,0.0,1476.0,1500.0,1580.0,1522.0,1477.0,1494.0,19.87428217,20.30896675,19.8789656,19.88594061,20.32073814,19.87451296,20.30905806,242.5685637,242.5685637,12.09833811,-0.001445219,-0.006875821,0.0035875409999999996,-0.173432822,-0.016101311,-0.11134941599999999,2.0,-1.0,0.0,15,0,0,1,0,0.0,0,0,0,0,0,-0.582371974,0.212545097,0.7946686390000001,0.726895397,-5.120864475,223.8787345,56.59419114,-0.021343532000000002,-0.038515021,-0.016845785,0.0,1.922987994,0.513068156,-10.37035054,1922.564998,960.7263697999999,12.09810456,-0.10684749,0.084796315,-0.174184055,1.870736465,0.58152003,-10.41540655,-0.116277819,0.081461671,-0.17191336,1922.564998,46.12644101,49.3247408,3.8400491010000004,4.335622535,15.32930185,20.32344215,-0.09988280599999999,-0.06697412900000001,-0.097422806,-36.345145200000005,446.9124291,12.09734517,96070.94921,1.141481722,0.16565364300000002,-0.63451924,-0.605228488,-0.08843585300000001,0.10598713300000001,-0.17735218100000003,-0.577154595,0.213172129,0.7816743820000001,0,0.86979256,-0.30048711899999997,-0.013506443,0.39112947200000003,0.586571559,398714115.9,327392065.8,446489.1708,19.869999,3.953562713,19.46921699,-4.324434631,1.3702398530000002,39.8714138,32.7368418,0.402123885,204.5564637,-47.07490981,4.570334034,19.3223925,-4.348791168,3.8950625039999998,-1.0381654120000001,0.11631218300000001,1.31551349,47.23323081,-0.004295193,0.121345686,-0.24103963399999997,0.5883136170000001,0,1,0,0,0
