timestamp,control[0],control[1],control[2],control[3],control[4],output[2],output[3],output[4],output[5],output[6],output[7],indicated_airspeed_m_s,true_airspeed_m_s,indicated_airspeed_m_s.1,equivalent_airspeed_m_s,true_airspeed_m_s.1,equivalent_ground_minus_wind_m_s,true_ground_minus_wind_m_s,differential_pressure_raw_pa,differential_pressure_filtered_pa,temperature,gyro_bias[0],gyro_bias[1],gyro_bias[2],accel_bias[0],accel_bias[1],accel_bias[2],instance_count,seq_reached,seq_current,seq_total,item_changed_index,item_do_jump_remaining,valid,warning,finished,failure,stay_in_failsafe,flight_termination,item_do_jump_changed,execution_mode,nav_roll,nav_pitch,nav_bearing,target_bearing,xtrack_error,wp_dist,acceptance_radius,rollspeed_integ,pitchspeed_integ,yawspeed_integ,additional_integ1,x,y,z,temperature.1,pressure,temperature.2,gyro_rad[0],gyro_rad[1],gyro_rad[2],accelerometer_m_s2[0],accelerometer_m_s2[1],accelerometer_m_s2[2],x.1,y.1,z.1,temperature.3,altitude_sp,altitude_filtered,height_rate_setpoint,height_rate,airspeed_sp,airspeed_filtered,airspeed_derivative_sp,airspeed_derivative,throttle_integ,pitch_integ,baro_alt_meter,baro_temp_celcius,baro_pressure_pa,rho,xyz[0],xyz[1],xyz[2],xyz[0].1,xyz[1].1,xyz[2].1,roll_body,pitch_body,yaw_body,yaw_sp_move_rate,q_d[0],q_d[1],q_d[2],q_d[3],thrust_body[0],lat,lon,alt,vel_m_s,vel_n_m_s,vel_e_m_s,vel_d_m_s,cog_rad,ref_lat,ref_lon,x.2,y.2,z.2,vx,vy,vz,ax,ay,az,yaw,dist_bottom,roll,pitch,yaw.1,thrust_body[0].1,isTakeoff,isClimbing,isDescending,isCruise,isLand
52045360,-0.0040423709999999995,-0.06444472,0.011041924,0.0,0.0,1505.0,1500.0,1000.0,1501.3098619999998,1497.6901380000002,1465.070414,16.20472727,16.60359393,16.21256829,16.29646265,16.69737863,16.07510507,16.4705758,161.1289391,161.1289391,11.73996884,-0.001517857,-0.005649228,0.000280807,-0.17000298,0.165022015,-0.032523095,2.0,1.115023005,2.115023005,15,0,0,1,0,0.0,0,0,0,0,0,0.055253124,-0.114457185,1.773666582,1.755963619,-0.950588804,337.5027367,46.42532112,-0.019613294,-0.007537773,0.003039894,0.0,-1.41863897,0.16214065,-7.324535335,2282.874938,954.3954941,11.73909984,-0.033576287999999996,-0.144296345,0.010400651,-1.366020103,0.15440557300000002,-7.238088946,-0.030274392,-0.149929744,0.009394398,2282.874938,97.82862165,102.23700229999999,-2.330616603,-0.7393362509999999,15.36929442,16.30875025,-0.018789128000000002,-1.170120834,-0.1,67.29390339,501.88468880000005,11.73910533,95440.21084,1.133987625,-0.413224507,-0.47656132,-0.13567168300000002,-0.031881151,-0.138571642,0.008366646,0.057522004,-0.12366224199999999,1.777712405,0,0.6274561670000001,0.06604297099999999,-0.016648447,0.7756668790000001,0.0,398727724.0,327442502.0,502472.9298,16.75268854,-2.4724804959999998,16.57268829,-0.362844561,1.71905905,39.8714138,32.7368418,150.6240273,634.9980787999999,-102.33127809999999,-2.5489661040000002,16.35478933,0.154434562,-0.15290996199999998,-1.245723355,2.577698561,1.7169060669999998,102.4896031,0.041739725,-0.05872091,0.019160236,0.0,0,0,1,0,0
52087135,-0.002319085,-0.064719263,0.010758377,0.0,0.0,1505.0,1500.0,1000.0,1500.0,1499.0,1465.0,16.01474844,16.40894995,16.15740576,16.24102268,16.64059664,16.0178532,16.41193704,160.002963,160.002963,11.73974751,-0.001516311,-0.005649309,0.000279523,-0.17003651399999997,0.16500109999999998,-0.032349947999999996,2.0,1.118423685,2.118423685,15,0,0,1,0,0.0,0,0,0,0,0,0.054848755,-0.11618051800000001,1.774009002,1.756010742,-0.964596654,336.8442673,46.33301988,-0.019570888,-0.007491364,0.003007448,0.0,-1.4495026519999998,0.133686618,-7.349080364,2754.1082,954.402772,11.73915124,-0.034755355,-0.14637872300000002,0.007857806,-1.423430365,0.14116690199999998,-7.273017642999999,-0.02977284,-0.15048423800000002,0.009370197,2754.1082,97.72231893,102.21543199999999,-2.357705466,-0.839295723,15.3693021,16.2517558,-0.017649086,-1.14465166,-0.1,67.18502507,501.9273592,11.73915945,95439.71095,1.133981704,-0.279356273,-0.260780283,-0.202864665,-0.028400354,-0.140753027,0.008966315,0.059582943,-0.117192129,1.780022148,0,0.6266878929999999,0.064203523,-0.013735533999999999,0.7764981540000001,0.0,398727714.9,327442583.4,502495.4199,16.69229846,-2.478727746,16.51229842,-0.252476486,1.72000405,39.8714138,32.7368418,150.5218736,635.6639848,-102.32338490000001,-2.5534394369999998,16.30671754,0.258384541,-0.144729796,-1.2475430029999999,2.587880042,1.71713578,102.4817103,0.046006631,-0.043204488,0.018353478,0.0,0,0,1,0,0
52125590,-0.001854485,-0.054590124000000004,0.010078941,0.0,0.0,1505.0,1500.0,1000.0,1502.0,1497.0,1465.0,16.05637412,16.45150512,16.10224322,16.18558271,16.58381465,15.96060132,16.35329828,158.8769868,158.8769868,11.73952618,-0.001514766,-0.00564939,0.000278239,-0.170070048,0.164980186,-0.0321768,2.0,1.121824365,2.121824365,15,0,0,1,0,0.0,0,0,0,0,0,0.054444385,-0.11790385099999999,1.774351421,1.756057865,-0.978604503,336.18579789999995,46.24071864,-0.019531242,-0.0074494719999999995,0.002972787,0.0,-1.509511487,0.119476254,-7.323514487000001,2754.1082,954.4034979,11.73922892,-0.027274622000000002,-0.14793077400000001,0.013317218,-1.45208435,0.196012667,-7.216244894,-0.029042083,-0.150998824,0.010838213999999999,2754.1082,97.60476303,102.1716292,-2.371437785,-0.942996947,15.36925022,16.21154709,-0.016845948,-1.10535646,-0.1,67.03567588,501.9127422,11.73926069,95439.89963,1.133983901,0.40198553299999995,0.30271634199999997,0.059679915,-0.027521862999999997,-0.139460121,0.009455278000000001,0.05042636,-0.118207725,1.77343787,0,0.629499013,0.061668676,-0.017812877,0.7743439879999999,0.0,398727705.4,327442665.0,502500.1658,16.64020004,-2.481658332,16.46351654,-0.14874174,1.720601697,39.8714138,32.7368418,150.4197199,636.3298907000001,-102.3154917,-2.557912771,16.25864576,0.36233452,-0.136549629,-1.24936265,2.5980615240000002,1.7173654919999999,102.47381750000001,0.035057948,-0.034034286000000004,0.017769832,0.0,0,0,1,0,0
52168045,-0.005868297,-0.052517630999999995,0.009631165,0.0,0.0,1505.0,1500.0,1000.0,1501.0,1498.0,1465.0,15.92662529,16.31857044,16.04708069,16.13014274,16.52703266,15.90334945,16.29465952,157.7510107,157.7510107,11.73930485,-0.0015132210000000001,-0.005649471,0.000276955,-0.170103582,0.164959271,-0.032003653,2.0,1.125225045,2.125225045,15,0,0,1,0,0.0,0,0,0,0,0,0.054040015,-0.119627184,1.77469384,1.7561049880000001,-0.992612353,335.5273284,46.1484174,-0.019493108999999998,-0.007417278,0.002967804,0.0,-1.542441291,0.10918105800000001,-7.306974782,2754.1082,954.4045276,11.73932214,-0.031112344,-0.150817094,0.01088877,-1.500246244,0.140660943,-7.283695389,-0.02744596,-0.150735204,0.013469308000000001,2754.1082,97.4857172,102.1248829,-2.383401691,-1.04719358,15.36919046,16.17356082,-0.016087416,-1.064230689,-0.1,66.88096832,502.08260430000007,11.73939971,95437.95431,1.133960785,-0.27203485,0.644908749,0.814346922,-0.027013159,-0.13607008,0.01836009,0.053929051,-0.125514423,1.776844118,0,0.62785487,0.065624108,-0.018653815,0.775334561,0.0,398727695.8,327442746.6,502500.3741,16.59022204,-2.483740748,16.41770317,-0.046703334000000006,1.721110514,39.8714138,32.7368418,150.311543,637.0294807,-102.2997833,-2.561260576,16.21122082,0.470236079,-0.12070374099999999,-1.174615296,2.566153042,1.7177620530000002,102.4581075,0.038478095,-0.026536615,0.017214965,0.0,0,0,1,0,0
52206500,-0.004817188,-0.052994720999999995,0.009574872,0.0,0.0,1505.0,1500.0,1000.0,1500.2282460000001,1498.7717539999999,1470.3152630000002,15.92299574,16.31501202,16.00715867,16.090015700000002,16.48591674,15.8604065,16.25065853,156.9301947,156.9301947,11.73931213,-0.001511733,-0.0056495090000000005,0.00027571299999999997,-0.170131767,0.164941287,-0.03183183,2.0,1.128625725,2.128625725,15,0,0,1,0,0.0,0,0,0,0,0,0.053635645,-0.12135051699999999,1.77503626,1.756152111,-1.0066202020000001,334.868859,46.05611616,-0.019450632,-0.007356143000000001,0.002962179,0.0,-1.4893365319999998,0.111324997,-7.319112716,2754.1082,954.4065227,11.73946477,-0.029516565,-0.146946074,0.018079331,-1.4696269469999999,0.10922917800000001,-7.260973562999999,-0.023100425,-0.147999093,0.019795691,2754.1082,97.36667138,102.0781366,-2.395365597,-1.151390213,15.36913069,16.13557455,-0.015328884,-1.023104917,-0.1,66.72626077,501.9454647,11.73954063,95439.52026,1.133979461,-0.130087705,0.00839598,0.283782043,-0.022581906000000002,-0.13821788,0.022864042,0.055960433,-0.127456465,1.7791547380000001,0,0.626831855,0.067033505,-0.018401315,0.776046695,0.0,398727686.2,327442828.3,502500.5823,16.54024405,-2.485823165,16.3718898,0.055335071,1.721619332,39.8714138,32.7368418,150.2004284,637.7454995,-102.280263,-2.56405942,16.16411137,0.580064968,-0.101119,-1.062523418,2.513715749,1.7182399940000002,102.4385848,0.042728962999999995,-0.027120172999999997,0.016897887,0.0,0,0,1,0,0
52244955,-0.00194144,-0.05538019,0.009177866,0.0,0.0,1505.0,1500.0,1000.0,1500.0,1499.0,1471.0,15.89858336,16.28976048,15.99289475,16.07566865,16.47117534,15.84155326,16.23130086,156.62312930000002,156.62312930000002,11.73970428,-0.0015103389999999999,-0.005649473,0.000274544,-0.170150947,0.164928236,-0.031662239,2.0,1.132026405,2.132026405,15,0,0,1,0,0.0,0,0,0,0,0,0.053231275,-0.123073849,1.7753786790000001,1.756199235,-1.0206280509999999,334.2103895,45.96381492,-0.01940997,-0.007278949,0.0029482640000000004,0.0,-1.4362317740000001,0.11346893599999999,-7.331250648999999,2754.1082,954.4085177999999,11.7396074,-0.022075529,-0.151167719,0.024009892999999997,-1.377456574,0.122624745,-7.324121162999999,-0.018754891,-0.14526298199999998,0.026122073,2754.1082,97.24762555,102.0313902,-2.407329503,-1.255586846,15.36907093,16.09758828,-0.014570353000000001,-0.9819791459999999,-0.1,66.57155322,501.98056849999995,11.73972948,95439.0983,1.1339744040000002,0.377286296,0.210246938,-0.190948819,-0.01626746,-0.136239664,0.02272786,0.058103256,-0.11988022300000001,1.7814703459999999,0,0.626092585,0.064791505,-0.01510903,0.776904171,0.0,398727676.6,327442909.9,502500.7906,16.49026605,-2.487905581,16.32607642,0.15737347699999998,1.72212815,39.8714138,32.7368418,150.0920104,638.4429391,-102.25793759999999,-2.56720694,16.11960623,0.686757561,-0.094462398,-0.973691064,2.487160164,1.7188157919999998,102.416259,0.049563551,-0.014342371999999999,0.016284165,0.0,0,0,1,0,0
52283409,-0.000680501,-0.042810799000000004,0.008729069,0.0,0.0,1504.0,1500.0,1000.0,1502.0,1497.0,1471.0,15.90306787,16.29443184,15.97863082,16.06132161,16.45643394,15.82270002,16.21194319,156.3160639,156.3160639,11.74009643,-0.001508945,-0.005649436999999999,0.000273374,-0.170170127,0.164915185,-0.031492648,2.0,1.135427085,2.135427085,15,0,0,1,0,0.0,0,0,0,0,0,0.052843352999999996,-0.12450931900000001,1.77571867,1.7562468169999998,-1.034635896,333.5476401,45.88126294,-0.019371575,-0.007207174,0.00295268,0.0,-1.4070863569999998,0.141351039,-7.39500153,2754.1082,954.4150699999999,11.73986442,-0.020140327,-0.147563856,0.023329673999999998,-1.3988436000000002,0.225571,-7.281757400000001,-0.020448636,-0.14051272199999998,0.028607518,2754.1082,97.13038165,101.983029,-2.416173961,-1.3565042090000001,15.36901751,16.0623807,-0.013867266999999999,-0.941216938,-0.1,66.41660798,501.9265432,11.73994551,95439.73661,1.133981887,0.012265273,0.433810765,-0.23209869800000002,-0.017874983,-0.130437567,0.023556418,0.050288001,-0.12027408099999999,1.775946402,0,0.6284728279999999,0.062446386,-0.018441151,0.7751000290000001,0.0,398727667.1,327442991.5,502500.9988,16.44028806,-2.489987998,16.28026305,0.259411882,1.722636967,39.8714138,32.7368418,149.98938950000002,639.1004363,-102.2295814,-2.5711040609999998,16.0807,0.7867075859999999,-0.115599375,-0.934863233,2.516246411,1.719601968,102.387907,0.036830373,-0.014242386999999999,0.016103708,0.0,0,0,1,0,0
52337864,-0.005708558000000001,-0.039633507000000005,0.008401067,0.0,0.0,1504.0,1500.0,1000.0,1500.167033,1498.832967,1471.0,15.79119429,16.17982594,15.9643669,16.04697456,16.44169254,15.80384677,16.19258552,156.00899850000002,156.00899850000002,11.74048859,-0.001507551,-0.005649401,0.000272205,-0.170189308,0.164902134,-0.031323057,2.0,1.138827766,2.138827766,15,0,0,1,0,0.0,0,0,0,0,0,0.052521809,-0.124783058,1.776048862,1.75629625,-1.04864372,332.86761789999997,45.83805618,-0.019331321999999998,-0.007151226,0.0029781,0.0,-1.3810971840000001,0.172623716,-7.465551557,2754.1082,954.4222225999999,11.74013652,-0.0230297,-0.138720467,0.021733387000000003,-1.400502932,0.098703767,-7.332261119,-0.022937957000000002,-0.135497132,0.030586982999999998,2754.1082,97.02507222,101.92397220000001,-2.404357722,-1.435702342,15.36900615,16.0455769,-0.013531415,-0.902862678,-0.1,66.26008852,501.80068839999996,11.74017413,95441.18211000001,1.133999148,0.69121962,0.46944318799999996,0.8412741,-0.019422265,-0.12905765,0.032494239,0.052421023,-0.122676903,1.7782560319999998,0,0.627440885,0.064066481,-0.018298769,0.7758082479999999,0.0,398727657.3,327443073.8,502479.8818,16.396521300000003,-2.494140828,16.22616844,0.363520704,1.723362619,39.8714138,32.7368418,149.8867687,639.7579335,-102.2012252,-2.575001182,16.04179376,0.88665761,-0.136736352,-0.896035402,2.545332657,1.720388145,102.359555,0.041542314,-0.015580617,0.01585725,0.0,0,0,1,0,0
52380639,-0.00235937,-0.039684872,0.008362268,0.0,0.0,1504.0,1500.0,1000.0,1500.0,1499.0,1474.0,15.83982835,16.2294535,15.95010298,16.03262752,16.42695114,15.78499353,16.17322785,155.7019331,155.7019331,11.74088074,-0.001506156,-0.005649365,0.000271035,-0.17020848800000002,0.164889084,-0.031153466,2.0,1.1422284459999998,2.142228446,15,0,0,1,0,0.0,0,0,0,0,0,0.052200264,-0.125056796,1.776379054,1.7563456830000002,-1.0626515429999999,332.1875957,45.79484943,-0.01928918,-0.007060971,0.003006467,0.0,-1.386814744,0.19907154100000002,-7.505070212000001,2754.1082,954.4221721000001,11.74041533,-0.027803907000000003,-0.14290726,0.028530494,-1.381248615,0.215638716,-7.385318572999999,-0.021581367999999997,-0.131206059,0.030061955,2754.1082,96.91976279,101.86491540000002,-2.392541483,-1.514900475,15.36899478,16.0287731,-0.013195563,-0.8645084190000001,-0.1,66.10356906,501.8519952,11.74044995,95440.59632000001,1.133992157,0.132777048,-0.108386052,-0.377146617,-0.017168713999999998,-0.122581275,0.028761363999999998,0.05459620900000001,-0.12729362800000002,1.7805690319999998,0,0.626333597,0.066556333,-0.018832272,0.776479969,0.0,398727647.5,327443156.0,502458.6411,16.35279056,-2.498305661,16.17202582,0.467641528,1.724089529,39.8714138,32.7368418,149.7753446,640.4644312,-102.1602223,-2.579680699,16.00484402,0.989594148,-0.134993339,-0.836651988,2.430848777,1.721541539,102.3185506,0.048284713,0.01380824,0.014819846999999999,0.0,0,0,1,0,0
52426774,-0.001432756,-0.039585201,0.008643074,0.0,0.0,1504.0,1500.0,1000.0,1500.0,1499.0,1477.0,15.82942811,16.21887351,15.93583905,16.01828048,16.41220974,15.76614029,16.15387018,155.3948677,155.3948677,11.74127289,-0.0015047620000000002,-0.005649329,0.000269866,-0.170227668,0.164876033,-0.030983876,2.0,1.145629126,2.1456291259999998,15,0,0,1,0,0.0,0,0,0,0,0,0.05187872,-0.125330534,1.7767092469999999,1.756395116,-1.076659367,331.5075735,45.75164267,-0.019250765,-0.006955642,0.003035512,0.0,-1.420898504,0.221202846,-7.516826872999999,2754.1082,954.4156775,11.74070016,-0.01673733,-0.138457161,0.027907022000000004,-1.457679826,0.182638949,-7.453326151000001,-0.016784063999999998,-0.12756317,0.027296301000000002,2754.1082,96.81445336,101.8058587,-2.380725244,-1.594098609,15.36898342,16.0119693,-0.012859711000000001,-0.8261541590000001,-0.1,65.9470496,501.8681323,11.74074503,95440.41687,1.1339899759999998,0.24095875600000002,-0.673100457,-0.334151615,-0.012339713,-0.11831611,0.033542516,0.057725952000000004,-0.12111848800000001,1.7835416769999999,0,0.625261817,0.065169132,-0.015576834,0.777531469,0.0,398727637.7,327443238.3,502437.4005,16.30905981,-2.502470494,16.117883199999998,0.571762352,1.7248164380000002,39.8714138,32.7368418,149.66358019999998,641.1728226,-102.1187305,-2.584390455,15.9679699,1.0926461140000001,-0.132366021,-0.7764741070000001,2.310815954,1.722709125,102.2770572,0.035837776,0.01672008,0.014410158000000001,0.0,0,0,1,0,0
52465229,-0.000347236,-0.030738063,0.008113106,0.0,0.0,1504.0,1500.0,1000.0,1502.0,1497.0,1478.0,15.73730839,16.12454248,15.92157513,16.00393343,16.39746834,15.74728705,16.13451251,155.0878023,155.0878023,11.74166504,-0.001503368,-0.0056492930000000005,0.00026869599999999996,-0.170246848,0.164862982,-0.030814285,2.0,1.149029806,2.149029806,15,0,0,1,0,0.0,0,0,0,0,0,0.051557175999999996,-0.12560427300000002,1.7770394390000002,1.756444549,-1.0906671909999999,330.82755130000004,45.70843592,-0.019213773,-0.006853832,0.003069857,0.0,-1.449103529,0.241033396,-7.546526435,2553.8754010000002,954.4129285,11.74099397,-0.020667232,-0.129288283,0.030888961,-1.4122587969999998,0.181564693,-7.455848129,-0.013121526000000001,-0.124446937,0.024280034,2553.8754010000002,96.70914393,101.74680190000001,-2.368909005,-1.6732967419999998,15.36897205,15.9951655,-0.012523858999999998,-0.787799899,-0.1,65.79053014,501.76503610000003,11.74106746,95441.56876000001,1.134003765,0.337519245,0.316089423,-0.265282446,-0.013557578999999998,-0.11224931099999999,0.030531961,0.049134565,-0.121766043,1.777328078,0,0.627930291,0.062674096,-0.019315358,0.775499767,0.0,398727627.9,327443320.5,502416.1598,16.26532907,-2.5066353269999997,16.06374058,0.675883177,1.725543347,39.8714138,32.7368418,149.55687509999998,641.8460299,-102.0736248,-2.588679932,15.93522084,1.188061062,-0.135263233,-0.74322826,2.2265155269999997,1.723829064,102.23195030000001,0.039119782,0.011417275,0.014219665,0.0,0,0,1,0,0
52507684,-0.004687785999999999,-0.027451784,0.008069144,0.0,0.0,1504.0,1500.0,1000.0,1500.0,1499.0,1478.0,15.66884612,16.05429193,15.90731121,15.98958639,16.38272694,15.72843381,16.11515484,154.7807369,154.7807369,11.74205719,-0.0015019739999999999,-0.0056492569999999995,0.000267527,-0.170266028,0.164849931,-0.030644694,2.0,1.1524304859999999,2.152430486,15,0,0,1,0,0.0,0,0,0,0,0,0.051235631,-0.12587801099999998,1.777369631,1.7564939830000001,-1.104675015,330.14752910000004,45.66522916,-0.019176823,-0.006763894,0.0031043409999999996,0.0,-1.4490101,0.2497888,-7.662597712999999,1389.7822529999999,954.4282099999999,11.74133101,-0.012637882,-0.1235181,0.035971971,-1.402820798,0.150294996,-7.538404342000001,-0.014921404,-0.12386587,0.020057396,1389.7822529999999,96.60481815,101.6825556,-2.3496188630000003,-1.747815497,15.36894616,15.98459796,-0.012313025,-0.749746658,-0.1,65.63060525,501.6554356000001,11.7414225,95442.81988,1.134018639,-0.329479937,-0.127229282,-0.040528762999999995,-0.015706106,-0.113111139,0.02304371,0.051377278,-0.12385291300000001,1.7796410880000002,0,0.62690212,0.064207266,-0.019029478,0.776214243,0.0,398727618.2,327443402.0,502390.5183,16.2239988,-2.51080016,16.01439888,0.779603921,1.726235341,39.8714138,32.7368418,149.4534303,642.4965622999999,-102.0261901,-2.5926985559999998,15.90513021,1.278554245,-0.141720793,-0.7273390759999999,2.1652432580000003,1.724918296,102.1845147,0.042787725,0.006300211,0.014006982,0.0,0,0,1,0,0
52554139,-0.002116903,-0.030827112,0.008461309,0.0,0.0,1504.0,1500.0,1000.0,1500.0,1499.0,1484.0,15.73144697,16.1183339,15.89304728,15.97523935,16.36798554,15.70958056,16.09579717,154.4736715,154.4736715,11.74244934,-0.00150058,-0.005649220999999999,0.000266358,-0.17028520800000002,0.16483688,-0.030475102999999996,2.0,1.155831166,2.155831166,15,0,0,1,0,0.0,0,0,0,0,0,0.050914087000000004,-0.126151749,1.777699823,1.756543416,-1.118682839,329.4675069,45.62202241,-0.019134095,-0.006644278000000001,0.003134902,0.0,-1.4489166709999999,0.258544204,-7.77866899,225.68910409999998,954.4434913999999,11.74166806,-0.016763031,-0.12404164,0.024976933,-1.46303041,0.17369838399999998,-7.6017282989999995,-0.016721281,-0.123284804,0.015834758,225.68910409999998,96.50210221,101.60981629999999,-2.318096995,-1.814676021,15.3688965,15.98423663,-0.012306796000000002,-0.7121860590000001,-0.1,65.46510707,501.5538002,11.74178535,95443.98446,1.134032386,0.20817949600000002,0.060760468,-0.614735554,-0.012574482,-0.11099505400000001,0.022673764,0.053726272,-0.12818261,1.7819545330000002,0,0.625797333,0.066641563,-0.019403424,0.776890975,0.0,398727608.8,327443480.1,502346.3711,16.19276255,-2.514964993,15.98524505,0.881642328,1.7267805180000002,39.8714138,32.7368418,149.3476695,643.1600372,-101.9753478,-2.596899802,15.87531822,1.368908941,-0.14329109199999998,-0.705211439,2.104994352,1.7259725940000001,102.13367190000001,0.04957154,0.034419701000000004,0.013091847,0.0,0,0,1,0,0
52596594,-0.000809166,-0.027434034,0.00832334,0.0,0.0,1503.044609,1500.0,1000.0,1502.0,1497.0,1485.0,15.76562313,16.15347231,15.87878336,15.960892300000001,16.35324414,15.69072732,16.0764395,154.1666061,154.1666061,11.74284149,-0.001499186,-0.005649185,0.00026518799999999997,-0.170304388,0.16482383,-0.030305512000000003,2.0,1.159231846,2.159231846,15,0,0,1,0,0.0,0,0,0,0,0,0.050592542000000004,-0.126425487,1.778030015,1.756592849,-1.132690663,328.7874846,45.57881565,-0.019092364,-0.006519829,0.0031676670000000003,0.0,-1.4303107640000001,0.288525669,-7.846003506000001,11.74204702,954.4461961000001,11.74204702,-0.014464233,-0.124129017,0.020238041000000002,-1.412944229,0.154410775,-7.710918672999999,-0.017805631000000002,-0.114735194,0.01377162,961.8875044,96.39938626,101.537077,-2.286575127,-1.881536545,15.36884683,15.9838753,-0.012300566,-0.674625461,-0.1,65.29960889,501.6568885,11.74219403,95442.79474,1.134018258,0.270787975,0.391329527,-0.08132384,-0.006204624000000001,-0.10419816400000001,0.024476332000000003,0.051003007999999996,-0.122655153,1.78032595,0,0.6266821779999999,0.063627005,-0.018774723,0.776437569,0.0,398727599.5,327443558.2,502302.2238,16.16152631,-2.519129826,15.95609122,0.983680736,1.7273256940000001,39.8714138,32.7368418,149.2350856,643.8616422,-101.9144667,-2.601639074,15.846327100000002,1.458855639,-0.13046305,-0.664704714,2.04776037,1.7269239730000001,102.0727912,0.037305992,0.037697201,0.01279444,0.0,0,0,1,0,0
52643049,5.9699999999999994e-05,-0.020709124,0.007986652,0.0,0.0,1504.0,1500.0,1000.0,1501.0242050000002,1497.9757949999998,1484.0,15.66314263,16.04842051,15.86451944,15.94654526,16.33850274,15.67187408,16.05708183,153.8595407,153.8595407,11.74323364,-0.0014977920000000002,-0.005649149,0.000264019,-0.170323568,0.164810779,-0.030135921,2.0,1.162632527,2.162632527,15,0,0,1,0,0.0,0,0,0,0,0,0.050270998,-0.126699226,1.778360207,1.7566422819999998,-1.146698487,328.1074624,45.5356089,-0.019058001,-0.0064064740000000005,0.0031982259999999998,0.0,-1.407536343,0.323286673,-7.902363809,11.74243542,954.4460687000001,11.74243542,-0.013074673,-0.121251739,0.027065146,-1.416170764,0.150390765,-7.683365452,-0.018728863999999998,-0.104391283,0.012194743000000001,2125.980653,96.29667032,101.4643377,-2.255053259,-1.948397069,15.36879717,15.98351397,-0.012294336999999999,-0.637064863,-0.1,65.13411071,501.53035639999996,11.74259653,95444.27125,1.134035887,0.276632955,-0.027275152999999996,-0.048735202000000005,-0.011195443999999999,-0.100505459,0.017234161,0.048244287000000004,-0.12315137300000001,1.77868793,0,0.627390951,0.062944087,-0.020054266,0.775895406,0.0,398727590.1,327443636.3,502258.0766,16.13029006,-2.5232946590000003,15.92693739,1.085719144,1.727870871,39.8714138,32.7368418,149.1225016,644.5632472,-101.8535855,-2.606378346,15.81733598,1.548802337,-0.117635009,-0.6241979879999999,1.9905263880000001,1.7278753519999999,102.0119105,0.041765429,0.035154206,0.012544909,0.0,0,0,1,0,0
52687007,-0.003676925,-0.02038844,0.007966381,0.0,0.0,1504.0,1500.0,1000.0,1500.0,1499.0,1483.0,15.65154111,16.03643043,15.85025552,15.93219821,16.32376134,15.65302084,16.03772416,153.5524753,153.5524753,11.7436258,-0.001496398,-0.005649113000000001,0.000262849,-0.17034274800000002,0.164797728,-0.02996633,2.0,1.1660332070000001,2.166033207,15,0,0,1,0,0.0,0,0,0,0,0,0.049949454000000004,-0.126972964,1.778690399,1.756691715,-1.160706311,327.4274402,45.49240214,-0.019018251,-0.0062932380000000005,0.003230401,0.0,-1.409015717,0.292006332,-7.9533584489999996,547.7080675,954.4473094,11.74284787,-0.009788795999999999,-0.11089566,0.017629846,-1.484390537,0.21934651,-7.725186221,-0.018344607,-0.09945042800000001,0.012122703,2754.1082,96.19395438,101.3915984,-2.223531391,-2.0152575930000003,15.36874751,15.98315264,-0.012288107,-0.599504264,-0.1,64.96861252,501.49023200000005,11.74304633,95444.71937,1.134041095,0.050938582999999996,1.294913414,0.183851895,-0.010011378000000001,-0.09505648400000001,0.012273669,0.050489451,-0.124981143,1.780996176,0,0.6263710570000001,0.064379103,-0.019685351,0.7766117640000001,0.0,398727580.7,327443714.4,502213.9294,16.09905381,-2.5274594919999998,15.89778356,1.187757552,1.7284160469999998,39.8714138,32.7368418,149.01731830000003,645.2141809,-101.7899968,-2.61223341,15.79338337,1.62588994,-0.130979074,-0.604073081,1.8810379000000002,1.728475856,101.9483199,0.04840602,0.03243569,0.012344794,0.0,0,0,1,0,0
52735958,-0.002873684,-0.020158887,0.008062725,0.0,0.0,1503.0,1500.0,1000.0,1500.0,1499.0,1491.0,15.62028811,16.00429435,15.83599159,15.91785117,16.30901994,15.634167600000001,16.01836649,153.24540990000003,153.24540990000003,11.74401795,-0.0014950039999999999,-0.005649077,0.00026168,-0.170361928,0.164784677,-0.029796739,2.0,1.169433887,2.169433887,15,0,0,1,0,0.0,0,0,0,0,0,0.049627909000000005,-0.127246702,1.779020592,1.756741149,-1.174714135,326.74741800000004,45.44919539,-0.018977806,-0.006157955,0.003248838,0.0,-1.438919447,0.183328507,-7.9980647739999995,1711.8008280000001,954.4501535,11.74328848,-0.015182592,-0.10595352599999999,0.016286305,-1.413633106,0.181303945,-7.946318047999999,-0.016428031000000003,-0.100841714,0.013814266,2754.1082,96.08343911,101.3045746,-2.213811862,-2.078473818,15.368654800000002,15.98290842,-0.012285078,-0.560986541,-0.1,64.78704435,501.34879299999994,11.74350229,95446.35032,1.134060514,0.328680161,0.356529169,0.18531568899999998,-0.01039709,-0.09340657699999999,0.011437498,0.052784371,-0.128155405,1.7833063930000002,0,0.625304234,0.066349678,-0.019715888,0.777305096,0.0,398727571.1,327443793.4,502162.0666,16.07025405,-2.534060812,15.86944189,1.284922985,1.7291029709999999,39.8714138,32.7368418,148.912969,645.8594047,-101.72610290000001,-2.618214205,15.76999852,1.7015285359999999,-0.14727230300000002,-0.586244867,1.765661195,1.7290368230000002,101.8844239,0.042152176,0.046411223,0.012000651000000001,0.0,0,0,1,0,0
52782413,6.91e-05,-0.006869109,0.007525995,0.0,0.0,1504.0,1500.0,1000.0,1502.0,1497.0,1492.0,15.70936253,16.09559078,15.82172767,15.90350413,16.29427854,15.61531436,15.99900882,152.9383445,152.9383445,11.7444101,-0.00149361,-0.005649041,0.00026051,-0.170381108,0.164771627,-0.029627148,2.0,1.172834567,2.1728345669999998,15,0,0,1,0,0.0,0,0,0,0,0,0.049306365,-0.12752044099999998,1.779350784,1.7567905819999998,-1.188721959,326.0673958,45.40598863,-0.018941099,-0.006010235,0.003249455,0.0,-1.460214209,0.08965154,-8.044612291,2754.1082,954.4537054,11.74374668,-0.009173465,-0.100982882,0.013028986999999999,-1.456076551,0.178492211,-8.001190024,-0.014816208,-0.101648492,0.015121115,2754.1082,95.96829151,101.20906670000001,-2.217041601,-2.1395255509999997,15.36853653,15.98273375,-0.01228395,-0.521900342,-0.1,64.59593158,501.21790260000006,11.74398869,95447.8082,1.1340778409999999,-0.180399056,-0.037278506,0.537799141,-0.007076464,-0.092469229,0.012310596000000002,0.049362685999999996,-0.122845237,1.781079448,0,0.626436136,0.063194319,-0.019447547,0.776655393,0.0,398727561.1,327443874.0,502098.1364,16.04526505,-2.544472895,15.84237047,1.3744668930000001,1.7300115919999999,39.8714138,32.7368418,148.8035389,646.5326544,-101.655034,-2.6243098540000003,15.74777953,1.7773295569999998,-0.15760682199999998,-0.546726155,1.7092698480000001,1.7295203419999998,101.8133551,0.038162019,0.053672487000000005,0.011637368,0.0,0,0,1,0,0
52824868,0.000363415,-0.007967047,0.007553879,0.0,0.0,1503.0,1500.0,1000.0,1501.0,1498.0,1492.0,15.66101438,16.04598515,15.80746375,15.88915708,16.27953714,15.59646111,15.97965116,152.6312791,152.6312791,11.74480225,-0.001492216,-0.005649005,0.000259341,-0.170400288,0.164758576,-0.029457557000000002,2.0,1.176235247,2.1762352469999997,15,0,0,1,0,0.0,0,0,0,0,0,0.04902002900000001,-0.127658208,1.7796733009999999,1.756840943,-1.2027297829999999,325.38877389999993,45.37852435,-0.018905625,-0.005878454,0.0032479809999999996,0.0,-1.4078286130000002,0.124360295,-8.10691776,2754.1082,954.4633158,11.74435539,-0.014251551999999999,-0.10420698800000001,0.009578823,-1.5156199559999999,0.17318455100000002,-7.959439653,-0.01581262,-0.097452728,0.013135366,2754.1082,95.85314392,101.11355879999999,-2.22027134,-2.200577284,15.36841826,15.98255908,-0.012282821999999999,-0.482814144,-0.1,64.40481881,501.3634875,11.74450173,95446.18659,1.134058524,-0.304838053,0.17810948,0.223025908,-0.007184947,-0.078220257,0.011499229,0.047434422000000004,-0.12336594099999999,1.780019386,0,0.626893532,0.062786677,-0.020394181,0.776301153,0.0,398727551.1,327443954.6,502034.2062,16.02027606,-2.554884977,15.81529906,1.4640108019999998,1.7309202119999998,39.8714138,32.7368418,148.68985080000002,647.2293925,-101.5779515,-2.63050176,15.72653764,1.8532667059999999,-0.162947376,-0.489028739,1.7023138480000002,1.729938954,101.7362748,0.043077378,0.045648417999999996,0.011366676000000001,0.0,0,0,1,0,0
52871323,-0.0024675229999999997,-0.008679854,0.0076353459999999995,0.0,0.0,1503.0,1500.0,1000.0,1500.0,1499.0,1492.0,15.636981299999999,16.02119778,15.79319982,15.87481004,16.26479574,15.57760787,15.96029349,152.32421369999997,152.32421369999997,11.7451944,-0.0014908220000000002,-0.005648969,0.00025817099999999996,-0.170419469,0.164745525,-0.029287966000000002,2.0,1.179635927,2.179635927,15,0,0,1,0,0.0,0,0,0,0,0,0.04879098900000001,-0.127574706,1.779983329,1.756892813,-1.216737607,324.7124308,45.37667826,-0.018862491000000002,-0.0057439809999999996,0.00323994,0.0,-1.355443016,0.15906905,-8.169223229,2754.1082,954.4729261,11.74496411,-0.017433516,-0.094265721,0.01229728,-1.4670612109999999,0.162158001,-8.063271991,-0.016809031000000002,-0.093256964,0.011149616999999999,2754.1082,95.73799632,101.018051,-2.223501079,-2.2616290169999997,15.3683,15.98238442,-0.012281694,-0.44372794600000004,-0.1,64.21370604,501.1696586,11.74501181,95448.39217,1.134084843,-0.641562936,-0.153188182,0.17689032300000002,-0.006867335,-0.078397776,0.009801548,0.049757959000000004,-0.12518985,1.782323851,0,0.625872511,0.064244144,-0.019992273,0.7770166009999999,0.0,398727541.1,327444035.2,501970.2761,15.99528706,-2.565297059,15.78822765,1.5535547109999999,1.731828833,39.8714138,32.7368418,148.5760179,647.9257527000001,-101.49952929999999,-2.63662393,15.70614036,1.927768991,-0.163475965,-0.429823955,1.68407068,1.730345351,101.6578543,0.04896195,0.046235548,0.011168478999999999,0.0,0,0,1,0,0
52913778,-0.000636556,-0.009570816,0.007735069000000001,0.0,0.0,1503.0,1500.0,1000.0,1499.0,1500.0,1494.0982199999999,15.63134795,16.01548419,15.7789359,15.86046299,16.25005434,15.55875463,15.94093582,152.0171483,152.0171483,11.74558655,-0.0014894279999999999,-0.005648933,0.000257002,-0.170438649,0.164732474,-0.029118375,2.0,1.183036607,2.183036607,15,0,0,1,0,0.0,0,0,0,0,0,0.04856194900000001,-0.127491205,1.780293357,1.7569446830000002,-1.230745431,324.0360878,45.37483218,-0.018820675,-0.005599791999999999,0.0032320540000000003,0.0,-1.380131644,0.135247725,-8.219677154,2754.1082,954.4873107000001,11.7455245,-0.010970947,-0.092126054,0.008480142,-1.386611118,0.180518221,-8.197472912,-0.014018973999999998,-0.089143124,0.008584603,2754.1082,95.62284872,100.9225431,-2.226730818,-2.32268075,15.36818173,15.98220975,-0.012280566000000001,-0.40464174799999997,-0.1,64.02259326,500.99203150000005,11.7455651,95450.41728,1.1341087859999999,-0.24998519800000002,-0.13005683099999998,-0.192291773,-0.00975638,-0.078921198,0.012148686,0.053566790999999996,-0.127674642,1.785841803,0,0.624306975,0.06643226099999999,-0.019176618,0.7781127240000001,0.0,398727531.1,327444115.8,501906.3459,15.97029806,-2.575709142,15.76115623,1.64309862,1.732737454,39.8714138,32.7368418,148.46156530000002,648.6204948,-101.41537170000001,-2.642447549,15.68935893,1.9961284869999998,-0.14340408,-0.36416598200000005,1.6175060719999999,1.7306994530000002,101.5736962,0.036595138,0.056347394,0.010751721,0.0,0,0,1,0,0
52964233,0.001328299,0.0034299120000000002,0.007264931999999999,0.0,0.0,1503.0,1500.0,1000.0,1502.0,1497.0,1497.0,15.65051094,16.03484468,15.76467198,15.84611595,16.23531294,15.53990139,15.92157815,151.7100829,151.7100829,11.7459787,-0.0014880339999999998,-0.005648897,0.000255832,-0.17045782899999998,0.164719423,-0.028948783999999998,2.0,1.186437287,2.186437287,15,0,0,1,0,0.0,0,0,0,0,0,0.04833291,-0.127407703,1.780603385,1.756996553,-1.244753255,323.35974469999996,45.37298609,-0.018788075,-0.0054384590000000005,0.00320942,0.0,-1.4306733630000001,0.091793593,-8.266155702999999,2754.1082,954.5032968,11.74606869,-0.013440367,-0.08482400300000001,0.01026471,-1.432431585,0.18153824100000002,-8.242706872000001,-0.009958818000000001,-0.08505676300000001,0.005825285,2754.1082,95.51850662,100.8272257,-2.247187457,-2.368333212,15.36812297,15.99129022,-0.012463353,-0.372956244,-0.1,63.84972657,501.0588195,11.74612907,95449.65311,1.134099778,-0.088931524,0.263252322,0.133611866,-0.009357556,-0.073278879,0.006758396,0.047792457,-0.122955261,1.781803565,0,0.62620137,0.062752791,-0.020069306999999998,0.776865336,0.0,398727521.1,327444195.0,501833.9684,15.95020604,-2.58244849,15.74020604,1.721624325,1.733389681,39.8714138,32.7368418,148.3471127,649.3152368,-101.331214,-2.648271169,15.67257751,2.0644879830000002,-0.12333219599999999,-0.29850800899999996,1.550941465,1.731053556,101.489538,0.040729825,0.052781509000000004,0.010784677,0.0,0,0,1,0,0
53010688,-0.002926373,0.004712134000000001,0.006757889,0.0,0.0,1503.0,1500.0,1000.0,1501.0,1498.0,1497.0,15.58336936,15.96610401,15.75040805,15.83176891,16.22057154,15.52104815,15.90222048,151.4030175,151.4030175,11.74637085,-0.00148664,-0.00564886,0.00025466299999999997,-0.17047700899999998,0.16470637300000002,-0.028779192999999998,2.0,1.189837968,2.189837968,15,0,0,1,0,0.0,0,0,0,0,0,0.04810387,-0.127324201,1.7809134130000002,1.757048423,-1.2587610790000001,322.6834016,45.371140000000004,-0.018750181,-0.005293755,0.003197164,0.0,-1.447129974,0.09654240300000001,-8.310782069,2754.1082,954.5181385,11.74661789,-0.011123176,-0.078786522,0.010007279000000001,-1.414540906,0.18228527600000002,-8.293615317,-0.00750559,-0.08232052299999999,0.003612555,2754.1082,95.41570145,100.73193540000001,-2.270094394,-2.411795333,15.36807267,16.00168711,-0.012672299,-0.34232339100000003,-0.1,63.67945514,500.8428487,11.74669406,95452.10294,1.134128974,-0.10279422199999999,0.29356980899999996,-0.300381286,-0.003595428,-0.063338256,0.009481608,0.046604340999999994,-0.123840826,1.781323791,0,0.626399423,0.06272397,-0.020824824,0.7766933309999999,0.0,398727511.1,327444273.3,501755.6695,15.93354671,-2.586613323,15.72354671,1.792426485,1.733862181,39.8714138,32.7368418,148.23940919999998,649.9643444,-101.2474125,-2.653682681,15.65883567,2.123443259,-0.09408123,-0.313325294,1.4542178,1.731381356,101.40573690000001,0.045065905,0.043927465,0.010735698,0.0,0,0,1,0,0
53053143,-0.000648107,0.003655312,0.006630262,0.0,0.0,1503.0,1500.0,1000.0,1500.0,1499.0,1497.0,15.60419917,15.98736353,15.73614413,15.81742186,16.20583014,15.5021949,15.88286281,151.0959521,151.0959521,11.74676301,-0.001485246,-0.005648824,0.000253494,-0.170496189,0.164693322,-0.028609602,2.0,1.193238648,2.193238648,15,0,0,1,0,0.0,0,0,0,0,0,0.04787483,-0.12724069999999998,1.7812234409999999,1.7571002930000001,-1.272768903,322.0070586,45.36929391,-0.018710186,-0.00515316,0.0031729490000000004,0.0,-1.410946754,0.175734127,-8.352547987000001,2754.1082,954.5312126,11.74717481,-0.017335933,-0.078126805,0.00622881,-1.501908402,0.16386605699999998,-8.40286781,-0.007534044,-0.08166936,0.002243955,2754.1082,95.31289628,100.6366451,-2.293001331,-2.455257453,15.36802238,16.012083999999998,-0.012881245,-0.311690538,-0.1,63.50918371,500.81444639999995,11.74728765,95452.46309,1.1341332309999999,0.094979331,0.20266255100000002,-0.080864517,-0.004168776,-0.062405714,0.00783119,0.048905389,-0.125849784,1.783623706,0,0.625375295,0.064246437,-0.020488991,0.777403464,0.0,398727501.1,327444351.6,501677.3707,15.91688738,-2.590778156,15.70688738,1.863228646,1.7343346819999998,39.8714138,32.7368418,148.1330426,650.6044125,-101.1636816,-2.659012562,15.64569592,2.180535736,-0.06301206,-0.344083219,1.3515201909999999,1.731703947,101.3220064,0.049799631,0.055125218,0.010347764,0.0,0,0,1,0,0
53099195,0.00039401400000000004,0.00341266,0.006706805,0.0,0.0,1503.0,1500.0,1000.0,1502.0,1497.0,1499.0,15.63969342,16.02366029,15.72188021,15.80307482,16.19108874,15.48334166,15.86350514,150.78888669999998,150.78888669999998,11.74715516,-0.0014838520000000001,-0.005648788,0.000252324,-0.17051536899999997,0.164680271,-0.028440011,2.0,1.196639328,2.1966393280000003,15,0,0,1,0,0.0,0,0,0,0,0,0.04764579,-0.127157198,1.781533469,1.757152164,-1.2867767270000001,321.3307155,45.36744783,-0.018668402,-0.00498729,0.003159434,0.0,-1.377681559,0.251985712,-8.39704744,2710.770259,954.5439460000001,11.74773367,-0.007610085999999999,-0.074643024,0.007801364,-1.3820113019999998,0.140657249,-8.431548037,-0.007514946,-0.080824575,0.001035212,2710.770259,95.21009111,100.54135490000002,-2.3159082680000003,-2.498719574,15.36797208,16.0224809,-0.01309019,-0.281057685,-0.1,63.33891228,500.6335591,11.74789726,95454.52758,1.13415773,0.33705096,-0.082889521,0.086287451,-0.006606236,-0.06822924400000001,0.014252939,0.052787637000000005,-0.127287708,1.787216788,0,0.623809441,0.06605238,-0.019313019,0.778540874,0.0,398727491.1,327444429.9,501599.0718,15.90022805,-2.594942989,15.69022805,1.934030806,1.734807182,39.8714138,32.7368418,148.026356,651.2441299999999,-101.07743740000001,-2.664772241,15.63425885,2.234697676,-0.078083456,-0.331792559,1.285032388,1.7320844080000002,101.23576340000001,0.037261197999999995,0.0649268,0.010072239,0.0,0,0,1,0,0
53142052,-0.004924765,0.00795757,0.006378326,0.0,0.0,1503.0,1500.0,1000.0,1501.0,1498.0,1499.2002400000001,15.62926712,16.01288382,15.70761628,15.78872778,16.17634734,15.46448842,15.84414747,150.48182130000004,150.48182130000004,11.74754731,-0.0014824579999999999,-0.005648752,0.000251155,-0.17053454899999998,0.16466722,-0.02827042,2.0,1.200040008,2.200040008,15,0,0,1,0,0.0,0,0,0,0,0,0.04741675,-0.12707369599999999,1.7818434969999999,1.7572040340000001,-1.300784551,320.6543724,45.36560174,-0.018634838,-0.004817887,0.0031500609999999996,0.0,-1.419878711,0.252203083,-8.512238209,1546.680259,954.5478683,11.74834259,-0.004496893,-0.075508564,0.013732742,-1.444258922,0.154411731,-8.447059603,-0.0062661340000000005,-0.07497255,0.003960523,1546.680259,95.10733951,100.44503950000001,-2.334541874,-2.5409804080000002,15.36791895,16.03190852,-0.013279807,-0.250989581,-0.1,63.16886486,500.5272096,11.74851535,95455.71829,1.134171781,-0.213526899,0.07298668900000001,-0.234925847,-0.003378919,-0.055039305,0.015828187,0.043463615,-0.122689381,1.7803122519999999,0,0.6269228029999999,0.061283007,-0.021713842,0.776363095,0.0,398727481.1,327444508.2,501520.773,15.88356871,-2.5991078219999997,15.67356871,2.004832967,1.7352796819999998,39.8714138,32.7368418,147.9193227,651.8834677,-100.98847020000001,-2.67099757,15.62466649,2.2856846280000003,-0.143144239,-0.272862411,1.257774835,1.732527567,101.1467983,0.041959292999999995,0.061624332999999996,0.009804299,0.0,0,0,1,0,0
53184507,-0.002562567,0.012530293999999999,0.006172100000000001,0.0,0.0,1503.0,1500.0,1000.0,1500.0,1499.0,1499.0,15.58444842,15.96675568,15.69335236,15.77438073,16.16160594,15.44563518,15.824789800000001,150.174756,150.174756,11.74793946,-0.001481064,-0.005648716,0.000249985,-0.170553729,0.16465416900000002,-0.028100829,2.0,1.203440688,2.203440688,15,0,0,1,0,0.0,0,0,0,0,0,0.04718771099999999,-0.126990195,1.782153525,1.757255904,-1.314792375,319.97802939999997,45.36375565,-0.018598052,-0.004659644,0.003144943,0.0,-1.4620758630000001,0.252420453,-8.627428978,382.5902579,954.5517904999999,11.74895152,-0.012258488,-0.068533249,0.015762665,-1.436157216,0.16307518699999998,-8.519781905,-0.005017322,-0.069120524,0.006885833,382.5902579,95.00496785,100.3414536,-2.322867705,-2.574721345,15.36784572,16.03446181,-0.013332331999999999,-0.22492685399999998,-0.1,63.00040618,500.55629819999996,11.74916398,95455.38767000001,1.134167978,-0.20539204600000002,-0.41715924,-0.321602522,-0.006108351999999999,-0.057993157999999996,0.012742624,0.045761597,-0.123462209,1.7826059019999998,0,0.625938543,0.062326799,-0.020993152,0.7770923279999999,0.0,398727471.5,327444585.1,501432.8198,15.87345453,-2.603272655,15.66018204,2.062544509,1.735723596,39.8714138,32.7368418,147.81107769999997,652.5294121000001,-100.89788259999999,-2.67731971,15.61536785,2.336529768,-0.19672274,-0.216330575,1.223925797,1.733000167,101.0562121,0.048619783,0.056655095,0.009678233,0.0,0,0,1,0,0
53230962,-0.00037800400000000004,0.012268204,0.006182924,0.0,0.0,1503.0,1500.0,1000.0,1498.0,1501.0,1505.0,15.62581319,16.00922306,15.67908844,15.76003369,16.14686454,15.42678194,15.80543213,149.8676906,149.8676906,11.74833161,-0.00147967,-0.00564868,0.000248816,-0.170572909,0.164641119,-0.027931237999999997,2.0,1.206841368,2.206841368,15,0,0,1,0,0.0,0,0,0,0,0,0.046958670999999994,-0.12690669300000001,1.7824635530000001,1.757307774,-1.328800199,319.3016863,45.36190957,-0.018557344,-0.004517105,0.0031393890000000002,0.0,-1.4886132319999998,0.215618224,-8.654358787,804.9980337999999,954.5691401,11.74957809,-0.010569631000000001,-0.06238975099999999,0.013035173999999998,-1.4408763759999998,0.22568634899999998,-8.632202907,-0.006018516,-0.066162994,0.009206919000000001,804.9980337999999,94.90259619,100.2378676,-2.311193535,-2.608462283,15.36777248,16.03701511,-0.013384857,-0.198864128,-0.1,62.8319475,500.32614,11.74981255,95458.02483,1.13419921,0.10455579300000001,0.265931802,-0.7705824240000001,-0.008687993,-0.048134319,0.015638659,0.048179694,-0.12892607,1.784898141,0,0.62481327,0.06522607,-0.021695131,0.777741635,0.0,398727461.9,327444661.5,501342.2346,15.86512465,-2.607437487,15.64768754,2.1166873369999997,1.7361597169999998,39.8714138,32.7368418,147.6943743,653.2214786000001,-100.79598370000001,-2.684317711,15.60811976,2.386384891,-0.170141102,-0.176541843,1.14406027,1.7336783040000001,100.954309,0.036201881,0.08181236,0.009108001999999999,0.0,0,0,1,0,0
53273417,0.0014385329999999999,0.0107982,0.006279894,0.0,0.0,1503.0,1500.0,1000.0,1501.0,1498.0,1506.0,15.62565379,16.00894955,15.67869807,15.75992235,16.14667532,15.42795844,15.80656364,149.8903145,149.8903145,11.74900374,-0.001478544,-0.005648618,0.000247702,-0.170582512,0.164630078,-0.027786282000000002,2.0,1.210242048,2.210242048,15,0,0,1,0,0.0,0,0,0,0,0,0.046729630999999994,-0.126823191,1.7827735809999998,1.757359644,-1.3428080230000001,318.6253432,45.36006348,-0.018521761,-0.004352583,0.003131084,0.0,-1.5078297059999999,0.161509461,-8.640026903999999,1969.0880350000002,954.5927669,11.7502129,-0.011813767,-0.0649836,0.01540592,-1.477497716,0.177928485,-8.645589436,-0.008071579,-0.064558629,0.011245531000000001,1969.0880350000002,94.80022453,100.1342817,-2.2995193659999997,-2.64220322,15.36769925,16.0395684,-0.013437383,-0.17280140100000002,-0.1,62.66348882,500.1755931,11.75047899,95459.7641,1.13421986,0.133968795,0.85605108,0.49218217799999997,-0.007687650999999999,-0.054898837,0.015050263999999999,0.051486862,-0.12686079,1.7879389909999999,0,0.62358189,0.065487555,-0.019660564,0.778759883,0.0,398727452.3,327444737.9,501251.6495,15.85679478,-2.61160232,15.63519304,2.170830166,1.7365958369999999,39.8714138,32.7368418,147.57767090000002,653.9135452,-100.6940848,-2.6913157119999997,15.60087166,2.436240015,-0.143559465,-0.13675311099999998,1.064194743,1.7343564409999999,100.8524058,0.040659286,0.081323175,0.0088777,0.0,0,0,1,0,0
53315744,-0.0042049290000000005,0.015267263,0.0061649190000000005,0.0,0.0,1503.0,1500.0,1000.0,1500.0,1499.0,1503.281856,15.72386007,16.10936061,15.68194126,15.76353941,16.15029738,15.43438082,15.81306136,149.99928559999998,149.99928559999998,11.7497492,-0.0014774870000000002,-0.005648548000000001,0.00024660299999999997,-0.170589607,0.164619564,-0.027647777999999998,2.0,1.213642729,2.213642729,15,0,0,1,0,0.0,0,0,0,0,0,0.046500590999999994,-0.12673969,1.783083609,1.757411514,-1.3568158469999998,317.9490002,45.35821739,-0.018486877,-0.004176155,0.003133078,0.0,-1.519169609,0.133933532,-8.646984427000001,2754.1082,954.60951,11.75085194,-0.013425868,-0.056610508,0.016032843999999997,-1.49256341,0.120513933,-8.638896837999999,-0.008626442,-0.06252639,0.01336426,2754.1082,94.69785288,100.0306958,-2.287845196,-2.675944158,15.36762601,16.0421217,-0.013489908,-0.146738675,-0.1,62.49503014,500.0755444,11.75115098,95460.90782000001,1.134233496,0.289894341,-0.892385506,0.514172208,-0.000353364,-0.049299126,0.018662098999999998,0.042930539000000004,-0.12274396300000001,1.781582205,0,0.626444561,0.061150946,-0.021899165,0.7767541929999999,0.0,398727442.7,327444814.3,501161.0644,15.8484649,-2.615767153,15.62269854,2.224972995,1.737031957,39.8714138,32.7368418,147.46045690000003,654.6046136,-100.58805579999999,-2.698202475,15.59567093,2.481911508,-0.155483923,-0.113303315,1.035631773,1.735075093,100.7463791,0.045163012,0.075592873,0.008756621,0.0,0,0,1,0,0
53360654,-0.00153508,0.014403371000000002,0.006284368,0.0,0.0,1503.0,1500.0,1000.0,1500.0,1499.0,1503.0,15.607894199999999,15.99055708,15.68518445,15.76715647,16.15391945,15.440803200000001,15.81955908,150.10825680000002,150.10825680000002,11.75049465,-0.00147643,-0.0056484790000000005,0.000245504,-0.17059670100000002,0.16460905,-0.027509274,2.0,1.217043409,2.217043409,15,0,0,1,0,0.0,0,0,0,0,0,0.04634844900000001,-0.12657323,1.783384619,1.757464884,-1.370823766,317.271702,45.36881277,-0.018452252,-0.004031055,0.003132025,0.0,-1.514197829,0.16130476,-8.698030434,2754.1082,954.6119974999999,11.751499699999998,-0.007880662,-0.053039265,0.02158594,-1.459786483,0.21552629399999998,-8.755728232000001,-0.006078664,-0.059608059000000005,0.015648903000000002,2754.1082,94.59010655,99.91980887,-2.2855429419999997,-2.7071965319999998,15.36753862,16.04849676,-0.013619154,-0.121538704,-0.1,62.32033188,500.14613260000004,11.75184983,95460.12414,1.134224228,0.10888488699999999,0.343897234,-0.023779402,-0.00693127,-0.044705157999999995,0.022752197000000002,0.045412584000000006,-0.123496841,1.7838684219999998,0,0.625457765,0.062244305,-0.021100362999999997,0.777483058,0.0,398727433.2,327444890.8,501070.4793,15.84013503,-2.619931986,15.61020404,2.279115823,1.737468078,39.8714138,32.7368418,147.343091,655.2953848999999,-100.4807974,-2.705056126,15.59107966,2.52633763,-0.17887077,-0.094717249,1.0223404090000001,1.735805806,100.63912490000001,0.049957241,0.062911257,0.008688899,0.0,0,0,1,0,0
53408782,6.15e-05,0.012476161999999999,0.005955168,0.0,0.0,1503.0,1500.0,1000.0,1499.0,1500.0,1509.0,15.70249322,16.08746871,15.68842764,15.77077354,16.15754151,15.44722558,15.8260568,150.2172279,150.2172279,11.75124011,-0.0014753729999999999,-0.005648409,0.000244405,-0.170603796,0.164598536,-0.027370771000000002,2.0,1.2204440890000001,2.220444089,15,0,0,1,0,0.0,0,0,0,0,0,0.046256082000000004,-0.126342287,1.783678621,1.75751942,-1.384831759,316.5936616,45.38907903,-0.018411302,-0.00390123,0.003137299,0.0,-1.50922605,0.18867598800000002,-8.749076441,2754.1082,954.614485,11.75214746,-0.012628378,-0.051116586,0.017235329,-1.4769075669999998,0.202374035,-8.769384765,-0.0035308859999999996,-0.056689727999999995,0.017933547,2754.1082,94.47327416,99.79657925,-2.2990842590000002,-2.734241897,15.367427300000001,16.06133268,-0.013878101,-0.097797255,-0.1,62.13508539,499.93051560000004,11.75252506,95462.58022999999,1.134253382,-0.090250549,0.44516926100000004,0.48611712799999995,-0.00918734,-0.043488686,0.015980948000000002,0.048392427,-0.125260117,1.78661902,0,0.624242934,0.063888051,-0.020406925,0.778343723,0.0,398727422.8,327444970.0,500968.8328,15.83590239,-2.6322904169999997,15.59975775,2.316871374,1.7382617280000001,39.8714138,32.7368418,147.2293214,655.9637164,-100.3752364,-2.7122840139999997,15.58753761,2.566909851,-0.19381556600000002,-0.08385769,0.9861955590000001,1.736524278,100.53356640000001,0.037549434,0.088006025,0.008171270999999999,0.0,0,0,1,0,0
53450473,-0.0035732409999999996,0.022601452,0.00574298,0.0,0.0,1503.0,1500.0,1000.0,1501.0,1498.0,1509.0,15.60800422,15.99051683,15.69167083,15.774390599999998,16.16116358,15.45364797,15.83255452,150.326199,150.326199,11.75198556,-0.0014743170000000002,-0.0056483390000000005,0.000243306,-0.17061089,0.164588023,-0.027232267,2.0,1.223844769,2.2238447690000003,15,0,0,1,0,0.0,0,0,0,0,0,0.046163714,-0.12611134400000001,1.7839726219999998,1.7575739559999999,-1.3988397519999998,315.9156211,45.40934529,-0.018375726999999998,-0.003728163,0.003147763,0.0,-1.475359522,0.131701721,-8.786423306,2754.1082,954.6298499,11.75299613,-0.007396587,-0.05189712,0.01972828,-1.4389402080000002,0.156087864,-8.912544607000001,-0.002162309,-0.053418292,0.017443265,2754.1082,94.35644176,99.67334962,-2.312625576,-2.7612872619999997,15.36731598,16.07416859,-0.014137047,-0.074055806,-0.1,61.949838899999996,499.8656873,11.753248199999998,95463.30328,1.13426196,-0.173833298,-0.335228178,-0.6564755999999999,-0.005498083000000001,-0.036397915,0.013561756999999999,0.040163934,-0.125100679,1.780551171,0,0.6268647279999999,0.061185167,-0.023746061000000002,0.7763576209999999,0.0,398727412.3,327445049.4,500867.0026,15.83173776,-2.644784874,15.58934546,2.354354871,1.739061313,39.8714138,32.7368418,147.120602,656.6005357,-100.2720592,-2.720037444,15.58546897,2.602070026,-0.196905157,-0.083848493,0.917957481,1.73722556,100.4303892,0.04203405,0.08751036699999999,0.008060936999999999,0.0,0,0,1,0,0
53501692,-0.002340926,0.024968771,0.005914071,0.0,0.0,1502.636527,1500.0,1000.0,1500.0,1499.0,1508.0,15.59345077,15.97559744,15.69491402,15.77800766,16.16478565,15.46007035,15.83905225,150.4351702,150.4351702,11.75273102,-0.00147326,-0.00564827,0.000242207,-0.170617985,0.164577509,-0.027093762999999996,2.0,1.227245449,2.227245449,15,0,0,1,0,0.0,0,0,0,0,0,0.046071346,-0.12588039999999998,1.784266624,1.757628491,-1.412847746,315.23758060000006,45.42961155,-0.018341958000000002,-0.003551178,0.003156595,0.0,-1.440594422,0.072104465,-8.823344153999999,2754.1082,954.6456152999999,11.75385104,-0.002059438,-0.049075333,0.014853918999999998,-1.4667068019999998,0.183043037,-8.889467121000001,-0.000830404,-0.050135875999999996,0.016866688,2754.1082,94.23960936,99.55011999999999,-2.326166893,-2.7883326260000003,15.36720465,16.08700451,-0.014395993999999999,-0.050314357000000004,-0.1,61.76459242,499.748434,11.75396094,95464.65182,1.1342780129999999,-0.235696481,0.083837365,-0.274492363,-0.000304065,-0.032885166,0.014907398,0.042599236,-0.12239381199999999,1.782831522,0,0.62597911,0.06092513,-0.021879816,0.777147842,0.0,398727401.9,327445128.7,500765.1724,15.82757314,-2.657279332,15.57893317,2.391838368,1.739860899,39.8714138,32.7368418,147.0118197,657.2373488,-100.168648,-2.7277514430000003,15.58352809,2.636993417,-0.20143567699999998,-0.08206556200000001,0.849890225,1.73791929,100.3269777,0.044388797,0.074377106,0.008139206999999999,0.0,0,0,1,0,0
53544146,-0.0013125370000000001,0.01956688,0.0057674,0.0,0.0,1502.0,1500.0,1000.0,1499.0,1500.0,1508.0,15.70136934,16.08605616,15.69815721,15.78162472,16.16840771,15.46649273,15.84554997,150.5441413,150.5441413,11.75347648,-0.0014722029999999998,-0.0056482,0.000241108,-0.17062507899999999,0.164566995,-0.026955259,2.0,1.2306461290000001,2.230646129,15,0,0,1,0,0.0,0,0,0,0,0,0.045978978,-0.125649457,1.784560625,1.757683027,-1.426855739,314.5595401,45.44987781,-0.018302974,-0.003390121,0.003164947,0.0,-1.47181909,0.06187017,-8.90742453,2754.1082,954.6573301000001,11.75461837,-0.005246115,-0.04856929,0.014944434,-1.499645027,0.10780664400000001,-8.870983747,-0.000624282,-0.045851319,0.01784614,2754.1082,94.12277696,99.42689037,-2.33970821,-2.815377991,15.36709333,16.09984042,-0.01465494,-0.026572908,-0.1,61.57934593,499.66278339999997,11.75469393,95465.59693,1.134289305,-0.31015720199999997,0.162243797,0.377563971,-0.005349068,-0.035332068,0.010300914,0.045011736,-0.12324202599999999,1.7851082269999998,0,0.624995384,0.06203322,-0.021137815,0.777870802,0.0,398727391.5,327445208.1,500663.3423,15.82340851,-2.669773789,15.56852087,2.4293218640000003,1.740660484,39.8714138,32.7368418,146.9020727,657.8740662,-100.0616486,-2.7348609230000003,15.58354593,2.668286708,-0.22805674199999998,-0.053089918,0.784441817,1.7384972440000002,100.21997409999999,0.03434405,0.067995633,0.008059963,0.0,0,0,1,0,0
53582601,0.001149176,0.016067251,0.006016668,0.0,0.0,1502.0,1500.0,1000.0,1501.0,1498.0,1510.0,15.65247252,16.03576952,15.70140039,15.78524178,16.17202978,15.47291512,15.85204769,150.6531125,150.6531125,11.75422193,-0.001471146,-0.00564813,0.000240009,-0.170632174,0.164556481,-0.026816755,2.0,1.234046809,2.234046809,15,0,0,1,0,0.0,0,0,0,0,0,0.04588661,-0.125418514,1.7848546269999999,1.757737562,-1.440863732,313.88149960000004,45.47014407,-0.01826183,-0.0032298440000000004,0.0031684720000000003,0.0,-1.544521594,0.08266294,-9.021147006,2754.1082,954.666499,11.75533066,-0.01210255,-0.035494887999999995,0.012645743000000001,-1.4317007730000002,0.129876604,-8.987140695,-0.001125772,-0.040936867,0.019803633,2754.1082,94.0152429,99.30947253,-2.3264073169999997,-2.836472301,15.367006,16.10930626,-0.014846005,-0.007205808,-0.1,61.409183999999996,499.52055870000004,11.75542653,95467.24588999999,1.13430887,0.7641153970000001,-0.15528873,-0.148148409,-0.005239053,-0.027422326,0.01700558,0.048152031,-0.124944222,1.787928868,0,0.623749726,0.063703707,-0.020359745,0.778755268,0.0,398727381.2,327445286.9,500560.3779,15.82,-2.6803778830000002,15.56113323,2.46793958,1.741328099,39.8714138,32.7368418,146.7923256,658.5107836,-99.95464925,-2.741970404,15.58356377,2.69958,-0.254677808,-0.024114273999999998,0.71899341,1.739075198,100.11297049999999,0.038831717,0.092201255,0.007460321999999999,0.0,0,0,1,0,0
53621056,-0.003956997,0.028599752000000003,0.00581444,0.0,0.0,1503.0,1500.0,1000.0,1501.0,1498.0,1509.0,15.59451074,15.97643981,15.70464358,15.78885885,16.17565184,15.4793375,15.85854541,150.76208359999998,150.76208359999998,11.75496739,-0.00147009,-0.005648060999999999,0.00023891,-0.170639268,0.164545967,-0.026678251,2.0,1.237447489,2.237447489,15,0,0,1,0,0.0,0,0,0,0,0,0.045794242,-0.125187571,1.7851486280000002,1.7577920980000001,-1.454871725,313.2034591,45.49041033,-0.018232878,-0.003063839,0.003167052,0.0,-1.58791089,0.093362965,-9.120956814,2754.1082,954.6786824,11.75604306,-0.010537953999999999,-0.034667176,0.008055643000000001,-1.41702992,0.24688483600000002,-9.148653514,-0.0029313140000000004,-0.035448417,0.021043746000000002,2754.1082,93.91341334,99.19562021,-2.296638811,-2.8539156560000003,15.3669334,16.11670456,-0.014995426000000001,0.009477642,-0.1,61.248276399999995,499.313557,11.75615991,95469.61142999999,1.13433701,-0.120529449,-0.310799552,-0.063476703,-0.000177624,-0.026174619,0.01522729,0.039877153,-0.123456822,1.7817874630000001,0,0.626438101,0.06047275,-0.023303235,0.776770559,0.0,398727371.2,327445363.3,500452.3005,15.82,-2.682460341,15.56738048,2.511670285,1.741400796,39.8714138,32.7368418,146.67547009999998,659.1853986000001,-99.83935922,-2.750364021,15.58479475,2.728687355,-0.24173322100000003,-0.008464991,0.692552638,1.739616244,99.99768042,0.043197233,0.09116137199999999,0.007334104,0.0,0,0,1,0,0
53659511,-0.003238229,0.025417505,0.005778653000000001,0.0,0.0,1503.0,1500.0,1000.0,1499.0,1500.0,1507.0,15.69735519,16.081602800000002,15.70788677,15.79247591,16.17927391,15.48575988,15.86504313,150.87105469999997,150.87105469999997,11.75571285,-0.0014690329999999998,-0.005647991,0.000237811,-0.170646363,0.164535453,-0.026539747000000002,2.0,1.24084817,2.24084817,15,0,0,1,0,0.0,0,0,0,0,0,0.045701875,-0.12495662699999999,1.78544263,1.757846634,-1.4688797180000002,312.5254187,45.51067659,-0.018195537,-0.0028909720000000003,0.003169881,0.0,-1.547104944,0.075073978,-9.180805788999999,2754.1082,954.6995245999999,11.75675577,-0.008819614,-0.038912478,0.013254876,-1.4206757630000002,0.169772487,-9.084756511,-0.008482439,-0.028311297000000003,0.020223352,2754.1082,93.81158379,99.08176788,-2.2668703040000002,-2.871359011,15.366860800000001,16.12410286,-0.015144846000000002,0.026161091,-0.1,61.08736879999999,499.30155279999997,11.75690929,95469.77475,1.134338855,-0.059647643,0.26946065399999997,-0.00029435,-0.004350428,-0.027074475,0.009302094,0.042351034,-0.121249488,1.784061481,0,0.62554009,0.060416975,-0.021579872000000003,0.777549603,0.0,398727361.2,327445439.7,500344.223,15.82,-2.684542799,15.57362773,2.5554009890000002,1.7414734930000002,39.8714138,32.7368418,146.5556622,659.8757536,-99.72062581,-2.7592909839999997,15.58652958,2.756886817,-0.21235570000000004,0.001649409,0.682313038,1.7401419619999998,99.87894871,0.033188729,0.084591635,0.00731364,0.0,0,0,1,0,0
53709966,-0.000995194,0.023675271,0.005738121999999999,0.0,0.0,1502.0,1500.0,1000.0,1499.0,1500.0,1510.0,15.67847605,16.06222036,15.71112996,15.79609297,16.18289598,15.49218226,15.87154085,150.98002590000002,150.98002590000002,11.756458300000002,-0.001467976,-0.005647921,0.000236711,-0.17065345699999998,0.164524939,-0.026401242999999998,2.0,1.24424885,2.24424885,15,0,0,1,0,0.0,0,0,0,0,0,0.045609507,-0.124725684,1.785736631,1.7579011690000002,-1.482887712,311.8473782,45.53094285,-0.018156526,-0.002735023,0.0031660720000000002,0.0,-1.506298999,0.05678499099999999,-9.240654764,2754.1082,954.7203668999999,11.75746848,-0.012815142,-0.033747137,0.013472943000000001,-1.481484415,0.156717271,-9.150942818999999,-0.014033565,-0.021174176,0.019402958999999997,2754.1082,93.70975423,98.96791555,-2.2371017980000003,-2.888802367,15.366788199999998,16.13150117,-0.015294266,0.04284454099999999,-0.1,60.926461200000006,499.09428030000004,11.75766587,95472.12321,1.1343667929999999,-0.234396715,-0.449899139,-0.20565618300000002,-0.00710696,-0.018651808,0.009929043,0.044907915,-0.12209165599999999,1.78633286,0,0.624554486,0.061567069,-0.020779817,0.7782716959999999,0.0,398727351.2,327445516.1,500236.1456,15.82,-2.6866252580000003,15.57987498,2.599131694,1.74154619,39.8714138,32.7368418,146.4387712,660.547442,-99.60427505,-2.767502162,15.58865339,2.782709821,-0.19328411399999998,0.02742251,0.639496857,1.740644592,99.76259920000001,0.036706537000000004,0.07476125,0.007309439,0.0,0,0,1,0,0
53752421,0.001533882,0.021441653999999997,0.005784757,0.0,0.0,1502.0,1500.0,1000.0,1501.0,1498.0,1512.0,15.71663188,16.10123001,15.71437315,15.79971003,16.18651804,15.49860465,15.87803857,151.088997,151.088997,11.75720376,-0.00146692,-0.005647851999999999,0.000235612,-0.170660552,0.164514425,-0.026262739,2.0,1.24764953,2.24764953,15,0,0,1,0,0.0,0,0,0,0,0,0.045517139000000005,-0.12449474099999999,1.7860306330000002,1.757955705,-1.496895705,311.16933769999997,45.55120911,-0.018112147,-0.002581581,0.003162647,0.0,-1.511568359,0.084720906,-9.255834706,1703.578457,954.7295634999999,11.75820417,-0.006283543000000001,-0.025539272999999998,0.010864161,-1.507359039,0.191863817,-9.205043143,-0.011172419,-0.024376946,0.012781635,1703.578457,93.60792467,98.85406323,-2.207333291,-2.906245722,15.36671559,16.13889947,-0.015443686000000002,0.059527990999999995,-0.1,60.7655536,499.0683921,11.75845298,95472.46036,1.134370646,0.613656937,-0.46732114799999996,-0.19198719,-0.004165699,-0.013686223,0.01122216,0.043297975999999995,-0.123805027,1.78545565,0,0.6248978510000001,0.061713622,-0.021969756,0.7779438959999999,0.0,398727341.2,327445592.6,500128.0682,15.82,-2.688707716,15.58612222,2.642862398,1.7416188869999998,39.8714138,32.7368418,146.3272532,661.1847454,-99.49231324,-2.7743948410000003,15.59149368,2.804155306,-0.193196421,0.082039481,0.536673478,1.7411046959999998,99.65063781,0.040145999,0.094321161,0.006802552,0.0,0,0,1,0,0
