timestamp,control[0],control[1],control[2],control[3],control[4],output[2],output[3],output[4],output[5],output[6],output[7],indicated_airspeed_m_s,true_airspeed_m_s,indicated_airspeed_m_s.1,equivalent_airspeed_m_s,true_airspeed_m_s.1,equivalent_ground_minus_wind_m_s,true_ground_minus_wind_m_s,differential_pressure_raw_pa,differential_pressure_filtered_pa,temperature,gyro_bias[0],gyro_bias[1],gyro_bias[2],accel_bias[0],accel_bias[1],accel_bias[2],instance_count,seq_reached,seq_current,seq_total,item_changed_index,item_do_jump_remaining,valid,warning,finished,failure,stay_in_failsafe,flight_termination,item_do_jump_changed,execution_mode,nav_roll,nav_pitch,nav_bearing,target_bearing,xtrack_error,wp_dist,acceptance_radius,rollspeed_integ,pitchspeed_integ,yawspeed_integ,additional_integ1,x,y,z,temperature.1,pressure,temperature.2,gyro_rad[0],gyro_rad[1],gyro_rad[2],accelerometer_m_s2[0],accelerometer_m_s2[1],accelerometer_m_s2[2],x.1,y.1,z.1,temperature.3,altitude_sp,altitude_filtered,height_rate_setpoint,height_rate,airspeed_sp,airspeed_filtered,airspeed_derivative_sp,airspeed_derivative,throttle_integ,pitch_integ,baro_alt_meter,baro_temp_celcius,baro_pressure_pa,rho,xyz[0],xyz[1],xyz[2],xyz[0].1,xyz[1].1,xyz[2].1,roll_body,pitch_body,yaw_body,q_d[0],q_d[1],q_d[2],q_d[3],thrust_body[0],lat,lon,alt,vel_m_s,vel_n_m_s,vel_e_m_s,vel_d_m_s,cog_rad,ground_contact,maybe_landed,landed,ref_lat,ref_lon,x.2,y.2,z.2,vx,vy,vz,ax,ay,az,yaw,dist_bottom,roll,pitch,yaw.1,thrust_body[0].1,timestamp.1,isTakeoff,isClimbing,isDescending,isCruise,isLand
60007317,-0.008502684,0.118547045,0.007083848,0.13538092,0.0,1500.0,1500.0,1235.0,1503.0,1496.0,1561.0,17.88304872,18.321324399999998,18.05684625,18.16010561,18.60523616,18.59244142,19.048169,198.49489680000002,198.49489680000002,11.75344466,-0.001581225,-0.005900292,0.000104404,-0.19183221600000003,0.19624784,-0.008877189,2.0,0.579715943,1.579715943,11,0,0,1.0,0.0,0.0,0,0,0,0,0,0.850122307,0.02554649,2.837885058,3.062462591,16.22757873,185.0933856,52.772818799999996,-0.021934581,0.017698066000000002,-0.118424166,0.0,-1.36317524,-0.340957425,-11.49577316,-1.05e+21,954.6322339,11.75292939,0.075761955,0.231612664,0.349870406,-1.262764646,-0.463511454,-11.68968515,0.050074315999999994,0.22515971899999998,0.379711289,-1.05e+21,96.77827133,100.0266671,-3.356540222,-1.4424058080000002,15.36745757,17.13307893,-0.035312422,-0.9505291659999999,-0.12249994800000001,75.31016016,499.82752639999995,11.75310231,95463.74675,1.13426724,-0.7086694579999999,-0.13410578,0.43420471899999996,0.046292437,0.249662468,0.374189218,0.8412513890000001,-0.003673538,2.866012093,0.12463893300000001,0.057747717999999996,0.404230871,0.9042817470000001,0.0,398750106.3,327392912.1,500243.8032,18.49808362,-5.974468675,17.48412837,-0.6106881239999999,1.900218253,0,0,0.0,39.8714138,32.7364372,398.64405389999996,246.94458390000003,-100.3224196,-7.31901728,16.78150841,-0.469046784,-6.298390402000001,-4.724918716,1.221711048,1.98533433,100.4055796,0.07139458900000001,0.273922918,0.46902770899999996,0.0,60007317,0,0,1,0,0
60051200,-0.007709511,0.116786186,0.010298985,0.08151286,0.0,1503.0,1500.0,1135.0,1504.0,1495.0,1559.0,17.82283039,18.25954941,17.996813500000002,18.09906458,18.54268383,18.52250865,18.97650674,197.1845246,197.1845246,11.75350227,-0.001581317,-0.005900257,0.000104181,-0.19184407,0.196243195,-0.008778383,2.0,0.582316463,1.5823164630000002,11,0,0,1.0,0.0,0.0,0,0,0,0,0,0.845301704,0.01592932,2.8519546730000003,3.066458598,15.46760956,184.64161380000002,52.54656134,-0.021941164,0.017793566,-0.118000626,0.0,-1.3605651840000001,-0.371470134,-11.40305942,-1.05e+21,954.6291308,11.75279626,0.063492751,0.23675343699999998,0.36122559299999996,-1.3292073009999998,-0.46676677,-11.56404382,0.035885342,0.229564937,0.383287593,-1.05e+21,96.59707362,99.95810108,-3.4144366710000003,-1.567750341,15.36741355,17.08894584,-0.034430643,-0.9178632940000001,-0.123007541,75.28631193,499.8656964,11.75294806,95463.29533,1.13426186,-0.720903307,0.43120264799999997,0.379705654,0.02992634,0.251695121,0.387138692,0.835327378,-0.008792389,2.877857412,0.11841443900000001,0.057317755,0.401572741,0.9063269209999999,0.0,398750080.4,327393011.8,500277.5207,18.48858572,-6.318767439,17.35590697,-0.5893178570000001,1.9200691719999998,0,0,0.0,39.8714138,32.7364372,398.29683539999996,247.7194244,-100.34504150000001,-7.609205488,16.56095438,-0.41005816799999995,-6.226077132,-4.841298496,1.301365452,2.005605352,100.4282015,0.061965179,0.278547277,0.470054418,0.0,60051200,0,0,1,0,0
60095082,-0.008420808,0.115144187,0.015511303999999998,0.00571163,0.0,1505.0,1500.0,1081.0,1503.0,1496.0,1558.0,17.75616511,18.19137323,17.93678075,18.03802355,18.48013151,18.45257588,18.90484449,195.87415249999998,195.87415249999998,11.75355988,-0.001581409,-0.0059002230000000004,0.000103958,-0.19185592399999998,0.19623854899999998,-0.008679576999999999,2.0,0.584916983,1.584916983,11,0,0,1.0,0.0,0.0,0,0,0,0,0,0.840481101,0.00631215,2.866024289,3.0704546039999996,14.70764039,184.1898421,52.32030388,-0.021937876000000002,0.01787676,-0.11755822,0.0,-1.3496914690000001,-0.358834029,-11.32859027,-1.05e+21,954.6259797,11.75267486,0.04119074,0.24027580199999998,0.37470879100000004,-1.386476888,-0.270381863,-11.5170705,0.022549551,0.22987716,0.38094861,-1.05e+21,96.41587591,99.88953504,-3.472333119,-1.6930948730000002,15.36736953,17.04481274,-0.033548865,-0.885197421,-0.123515134,75.26246371,499.98348560000005,11.75280834,95461.98082000001,1.13424626,-0.553531538,0.161556827,-0.28077076100000004,0.018150938999999998,0.250572978,0.37672295,0.832275269,-0.019938368999999997,2.896308359,0.10788962699999999,0.05849953,0.400059579,0.908232802,0.0,398750053.9,327393111.3,500310.6453,18.4720184,-6.659873584,17.2190198,-0.5656671329999999,1.9399678530000002,0,0,0.0,39.8714138,32.7364372,397.9256621,248.5103861,-100.3654526,-7.904374344,16.32998199,-0.34551025399999996,-6.148119492,-4.93763959,1.387501329,2.026651575,100.44861259999999,0.054296412,0.28005721100000003,0.48137135,0.0,60095082,0,0,1,0,0
60138965,-0.007408968,0.11091790800000001,0.019601495,0.0,0.0,1507.0,1500.0,1005.0,1504.0,1495.0,1557.0,17.62832569,18.0604232,17.876748000000003,17.97698253,18.41757918,18.382643100000003,18.83318223,194.56378030000002,194.56378030000002,11.75361748,-0.0015815,-0.005900188000000001,0.000103735,-0.19186777800000002,0.196233904,-0.008580772,2.0,0.587517504,1.587517504,11,0,0,1.0,0.0,0.0,0,0,0,0,0,0.835660497,-0.00330502,2.880093905,3.07445061,13.94767122,183.73807030000003,52.09404642,-0.021924827,0.017936700000000003,-0.117093815,0.0,-1.326271785,-0.280688951,-11.28182022,-1.05e+21,954.6227556,11.75257126,0.026224682000000003,0.24242515,0.387225805,-1.331681738,-0.250046502,-11.4182946,0.010509068,0.22397535699999999,0.36962897899999997,-1.05e+21,96.22772020000001,99.81274954,-3.5197713289999997,-1.821587759,15.36732008,17.004854100000003,-0.032750682999999996,-0.849290872,-0.12404070699999999,75.23035628,499.9558409,11.75268514,95462.27468999999,1.134249637,-0.26283834300000003,0.009443396,-0.699388239,0.011931938999999999,0.240734625,0.363592741,0.8264948679999999,-0.032985197,2.9083550039999997,0.099967894,0.061721585999999995,0.397046658,0.910246245,0.0,398750021.3,327393208.7,500338.1892,18.38891178,-6.97092989,17.00056811,-0.52055211,1.9603160819999998,0,0,0.0,39.8714138,32.7364372,397.5181204,249.32582290000002,-100.3825073,-8.207104871,16.08319234,-0.272522159,-6.061592511000001,-5.0035577469999994,1.483477445,2.048874717,100.46566729999999,0.045075332,0.27452129399999997,0.49511762600000003,0.0,60138965,0,0,1,0,0
60182847,-0.008958368000000001,0.115287586,0.020561766999999998,0.0,0.0,1509.0,1500.0,1000.0,1503.0,1496.0,1555.0,17.59906472,18.03047546,17.81671525,17.915941500000002,18.35502685,18.31271033,18.76151997,193.2534082,193.2534082,11.75367509,-0.0015815920000000002,-0.005900154,0.00010351200000000001,-0.191879633,0.19622925800000002,-0.008481966,2.0,0.590118024,1.5901180240000001,11,0,0,1.0,0.0,0.0,0,0,0,0,0,0.830839894,-0.012922191000000001,2.89416352,3.0784466160000004,13.18770205,183.2862986,51.86778896,-0.021905917999999996,0.018007056,-0.11664329,0.0,-1.327909427,-0.23770684399999997,-11.18355821,-1.05e+21,954.6194449,11.75249221,0.015735064,0.23989407699999998,0.38070640200000005,-1.3935207459999999,-0.31559465600000003,-11.29848988,0.001191206,0.215860062,0.356523484,-1.05e+21,96.01426757,99.70608088,-3.529186952,-1.961526984,15.36725094,16.98007233,-0.032256428,-0.8016023309999999,-0.124631647,75.16822122,499.9745096,11.75257771,95462.07957999999,1.134247459,-0.081779596,0.215501868,-0.170694435,-0.000350844,0.226312176,0.34905376899999996,0.8233158540000001,-0.032746882000000005,2.926531212,0.09183099,0.05785560000000001,0.396152909,0.911745362,0.0,398749988.8,327393306.1,500365.7331,18.30580516,-7.281986196,16.78211642,-0.47543708700000004,1.98066431,0,0,0.0,39.8714138,32.7364372,397.1002917,250.13260130000003,-100.3968411,-8.505671351,15.83448023,-0.19704510600000003,-5.942135769,-5.033437306000001,1.571937895,2.0705619840000002,100.4800011,0.037024352999999996,0.264206784,0.508047335,0.0,60182847,0,0,1,0,0
60230729,-0.009266241,0.113881391,0.023597633,0.0,0.0,1510.0,1500.0,1000.0,1504.0,1495.0,1558.0,17.53953038,17.96948274,17.7566825,17.85490047,18.29247452,18.24277756,18.68985772,191.943036,191.943036,11.753732699999999,-0.001581683,-0.0059001190000000005,0.00010328899999999999,-0.191891487,0.19622461300000002,-0.00838316,2.0,0.592718544,1.592718544,11,0,0,1.0,0.0,0.0,0,0,0,0,0,0.8260192909999999,-0.022539361,2.908233136,3.082442623,12.42773288,182.83452690000001,51.64153149,-0.021883639,0.018071636000000002,-0.116148925,0.0,-1.38009913,-0.265664496,-10.98141342,-1.05e+21,954.6159594000001,11.75246268,0.007246056,0.229078793,0.367351996,-1.381662094,-0.232623461,-11.25957766,-0.002633888,0.20327914600000002,0.339815086,-1.05e+21,95.80081495,99.59941223,-3.538602575,-2.1014662090000003,15.3671818,16.95529056,-0.031762174,-0.7539137890000001,-0.125222587,75.10608617,499.980776,11.7525161,95462.00086,1.134246472,-0.333386852,-0.620592453,0.048477355,-0.006044796,0.214283208,0.337032875,0.817992156,-0.041693283,2.939284474,0.084385019,0.059178758,0.393638098,0.9134689640000001,0.0,398749956.3,327393403.4,500393.2771,18.22269854,-7.5930425029999995,16.56366473,-0.430322064,2.001012539,0,0,0.0,39.8714138,32.7364372,396.6617097,250.92191150000002,-100.4056855,-8.795837048,15.58188964,-0.116546692,-5.756244672,-4.990610568,1.6452358169999999,2.091168146,100.4888455,0.033842317000000004,0.269464713,0.512220455,0.0,60230729,0,0,1,0,0
60294612,-0.009374307,0.112645871,0.027804652000000003,0.0,0.0,1511.0,1500.0,1000.0,1504.0,1495.0,1557.0,17.48913816,17.91778821,17.69664975,17.79385945,18.22992219,18.17284479,18.61819546,190.63266389999998,190.63266389999998,11.75379031,-0.001581775,-0.005900084,0.000103066,-0.191903341,0.196219968,-0.008284355,2.0,0.595319064,1.5953190640000001,11,0,0,1.0,0.0,0.0,0,0,0,0,0,0.821198688,-0.032156531,2.922302752,3.086438629,11.66776371,182.3827551,51.41527403,-0.021859555,0.018122969,-0.115531663,0.0,-1.402836295,-0.308418039,-10.79159374,-1.05e+21,954.6136354,11.75244499,-0.004043315,0.213528666,0.350631221,-1.321821299,-0.309994177,-11.10860678,-0.0075354540000000005,0.19166729,0.32506893800000003,-1.05e+21,95.58736232,99.49274358,-3.548018199,-2.2414054340000003,15.36711266,16.93050879,-0.031267919,-0.706225247,-0.125813526,75.04395111,500.0019069,11.75245449,95461.73904,1.134243393,-0.21506801600000003,0.22020995100000001,-0.39055846299999997,-0.009793471,0.20379727399999997,0.319568165,0.812594968,-0.053628213,2.951664333,0.07652257700000001,0.061978438,0.39095357700000005,0.915127279,0.0,398749923.8,327393500.8,500420.821,18.13959192,-7.904098809,16.34521304,-0.38520704100000003,2.021360768,0,0,0.0,39.8714138,32.7364372,396.2251419,251.68906459999997,-100.41230859999999,-9.075140174,15.33459033,-0.034540334,-5.5533323779999995,-4.963519978,1.736906342,2.1108658119999997,100.4954686,0.024440155,0.260007951,0.522768964,0.0,60294612,0,0,1,0,0
60344988,-0.010555357,0.11111913400000001,0.031023029,0.0,0.0,1513.0,1500.0,1000.0,1504.0,1495.0,1556.0,17.313755899999997,17.73820996,17.636617,17.73281842,18.16736986,18.10291202,18.5465332,189.3222917,189.3222917,11.75384791,-0.001581867,-0.00590005,0.00010284299999999999,-0.191915195,0.196215322,-0.008185549,2.0,0.597919584,1.597919584,11,0,0,1.0,0.0,0.0,0,0,0,0,0,0.816378085,-0.041773701,2.9363723669999997,3.090434635,10.90779454,181.9309834,51.18901657,-0.021834659,0.018191456,-0.11483946199999999,0.0,-1.3441781869999998,-0.392061628,-10.63583583,-1.05e+21,954.6145213,11.75245999,-0.006809455,0.202314671,0.33604829799999997,-1.366691664,-0.28937260800000003,-10.95069283,-0.015411967,0.18273354,0.31574568399999997,-1.05e+21,95.37441202,99.38559667,-3.5585126330000003,-2.380673357,15.36704333,16.90665472,-0.030792222999999997,-0.65852116,-0.12640306099999998,74.98133994,500.00630559999996,11.752441000000001,95461.68917,1.134242815,-0.123127565,-0.673337602,-0.329489367,-0.017466137,0.18915856600000003,0.312660675,0.80743195,-0.066179253,2.9641396789999996,0.068496562,0.065094704,0.388382964,0.9166401820000001,0.0,398749887.7,327393590.1,500432.4017,18.06278656,-8.1920502,16.10575694,-0.308585717,2.04163565,0,0,0.0,39.8714138,32.7364372,395.7941409,252.39498430000003,-100.4127927,-9.324423411,15.10191404,0.051633390999999994,-5.303380168,-4.979917935,1.879351541,2.12805275,100.4959527,0.022524395,0.257791251,0.5368877670000001,0.0,60344988,0,0,1,0,0
60392753,-0.010342914,0.112655868,0.035023005,0.0,0.0,1516.0,1500.0,1000.0,1505.0,1494.0,1554.0,17.27770734,17.70131803,17.57658425,17.67177739,18.10481753,18.03297925,18.47487095,188.0119196,188.0119196,11.75390552,-0.0015819579999999998,-0.005900015,0.00010262,-0.191927049,0.196210677,-0.008086743,2.0,0.600520104,1.600520104,11,0,0,1.0,0.0,0.0,0,0,0,0,0,0.8115574809999999,-0.051390872000000004,2.950441983,3.094430641,10.14782537,181.47921169999998,50.96275911,-0.021805712,0.018289315,-0.114038915,0.0,-1.297010939,-0.46300598,-10.4568342,-1.05e+21,954.6144429,11.75248972,-0.007882235,0.186719036,0.321809438,-1.321895058,-0.243132458,-10.67809114,-0.023271641000000003,0.173070272,0.308466494,-1.05e+21,95.17493099,99.26562583,-3.597934267,-2.501940986,15.36696917,16.90767607,-0.030814131,-0.610400245,-0.126954922,74.90596251,500.06472310000004,11.752441000000001,95461.04663,1.134235187,-0.255263872,-0.10788704199999999,-0.432677015,-0.029784444,0.180675908,0.302986431,0.802566399,-0.069332006,2.9767402489999997,0.06225501,0.063937319,0.386412994,0.9179985140000001,0.0,398749851.1,327393678.5,500441.8996,17.98680336,-8.47698695,15.86356026,-0.227853571,2.0619009619999997,0,0,0.0,39.8714138,32.7364372,395.3585099,253.0964096,-100.41149920000001,-9.569872794,14.87030837,0.139788512,-5.071290172,-4.975816715,2.010863432,2.144987241,100.4946592,0.017051648,0.260600578,0.533251522,0.0,60392753,0,0,1,0,0
60450259,-0.011990138000000001,0.109669011,0.039257014,0.0,0.0,1516.0,1500.0,1000.0,1505.0,1494.0,1554.0,17.22823625,17.65056321,17.516551500000002,17.61073637,18.04226521,17.96304647,18.40320869,186.7015474,186.7015474,11.75396313,-0.00158205,-0.00589998,0.000102397,-0.191938903,0.196206032,-0.007987938,2.0,0.603120624,1.603120624,11,0,0,1.0,0.0,0.0,0,0,0,0,0,0.8067368779999999,-0.061008042,2.9645115989999997,3.0984266469999997,9.387856195,181.0274399,50.73650165,-0.021778327000000004,0.018396857,-0.1131089,0.0,-1.2958071359999999,-0.48315337799999997,-10.18485772,-1.05e+21,954.6105072,11.75257831,-0.020918671,0.177118162,0.31568873399999997,-1.360541622,-0.349449716,-10.47188241,-0.03106396,0.160488929,0.309363564,-1.05e+21,94.97544997,99.145655,-3.6373559010000003,-2.623208615,15.366895000000001,16.90869742,-0.030836039,-0.56227933,-0.127506783,74.83058509,499.99516289999997,11.75246033,95461.84,1.134244665,-0.123279161,-0.629457655,0.27326978399999996,-0.028603247000000002,0.166630476,0.31028853300000003,0.8010143409999999,-0.078347764,2.995937229,0.05172472,0.064316647,0.38592949600000004,0.918828671,0.0,398749814.5,327393766.8,500451.3975,17.91082016,-8.761923699999999,15.62136359,-0.147121424,2.082166275,0,0,0.0,39.8714138,32.7364372,394.9043593,253.77985750000002,-100.4030953,-9.799986765,14.64298522,0.23586922100000002,-4.910649033,-4.889718788,2.098642095,2.160911944,100.4862553,0.017391805,0.249506982,0.547591829,0.0,60450259,0,0,1,0,0
60494141,-0.012197811999999999,0.109062534,0.046463129000000006,0.0,0.0,1519.0,1500.0,1000.0,1505.0,1494.0,1555.0,17.13324756,17.55328706,17.45651875,17.54969534,17.97971288,17.893113699999997,18.33154644,185.39117530000001,185.39117530000001,11.75402074,-0.001582141,-0.005899946,0.000102174,-0.191950757,0.196201386,-0.007889132,2.0,0.605721144,1.605721144,11,0,0,1.0,0.0,0.0,0,0,0,0,0,0.8021160490000001,-0.070160496,2.97845972,3.10237807,8.640440816,180.5634274,50.521548200000005,-0.021744425,0.018523203000000002,-0.11196379,0.0,-1.296313551,-0.502572284,-9.915609145,-1.05e+21,954.6095016,11.75268081,-0.027445489,0.168796786,0.3040434,-1.292246272,-0.36118519299999996,-10.40381384,-0.037852204,0.147866413,0.311414731,-1.05e+21,94.77596894,99.02568416,-3.6767775339999997,-2.744476244,15.36682083,16.90971877,-0.030857948,-0.514158414,-0.128058644,74.75520766,500.01002310000007,11.75254123,95461.65866,1.134242373,-0.505231854,-0.278145225,-0.053170159,-0.035639553,0.155176279,0.311255634,0.7967294890000001,-0.090756789,3.008714237,0.043570918,0.067445781,0.383881834,0.919883855,0.0,398749778.0,327393855.1,500460.8954,17.83483697,-9.04686045,15.37916691,-0.066389278,2.102431587,0,0,0.0,39.8714138,32.7364372,394.44182010000003,254.46773990000003,-100.39317009999999,-10.02993495,14.41393922,0.334400395,-4.7491276110000005,-4.808391848,2.1907095930000002,2.176918597,100.4763301,0.016117769,0.238023417,0.556539905,0.0,60494141,0,0,1,0,0
60542024,-0.012672153,0.11022219999999999,0.047006495999999995,0.0,0.0,1521.0,1500.0,1000.0,1505.0,1494.0,1552.969594,17.1222816,17.54198044,17.396486,17.48865431,17.91716055,17.82318093,18.25988418,184.0808031,184.0808031,11.75407834,-0.001582233,-0.005899911,0.000101951,-0.191962611,0.196196741,-0.007790326,2.0,0.608321664,1.608321664,11,0,0,1.0,0.0,0.0,0,0,0,0,0,0.798782997,-0.076317322,2.991624665,3.106042102,7.973949105,180.0205089,50.379462200000006,-0.021709813999999997,0.018686428999999997,-0.110863572,0.0,-1.3078443020000001,-0.517295222,-9.663945121,-1.05e+21,954.6273841,11.752873,-0.03505644,0.162973429,0.306798862,-1.24447772,-0.465100705,-10.1603028,-0.038168026,0.13497848199999998,0.320905381,-1.05e+21,94.57648791,98.90571333,-3.716199168,-2.8657438739999996,15.36674667,16.91074012,-0.030879856,-0.46603749899999997,-0.128610505,74.67983023,500.0400286,11.75263443,95461.3272,1.1342385190000002,-0.05347477900000001,-0.35631120299999997,0.08403569,-0.040600549,0.145569166,0.316760965,0.7927625,-0.098202927,3.0215832860000003,0.036336795,0.06831980900000001,0.38220830899999997,0.9208301390000001,0.0,398749736.9,327393941.5,500458.7255,17.76524689,-9.304626085,15.13377375,0.022334467,2.122055317,0,0,0.0,39.8714138,32.7364372,393.9252065,255.184208,-100.37343829999999,-10.25881448,14.1737875,0.448727639,-4.581931752,-4.757819415,2.31042359,2.193453505,100.4565983,0.01654277,0.23401874,0.55899163,0.0,60542024,0,0,1,0,0
60585906,-0.010015352,0.111541935,0.049002490999999995,0.0,0.0,1521.0,1500.0,1000.0,1505.0,1494.0,1556.460092,17.05410085,17.47217152,17.33645325,17.42761329,17.85460822,17.75324816,18.18822192,182.770431,182.770431,11.75413595,-0.001582324,-0.0058998769999999996,0.000101728,-0.191974465,0.196192095,-0.007691521,2.0,0.610922184,1.610922184,11,0,0,1.0,0.0,0.0,0,0,0,0,0,0.795449945,-0.082474148,3.00478961,3.1097061339999996,7.307457394,179.4775905,50.23737621,-0.021666227000000003,0.018860777,-0.109665607,0.0,-1.318015084,-0.533876569,-9.421486209,-1.05e+21,954.6438637,11.75306923,-0.04053261,0.149653415,0.31095158300000003,-1.259799818,-0.469335735,-9.909612747999999,-0.03855139,0.12283471300000001,0.330062802,-1.05e+21,94.36740885,98.76668409,-3.772226767,-2.982166973,15.36662805,16.92254552,-0.031118339,-0.414684589,-0.129187343,74.5946909,500.0284158,11.75275762,95461.42996000001,1.13423971,-0.292642362,-0.868594687,0.07292636599999999,-0.039213844,0.135520225,0.328512975,0.789107663,-0.09535384300000001,3.0345365510000004,0.031042195,0.06447721,0.38105618700000005,0.921777117,0.0,398749693.7,327394027.0,500450.8898,17.69876136,-9.549197237000001,14.88682837,0.114938988,2.141367492,0,0,0.0,39.8714138,32.7364372,393.4099367,255.8953691,-100.353063,-10.48536728,13.93543568,0.563144368,-4.416704775,-4.7069803960000005,2.431408132,2.209878558,100.436223,0.017501719,0.24622136100000003,0.544037805,0.0,60585906,0,0,1,0,0
60629788,-0.008641414,0.10980571900000001,0.050822242000000004,0.0,0.0,1523.0,1500.0,1000.0,1505.0,1494.0,1555.0,17.02499091,17.44231485,17.2764205,17.36657226,17.79205589,17.68331539,18.11655967,181.4600588,181.4600588,11.75419356,-0.0015824160000000001,-0.005899842,0.000101504,-0.191986319,0.19618745,-0.007592715,2.0,0.613522705,1.613522705,11,0,0,1.0,0.0,0.0,0,0,0,0,0,0.792116893,-0.088630973,3.017954555,3.113370166,6.640965682,178.934672,50.09529021,-0.021615599,0.019046717,-0.10836502099999999,0.0,-1.309719795,-0.575691961,-9.304017211,-1.05e+21,954.6412931,11.75332048,-0.044280047999999995,0.132934965,0.317896481,-1.2545806309999998,-0.498722286,-9.754743969,-0.039851866,0.120795397,0.334695526,-1.05e+21,94.15671762,98.62445364,-3.83104365,-3.097776343,15.36650197,16.93616232,-0.0313932,-0.36278880399999996,-0.129768375,74.50791188,499.8698218,11.75293288,95463.24371,1.134261265,0.08417498699999999,-0.373590178,-0.01788839,-0.042548277,0.129755226,0.333594729,0.785771955,-0.104070849,3.0476397530000003,0.023431617000000002,0.06595062900000001,0.37966040100000004,0.922473343,0.0,398749650.5,327394112.5,500443.054,17.63227582,-9.793768388,14.63988298,0.207543509,2.160679666,0,0,0.0,39.8714138,32.7364372,392.9129145,256.53446890000004,-100.3239494,-10.68032711,13.72152346,0.67877617,-4.278211888,-4.652521585,2.569644545,2.224811977,100.40710940000001,0.018419316,0.241738598,0.548321132,0.0,60629788,0,0,1,0,0
60683341,-0.00914673,0.10376470900000001,0.05584428,0.0,0.0,1525.0,1500.0,1000.0,1505.0,1494.0,1554.0,17.00363505,17.42027253,17.21638775,17.30553124,17.72950356,17.61338262,18.04489741,180.1496867,180.1496867,11.75425117,-0.0015825079999999998,-0.005899807,0.00010128100000000001,-0.191998173,0.196182805,-0.007493909,2.0,0.616123225,1.616123225,11,0,0,1.0,0.0,0.0,0,0,0,0,0,0.788783841,-0.094787799,3.0311195,3.1170341980000003,5.974473971,178.3917536,49.95320421,-0.02156871,0.019239822,-0.10713520800000001,0.0,-1.301137192,-0.6172671999999999,-9.186539983,-1.05e+21,954.6387546,11.753571899999999,-0.040543671,0.126350273,0.328258807,-1.183627185,-0.53305401,-9.555814409,-0.041134057,0.118741104,0.339327695,-1.05e+21,93.94602640000001,98.48222318,-3.8898605330000002,-3.213385713,15.36637588,16.94977911,-0.03166806,-0.31089302,-0.130349408,74.42113286,499.87494360000005,11.75314003,95463.22378,1.134260958,0.501855441,-0.935872215,0.21594761399999998,-0.037733638,0.11961789,0.33910693700000005,0.782674277,-0.113410624,3.0607506310000003,0.015694889,0.067736014,0.37838162799999997,0.923032925,0.0,398749607.3,327394198.0,500435.2182,17.56579029,-10.03833954,14.39293759,0.30014803,2.17999184,0,0,0.0,39.8714138,32.7364372,392.41571239999996,257.1736568,-100.2947921,-10.87529147,13.507577599999998,0.794461816,-4.139682164,-4.5979532,2.7074609780000003,2.239749176,100.3779521,0.020618952,0.233563637,0.552997145,0.0,60683341,0,0,1,0,0
60737553,-0.008826991999999999,0.110134234,0.052316122,0.0,0.0,1527.863173,1500.0,1000.0,1504.931586,1494.068414,1550.2052410000001,16.90099842,17.31528243,17.156354999999998,17.24449021,17.66695124,17.54344984,17.97323516,178.8393145,178.8393145,11.75430877,-0.0015825989999999999,-0.0058997730000000005,0.000101058,-0.192010027,0.196178159,-0.0073951040000000004,2.0,0.618723745,1.618723745,11,0,0,1.0,0.0,0.0,0,0,0,0,0,0.7854507890000001,-0.100944625,3.0442844460000003,3.12069823,5.30798226,177.8488351,49.81111821,-0.021518343,0.019489452,-0.105918661,0.0,-1.193513659,-0.576058168,-9.066225707000001,-1.05e+21,954.6472602,11.75388172,-0.04327742,0.11673774599999999,0.332421411,-1.235251771,-0.5119775,-9.33155731,-0.036113155,0.111524123,0.343768461,-1.05e+21,93.73533517,98.33999273,-3.948677416,-3.328995083,15.366249800000002,16.9633959,-0.031942921,-0.258997235,-0.13093044,74.33435383,499.8033922,11.75338642,95464.01464,1.134270433,0.242050236,-0.252848775,0.21682568100000002,-0.037078747,0.11762404,0.34721285700000004,0.779782399,-0.11384452099999999,3.073933882,0.009622321999999999,0.065426761,0.377474806,0.923654792,0.0,398749563.0,327394279.6,500417.955,17.50697851,-10.26646729,14.15914694,0.401522304,2.198270839,0,0,0.0,39.8714138,32.7364372,391.8564789,257.8432353,-100.25056009999999,-11.0718188,13.28203302,0.92870806,-3.9884542869999997,-4.505613039,2.700504652,2.25598956,100.3337201,0.023411084,0.24203942899999997,0.5408530029999999,0.0,60737553,0,0,1,0,0
60781435,-0.00825859,0.10859885300000001,0.054072864000000005,0.0,0.0,1527.0,1500.0,1000.0,1505.0,1494.0,1552.0,16.89690925,17.31095549,17.09632225,17.18344918,17.60439891,17.47351707,17.901572899999998,177.5289424,177.5289424,11.75436638,-0.001582691,-0.005899738000000001,0.000100835,-0.192021881,0.196173514,-0.0072962980000000005,2.0,0.621324265,1.621324265,11,0,0,1.0,0.0,0.0,0,0,0,0,0,0.782117737,-0.10710145,3.0574493910000005,3.124362262,4.641490548999999,177.30591669999998,49.66903221,-0.021467882999999997,0.019730095,-0.10485733300000001,0.0,-1.085890125,-0.5348491360000001,-8.94591143,-1.05e+21,954.6557657999999,11.75419154,-0.04295583,0.10332371,0.339320183,-1.219203934,-0.520280004,-9.207683223,-0.031092252,0.10430714199999999,0.34820922600000004,-1.05e+21,93.50216316,98.16789935,-3.98434837,-3.4483308210000003,15.36615317,17.00109027,-0.032698742999999995,-0.202254376,-0.129926387,74.24004346,499.76685580000003,11.75368663,95464.42655,1.134275266,-0.5277276320000001,-0.530112195,-0.19033007100000002,-0.028486915,0.11756584099999999,0.349822024,0.7771288559999999,-0.121640576,3.087176193,0.002110704,0.06651891900000001,0.37648975100000004,0.924026283,0.0,398749517.4,327394356.8,500389.6987,17.45711477,-10.47542108,13.94069549,0.513122625,2.215345094,0,0,0.0,39.8714138,32.7364372,391.2972454,258.5128138,-100.2063282,-11.26834613,13.05648844,1.062954304,-3.83722641,-4.413272878,2.693548326,2.272229943,100.2894882,0.026674472999999997,0.242504175,0.541858234,0.0,60781435,0,0,1,0,0
60825317,-0.008259472,0.10733881099999999,0.055618699,0.0,0.0,1527.0,1500.0,1000.0,1504.0,1495.0,1553.0,16.85744517,17.27043529,17.0362895,17.12240816,17.54184658,17.4035843,17.82991064,176.2185702,176.2185702,11.75442399,-0.001582782,-0.005899704,0.000100612,-0.192033736,0.196168868,-0.007197493,2.0,0.623924785,1.623924785,11,0,0,1.0,0.0,0.0,0,0,0,0,0,0.778784685,-0.11325827599999999,3.070614336,3.1280262939999997,3.9749988380000003,176.7629982,49.52694621,-0.021411175,0.020026355,-0.10373924300000001,0.0,-1.153880205,-0.535212467,-8.904108335,-1.05e+21,954.6674926000001,11.75458484,-0.037150561,0.100573736,0.34533726600000003,-1.222794905,-0.597918231,-9.092233808,-0.027960868,0.09976016800000001,0.35069292799999996,-1.05e+21,93.25823706,97.98152049,-4.008947044,-3.569449135,15.36607063,17.050302600000002,-0.033684642,-0.14319283,-0.12816407900000001,74.14213032,499.8743365,11.75399461,95463.19425,1.134260641,0.02493944,-0.32687104,-0.501401268,-0.025976374,0.11939730300000001,0.35138994,0.774705489,-0.132089811,3.1005455580000003,-0.005963958,0.068829872,0.375582152,0.924209251,0.0,398749471.8,327394434.0,500361.4425,17.40725103,-10.68437487,13.72224403,0.624722945,2.232419349,0,0,0.0,39.8714138,32.7364372,390.71949680000006,259.1603929,-100.14829499999999,-11.45480789,12.83453799,1.19975147,-3.729042896,-4.40607654,2.717136412,2.2887241659999997,100.23145500000001,0.031138724,0.245600298,0.535596312,0.0,60825317,0,0,1,0,0
60870400,-0.007164396,0.113058176,0.051477762,0.0,0.0,1528.0,1500.0,1000.0,1503.0,1496.0,1553.0,16.85087627,17.26372691,16.97625675,17.06136713,17.47929425,17.33365153,17.75824839,174.9081981,174.9081981,11.754481599999998,-0.001582874,-0.005899669000000001,0.00010038899999999999,-0.19204559,0.196164223,-0.007098686999999999,2.0,0.626525305,1.626525305,11,0,0,1.0,0.0,0.0,0,0,0,0,0,0.775451633,-0.119415102,3.0837792810000004,3.131690326,3.308507127,176.2200798,49.38486021,-0.021356815,0.020322229,-0.10278054,0.0,-1.233639803,-0.538361952,-8.867567013,-1.05e+21,954.6794352,11.75498374,-0.034452168,0.103738896,0.341736173,-1.25202929,-0.6272717320000001,-8.9909534,-0.024956119,0.095392136,0.353045469,-1.05e+21,93.01431096,97.79514163,-4.033545719,-3.69056745,15.36598809,17.09951492,-0.034670541,-0.084131284,-0.126401771,74.04421718,499.6131084,11.75438219,95466.18197,1.13429616,0.156842788,0.35442036899999996,0.392811994,-0.02578592,0.112594566,0.34562428,0.771680795,-0.127158254,3.1126355269999997,-0.010520896,0.06429711,0.374685445,0.924858498,0.0,398749426.2,327394511.1,500333.1862,17.357387300000003,-10.89332867,13.50379258,0.736323265,2.249493605,0,0,0.0,39.8714138,32.7364372,390.1405073,259.80649750000003,-100.0893369,-11.64059505,12.61282843,1.336719598,-3.623744189,-4.40458649,2.742771565,2.305235402,100.1724969,0.034053163,0.254726192,0.525332647,0.0,60870400,0,0,1,0,0
60917083,-0.005880506999999999,0.11538895,0.052232244000000004,0.0,0.0,1525.0,1500.0,1000.0,1503.0,1496.0,1556.0,16.81373837,17.22561579,16.916224,17.000326100000002,17.41674192,17.26371876,17.68658613,173.5978259,173.5978259,11.7545392,-0.001582966,-0.005899634,0.000100166,-0.192057444,0.196159578,-0.0069998809999999995,2.0,0.629125825,1.629125825,11,0,0,1.0,0.0,0.0,0,0,0,0,0,0.77211858,-0.125571927,3.096944227,3.1353543580000003,2.642015416,175.67716130000002,49.24277421,-0.021303742999999997,0.020607034,-0.101812245,0.0,-1.256561155,-0.575882885,-8.88920207,-1.05e+21,954.6875641,11.75546005,-0.030377646,0.09931271300000001,0.346553179,-1.283005468,-0.559303369,-8.994114668,-0.022590312,0.09778867599999999,0.345033792,-1.05e+21,92.77038486,97.60876277,-4.058144393,-3.811685765,15.36590555,17.14872725,-0.03565644,-0.025069737999999998,-0.124639463,73.94630404,499.65255999999994,11.75478339,95465.73689,1.134290836,0.037770626,-0.022567248999999998,-0.065395973,-0.022279367,0.113811039,0.334435678,0.766836272,-0.133889515,3.120700238,-0.015357336999999999,0.065933584,0.372587273,0.92552249,0.0,398749379.2,327394587.7,500297.5629,17.30989998,-11.09574715,13.28593513,0.856241248,2.2663812119999998,0,0,0.0,39.8714138,32.7364372,389.544305,260.4328116,-100.01774329999999,-11.82147232,12.39282201,1.474493144,-3.573461568,-4.356617143,2.735385153,2.321562316,100.1009033,0.033545107000000005,0.252060341,0.524394409,0.0,60917083,0,0,1,0,0
60960965,-0.006001556999999999,0.112263968,0.053894767,0.0,0.0,1526.0,1500.0,1000.0,1502.0,1497.0,1556.384077,16.83089075,17.24303485,16.85619125,16.93928508,17.35418959,17.19378598,17.61492388,172.2874538,172.2874538,11.75459681,-0.0015830570000000001,-0.0058996000000000005,9.990000000000002e-05,-0.192069298,0.196154932,-0.006901076,2.0,0.631726345,1.631726345,11,0,0,1.0,0.0,0.0,0,0,0,0,0,0.768785528,-0.131728753,3.110109172,3.13901839,1.975523705,175.1342428,49.10068821,-0.021245858,0.02091026,-0.100784384,0.0,-1.271100955,-0.618472344,-8.919416004,-1.05e+21,954.6951305,11.75594778,-0.034522587,0.10031162,0.34773767,-1.2450740279999999,-0.60593948,-8.972078117,-0.020318726999999998,0.10118274199999999,0.33549377399999997,-1.05e+21,92.536694,97.42189721,-4.0831134769999995,-3.920545958,15.36579306,17.19904356,-0.036665017,0.028646704,-0.12195272,73.85841297,499.4971812,11.7552406,95467.52776,1.134312087,0.668031308,0.334311713,-0.104177534,-0.019649626,0.112173269,0.32866079800000003,0.764792965,-0.144173603,3.1342170019999998,-0.0234625,0.06819464900000001,0.371927811,0.9254540920000001,0.0,398749328.2,327394662.5,500239.8632,17.26953391,-11.27858172,13.06985767,1.001084217,2.282709502,0,0,0.0,39.8714138,32.7364372,388.9455643,261.05620730000004,-99.94428641,-12.00162556,12.17306674,1.612385461,-3.5312917969999997,-4.301793807,2.7231292739999997,2.337862049,100.0274464,0.036806843,0.250307358,0.523004069,0.0,60960965,0,0,1,0,0
61008847,-0.004162681,0.11050224199999999,0.056568495999999996,0.0,0.0,1526.874575,1500.0,1000.0,1502.874575,1496.125425,1555.125425,16.77376536,17.18465155,16.85157349,16.93473686,17.34943489,17.17884832,17.59952495,172.17555769999998,172.17555769999998,11.75529489,-0.0015839620000000002,-0.005899774,0.0001,-0.192091347,0.196163493,-0.006825958000000001,2.0,0.634326865,1.634326865,11,0,0,1.0,0.0,0.0,0,0,0,0,0,0.766074867,-0.136047188,2.631972939,2.652251782,1.384642751,174.5357905,49.02519072,-0.021189207,0.021243768,-0.09981647,0.0,-1.307213629,-0.6522666739999999,-8.881812146,-1.05e+21,954.6938851,11.75661377,-0.027081421,0.103167575,0.343586586,-1.25481774,-0.653165359,-8.971919124,-0.015976956,0.100121863,0.328967872,-1.05e+21,92.31337623,97.23453839,-4.108457958,-4.016982939,15.36565023,17.25047874,-0.037696576,0.076946054,-0.118329091,73.78067895,499.45035020000006,11.75573354,95468.0293,1.134318114,-0.148919572,-0.107049459,0.08795940699999999,-0.014880333999999999,0.10337707,0.321775931,0.762871677,-0.150833526,-3.135445895,0.030892449,-0.068788961,-0.371404368,-0.925400303,0.0,398749277.1,327394737.3,500182.1634,17.22916783,-11.46141628,12.85378022,1.145927185,2.299037792,0,0,0.0,39.8714138,32.7364372,388.332149,261.6610235,-99.8589985,-12.17652523,11.95374953,1.749348299,-3.4432033680000003,-4.305793222,2.73098336,2.353711321,99.94215849999999,0.040352572,0.244120184,0.525055256,0.0,61008847,0,0,1,0,0
61056730,-0.005752579,0.115771536,0.05308036,0.0,0.0,1527.365073,1500.0,1000.0,1502.0,1497.0,1554.634927,16.73456731,17.14430384,16.86031217,16.94380487,17.3586109,17.17716589,17.59768693,172.35252509999998,172.35252509999998,11.75614733,-0.0015850620000000001,-0.005899999,0.00010010700000000001,-0.19211585399999997,0.196175237,-0.00675655,2.0,0.636927385,1.636927385,11,0,0,1.0,0.0,0.0,0,0,0,0,0,0.763514217,-0.13992252300000002,2.035420526,2.0472788140000002,0.811985927,173.9239532,48.96574276,-0.021128752999999997,0.02158879,-0.098736271,0.0,-1.348525919,-0.683941153,-8.82786246,-1.05e+21,954.6905157,11.75732273,-0.025025782000000003,0.103084881,0.33389534600000004,-1.199811945,-0.6015227679999999,-8.943968387,-0.011136218,0.09798722900000001,0.32316845,-1.05e+21,92.09005846,97.04717957,-4.13380244,-4.113419919,15.365507399999998,17.30191392,-0.038728136,0.125245403,-0.114705462,73.70294493,499.3881687,11.75628361,95468.78162000001,1.134327035,-0.189173488,0.49209336,-0.042071647999999996,-0.009734342,0.11146582,0.320649623,0.761024995,-0.148510825,-3.121898641,0.03666894,-0.06523074200000001,-0.371032815,-0.92559859,0.0,398749226.1,327394812.1,500124.4637,17.18880176,-11.64425085,12.63770277,1.290770154,2.3153660830000002,0,0,0.0,39.8714138,32.7364372,387.7151966,262.2613617,-99.77085899,-12.35015866,11.73453791,1.88608711,-3.3440473660000003,-4.323970429,2.743684463,2.369452019,99.85401899,0.04362886,0.260965434,0.510361988,0.0,61056730,0,0,1,0,0
61100612,-0.004967939,0.11554800900000001,0.053458465,0.0,0.0,1526.0,1500.0,1000.0,1502.0,1497.0,1557.0,16.71139894,17.12066661,16.86905084,16.95287287,17.3677869,17.17548346,17.59584891,172.5294925,172.5294925,11.75699978,-0.0015861629999999998,-0.005900224,0.000100221,-0.192140361,0.19618698,-0.006687141,2.0,0.639527906,1.6395279059999999,11,0,0,1.0,0.0,0.0,0,0,0,0,0,0.760953568,-0.143797858,1.438868112,1.442305846,0.239329104,173.31211580000002,48.9062948,-0.021076833,0.021876327,-0.097780205,0.0,-1.337410885,-0.726915234,-8.769144178,-1.05e+21,954.7029892,11.75799927,-0.024908707999999998,0.097154652,0.333555718,-1.322619773,-0.633030998,-8.901488927,-0.010923043,0.09508788800000001,0.313982143,-1.05e+21,91.86674068,96.85982075,-4.159146922,-4.209856899,15.36536457,17.353349100000003,-0.039759695,0.173544753,-0.111081833,73.62521091,499.2062221,11.75686588,95470.84967000001,1.134351613,0.111367486,-0.071401463,-0.373209185,-0.00781257,0.105989954,0.314111132,0.755962365,-0.155359146,-3.1149194639999997,0.040993056,-0.067210696,-0.36886201700000004,-0.926142413,0.0,398749174.9,327394886.6,500065.7794,17.14889577,-11.82662533,12.42162533,1.4353370669999999,2.331681525,0,0,0.0,39.8714138,32.7364372,387.12125960000003,262.8129606,-99.6780426,-12.50874038,11.52894204,2.015199678,-3.3146444539999997,-4.32524574,2.753354803,2.383977675,99.76120403,0.047916571,0.261611282,0.505619601,0.0,61100612,0,0,1,0,0
61148494,-0.004308773,0.113404937,0.055028827,0.0,0.0,1526.0,1500.0,1000.0,1502.0,1497.0,1557.0,16.72199923,17.13128362,16.87778951,16.96194088,17.37696291,17.17380103,17.5940109,172.70645990000003,172.70645990000003,11.75785223,-0.0015872629999999998,-0.005900449,0.00010033600000000001,-0.19216486800000002,0.196198724,-0.006617733000000001,2.0,0.642128426,1.642128426,11,0,0,1.0,0.0,0.0,0,0,0,0,0,0.758392918,-0.147673194,0.842315698,0.837332878,-0.33332772,172.7002784,48.84684684,-0.021020254,0.022222995,-0.096830986,0.0,-1.3078833509999999,-0.7738577390000001,-8.708751162999999,-1.05e+21,954.7210266000001,11.75866441,-0.022023206,0.09500552,0.324301138,-1.30085835,-0.670153915,-8.753829797,-0.01233507,0.09191998300000001,0.303606361,-1.05e+21,91.6332417,96.65814401,-4.180274185,-4.304855863,15.36519308,17.41173334,-0.040930808,0.22154344199999998,-0.107953992,73.5496672,499.35924000000006,11.75748186,95469.09187,1.1343307740000002,0.16337217,0.014264748,-0.25672760899999997,-0.009340641,0.106559197,0.314371711,0.754387727,-0.164439544,-3.1013042810000004,0.048905673,-0.068944681,-0.368533144,-0.925761779,0.0,398749121.5,327394954.8,499982.6727,17.12040183,-11.99758752,12.20554823,1.573056611,2.347678291,0,0,0.0,39.8714138,32.7364372,386.5354057,263.3474422,-99.58358369,-12.66203593,11.32812803,2.1416339069999997,-3.309738859,-4.3205850980000005,2.761960737,2.398076608,99.66674706,0.046637207,0.25437796,0.5087182170000001,0.0,61148494,0,0,1,0,0
61192377,-0.002403919,0.12131610300000001,0.052177466,0.0,0.0,1527.0,1500.0,1000.0,1502.0,1497.0,1556.0,16.63899399,17.04617118,16.88652819,16.97100888,17.38613892,17.1721186,17.59217288,172.8834273,172.8834273,11.75870467,-0.0015883639999999999,-0.005900674,0.00010045,-0.192189375,0.196210468,-0.006548325,2.0,0.644728946,1.6447289459999999,11,0,0,1.0,0.0,0.0,0,0,0,0,0,0.7558322690000001,-0.15154852900000002,0.245763285,0.23235991,-0.905984543,172.088441,48.78739887,-0.020963697,0.022582908,-0.095821758,0.0,-1.26205436,-0.82998262,-8.679795777,-1.05e+21,954.7372162999999,11.75937902,-0.016347365,0.09554862800000001,0.322066538,-1.26263797,-0.638265358,-8.8088112,-0.011328096000000001,0.08777087900000001,0.30546939,-1.05e+21,91.37779533,96.42560252,-4.192310505,-4.396754933,15.36495981,17.485097500000002,-0.042402750999999995,0.268894003,-0.105894907,73.47884505,499.20530189999994,11.75815789,95470.86752,1.134351804,0.016192306,0.19741196,-0.42027385700000003,-0.012308742,0.103416151,0.312986573,0.7530084859999999,-0.15878991,-3.087604246,0.054171022,-0.06383699400000001,-0.36837164,-0.925899105,0.0,398749068.1,327395022.9,499899.5661,17.0919079,-12.16854971,11.98947114,1.710776155,2.363675057,0,0,0.0,39.8714138,32.7364372,385.9057107,263.89705219999996,-99.47447890000001,-12.82073611,11.11730459,2.273845364,-3.249231001,-4.3342822519999995,2.7427904819999998,2.412747932,99.55764159,0.04995028,0.247884136,0.511196536,0.0,61192377,0,0,1,0,0
61244258,-0.000912325,0.121875781,0.051817373,0.0,0.0,1526.0,1500.0,1000.0,1501.0,1498.0,1560.0,16.71569864,17.12480218,16.89526686,16.98007689,17.39531492,17.17043617,17.59033486,173.0603947,173.0603947,11.75955712,-0.001589465,-0.005900899,0.000100565,-0.192213882,0.196222211,-0.006478917,2.0,0.647329466,1.647329466,11,0,0,1.0,0.0,0.0,0,0,0,0,0,0.7532716190000001,-0.155423865,-0.350789129,-0.372613058,-1.4786413669999998,171.47660359999998,48.72795091,-0.020911199,0.022897628,-0.094879456,0.0,-1.208354323,-0.890541147,-8.666019834,-1.05e+21,954.7525138,11.76011751,-0.010537398,0.101988988,0.316170133,-1.227620306,-0.61685511,-8.811089098,-0.009153125,0.083148011,0.313241845,-1.05e+21,91.12234897,96.19306103,-4.204346825,-4.488654004,15.36472655,17.55846165,-0.043874695,0.316244564,-0.103835821,73.4080229,499.04727180000003,11.75886514,95472.63965,1.134372843,0.350379241,0.09014293400000001,0.49231421200000003,-0.0018031120000000002,0.10515710199999999,0.313215271,0.748249409,-0.163601422,-3.080622801,0.058124166,-0.064920315,-0.366385791,-0.926371827,0.0,398749014.7,327395091.1,499816.4595,17.06341396,-12.3395119,11.77339404,1.848495699,2.379671824,0,0,0.0,39.8714138,32.7364372,385.25484730000005,264.4539669,-99.35830244,-12.98204589,10.90164817,2.408846315,-3.161875972,-4.3568433419999995,2.710208684,2.427695632,99.4414632,0.054022007000000004,0.263999934,0.493507963,0.0,61244258,0,0,1,0,0
61292142,-0.002595955,0.119572094,0.053723095,0.0,0.0,1526.0,1500.0,1000.0,1500.0,1499.0,1560.0,16.70957185,17.11827402,16.90400554,16.98914489,17.40449093,17.16875374,17.58849684,173.2373621,173.2373621,11.76040956,-0.001590565,-0.005901124000000001,0.00010068,-0.19223838899999998,0.196233955,-0.006409509,2.0,0.649929986,1.6499299859999998,11,0,0,1.0,0.0,0.0,0,0,0,0,0,0.75071097,-0.15929920000000003,-0.947341543,-0.9775860259999999,-2.05129819,170.8647662,48.66850295,-0.02084809,0.023293888,-0.093851645,0.0,-1.20050239,-0.8387058409999999,-8.684613353,-1.05e+21,954.7689015000001,11.76103604,-0.009267678,0.093858654,0.313218999,-1.28970821,-0.7142400999999999,-8.809835059,-0.006964545999999999,0.08389241199999999,0.31519719399999996,-1.05e+21,90.86690259999999,95.96051953,-4.216383145,-4.580553074,15.36449328,17.63182581,-0.045346639,0.363595125,-0.10177673599999999,73.33720075,498.9423806,11.75960436,95473.88369,1.134387663,-0.11132921,0.511214168,-0.25322843899999997,-0.006624494,0.103434866,0.312745624,0.747114954,-0.171695702,-3.066887564,0.065908302,-0.066195947,-0.366314176,-0.925788768,0.0,398748961.2,327395159.2,499733.3529,17.03492003,-12.51047409,11.55731694,1.9862152430000002,2.39566859,0,0,0.0,39.8714138,32.7364372,384.5928872,264.9974745,-99.23378890000001,-13.14086137,10.68664737,2.542677677,-3.12970178,-4.345573609,2.6694909119999997,2.442670234,99.3169489,0.052881911,0.264773055,0.48931959799999997,0.0,61292142,0,0,1,0,0
61336023,-0.000679773,0.117366665,0.055061969,0.0,0.0,1526.0,1500.0,1000.0,1501.0,1498.0,1559.0,16.64959782,17.05681683,16.91274421,16.9982129,17.41366694,17.16707131,17.58665882,173.41432949999998,173.41432949999998,11.76126201,-0.001591666,-0.005901349,0.000100794,-0.19226289600000002,0.196245699,-0.0063401,2.0,0.6525305060000001,1.652530506,11,0,0,1.0,0.0,0.0,0,0,0,0,0,0.74815032,-0.163174536,-1.543893956,-1.582558994,-2.623955014,170.2529289,48.60905499,-0.020796903999999998,0.023653452000000002,-0.09296993199999999,0.0,-1.222126463,-0.714611905,-8.724017382000001,-1.05e+21,954.7859901,11.76207031,-0.008908815,0.096996561,0.309165457,-1.2704601690000001,-0.732939743,-8.875609647000001,-0.00476722,0.088087459,0.313412692,-1.05e+21,90.61513457,95.72939213,-4.227355122,-4.669167545,15.36427645,17.70303983,-0.046775252,0.40896729600000004,-0.1,73.27018121,498.77020819999996,11.76040491,95475.8462,1.134411055,0.28990276,0.050419334,-0.365910626,-0.001541488,0.097041482,0.310469631,0.7447195059999999,-0.17415830100000002,-3.055734035,0.071436783,-0.065379466,-0.36557759100000004,-0.9257270240000001,0.0,398748906.4,327395222.1,499628.0486,17.01624845,-12.66964993,11.353026199999999,2.104290858,2.410876849,0,0,0.0,39.8714138,32.7364372,383.9237927,265.5323628,-99.10391541,-13.29807327,10.47206806,2.675757103,-3.133003659,-4.3125538489999995,2.623542475,2.4576621309999998,99.18707541,0.057689581,0.260836043,0.48882347,0.0,61336023,0,0,1,0,0
61383905,0.000378559,0.124487461,0.050880977,0.0,0.0,1527.0,1500.0,1000.0,1500.0,1499.0,1558.0,16.79063071,17.20116143,16.92148288,17.007280899999998,17.42284294,17.16538888,17.584820800000003,173.5912969,173.5912969,11.76211446,-0.001592766,-0.005901574000000001,0.00010090899999999999,-0.192287403,0.196257443,-0.006270692,2.0,0.6551310260000001,1.6551310259999998,11,0,0,1.0,0.0,0.0,0,0,0,0,0,0.745589671,-0.167049871,-2.14044637,-2.187531962,-3.196611837,169.64109150000002,48.54960703,-0.020739478999999998,0.024009823,-0.092095127,0.0,-1.226685883,-0.7393535720000001,-8.760069515,-7.74e+20,954.8064957999999,11.76304032,-0.013202257,0.09270224,0.312730047,-1.230831189,-0.694984761,-8.753536708,-0.002529706,0.08909735699999999,0.31175156,-7.74e+20,90.38651316,95.50716318,-4.231629524,-4.737113073,15.36416305,17.76072368,-0.047931202,0.441890082,-0.1,73.22709028,498.7417733,11.76123668,95476.14906,1.1344145909999999,0.6148903370000001,-0.31516918899999996,0.513905492,-0.006919486999999999,0.099951364,0.32111585600000003,0.741501227,-0.17335656600000002,-3.0460729460000002,0.075660575,-0.06336333,-0.364395407,-0.925998785,0.0,398748851.3,327395283.8,499518.1104,16.99962736,-12.82636527,11.15119596,2.218265653,2.425920501,0,0,0.0,39.8714138,32.7364372,383.24647369999997,266.054826,-98.96666627,-13.45155476,10.25678221,2.807632953,-3.085019033,-4.289173681,2.5684670869999997,2.472677186,99.04982627,0.057229214,0.274725286,0.46976851299999994,0.0,61383905,0,0,1,0,0
61427789,-0.002168396,0.12462978,0.050485512,0.0,0.0,1525.0,1500.0,1000.0,1499.710942,1499.289058,1561.289058,16.75970193,17.16955256,16.93022156,17.01634891,17.43201895,17.16370645,17.58298278,173.76826430000003,173.76826430000003,11.7629669,-0.0015938670000000001,-0.005901799,0.000101023,-0.19231191,0.196269186,-0.0062012840000000005,2.0,0.6577315460000001,1.657731546,11,0,0,1.0,0.0,0.0,0,0,0,0,0,0.7430290209999999,-0.17092520600000002,-2.736998784,-2.79250493,-3.76926866,169.0292541,48.49015907,-0.020676094,0.024446679,-0.09115659300000001,0.0,-1.216881906,-0.889370868,-8.793300341,-2.66e+20,954.8298777000001,11.76395623,-0.008121366,0.089611435,0.313858407,-1.268163592,-0.7607322409999999,-8.812805561000001,-0.000258368,0.08742629800000001,0.31019426899999997,-2.66e+20,90.15789174,95.28493423,-4.235903926000001,-4.805058601,15.36404964,17.81840753,-0.049087153,0.47481286899999997,-0.1,73.18399935,498.63214869999996,11.76210112,95477.41182000001,1.134429556,0.10349880300000001,0.8232986520000001,-0.333331159,-0.000302445,0.105743721,0.314314795,0.739071162,-0.178538468,-3.035174048,0.081549883,-0.063882486,-0.363656205,-0.9257543490000001,0.0,398748796.3,327395345.5,499408.1722,16.98300627,-12.98308062,10.94936571,2.3322404480000003,2.440964152,0,0,0.0,39.8714138,32.7364372,382.5622319,266.566831,-98.82320902,-13.60189635,10.04090165,2.9384957480000002,-2.9938663130000003,-4.2739072039999995,2.5057095019999998,2.4877117330000003,98.90636902,0.062395103,0.276471091,0.46526534700000005,0.0,61427789,0,0,1,0,0
61483671,0.000786468,0.124056487,0.050804015999999994,0.0,0.0,1524.779556,1500.0,1000.0,1500.779556,1498.220444,1562.220444,16.75583062,17.16530971,16.93896023,17.02541691,17.44119496,17.16202402,17.58114476,173.9452317,173.9452317,11.76381935,-0.001594967,-0.0059020240000000005,0.00010113799999999999,-0.192336416,0.19628093,-0.006131876,2.0,0.660332066,1.660332066,11,0,0,1.0,0.0,0.0,0,0,0,0,0,0.7401719809999999,-0.17387743,-3.044405743,-3.107369518,-4.282098744,168.387651,48.46407432,-0.020612521,0.024875856000000002,-0.09034152,0.0,-1.262639552,-0.951134991,-8.798102317,-2.43e+20,954.8477375,11.76490737,-0.010358336,0.085693553,0.313666446,-1.393684964,-0.822417317,-8.725817986000001,0.002100894,0.086130982,0.311995093,-2.43e+20,89.92927032,95.06270527,-4.240178328,-4.873004129,15.36393624,17.87609138,-0.050243103,0.507735655,-0.1,73.14090842,498.241206,11.76302558,95481.88803,1.13448274,0.139053509,-0.320402574,-0.013836051,0.0038936170000000003,0.10747487800000001,0.317942875,0.736208256,-0.18408153,-3.0252544460000004,0.087029911,-0.064777209,-0.36270382700000003,-0.925565984,0.0,398748741.2,327395407.3,499298.234,16.96638519,-13.13979596,10.74753546,2.446215243,2.456007804,0,0,0.0,39.8714138,32.7364372,381.8706382,267.0681039,-98.67358976,-13.75129735,9.825152332,3.067444395,-2.936511148,-4.27852156,2.469115681,2.502876266,98.75674976,0.061688495999999995,0.273751229,0.462747749,0.0,61483671,0,0,1,0,0
61535554,-0.000175942,0.130382946,0.046269972,0.0,0.0,1525.0,1500.0,1000.0,1499.0,1500.0,1562.0,16.806082800000002,17.21686119,16.9476989,17.03448492,17.45037096,17.16034159,17.57930674,174.1221991,174.1221991,11.7646718,-0.001596068,-0.005902249,0.00010125200000000001,-0.19236092300000002,0.19629267399999997,-0.0060624680000000005,2.0,0.662932587,1.6629325869999998,11,0,0,1.0,0.0,0.0,0,0,0,0,0,0.736990323,-0.175818625,-3.0351295869999997,-3.104496355,-4.729404301000001,167.7134474,48.47453023,-0.020550838999999998,0.025286096,-0.089547505,0.0,-1.3692504030000001,-0.916240875,-8.771767934,-7.51e+20,954.8595495,11.76589711,-0.011452705,0.08804586699999999,0.320102386,-1.285101993,-0.7819979890000001,-8.764381075,0.004556452,0.08524719300000001,0.317473854,-7.51e+20,89.70064891,94.84047632,-4.24445273,-4.940949657,15.36382284,17.93377524,-0.051399053,0.540658442,-0.1,73.09781749,498.17251789999995,11.76398331,95482.68277999999,1.1344922590000002,0.143720381,0.782244108,-0.102742309,0.0011473969999999999,0.105058926,0.321342841,0.73174399,-0.18833063,-3.018266407,0.090865369,-0.065686797,-0.36091271799999997,-0.925833493,0.0,398748683.7,327395466.8,499173.088,16.95561312,-13.28919969,10.5442427,2.5748129630000003,2.4708472180000003,0,0,0.0,39.8714138,32.7364372,381.1709924,267.5576226,-98.51722165,-13.89966819,9.609546743,3.1942965930000002,-2.916172352,-4.304910162,2.461177413,2.518183165,98.60038165,0.06663307,0.273832929,0.46025058,0.0,61535554,0,0,1,0,0
61587436,0.0030639309999999998,0.132319881,0.045835531,0.0,0.0,1523.0,1500.0,1000.0,1500.0,1499.0,1564.760552,16.71585676,17.1239942,16.95643758,17.04355292,17.45954697,17.15865916,17.57746873,174.2991665,174.2991665,11.76552424,-0.001597168,-0.0059024740000000004,0.00010136700000000001,-0.19238543,0.19630441699999998,-0.005993059,2.0,0.665533107,1.665533107,11,0,0,1.0,0.0,0.0,0,0,0,0,0,0.7338086640000001,-0.17775982,-3.02585343,-3.101623192,-5.176709859,167.0392439,48.48498614,-0.020496966999999998,0.025648651,-0.08887284,0.0,-1.432560419,-0.904068625,-8.821946335,-1.05e+21,954.8737125,11.76691115,-0.002398395,0.092835075,0.311581512,-1.229576118,-0.768791123,-8.766051767,0.006074052,0.08588056699999999,0.31853329399999997,-1.05e+21,89.47144892,94.60638165,-4.246065849,-4.99284425,15.36366042,17.99545296,-0.052635854,0.56715809,-0.1,73.07464805,498.00034189999997,11.764971800000001,95484.6553,1.134515562,0.224168985,-0.438439608,0.545314812,0.006634069,0.103986231,0.320308875,0.7311442840000001,-0.188457706,-3.0044433130000003,0.097265313,-0.063278992,-0.36108255200000006,-0.9252845559999999,0.0,398748624.8,327395525.0,499038.4553,16.9484897,-13.43404242,10.34003762,2.7125325069999997,2.485559227,0,0,0.0,39.8714138,32.7364372,380.46518210000005,268.0378568,-98.35558763,-14.04690236,9.393430302999999,3.318940317,-2.902855805,-4.31331651,2.444329976,2.533518337,98.43874763,0.065327888,0.271575868,0.45093141600000003,0.0,61587436,0,0,1,0,0
61635318,0.001838228,0.130968791,0.045553735,0.0,0.0,1522.0,1500.0,1000.0,1499.0,1500.0,1565.0,16.77661108,17.18619842,16.96517625,17.05262093,17.46872298,17.15697673,17.57563071,174.4761339,174.4761339,11.76637669,-0.001598269,-0.005902699,0.000101481,-0.192409937,0.19631616100000002,-0.005923650999999999,2.0,0.668133627,1.6681336269999998,11,0,0,1.0,0.0,0.0,0,0,0,0,0,0.730627005,-0.17970101600000002,-3.0165772730000002,-3.0987500289999996,-5.624015417000001,166.3650403,48.49544205,-0.020429515,0.026102901,-0.08811222099999999,0.0,-1.433962411,-0.924382252,-8.981516507,-1.05e+21,954.8912367999999,11.76795995,-0.004954842,0.094796065,0.321577326,-1.329924077,-0.830358388,-8.845803039,0.006250633,0.088683056,0.313274347,-1.05e+21,89.24222316,94.37175846,-4.24756043,-5.044023911,15.36349581,18.05730858,-0.053876256,0.593371642,-0.1,73.05236594,497.7387998,11.76599244,95487.67377000001,1.134551543,0.12120485,-0.019975736,-0.233113232,0.008597997,0.107900395,0.313241774,0.726785578,-0.19129615,-2.997434469,0.100863816,-0.063552711,-0.359332665,-0.9255617840000001,0.0,398748566.0,327395583.2,498903.8226,16.94136627,-13.57888516,10.13583255,2.85025205,2.500271236,0,0,0.0,39.8714138,32.7364372,379.7505584,268.5048165,-98.18642483,-14.19251142,9.17658349,3.440426543,-2.899579099,-4.296013292,2.414744931,2.548893929,98.26958483,0.07151060000000001,0.27952178,0.436933416,0.0,61635318,0,0,1,0,0
61683201,0.002405144,0.130348593,0.04445958,0.0,0.0,1522.258452,1500.0,1000.0,1499.0,1500.0,1564.0,16.84767819,17.25886892,16.97391493,17.06168893,17.47789898,17.1552943,17.57379269,174.6531013,174.6531013,11.76722913,-0.001599369,-0.005902924,0.00010159600000000001,-0.19243444399999998,0.196327905,-0.005854243,2.0,0.670734147,1.670734147,11,0,0,1.0,0.0,0.0,0,0,0,0,0,0.7274453470000001,-0.18164221100000003,-3.0073011160000003,-3.0958768660000002,-6.071320975,165.69083669999998,48.50589796,-0.020381121999999998,0.026453334,-0.087584614,0.0,-1.412049392,-0.928225345,-9.07536418,-1.05e+21,954.915224,11.76913658,0.003121213,0.09641258,0.317617449,-1.263968492,-0.78601456,-8.888427762000001,0.00676527,0.09288252400000001,0.308272045,-1.05e+21,89.01299741,94.13713527,-4.2490550119999995,-5.095203572,15.36333121,18.1191642,-0.055116658,0.619585194,-0.1,73.03008383,497.7438693,11.76707127,95487.61531000001,1.134550893,0.321983618,0.586100085,-0.36687633700000005,0.011021679,0.10466837400000001,0.312639249,0.72429649,-0.189718453,-2.987165095,0.10526756699999999,-0.061103371,-0.358471815,-0.925569891,0.0,398748507.1,327395641.4,498769.1898,16.93424285,-13.72372789,9.931627467,2.987971594,2.514983245,0,0,0.0,39.8714138,32.7364372,379.0501063,268.95248300000003,-98.01757179,-14.33342514,8.965115142,3.557658252,-2.876738192,-4.289462335,2.370918915,2.5638105369999997,98.10073179,0.070148528,0.280481402,0.42751705100000004,0.0,61683201,0,0,1,0,0
61727083,0.0027642359999999998,0.130170804,0.042620549,0.0,0.0,1522.0,1500.0,1000.0,1498.0,1501.0,1565.0,16.83965092,17.25057665,16.982653600000003,17.07075694,17.48707499,17.15361187,17.57195467,174.8300687,174.8300687,11.76808158,-0.00160047,-0.005903149,0.00010171,-0.19245895100000002,0.196339648,-0.005784835,2.0,0.673334667,1.6733346669999998,11,0,0,1.0,0.0,0.0,0,0,0,0,0,0.724263688,-0.183583406,-2.99802496,-3.093003702,-6.518626533,165.0166331,48.51635387,-0.020326862,0.026851552999999997,-0.08702117699999999,0.0,-1.346041193,-0.9009180720000001,-9.044912312000001,-1.05e+21,954.9514345000001,11.77055498,0.006061151999999999,0.091264994,0.319713289,-1.2364409459999999,-0.849325907,-8.840634567999999,0.007919264,0.099724069,0.303755131,-1.05e+21,88.78377165,93.90251208,-4.250549593,-5.146383233,15.36316661,18.18101981,-0.05635706099999999,0.645798746,-0.1,73.00780172,497.6381904,11.7681809,95488.78406,1.134564694,0.34827245799999995,0.399552026,-0.242380257,0.009842056,0.115511545,0.306816064,0.7220469159999999,-0.188812714,-2.976639353,0.10991360900000001,-0.05891879,-0.357728841,-0.925459149,0.0,398748446.6,327395697.9,498622.0746,16.93096019,-13.86953091,9.719741044,3.12185037,2.530130989,0,0,0.0,39.8714138,32.7364372,378.3764565,269.3636603,-97.84930458,-14.46545868,8.763818971000001,3.666843482,-2.8168959339999997,-4.303246895,2.3001592580000003,2.577859075,97.93246458,0.068392675,0.292463906,0.40949361700000003,0.0,61727083,0,0,1,0,0
61786965,0.001683805,0.131469284,0.038295212,0.0,0.0,1521.0,1500.0,1000.0,1499.0,1500.0,1564.2774550000001,16.89338908,17.30544508,16.99139227,17.07982494,17.496251,17.15192944,17.57011665,175.0070361,175.0070361,11.76893403,-0.001601571,-0.005903374,0.000101825,-0.192483458,0.19635139199999999,-0.0057154269999999995,2.0,0.675935187,1.6759351869999999,11,0,0,1.0,0.0,0.0,0,0,0,0,0,0.72108203,-0.18552460199999998,-2.988748803,-3.0901305389999996,-6.965932091,164.34242959999997,48.52680978,-0.020267926000000002,0.027291694,-0.08649423,0.0,-1.294741294,-0.883877685,-9.040233191,-9.08e+20,954.979765,11.77191534,0.0033727270000000003,0.095792346,0.312941757,-1.401213866,-0.807480517,-8.858116189,0.008401833000000001,0.10544901,0.29942937,-1.05e+21,88.53202981,93.63833223,-4.2508878789999995,-5.186770949,15.36289224,18.24759724,-0.057694100000000005,0.667969326,-0.1,73.00490618,497.4641789,11.76932601,95490.81022,1.134588804,-0.07561718,0.25777263899999997,-0.006361001999999999,0.013638258,0.120793192,0.307736048,0.71772257,-0.19090677399999997,-2.96969104,0.113359939,-0.058895425999999994,-0.35597932200000004,-0.9257195579999999,0.0,398748383.6,327395752.0,498456.5737,16.93333467,-14.01674835,9.496540642000001,3.2500720139999997,2.545920535,0,0,0.0,39.8714138,32.7364372,377.68323169999996,269.7781361,-97.67372842,-14.60010765,8.5568544,3.776975999,-2.7832936060000004,-4.329025925,2.228846309,2.592268449,97.75688842,0.073478589,0.295162987,0.40369909200000004,0.0,61786965,0,0,1,0,0
61834847,0.003103059,0.133471282,0.037007159,0.0,0.0,1520.0,1500.0,1000.0,1498.0,1501.0,1566.0,16.96154864,17.37504551,17.00013095,17.08889294,17.50542701,17.15024701,17.56827863,175.1840035,175.1840035,11.76978647,-0.001602671,-0.005903599,0.000101939,-0.192507965,0.19636313600000002,-0.005646018,2.0,0.678535707,1.678535707,11,0,0,1.0,0.0,0.0,0,0,0,0,0,0.7179003709999999,-0.187465797,-2.979472646,-3.087257376,-7.413237649,163.668226,48.53726569,-0.020214522,0.027693645,-0.086030519,0.0,-1.28123175,-0.893216228,-9.101772547000001,-3.99e+20,954.9878493999998,11.77312655,0.000426238,0.090364623,0.316711693,-1.297043757,-0.901049078,-8.865819977000001,0.007159296999999999,0.108305039,0.295594743,-1.05e+21,88.27384788,93.36569854,-4.250895439,-5.224071938,15.36258649,18.31552521,-0.05905878,0.688983529,-0.1,73.00755561,497.1634722,11.77050314,95494.20529,1.134629149,0.23247620000000002,0.663860363,-0.500363471,0.014135011000000001,0.12126078900000001,0.299934924,0.71333426,-0.19231148,-2.9627539260000004,0.116680904,-0.058570567999999996,-0.354185266,-0.926015701,0.0,398748320.7,327395806.2,498291.0728,16.93570914,-14.16396579,9.273340239,3.3782936589999997,2.56171008,0,0,0.0,39.8714138,32.7364372,376.9397122,270.20108660000005,-97.47937323,-14.741476500000001,8.335325886,3.889542403,-2.817110092,-4.385622604,2.156111779,2.607604926,97.56253323,0.072467036,0.29705864600000004,0.394696055,0.0,61834847,0,0,1,0,0
