timestamp,control[0],control[1],control[2],control[3],control[4],output[2],output[3],output[4],output[5],output[6],output[7],indicated_airspeed_m_s,true_airspeed_m_s,indicated_airspeed_m_s.1,equivalent_airspeed_m_s,true_airspeed_m_s.1,equivalent_ground_minus_wind_m_s,true_ground_minus_wind_m_s,differential_pressure_raw_pa,differential_pressure_filtered_pa,temperature,gyro_bias[0],gyro_bias[1],gyro_bias[2],accel_bias[0],accel_bias[1],accel_bias[2],instance_count,seq_reached,seq_current,seq_total,item_changed_index,item_do_jump_remaining,valid,warning,finished,failure,stay_in_failsafe,flight_termination,item_do_jump_changed,execution_mode,nav_roll,nav_pitch,nav_bearing,target_bearing,xtrack_error,wp_dist,acceptance_radius,rollspeed_integ,pitchspeed_integ,yawspeed_integ,additional_integ1,x,y,z,temperature.1,pressure,temperature.2,gyro_rad[0],gyro_rad[1],gyro_rad[2],accelerometer_m_s2[0],accelerometer_m_s2[1],accelerometer_m_s2[2],x.1,y.1,z.1,altitude_sp,altitude_filtered,height_rate_setpoint,height_rate,airspeed_sp,airspeed_filtered,airspeed_derivative_sp,airspeed_derivative,throttle_integ,pitch_integ,baro_alt_meter,baro_temp_celcius,baro_pressure_pa,rho,xyz[0],xyz[1],xyz[2],xyz[0].1,xyz[1].1,xyz[2].1,roll_body,pitch_body,yaw_body,yaw_sp_move_rate,q_d[0],q_d[1],q_d[2],q_d[3],thrust_body[0],lat,lon,alt,vel_m_s,vel_n_m_s,vel_e_m_s,vel_d_m_s,cog_rad,ref_lat,ref_lon,x.2,y.2,z.2,vx,vy,vz,ax,ay,az,yaw,dist_bottom,roll,pitch,yaw.1,thrust_body[0].1,isTakeoff,isClimbing,isDescending,isCruise,isLand,Unnamed: 127,Unnamed: 128,Unnamed: 129,Unnamed: 130,Unnamed: 131
60005267,-0.017618891,-0.010816437,-0.053662677,0.3325591,0.0,1473.0,1500.0,1333.0,1506.226645,1492.773355,1494.0,17.04938673,17.46889875,16.93167657,16.87263768,17.28764549,17.03772753,17.456795,175.7037585,175.7037585,11.74163473,-0.001249928,-0.005791963000000001,0.00017665400000000002,-0.205310149,0.158640627,-0.008156121,3.0,1.5129025809999999,2.512902581,15,0,0,1,0,0.0,0,0,0,0,0,-0.18864967800000002,0.016824358,1.088937423,1.072206609,-0.9867219979999999,323.2915783,49.65065195,-0.019797846,0.003065327,-0.030329551,0.0,0.08192677400000001,0.48023469399999996,-9.59447702,11.74029546,954.4051876,11.74029546,0.002391915,-0.012057028999999999,-0.09096390800000001,0.065646384,0.519892506,-9.550803363,0.006125767,0.0008939960000000001,-0.08301301700000001,97.93005303,102.67458640000001,-2.4453123519999997,-0.641241396,15.36957747,16.08631639,-0.01433479,-1.1619085759999999,-0.1,70.51473378,501.8343848,11.74018422,95440.76182,1.133994184,-0.008401813000000001,-0.473774886,-0.067028701,0.007164024000000001,0.007611496,-0.09128340800000001,-0.191449275,0.048189017,1.084091742,0,0.851295305,-0.094227425,-0.028750064,0.515349187,0.262690776,398708046.8,327449013.1,502189.8712,17.42508502,5.7131066210000006,16.48853165,-1.325084922,1.2370183890000002,39.8714138,32.7368418,-66.76246503,690.3801672999999,-102.2487931,5.981028392000001,16.35434806,-1.215788409,1.17423313,-1.299976515,0.383248539,1.238049789,102.4863129,0.013915058000000001,-0.035954166,-0.12654876699999998,0.33082882,0,0,1,0,0,,,,,
60046004,-0.01393252,-0.01107203,-0.053453062,0.33144495,0.0,1473.0,1500.0,1332.0,1508.0,1491.0,1494.0,17.06478828,17.48463831,16.88360072,16.82470971,17.23857175,16.98791925,17.405795,174.73055159999998,174.73055159999998,11.74140062,-0.00125046,-0.005792006999999999,0.00017663599999999998,-0.205317002,0.15864034400000002,-0.008044324,3.0,1.516303261,2.516303261,15,0,0,1,0,0.0,0,0,0,0,0,-0.18637921600000001,0.009593644,1.086815508,1.0718819609999999,-0.879555757,322.61561560000007,49.56143447,-0.019789485,0.0029925570000000003,-0.030474476,0.0,-0.451157233,0.486415769,-9.550741218999999,-9.1e+26,954.397578,11.73997116,0.0018637620000000001,-0.02012749,-0.09048186800000001,-0.427174924,0.49573605299999995,-9.575393735,0.0011598280000000001,-0.009126463000000001,-0.09148589900000001,97.81873028,102.64310649999999,-2.468873976,-0.7454211559999999,15.36953497,16.0422616,-0.013454542,-1.1317398109999999,-0.1,70.36387595,502.0248826,11.73982306,95438.6097,1.1339685179999999,0.42345056600000003,-0.364293184,0.07624081099999999,0.00791648,0.004037788,-0.09021985199999999,-0.196702795,0.03165701,1.076235356,0,0.853619352,-0.092377559,-0.036793325,0.511314995,0.163463038,398708068.0,327449090.4,502240.783,17.40704541,5.761212242,16.44643903,-1.307045335,1.233555025,39.8714138,32.7368418,-66.52536359,691.0241139,-102.2979843,6.020625246,16.27355083,-1.1937037940000002,1.045343333,-1.8009306969999999,0.555981695,1.234195264,102.5355043,0.018636787,-0.036821024,-0.125335447,0.3296756,0,0,1,0,0,,,,,
60090741,-0.013174253,-0.011417476999999999,-0.052974624000000005,0.33016482,0.0,1473.0,1500.0,1331.615123,1506.384877,1492.615123,1494.0,16.93388156,17.35068577,16.83552487,16.77678175,17.18949802,16.93811097,17.354795000000003,173.7573446,173.7573446,11.741166499999999,-0.001250992,-0.00579205,0.000176618,-0.20532385399999997,0.158640061,-0.007932527,3.0,1.519703941,2.519703941,15,0,0,1,0,0.0,0,0,0,0,0,-0.18410875399999999,0.002362929,1.084693592,1.071557314,-0.772389517,321.93965289999994,49.472217,-0.01977617,0.002907195,-0.030615014,0.0,-1.0299568270000001,0.495725532,-9.500512676,-1.92e+27,954.3895514000001,11.73964683,-0.004907758,-0.027855678,-0.10687691,-1.309150057,0.483241915,-9.469200431,-0.004449594,-0.020393984,-0.10131422,97.70740752,102.6116266,-2.4924356,-0.849600916,15.36949246,15.99820681,-0.012574293,-1.1015710459999999,-0.1,70.21301813,502.0118057,11.73951042,95438.76195,1.133970335,0.071690333,0.32553920399999997,-0.145195819,0.0037324890000000003,-0.001839999,-0.09151574,-0.188986541,0.015109441000000001,1.0777606659999999,0,0.854062859,-0.08483962199999999,-0.041963455,0.511481712,0.047385807,398708089.3,327449167.8,502291.6947,17.389005800000003,5.809317864,16.40434641,-1.289005747,1.23009166,39.8714138,32.7368418,-66.28966557,691.6625136,-102.34665490000002,6.058573603999999,16.18868182,-1.170903367,0.91122481,-2.334799894,0.74739835,1.2303339690000001,102.58417490000001,0.016877048999999998,-0.036302804,-0.126077148,0.329090609,0,0,1,0,0,,,,,
60127477,-0.014073516999999999,-0.011534365,-0.054017345999999994,0.3296756,0.0,1473.0,1500.0,1330.0,1507.0,1492.0,1494.0,16.91169433,17.32798599,16.78744902,16.72885379,17.14042429,16.88830269,17.303795,172.78413769999997,172.78413769999997,11.74093239,-0.001251523,-0.005792093000000001,0.0001766,-0.205330707,0.158639779,-0.00782073,3.0,1.5231046209999999,2.523104621,15,0,0,1,0,0.0,0,0,0,0,0,-0.181838291,-0.004867785,1.082571677,1.071232667,-0.665223276,321.2636902,49.38299953,-0.019768515,0.0028163890000000003,-0.030757186000000002,0.0,-1.384378835,0.466410558,-9.377411366,-2.46e+27,954.3828695000001,11.73932838,-0.010058434,-0.053328964000000006,-0.127878477,-1.652324889,0.37388369299999996,-9.254093292,-0.008084576999999999,-0.03667879,-0.116105592,97.59608477,102.5801468,-2.515997225,-0.9537806759999999,15.36944996,15.95415202,-0.011694043999999999,-1.071402281,-0.1,70.0621603,502.10793499999994,11.73916835,95437.64925,1.133957165,0.333046902,-0.022751699,0.021022304,0.006912255,-0.014539883,-0.100076038,-0.180051785,-0.0014554120000000001,1.079924289,0,0.8542853159999999,-0.076742283,-0.046842497999999996,0.511963353,0.0,398708110.5,327449245.2,502342.6065,17.37096619,5.857423485,16.36225379,-1.270966159,1.226628296,39.8714138,32.7368418,-66.04315865,692.3203222,-102.39549009999999,6.096691886,16.0929983,-1.136743185,0.856018884,-2.585117426,0.971488192,1.22567277,102.63301009999999,0.027578186,-0.037533371,-0.12172012900000001,0.32794413,0,0,1,0,0,,,,,
60164214,-0.014658596999999999,-0.011326936999999999,-0.054345432,0.3285519,0.0,1473.0,1500.0,1329.0,1506.0,1493.0,1494.0,16.825253699999998,17.23948555,16.73937317,16.68092583,17.09135056,16.83849441,17.252795000000003,171.81093080000002,171.81093080000002,11.74069827,-0.001252055,-0.005792136,0.00017658099999999998,-0.20533755899999998,0.158639496,-0.007708933,3.0,1.526505301,2.526505301,15,0,0,1,0,0.0,0,0,0,0,0,-0.17956782899999998,-0.012098498999999999,1.080449761,1.070908019,-0.558057036,320.58772749999997,49.29378206,-0.019753297,0.002713487,-0.030889042999999998,0.0,-1.473147381,0.39136554700000004,-9.168031818,-2.46e+27,954.3777798000001,11.73901692,-0.006455791999999999,-0.069345146,-0.141988626,-1.644576711,0.230772478,-9.153780027,-0.009381908000000001,-0.058903844000000004,-0.136773002,97.48476202,102.54866690000001,-2.539558849,-1.057960436,15.36940745,15.91009723,-0.010813796,-1.041233516,-0.1,69.91130247,502.05388039999997,11.73885639,95438.25327,1.133964386,-0.430114286,-0.258098679,-0.205481252,-0.008984737,-0.031260089,-0.120902585,-0.182976083,-0.018055155,1.0728519509999999,0,0.856327334,-0.073929475,-0.054414265999999996,0.508201486,0.0,398708131.8,327449322.6,502393.5183,17.35292659,5.905529106,16.32016118,-1.252926571,1.223164932,39.8714138,32.7368418,-65.78385447,693.0011099999999,-102.4445202,6.135011349,15.98451087,-1.089133541,0.894242097,-2.499721918,1.23426169,1.22006452,102.6820402,0.018287863999999997,-0.046993707,-0.127316097,0.2995204,0,0,1,0,0,,,,,
60204951,-0.014017107,-0.014583435,-0.053882937,0.3081574,0.0,1472.0,1500.0,1328.877776,1507.0,1492.0,1494.0,16.68029286,17.0909188,16.69129732,16.63299787,17.04227682,16.78868613,17.201795,170.83772390000001,170.83772390000001,11.74046415,-0.0012525869999999999,-0.00579218,0.000176563,-0.205344412,0.158639213,-0.007597136,3.0,1.529905981,2.5299059809999997,15,0,0,1,0,0.0,0,0,0,0,0,-0.17729736699999998,-0.019329213,1.078327845,1.070583372,-0.450890795,319.9117648,49.20456459,-0.019736889,0.002559562,-0.031059224,0.0,-1.561064653,0.31659342100000004,-8.957234754,-2.46e+27,954.372699,11.73870508,-0.015868299,-0.08703320699999999,-0.16344101800000002,-1.572122341,0.267971909,-8.739299325,-0.010671266,-0.081123713,-0.157322699,97.37376936,102.50827209999999,-2.545670481,-1.1574994109999999,15.36937331,15.87311703,-0.010074874000000001,-1.007221118,-0.1,69.74930329,502.1746446,11.73854368,95436.88019,1.1339480290000001,0.10799474099999999,-0.556323225,-0.038668595,-0.012166585,-0.055895599000000004,-0.139171784,-0.175644898,-0.034708511000000004,1.0735408000000002,0,0.85670109,-0.066524044,-0.059700382,0.5080070839999999,0.0,398708153.3,327449399.8,502443.4075,17.31670734,5.951930386,16.26102526,-1.2275015,1.219463602,39.8714138,32.7368418,-65.52471549,693.6812938999999,-102.4934596,6.17329814,15.87619294,-1.04125952,0.932208925,-2.414486265,1.497771516,1.214455116,102.7309796,0.030353397999999997,-0.047804952000000005,-0.12223430099999999,0.29647076,0,0,1,0,0,,,,,
60241688,-0.014852351000000001,-0.015316618999999998,-0.054240703,0.2995204,0.0,1473.0,1500.0,1327.0,1505.0,1494.0,1494.0,16.60845479,17.01740164,16.64322147,16.58506991,16.99320309,16.73887785,17.150795000000002,169.864517,169.864517,11.74023004,-0.001253119,-0.005792223000000001,0.000176545,-0.20535126399999998,0.15863893,-0.007485339000000001,3.0,1.533306661,2.533306661,15,0,0,1,0,0.0,0,0,0,0,0,-0.17495962199999998,-0.026573802999999997,1.076218093,1.070260796,-0.344851814,319.23501289999996,49.10728361,-0.019710855,0.00238345,-0.03117053,0.0,-1.5629180569999999,0.269410043,-8.603126873999999,-2.46e+27,954.3685162,11.73835603,-0.014822565,-0.11544498199999999,-0.177433073,-1.5200780219999999,0.185993765,-8.406792031,-0.011154465,-0.102819205,-0.165971445,97.26314642,102.4578927,-2.53223812,-1.251840707,15.36934854,15.84406038,-0.009494238,-0.968903851,-0.1,69.57482578,502.16709800000007,11.73825045,95436.97948,1.133949253,-0.235101493,-0.04083951,-0.357791807,-0.014177758,-0.073816078,-0.162199688,-0.170562932,-0.050168705,1.072688826,0,0.8572741629999999,-0.060423582,-0.064990408,0.507144826,0.0,398708175.6,327449476.8,502490.7113,17.23452691,5.994022805,16.15880102,-1.1834046809999998,1.215160654,39.8714138,32.7368418,-65.28227751,694.3004172999999,-102.5332392,6.2082816560000005,15.78501166,-0.9666571190000001,0.944255156,-2.3454120919999997,1.83572415,1.208728938,102.7707575,0.021587601,-0.082582728,-0.13377213400000001,0.17146772,0,0,1,0,0,,,,,
60286425,-0.01152293,-0.022852888999999998,-0.054184064000000004,0.20698155,0.0,1472.0,1500.0,1299.0,1507.0,1492.0,1492.0,16.56193348,16.96969854,16.59514562,16.53714194,16.94412936,16.68906957,17.099795,168.8913101,168.8913101,11.73999592,-0.0012536510000000002,-0.005792266,0.00017652599999999998,-0.20535811699999998,0.158638647,-0.007373541,3.0,1.5367073409999998,2.536707341,15,0,0,1,0,0.0,0,0,0,0,0,-0.17192475699999998,-0.033962155,1.074234365,1.069959679,-0.250492492,318.55008480000004,48.92645579,-0.019675352,0.002206236,-0.031219177,0.0,-1.5647714609999999,0.22222666600000002,-8.249018993,-2.46e+27,954.3643332999999,11.73800699,-0.008406142,-0.14464960000000002,-0.18060327,-1.4740720040000002,0.150963746,-8.152095051,-0.011637665,-0.124514697,-0.174620191,97.15252347,102.40751329999999,-2.518805759,-1.346182002,15.36932376,15.81500372,-0.008913601,-0.930586585,-0.1,69.40034828,502.3147603,11.73796011,95435.28598,1.133929087,-0.250544877,-0.528260423,-0.38271717299999997,-0.009550904,-0.10743507699999999,-0.175595583,-0.16889701,-0.064694516,1.0692618999999999,0,0.8583300709999999,-0.056122150999999995,-0.070683455,0.5050924760000001,0.0,398708197.8,327449553.8,502538.0152,17.15234647,6.0361152229999995,16.05657677,-1.1393078620000001,1.210857707,39.8714138,32.7368418,-65.03983954,694.9195407999999,-102.5730188,6.243265172,15.69383037,-0.892054718,0.956301387,-2.276337919,2.173676784,1.20300276,102.8105355,0.033087373999999996,-0.11801931800000001,-0.13620507699999998,0.040295355,0,0,1,0,0,,,,,
60327162,-0.009296512,-0.036644337,-0.05606699,0.07339075,0.0,1472.140428,1500.0,1218.638528,1505.0,1494.0,1488.561712,16.46554402,16.87105412,16.54706976,16.48921398,16.89505563,16.63926129,17.048795000000002,167.9181032,167.9181032,11.7397618,-0.001254183,-0.00579231,0.000176508,-0.20536496899999998,0.158638365,-0.0072617440000000005,3.0,1.5401080219999999,2.540108022,15,0,0,1,0,0.0,0,0,0,0,0,-0.16888989100000001,-0.041350507,1.0722506379999999,1.069658562,-0.15613316900000002,317.86515660000003,48.74562796,-0.019634908,0.002003185,-0.031226305,0.0,-1.533405505,0.18767878100000002,-7.9398214739999995,-2.46e+27,954.3634499,11.73772803,-0.012708915,-0.153231979,-0.181662154,-1.517648357,0.082465735,-7.763420545,-0.008356838,-0.139535014,-0.17608428199999998,97.04190052,102.35713390000001,-2.5053733990000002,-1.4405232980000002,15.36929898,15.78594707,-0.008332965,-0.892269318,-0.1,69.22587077,502.3838455,11.73769939,95434.45915,1.133919269,0.5981412629999999,-0.854615323,-0.344484265,-0.007502226999999999,-0.12681272300000002,-0.178682078,-0.16303123,-0.064192359,1.0691953859999999,0,0.858505878,-0.053732623,-0.06898595099999999,0.505293099,0.0,398708220.1,327449630.7,502585.3191,17.07016603,6.078207642000001,15.95435253,-1.095211042,1.206554759,39.8714138,32.7368418,-64.7837243,695.5621572000001,-102.6091988,6.279478564,15.60497223,-0.796302683,0.9105639000000001,-2.159764959,2.454351257,1.197286976,102.8467157,0.046315449,-0.151449575,-0.139800078,0.0,0,0,1,0,0,,,,,
60371798,-0.0027064040000000004,-0.049705902,-0.05594661099999999,0.001015646,0.0,1471.0,1500.0,1171.0,1506.0,1493.0,1485.0,16.38242759,16.78595829,16.49899391,16.44128602,16.84598189,16.58945302,16.997795,166.9448963,166.9448963,11.73952769,-0.001254715,-0.005792353,0.00017649,-0.20537182199999998,0.15863808199999999,-0.007149946999999999,3.0,1.5435087019999998,2.543508702,15,0,0,1,0,0.0,0,0,0,0,0,-0.165855025,-0.04873886,1.07026691,1.069357445,-0.061773847,317.1802285,48.56480014,-0.019586222,0.001792036,-0.03116059,0.0,-1.4761186030000002,0.162990327,-7.665667349,-2.46e+27,954.365141,11.73750378,0.000793377,-0.16659712699999998,-0.17493558899999997,-1.489974897,0.061786637,-7.48930172,-0.002138956,-0.149346716,-0.17194221199999998,96.93127757,102.30675450000001,-2.491941038,-1.5348645930000002,15.3692742,15.75689042,-0.0077523290000000005,-0.8539520509999999,-0.1,69.05139327,502.2555735,11.7374618,95435.95869,1.1339371440000001,-0.198072323,-0.11611913199999999,-0.508126131,-0.007694123000000001,-0.144496443,-0.18044330600000003,-0.16440041,-0.081001299,1.063652737,0,0.859951347,-0.050247162000000005,-0.076383227,0.502114591,0.0,398708242.3,327449707.7,502632.6229,16.987985600000002,6.12030006,15.85212828,-1.051114223,1.202251812,39.8714138,32.7368418,-64.51693674,696.2231051,-102.64257009999999,6.3166516239999995,15.51792682,-0.684047665,0.819737982,-2.006128866,2.690331787,1.191579302,102.8800887,0.054272775999999995,-0.181690465,-0.143339059,0.0,0,0,1,0,0,,,,,
60412636,-0.0018278020000000001,-0.055403368,-0.058726846,0.0,0.0,1471.0,1500.0,1040.0,1504.0,1495.0,1478.0,16.31954689,16.72141868,16.45091806,16.39335806,16.79690816,16.53964474,16.946795,165.9716893,165.9716893,11.73929357,-0.001255246,-0.005792396,0.00017647099999999998,-0.20537867399999998,0.158637799,-0.00703815,3.0,1.546909382,2.546909382,15,0,0,1,0,0.0,0,0,0,0,0,-0.162820159,-0.056127212,1.068283182,1.069056328,0.032585475,316.49530039999996,48.38397231,-0.019532679,0.001588178,-0.031067848,0.0,-1.4275605619999998,0.143018141,-7.4030129339999995,-2.35e+27,954.3656589,11.73728797,0.010514309,-0.166120589,-0.17015957199999998,-1.4883710140000002,0.122029266,-7.30314315,0.003759363,-0.158929618,-0.1670792,96.81295027,102.24326540000001,-2.49305619,-1.6286043319999999,15.36923072,15.734485199999998,-0.007305095,-0.810749752,-0.1,68.85648046,502.2672688999999,11.7372539,95435.8099,1.133935363,-0.112708425,-0.773371495,-1.0710784629999999,-0.001606524,-0.158380039,-0.172848955,-0.155947124,-0.088598988,1.065824361,0,0.859623668,-0.044596425,-0.077562696,0.503031924,0.0,398708264.8,327449784.0,502676.15,16.91052611,6.160031989,15.75462487,-0.994034807,1.198093048,39.8714138,32.7368418,-64.25215266,696.8773812000001,-102.6744022,6.353362666000001,15.43247098,-0.570794049,0.745307822,-1.8679534080000002,2.9126058039999996,1.186056378,102.9119222,0.054499140999999994,-0.19275798,-0.146220393,0.0,0,0,1,0,0,,,,,
60457373,0.0015612070000000002,-0.066800967,-0.058551264000000006,0.0,0.0,1470.806161,1500.0,1000.0,1500.4030810000002,1498.5969189999998,1472.6123220000002,16.30706827,16.70869826,16.40284221,16.3454301,16.74783443,16.48983646,16.895795,164.9984824,164.9984824,11.73905945,-0.001255778,-0.00579244,0.000176453,-0.20538552699999998,0.158637516,-0.0069263530000000005,3.0,1.5503100619999999,2.550310062,15,0,0,1,0,0.0,0,0,0,0,0,-0.159785293,-0.063515565,1.066299455,1.068755211,0.126944798,315.8103722,48.20314448,-0.01947787,0.001404989,-0.030951997999999998,0.0,-1.447102694,0.159840969,-7.230076081,-1.34e+27,954.3570235999999,11.73713806,0.004191074,-0.17942574,-0.152597805,-1.3743809169999999,0.058599003,-6.991617762000001,0.007164535,-0.166727489,-0.156591592,96.68714476,102.1670515,-2.508291824,-1.721760172,15.36916908,15.71853616,-0.006987348000000001,-0.762805815,-0.1,68.64173223,502.4252876,11.73707974,95433.9899,1.133913654,0.565741941,-0.865440558,0.28087007199999997,0.006368433000000001,-0.161829223,-0.17064416300000002,-0.157126261,-0.096823823,1.060786059,0,0.860861077,-0.043215114000000006,-0.081270831,0.500444722,0.0,398708287.8,327449858.8,502710.6257,16.84438088,6.194106744,15.66843543,-0.9058411679999999,1.194279835,39.8714138,32.7368418,-64.00299925,697.4796058,-102.6942259,6.386469168,15.35941648,-0.44974964799999995,0.798792834,-1.8503975590000001,3.02794539,1.181974829,102.93174590000001,0.06756844299999999,-0.21693040800000002,-0.147293127,0.0,0,0,1,0,0,,,,,
60494110,0.001819297,-0.078383635,-0.061109252,0.0,0.0,1469.176035,1500.0,1000.0,1501.0,1498.0,1469.0,16.17921206,16.57774707,16.35476636,16.29750214,16.698760699999998,16.44002818,16.844795,164.0252755,164.0252755,11.73882534,-0.00125631,-0.005792483,0.000176435,-0.20539237899999999,0.15863723300000002,-0.006814555999999999,3.0,1.5537107419999998,2.553710742,15,0,0,1,0,0.0,0,0,0,0,0,-0.156750427,-0.070903917,1.064315727,1.068454094,0.22130412,315.12544410000004,48.02231666,-0.019418471,0.001254626,-0.030812102,0.0,-1.466644826,0.176663798,-7.057139228,-3.36e+26,954.3483882999999,11.73698814,0.012228616000000001,-0.175356547,-0.136761489,-1.414155127,0.073834312,-6.831766343,0.010569708,-0.174525359,-0.14610398300000002,96.56133926,102.09083759999999,-2.5235274580000002,-1.814916011,15.36910744,15.70258713,-0.0066695999999999995,-0.714861878,-0.1,68.42698399,502.3624914,11.73694863,95434.7529,1.1339227509999998,-0.25262247,0.290461383,-0.127554501,0.007066366,-0.164951392,-0.156528113,-0.153984356,-0.090769819,1.059120359,0,0.8613485679999999,-0.043461333,-0.077852999,0.500126819,0.0,398708310.9,327449933.5,502745.1014,16.77823565,6.228181498,15.58224599,-0.81764753,1.190466623,39.8714138,32.7368418,-63.75384584,698.0818303,-102.7140495,6.41957567,15.28636198,-0.328705247,0.852277847,-1.83284171,3.1432849760000003,1.17789328,102.95156949999999,0.060506788,-0.232697987,-0.154341526,0.0,0,0,1,0,0,,,,,
60534847,0.007764771,-0.079821129,-0.059981014000000006,0.0,0.0,1470.0,1500.0,1000.0,1498.0,1501.0,1463.0,16.18034205,16.57889674,16.30669051,16.24957417,16.64968697,16.390219899999998,16.793795000000003,163.0520686,163.0520686,11.73859122,-0.001256842,-0.005792526,0.00017641599999999999,-0.205399232,0.158636951,-0.006702759,3.0,1.557111422,2.5571114219999997,15,0,0,1,0,0.0,0,0,0,0,0,-0.153715561,-0.078292269,1.062331999,1.068152977,0.315663442,314.4405159,47.84148883,-0.019366005,0.001108836,-0.03071327,0.0,-1.4074968890000001,0.172931383,-6.934894243,-6.69e+26,954.346234,11.736880099999999,0.009295774,-0.162176599,-0.124167938,-1.350705459,0.080140955,-6.853868263,0.015096928999999999,-0.172583593,-0.133045121,96.43553376,102.0146236,-2.538763092,-1.9080718509999999,15.369045800000002,15.68663809,-0.006351853,-0.666917941,-0.1,68.21223575,502.3303002,11.73683053,95435.0847,1.133926666,-0.594751436,-0.40706055700000005,0.6076002460000001,0.012154673000000001,-0.16217563599999998,-0.143388381,-0.15066977199999998,-0.09736793199999999,1.057632485,0,0.861781227,-0.040425229,-0.07982234,0.499319976,0.0,398708333.9,327450008.3,502779.5771,16.71209042,6.262256252999999,15.49605655,-0.7294538909999999,1.186653411,39.8714138,32.7368418,-63.48817455,698.7124311000001,-102.72579470000001,6.455560267,15.21294156,-0.199690631,0.8676504340000001,-1.803674825,3.1488759739999996,1.174425633,102.96331359999999,0.07359649900000001,-0.212434714,-0.145140921,0.0,0,0,1,0,0,,,,,
60571584,0.0032701920000000003,-0.085586484,-0.061920635,0.0,0.0,1469.0,1500.0,1000.0,1497.997199,1501.002801,1460.331466,16.10856051,16.50529488,16.25861466,16.20164621,16.60061323,16.34041162,16.742795,162.07886169999998,162.07886169999998,11.7383571,-0.001257374,-0.005792569,0.000176398,-0.205406084,0.158636668,-0.006590962,3.0,1.560512102,2.5605121019999997,15,0,0,1,0,0.0,0,0,0,0,0,-0.150680695,-0.085680622,1.0603482709999998,1.06785186,0.410022764,313.7555878,47.66066101,-0.019303955,0.000963772,-0.030621997,0.0,-1.308801257,0.15886840800000002,-6.838125746,-1.67e+27,954.3473368999998,11.73679309,0.018866301000000002,-0.162850808,-0.118458845,-1.408720355,0.052579512,-6.77394838,0.020188065,-0.165746925,-0.118694009,96.30972825,101.93840970000001,-2.553998726,-2.00122769,15.36898416,15.67068906,-0.006034106,-0.618974005,-0.1,67.99748751,502.5291773,11.73674794,95432.82452000001,1.1338997990000002,-0.8391555140000001,-0.766810955,0.00198821,0.016197188,-0.159881926,-0.125924759,-0.145621883,-0.106547766,1.057491653,0,0.861883085,-0.035934068,-0.082498593,0.49905443299999996,0.0,398708357.0,327450083.1,502814.0528,16.64594519,6.296331007999999,15.40986711,-0.641260252,1.182840198,39.8714138,32.7368418,-63.21420179999999,699.3572929,-102.7334798,6.492991322999999,15.13933724,-0.06667038,0.8638686529999999,-1.768672519,3.0993100289999997,1.171266517,102.97099709999999,0.07090945900000001,-0.235737358,-0.151260705,0.0,0,0,1,0,0,,,,,
60612320,0.006910009,-0.084799315,-0.061207454,0.0,0.0,1469.0,1500.0,1000.0,1496.0,1503.0,1457.0,16.0841992,16.48047049,16.21053881,16.15371825,16.5515395,16.29060334,16.691795000000003,161.10565480000002,161.10565480000002,11.73812299,-0.001257906,-0.005792613,0.00017638,-0.205412937,0.158636385,-0.006479164,3.0,1.5639127830000001,2.563912783,15,0,0,1,0,0.0,0,0,0,0,0,-0.147645829,-0.093068974,1.058364544,1.067550743,0.504382087,313.0706597,47.47983318,-0.019244725,0.000843575,-0.030587084,0.0,-1.241126916,0.14392838800000002,-6.7796091679999995,-2.46e+27,954.3481644999999,11.73672766,0.025152401,-0.160738918,-0.10309128099999999,-1.381934954,0.137311991,-6.8830110079999995,0.025276845,-0.159411824,-0.105848254,96.1925627,101.8580071,-2.5712643330000002,-2.0814848130000003,15.36894046,15.66573446,-0.005935885,-0.574523351,-0.1,67.79122866,502.3259857,11.736725,95435.13946,1.133927352,0.146434333,-0.867115278,0.613455286,0.019317719,-0.152179763,-0.117548476,-0.139977837,-0.115429869,1.057827332,0,0.861842824,-0.031240615,-0.08490757199999999,0.49903902299999997,0.0,398708380.3,327450157.7,502840.4485,16.58408482,6.3316300320000005,15.32918684,-0.538375676,1.179048361,39.8714138,32.7368418,-62.94411304,699.9899939,-102.73843670000001,6.529730961,15.06806502,0.06288632599999999,0.858898933,-1.722571696,3.043970112,1.168318192,102.9759531,0.08269124900000001,-0.232010653,-0.145043093,0.0,0,0,1,0,0,,,,,
60649058,0.006399396,-0.08683936099999999,-0.062013057999999996,0.0,0.0,1469.507502,1500.0,1000.0,1495.0,1504.0,1460.0,15.96899632,16.36231261,16.16246296,16.10579029,16.50246577,16.24079506,16.640795,160.13244790000002,160.13244790000002,11.73788887,-0.001258438,-0.005792656,0.000176361,-0.205419789,0.158636102,-0.006367367,3.0,1.567313463,2.567313463,15,0,0,1,0,0.0,0,0,0,0,0,-0.144610963,-0.100457326,1.056380816,1.067249626,0.598741409,312.3857315,47.29900535,-0.01919437,0.000764845,-0.030604247,0.0,-1.285101278,0.1258318,-6.858765037,-2.46e+27,954.3480011,11.73673992,0.027918501000000002,-0.159892335,-0.097550425,-1.378575708,0.14216278300000001,-6.878066225,0.030357146,-0.154881913,-0.098420429,96.08266292,101.77408199999999,-2.590237047,-2.15089475,15.36891186,15.67002564,-0.0060222769999999995,-0.533010375,-0.1,67.59210896,502.43436579999997,11.736694,95433.9329,1.133913032,0.21558734100000002,0.12349870800000001,0.501023781,0.027904883999999998,-0.147714538,-0.09965449800000001,-0.138437276,-0.110563034,1.055069462,0,0.8625877559999999,-0.031921648999999996,-0.082391018,0.498127679,0.0,398708404.4,327450232.1,502848.4661,16.53197039,6.369713668999999,15.26103721,-0.402076417,1.1753051429999999,39.8714138,32.7368418,-62.68800318,700.5789265,-102.7335741,6.56398211,15.005186199999999,0.17997739199999999,0.849653702,-1.6365262109999998,2.967849099,1.1661285259999998,102.97109209999999,0.07923670299999999,-0.231494184,-0.146944259,0.0,0,0,1,0,0,,,,,
60689794,0.009964643,-0.083052457,-0.060078247,0.0,0.0,1468.928386,1500.0,1000.0,1496.0,1503.0,1458.713543,15.96802276,16.36140943,16.11438711,16.05786233,16.45339204,16.19098678,16.589795000000002,159.1592409,159.1592409,11.73765476,-0.001258969,-0.005792699,0.000176343,-0.205426642,0.158635819,-0.00625557,3.0,1.5707141430000002,2.570714143,15,0,0,1,0,0.0,0,0,0,0,0,-0.14157609699999998,-0.107845679,1.054397088,1.0669485090000002,0.6931007309999999,311.7008034,47.11817753,-0.019136917,0.000669187,-0.030666565,0.0,-1.32907564,0.107735211,-6.9379209070000005,-2.46e+27,954.3478377,11.73675217,0.036301472,-0.152887464,-0.085750034,-1.3423096769999998,0.143432499,-6.916202977,0.035437447000000004,-0.15035200199999998,-0.090992604,95.97276315,101.690157,-2.609209761,-2.220304688,15.36888325,15.67431682,-0.006108668,-0.491497399,-0.1,67.39298926,502.29563499999995,11.73673544,95435.49082,1.1339314120000001,-0.275374567,0.791353515,0.35558124,0.029183782000000002,-0.143887119,-0.09404452699999999,-0.13863495,-0.11537570300000001,1.050974593,0,0.8635692140000001,-0.030964462,-0.08444304,0.496142804,0.0,398708428.5,327450306.4,502856.4837,16.47985597,6.407797306,15.19288758,-0.265777158,1.1715619240000001,39.8714138,32.7368418,-62.43189333,701.167859,-102.7287116,6.598233259,14.94230739,0.297068457,0.84040847,-1.550480726,2.891728085,1.16393886,102.96623120000001,0.082954288,-0.202347907,-0.138454768,0.0,0,0,1,0,0,,,,,
60734532,0.009684288000000001,-0.083903529,-0.061306132,0.0,0.0,1469.0,1500.0,1000.0,1495.0,1504.0,1455.65073,15.95774637,16.3507655,16.06631126,16.00993437,16.404318300000003,16.1411785,16.538795,158.186034,158.186034,11.73742064,-0.0012595010000000001,-0.005792743,0.000176325,-0.205433494,0.158635537,-0.006143773000000001,3.0,1.5741148230000002,2.574114823,15,0,0,1,0,0.0,0,0,0,0,0,-0.138541232,-0.115234031,1.05241336,1.0666473920000001,0.7874600540000001,311.0158753,46.937349700000006,-0.019072498,0.000538404,-0.030794071,0.0,-1.358790325,0.110398113,-6.979292513,-2.46e+27,954.3470457999998,11.73682225,0.040094393,-0.14544847800000002,-0.08501571,-1.3756599569999999,0.19923349899999998,-7.024081459,0.035890749,-0.14731534599999999,-0.08750343199999999,95.86286337,101.6062319,-2.628182475,-2.289714626,15.36885465,15.678607999999999,-0.006195059,-0.44998442299999997,-0.1,67.19386957,502.4936102,11.73678917,95433.25934,1.1339048859999998,0.318355509,0.47654929,0.21588579999999996,0.037247393,-0.142277932,-0.08601260599999999,-0.1308982,-0.12340197800000001,1.05317584,0,0.863061135,-0.02551043,-0.08600189,0.497069549,0.0,398708452.5,327450380.8,502864.5013,16.42774155,6.4458809420000005,15.12473795,-0.1294779,1.167818705,39.8714138,32.7368418,-62.15623256,701.7892674999999,-102.7138429,6.634972679,14.87879439,0.41634625200000003,0.8511520220000001,-1.510367994,2.846237015,1.161536218,102.9513623,0.07992713900000001,-0.20528594100000003,-0.140830075,0.0,0,0,1,0,0,,,,,
60771269,0.008557522,-0.073387612,-0.060381265999999996,0.0,0.0,1468.0,1500.0,1000.0,1495.0,1504.0,1456.0,15.89423027,16.2858069,16.01823541,15.962006400000002,16.35524457,16.09137022,16.487795000000002,157.2128271,157.2128271,11.73718652,-0.001260033,-0.005792785999999999,0.000176306,-0.205440347,0.158635254,-0.006031976,3.0,1.577515503,2.5775155030000003,15,0,0,1,0,0.0,0,0,0,0,0,-0.135046873,-0.118153107,1.051388591,1.0664926909999999,0.8333124390000001,310.3488652,46.82701645,-0.01902615,0.00043453599999999996,-0.030932341000000002,0.0,-1.38422983,0.11928489699999999,-7.009336056,-2.46e+27,954.3460653999999,11.73690967,0.037826276,-0.148409237,-0.082608942,-1.431464888,0.136922011,-7.080656909,0.034956835,-0.144726381,-0.08519510300000001,95.75296359,101.5223069,-2.6471551890000002,-2.359124563,15.36882604,15.68289919,-0.00628145,-0.40847144799999996,-0.1,66.99474987,502.2730364,11.73689313,95435.73541000001,1.13393444,-0.05309787,-0.37066872700000003,-0.512968684,0.04205293,-0.136463634,-0.085779748,-0.12560490800000002,-0.128850914,1.0534463459999999,0,0.862990363,-0.02184036,-0.087027055,0.497179663,0.0,398708476.6,327450455.2,502872.5189,16.37562713,6.483964578999999,15.05658832,0.006821359,1.164075487,39.8714138,32.7368418,-61.87471024,702.4204126,-102.6959743,6.672458105,14.81509126,0.5362796479999999,0.8678883909999999,-1.4840263169999999,2.809929078,1.159069724,102.9334928,0.089286597,-0.208916385,-0.136606069,0.0,0,0,1,0,0,,,,,
60808005,0.013267689,-0.07511200900000001,-0.061301379,0.0,0.0,1469.0,1500.0,1000.0,1495.0,1504.0,1462.0,15.82046764,16.21005011,15.97015956,15.91407844,16.30617084,16.04156194,16.436795,156.2396202,156.2396202,11.73695241,-0.001260565,-0.005792829,0.000176288,-0.205447199,0.15863497099999999,-0.005920179,3.0,1.580916183,2.5809161830000003,15,0,0,1,0,0.0,0,0,0,0,0,-0.131481125,-0.120377804,1.050512812,1.0663607370000001,0.871628436,309.6846391,46.72763575,-0.018971281,0.000338824,-0.031108425,0.0,-1.4013385669999998,0.129051705,-7.039066322,-2.46e+27,954.3439434000001,11.73701703,0.046602542000000004,-0.149388125,-0.091576092,-1.448886869,0.22588269600000002,-7.14079286,0.036454199,-0.142520044,-0.086415244,95.64325857,101.43126020000001,-2.648767565,-2.4196463919999998,15.36877073,15.6915673,-0.006455919,-0.369802036,-0.1,66.79560452,502.43435989999995,11.73701135,95433.91861000001,1.133912789,0.029172881,-0.366858581,-0.08078881,0.046891505,-0.132500776,-0.084851143,-0.125673142,-0.125363872,1.0496198079999999,0,0.8639837340000001,-0.022912015,-0.085504093,0.495672909,0.0,398708500.7,327450528.6,502872.8002,16.32668334,6.5207799689999995,14.98907281,0.138047604,1.160387608,39.8714138,32.7368418,-61.59203103,703.0498124,-102.67408459999999,6.709585165,14.752816399999999,0.65500498,0.8657366609999999,-1.45475832,2.769964785,1.156414474,102.9116029,0.09796408699999999,-0.21352148,-0.132480126,0.0,0,0,1,0,0,,,,,
60849485,0.010536378999999998,-0.07778974,-0.062139679,0.0,0.0,1468.0,1500.0,1000.0,1496.0,1503.0,1461.0,15.78207951,16.17092064,15.93044699,15.87447898,16.26560668,16.00226422,16.39654005,155.4820902,155.4820902,11.73690414,-0.001261126,-0.005792881999999999,0.000176368,-0.205452133,0.158635881,-0.005814481999999999,3.0,1.5843168630000002,2.584316863,15,0,0,1,0,0.0,0,0,0,0,0,-0.127915376,-0.122602501,1.049637034,1.066228784,0.9099444329999999,309.0204129,46.62825505,-0.018924615,0.000242807,-0.03127745,0.0,-1.40084602,0.140677829,-7.0681346970000005,-2.46e+27,954.3394092,11.73716653,0.046225918,-0.14405878800000002,-0.091479744,-1.4624245180000002,0.234469628,-7.084417279,0.04308838,-0.141122125,-0.09509035,95.53369520000001,101.33503420000001,-2.63775424,-2.473704142,15.368696,15.70341864,-0.006694444,-0.33320067,-0.1,66.59644051,502.23146529999997,11.73714206,95436.22228,1.13394021,0.23898636,0.153137492,0.041470955,0.0505233,-0.136578496,-0.08884948699999999,-0.118135142,-0.12810991,1.051839079,0,0.863480302,-0.018872603,-0.084838353,0.496837084,0.0,398708524.9,327450599.9,502856.3641,16.28459092,6.5548548239999995,14.92292759,0.258311658,1.156819314,39.8714138,32.7368418,-61.30690754,703.6755246,-102.64369930000001,6.745955068,14.69355919,0.77117791,0.823678062,-1.4193075830000002,2.7222753230000003,1.15336042,102.8812184,0.095951615,-0.19376541600000002,-0.129133349,0.0,0,0,1,0,0,,,,,
60897479,0.010699576,-0.079617059,-0.062764605,0.0,0.0,1468.0,1500.0,1000.0,1494.0,1505.0,1460.0,15.79773506,16.18676394,15.91128825,15.85534787,16.24595588,15.98879753,16.38269241,155.2546137,155.2546137,11.73731263,-0.001261757,-0.005792958000000001,0.00017669099999999998,-0.20545234899999998,0.15863972099999998,-0.0057237780000000005,3.0,1.587717544,2.587717544,15,0,0,1,0,0.0,0,0,0,0,0,-0.12434962699999999,-0.12482719800000001,1.048761255,1.0660968309999999,0.94826043,308.35618680000005,46.52887435,-0.0188778,0.00014558100000000001,-0.031410189,0.0,-1.400353473,0.152303954,-7.097203071,-2.46e+27,954.3348751,11.73731604,0.054704088,-0.138306785,-0.10131882199999999,-1.37478806,0.18348953899999998,-7.168491495,0.049722561,-0.139724207,-0.103765455,95.42413183,101.23880820000001,-2.626740915,-2.527761893,15.36862126,15.71526997,-0.00693297,-0.296599304,-0.1,66.39727649,502.4567237,11.73732304,95433.68497,1.1339100359999998,-0.40727828,-0.249470384,-0.356234664,0.051935517,-0.135821623,-0.093033722,-0.12457333599999999,-0.133431727,1.043098895,0,0.8655077179999999,-0.020702164,-0.088634116,0.492551381,0.0,398708549.2,327450671.3,502839.92799999996,16.2424985,6.588929679,14.85678236,0.378575712,1.153251019,39.8714138,32.7368418,-61.02178405,704.3012369,-102.613314,6.782324971,14.63430197,0.88735084,0.781619463,-1.383856845,2.6745858609999997,1.150306365,102.8508339,0.09587826699999999,-0.18852461199999998,-0.126647722,0.0,0,0,1,0,0,,,,,
60934216,0.012907672,-0.069491392,-0.06198562,0.0,0.0,1468.546309,1500.0,1000.0,1493.0,1506.0,1458.546309,15.73920421,16.12697649,15.89212952,15.83621676,16.22630507,15.97533083,16.36884477,155.0271372,155.0271372,11.73772112,-0.001262388,-0.005793034,0.00017701400000000002,-0.205452565,0.158643562,-0.005633074,3.0,1.5911182240000001,2.591118224,15,0,0,1,0,0.0,0,0,0,0,0,-0.12078387900000001,-0.127051895,1.047885476,1.065964877,0.986576427,307.6919606,46.42949365,-0.018828408999999997,5.93e-05,-0.031525469,0.0,-1.414224615,0.17817220399999997,-7.147809615,-2.46e+27,954.3423072999999,11.73753099,0.052188835999999995,-0.148551932,-0.110983496,-1.46996836,0.24359447899999997,-7.172975758,0.049032757,-0.139402423,-0.107710366,95.31456846,101.1425822,-2.61572759,-2.581819643,15.36854653,15.72712131,-0.007171495999999999,-0.259997938,-0.1,66.19811248,502.32617300000004,11.73754463,95435.16388,1.133927578,-0.15198066699999999,-0.398870344,-0.49060652,0.058611702,-0.12885219,-0.10060920599999999,-0.117696781,-0.137359657,1.044871887,0,0.865078204,-0.016666041,-0.088647716,0.49345439799999996,0.0,398708573.4,327450742.6,502823.4919,16.20040608,6.623004534,14.79063713,0.498839766,1.149682725,39.8714138,32.7368418,-60.73304676,704.9214921,-102.5723755,6.819767635,14.57969361,0.999246353,0.827903246,-1.329041779,2.5956793830000002,1.146473983,102.8098947,0.10356384699999999,-0.191654618,-0.12237373,0.0,0,0,1,0,0,,,,,
60978953,0.008895065,-0.06858557700000001,-0.062625059,0.0,0.0,1468.125425,1500.0,1000.0,1493.874575,1505.125425,1461.376275,15.75926908,16.14746178,15.87297078,15.81708565,16.20665427,15.96186414,16.35499713,154.79966059999998,154.79966059999998,11.73812961,-0.001263019,-0.00579311,0.000177337,-0.20545278100000003,0.158647402,-0.005542371,3.0,1.594518904,2.594518904,15,0,0,1,0,0.0,0,0,0,0,0,-0.11721813,-0.129276592,1.047009697,1.065832924,1.0248924240000001,307.0277345,46.33011295,-0.018774617,3.41e-06,-0.031594842000000005,0.0,-1.430182239,0.206109276,-7.20154481,-2.46e+27,954.3514777,11.73775545,0.043299603,-0.138547556,-0.11506057300000001,-1.4273935480000002,0.122061155,-7.2265972529999996,0.047279064,-0.139236959,-0.110968165,95.20500508,101.0463562,-2.604714266,-2.635877393,15.3684718,15.73897265,-0.007410021,-0.223396572,-0.1,65.99894847,502.3360699,11.73777422,95435.04448,1.133926252,-0.37553541100000004,-0.0586726,0.077731365,0.055423179,-0.134137206,-0.112420104,-0.110307062,-0.136281964,1.047102043,0,0.864600137,-0.013640056999999999,-0.08637360699999999,0.49478886200000005,0.0,398708597.7,327450814.0,502807.0558,16.15831366,6.657079389,14.7244919,0.61910382,1.14611443,39.8714138,32.7368418,-60.44378453,705.5409546,-102.529904,6.857366128,14.52576055,1.110520525,0.887019714,-1.271413835,2.512238296,1.14252854,102.7674224,0.09903472,-0.176836484,-0.119878956,0.0,0,0,1,0,0,,,,,
61015690,0.013099013999999999,-0.072688285,-0.061371547,0.0,0.0,1468.0,1500.0,1000.0,1494.0,1505.0,1463.0,15.68032026,16.06653144,15.85381204,15.79795454,16.18700347,15.94839745,16.3411495,154.57218410000002,154.57218410000002,11.7385381,-0.001263651,-0.005793186,0.00017766,-0.205452998,0.158651243,-0.0054516669999999995,3.0,1.597919584,2.597919584,15,0,0,1,0,0.0,0,0,0,0,0,-0.113652382,-0.131501289,1.046133919,1.06570097,1.063208422,306.36350830000003,46.23073225,-0.018734171,-5.27e-05,-0.031623063,0.0,-1.419731861,0.187049424,-7.240609104,-2.46e+27,954.3596583999998,11.7380063,0.053470922000000004,-0.140467898,-0.124913051,-1.3080016,0.18904437,-7.2189179999999995,0.047888679,-0.138665895,-0.115539819,95.0874513,100.9356377,-2.594729937,-2.684406417,15.368364499999998,15.7553577,-0.00773987,-0.188058542,-0.1,65.78660393,502.15279789999994,11.73806451,95437.11206,1.1339507690000001,-0.328781085,0.16844291600000003,-0.129075596,0.051521158,-0.12778397800000002,-0.117917905,-0.11318042699999999,-0.137111256,1.04126107,0,0.8660096629999999,-0.014930798,-0.087399115,0.49210307600000003,0.0,398708622.0,327450884.4,502782.8118,16.12015803,6.6911542310000005,14.66425192,0.730838168,1.14266065,39.8714138,32.7368418,-60.15284378,706.1584897000001,-102.48281870000001,6.895563835,14.47364978,1.218966239,0.912008783,-1.219725309,2.449670447,1.138321221,102.720337,0.10596531199999999,-0.178971905,-0.11524380599999999,0.0,0,0,1,0,0,,,,,
61052426,0.014197046000000001,-0.074946773,-0.060229577,0.0,0.0,1469.0,1500.0,1000.0,1493.0,1506.0,1462.283657,15.66620832,16.05194578,15.8346533,15.77882343,16.16735266,15.93493075,16.32730186,154.3447076,154.3447076,11.73894659,-0.001264282,-0.005793261,0.000177983,-0.205453214,0.158655083,-0.005360963000000001,3.0,1.6013202640000002,2.601320264,15,0,0,1,0,0.0,0,0,0,0,0,-0.110086633,-0.133725986,1.04525814,1.065569017,1.101524419,305.69928219999997,46.13135155,-0.018680573,-0.000119567,-0.031576866,0.0,-1.373563748,0.10442460699999999,-7.259830496,-2.46e+27,954.3665005,11.73829285,0.054728238,-0.127800356,-0.128660871,-1.411514335,0.221191677,-7.388985005,0.051694748,-0.137546243,-0.121888507,94.96488898,100.81583509999999,-2.585390601,-2.729469939,15.36823678,15.77458457,-0.008126961,-0.153512392,-0.1,65.5659976,502.19768610000006,11.73834538,95436.59904,1.1339447809999998,-0.286472683,-0.478333513,-0.165638291,0.05507359,-0.126185181,-0.125421939,-0.10586299,-0.139699826,1.043500828,0,0.86546128,-0.011021025,-0.086726883,0.493283629,0.0,398708646.5,327450952.7,502742.5233,16.09009202,6.725229046,14.6161465,0.8250450090000001,1.139442184,39.8714138,32.7368418,-59.85963276,706.7734181,-102.42949300000001,6.934571999,14.42400373,1.323586367,0.8908393659999999,-1.176070054,2.415334374,1.133759706,102.6670122,0.11214192,-0.16449471599999999,-0.107854867,0.0,0,0,1,0,0,,,,,
61101164,0.010997814,-0.060534067999999996,-0.05961668,0.0,0.0,1469.0,1500.0,1000.0,1492.274455,1506.725545,1461.686137,15.567261300000002,15.95058074,15.81549456,15.75969232,16.14770186,15.92146406,16.31345422,154.1172311,154.1172311,11.73935508,-0.001264913,-0.005793337,0.00017830599999999998,-0.20545343,0.158658923,-0.005270259,3.0,1.604720944,2.604720944,15,0,0,1,0,0.0,0,0,0,0,0,-0.106520885,-0.13595068300000002,1.044382361,1.065437063,1.139840416,305.0350561,46.03197085,-0.018642459,-0.00013424299999999998,-0.031489746,0.0,-1.327395635,0.021799791000000002,-7.279051888,-2.46e+27,954.3733425,11.7385794,0.055024373,-0.12795086,-0.13030731199999998,-1.407430961,0.207066169,-7.367291061,0.055500817,-0.13642659099999999,-0.128237194,94.84232667,100.6960325,-2.576051266,-2.7745334610000003,15.36810907,15.79381144,-0.008514051,-0.11896624300000001,-0.1,65.34539128,502.1113977,11.73866931,95437.58914,1.13395652,0.26274256,0.7931717779999999,0.061148167,0.060161147000000005,-0.116130295,-0.12892519,-0.104811421,-0.142924198,1.04079784,0,0.866071285,-0.009876799999999998,-0.08783990800000001,0.492032597,0.0,398708670.9,327451021.1,502702.2348,16.06002601,6.759303861,14.56804107,0.91925185,1.136223717,39.8714138,32.7368418,-59.56642174,707.3883463999999,-102.37616740000001,6.973580162999999,14.37435769,1.428206495,0.869669949,-1.132414798,2.380998301,1.129198191,102.6136874,0.097622129,-0.163525054,-0.11199656,0.0,0,0,1,0,0,,,,,
61141901,0.014014553,-0.059509998,-0.057681927,0.0,0.0,1470.0,1500.0,1000.0,1493.0,1506.0,1465.0,15.65877695,16.04427694,15.79633583,15.74056121,16.12805106,15.90799737,16.29960658,153.88975449999998,153.88975449999998,11.73976357,-0.001265544,-0.005793413000000001,0.00017862900000000003,-0.205453647,0.158662764,-0.005179555,3.0,1.608121624,2.6081216240000002,15,0,0,1,0,0.0,0,0,0,0,0,-0.102955136,-0.13817538,1.0435065829999999,1.06530511,1.178156413,304.3708299,45.93259015,-0.018601821,-0.00015059,-0.031358177,0.0,-1.33862841,0.12478955900000001,-7.3592591810000005,-2.46e+27,954.3805637,11.73902459,0.054347974,-0.12521291699999998,-0.128965729,-1.369303203,0.163179134,-7.365817722,0.057069182,-0.129305922,-0.130867999,94.71976435,100.57622990000002,-2.56671193,-2.8195969830000003,15.36798136,15.81303832,-0.008901141999999999,-0.084420094,-0.1,65.12478495,502.1683179,11.7390339,95436.96516,1.133948977,0.45861295700000004,0.041208403,-0.192959708,0.053666143,-0.11773231599999999,-0.13137839699999998,-0.100463581,-0.144466449,1.0406449009999998,0,0.8661055120000001,-0.007618206999999999,-0.087437389,0.49209178600000003,0.0,398708695.4,327451089.4,502661.9464,16.02995999,6.793378676000001,14.51993565,1.013458692,1.133005251,39.8714138,32.7368418,-59.29150773,707.9521526000001,-102.3178197,7.009832481,14.33095843,1.520253214,0.8965350320000001,-1.080719201,2.339789795,1.1249213390000001,102.5553397,0.105305379,-0.155318603,-0.105115949,0.0,0,0,1,0,0,,,,,
61178637,0.007803226,-0.062306899000000006,-0.058842995999999995,0.0,0.0,1470.0,1500.0,1000.0,1492.0,1507.0,1467.021004,15.68060267,16.06672785,15.77717709,15.72143009,16.10840026,15.89453067,16.28575895,153.66227800000001,153.66227800000001,11.74017206,-0.0012661760000000002,-0.005793489000000001,0.00017895200000000002,-0.20545386300000001,0.15866660400000002,-0.0050888520000000005,3.0,1.611522304,2.611522304,15,0,0,1,0,0.0,0,0,0,0,0,-0.099389387,-0.14040007699999998,1.042630804,1.065173157,1.21647241,303.70660380000004,45.83320945,-0.018556479,-0.000174632,-0.031171287000000002,0.0,-1.351213486,0.232152203,-7.440903235,-2.46e+27,954.3877937999999,11.73947351,0.057930359,-0.125526627,-0.140466705,-1.4508885809999998,0.163336919,-7.436934865,0.058584829000000005,-0.122043875,-0.133411214,94.59720204,100.45642740000001,-2.5573725940000003,-2.864660505,15.36785364,15.83226519,-0.009288233,-0.049873945,-0.1,64.90417863,502.1429608,11.73939768,95437.23982999999,1.133952274,0.453261278,0.10115567199999999,-0.45326895799999994,0.05861672,-0.114150019,-0.131568842,-0.094194662,-0.142088036,1.0421406579999999,0,0.865802544,-0.0054322780000000005,-0.084873239,0.493102928,0.0,398708719.8,327451157.8,502621.6579,15.99989398,6.827453491,14.47183023,1.107665533,1.129786784,39.8714138,32.7368418,-59.01702477,708.5147545,-102.2593537,7.046019874,14.28770635,1.6120037180000002,0.924531755,-1.028834183,2.298419381,1.1206511940000001,102.49687370000001,0.11283292,-0.149275818,-0.09862887199999999,0.0,0,0,1,0,0,,,,,
61219375,0.011231662,-0.063653115,-0.057504432,0.0,0.0,1470.3998800000002,1500.0,1000.0,1495.2002400000001,1503.7997599999999,1468.59952,15.48325298,15.86447096,15.75801835,15.70229898,16.08874945,15.88106398,16.27191131,153.4348015,153.4348015,11.74058055,-0.001266807,-0.005793565,0.000179275,-0.20545407899999998,0.158670445,-0.004998148,3.0,1.614922985,2.614922985,15,0,0,1,0,0.0,0,0,0,0,0,-0.095823639,-0.142624774,1.041755025,1.065041203,1.254788407,303.0423776,45.73382875,-0.018512615,-0.00019909900000000003,-0.030983788999999998,0.0,-1.350445255,0.21684508800000002,-7.5221998260000005,-2.46e+27,954.3982754000001,11.73990925,0.064099154,-0.12050957300000001,-0.130003574,-1.452174261,0.15789226,-7.501287485,0.05937664,-0.11708416199999999,-0.13034062,94.48322784,100.3404979,-2.545398308,-2.90009765,15.36777284,15.85250856,-0.009694717,-0.022635105,-0.1,64.70349707,501.8823448,11.73980741,95440.25384,1.133988096,0.099120048,0.022344865,-0.307719338,0.055494098,-0.11222145300000001,-0.134371101,-0.09205438199999999,-0.14371576,1.04034324,0,0.866213111,-0.00417454,-0.08504015,0.492356147,0.0,398708744.9,327451226.7,502574.995,15.97186237,6.864240848,14.42440288,1.2066193170000001,1.126438122,39.8714138,32.7368418,-58.72886953,709.0995872000001,-102.1935812,7.084803675,14.24472021,1.7041078840000001,0.94623462,-0.989132459,2.253142539,1.116319801,102.4311012,0.10441068099999999,-0.135666854,-0.09777092400000001,0.0,0,0,1,0,0,,,,,
61260112,0.012283792,-0.049826639000000006,-0.053586425,0.0,0.0,1471.0,1500.0,1000.0,1493.179236,1505.820764,1470.179236,15.58188935,15.96526792,15.73885961,15.68316787,16.06909865,15.86759729,16.25806367,153.2073249,153.2073249,11.74098904,-0.001267438,-0.0057936409999999995,0.000179598,-0.205454295,0.158674285,-0.004907444,3.0,1.618323665,2.618323665,15,0,0,1,0,0.0,0,0,0,0,0,-0.09198103099999999,-0.143705829,1.041315493,1.064970851,1.273537265,302.3849861,45.67429047,-0.01846823,-0.000174534,-0.030763268,0.0,-1.33778269,0.09227102,-7.603186918,-2.46e+27,954.4116531999999,11.74033326,0.05995851,-0.115160756,-0.126236989,-1.418510876,0.1432254,-7.554542342,0.059523701,-0.114175231,-0.12226957699999999,94.37386893,100.22664990000001,-2.532007988,-2.930361535,15.36771724,15.873298199999999,-0.010111623,0.000676752,-0.1,64.51352316,502.0330722,11.74022961,95438.46668,1.1339669159999999,0.458232525,0.05719988,0.605718501,0.056908420999999994,-0.10778427300000001,-0.12582928699999998,-0.092177779,-0.146365475,1.036761136,0,0.8670423890000001,-0.003722734,-0.08620838900000001,0.490697812,0.0,398708771.1,327451296.9,502515.8652,15.94780956,6.906333267000001,14.37830166,1.314856945,1.122834831,39.8714138,32.7368418,-58.42853581,709.7042217999999,-102.1213003,7.125900202,14.20197097,1.796527072,0.9623312909999999,-0.960282892,2.204386082,1.1119338509999999,102.3588203,0.113385976,-0.119551542,-0.08921749400000001,0.0,0,0,1,0,0,,,,,
61296848,0.011434604,-0.051434126,-0.05433865400000001,0.0,0.0,1472.0,1500.0,1000.0,1491.758352,1507.241648,1470.0,15.61654221,16.00091044,15.71970087,15.66403676,16.04944785,15.85413059,16.24421603,152.9798484,152.9798484,11.74139753,-0.001268069,-0.0057937169999999994,0.00017992,-0.205454512,0.158678126,-0.00481674,3.0,1.621724345,2.621724345,15,0,0,1,0,0.0,0,0,0,0,0,-0.08798473,-0.144152012,1.041118135,1.064934697,1.281423757,301.7313887,45.63687004,-0.018419088,-0.000139796,-0.030506462,0.0,-1.332737527,-0.019584386000000002,-7.68655481,-2.46e+27,954.4244434000001,11.74077134,0.052098984,-0.10722378099999999,-0.12373115900000001,-1.4325482630000002,0.15934678800000002,-7.5845921039999995,0.059548613,-0.111221553,-0.11443134599999999,94.26451002,100.11280190000001,-2.518617668,-2.96062542,15.36766164,15.89408785,-0.010528528999999998,0.02398861,-0.1,64.32354926,501.69991830000004,11.74069825,95442.28928,1.134012195,-0.086376052,-0.079021297,0.234926685,0.059302218,-0.09927755099999999,-0.127406133,-0.08707986,-0.149959709,1.037349315,0,0.866832149,-0.000595406,-0.086511959,0.49103651299999995,0.0,398708797.4,327451367.0,502456.7353,15.92375675,6.948425685,14.33220044,1.423094572,1.11923154,39.8714138,32.7368418,-58.12780671,710.3085131,-102.04828640000001,7.167131613,14.15955823,1.888335546,0.9766186570000001,-0.933442663,2.153059656,1.1076074390000001,102.28580629999999,0.104093837,-0.11956365699999999,-0.09105794699999999,0.0,0,0,1,0,0,,,,,
61337586,0.011115381,-0.051618425999999995,-0.052421293,0.0,0.0,1473.0,1500.0,1000.0,1493.0,1506.0,1476.0,15.47473492,15.85537432,15.70054213,15.64490565,16.02979704,15.8406639,16.2303684,152.7523719,152.7523719,11.74180602,-0.0012687010000000001,-0.005793793,0.000180243,-0.205454728,0.158681966,-0.004726035999999999,3.0,1.625125025,2.625125025,15,0,0,1,0,0.0,0,0,0,0,0,-0.083988429,-0.144598194,1.040920778,1.0648985420000001,1.2893102490000001,301.0777913,45.59944961,-0.018375858000000002,-0.00012642,-0.030288858999999998,0.0,-1.4143460840000002,0.013244617,-7.7970060960000005,-2.46e+27,954.4305502999998,11.74136956,0.059449361,-0.109669201,-0.11783305300000001,-1.4434573119999998,0.08620234800000001,-7.713879661,0.058183982,-0.10775885800000001,-0.109241521,94.15515111,99.9989539,-2.505227348,-2.990889305,15.36760604,15.91487749,-0.010945435,0.047300467,-0.1,64.13357536,501.7114467,11.74116588,95442.1768,1.134010892,0.545795124,-0.157036091,0.499016356,0.062220803,-0.096991064,-0.119301537,-0.083809668,-0.144765958,1.036470821,0,0.867154984,-0.000504284,-0.083462706,0.49098609299999996,0.0,398708823.7,327451437.2,502397.6055,15.89970394,6.9905181039999995,14.28609922,1.5313322,1.115628248,39.8714138,32.7368418,-57.82257979,710.9088995,-101.9669332,7.209897441,14.12097346,1.973196678,0.970323811,-0.929460188,2.072497874,1.103958308,102.20445140000001,0.109932277,-0.11975131,-0.086509195,0.0,0,0,1,0,0,,,,,
61374323,0.01113439,-0.044676894,-0.051300516,0.0,0.0,1474.0,1500.0,1000.0,1492.0,1507.0,1476.0,15.50400286,15.88541109,15.6813834,15.62577454,16.01014624,15.82719721,16.21652076,152.52489540000002,152.52489540000002,11.74221451,-0.001269332,-0.005793869,0.00018056599999999998,-0.20545494399999997,0.15868580699999998,-0.004635332,3.0,1.628525705,2.628525705,15,0,0,1,0,0.0,0,0,0,0,0,-0.079992128,-0.145044376,1.040723421,1.064862387,1.297196741,300.424194,45.56202918,-0.018331878,-0.00010990799999999999,-0.030074836,0.0,-1.49595464,0.04607362,-7.9074573820000005,-2.46e+27,954.4366571,11.74196778,0.05184114099999999,-0.105062915,-0.106322025,-1.427647864,0.129577258,-7.746558983,0.05681935,-0.10429616300000001,-0.104051695,94.04579220000001,99.88510589,-2.491837028,-3.0211531910000002,15.36755045,15.93566714,-0.011362341000000001,0.070612324,-0.1,63.94360145,501.5160453,11.74167407,95444.39283,1.134037271,0.075833312,0.808560425,-0.254650647,0.061365237,-0.096460158,-0.112837149,-0.079708414,-0.153555736,1.036332255,0,0.8669924309999999,0.0034476759999999998,-0.086254297,0.49078127,0.0,398708849.9,327451507.4,502338.4757,15.87565113,7.032610522000001,14.239998000000002,1.6395698269999999,1.112024957,39.8714138,32.7368418,-57.51735287,711.5092859,-101.88558,7.252663269,14.08238868,2.058057811,0.964028965,-0.9254777120000001,1.991936093,1.100309178,102.1230966,0.11656959,-0.09851402199999999,-0.077371585,0.0,0,0,1,0,0,,,,,
61411060,0.012843449,-0.045950239000000004,-0.050394785,0.0,0.0,1473.495699,1500.0,1000.0,1494.0,1505.0,1475.495699,15.54378438,15.92602331,15.66222466,15.60664343,15.99049544,15.81373051,16.20267312,152.2974188,152.2974188,11.742623,-0.001269963,-0.005793945,0.00018088900000000002,-0.20545516100000003,0.158689647,-0.0045446290000000006,3.0,1.631926385,2.631926385,15,0,0,1,0,0.0,0,0,0,0,0,-0.075995827,-0.14549055800000002,1.040526063,1.064826233,1.305083233,299.7705966,45.52460875,-0.018284611,-4.26e-05,-0.029844702,0.0,-1.507417676,0.047094404000000006,-7.977911872999999,-2.46e+27,954.4419601,11.74252672,0.06371979900000001,-0.106729053,-0.106145932,-1.506770713,0.05593073900000001,-7.786952672000001,0.059033987999999996,-0.10397555800000001,-0.100693602,93.92523546,99.75723883,-2.5002412119999997,-3.046430209,15.36745158,15.96115666,-0.011874108000000001,0.091988311,-0.1,63.74417651,501.5638403,11.74219434,95443.88485,1.13403124,0.019406416,-0.242846089,0.020144211000000002,0.06270123400000001,-0.092846673,-0.103672729,-0.075709169,-0.149181289,1.036010997,0,0.86716827,0.004083525,-0.08338559400000001,0.490967284,0.0,398708876.2,327451576.7,502272.2745,15.85509902,7.074002787,14.19529706,1.7401059209999998,1.108470549,39.8714138,32.7368418,-57.2090907,712.1078631,-101.7983922,7.295476987000001,14.04680454,2.138910048,0.974565372,-0.876809559,1.908860455,1.0969795709999999,102.03590799999999,0.108450996,-0.08629047699999999,-0.07652226,0.0,0,0,1,0,0,,,,,
61459593,0.015533027,-0.03901408,-0.047546262,0.0,0.0,1474.0,1500.0,1000.0,1492.0,1507.0,1474.0,15.55750756,15.94011081,15.64306592,15.58751232,15.97084464,15.80026382,16.18882548,152.0699423,152.0699423,11.74303149,-0.0012705939999999999,-0.005794021,0.000181212,-0.205455377,0.158693488,-0.004453925,3.0,1.635327065,2.635327065,15,0,0,1,0,0.0,0,0,0,0,0,-0.071999526,-0.145936741,1.040328706,1.064790078,1.312969725,299.1169992,45.48718831,-0.018235506000000002,-2.24e-06,-0.029653857999999998,0.0,-1.478161564,0.029650665,-8.02514841,-2.46e+27,954.4467965,11.74306285,0.060306578,-0.105754532,-0.099289145,-1.422467885,0.139494328,-7.949725906,0.063326375,-0.10547892199999999,-0.098398822,93.79955787,99.62296075,-2.518612204,-3.069426693,15.36733294,15.98879548,-0.012429255,0.112479008,-0.1,63.54042953,501.56172050000004,11.74273639,95443.8954,1.134031361,-0.056621383,0.249330579,-0.22029694,0.06327888400000001,-0.092238995,-0.098165259,-0.071409691,-0.152785148,1.036062944,0,0.86705696,0.0068415509999999995,-0.083885852,0.491042215,0.0,398708902.7,327451644.7,502192.9002,15.84106821,7.114090764,14.15320464,1.826295159,1.105007205,39.8714138,32.7368418,-56.89906657,712.7053902000001,-101.7078175,7.338318507,14.01296224,2.21743514,0.994872243,-0.8022015779999999,1.824325536,1.093835447,101.9453329,0.107808764,-0.08684406900000001,-0.074823905,0.0,0,0,1,0,0,,,,,
61496533,0.013775552,-0.032672856,-0.047088196,0.0,0.0,1476.0,1500.0,1000.0,1491.0,1508.0,1481.653931,15.518991199999999,15.90064781,15.62390718,15.56838121,15.95119383,15.78679713,16.17497785,151.8424658,151.8424658,11.74343998,-0.001271226,-0.0057940959999999994,0.000181535,-0.20545559300000002,0.158697328,-0.004363221,3.0,1.638727746,2.638727746,15,0,0,1,0,0.0,0,0,0,0,0,-0.068003225,-0.146382923,1.040131348,1.0647539240000001,1.320856217,298.46340180000004,45.44976788,-0.018186647,5.9499999999999996e-05,-0.029465734,0.0,-1.448005463,0.024925797000000003,-8.070434842000001,-2.46e+27,954.4550507000001,11.74360588,0.064977941,-0.0964368,-0.095391676,-1.4254265680000002,0.22493314399999997,-7.988882629,0.067207306,-0.10476083300000001,-0.095373189,93.67388029,99.48868267,-2.536983196,-3.0924231769999997,15.36721429,16.01643429,-0.012984403,0.132969704,-0.1,63.33668255,501.44674960000003,11.74329163,95445.22232999999,1.134047051,-0.052864474,0.43419032700000004,-0.41268088399999997,0.06491071400000001,-0.09165621199999999,-0.092877936,-0.067410344,-0.144898421,1.035932504,0,0.867259233,0.006617364000000001,-0.079492988,0.491416171,0.0,398708929.2,327451712.6,502113.5259,15.82703741,7.154178742,14.11111222,1.9124843969999998,1.101543861,39.8714138,32.7368418,-56.58817396,713.3022037999999,-101.6157112,7.381207236,13.97994317,2.2942492519999997,1.013483047,-0.739019315,1.732477442,1.09074127,101.8532265,0.113219344,-0.08690692900000001,-0.07022066099999999,0.0,0,0,1,0,0,,,,,
61538541,0.011955159,-0.032118675,-0.046316315,0.0,0.0,1476.0,1500.0,1000.0,1493.2330470000002,1505.7669529999998,1483.0,15.57603258,15.95901329,15.60474844,15.549250099999998,15.93154303,15.77333043,16.16113021,151.61498930000002,151.61498930000002,11.74384847,-0.001271857,-0.005794171999999999,0.000181858,-0.205455809,0.158701168,-0.004272517,3.0,1.642128426,2.6421284259999998,15,0,0,1,0,0.0,0,0,0,0,0,-0.064006924,-0.146829105,1.0399339909999998,1.064717769,1.3287427090000001,297.80980439999996,45.41234745,-0.018144246,0.000131858,-0.029299317000000002,0.0,-1.413874611,0.076373131,-8.107108737,-2.46e+27,954.4783994999999,11.74417939,0.058948092,-0.099321664,-0.079852214,-1.379492792,0.091974145,-7.900019524,0.06927106,-0.094231821,-0.08911978699999999,93.5482027,99.35440459,-2.555354187,-3.1154196610000002,15.36709564,16.04407311,-0.01353955,0.153460401,-0.1,63.13293557,501.2715745,11.7438803,95447.21325,1.134070735,0.16394378199999998,0.441505529,0.195401099,0.068538373,-0.089824659,-0.090098944,-0.063411371,-0.14495677099999998,1.0358070879999999,0,0.8672758429999999,0.00836113,-0.078537518,0.49151783,0.0,398708955.6,327451780.6,502034.1516,15.8130066,7.194266719,14.0690198,1.998673635,1.098080517,39.8714138,32.7368418,-56.27344576,713.8958665,-101.5168402,7.424304465,13.95055985,2.363506915,1.024603267,-0.726298117,1.6083311130000002,1.087867683,101.75435759999999,0.113049694,-0.066490504,-0.064812468,0.0,0,0,1,0,0,,,,,
