timestamp,timestamp_sample,control[0],control[1],control[2],control[3],control[4],control[5],control[6],control[7]
80000000,80000000,0.014645979,0.038944934,-0.002032794,0.15,0.33000016,0,0,0
80004000,80004000,0.015053821,0.03920009,-0.001834862,0.15,0.32000017,0,0,0
80008000,80008000,0.015931364,0.03946155,-0.002013896,0.15,0.31000018,0,0,0
80012000,80012000,0.01671443,0.03958481,-0.002118255,0.15,0.3000002,0,0,0
80016000,80016000,0.017190155,0.039597105,-0.002118943,0.15,0.2900002,0,0,0
80020000,80020000,0.017687801,0.039502807,-0.002267424,0.15,0.2800002,0,0,0
80024000,80024000,0.017930236,0.03914038,-0.002321437,0.15,0.27000022,0,0,0
80028000,80028000,0.017914614,0.03872933,-0.002247601,0.15,0.26000023,0,0,0
80032000,80032000,0.017713431,0.038497653,-0.002189194,0.15,0.25000024,0,0,0
80036000,80036000,0.0176611,0.038446274,-0.002244078,0.15,0.24000023,0,0,0
80040000,80040000,0.01722804,0.038590223,-0.00241947,0.15,0.23000023,0,0,0
80044000,80044000,0.016418649,0.038801722,-0.002730764,0.15,0.22000022,0,0,0
80052000,80052000,0.01622289,0.03901342,-0.002318383,0.15,0.20000021,0,0,0
80056000,80056000,0.016063008,0.039097745,-0.002182844,0.15,0.1900002,0,0,0
80060000,80060000,0.015931644,0.03922791,-0.002288962,0.15,0.1800002,0,0,0
80064000,80064000,0.016152997,0.039292436,-0.002389669,0.15,0.1700002,0,0,0
80068000,80068000,0.01673102,0.03929135,-0.002294481,0.15,0.16000019,0,0,0
80076000,80076000,0.016513186,0.03941453,-0.001831535,0.15,0.14000018,0,0,0
80080000,80080000,0.015872031,0.03939741,-0.001893719,0.15,0.13000017,0,0,0
80084000,80084000,0.016524345,0.039110344,-0.00198404,0.15,0.120000176,0,0,0
80088000,80088000,0.017823594,0.03890322,-0.002025197,0.15,0.11000018,0,0,0
80092000,80092000,0.017507093,0.038985893,-0.001993765,0.15,0.10000018,0,0,0
80096000,80096000,0.016091406,0.039246686,-0.001967687,0.15,0.09000018,0,0,0
80100000,80100000,0.015276223,0.039506305,-0.001944388,0.15,0.080000184,0,0,0
80104000,80104000,0.014899426,0.039512996,-0.00195978,0.15,0.07000019,0,0,0
80108000,80108000,0.014189653,0.03927268,-0.001990953,0.15,0.06000019,0,0,0
80112000,80112000,0.013276974,0.039172255,-0.002013229,0.15,0.05000019,0,0,0
80116000,80116000,0.013186022,0.03934648,-0.002122057,0.15,0.040000193,0,0,0
80120000,80120000,0.014119772,0.039480723,-0.002107503,0.15,0.030000193,0,0,0
80124000,80124000,0.015616759,0.039464016,-0.002229915,0.15,0.020000193,0,0,0
80132000,80132000,0.017389296,0.03944731,-0.002430167,0.15,1.94E-07,0,0,0
80136000,80136000,0.01936575,0.03953304,-0.002516309,0.15,0,0,0,0
80140000,80140000,0.018113427,0.03951069,-0.002265522,0.15,0,0,0,0
80144000,80144000,0.016799359,0.039492216,-0.002034348,0.15,0,0,0,0
80148000,80148000,0.015943687,0.03966222,-0.001955912,0.15,0,0,0,0
80152000,80152000,0.015198813,0.039701648,-0.002107381,0.15,0,0,0,0
80156000,80156000,0.014126052,0.039361108,-0.002296977,0.15,0,0,0,0
80160000,80160000,0.013589857,0.039054684,-0.002379188,0.15,0,0,0,0
80164000,80164000,0.015236021,0.038894746,-0.002521982,0.15,0,0,0,0
80172000,80172000,0.017072098,0.038728673,-0.00247793,0.15,0,0,0,0
80176000,80176000,0.015174119,0.038715225,-0.002536895,0.15,0,0,0,0
80180000,80180000,0.014024703,0.038902692,-0.002849274,0.15,0,0,0,0
80184000,80184000,0.014020599,0.03918595,-0.003121577,0.15,0,0,0,0
80188000,80188000,0.014825494,0.039299596,-0.003106322,0.15,0,0,0,0
80192000,80192000,0.016391473,0.03924046,-0.00275017,0.15,0,0,0,0
80200000,80200000,0.018717118,0.0390015,-0.002066108,0.15,0,0,0,0
80204000,80204000,0.018746745,0.03901333,-0.002064812,0.15,0,0,0,0
80208000,80208000,0.018502532,0.039105114,-0.002278985,0.15,0,0,0,0
80212000,80212000,0.017341726,0.038954195,-0.002318761,0.15,0,0,0,0
80216000,80216000,0.016879499,0.038805187,-0.002357369,0.15,0,0,0,0
80220000,80220000,0.016794877,0.038769074,-0.002170317,0.15,0,0,0,0
80224000,80224000,0.016515855,0.03885045,-0.002027843,0.15,0,0,0,0
80228000,80228000,0.016130125,0.03890433,-0.002201474,0.15,0,0,0,0
80232000,80232000,0.016023088,0.03882198,-0.002490708,0.15,0,0,0,0
80236000,80236000,0.016141564,0.038686354,-0.002708765,0.15,0,0,0,0
80240000,80240000,0.016001169,0.03870448,-0.002775477,0.15,0,0,0,0
80244000,80244000,0.015185192,0.039021693,-0.002543103,0.15,0,0,0,0
80248000,80248000,0.014098139,0.039403785,-0.002280469,0.15,0,0,0,0
80252000,80252000,0.013710359,0.039508104,-0.002186867,0.15,0,0,0,0
80256000,80256000,0.014595488,0.039485022,-0.002235127,0.15,0,0,0,0
80260000,80260000,0.011703575,0.039597496,-0.000438058,0,0,0,0,0
80264000,80264000,0.011531967,0.039762363,-0.000290747,0,0,0,0,0
80268000,80268000,0.011271575,0.03987252,-0.000301716,0,0,0,0,0
80272000,80272000,0.011715272,0.039909057,-0.000776251,0,0,0,0,0
80276000,80276000,0.011858727,0.03985682,-0.00094796,0,0,0,0,0
80280000,80280000,0.011719421,0.039646517,-0.001127815,0,0,0,0,0
80284000,80284000,0.011721992,0.039645094,-0.001147008,1,0,0,0,0
80292000,80292000,0.011827685,0.03936652,-0.001075577,1,0,0,0,0
80296000,80296000,0.010505329,0.03935065,-0.000189432,1,0,0,0,0
80300000,80300000,0.009961707,0.0391548,0.000558615,1,0,0,0,0
80308000,80308000,0.011589883,0.03941828,0.001372984,1,0,0,0,0
80312000,80312000,0.011957929,0.03968709,0.000966829,1,0,0,0,0
80316000,80316000,0.01173471,0.03984012,-0.000170504,1,0,0,0,0
80324000,80324000,0.011008347,0.039775636,-0.000928015,1,0,0,0,0
80328000,80328000,0.010989958,0.039331947,7.08E-05,1,0,0,0,0
80332000,80332000,0.01148372,0.039056454,0.001376909,1,0,0,0,0
80336000,80336000,0.012428129,0.03896566,0.001551801,1,0,0,0,0
80340000,80340000,0.013029623,0.0388157,0.000592914,1,0,0,0,0
80348000,80348000,0.012494317,0.038509455,0.000190836,1,0,0,0,0
80356000,80356000,0.011347495,0.03841477,0.000398121,1,0,0,0,0
80360000,80360000,0.012569683,0.039098848,0.001180664,1,0,0,0,0
80364000,80364000,0.012886718,0.039414257,0.001118825,1,0,0,0,0
80368000,80368000,0.012667204,0.039376426,0.001098067,1,0,0,0,0
80372000,80372000,0.012654175,0.039242305,0.001521295,1,0,0,0,0
80376000,80376000,0.012790962,0.039090913,0.001562637,1,0,0,0,0
80380000,80380000,0.012475218,0.03897679,0.000575882,1,0,0,0,0
80384000,80384000,0.012090177,0.03900598,-0.000742051,1,0,0,0,0
80388000,80388000,0.012560655,0.039080672,-0.00151768,1,0,0,0,0
80392000,80392000,0.012873468,0.03912432,-0.001657355,1,0,0,0,0
80396000,80396000,0.012068511,0.038991686,-0.001908388,1,0,0,0,0
80404000,80404000,0.011073897,0.038718022,-0.002901829,1,0,0,0,0
80408000,80408000,0.011245053,0.038599234,-0.001773233,1,0,0,0,0
80412000,80412000,0.01230915,0.038580585,-3.33E-05,1,0,0,0,0
80416000,80416000,0.012737724,0.038625143,0.001161982,1,0,0,0,0
80420000,80420000,0.0124331,0.038837336,0.002103612,1,0,0,0,0
80424000,80424000,0.0121764,0.039028622,0.00330504,1,0,0,0,0
80428000,80428000,0.011577482,0.03892461,0.004063401,1,0,0,0,0
80432000,80432000,0.010903472,0.038541306,0.003523125,1,0,0,0,0
80436000,80436000,0.011087384,0.03827413,0.002350494,1,0,0,0,0
80440000,80440000,0.0121327,0.03836434,0.002129577,1,0,0,0,0
80444000,80444000,0.013163189,0.03870777,0.002128102,1,0,0,0,0
80452000,80452000,0.012446345,0.03906747,0.000993106,1,0,0,0,0
80456000,80456000,0.012973506,0.03913126,0.000808792,1,0,0,0,0
80460000,80460000,0.013869248,0.039308317,0.001383503,1,0,0,0,0
80468000,80468000,0.013782994,0.03938383,0.002400949,1,0,0,0,0
80472000,80472000,0.012834522,0.039089963,0.002957777,1,0,0,0,0
80476000,80476000,0.012848988,0.03910816,0.002991414,1,0,0,0,0
80480000,80480000,0.013102281,0.039244343,0.001606639,1,0,0,0,0
80484000,80484000,0.013112793,0.039273016,0.001587408,1,0,0,0,0
80488000,80488000,0.012313616,0.039537985,0.000515737,1,0,0,0,0
80492000,80492000,0.0108849,0.03947705,-0.000325912,1,0,0,0,0
80496000,80496000,0.009985438,0.039241992,-0.001394153,1,0,0,0,0
80500000,80500000,0.010018899,0.039216097,-0.001519155,1,0,0,0,0
80504000,80504000,0.012386115,0.038626987,-0.002270557,1,0,0,0,0
80508000,80508000,0.012367474,0.03859436,-0.002344956,1,0,0,0,0
80512000,80512000,0.012157219,0.038393237,-0.00207165,1,0,0,0,0
80516000,80516000,0.011272102,0.0385658,-0.000677176,1,0,0,0,0
80520000,80520000,0.01080257,0.038951587,-0.000220115,1,0,0,0,0
80524000,80524000,0.010950621,0.03916753,-0.00041573,1,0,0,0,0
80532000,80532000,0.011951936,0.039035976,-0.000958104,1,0,0,0,0
80540000,80540000,0.011545216,0.039102785,-0.000932283,1,0,0,0,0
80548000,80548000,0.012292611,0.039257605,-0.000223609,1,0,0,0,0
80552000,80552000,0.013175354,0.039327096,5.02E-05,1,0,0,0,0
80556000,80556000,0.014427296,0.039451383,0.000136571,1,0,0,0,0
80560000,80560000,0.01522682,0.039499413,2.47E-05,1,0,0,0,0
80564000,80564000,0.014894977,0.03937373,-0.000172051,1,0,0,0,0
80568000,80568000,0.013758352,0.039238676,-0.00015951,1,0,0,0,0
80572000,80572000,0.012219996,0.039314054,7.80E-05,1,0,0,0,0
80576000,80576000,0.010691732,0.03942589,0.000396032,1,0,0,0,0
80580000,80580000,0.010682243,0.039416797,0.000497489,1,0,0,0,0
80584000,80584000,0.01032546,0.03914602,0.001120296,1,0,0,0,0
80588000,80588000,0.010303739,0.039131377,0.001072547,1,0,0,0,0
80592000,80592000,0.009565043,0.03671029,-2.24E-05,1,0,0,0,0
80596000,80596000,0.009916188,0.03671645,-0.000533663,1,0,0,0,0
80600000,80600000,0.010650978,0.03665608,-0.000468948,1,0,0,0,0
80604000,80604000,0.010940549,0.036691487,-0.000329468,1,0,0,0,0
80612000,80612000,0.011064807,0.036771603,-0.000324838,1,0,0,0,0
80620000,80620000,0.00996854,0.0363859,-0.000335591,1,0,0,0,0
80624000,80624000,0.010636675,0.03644129,-0.000173829,1,0,0,0,0
80628000,80628000,0.011896178,0.03658929,-0.000191714,1,0,0,0,0
80636000,80636000,0.012248268,0.03713208,0.000255545,1,0,0,0,0
80640000,80640000,0.010739424,0.037017476,0.000504806,1,0,0,0,0
80644000,80644000,0.009486611,0.036734,0.000568171,1,0,0,0,0
80648000,80648000,0.00916436,0.036537427,0.000378186,1,0,0,0,0
80652000,80652000,0.009533541,0.03659285,0.00021464,1,0,0,0,0
80656000,80656000,0.009542418,0.036847588,0.000183723,1,0,0,0,0
80660000,80660000,0.008839507,0.03704976,6.00E-05,1,0,0,0,0
80664000,80664000,0.008556235,0.037042666,-3.02E-05,1,0,0,0,0
80668000,80668000,0.009090523,0.036886726,3.78E-05,1,0,0,0,0
80672000,80672000,0.009773571,0.036734477,-4.18E-06,1,0,0,0,0
80676000,80676000,0.009796007,0.03672376,-9.55E-06,1,0,0,0,0
80680000,80680000,0.010738508,0.036639296,-7.61E-05,1,0,0,0,0
80684000,80684000,0.01237788,0.036747776,0.000115341,1,0,0,0,0
80688000,80688000,0.012619152,0.036863882,0.000220408,1,0,0,0,0
80692000,80692000,0.008284023,0.027392717,0.000268326,1,0,0,0,0
80696000,80696000,0.008025658,0.027275575,0.000225293,1,0,0,0,0
80700000,80700000,0.007736736,0.02712323,0.000205949,1,0,0,0,0
80704000,80704000,0.007748939,0.027081031,0.000250833,1,0,0,0,0
80708000,80708000,0.007663482,0.02718743,0.000358696,1,0,0,0,0
80712000,80712000,0.006862044,0.027270732,0.000464443,1,0,0,0,0
80716000,80716000,0.006041415,0.027261198,0.000343146,1,0,0,0,0
80720000,80720000,0.006063822,0.027257094,9.00E-05,1,0,0,0,0
80724000,80724000,0.00680847,0.027213948,-4.44E-05,1,0,0,0,0
80728000,80728000,0.007721419,0.026987163,-7.10E-05,1,0,0,0,0
80732000,80732000,0.008247574,0.026771314,-1.99E-05,1,0,0,0,0
80740000,80740000,0.008013216,-0.3198212,4.06E-05,1,0,0,0,0
80748000,80748000,0.006947957,-0.31978002,-0.000193028,1,0,0,0,0
80752000,80752000,0.006619244,-0.31990603,-0.000481349,1,0,0,0,0
80756000,80756000,0.006255467,-0.31992096,-0.001152319,1,0,0,0,0
80760000,80760000,0.005757484,-0.31990236,-0.002447447,1,0,0,0,0
80764000,80764000,0.005740616,-0.30562443,-0.00287611,1,0,0,0,0
80768000,80768000,0.004981717,-0.30518022,-0.006023071,1,0,0,0,0
80772000,80772000,0.004553811,-0.30493638,-0.00799681,1,0,0,0,0
80776000,80776000,0.003067625,-0.3048063,-0.009927125,1,0,0,0,0
80780000,80780000,0.000895181,-0.30469847,-0.012125524,1,0,0,0,0
80784000,80784000,-0.00073706,-0.3044512,-0.014124248,1,0,0,0,0
80788000,80788000,-0.000808288,-0.29084846,-0.01517988,1,0,0,0,0
80792000,80792000,-0.000887701,-0.24768963,-0.018490307,1,0,0,0,0
80796000,80796000,-0.001184188,-0.24734637,-0.020608893,1,0,0,0,0
80804000,80804000,-0.00337325,-0.2468514,-0.024590068,1,0,0,0,0
80808000,80808000,-0.003494497,-0.24677292,-0.025570102,1,0,0,0,0
80812000,80812000,-0.006392148,-0.2357064,-0.029037533,1,0,0,0,0
80816000,80816000,-0.008034879,-0.235686,-0.030962875,1,0,0,0,0
80820000,80820000,-0.009662241,-0.2356995,-0.03321185,1,0,0,0,0
80824000,80824000,-0.011329519,-0.2357042,-0.034745917,1,0,0,0,0
80828000,80828000,-0.012939617,-0.23570435,-0.036755305,1,0,0,0,0
80832000,80832000,-0.014450314,-0.23565142,-0.03829216,1,0,0,0,0
80836000,80836000,-0.014660617,-0.22530419,-0.039943133,1,0,0,0,0
80840000,80840000,-0.016915936,-0.22512896,-0.042094026,1,0,0,0,0
80844000,80844000,-0.0180862,-0.22501689,-0.044054084,1,0,0,0,0
80848000,80848000,-0.019448519,-0.22501664,-0.045250773,1,0,0,0,0
80852000,80852000,-0.020730462,-0.2251011,-0.047094107,1,0,0,0,0
80856000,80856000,-0.022152005,-0.22520569,-0.048270784,1,0,0,0,0
80860000,80860000,-0.023912234,-0.21551265,-0.050046258,1,0,0,0,0
80864000,80864000,-0.025534062,-0.21554069,-0.051109158,1,0,0,0,0
80868000,80868000,-0.026951592,-0.21554127,-0.05289909,1,0,0,0,0
80872000,80872000,-0.028579718,-0.21558498,-0.054076716,1,0,0,0,0
80876000,80876000,-0.030234206,-0.21564168,-0.05582817,1,0,0,0,0
80880000,80880000,-0.03171929,-0.21570627,-0.056630358,1,0,0,0,0
80884000,80884000,-0.03339049,-0.2063848,-0.057958774,1,0,0,0,0
80888000,80888000,-0.035161324,-0.20633517,-0.058509417,1,0,0,0,0
80892000,80892000,-0.02989936,-0.18429942,-0.059747867,1,0,0,0,0
80896000,80896000,-0.031332992,-0.184373,-0.060210254,1,0,0,0,0
80900000,80900000,-0.032847952,-0.18458317,-0.061245352,1,0,0,0,0
80904000,80904000,-0.03437911,-0.18485351,-0.061516047,1,0,0,0,0
80908000,80908000,-0.035782974,-0.1771984,-0.062419444,1,0,0,0,0
80912000,80912000,-0.037058998,-0.17742263,-0.06247054,1,0,0,0,0
80920000,80920000,-0.038982093,-0.17761762,-0.06362534,1,0,0,0,0
80928000,80928000,-0.0435292,-0.17820986,-0.06350136,1,0,0,0,0
80932000,80932000,-0.045077648,-0.17079481,-0.063904665,1,0,0,0,0
80940000,80940000,-0.047987517,-0.17100799,-0.06398957,1,0,0,0,0
80944000,80944000,-0.04926054,-0.17109695,-0.06353579,1,0,0,0,0
80948000,80948000,-0.05084989,-0.17121722,-0.06357746,1,0,0,0,0
80952000,80952000,-0.052597348,-0.17132801,-0.06296721,1,0,0,0,0
80956000,80956000,-0.053911284,-0.1641207,-0.06297223,1,0,0,0,0
80960000,80960000,-0.054706573,-0.16425508,-0.062440723,1,0,0,0,0
80964000,80964000,-0.055364467,-0.16426393,-0.06231443,1,0,0,0,0
80968000,80968000,-0.05642213,-0.16417424,-0.061458774,1,0,0,0,0
80972000,80972000,-0.05808455,-0.16413987,-0.06105429,1,0,0,0,0
80976000,80976000,-0.059798688,-0.16429986,-0.060138196,1,0,0,0,0
80980000,80980000,-0.060942225,-0.15745246,-0.05975055,1,0,0,0,0
80984000,80984000,-0.061617155,-0.15762772,-0.058856208,1,0,0,0,0
80988000,80988000,-0.062223338,-0.15769878,-0.058979332,1,0,0,0,0
80992000,80992000,-0.05465322,-0.14534494,-0.05728092,1,0,0,0,0
81000000,81000000,-0.056493457,-0.1452261,-0.055410653,1,0,0,0,0
81004000,81004000,-0.05738185,-0.13888581,-0.05465327,1,0,0,0,0
81012000,81012000,-0.058757614,-0.1389803,-0.05328019,1,0,0,0,0
81016000,81016000,-0.060067043,-0.13896218,-0.051514845,1,0,0,0,0
81020000,81020000,-0.061037835,-0.13891415,-0.05055543,1,0,0,0,0
81028000,81028000,-0.063260816,-0.1329138,-0.048100404,1,0,0,0,0
81032000,81032000,-0.06416285,-0.1329752,-0.04674763,1,0,0,0,0
81036000,81036000,-0.064755335,-0.13297573,-0.04563008,1,0,0,0,0
81040000,81040000,-0.0652507,-0.13290489,-0.044209797,1,0,0,0,0
81044000,81044000,-0.06576654,-0.1328413,-0.043027822,1,0,0,0,0
81048000,81048000,-0.0661065,-0.13288273,-0.04152221,1,0,0,0,0
81052000,81052000,-0.066692084,-0.12698604,-0.040777586,1,0,0,0,0
81056000,81056000,-0.06684357,-0.12701698,-0.03885491,1,0,0,0,0
81060000,81060000,-0.067339435,-0.12691358,-0.037661146,1,0,0,0,0
81068000,81068000,-0.068365395,-0.12667397,-0.035268728,1,0,0,0,0
81072000,81072000,-0.06897266,-0.12664911,-0.03384408,1,0,0,0,0
81076000,81076000,-0.069421224,-0.12081523,-0.032460764,1,0,0,0,0
81080000,81080000,-0.06965274,-0.12074397,-0.0309694,1,0,0,0,0
81084000,81084000,-0.06981871,-0.12068811,-0.029694326,1,0,0,0,0
81088000,81088000,-0.06993327,-0.12056087,-0.028281908,1,0,0,0,0
81092000,81092000,-0.063747704,-0.11394461,-0.027019136,1,0,0,0,0
81096000,81096000,-0.064342864,-0.11381464,-0.025653796,1,0,0,0,0
81100000,81100000,-0.065118216,-0.108430244,-0.024436481,1,0,0,0,0
81104000,81104000,-0.065554276,-0.10836188,-0.023087922,1,0,0,0,0
81108000,81108000,-0.06606608,-0.10832649,-0.021992456,1,0,0,0,0
81112000,81112000,-0.06565125,-0.108335525,-0.020333823,1,0,0,0,0
81120000,81120000,-0.065738685,-0.10834454,-0.017730726,1,0,0,0,0
81124000,81124000,-0.06624171,-0.10313375,-0.016621487,1,0,0,0,0
81128000,81128000,-0.06613604,-0.10304693,-0.015303309,1,0,0,0,0
81132000,81132000,-0.06643716,-0.102988884,-0.014081203,1,0,0,0,0
81140000,81140000,-0.06718212,-0.10288834,-0.011624794,1,0,0,0,0
81144000,81144000,-0.067501135,-0.10288541,-0.010245546,1,0,0,0,0
81148000,81148000,-0.06811709,-0.09791784,-0.009065461,1,0,0,0,0
81152000,81152000,-0.068376474,-0.098031074,-0.007911523,1,0,0,0,0
81156000,81156000,-0.06886262,-0.098023966,-0.00679874,1,0,0,0,0
81160000,81160000,-0.0686562,-0.09810974,-0.005758527,1,0,0,0,0
81164000,81164000,-0.068619326,-0.098167434,-0.004626568,1,0,0,0,0
81168000,81168000,-0.06849112,-0.09827468,-0.003471588,1,0,0,0,0
81172000,81172000,-0.06856446,-0.09343715,-0.002379007,1,0,0,0,0
81176000,81176000,-0.06890711,-0.09355134,-0.001391769,1,0,0,0,0
81180000,81180000,-0.069322996,-0.093607225,-0.000405875,1,0,0,0,0
81184000,81184000,-0.06940409,-0.09361689,0.00057204,1,0,0,0,0
81188000,81188000,-0.069841586,-0.09367637,0.001623641,1,0,0,0,0
81192000,81192000,-0.069162406,-0.09389575,0.002400674,1,0,0,0,0
81196000,81196000,-0.06960369,-0.08907123,0.003405487,1,0,0,0,0
81200000,81200000,-0.069708765,-0.08929183,0.004078897,1,0,0,0,0
81204000,81204000,-0.0698507,-0.08942168,0.005001417,1,0,0,0,0
81208000,81208000,-0.07003292,-0.08956319,0.005859016,1,0,0,0,0
81212000,81212000,-0.070303105,-0.08975181,0.006703972,1,0,0,0,0
81216000,81216000,-0.07050536,-0.09000838,0.007456791,1,0,0,0,0
81220000,81220000,-0.070600905,-0.08549792,0.008197087,1,0,0,0,0
81224000,81224000,-0.07079513,-0.0857132,0.008849848,1,0,0,0,0
81228000,81228000,-0.07118143,-0.08593547,0.009559004,1,0,0,0,0
81236000,81236000,-0.07184771,-0.086612925,0.010767166,1,0,0,0,0
81240000,81240000,-0.071731515,-0.08689232,0.011224501,1,0,0,0,0
81244000,81244000,-0.07211804,-0.08236997,0.012002943,1,0,0,0,0
81248000,81248000,-0.071397565,-0.08277295,0.012173321,1,0,0,0,0
81252000,81252000,-0.071778804,-0.08297671,0.012901747,1,0,0,0,0
81256000,81256000,-0.07153066,-0.08317521,0.012732741,1,0,0,0,0
81260000,81260000,-0.07168102,-0.08290017,0.012218634,1,0,0,0,0
81264000,81264000,-0.071902215,-0.08252399,0.011506792,1,0,0,0,0
81268000,81268000,-0.07186653,-0.07764757,0.010987781,1,0,0,0,0
81272000,81272000,-0.07176385,-0.077554636,0.010593735,1,0,0,0,0
81276000,81276000,-0.0720112,-0.07755145,0.010380989,1,0,0,0,0
81280000,81280000,-0.072405234,-0.07762137,0.01023379,1,0,0,0,0
81284000,81284000,-0.0726736,-0.077738784,0.010076053,1,0,0,0,0
81288000,81288000,-0.07288967,-0.077897474,0.009818138,1,0,0,0,0
81292000,81292000,-0.07300708,-0.07345395,0.009513157,1,0,0,0,0
81296000,81296000,-0.07306453,-0.07357084,0.009062644,1,0,0,0,0
81300000,81300000,-0.07341031,-0.07361801,0.009073133,1,0,0,0,0
81304000,81304000,-0.07360812,-0.07368218,0.008070326,1,0,0,0,0
81308000,81308000,-0.07388867,-0.0737351,0.007558084,1,0,0,0,0
81312000,81312000,-0.07415021,-0.073835544,0.00706093,1,0,0,0,0
81316000,81316000,-0.07438371,-0.06942203,0.006528921,1,0,0,0,0
81324000,81324000,-0.074307725,-0.069833845,0.004942345,1,0,0,0,0
81328000,81328000,-0.07430561,-0.06999351,0.00412132,1,0,0,0,0
81332000,81332000,-0.07452302,-0.0700819,0.003346304,1,0,0,0,0
81336000,81336000,-0.07475606,-0.0702044,0.002592234,1,0,0,0,0
81340000,81340000,-0.07468557,-0.06587237,0.001878158,1,0,0,0,0
81344000,81344000,-0.07475816,-0.066046804,0.001184611,1,0,0,0,0
81348000,81348000,-0.0752506,-0.066272244,0.000460121,1,0,0,0,0
81352000,81352000,-0.07580739,-0.0665476,-0.00031737,1,0,0,0,0
81356000,81356000,-0.07612497,-0.06667231,-0.000864201,1,0,0,0,0
81360000,81360000,-0.07646159,-0.06711814,-0.002082546,1,0,0,0,0
81364000,81364000,-0.07649619,-0.06295619,-0.002944303,1,0,0,0,0
81372000,81372000,-0.07702617,-0.06364855,-0.004268253,1,0,0,0,0
81380000,81380000,-0.07776815,-0.06462996,-0.005462937,1,0,0,0,0
81384000,81384000,-0.07770147,-0.06511106,-0.006084143,1,0,0,0,0
81388000,81388000,-0.077684335,-0.061179336,-0.00679305,1,0,0,0,0
81392000,81392000,-0.0778568,-0.061662976,-0.007482674,1,0,0,0,0
81396000,81396000,-0.07783087,-0.062136233,-0.008186606,1,0,0,0,0
81400000,81400000,-0.07776354,-0.06261551,-0.008856347,1,0,0,0,0
81404000,81404000,-0.07804729,-0.06319802,-0.009466901,1,0,0,0,0
81408000,81408000,-0.078535505,-0.063904844,-0.00993753,1,0,0,0,0
81412000,81412000,-0.07898866,-0.06026844,-0.010407198,1,0,0,0,0
81416000,81416000,-0.07939177,-0.06095267,-0.010884021,1,0,0,0,0
81420000,81420000,-0.07963126,-0.061601967,-0.011427542,1,0,0,0,0
81424000,81424000,-0.07971285,-0.062271785,-0.011916753,1,0,0,0,0
81428000,81428000,-0.079644054,-0.063009605,-0.012369521,1,0,0,0,0
81432000,81432000,-0.07939586,-0.06378223,-0.012846159,1,0,0,0,0
81436000,81436000,-0.07927304,-0.06017588,-0.013399674,1,0,0,0,0
81440000,81440000,-0.079423666,-0.060883213,-0.013893737,1,0,0,0,0
81444000,81444000,-0.07962876,-0.06163733,-0.014334157,1,0,0,0,0
81448000,81448000,-0.07975088,-0.06242698,-0.014697505,1,0,0,0,0
81452000,81452000,-0.07993516,-0.06319556,-0.015066722,1,0,0,0,0
81460000,81460000,-0.080467865,-0.060240366,-0.016001632,1,0,0,0,0
81464000,81464000,-0.080740616,-0.06108816,-0.016306058,1,0,0,0,0
81468000,81468000,-0.081011996,-0.06175332,-0.016794512,1,0,0,0,0
81476000,81476000,-0.08133971,-0.063434884,-0.017340181,1,0,0,0,0
81480000,81480000,-0.081120774,-0.06436378,-0.017422216,1,0,0,0,0
81484000,81484000,-0.08107497,-0.060841918,-0.017708044,1,0,0,0,0
81488000,81488000,-0.08090231,-0.061620977,-0.018004542,1,0,0,0,0
81492000,81492000,-0.08077357,-0.062382124,-0.018398996,1,0,0,0,0
81496000,81496000,-0.08046798,-0.06309971,-0.018740982,1,0,0,0,0
81500000,81500000,-0.080154136,-0.06382312,-0.01898555,1,0,0,0,0
81504000,81504000,-0.08027887,-0.06459316,-0.019034345,1,0,0,0,0
81508000,81508000,-0.080619484,-0.061109934,-0.019135412,1,0,0,0,0
81512000,81512000,-0.08079441,-0.06185499,-0.01939923,1,0,0,0,0
81520000,81520000,-0.08098989,-0.06328565,-0.0200333,1,0,0,0,0
81524000,81524000,-0.08057116,-0.0639241,-0.020159665,1,0,0,0,0
81528000,81528000,-0.08048948,-0.06463354,-0.020348255,1,0,0,0,0
81532000,81532000,-0.080709554,-0.0611216,-0.020639028,1,0,0,0,0
81536000,81536000,-0.08053423,-0.061912354,-0.020529201,1,0,0,0,0
81540000,81540000,-0.080784574,-0.0626346,-0.020595172,1,0,0,0,0
81544000,81544000,-0.08096817,-0.06335702,-0.020658031,1,0,0,0,0
81548000,81548000,-0.08105165,-0.064060904,-0.020737793,1,0,0,0,0
81552000,81552000,-0.08101858,-0.064750485,-0.020745564,1,0,0,0,0
81556000,81556000,-0.08093733,-0.061265208,-0.020696519,1,0,0,0,0
81560000,81560000,-0.08096368,-0.06202315,-0.020596877,1,0,0,0,0
81564000,81564000,-0.08112658,-0.06271175,-0.020579446,1,0,0,0,0
81568000,81568000,-0.081236124,-0.063347794,-0.020582592,1,0,0,0,0
81572000,81572000,-0.08112262,-0.06394503,-0.020633128,1,0,0,0,0
81576000,81576000,-0.08094682,-0.06450632,-0.020711124,1,0,0,0,0
81580000,81580000,-0.08111108,-0.06083032,-0.020756625,1,0,0,0,0
81584000,81584000,-0.08151119,-0.06135371,-0.020678427,1,0,0,0,0
81588000,81588000,-0.0818037,-0.061874013,-0.020614713,1,0,0,0,0
81596000,81596000,-0.08160384,-0.06301382,-0.020516198,1,0,0,0,0
81600000,81600000,-0.081212446,-0.06364786,-0.020450199,1,0,0,0,0
81604000,81604000,-0.08093663,-0.05997599,-0.020475028,1,0,0,0,0
81612000,81612000,-0.08065639,-0.061097592,-0.020345375,1,0,0,0,0
81616000,81616000,-0.08069549,-0.061737597,-0.020261705,1,0,0,0,0
81620000,81620000,-0.0808474,-0.062326863,-0.020218512,1,0,0,0,0
81624000,81624000,-0.08115586,-0.062861845,-0.020136084,1,0,0,0,0
81628000,81628000,-0.08154494,-0.05916869,-0.020014316,1,0,0,0,0
81636000,81636000,-0.0820965,-0.06030025,-0.019798614,1,0,0,0,0
81640000,81640000,-0.08194616,-0.06069959,-0.019577665,1,0,0,0,0
81644000,81644000,-0.082104646,-0.061265267,-0.01954196,1,0,0,0,0
81648000,81648000,-0.081261575,-0.061516065,-0.019525025,1,0,0,0,0
81652000,81652000,-0.08085656,-0.05776672,-0.019398406,1,0,0,0,0
81660000,81660000,-0.08041382,-0.05868028,-0.01920123,1,0,0,0,0
81664000,81664000,-0.08054316,-0.059147384,-0.019141216,1,0,0,0,0
81668000,81668000,-0.080862485,-0.05960645,-0.019152425,1,0,0,0,0
81672000,81672000,-0.08119296,-0.06007923,-0.019203639,1,0,0,0,0
81676000,81676000,-0.08148194,-0.056356564,-0.01923641,1,0,0,0,0
81680000,81680000,-0.081644475,-0.05676673,-0.019215925,1,0,0,0,0
81684000,81684000,-0.08166872,-0.057111695,-0.019123312,1,0,0,0,0
81688000,81688000,-0.081682295,-0.0574435,-0.019043721,1,0,0,0,0
81692000,81692000,-0.081794456,-0.057842445,-0.019077811,1,0,0,0,0
81696000,81696000,-0.08190527,-0.058332928,-0.019072384,1,0,0,0,0
81700000,81700000,-0.08185306,-0.054671478,-0.019027302,1,0,0,0,0
81704000,81704000,-0.081729256,-0.055120762,-0.018969359,1,0,0,0,0
81708000,81708000,-0.08161668,-0.05551505,-0.01892343,1,0,0,0,0
81712000,81712000,-0.081544995,-0.05597721,-0.018971555,1,0,0,0,0
81716000,81716000,-0.08168357,-0.05643867,-0.018996358,1,0,0,0,0
81720000,81720000,-0.08165521,-0.05687937,-0.019305771,1,0,0,0,0
81724000,81724000,-0.08142361,-0.053067148,-0.019352136,1,0,0,0,0
81728000,81728000,-0.08109816,-0.0534019,-0.019369699,1,0,0,0,0
81732000,81732000,-0.08117381,-0.053708427,-0.019435784,1,0,0,0,0
81736000,81736000,-0.08150931,-0.05404872,-0.019508425,1,0,0,0,0
81740000,81740000,-0.0817885,-0.054409668,-0.019612879,1,0,0,0,0
81744000,81744000,-0.08201095,-0.0548027,-0.019724034,1,0,0,0,0
81748000,81748000,-0.08207004,-0.05105731,-0.01982718,1,0,0,0,0
81752000,81752000,-0.08198943,-0.051492788,-0.019963404,1,0,0,0,0
81760000,81760000,-0.082103774,-0.05233281,-0.020470934,1,0,0,0,0
81764000,81764000,-0.0821297,-0.05282371,-0.020692088,1,0,0,0,0
81768000,81768000,-0.08225976,-0.053234905,-0.020791423,1,0,0,0,0
81772000,81772000,-0.082408406,-0.049447604,-0.020993695,1,0,0,0,0
81780000,81780000,-0.0825155,-0.05024662,-0.021197343,1,0,0,0,0
81784000,81784000,-0.08214407,-0.05063503,-0.021360492,1,0,0,0,0
81788000,81788000,-0.08219516,-0.0509954,-0.02161076,1,0,0,0,0
81792000,81792000,-0.08230777,-0.05141381,-0.021766081,1,0,0,0,0
81796000,81796000,-0.08224916,-0.047649257,-0.022074044,1,0,0,0,0
81800000,81800000,-0.081851065,-0.048102688,-0.022514652,1,0,0,0,0
81804000,81804000,-0.0818687,-0.048419923,-0.02284932,1,0,0,0,0
81808000,81808000,-0.08199973,-0.04882174,-0.023232967,1,0,0,0,0
81812000,81812000,-0.08218568,-0.049280528,-0.023605747,1,0,0,0,0
81816000,81816000,-0.08230796,-0.049686022,-0.023908876,1,0,0,0,0
81820000,81820000,-0.08241708,-0.04586769,-0.02414279,1,0,0,0,0
81828000,81828000,-0.0823854,-0.04655646,-0.024694696,1,0,0,0,0
81832000,81832000,-0.08266388,-0.046959803,-0.024968715,1,0,0,0,0
81836000,81836000,-0.08269904,-0.04740954,-0.025300961,1,0,0,0,0
81840000,81840000,-0.08259921,-0.047861084,-0.025681889,1,0,0,0,0
81844000,81844000,-0.08259334,-0.044105433,-0.02608838,1,0,0,0,0
81848000,81848000,-0.08278439,-0.04457516,-0.026458386,1,0,0,0,0
81852000,81852000,-0.08291916,-0.045035396,-0.026812976,1,0,0,0,0
81856000,81856000,-0.08293031,-0.045477394,-0.027173338,1,0,0,0,0
81860000,81860000,-0.083065405,-0.045931518,-0.027542626,1,0,0,0,0
81864000,81864000,-0.083220236,-0.04639407,-0.027890036,1,0,0,0,0
81872000,81872000,-0.08326184,-0.04309424,-0.028512489,1,0,0,0,0
81876000,81876000,-0.083357,-0.04358179,-0.028888695,1,0,0,0,0
81880000,81880000,-0.08352347,-0.044094454,-0.029330865,1,0,0,0,0
81884000,81884000,-0.08360801,-0.04460054,-0.029762879,1,0,0,0,0
81888000,81888000,-0.08344482,-0.045036644,-0.030131068,1,0,0,0,0
81892000,81892000,-0.08354487,-0.041238323,-0.03050095,1,0,0,0,0
81896000,81896000,-0.08319325,-0.041730195,-0.031016707,1,0,0,0,0
81900000,81900000,-0.083391696,-0.042349074,-0.031414174,1,0,0,0,0
81904000,81904000,-0.083648115,-0.042947695,-0.031761035,1,0,0,0,0
81908000,81908000,-0.083818,-0.043406256,-0.03217494,1,0,0,0,0
81912000,81912000,-0.08375884,-0.04377594,-0.03260386,1,0,0,0,0
81916000,81916000,-0.08375291,-0.039890476,-0.03299548,1,0,0,0,0
81920000,81920000,-0.08401923,-0.040295362,-0.033441093,1,0,0,0,0
81924000,81924000,-0.08436819,-0.0407942,-0.033948164,1,0,0,0,0
81928000,81928000,-0.08447538,-0.041250095,-0.034365155,1,0,0,0,0
81932000,81932000,-0.08440905,-0.041797016,-0.034914337,1,0,0,0,0
81940000,81940000,-0.08369649,-0.038486898,-0.035693493,1,0,0,0,0
81944000,81944000,-0.08364375,-0.039066955,-0.0360254,1,0,0,0,0
81948000,81948000,-0.08374095,-0.0395275,-0.036434848,1,0,0,0,0
81952000,81952000,-0.083803855,-0.04005394,-0.03690568,1,0,0,0,0
81956000,81956000,-0.08388496,-0.040529653,-0.03754295,1,0,0,0,0
81960000,81960000,-0.08407032,-0.041062705,-0.038078666,1,0,0,0,0
81964000,81964000,-0.084243484,-0.037337743,-0.03845276,1,0,0,0,0
81968000,81968000,-0.08458574,-0.037799492,-0.03882671,1,0,0,0,0
81972000,81972000,-0.08480797,-0.03824169,-0.03919921,1,0,0,0,0
81976000,81976000,-0.084559955,-0.03874591,-0.039547235,1,0,0,0,0
81980000,81980000,-0.0842143,-0.039281573,-0.03993146,1,0,0,0,0
81984000,81984000,-0.084227316,-0.039794073,-0.040385254,1,0,0,0,0
81988000,81988000,-0.08459482,-0.036033913,-0.040841263,1,0,0,0,0
81992000,81992000,-0.085022755,-0.036498144,-0.041241042,1,0,0,0,0
81996000,81996000,-0.08512256,-0.036905818,-0.04153306,1,0,0,0,0
82000000,82000000,-0.0848572,-0.037344832,-0.041832402,1,0,0,0,0
82008000,82008000,-0.08451687,-0.038442686,-0.04278245,1,0,0,0,0
82012000,82012000,-0.084519595,-0.03468217,-0.04321616,1,0,0,0,0
82016000,82016000,-0.084682114,-0.035104357,-0.04355478,1,0,0,0,0
82020000,82020000,-0.084943935,-0.03550376,-0.043877736,1,0,0,0,0
82024000,82024000,-0.08503667,-0.035972953,-0.04430766,1,0,0,0,0
82028000,82028000,-0.084791966,-0.036532775,-0.044733852,1,0,0,0,0
82032000,82032000,-0.084566996,-0.037080016,-0.045090593,1,0,0,0,0
82036000,82036000,-0.08463071,-0.033257388,-0.045435447,1,0,0,0,0
82040000,82040000,-0.084803574,-0.033787258,-0.045815904,1,0,0,0,0
82044000,82044000,-0.084968016,-0.03441549,-0.046213485,1,0,0,0,0
82052000,82052000,-0.08500981,-0.035563517,-0.046907004,1,0,0,0,0
82056000,82056000,-0.08488343,-0.036070302,-0.04718005,1,0,0,0,0
82060000,82060000,-0.08496525,-0.03225489,-0.047334604,1,0,0,0,0
82064000,82064000,-0.08495345,-0.03265699,-0.047217622,1,0,0,0,0
82068000,82068000,-0.08503012,-0.03316232,-0.047221668,1,0,0,0,0
82072000,82072000,-0.08496761,-0.03359525,-0.047112912,1,0,0,0,0
82076000,82076000,-0.084883675,-0.03409466,-0.047078256,1,0,0,0,0
82080000,82080000,-0.08486101,-0.034585606,-0.047074012,1,0,0,0,0
82084000,82084000,-0.084959485,-0.030683821,-0.04701229,1,0,0,0,0
82092000,82092000,-0.085273065,-0.03170944,-0.046960413,1,0,0,0,0
82096000,82096000,-0.085254855,-0.032330386,-0.04686843,1,0,0,0,0
82100000,82100000,-0.08502639,-0.032837287,-0.046778597,1,0,0,0,0
82108000,82108000,-0.08512524,-0.029531315,-0.046754323,1,0,0,0,0
82112000,82112000,-0.084970064,-0.030065851,-0.046847537,1,0,0,0,0
82116000,82116000,-0.0849955,-0.030535325,-0.046900697,1,0,0,0,0
82120000,82120000,-0.085157186,-0.030969862,-0.046941318,1,0,0,0,0
82124000,82124000,-0.08521518,-0.031444944,-0.046931025,1,0,0,0,0
82132000,82132000,-0.085229605,-0.028071506,-0.04689492,1,0,0,0,0
82140000,82140000,-0.08514132,-0.028972365,-0.04668201,1,0,0,0,0
82144000,82144000,-0.085164905,-0.029466785,-0.046612933,1,0,0,0,0
82148000,82148000,-0.08565356,-0.029945636,-0.046516027,1,0,0,0,0
82152000,82152000,-0.085879795,-0.030454347,-0.046444066,1,0,0,0,0
82156000,82156000,-0.08569496,-0.0266327,-0.04636882,1,0,0,0,0
82164000,82164000,-0.0851434,-0.027567877,-0.04634822,1,0,0,0,0
82168000,82168000,-0.08513273,-0.028008416,-0.046380185,1,0,0,0,0
82172000,82172000,-0.085369684,-0.028490804,-0.046396196,1,0,0,0,0
82180000,82180000,-0.0856023,-0.025077356,-0.04643202,1,0,0,0,0
82184000,82184000,-0.08547445,-0.025510546,-0.046356875,1,0,0,0,0
82188000,82188000,-0.085622974,-0.025968958,-0.046312716,1,0,0,0,0
82192000,82192000,-0.08574805,-0.026442591,-0.046307787,1,0,0,0,0
82196000,82196000,-0.08557078,-0.026895866,-0.046305917,1,0,0,0,0
82204000,82204000,-0.08550125,-0.023431748,-0.046312686,1,0,0,0,0
82212000,82212000,-0.08613093,-0.02447078,-0.046250854,1,0,0,0,0
82216000,82216000,-0.086402,-0.024926405,-0.046286475,1,0,0,0,0
82220000,82220000,-0.0864665,-0.025408175,-0.04629029,1,0,0,0,0
82224000,82224000,-0.086427994,-0.025857441,-0.046403304,1,0,0,0,0
82228000,82228000,-0.086110085,-0.021910455,-0.04648361,1,0,0,0,0
82236000,82236000,-0.08580593,-0.022904493,-0.04648985,1,0,0,0,0
82240000,82240000,-0.08589343,-0.023366705,-0.04647685,1,0,0,0,0
82244000,82244000,-0.08591791,-0.023793709,-0.046435043,1,0,0,0,0
82248000,82248000,-0.08598865,-0.024245588,-0.04640814,1,0,0,0,0
82252000,82252000,-0.08628541,-0.020298272,-0.04638274,1,0,0,0,0
82256000,82256000,-0.086686485,-0.020787721,-0.046427377,1,0,0,0,0
82260000,82260000,-0.08682918,-0.021302572,-0.046447776,1,0,0,0,0
82264000,82264000,-0.08660251,-0.021770287,-0.046449497,1,0,0,0,0
82268000,82268000,-0.08638727,-0.02216466,-0.04646566,1,0,0,0,0
82272000,82272000,-0.086375125,-0.022575708,-0.04657025,1,0,0,0,0
82276000,82276000,-0.08632592,-0.018557522,-0.046666674,1,0,0,0,0
82284000,82284000,-0.08614074,-0.019370224,-0.04673297,1,0,0,0,0
82292000,82292000,-0.08639423,-0.020309735,-0.04674874,1,0,0,0,0
82296000,82296000,-0.08667011,-0.020872507,-0.046762716,1,0,0,0,0
82300000,82300000,-0.08679139,-0.017007917,-0.04669804,1,0,0,0,0
82304000,82304000,-0.086707585,-0.017503407,-0.046676397,1,0,0,0,0
82308000,82308000,-0.086759165,-0.017952364,-0.046680264,1,0,0,0,0
82312000,82312000,-0.08635872,-0.018244514,-0.046716593,1,0,0,0,0
82316000,82316000,-0.08606982,-0.018684248,-0.046728645,1,0,0,0,0
82320000,82320000,-0.08601704,-0.019137131,-0.04676596,1,0,0,0,0
82324000,82324000,-0.0861298,-0.015084507,-0.046761908,1,0,0,0,0
82328000,82328000,-0.08612035,-0.01554176,-0.046804942,1,0,0,0,0
82332000,82332000,-0.086121045,-0.016013458,-0.04684172,1,0,0,0,0
82336000,82336000,-0.08620287,-0.016427547,-0.046875417,1,0,0,0,0
82340000,82340000,-0.08624948,-0.016876124,-0.04687932,1,0,0,0,0
82344000,82344000,-0.08634584,-0.017307386,-0.046911567,1,0,0,0,0
82348000,82348000,-0.08637439,-0.01333477,-0.046948887,1,0,0,0,0
82352000,82352000,-0.08617618,-0.013835222,-0.047072418,1,0,0,0,0
82360000,82360000,-0.08551836,-0.014733959,-0.047337253,1,0,0,0,0
82364000,82364000,-0.08554818,-0.015223993,-0.047356337,1,0,0,0,0
82368000,82368000,-0.08578943,-0.015707865,-0.04740663,1,0,0,0,0
82372000,82372000,-0.086148635,-0.011675255,-0.047411837,1,0,0,0,0
82376000,82376000,-0.0864699,-0.012113029,-0.04742361,1,0,0,0,0
82380000,82380000,-0.086705536,-0.012491512,-0.04744124,1,0,0,0,0
82384000,82384000,-0.08686908,-0.012898916,-0.047507234,1,0,0,0,0
82388000,82388000,-0.086905465,-0.013351785,-0.04754352,1,0,0,0,0
82392000,82392000,-0.08679431,-0.013848669,-0.04761324,1,0,0,0,0
82396000,82396000,-0.08675476,-0.009833042,-0.047666766,1,0,0,0,0
82400000,82400000,-0.08696609,-0.010346579,-0.04770763,1,0,0,0,0
82404000,82404000,-0.087235995,-0.010833887,-0.047661103,1,0,0,0,0
82408000,82408000,-0.08735993,-0.011283924,-0.047653154,1,0,0,0,0
82412000,82412000,-0.08732341,-0.011720223,-0.047660008,1,0,0,0,0
82416000,82416000,-0.087185815,-0.012119833,-0.047741394,1,0,0,0,0
82420000,82420000,-0.08719878,-0.007962812,-0.047811665,1,0,0,0,0
82424000,82424000,-0.08748294,-0.008384047,-0.047889754,1,0,0,0,0
82428000,82428000,-0.08782927,-0.008823165,-0.04795971,1,0,0,0,0
82432000,82432000,-0.08794732,-0.009308849,-0.04806786,1,0,0,0,0
82436000,82436000,-0.08787302,-0.009793421,-0.048100647,1,0,0,0,0
82440000,82440000,-0.087742865,-0.010246101,-0.048153512,1,0,0,0,0
82444000,82444000,-0.087478265,-0.006149112,-0.048188098,1,0,0,0,0
82448000,82448000,-0.08728039,-0.006609239,-0.048251387,1,0,0,0,0
82452000,82452000,-0.08729481,-0.007025611,-0.048272245,1,0,0,0,0
82460000,82460000,-0.08762998,-0.007908094,-0.048308227,1,0,0,0,0
82464000,82464000,-0.08791089,-0.008445309,-0.04828555,1,0,0,0,0
82468000,82468000,-0.088063985,-0.004370216,-0.048233688,1,0,0,0,0
82472000,82472000,-0.08803087,-0.004852545,-0.048278134,1,0,0,0,0
82476000,82476000,-0.087765,-0.005351061,-0.048348352,1,0,0,0,0
82480000,82480000,-0.087530725,-0.005854543,-0.048446722,1,0,0,0,0
82484000,82484000,-0.087584496,-0.006307257,-0.048450902,1,0,0,0,0
82488000,82488000,-0.08768086,-0.006677561,-0.04844971,1,0,0,0,0
82492000,82492000,-0.08774273,-0.002533592,-0.04845389,1,0,0,0,0
82496000,82496000,-0.088300765,-0.002888059,-0.0484872,1,0,0,0,0
82500000,82500000,-0.0884287,-0.0033405,-0.048577122,1,0,0,0,0
82504000,82504000,-0.088298924,-0.00383685,-0.04868733,1,0,0,0,0
82512000,82512000,-0.087939575,-0.005002763,-0.048769854,1,0,0,0,0
82516000,82516000,-0.08799937,-0.000880484,-0.048774093,1,0,0,0,0
82520000,82520000,-0.08812894,-0.001501957,-0.048777398,1,0,0,0,0
82524000,82524000,-0.08832048,-0.001953926,-0.048705727,1,0,0,0,0
82528000,82528000,-0.088427655,-0.002364747,-0.048693277,1,0,0,0,0
82532000,82532000,-0.08849716,-0.002774339,-0.04866449,1,0,0,0,0
82536000,82536000,-0.088632636,-0.003197327,-0.0487084,1,0,0,0,0
82540000,82540000,-0.08859542,0.000950003,-0.048773292,1,0,0,0,0
82544000,82544000,-0.08829358,0.000438621,-0.048898347,1,0,0,0,0
82548000,82548000,-0.08808229,-3.28E-05,-0.048942737,1,0,0,0,0
82552000,82552000,-0.088148,-0.000459118,-0.048941717,1,0,0,0,0
82556000,82556000,-0.08824719,-0.000852171,-0.04886716,1,0,0,0,0
82560000,82560000,-0.08822101,-0.001256296,-0.04886277,1,0,0,0,0
82564000,82564000,-0.08826285,0.002886761,-0.04886701,1,0,0,0,0
82568000,82568000,-0.088076435,0.002226465,-0.048799694,1,0,0,0,0
82572000,82572000,-0.08839816,0.001647376,-0.048768364,1,0,0,0,0
82580000,82580000,-0.088894814,0.000637684,-0.048724264,1,0,0,0,0
82588000,82588000,-0.08888893,0.004377939,-0.04874152,1,0,0,0,0
82592000,82592000,-0.088941455,0.004032278,-0.04879674,1,0,0,0,0
82596000,82596000,-0.088845536,0.00359221,-0.04882182,1,0,0,0,0
82600000,82600000,-0.08875858,0.003076721,-0.04888569,1,0,0,0,0
82608000,82608000,-0.0887213,0.002068441,-0.04901799,1,0,0,0,0
82612000,82612000,-0.08856184,0.006296866,-0.049112927,1,0,0,0,0
82616000,82616000,-0.08848542,0.005856073,-0.04917801,1,0,0,0,0
82620000,82620000,-0.08862207,0.005390003,-0.049165785,1,0,0,0,0
82624000,82624000,-0.08877105,0.004845014,-0.049161993,1,0,0,0,0
82628000,82628000,-0.08877374,0.004231928,-0.049107935,1,0,0,0,0
82632000,82632000,-0.08885891,0.003649628,-0.04910335,1,0,0,0,0
82636000,82636000,-0.08907332,0.007813716,-0.049039893,1,0,0,0,0
82640000,82640000,-0.08913112,0.007351371,-0.04903563,1,0,0,0,0
82648000,82648000,-0.08923209,0.006330859,-0.049197085,1,0,0,0,0
82652000,82652000,-0.08944886,0.005848449,-0.049212683,1,0,0,0,0
82660000,82660000,-0.08970623,0.009546647,-0.04920491,1,0,0,0,0
82668000,82668000,-0.08990014,0.008633152,-0.04916048,1,0,0,0,0
82672000,82672000,-0.08972814,0.008196326,-0.049286,1,0,0,0,0
82676000,82676000,-0.08959738,0.00778487,-0.049368173,1,0,0,0,0
82680000,82680000,-0.08958357,0.007329533,-0.04935769,1,0,0,0,0
82684000,82684000,-0.08969498,0.011477241,-0.049260817,1,0,0,0,0
82688000,82688000,-0.089881375,0.010857983,-0.049271695,1,0,0,0,0
82692000,82692000,-0.09001061,0.010274449,-0.04927525,1,0,0,0,0
82696000,82696000,-0.089992195,0.009809634,-0.049302265,1,0,0,0,0
82700000,82700000,-0.08983657,0.009423181,-0.049321465,1,0,0,0,0
82708000,82708000,-0.089516155,0.01325478,-0.049453385,1,0,0,0,0
82712000,82712000,-0.08948624,0.012806024,-0.049476504,1,0,0,0,0
82716000,82716000,-0.08955052,0.012352843,-0.049433045,1,0,0,0,0
82720000,82720000,-0.089661375,0.011854462,-0.049410664,1,0,0,0,0
82724000,82724000,-0.08951429,0.011308471,-0.04933352,1,0,0,0,0
82728000,82728000,-0.089297004,0.010775425,-0.049312502,1,0,0,0,0
82732000,82732000,-0.089409426,0.01499242,-0.049259275,1,0,0,0,0
82736000,82736000,-0.08966534,0.014498439,-0.0492455,1,0,0,0,0
82740000,82740000,-0.08982164,0.014025463,-0.04925411,1,0,0,0,0
82744000,82744000,-0.08989104,0.013561992,-0.049363106,1,0,0,0,0
82748000,82748000,-0.08983497,0.013059489,-0.049398128,1,0,0,0,0
82752000,82752000,-0.089863814,0.012543561,-0.04944132,1,0,0,0,0
82756000,82756000,-0.09014228,0.01676673,-0.049464107,1,0,0,0,0
82760000,82760000,-0.090414315,0.016255362,-0.04956062,1,0,0,0,0
82764000,82764000,-0.09054775,0.01569156,-0.04957936,1,0,0,0,0
82768000,82768000,-0.09060444,0.015132804,-0.049556263,1,0,0,0,0
82772000,82772000,-0.09054897,0.014611108,-0.049438946,1,0,0,0,0
82776000,82776000,-0.09029826,0.014090112,-0.049392216,1,0,0,0,0
82780000,82780000,-0.09010381,0.018332053,-0.04940354,1,0,0,0,0
82784000,82784000,-0.09016599,0.017908245,-0.049528725,1,0,0,0,0
82792000,82792000,-0.089845926,0.016968418,-0.049607053,1,0,0,0,0
82796000,82796000,-0.089719474,0.01640946,-0.049617678,1,0,0,0,0
82804000,82804000,-0.09039031,0.020027896,-0.049694605,1,0,0,0,0
82812000,82812000,-0.09090526,0.018950151,-0.04973484,1,0,0,0,0
82820000,82820000,-0.09073059,0.017977085,-0.049904734,1,0,0,0,0
82824000,82824000,-0.09004102,0.017562209,-0.050160408,1,0,0,0,0
82828000,82828000,-0.090142444,0.021802826,-0.050024398,1,0,0,0,0
82832000,82832000,-0.090420246,0.021239739,-0.0499053,1,0,0,0,0
82836000,82836000,-0.09058313,0.020748632,-0.049851187,1,0,0,0,0
82840000,82840000,-0.090667464,0.020347167,-0.049937487,1,0,0,0,0
82844000,82844000,-0.09080066,0.019939197,-0.04998847,1,0,0,0,0
82852000,82852000,-0.09091235,0.023687936,-0.050075497,1,0,0,0,0
82856000,82856000,-0.09054585,0.023082709,-0.049974788,1,0,0,0,0
82860000,82860000,-0.09042725,0.022610158,-0.049831077,1,0,0,0,0
82868000,82868000,-0.09057786,0.021622391,-0.049876083,1,0,0,0,0
82872000,82872000,-0.090776265,0.021087576,-0.04997289,1,0,0,0,0
82876000,82876000,-0.09085966,0.025342315,-0.050006904,1,0,0,0,0
82880000,82880000,-0.0909893,0.024884196,-0.050131217,1,0,0,0,0
82884000,82884000,-0.09135782,0.024463473,-0.05020608,1,0,0,0,0
82888000,82888000,-0.09183573,0.023999674,-0.05024576,1,0,0,0,0
82892000,82892000,-0.09192069,0.023487817,-0.05022361,1,0,0,0,0
82896000,82896000,-0.09151198,0.022922726,-0.05027572,1,0,0,0,0
82900000,82900000,-0.0915495,0.027184019,-0.050280135,1,0,0,0,0
82908000,82908000,-0.09066271,0.026010776,-0.050286062,1,0,0,0,0
82912000,82912000,-0.09070986,0.025505424,-0.05033785,1,0,0,0,0
82916000,82916000,-0.09110593,0.025005434,-0.050453484,1,0,0,0,0
82920000,82920000,-0.09139219,0.02454361,-0.050535355,1,0,0,0,0
82924000,82924000,-0.091506325,0.028889576,-0.050549,1,0,0,0,0
82928000,82928000,-0.09128012,0.028379578,-0.050609313,1,0,0,0,0
82932000,82932000,-0.09086896,0.027814647,-0.050621293,1,0,0,0,0
82940000,82940000,-0.0907811,0.026690906,-0.05070644,1,0,0,0,0
82944000,82944000,-0.0907994,0.02620954,-0.050800055,1,0,0,0,0
82948000,82948000,-0.09067989,0.030533474,-0.0507949,1,0,0,0,0
82956000,82956000,-0.09109611,0.029461678,-0.050684214,1,0,0,0,0
82960000,82960000,-0.091136046,0.028952908,-0.05074124,1,0,0,0,0
82964000,82964000,-0.091380194,0.028442027,-0.050721996,1,0,0,0,0
82968000,82968000,-0.091340944,0.027949268,-0.050854877,1,0,0,0,0
82972000,82972000,-0.09138543,0.030198641,-0.050859384,1,0,0,0,0
82976000,82976000,-0.09157519,0.029616803,-0.05101961,1,0,0,0,0
82980000,82980000,-0.09190055,0.029110963,-0.05103909,1,0,0,0,0
82984000,82984000,-0.09214957,0.028689168,-0.051130332,1,0,0,0,0
82988000,82988000,-0.09220216,0.028204951,-0.051166788,1,0,0,0,0
82992000,82992000,-0.092170626,0.027619416,-0.05124925,1,0,0,0,0
82996000,82996000,-0.09219096,0.027035818,-0.051235907,1,0,0,0,0
83000000,83000000,-0.09221637,0.02650493,-0.05125466,1,0,0,0,0
83004000,83004000,-0.09214599,0.02602674,-0.051236678,1,0,0,0,0
83012000,83012000,-0.091588125,0.025079452,-0.05122881,1,0,0,0,0
83016000,83016000,-0.0913106,0.02464547,-0.051233456,1,0,0,0,0
83020000,83020000,-0.091208525,0.024278287,-0.051153176,1,0,0,0,0
83024000,83024000,-0.09134922,0.023877926,-0.051183827,1,0,0,0,0
83028000,83028000,-0.09170165,0.023394076,-0.05126045,1,0,0,0,0
83036000,83036000,-0.092049904,0.022366421,-0.051447496,1,0,0,0,0
83040000,83040000,-0.09205201,0.021807324,-0.051678397,1,0,0,0,0
83044000,83044000,-0.25274163,0.027477026,0.008557672,1,0,0,0,0
83048000,83048000,-0.25283325,0.02703081,0.008579145,1,0,0,0,0
83052000,83052000,-0.25312304,0.026581706,0.008649073,1,0,0,0,0
83056000,83056000,-0.2528355,0.026110206,0.008735709,1,0,0,0,0
83060000,83060000,-0.2510052,0.025607029,0.008818302,1,0,0,0,0
83064000,83064000,-0.24769361,0.025078278,0.00888986,1,0,0,0,0
83068000,83068000,-0.23460336,0.024554836,0.008940987,1,0,0,0,0
83072000,83072000,-0.23001553,0.024069864,0.008959352,1,0,0,0,0
83076000,83076000,-0.22563307,0.023600701,0.008985088,1,0,0,0,0
83080000,83080000,-0.2217668,0.023127623,0.009045992,1,0,0,0,0
83084000,83084000,-0.2181333,0.022667559,0.009113616,1,0,0,0,0
83088000,83088000,-0.21442692,0.022220362,0.009166044,1,0,0,0,0
83092000,83092000,-0.21597631,0.021791115,0.009206101,1,0,0,0,0
83096000,83096000,-0.21241646,0.021334572,0.009171894,1,0,0,0,0
83100000,83100000,-0.21192244,0.020811737,0.009157032,1,0,0,0,0
83104000,83104000,-0.20544577,0.02032451,0.009153673,1,0,0,0,0
83108000,83108000,-0.20249544,0.019807264,0.009148297,1,0,0,0,0
83112000,83112000,-0.19992341,0.019320061,0.0091541,1,0,0,0,0
83116000,83116000,-0.20057362,0.018809678,0.009119753,1,0,0,0,0
83120000,83120000,-0.19586614,0.018482354,0.009249449,1,0,0,0,0
83124000,83124000,-0.1934292,0.01800341,0.009286534,1,0,0,0,0
83128000,83128000,-0.19125909,0.017483301,0.009326329,1,0,0,0,0
83132000,83132000,-0.18913834,0.017004667,0.009360377,1,0,0,0,0
83140000,83140000,-0.18611354,0.016146775,0.009307134,1,0,0,0,0
83144000,83144000,-0.1842909,0.015776526,0.009231671,1,0,0,0,0
83148000,83148000,-0.18261361,0.015387967,0.009184652,1,0,0,0,0
83156000,83156000,-0.18008856,0.014398877,0.009083374,1,0,0,0,0
83160000,83160000,-0.17754036,0.013927037,0.009102593,1,0,0,0,0
83168000,83168000,-0.17536907,0.013100289,0.009115541,1,0,0,0,0
83172000,83172000,-0.1738442,0.012598695,0.009141283,1,0,0,0,0
83176000,83176000,-0.17223096,0.012089724,0.009141745,1,0,0,0,0
83180000,83180000,-0.17134644,0.011622921,0.009062253,1,0,0,0,0
83184000,83184000,-0.16826186,0.011312151,0.009023316,1,0,0,0,0
83188000,83188000,-0.16738038,0.010929303,0.00902685,1,0,0,0,0
83192000,83192000,-0.1659122,0.010540368,0.009055804,1,0,0,0,0
83196000,83196000,-0.16462754,0.010161264,0.009020178,1,0,0,0,0
83200000,83200000,-0.16370043,0.009809004,0.008959875,1,0,0,0,0
83204000,83204000,-0.16298784,0.009429777,0.008876326,1,0,0,0,0
83208000,83208000,-0.16232964,0.009023473,0.008788994,1,0,0,0,0
83212000,83212000,-0.1662017,0.008664111,0.008719523,1,0,0,0,0
83216000,83216000,-0.16535099,0.008384747,0.008668205,1,0,0,0,0
83220000,83220000,-0.1643196,0.008112637,0.008575155,1,0,0,0,0
83224000,83224000,-0.1630165,0.007779969,0.008404339,1,0,0,0,0
83228000,83228000,-0.16166143,0.007378314,0.008246813,1,0,0,0,0
83232000,83232000,-0.1605405,0.006999908,0.008182569,1,0,0,0,0
83236000,83236000,-0.16017273,0.006726204,0.008139177,1,0,0,0,0
83240000,83240000,-0.15925324,0.006491212,0.008044327,1,0,0,0,0
83244000,83244000,-0.15834026,0.006229388,0.007952377,1,0,0,0,0
83252000,83252000,-0.15680516,0.005626645,0.00796706,1,0,0,0,0
83260000,83260000,-0.15543677,0.00495537,0.007836344,1,0,0,0,0
83264000,83264000,-0.15416907,0.00477645,0.007830188,1,0,0,0,0
83268000,83268000,-0.15307318,0.004576974,0.00771954,1,0,0,0,0
83272000,83272000,-0.15194556,0.004330579,0.007528333,1,0,0,0,0
83276000,83276000,-0.15096974,0.004054861,0.00735096,1,0,0,0,0
83284000,83284000,-0.15006295,0.003455693,0.007209105,1,0,0,0,0
83288000,83288000,-0.14971241,0.00323515,0.007154341,1,0,0,0,0
83292000,83292000,-0.14961869,0.003033532,0.007151511,1,0,0,0,0
83296000,83296000,-0.14924787,0.002774272,0.007034677,1,0,0,0,0
83300000,83300000,-0.14853352,0.002498329,0.006929519,1,0,0,0,0
83308000,83308000,-0.1511734,0.002000423,0.006771876,1,0,0,0,0
83316000,83316000,-0.14956701,0.001500286,0.00657989,1,0,0,0,0
83320000,83320000,-0.14877336,0.001215695,0.006553325,1,0,0,0,0
83324000,83324000,-0.1478906,0.000927936,0.006450862,1,0,0,0,0
83328000,83328000,-0.14717028,0.000667347,0.006357464,1,0,0,0,0
83332000,83332000,-0.1469467,0.000410547,0.00621901,1,0,0,0,0
83340000,83340000,-0.14642666,5.76E-05,0.005940069,1,0,0,0,0
83344000,83344000,-0.14608528,-0.000100277,0.005897813,1,0,0,0,0
83348000,83348000,-0.1455769,-0.000321055,0.00584523,1,0,0,0,0
83352000,83352000,-0.14490795,-0.000566943,0.005761021,1,0,0,0,0
83356000,83356000,-0.14401422,-0.000762858,0.005648467,1,0,0,0,0
83360000,83360000,-0.14304094,-0.000916081,0.005512604,1,0,0,0,0
83364000,83364000,-0.14217515,-0.00109073,0.005391859,1,0,0,0,0
83368000,83368000,-0.14151263,-0.001283184,0.005286731,1,0,0,0,0
83372000,83372000,-0.14108297,-0.001432119,0.005178762,1,0,0,0,0
83376000,83376000,-0.14056763,-0.001551108,0.005068737,1,0,0,0,0
83380000,83380000,-0.13990295,-0.00171444,0.00495919,1,0,0,0,0
83384000,83384000,-0.13935117,-0.001918489,0.004853511,1,0,0,0,0
83388000,83388000,-0.1388876,-0.002125511,0.004730653,1,0,0,0,0
83392000,83392000,-0.13832077,-0.002314869,0.004573735,1,0,0,0,0
83396000,83396000,-0.13781126,-0.00250035,0.004463284,1,0,0,0,0
83400000,83400000,-0.13746919,-0.00268884,0.00440092,1,0,0,0,0
83404000,83404000,-0.14078964,-0.00282437,0.004308112,1,0,0,0,0
83412000,83412000,-0.14041284,-0.00297679,0.004069041,1,0,0,0,0
83416000,83416000,-0.14013703,-0.003057782,0.003950192,1,0,0,0,0
83420000,83420000,-0.1396443,-0.003213711,0.003852633,1,0,0,0,0
83428000,83428000,-0.13826583,-0.00364463,0.003661504,1,0,0,0,0
83432000,83432000,-0.13761249,-0.003801847,0.003519895,1,0,0,0,0
83436000,83436000,-0.13688815,-0.003923092,0.003403077,1,0,0,0,0
83440000,83440000,-0.13609865,-0.004064238,0.003289003,1,0,0,0,0
83444000,83444000,-0.1355583,-0.004071901,0.003235795,1,0,0,0,0
83452000,83452000,-0.13406235,-0.004356002,0.003032945,1,0,0,0,0
83460000,83460000,-0.13370354,-0.004883677,0.00282913,1,0,0,0,0
83464000,83464000,-0.13346946,-0.005093206,0.002754708,1,0,0,0,0
83468000,83468000,-0.13271627,-0.005257236,0.00264487,1,0,0,0,0
83472000,83472000,-0.1325461,-0.005366061,0.002466051,1,0,0,0,0
83476000,83476000,-0.13157822,-0.005367044,0.002310748,1,0,0,0,0
83484000,83484000,-0.13024926,-0.005611546,0.002141482,1,0,0,0,0
83488000,83488000,-0.13004458,-0.005890468,0.002105243,1,0,0,0,0
83492000,83492000,-0.12988669,-0.006121721,0.001972229,1,0,0,0,0
83500000,83500000,-0.13292602,-0.006340858,0.001680719,1,0,0,0,0
83504000,83504000,-0.13282481,-0.00643247,0.001603498,1,0,0,0,0
83508000,83508000,-0.13256255,-0.006574845,0.001505794,1,0,0,0,0
83512000,83512000,-0.13210697,-0.006733161,0.001389452,1,0,0,0,0
83516000,83516000,-0.13172738,-0.006899573,0.001318858,1,0,0,0,0
83520000,83520000,-0.13167046,-0.00707491,0.001293437,1,0,0,0,0
83524000,83524000,-0.13130295,-0.007245392,0.001253377,1,0,0,0,0
83528000,83528000,-0.13093199,-0.007402217,0.001182777,1,0,0,0,0
83532000,83532000,-0.13026491,-0.007532647,0.001086102,1,0,0,0,0
83536000,83536000,-0.12959552,-0.00766045,0.000983913,1,0,0,0,0
83540000,83540000,-0.12913783,-0.007680308,0.000894661,1,0,0,0,0
83548000,83548000,-0.12710449,-0.007990544,0.000774642,1,0,0,0,0
83552000,83552000,-0.12657987,-0.008151711,0.000669997,1,0,0,0,0
83556000,83556000,-0.12591963,-0.008279325,0.000568497,1,0,0,0,0
83560000,83560000,-0.12635288,-0.008343198,0.000521234,1,0,0,0,0
83568000,83568000,-0.12605052,-0.008525557,0.000451433,1,0,0,0,0
83572000,83572000,-0.1252872,-0.008589956,0.000390634,1,0,0,0,0
83576000,83576000,-0.12532155,-0.008667506,0.000264839,1,0,0,0,0
83580000,83580000,-0.12523113,-0.008793344,0.000108749,1,0,0,0,0
83584000,83584000,-0.12476898,-0.008928045,-1.57E-05,1,0,0,0,0
83588000,83588000,-0.1241763,-0.009058962,-8.76E-05,1,0,0,0,0
83592000,83592000,-0.12368297,-0.00922969,-0.000136851,1,0,0,0,0
83596000,83596000,-0.1249079,-0.00938465,-0.000165969,1,0,0,0,0
83600000,83600000,-0.12475871,-0.00949248,-0.000228489,1,0,0,0,0
83604000,83604000,-0.12451759,-0.009589627,-0.000339542,1,0,0,0,0
83608000,83608000,-0.12412954,-0.00970953,-0.000439795,1,0,0,0,0
83612000,83612000,-0.12344363,-0.009807951,-0.000486142,1,0,0,0,0
83616000,83616000,-0.12278127,-0.009835877,-0.000516832,1,0,0,0,0
83620000,83620000,-0.122407906,-0.00988136,-0.000583317,1,0,0,0,0
83624000,83624000,-0.12219419,-0.009990494,-0.000653113,1,0,0,0,0
83628000,83628000,-0.122082315,-0.010168832,-0.000706571,1,0,0,0,0
83636000,83636000,-0.12220642,-0.010605579,-0.00095894,1,0,0,0,0
83640000,83640000,-0.1219691,-0.010723096,-0.001043255,1,0,0,0,0
83644000,83644000,-0.121441744,-0.010814531,-0.001079405,1,0,0,0,0
83648000,83648000,-0.12086436,-0.010896863,-0.001158812,1,0,0,0,0
83652000,83652000,-0.12048592,-0.010987622,-0.001262804,1,0,0,0,0
83656000,83656000,-0.12033592,-0.011136565,-0.001366701,1,0,0,0,0
83660000,83660000,-0.120146,-0.011327179,-0.001460371,1,0,0,0,0
83664000,83664000,-0.11971135,-0.01152472,-0.001546825,1,0,0,0,0
83668000,83668000,-0.11857378,-0.011649193,-0.001636645,1,0,0,0,0
83672000,83672000,-0.11844069,-0.011780292,-0.001763238,1,0,0,0,0
83676000,83676000,-0.11829931,-0.011856371,-0.001790854,1,0,0,0,0
83684000,83684000,-0.11750478,-0.01204572,-0.001845039,1,0,0,0,0
83688000,83688000,-0.11753682,-0.01206447,-0.00192522,1,0,0,0,0
83692000,83692000,-0.11671389,-0.012099597,-0.002083067,1,0,0,0,0
83696000,83696000,-0.11677051,-0.012183902,-0.002180895,1,0,0,0,0
83700000,83700000,-0.11662408,-0.012298999,-0.002206555,1,0,0,0,0
83704000,83704000,-0.11615066,-0.012431789,-0.002224301,1,0,0,0,0
83708000,83708000,-0.1156364,-0.012532592,-0.002308,1,0,0,0,0
83712000,83712000,-0.11546924,-0.012622789,-0.002349373,1,0,0,0,0
83716000,83716000,-0.11673922,-0.012660564,-0.002441262,1,0,0,0,0
83720000,83720000,-0.116694555,-0.012685396,-0.002521521,1,0,0,0,0
83724000,83724000,-0.116583414,-0.012699862,-0.002584822,1,0,0,0,0
83728000,83728000,-0.11633583,-0.012750229,-0.002602239,1,0,0,0,0
83732000,83732000,-0.11610901,-0.012882004,-0.002578239,1,0,0,0,0
83736000,83736000,-0.11585661,-0.013024756,-0.002559047,1,0,0,0,0
83740000,83740000,-0.11609271,-0.01805992,-0.002818036,0.39849323,0,0,0,0
83744000,83744000,-0.11571765,-0.018043825,-0.002876146,0.39849323,0,0,0,0
83748000,83748000,-0.11537355,-0.018093267,-0.002961141,0.39849323,0,0,0,0
83752000,83752000,-0.115059055,-0.018167133,-0.003079068,0.39849323,0,0,0,0
83756000,83756000,-0.1146285,-0.018198116,-0.003218961,0.39849323,0,0,0,0
83760000,83760000,-0.11403042,-0.018220231,-0.0033117,0.39849323,0,0,0,0
83764000,83764000,-0.11249743,-0.023268756,-0.003620706,0.4208883,0,0,0,0
83772000,83772000,-0.11070656,-0.023576874,-0.003786352,0.4208883,0,0,0,0
83780000,83780000,-0.108710915,-0.02394266,-0.004035697,0.4208883,0,0,0,0
83784000,83784000,-0.105645455,-0.024355937,-0.004284767,0.4208883,0,0,0,0
83788000,83788000,-0.10262542,-0.029551264,-0.004711459,0.44200632,0,0,0,0
83792000,83792000,-0.10094834,-0.029785873,-0.004901898,0.44200632,0,0,0,0
83796000,83796000,-0.10032883,-0.02994395,-0.005024679,0.44200632,0,0,0,0
83800000,83800000,-0.09734693,-0.030334454,-0.00529241,0.44200632,0,0,0,0
83804000,83804000,-0.09548003,-0.030594941,-0.005524015,0.44200632,0,0,0,0
83808000,83808000,-0.09374263,-0.030871596,-0.005752929,0.44200632,0,0,0,0
83812000,83812000,-0.09453201,-0.036157496,-0.006299041,0.4623643,0,0,0,0
83816000,83816000,-0.093014814,-0.036473397,-0.006546645,0.4623643,0,0,0,0
83820000,83820000,-0.092326,-0.036692247,-0.006697235,0.4623643,0,0,0,0
83824000,83824000,-0.08996503,-0.03720758,-0.007033991,0.4623643,0,0,0,0
83828000,83828000,-0.08839015,-0.037619222,-0.007212834,0.4623643,0,0,0,0
83836000,83836000,-0.08433666,-0.04320371,-0.007949781,0.481527,0,0,0,0
83840000,83840000,-0.08301043,-0.043482415,-0.008146511,0.481527,0,0,0,0
83844000,83844000,-0.081713185,-0.043771204,-0.00837167,0.481527,0,0,0,0
83848000,83848000,-0.080410875,-0.044058625,-0.008601775,0.481527,0,0,0,0
83856000,83856000,-0.07792015,-0.044654682,-0.009124114,0.481527,0,0,0,0
83860000,83860000,-0.07561979,-0.04989902,-0.009682592,0.49945027,0,0,0,0
83864000,83864000,-0.074821845,-0.05029264,-0.010053672,0.49945027,0,0,0,0
83868000,83868000,-0.07406729,-0.050573736,-0.010244697,0.49945027,0,0,0,0
83872000,83872000,-0.073429056,-0.05091761,-0.010487856,0.49945027,0,0,0,0
83876000,83876000,-0.07246263,-0.051162858,-0.010657364,0.49945027,0,0,0,0
83884000,83884000,-0.06929208,-0.05646483,-0.01152893,0.51608247,0,0,0,0
83888000,83888000,-0.06854224,-0.056562275,-0.01179551,0.51608247,0,0,0,0
83892000,83892000,-0.067715645,-0.05669509,-0.012259673,0.51608247,0,0,0,0
83896000,83896000,-0.06715279,-0.056914613,-0.01251312,0.51608247,0,0,0,0
83900000,83900000,-0.06680372,-0.05709466,-0.01274072,0.51608247,0,0,0,0
83904000,83904000,-0.06650135,-0.05726964,-0.01295602,0.51608247,0,0,0,0
83908000,83908000,-0.0644103,-0.062432725,-0.013647055,0.5328136,0,0,0,0
83912000,83912000,-0.06367243,-0.06256421,-0.013891258,0.5328136,0,0,0,0
83916000,83916000,-0.06294418,-0.0627563,-0.014094792,0.5328136,0,0,0,0
83920000,83920000,-0.06289199,-0.062835805,-0.014091868,0.5328136,0,0,0,0
83924000,83924000,-0.06254623,-0.06304962,-0.014195644,0.5328136,0,0,0,0
83928000,83928000,-0.06200759,-0.06317219,-0.014339063,0.5328136,0,0,0,0
83932000,83932000,-0.06380301,-0.068209276,-0.014957191,0.5481671,0,0,0,0
83936000,83936000,-0.0636588,-0.06830096,-0.015151444,0.5481671,0,0,0,0
83940000,83940000,-0.063466996,-0.06843264,-0.015390972,0.5481671,0,0,0,0
83944000,83944000,-0.06314347,-0.06850596,-0.015647545,0.5481671,0,0,0,0
83948000,83948000,-0.06281364,-0.06846394,-0.01588264,0.5481671,0,0,0,0
83952000,83952000,-0.062378936,-0.068365544,-0.016038986,0.5481671,0,0,0,0
83956000,83956000,-0.060195826,-0.07322367,-0.016638108,0.562193,0,0,0,0
83960000,83960000,-0.059824057,-0.073152,-0.016757946,0.562193,0,0,0,0
83964000,83964000,-0.05948716,-0.07321151,-0.016916376,0.562193,0,0,0,0
83968000,83968000,-0.05913283,-0.07328209,-0.017083272,0.562193,0,0,0,0
83972000,83972000,-0.059018373,-0.073238984,-0.0172115,0.562193,0,0,0,0
83976000,83976000,-0.059027776,-0.07315461,-0.017318336,0.562193,0,0,0,0
83980000,83980000,-0.05726819,-0.07805021,-0.017995924,0.57492197,0,0,0,0
83984000,83984000,-0.056891162,-0.077958286,-0.01819127,0.57492197,0,0,0,0
83988000,83988000,-0.056617744,-0.07787422,-0.018364664,0.57492197,0,0,0,0
83992000,83992000,-0.05637853,-0.0777206,-0.018702628,0.57492197,0,0,0,0
83996000,83996000,-0.056374867,-0.0775938,-0.018796448,0.57492197,0,0,0,0
84000000,84000000,-0.056524016,-0.077421546,-0.018871732,0.57492197,0,0,0,0
