timestamp,gyro_rad[0],gyro_rad[1],gyro_rad[2],accelerometer_m_s2[0],accelerometer_m_s2[1],accelerometer_m_s2[2]
80000000,0.000929214,-0.00828157,-0.005368613,-0.23553903,0.117261715,-9.82631
80004000,-0.003073194,-0.008793537,0.005065912,-0.24129838,0.05562373,-9.848956
80008000,-0.004818032,-0.00984083,0.002621749,-0.20011218,0.14118992,-9.880029
80012000,-0.003786921,-0.007103654,-0.001720238,-0.19791304,0.18248636,-9.849561
80016000,-0.004823681,-0.008300269,0.000739161,-0.19389997,0.10130447,-9.785439
80020000,-0.005743404,-0.00484643,0.003262553,-0.19650206,0.13142686,-9.811209
80024000,-0.005161917,0.0026693,0.000140519,-0.20596081,0.17501989,-9.808386
80028000,-0.004359916,-3.99E-06,-0.001718293,-0.23979363,0.13846174,-9.850723
80032000,-0.003981044,-0.000366795,0.001728994,-0.2525499,0.09379765,-9.909995
80036000,-0.005759971,-0.001838333,0.002484808,-0.19273537,0.051360924,-9.858994
80040000,0.000745084,-0.005487094,0.006573726,-0.1706964,0.061426535,-9.768488
80044000,0.000368797,-0.004906383,0.005327172,-0.21846841,0.13515715,-9.759532
80052000,-0.000621676,-0.004324102,-0.002716763,-0.2513706,0.18272494,-9.796648
80056000,-0.000294926,-0.008259799,0.002719402,-0.1984379,0.104026735,-9.832434
80060000,-0.001274645,-0.007870665,0.003381124,-0.20413066,0.09610957,-9.8141365
80064000,-0.003464453,-0.006714221,0.000286973,-0.21140121,0.11909724,-9.821398
80068000,-0.004651447,-0.006749612,-0.004344698,-0.22968291,0.17746362,-9.832302
80076000,0.001940947,-0.011357837,-0.00125815,-0.23671551,0.14888392,-9.894918
80084000,-0.009874489,-0.00052226,-0.002805119,-0.25047833,0.11767896,-9.793232
80088000,-0.005976527,-0.00552104,-0.001537752,-0.24013573,0.19945031,-9.747816
80092000,0.004155783,-0.009132611,-0.002633356,-0.19522855,0.18579611,-9.7379875
80096000,0.002131925,-0.010411887,-0.002722764,-0.18897206,0.12289333,-9.810252
80100000,-0.00117533,-0.010395695,-0.002275723,-0.22981852,0.032832317,-9.825981
80104000,0.00263559,-0.004079014,-0.001370955,-0.2544643,0.02919034,-9.744303
80108000,0.005560938,-0.002757004,-0.001917254,-0.25427166,0.09838912,-9.753409
80112000,0.006352209,-0.009209046,-0.001515343,-0.24389027,0.15868674,-9.81557
80116000,0.001378808,-0.011546041,-0.002855583,-0.22376071,0.1438753,-9.790122
80120000,-0.003201067,-0.00678029,-0.001418139,-0.25156015,0.114175566,-9.746628
80128000,-0.009443538,-0.007803712,0.002332201,-0.20648043,0.25111708,-9.717225
80132000,-0.008819777,-0.009252296,-0.000101463,-0.17852725,0.26714727,-9.660906
80136000,-0.002932567,-0.008970372,0.002241273,-0.27078393,0.16375045,-9.693851
80140000,0.000494475,-0.005949452,-0.003708169,-0.33324566,0.08030261,-9.779563
80144000,-0.000973194,-0.009107322,-0.004234503,-0.18902199,0.12011216,-9.828099
80148000,-0.000414873,-0.013526237,0.001864271,-0.12903194,0.123163976,-9.832081
80152000,0.002850879,-0.004717197,0.002864666,-0.2571157,0.08298994,-9.814777
80156000,0.006447758,0.001107122,0.002472692,-0.33803266,0.08013124,-9.792789
80160000,0.000221972,-0.005175154,0.000442372,-0.29200235,0.096215345,-9.786496
80168000,-0.003427408,-0.000856691,0.000400455,-0.16555712,0.13635065,-9.770886
80172000,0.006709002,-0.002925648,0.000779666,-0.19001628,0.11667436,-9.814307
80176000,0.005619736,-0.003054542,0.00646933,-0.198333,0.11106533,-9.867276
80180000,0.001965778,-0.008515242,0.010395645,-0.18974167,0.093016885,-9.875264
80184000,-0.000315424,-0.008591298,0.006495594,-0.22964974,0.12574454,-9.824636
80188000,-0.001965197,-0.004536609,0.000243484,-0.2644505,0.10023314,-9.750201
80192000,-0.00909632,-0.004789236,-0.003640101,-0.20450014,0.15772364,-9.721574
80200000,-0.003407918,-0.006064491,-0.000669049,-0.17704456,0.18547249,-9.740993
80204000,-0.007853443,-0.008331064,0.00136851,-0.16102113,0.18410291,-9.772525
80212000,-0.001270363,-0.001965862,0.002175826,-0.21458267,0.0879168,-9.794406
80220000,-0.001777439,-0.004680925,-0.005829583,-0.18961412,0.16871703,-9.82658
80224000,-0.000783693,-0.005935366,0.000838722,-0.25817427,0.19954662,-9.791082
80228000,-0.000233828,-0.003609176,0.006158857,-0.29591116,0.14969769,-9.786027
80232000,-0.002611639,-0.001390255,0.004186233,-0.24860145,0.19092146,-9.788053
80240000,0.000944856,-0.006545897,0.000625676,-0.24042088,0.18226092,-9.79994
80248000,0.004618309,-0.010797168,7.87E-05,-0.27359876,0.11922871,-9.843352
80252000,0.000677002,-0.005799939,0.000935661,-0.2328357,0.17650822,-9.800343
80256000,-0.005022209,-0.00964908,0.002489571,-0.19836622,0.1650432,-9.780248
80260000,-0.000535018,-0.013163833,0.000644353,-0.24575111,0.096080005,-9.814324
80268000,-0.003305096,-0.011861246,0.002398007,-0.18835895,0.1621716,-9.793108
80272000,-0.002148154,-0.01088408,0.003032102,-0.19771218,0.118168876,-9.781515
80276000,0.000812531,-0.009301805,-0.00010206,-0.18250492,0.12184219,-9.8054695
80280000,-0.000662422,-0.004623664,0.00350628,-0.15308706,0.1341383,-9.7799425
80288000,-0.00026157,-0.009821059,0.000727056,-0.1824599,0.1313773,-9.867052
80292000,0.003043347,-0.007125536,0.000818902,-0.10968503,0.2187368,-9.851553
80296000,0.004970888,-0.003926017,-0.004050285,-0.14600149,0.19921729,-9.872257
80304000,-0.004360728,-0.009059727,-0.002525611,-0.2891938,0.12674297,-9.740567
80308000,-0.001220322,-0.013472449,-0.003638071,-0.262534,0.08006463,-9.828824
80312000,-0.000189399,-0.008699682,0.002836902,-0.3321062,0.099055,-9.817183
80316000,0.00137426,-0.011514949,0.003194308,1.0168582,0.17114511,-9.768563
80324000,-0.000237414,-0.001776107,-0.000667827,18.320381,0.1588939,-9.752601
80328000,0.000543838,-0.000403374,-0.005597924,27.422983,0.15608165,-9.689087
80336000,-0.004500298,-0.002928488,0.001510457,40.41605,0.092289284,-9.691187
80340000,-0.003012033,0.000938259,0.002926318,44.628025,0.119746655,-9.683884
80348000,0.003702484,0.001680674,-0.002220745,49.601044,0.16428275,-9.7170925
80352000,0.001758847,0.000233669,0.000862417,50.898502,0.1846605,-9.709975
80356000,-0.007923327,-0.009146991,-0.003794496,51.690376,0.2379455,-9.757047
80364000,-0.000415738,-0.005556132,0.000982813,52.44865,0.16032133,-9.652234
80368000,-0.002198151,-0.003719658,-0.003521857,52.376415,0.14269748,-9.69409
80372000,-0.003810742,-0.005689582,-0.003673874,52.03075,0.14246331,-9.753729
80376000,-0.003027778,-0.003084965,-6.87E-05,51.683395,0.22347058,-9.685862
80384000,-0.002520837,-0.007037538,0.003846727,51.07359,0.12280296,-9.721376
80388000,-0.006930528,-0.005558333,0.002734756,50.553524,0.19495216,-9.677049
80392000,0.000275044,-0.00590553,0.001874652,49.978226,0.1620587,-9.707195
80396000,0.003501778,3.98E-06,0.005525786,49.354137,0.11631756,-9.813726
80404000,-0.000171709,-0.003684676,0.000207073,48.638977,0.12329931,-9.743528
80408000,-0.004445287,-0.002535466,-0.003612147,48.11902,0.13584852,-9.774451
80412000,-0.004822181,-0.001519493,-0.003740228,47.580925,0.1469651,-9.746088
80416000,0.000152327,-0.004915445,-0.002888761,47.039574,0.18932778,-9.749207
80420000,-0.000790734,-0.008764183,-0.006340998,46.624218,0.22474618,-9.710852
80428000,0.003912669,0.000364651,-0.005635051,45.779076,0.19178896,-9.788979
80432000,0.000186846,0.00365459,-0.000321026,45.20102,0.15592383,-9.7543335
80436000,-0.003075557,-0.002233644,-0.000756838,44.69373,0.1620204,-9.746016
80440000,-0.006639813,-0.006710196,-0.00661821,44.278233,0.1919245,-9.813064
80444000,-0.003917362,-0.009672896,-0.000431028,44.00321,0.122708686,-9.792324
80452000,-0.003090218,-0.005284964,-0.000346584,43.131092,0.16711068,-9.70052
80456000,-0.009013852,-0.009815022,-0.001364296,42.622883,0.22427694,-9.782357
80464000,-0.000492291,-0.007512938,-0.00696165,41.94198,0.06363772,-9.729775
80468000,-0.000973349,-0.003818871,-0.005996357,41.56697,0.16227457,-9.769567
80472000,-0.006367497,-0.007061666,-0.001731202,41.075058,0.18906401,-9.785354
80476000,-0.00464438,-0.009369436,-0.001555597,40.67459,0.12948515,-9.750215
80484000,-0.003706517,-0.01122661,0.000905811,39.915157,0.10711425,-9.768469
80488000,0.00159007,-0.009218681,0.001158276,39.582394,0.17413771,-9.731629
80496000,-0.001861441,-0.003174297,0.00986368,38.68854,0.08024029,-9.65956
80500000,-0.008558258,-0.001705299,0.007205098,38.300987,0.10045368,-9.663456
80504000,0.00021399,-0.000401955,0.00999592,37.96412,0.13398418,-9.692223
80508000,0.002839392,-0.00050525,0.004534463,37.609406,0.13912186,-9.757755
80512000,-0.000648815,-0.003402577,-0.000928167,37.18986,0.13158908,-9.790214
80520000,0.003008977,-0.01119534,0.000691274,36.300835,0.12191442,-9.738686
80524000,-0.004050158,-0.004956516,0.007152018,35.979626,0.10396134,-9.710603
80528000,-0.004844869,-0.001700518,0.00558154,35.683224,0.092090495,-9.7030735
80532000,0.001901054,-0.005280298,0.005505337,35.36477,0.14079045,-9.726473
80540000,-0.002490847,-0.011175917,-0.002424672,34.450317,0.106146686,-9.731143
80548000,-0.003622549,-0.007276686,-0.002224848,33.961357,0.12340238,-9.778348
80552000,-0.007800674,-0.011237104,-0.002306315,33.65604,0.1342891,-9.764312
80556000,-0.009553419,-0.010226465,-0.000307908,33.18564,0.1963597,-9.730348
80560000,-0.006470463,-0.008722494,0.000711909,32.82837,0.106480636,-9.71493
80564000,-0.002082541,-0.004652059,0.00155374,32.62285,0.15749705,-9.770474
80572000,0.003655415,-0.011693868,-0.003941312,32.07727,0.07391505,-9.692271
80576000,0.003948371,-0.008167423,-0.005568893,31.76926,0.063615955,-9.729128
80580000,0.000442628,-0.004416976,-0.009672006,31.407658,0.12740509,-9.704474
80584000,-0.000823937,-0.003776242,-0.005616262,31.119335,0.19497101,-9.662151
80588000,0.003537498,-0.003595296,0.004551288,30.930113,0.1917826,-9.70354
80596000,-0.003758451,-0.00440814,0.000459754,30.261053,0.15465955,-9.732004
80600000,-0.001220217,-0.002109858,-0.001591353,29.965603,0.15909855,-9.715686
80608000,-0.002366182,-0.006562997,0.00262144,29.634037,0.047665272,-9.768025
80612000,0.001867353,0.001410424,0.004526539,29.421103,-0.005306343,-9.815281
80616000,0.003468327,-0.000868405,0.00209383,29.038115,-0.004013725,-9.818322
80620000,-0.001432555,-0.005025511,-0.001374214,28.683304,0.16724956,-9.763746
80624000,-0.00550687,-0.004087159,0.000703734,28.412687,0.25638255,-9.748957
80632000,-0.003801703,-0.013224309,-0.004217231,27.971151,0.13825467,-9.743806
80636000,0.003540866,-0.007058693,-0.006332086,27.670357,0.17746179,-9.744102
80640000,0.004920424,-0.002151381,-0.003300329,27.393885,0.18165502,-9.755457
80644000,0.002915429,-0.00201518,-0.001906983,27.127436,0.099920146,-9.759804
80648000,0.000268277,-0.004241725,0.002907156,26.916735,0.07845349,-9.754676
80652000,-0.000186036,-0.009110736,-0.001103926,26.728872,0.10477011,-9.801851
80656000,0.005662014,-0.011003706,-0.001038,26.429195,0.1571083,-9.774845
80660000,0.006891235,-0.008126652,0.004988216,26.072191,0.2510306,-9.734893
80664000,0.0008327,-0.005107812,0.000222609,25.768421,0.18600464,-9.745969
80672000,8.17E-05,-0.004942763,0.005429371,25.487835,0.1494632,-9.880242
80676000,-0.005483811,-0.004517935,0.002689438,25.20925,0.19447969,-9.785528
80680000,-0.005030043,-0.00612747,-0.001766119,24.781622,0.1942066,-9.712934
80684000,-0.002976133,-0.009039596,-0.000958347,24.461924,0.119542845,-9.740776
80692000,-0.002951117,-0.003778903,-0.000233443,24.17442,0.13737294,-9.826701
80696000,-0.001045951,-0.001195326,0.001908637,23.997482,0.15216948,-9.787023
80700000,-0.002258464,-0.00033374,-0.000785342,23.747593,0.1288558,-9.807657
80708000,0.001503159,-0.00871265,-0.002965042,23.401358,0.18502444,-9.749802
80716000,0.003130008,-0.003741645,0.006460374,23.073874,0.10014549,-9.799186
80720000,-0.002003085,-0.00665028,0.004766265,22.773077,0.08706332,-9.741646
80724000,-0.005774853,-0.001933966,0.002411102,22.603424,0.021733813,-9.728704
80732000,-0.003480541,0.000499413,0.000916622,22.361856,0.17910358,-9.712093
80740000,0.000446908,-0.006293445,0.002992389,21.856186,0.102686174,-9.7717285
80744000,-0.001891146,-0.005663228,0.005466217,21.656275,0.11516577,-9.793387
80748000,0.003309159,-0.002217167,0.00845622,21.46793,0.070508316,-9.859298
80752000,0.002685115,-0.007486048,0.013403146,21.810694,-0.5090505,-10.027285
80756000,0.005461781,-0.01209914,0.03137782,22.17656,-0.9226604,-10.113778
80760000,0.007821519,-0.011403806,0.057184573,21.91083,-0.8968845,-10.064991
80768000,0.006960196,-0.026713224,0.08707626,21.372437,-0.8757365,-10.21383
80772000,0.014475086,-0.026238725,0.10763359,21.225258,-0.8280855,-10.250976
80776000,0.030064316,-0.026510863,0.1277124,21.098198,-0.7532935,-10.267934
80780000,0.03196434,-0.032053974,0.14515828,20.824438,-0.7888135,-10.28122
80784000,0.029942185,-0.04179637,0.16337588,20.588455,-0.7837913,-10.335469
80788000,0.030201051,-0.04952618,0.18422645,20.373186,-0.8065067,-10.386614
80792000,0.028532807,-0.055420447,0.19477518,20.236393,-0.7490974,-10.332482
80796000,0.039475728,-0.05661954,0.20287463,20.05391,-0.6980978,-10.27081
80804000,0.04716151,-0.06433695,0.24036492,19.56189,-0.66623026,-10.139378
80808000,0.060615633,-0.0619389,0.25367388,19.394829,-0.62189615,-10.058862
80812000,0.06790038,-0.05963477,0.2651183,19.24692,-0.568244,-10.124825
80816000,0.07134667,-0.058391046,0.27840057,19.062807,-0.53629124,-10.15545
80820000,0.08264831,-0.05777792,0.28420508,18.912416,-0.47245145,-10.143166
80824000,0.08730455,-0.057376005,0.28961664,18.703987,-0.45824268,-10.128102
80828000,0.0953822,-0.05585269,0.29908347,18.50119,-0.5221127,-10.145008
80836000,0.104275376,-0.05976807,0.3214323,18.293169,-0.37013888,-10.13726
80840000,0.107071094,-0.06165258,0.3228547,18.092241,-0.3509913,-10.163228
80844000,0.11576695,-0.059492927,0.3223774,17.938038,-0.3720806,-10.244184
80848000,0.12132143,-0.05323668,0.32719046,17.818563,-0.37174085,-10.200014
80852000,0.1229444,-0.051586542,0.3323037,17.63173,-0.32969743,-10.14053
80856000,0.13556986,-0.049399685,0.33294225,17.40572,-0.28532076,-10.131529
80860000,0.14229013,-0.047685802,0.33363357,17.258097,-0.24353486,-10.1474495
80864000,0.14332873,-0.049936753,0.33505222,17.11978,-0.22735101,-10.129171
80868000,0.15087436,-0.04681502,0.34105018,17.0709,-0.20078763,-10.044952
80876000,0.16270599,-0.043509852,0.33816096,16.69873,-0.045392305,-10.175324
80880000,0.1695667,-0.0405215,0.33132166,16.667639,-0.065880686,-10.111164
80884000,0.18028526,-0.04166662,0.32726142,16.543514,-0.0686342,-10.048125
80888000,0.18351896,-0.046325758,0.3234021,16.432951,0.012515663,-10.057403
80892000,0.19042903,-0.04374565,0.31926036,16.1637,-0.016197689,-10.220324
80896000,0.19853842,-0.03141922,0.3106511,16.098032,0.001234252,-10.2266445
80900000,0.20557162,-0.027212469,0.301353,16.096254,0.027145024,-10.138254
80904000,0.2119656,-0.021371204,0.29614216,15.852904,0.039445013,-10.125379
80912000,0.22123986,-0.018808858,0.2714049,15.494138,0.011998871,-10.117616
80920000,0.24269256,-0.01277262,0.25968513,15.28966,0.20070727,-10.030197
80928000,0.25134358,0.002371986,0.22897594,14.865646,0.09871775,-10.160278
80932000,0.2598754,-0.005512045,0.22400638,14.696234,0.07393414,-10.201157
80940000,0.26614618,-0.003189285,0.19735864,14.584352,0.3829141,-10.141382
80944000,0.27343616,-0.001203099,0.18274893,14.403596,0.39532846,-10.061163
80948000,0.28652623,0.000638087,0.1691466,14.163067,0.3430109,-10.05712
80952000,0.2881708,-0.001781264,0.15627633,14.0381,0.36988533,-10.197249
80956000,0.28497607,0.004227378,0.14883292,14.03998,0.471444,-10.19611
80960000,0.2850715,-5.39E-05,0.1374374,13.998208,0.6572998,-10.162544
80964000,0.28919286,-0.008751253,0.11635953,13.8082075,0.5556941,-10.155038
80968000,0.30085486,-0.011562863,0.10136132,13.620252,0.49661303,-10.145762
80976000,0.30894318,0.004503599,0.07675278,13.501352,0.6612498,-10.091323
80980000,0.30460122,0.003661132,0.064578995,13.363128,0.7326048,-10.102166
80984000,0.30636227,-0.002395049,0.05165525,13.234045,0.6835528,-10.167355
80988000,0.31056726,-0.007744527,0.037070416,13.100496,0.64687324,-10.214667
80996000,0.3166624,-0.011356869,0.007312668,12.80221,0.7457075,-10.065559
81000000,0.31876585,-0.015139068,-0.00598703,12.641538,0.785195,-10.09557
81004000,0.31868234,-0.015110127,-0.019704914,12.536885,0.73498446,-9.991207
81012000,0.32655248,-0.015616924,-0.04384831,12.184217,0.65770423,-10.005619
81016000,0.32820764,-0.022717392,-0.05553676,12.085264,0.663145,-10.103821
81020000,0.33039287,-0.0209944,-0.06941647,12.032554,0.6455323,-10.04948
81028000,0.33845502,-0.015798556,-0.09068612,11.848299,0.75633585,-10.003561
81032000,0.3359335,-0.020849738,-0.10429092,11.674886,0.72120076,-10.006814
81036000,0.33402085,-0.023656692,-0.11883153,11.497612,0.72484267,-9.95149
81040000,0.3362157,-0.029710742,-0.12610441,11.376493,0.7356074,-9.943336
81044000,0.33487347,-0.026758775,-0.14115451,11.272244,0.7196766,-9.953078
81048000,0.3282636,-0.020691525,-0.15249437,11.183536,0.6968097,-9.943664
81052000,0.33079353,-0.024827687,-0.15926576,10.975167,0.6816753,-9.906215
81056000,0.33222428,-0.03164201,-0.16854835,10.781701,0.6851016,-9.933862
81060000,0.32789534,-0.037563305,-0.17635833,10.734869,0.7482359,-9.9055395
81068000,0.3304257,-0.03723657,-0.18498543,10.443938,0.67288077,-10.025672
81072000,0.32922408,-0.03717115,-0.20353463,10.362331,0.5818764,-9.966825
81080000,0.32101515,-0.043792583,-0.2119752,10.063661,0.53513664,-9.847407
81084000,0.31955823,-0.04404892,-0.22051798,9.90827,0.5014578,-9.905642
81088000,0.31431547,-0.055112213,-0.22646442,9.799062,0.45557156,-9.856242
81096000,0.3235466,-0.054400593,-0.23528926,9.517396,0.23699556,-9.860007
81100000,0.32200438,-0.05542216,-0.23843385,9.324698,0.21882157,-9.813512
81104000,0.31041506,-0.058448523,-0.24571814,9.162911,0.21171509,-9.862481
81112000,0.31172594,-0.04857064,-0.25555307,8.930843,0.047939148,-9.699444
81116000,0.30211082,-0.053646795,-0.25741604,8.765542,-0.053951696,-9.655068
81120000,0.29667714,-0.057248067,-0.26161355,8.6445055,-0.1486934,-9.732717
81124000,0.3012591,-0.05575383,-0.2607945,8.564443,-0.1853242,-9.698197
81128000,0.29921755,-0.056390617,-0.26217172,8.54702,-0.16669936,-9.664289
81136000,0.2942609,-0.059715,-0.2708857,8.224588,-0.33065066,-9.565476
81140000,0.2928095,-0.057186373,-0.27274147,8.155029,-0.3078888,-9.645573
81144000,0.2992599,-0.05154977,-0.27306777,8.08867,-0.315355,-9.662737
81148000,0.2948825,-0.045319773,-0.27261633,8.02532,-0.41408014,-9.566448
81152000,0.2844327,-0.046371985,-0.27197537,7.9027824,-0.42093018,-9.514395
81156000,0.2896155,-0.048644233,-0.26794532,7.734898,-0.4517168,-9.580406
81160000,0.28381604,-0.045627978,-0.27164948,7.653115,-0.48170587,-9.48026
81164000,0.27505803,-0.0409274,-0.2731842,7.595183,-0.52432656,-9.405729
81168000,0.2746923,-0.036670852,-0.27320164,7.534609,-0.56175107,-9.47199
81172000,0.27575782,-0.03381447,-0.2680387,7.3423276,-0.532444,-9.520645
81176000,0.2771288,-0.03449167,-0.26395172,7.207497,-0.5937571,-9.571437
81184000,0.26121977,-0.037627716,-0.26259676,7.1305337,-0.6811757,-9.495988
81188000,0.25896528,-0.024485936,-0.2590519,7.01983,-0.71865845,-9.513258
81192000,0.26378694,-0.023150537,-0.25189888,6.981935,-0.7644161,-9.5521965
81196000,0.26185745,-0.026995678,-0.24795203,6.8595533,-0.7255058,-9.483146
81200000,0.25632328,-0.020364873,-0.25157663,6.6869273,-0.6800523,-9.416456
81208000,0.25524965,-0.016056696,-0.2430958,6.5893245,-0.83289057,-9.541817
81212000,0.2533173,-0.010071156,-0.23965502,6.5487885,-0.8420223,-9.495101
81216000,0.24864224,-0.002324339,-0.23435351,6.4644666,-0.753975,-9.454278
81220000,0.24618319,0.0003156,-0.22963145,6.4283137,-0.7492961,-9.4767885
81224000,0.24921829,-0.003027364,-0.22354573,6.419843,-0.74100244,-9.447872
81228000,0.24985534,0.005557183,-0.2191778,6.3577175,-0.7652811,-9.532966
81236000,0.24076416,0.016163006,-0.20267694,6.2481694,-0.80151165,-9.528214
81244000,0.23292272,0.025485,-0.18802537,6.096763,-0.6832043,-9.557812
81248000,0.23091167,0.027252799,-0.18643267,6.0744157,-0.7698693,-9.58795
81252000,0.2301866,0.029900663,-0.17611909,6.0429306,-0.67532647,-9.609896
81256000,0.22495246,0.008312717,-0.13321652,4.567891,-2.1594453,-10.758601
81260000,0.22777234,-0.0196893,-0.094894394,4.411012,-2.3736835,-10.822676
81264000,0.22377005,-0.016072858,-0.08668097,5.659447,-1.0294437,-9.6858
81268000,0.21359047,-0.013518044,-0.073415816,5.5962152,-1.0625148,-9.718525
81272000,0.2179938,-0.01781867,-0.059518885,5.581214,-0.95543504,-9.679641
81276000,0.22247876,-0.015860518,-0.052320223,5.4688597,-0.92188627,-9.580663
81284000,0.21535002,-0.010359003,-0.028145535,5.384703,-0.88974416,-9.733871
81288000,0.21588273,-0.005642899,-0.018465571,5.35246,-0.89160484,-9.710421
81292000,0.2100324,-0.005468645,-0.00515602,5.2831655,-0.80026424,-9.67429
81296000,0.21094765,-0.005136093,0.011367464,5.195539,-0.7346085,-9.668503
81300000,0.21323599,-0.005632739,0.019935437,5.185458,-0.7840878,-9.690094
81308000,0.20932916,-0.002078883,0.043068107,5.1108427,-0.7462089,-9.686325
81312000,0.21034764,0.000792768,0.049674023,5.099894,-0.72873056,-9.710707
81320000,0.20036122,0.012082999,0.08721913,5.029359,-0.61366105,-9.847231
81324000,0.20007767,0.016008481,0.09902584,4.9324365,-0.5210576,-9.76667
81328000,0.1998429,0.010071361,0.10544098,4.917465,-0.5897626,-9.776528
81332000,0.2028563,0.012392105,0.11748337,4.90255,-0.5315849,-9.894061
81336000,0.19597828,0.020058496,0.1251297,4.840029,-0.4579657,-9.902077
81340000,0.18825305,0.021082388,0.13151288,4.7007103,-0.5330998,-9.849104
81344000,0.19998229,0.0251409,0.13856204,4.633093,-0.45996583,-9.941105
81348000,0.20086195,0.033139955,0.14755361,4.725366,-0.38392252,-9.997963
81352000,0.19928767,0.03879088,0.15680496,4.6612954,-0.41049102,-10.001899
81356000,0.19928369,0.043572042,0.16793719,4.59229,-0.35105014,-10.106482
81360000,0.19209619,0.04628846,0.17546798,4.526172,-0.28878367,-10.156335
81368000,0.19663435,0.061158422,0.17463368,4.571383,-0.2406894,-10.147826
81372000,0.19682981,0.0671934,0.17363556,4.5580444,-0.12374238,-10.234598
81380000,0.19133396,0.088068604,0.17683722,4.426341,-0.07918876,-10.29392
81384000,0.18528035,0.091841646,0.1806974,4.2913375,0.024405077,-10.347431
81392000,0.188146,0.10710802,0.18334793,4.300524,0.08022039,-10.641915
81396000,0.1793523,0.11198463,0.18603416,4.192615,-0.028942008,-10.821916
81404000,0.18938711,0.13556214,0.17881383,4.010822,0.031235995,-10.95448
81408000,0.1874052,0.14785199,0.17298454,3.9509208,0.006659142,-11.047967
81416000,0.18815981,0.15811095,0.17164147,3.8646011,0.011921134,-11.293236
81420000,0.18316032,0.16550657,0.17032577,3.7892325,0.007696744,-11.373379
81424000,0.18270512,0.17499787,0.16381788,3.70381,0.033891175,-11.504586
81428000,0.17624849,0.18550192,0.16179164,3.6559627,0.064358644,-11.71589
81432000,0.17160824,0.1924374,0.16500208,3.6184058,0.035199843,-11.890574
81436000,0.17578292,0.19295883,0.16370489,3.5667675,-0.009346899,-12.071915
81444000,0.1721406,0.21067695,0.15179247,3.4827511,0.020487254,-12.324668
81448000,0.16991217,0.21589652,0.14938967,3.4435804,0.09774709,-12.415749
81452000,0.17346762,0.21772526,0.1441958,3.432058,0.16231877,-12.603352
81460000,0.17111285,0.22545199,0.1454827,3.313125,0.01626847,-12.868464
81464000,0.1736202,0.23056297,0.13162723,3.1696906,0.058164906,-12.974581
81468000,0.16984625,0.24057414,0.12936069,3.0652025,0.101183265,-13.059472
81476000,0.16599542,0.2450659,0.11997263,3.0857818,0.122344,-13.212131
81480000,0.16573174,0.24673755,0.11610438,3.0630443,0.050773606,-13.355866
81488000,0.15698466,0.2543396,0.11227984,2.899275,0.1130757,-13.62648
81492000,0.15356517,0.25213626,0.11406093,2.8216116,0.06380854,-13.693057
81496000,0.14304677,0.2508661,0.1061243,2.885136,0.13713607,-13.769892
81504000,0.15329702,0.2583197,0.08261318,2.786115,0.17990112,-14.009919
81512000,0.14439695,0.25617722,0.093911126,2.6190047,0.20820658,-14.128931
81516000,0.14064406,0.25571406,0.08392165,2.633603,0.27272004,-14.268841
81520000,0.1390543,0.25249803,0.07831509,2.6477237,0.18939446,-14.388978
81524000,0.13927521,0.25289664,0.07756679,2.6324537,0.12706743,-14.420941
81528000,0.13294484,0.25606057,0.07431363,2.5796998,0.18346813,-14.429743
81532000,0.13420558,0.2580658,0.06388992,2.5126824,0.17450014,-14.479035
81536000,0.13760291,0.25633314,0.058572553,2.5162296,0.13062343,-14.551246
81540000,0.13479379,0.25349557,0.056171108,2.423618,0.14391933,-14.618667
81544000,0.13333659,0.25669864,0.05171072,2.4162455,0.07585734,-14.668606
81548000,0.13093135,0.25193468,0.046448756,2.4069033,0.006291566,-14.7024765
81556000,0.12664174,0.2578833,0.028826948,2.2746625,0.09950999,-14.860246
81560000,0.12840943,0.25422823,0.02506722,2.263085,0.13303955,-14.904703
81564000,0.12807547,0.24785209,0.025379028,2.288245,0.12220514,-14.916851
81568000,0.1234738,0.24602282,0.02031168,2.2659638,0.17516638,-14.911167
81576000,0.118934005,0.23594347,0.020669581,2.289915,0.006658868,-14.916275
81584000,0.12381577,0.2257987,0.004725109,2.201284,0.11019962,-15.007184
81592000,0.117424436,0.21949846,0.003880794,2.11659,-0.026712118,-14.936566
81596000,0.108653784,0.22502972,-0.004888207,2.1705875,0.063655145,-14.91912
81600000,0.10978685,0.21939054,-0.002038945,2.1408486,0.14985056,-14.93064
81608000,0.10384048,0.21136467,-0.010605923,2.0396,0.005520745,-14.874259
81612000,0.10505996,0.217568,-0.013729544,2.0669851,0.03711151,-14.895293
81620000,0.1058794,0.20740445,-0.014741053,1.8951222,0.013600408,-14.857486
81624000,0.107626714,0.2036192,-0.018760748,1.9029373,-0.029122764,-14.766876
81628000,0.109024726,0.2005138,-0.024409994,1.9222172,-0.004737386,-14.680419
81636000,0.10387494,0.19585998,-0.025021268,1.9644794,-0.07722731,-14.757279
81640000,0.09820569,0.18745187,-0.027978042,1.9355417,0.005202927,-14.736365
81644000,0.09643106,0.18309367,-0.02248138,1.8600254,0.004128571,-14.595559
81648000,0.09165112,0.1797073,-0.024473738,1.9097159,-0.06896736,-14.526643
81652000,0.08700908,0.17914963,-0.036267553,1.8823801,-0.08365212,-14.561824
81660000,0.08660079,0.17253344,-0.026374638,1.7709417,-0.076952055,-14.646291
81664000,0.09105652,0.17115174,-0.029930277,1.78757,-0.07884545,-14.562789
81668000,0.09081775,0.16793199,-0.021210756,1.7929641,-0.15047568,-14.447709
81672000,0.09133084,0.16877931,-0.020936545,1.7328042,-0.19672763,-14.37931
81676000,0.091682106,0.16455936,-0.0223015,1.6553973,-0.17432775,-14.363566
81680000,0.08880265,0.15790804,-0.022107432,1.6708708,-0.12909731,-14.3623295
81688000,0.088408,0.1505219,-0.020785974,1.672019,-0.2034464,-14.140511
81696000,0.08652189,0.15661603,-0.023585843,1.6837053,-0.17781888,-14.1131315
81700000,0.08244243,0.15597752,-0.021995062,1.68174,-0.1432273,-14.08911
81704000,0.08267587,0.14688782,-0.021202277,1.7103876,-0.13034354,-14.075427
81708000,0.079979025,0.14766149,-0.022015974,1.6804397,-0.1273439,-13.993039
81716000,0.081503764,0.15063758,-0.004115982,1.582763,-0.29928595,-13.815609
81724000,0.0681103,0.14398485,-0.011348377,1.5934691,-0.29184866,-13.819591
81728000,0.07142358,0.13802214,-0.006583731,1.6285903,-0.2618152,-13.8402815
81732000,0.079555586,0.13519007,-0.003515302,1.6542135,-0.21153812,-13.766592
81736000,0.07620878,0.13703252,-0.00338115,1.5818405,-0.23177525,-13.658515
81740000,0.076262906,0.13357547,0.000896815,1.5192577,-0.27744767,-13.662673
81744000,0.07691148,0.13626587,0.00176565,1.4985234,-0.24576671,-13.674238
81748000,0.07171949,0.13876568,0.001935077,1.5070565,-0.23569047,-13.6414995
81752000,0.07202012,0.13546485,0.00936027,1.487841,-0.2871608,-13.587319
81760000,0.07129347,0.14077093,0.018246967,1.3557353,-0.33296117,-13.495137
81768000,0.07376946,0.13731,0.01998774,1.5000228,-0.27125108,-13.397953
81772000,0.07288335,0.13402434,0.018816266,1.448168,-0.3950425,-13.390089
81780000,0.065609656,0.13941598,0.020764075,1.4678023,-0.23698112,-13.401823
81784000,0.06869208,0.13340783,0.026070409,1.3830267,-0.29088673,-13.350089
81788000,0.06601041,0.13535258,0.030506406,1.3278553,-0.31234628,-13.32108
81792000,0.061297745,0.14352131,0.03412463,1.3813735,-0.2614764,-13.300427
81800000,0.061154425,0.1316724,0.041302845,1.3067358,-0.29308784,-13.265966
81804000,0.060831908,0.13368444,0.046517514,1.2898729,-0.26574326,-13.240044
81812000,0.06183132,0.14124034,0.052643195,1.22242,-0.3528636,-13.152262
81816000,0.06006443,0.13570648,0.052814048,1.274304,-0.41341028,-13.172775
81824000,0.05939454,0.13359503,0.056143686,1.3628297,-0.32749194,-13.103901
81828000,0.06369682,0.13775465,0.054466058,1.3107859,-0.29616237,-13.1828375
81832000,0.059578385,0.14108843,0.058719516,1.2068316,-0.3280187,-13.15347
81836000,0.056777008,0.14028594,0.065492965,1.2285383,-0.31244665,-13.109276
81840000,0.05533592,0.14265454,0.06745311,1.2244688,-0.30666944,-13.120414
81844000,0.059398036,0.14447455,0.0712877,1.237078,-0.34199163,-13.135251
81848000,0.060741875,0.14730309,0.06992639,1.2212045,-0.30792585,-13.195975
81856000,0.056428462,0.14759481,0.07590762,1.1975576,-0.39640832,-13.1695595
81864000,0.056177337,0.15131073,0.07692222,1.2147452,-0.42334303,-13.231188
81868000,0.05531783,0.15197523,0.07457775,1.1654071,-0.42565328,-13.315297
81872000,0.057070225,0.1551359,0.078714386,1.1366982,-0.3792666,-13.247122
81876000,0.056954652,0.15777375,0.082314275,1.1490822,-0.343694,-13.272498
81880000,0.05876309,0.16138245,0.08733615,1.1516322,-0.36119333,-13.3119135
81884000,0.053503,0.16062243,0.084509745,1.2031945,-0.3387444,-13.278533
81892000,0.049371883,0.16013889,0.092959814,1.1140203,-0.37606075,-13.307953
81896000,0.054621696,0.16929604,0.09229291,1.1433069,-0.3231818,-13.25703
81900000,0.05327582,0.17666262,0.08708668,1.1059557,-0.29085472,-13.267822
81904000,0.055302735,0.1717799,0.08885146,1.0476091,-0.3537118,-13.308053
81908000,0.05121457,0.16402051,0.09651368,1.0159501,-0.34941366,-13.373706
81912000,0.04773384,0.16352095,0.09254156,0.98031735,-0.4083308,-13.452792
81916000,0.054007128,0.16274524,0.09216684,0.9979635,-0.41879573,-13.421353
81920000,0.057006966,0.16689391,0.09994767,1.018198,-0.25470385,-13.365367
81924000,0.056047942,0.17263915,0.10188939,1.0410423,-0.27653915,-13.322216
81928000,0.05162945,0.17206281,0.1031524,1.0703363,-0.29694802,-13.310335
81936000,0.042428534,0.16696623,0.10058898,1.088377,-0.32695034,-13.364717
81940000,0.043303575,0.18092604,0.09720167,1.0666873,-0.31495616,-13.438804
81944000,0.048374716,0.17747572,0.09501719,0.99268186,-0.28794545,-13.473147
81952000,0.04101887,0.17664617,0.10885897,1.0607281,-0.23878233,-13.480177
81960000,0.044768006,0.18406963,0.102169484,0.935562,-0.18835,-13.526282
81964000,0.04669371,0.18096305,0.10010977,0.92420447,-0.16673227,-13.491202
81968000,0.053167712,0.17585012,0.105158895,0.9518669,-0.1841368,-13.582265
81976000,0.036483385,0.18471786,0.097384304,0.97955054,-0.25496784,-13.57627
81980000,0.04040029,0.18398626,0.101549454,0.9638501,-0.1926055,-13.575855
81988000,0.049079392,0.18599457,0.100930475,1.0304987,-0.17442335,-13.604489
81996000,0.03944902,0.17681414,0.08937125,0.97034067,-0.24127616,-13.706803
82000000,0.0370021,0.18176371,0.09342011,1.0353336,-0.20372802,-13.673463
82008000,0.037820466,0.1896727,0.10001263,0.88189536,-0.22081624,-13.684234
82012000,0.039182696,0.18136363,0.09372212,0.92208856,-0.30898768,-13.732731
82016000,0.04176256,0.17700931,0.08990528,0.9129271,-0.33335254,-13.764358
82020000,0.042195033,0.17923954,0.09217413,0.84635544,-0.29032892,-13.783772
82024000,0.0358375,0.18490705,0.09835238,0.8692824,-0.35220337,-13.813774
82032000,0.03615459,0.18377553,0.08754266,0.8947911,-0.25771493,-13.753162
82036000,0.03763833,0.18160854,0.090710185,0.97377384,-0.17113537,-13.790947
82044000,0.037021697,0.19775139,0.09123654,0.86028534,-0.28427806,-13.755432
82048000,0.034713227,0.1925523,0.08747688,0.8438225,-0.277199,-13.790292
82052000,0.03195806,0.19162065,0.08048358,0.85731965,-0.2692098,-13.903775
82056000,0.031559978,0.19235745,0.08048497,0.894154,-0.2273915,-13.895478
82060000,0.034632444,0.18686095,0.080638126,0.83141273,-0.16782665,-13.877399
82068000,0.03149914,0.18839107,0.07530412,0.87806857,-0.3048768,-13.946309
82072000,0.029748218,0.18536134,0.07327372,0.86330044,-0.25480396,-13.941981
82080000,0.03065848,0.18408903,0.07193579,0.8364598,-0.24167256,-13.914771
82084000,0.031307567,0.17933531,0.06708487,0.85251313,-0.19802713,-13.85926
82092000,0.03072818,0.19282137,0.067548364,0.84359896,-0.31081465,-14.019946
82096000,0.022348728,0.18468028,0.061791774,0.8222928,-0.23517038,-13.956677
82100000,0.028669696,0.18929535,0.059702232,0.8100002,-0.21670131,-13.874388
82108000,0.023678906,0.19004375,0.065942556,0.8011134,-0.24726926,-13.904389
82116000,0.02830178,0.18475164,0.06717254,0.8115148,-0.30995607,-13.942501
82120000,0.027585847,0.18367924,0.065542296,0.85087377,-0.32897234,-13.888814
82128000,0.024224821,0.18568613,0.059000522,0.8589186,-0.32374567,-13.905331
82132000,0.022816248,0.17783435,0.055052213,0.8763574,-0.23421545,-13.867832
82136000,0.023580005,0.18241522,0.052280188,0.78827447,-0.24914147,-13.809436
82140000,0.022914141,0.18740362,0.054445203,0.77526784,-0.35644016,-13.767454
82144000,0.028277554,0.17975053,0.05309155,0.8460267,-0.35000676,-13.824655
82152000,0.023014408,0.18593575,0.045107413,0.7883617,-0.26563257,-13.798773
82156000,0.019436946,0.18667646,0.044275258,0.8158005,-0.30668014,-13.795163
82164000,0.019014588,0.1769243,0.047082257,0.86123604,-0.32734147,-13.932225
82168000,0.023215108,0.1807757,0.044023376,0.8133116,-0.26151067,-13.867852
82172000,0.025230924,0.18141375,0.047528107,0.85528904,-0.35324115,-13.847847
82180000,0.018697359,0.17806743,0.0402903,0.7379521,-0.26543128,-13.855345
82184000,0.02137077,0.175405,0.040933836,0.8235099,-0.29472306,-13.797104
82192000,0.019293396,0.17671257,0.04070153,0.85987246,-0.35011896,-13.771783
82196000,0.013496203,0.17362043,0.040692978,0.85166866,-0.4003496,-13.736842
82204000,0.024217024,0.17676374,0.03651925,0.88657624,-0.34582725,-13.709843
82208000,0.0217387,0.18083748,0.037336748,0.86183184,-0.37235782,-13.746711
82212000,0.025139777,0.17551,0.036756873,0.8647775,-0.4047499,-13.779821
82216000,0.026252013,0.17389166,0.039662413,0.78838605,-0.38038746,-13.778617
82220000,0.022925945,0.17640568,0.038945742,0.7802663,-0.3557591,-13.786393
82224000,0.01738691,0.17640588,0.045139585,0.7743055,-0.38231474,-13.702491
82228000,0.015794478,0.1752586,0.043865133,0.81808645,-0.37762985,-13.691007
82236000,0.019301439,0.17713407,0.040376086,0.9070025,-0.3685992,-13.6374035
82240000,0.017685166,0.17313442,0.038471133,0.8727433,-0.4045848,-13.624911
82248000,0.019882526,0.17525168,0.03533573,0.9026542,-0.4138511,-13.685229
82256000,0.024828793,0.1744478,0.040257677,0.88005203,-0.39016542,-13.627712
82260000,0.017423127,0.17882042,0.03567739,0.89597577,-0.43366897,-13.642559
82264000,0.013957969,0.17034173,0.034719717,0.8510289,-0.46294382,-13.584029
82268000,0.018668473,0.1682129,0.042526353,0.8371006,-0.39423594,-13.534657
82276000,0.013120273,0.16952303,0.045818824,0.9463057,-0.4070995,-13.616789
82284000,0.014002098,0.16370046,0.040066373,0.91140467,-0.4167108,-13.630228
82288000,0.016035406,0.17005256,0.044251982,0.8795654,-0.40920198,-13.509053
82292000,0.019173658,0.17197593,0.044037838,0.8499529,-0.45008174,-13.510645
82296000,0.019053137,0.17717096,0.039496318,0.87523216,-0.43407112,-13.556368
82300000,0.01506704,0.18069024,0.03541671,0.88725764,-0.43596566,-13.575861
82304000,0.013437255,0.16866167,0.041654643,0.8569602,-0.3774027,-13.558894
82312000,0.007873356,0.1699881,0.038558036,0.8639405,-0.37764904,-13.543734
82320000,0.013687095,0.16800806,0.039065294,0.95417684,-0.39720088,-13.533393
82328000,0.006896562,0.17100918,0.043418184,0.891416,-0.42856032,-13.507424
82336000,0.009779289,0.16262397,0.039849665,0.8910839,-0.44517568,-13.447041
82340000,0.009886671,0.16618073,0.041573126,0.87955767,-0.4926258,-13.477014
82344000,0.010507116,0.17225377,0.042438976,0.9723381,-0.4366462,-13.446856
82348000,0.008349614,0.17312977,0.04531335,0.9465081,-0.4289255,-13.486092
82356000,-0.001067038,0.16803096,0.055695966,0.8956228,-0.4397809,-13.498364
82360000,0.003710109,0.17265011,0.049205806,0.9189914,-0.44386342,-13.517661
82364000,0.004429592,0.17429298,0.052549887,0.8800407,-0.5410522,-13.473014
82368000,0.008257288,0.17230731,0.054742936,0.8757287,-0.5424441,-13.475194
82372000,0.009549966,0.17489314,0.050590307,0.9508931,-0.4786209,-13.507017
82376000,0.009760607,0.16849111,0.052579567,0.9401971,-0.5068717,-13.474611
82380000,0.010629251,0.1662065,0.05586428,0.9606659,-0.45956698,-13.45459
82384000,0.010856045,0.17091551,0.05517803,0.97269094,-0.4808706,-13.444267
82388000,0.008075097,0.17092036,0.05616048,0.9476827,-0.53395057,-13.3937
82392000,0.006117936,0.17477578,0.058329877,0.9420808,-0.48110786,-13.38579
82396000,0.010585353,0.17519774,0.059868596,0.9368983,-0.4153435,-13.439456
82400000,0.014493664,0.1758786,0.054036822,0.94170475,-0.46668425,-13.5100155
82408000,0.010597547,0.173127,0.056294195,1.0142529,-0.54236037,-13.435503
82416000,0.007173673,0.16848361,0.06143197,0.9056466,-0.48152515,-13.483303
82420000,0.013154454,0.16981417,0.06010446,0.9325774,-0.517656,-13.4483795
82428000,0.015322512,0.1705066,0.06737852,0.9556585,-0.5234344,-13.4558325
82432000,0.009906271,0.17557257,0.06499766,0.9585541,-0.5866159,-13.370939
82436000,0.011109852,0.1718933,0.063846104,0.992927,-0.60743535,-13.363411
82444000,0.003322111,0.1753879,0.06724601,0.99697745,-0.5345674,-13.440414
82448000,0.007941634,0.17282988,0.06898729,0.9398282,-0.5745413,-13.421466
82456000,0.00804719,0.17032817,0.068982914,1.0341139,-0.49791765,-13.394614
82460000,0.01241621,0.17902072,0.06584025,0.98641473,-0.48281765,-13.388773
82464000,0.011400371,0.17828831,0.061312795,1.0162032,-0.44974163,-13.409055
82472000,0.006812235,0.17856316,0.06877901,0.99569756,-0.49643585,-13.464627
82480000,0.006303666,0.18093447,0.069281176,1.0138417,-0.4808026,-13.463174
82484000,0.007700773,0.1750309,0.06583431,1.0230343,-0.48014355,-13.46522
82488000,0.006026278,0.17135863,0.06483376,1.0486416,-0.48896617,-13.40763
82492000,0.012373112,0.17354959,0.06771319,1.0577809,-0.5266243,-13.443719
82500000,0.004981007,0.17459735,0.07476262,0.97480285,-0.5042861,-13.492824
82508000,0.004645312,0.18572767,0.07087821,1.080025,-0.47901195,-13.501513
82512000,0.001895237,0.18875203,0.07772634,1.0452359,-0.51159006,-13.521057
82516000,0.009132709,0.1888458,0.071985625,1.0124595,-0.4994715,-13.5193815
82520000,0.007169757,0.18535702,0.066118374,0.99446076,-0.47527626,-13.486085
82524000,0.007948848,0.18403251,0.07017639,0.9981208,-0.47882304,-13.511954
82528000,0.005880454,0.18119939,0.06685662,1.0337442,-0.550133,-13.500188
82532000,0.008189791,0.1820858,0.06852734,1.0885143,-0.58029324,-13.490137
82536000,0.009515475,0.18073316,0.07030278,0.9984468,-0.5832935,-13.507708
82540000,0.001273509,0.18572728,0.07539544,0.94340307,-0.6575586,-13.499444
82548000,0.003418016,0.18041493,0.07176481,1.0204054,-0.47516662,-13.550714
82556000,0.00115958,0.17640722,0.06772964,1.0691819,-0.48963147,-13.501032
82564000,-0.002138762,0.19090238,0.06312304,1.0065572,-0.5969174,-13.576285
82568000,0.003155462,0.19117649,0.06432316,1.0585898,-0.59792054,-13.619863
82576000,0.005691952,0.19009025,0.06137809,1.0884397,-0.49525917,-13.577237
82580000,0.001820553,0.1857223,0.05899973,1.0911307,-0.5800112,-13.610592
82584000,0.003386722,0.18567714,0.06403721,1.0277585,-0.56857646,-13.602674
82588000,0.006984489,0.18283689,0.061973438,1.001624,-0.5308456,-13.66239
82592000,0.003045186,0.18093121,0.06125244,1.124514,-0.5286221,-13.617129
82600000,0.00337546,0.18890798,0.061944176,1.1050669,-0.5140727,-13.641953
82608000,-0.001855678,0.18285432,0.072760865,1.1734043,-0.51716924,-13.669007
82612000,-0.002956546,0.18234332,0.068802945,1.1475191,-0.5111632,-13.660363
82616000,-8.41E-05,0.18465807,0.066347666,1.0843016,-0.58200276,-13.705208
82620000,0.003010128,0.1848655,0.06758918,1.0721642,-0.6300404,-13.653005
82624000,-0.001066734,0.19336922,0.06278026,1.1208168,-0.5505357,-13.699335
82628000,-0.002069687,0.1965999,0.06471862,1.1421407,-0.5336399,-13.791303
82632000,0.003772577,0.19270481,0.06179044,1.1538992,-0.55227077,-13.762076
82636000,0.003103601,0.19034511,0.058144715,1.1421698,-0.561956,-13.758816
82640000,-0.002234213,0.19082414,0.062215865,1.1373028,-0.5055546,-13.728375
82648000,0.004973959,0.193144,0.065775454,1.1575993,-0.61075664,-13.722818
82652000,0.00391808,0.19126645,0.059854824,1.2199326,-0.5541051,-13.663222
82660000,0.006656082,0.19053993,0.061504014,1.1270987,-0.55118126,-13.682478
82668000,0.000805571,0.19146083,0.06336228,1.2328981,-0.5301882,-13.748885
82672000,0.000294619,0.18635629,0.070743404,1.1799403,-0.54226416,-13.715166
82676000,0.00070448,0.18480521,0.0622174,1.1633034,-0.53245384,-13.701578
82684000,0.003228211,0.19548832,0.05896342,1.1571311,-0.6103158,-13.654776
82688000,0.004124578,0.2003309,0.06221273,1.1997807,-0.58077633,-13.753617
82692000,0.001888648,0.1944494,0.058400176,1.2810166,-0.5733213,-13.743431
82696000,-0.000202977,0.18812527,0.058245026,1.3145864,-0.53186417,-13.721548
82700000,-0.002932784,0.18648705,0.062942825,1.2394842,-0.59270567,-13.678737
82708000,-0.001799462,0.18995878,0.0600845,1.2138346,-0.49398652,-13.722434
82712000,-0.00419699,0.18513724,0.0585957,1.2124612,-0.5934638,-13.697333
82720000,-0.003027215,0.19069217,0.05420817,1.2443997,-0.5461085,-13.766931
82724000,-0.010927396,0.19384976,0.052595735,1.2675014,-0.5275974,-13.725628
82728000,-0.005607032,0.19065456,0.052801263,1.2644101,-0.53323954,-13.711935
82732000,0.000346203,0.18998517,0.04925331,1.2424829,-0.5727828,-13.750336
82736000,-0.002941684,0.1925807,0.048820198,1.2771515,-0.6271616,-13.7746105
82740000,-0.003003118,0.18891595,0.055890363,1.2478184,-0.5835041,-13.712151
82744000,-0.003392397,0.1900864,0.054781,1.2726737,-0.5981951,-13.783586
82748000,-0.006572431,0.19381954,0.051249478,1.2972618,-0.61224246,-13.811531
82756000,0.00275654,0.19158754,0.05638355,1.2400283,-0.66580284,-13.729956
82760000,-9.45E-05,0.1952166,0.057494085,1.2670581,-0.6024537,-13.735385
82764000,0.000260051,0.19976951,0.052126195,1.2774723,-0.59925073,-13.699346
82768000,5.60E-05,0.19656248,0.047112722,1.3388754,-0.574716,-13.733801
82776000,-0.008233119,0.19910857,0.047151584,1.241751,-0.59997934,-13.7189045
82780000,-0.002882276,0.1941356,0.053677276,1.2987082,-0.58134955,-13.726801
82784000,-0.001553723,0.1897907,0.05302185,1.3562515,-0.5842573,-13.770807
82792000,-0.011082177,0.19750689,0.050659675,1.4142141,-0.63012844,-13.745271
82796000,-0.006443951,0.1992511,0.051721655,1.4031135,-0.6210946,-13.765286
82804000,0.00147908,0.19945611,0.05163822,1.2931061,-0.6411593,-13.811977
82812000,-0.005318296,0.19979776,0.054699514,1.3116332,-0.5970813,-13.706068
82820000,-0.011698581,0.19723576,0.063120194,1.3867909,-0.67015,-13.726769
82824000,-0.008099726,0.19487129,0.051578205,1.3756839,-0.614287,-13.77689
82828000,-0.002127364,0.20166482,0.044829857,1.3892616,-0.5976606,-13.809056
82832000,-0.004933338,0.2026101,0.04874957,1.3959789,-0.6491287,-13.826142
82836000,-0.006163814,0.19271578,0.053943753,1.3918053,-0.63387406,-13.84505
82844000,-0.002304991,0.19255191,0.052620504,1.4307061,-0.57855636,-13.736116
82852000,-0.010239679,0.20004638,0.04649171,1.3915474,-0.65522474,-13.747258
82856000,-0.008228106,0.19509025,0.03986534,1.4144679,-0.58017147,-13.808834
82860000,-0.009942203,0.19260593,0.04150076,1.3854262,-0.54545856,-13.86826
82868000,-0.004010039,0.19986333,0.04878896,1.5293434,-0.6581759,-13.843405
82872000,-0.007274354,0.19732977,0.044752374,1.5066439,-0.7486932,-13.759534
82876000,-0.007121489,0.19706982,0.04842276,1.4648247,-0.71103126,-13.736512
82884000,0.003726861,0.19080509,0.04970795,1.4490355,-0.62628573,-13.717645
82888000,0.003228771,0.19584134,0.045739792,1.4460127,-0.6212059,-13.747584
82892000,-0.007914873,0.19630077,0.051102247,1.3934691,-0.661145,-13.797703
82896000,-0.011838725,0.20131393,0.04911033,1.495212,-0.64678097,-13.754324
82900000,-0.011243087,0.20354049,0.047985617,1.4531744,-0.6117572,-13.815504
82908000,-0.008743756,0.20072626,0.04764761,1.4926775,-0.65222085,-13.717948
82912000,-0.006676704,0.20128307,0.05504223,1.5021826,-0.76448447,-13.723746
82920000,-0.004253482,0.19583674,0.05040691,1.4677881,-0.62332064,-13.740104
82924000,-0.008999964,0.19615124,0.053154174,1.51773,-0.57902884,-13.787051
82928000,-0.015185239,0.20382486,0.051644053,1.5460945,-0.62867826,-13.827803
82932000,-0.016249912,0.20346685,0.053688116,1.5530319,-0.66291785,-13.831831
82940000,-0.010469489,0.20311357,0.055826217,1.6048061,-0.68645257,-13.660147
82944000,-0.016805781,0.19862038,0.055890553,1.5757473,-0.7433975,-13.754029
82948000,-0.01565789,0.20121093,0.04931786,1.6119193,-0.69081014,-13.748498
82956000,-0.005923119,0.20504592,0.045931485,1.4273981,-0.6112071,-13.749976
82960000,-0.011230973,0.20238066,0.05035984,1.4875497,-0.6075086,-13.687943
82968000,-0.009820026,0.20308203,0.055517722,1.5934507,-0.69981945,-13.788259
82972000,-0.00978451,0.20614922,0.054041397,1.5172509,-0.69502366,-13.88745
82976000,-0.005469002,0.2081436,0.05169121,1.4983191,-0.677634,-13.877831
82984000,-0.006372955,0.19643538,0.055916183,1.6169647,-0.65649146,-13.815679
82992000,-0.007100765,0.20983447,0.056840084,1.6351289,-0.7018636,-13.835925
82996000,-0.005629378,0.20593059,0.052528463,1.6562201,-0.67208457,-13.843436
83000000,-0.008051218,0.20471948,0.055086583,1.6609197,-0.7570995,-13.837674
83008000,-0.014909566,0.2022592,0.05143114,1.6168302,-0.6329668,-13.883948
83012000,-0.016932694,0.20328103,0.051923797,1.5958028,-0.6565795,-13.826331
83016000,-0.016575769,0.19350372,0.046997175,1.5972958,-0.7006917,-13.862578
83020000,-0.01512944,0.18983738,0.045409117,1.5769484,-0.7171861,-13.868163
83024000,-0.011110174,0.1943214,0.05197823,1.5436386,-0.68865734,-13.849602
83028000,-0.00806664,0.19710824,0.05624003,1.577346,-0.6201012,-13.814408
83036000,-0.013557278,0.19637583,0.056998353,1.7302829,-0.73598254,-13.850241
83040000,-0.011531293,0.19810829,0.060230978,1.6895167,-0.66444296,-13.953944
83044000,-0.013771538,0.19490096,0.063408375,1.6512458,-0.54938793,-13.881227
83048000,-0.009462691,0.19294493,0.05932852,1.7274867,-0.52607715,-13.856281
83052000,-0.006538324,0.19472054,0.05835273,1.7520705,-0.61739224,-13.841306
83056000,-0.033035483,0.1941937,0.05744117,1.6553435,-0.6756638,-13.7990885
83060000,-0.069613725,0.19646819,0.057016134,1.6925066,-0.68902296,-13.788379
83064000,-0.10282552,0.19666766,0.055969,1.7306519,-0.71119505,-13.757585
83068000,-0.13753916,0.19529834,0.057063673,1.7107544,-0.72419006,-13.771899
83072000,-0.17007722,0.19159482,0.058667026,1.7189409,-0.74918497,-13.798477
83076000,-0.1929881,0.19169842,0.053526133,1.7536505,-0.72603405,-13.779625
83084000,-0.24711716,0.18672326,0.05034133,1.7417867,-0.65002227,-13.718433
83088000,-0.27547872,0.18478234,0.049789533,1.8356158,-0.61092174,-13.755494
83092000,-0.29912472,0.18285526,0.055229113,1.7788028,-0.62860656,-13.784619
83100000,-0.3486385,0.18343824,0.050091717,1.722254,-0.69437563,-13.769546
83104000,-0.36644784,0.18250328,0.050742064,1.7576169,-0.70831656,-13.764083
83108000,-0.37481332,0.18156812,0.04982577,1.7837244,-0.68620664,-13.837375
83112000,-0.39482993,0.17720981,0.04631928,1.78407,-0.6394761,-13.818482
83120000,-0.42770514,0.1709129,0.041438006,1.8708919,-0.66540235,-13.68888
83124000,-0.4360144,0.17588198,0.03748381,1.8812555,-0.6549013,-13.658528
83128000,-0.44764203,0.1726628,0.033924863,1.8636402,-0.72785705,-13.589229
83136000,-0.46881565,0.16607548,0.033668518,1.7728343,-0.72414726,-13.661631
83140000,-0.4793007,0.16103214,0.037751444,1.7131118,-0.73544484,-13.637725
83144000,-0.4829839,0.15534526,0.033151537,1.7965994,-0.7516806,-13.647689
83152000,-0.5019187,0.16427195,0.032583833,1.8611388,-0.7051604,-13.589661
83156000,-0.50621086,0.15781786,0.029341426,1.8909141,-0.6634304,-13.585921
83160000,-0.5115881,0.15222433,0.02659,1.9152997,-0.674019,-13.504894
83164000,-0.51970196,0.1506882,0.023931535,1.9002422,-0.71677643,-13.545915
83168000,-0.5251727,0.15252239,0.020702597,1.884045,-0.7575103,-13.5092125
83172000,-0.52775025,0.15742409,0.01609868,1.9125005,-0.68323857,-13.434812
83176000,-0.5407113,0.15217687,0.018984849,1.9601283,-0.7193051,-13.4648285
83180000,-0.5532971,0.1432492,0.021109855,2.0004194,-0.7645188,-13.446979
83184000,-0.5547409,0.14306302,0.011235493,1.9433632,-0.7301285,-13.449625
83188000,-0.5558167,0.14289871,0.008931981,1.872168,-0.7333709,-13.353254
83196000,-0.5595822,0.13539244,0.008273289,1.9484502,-0.66036564,-13.210511
83200000,-0.55692846,0.13228072,0.009749184,1.9467677,-0.6559518,-13.289749
83204000,-0.5559739,0.13456638,0.009276033,1.9568818,-0.6617161,-13.255637
83208000,-0.5547945,0.1325068,0.008474552,2.0439487,-0.7107395,-13.168405
83212000,-0.556633,0.12458462,0.004992557,2.1061993,-0.74634916,-13.14808
83216000,-0.5554848,0.1180083,0.004487921,1.9836133,-0.6871047,-13.072243
83224000,-0.56650394,0.12065852,0.016430521,2.0863554,-0.7364789,-13.017266
83228000,-0.56605434,0.12214187,0.008439602,2.1264045,-0.7538389,-13.063926
83232000,-0.56246984,0.11482649,0.003200052,2.093366,-0.82296616,-12.981568
83236000,-0.5632037,0.10612046,0.007881397,2.104776,-0.78710407,-12.828704
83240000,-0.56607234,0.106364965,0.010377452,2.0841305,-0.7631826,-12.785592
83244000,-0.562688,0.10510003,0.003234733,2.0978312,-0.82702404,-12.861207
83248000,-0.55982184,0.10318475,-0.005995532,2.1000304,-0.8287205,-12.809621
83252000,-0.5616369,0.103016965,-0.005099355,2.1141748,-0.8304982,-12.697668
83256000,-0.56462526,0.10228173,-0.003355963,2.1283398,-0.8487722,-12.6546335
83260000,-0.56616676,0.096292175,-0.008064504,2.1256313,-0.8005317,-12.689124
83264000,-0.56531984,0.08937166,-0.00937119,2.1091394,-0.7196321,-12.690755
83268000,-0.56813765,0.08982938,-0.001262914,2.147703,-0.7464636,-12.606437
83272000,-0.5694609,0.09115747,0.002553723,2.191083,-0.812852,-12.555147
83280000,-0.5627751,0.09107149,-0.008418822,2.2225728,-0.7418974,-12.369096
83284000,-0.5591466,0.08602044,-0.007577667,2.093098,-0.73430383,-12.372881
83288000,-0.54837996,0.07991672,-0.008753581,2.0439384,-0.8225481,-12.431272
83296000,-0.5494611,0.083508745,-0.006446545,2.19444,-0.928101,-12.300472
83300000,-0.5474897,0.08185061,-0.010778476,2.2024708,-0.8903044,-12.218533
83308000,-0.5398821,0.07860524,-0.011056627,2.230842,-0.8519588,-12.211427
83316000,-0.5405854,0.079727106,-0.016898703,2.207321,-0.82732123,-12.1154995
83320000,-0.54068685,0.08268602,-0.012981379,2.2609396,-0.85778254,-12.065177
83324000,-0.5397818,0.07626252,-0.01695514,2.2749946,-0.8745,-12.082893
83328000,-0.5334836,0.07851339,-0.016711665,2.2132664,-0.85875326,-12.168918
83336000,-0.5233852,0.07103398,-0.011809756,2.2765465,-0.8561854,-11.972447
83340000,-0.51921624,0.06769891,-0.019541038,2.3022063,-0.9250834,-11.944125
83344000,-0.517792,0.069062345,-0.020564498,2.2847939,-0.95284337,-11.903224
83348000,-0.5167464,0.07219629,-0.018129077,2.3502765,-0.8901046,-11.877321
83352000,-0.51644665,0.06954425,-0.019617774,2.3513968,-0.87069625,-11.810742
83360000,-0.5181815,0.062365398,-0.017221598,2.4046197,-0.8315966,-11.736944
83364000,-0.51499075,0.06468365,-0.020265473,2.3907804,-0.7749233,-11.657625
83368000,-0.51107466,0.0625167,-0.018857835,2.3319411,-0.81460434,-11.705422
83376000,-0.51102006,0.055364482,-0.019630345,2.3590455,-0.79827887,-11.56349
83384000,-0.4989569,0.058504574,-0.020620883,2.3932848,-0.8882886,-11.47159
83388000,-0.50092715,0.05768737,-0.017198237,2.3168929,-0.8918818,-11.470605
83392000,-0.49875873,0.05607439,-0.016373778,2.3828766,-0.9130821,-11.450869
83400000,-0.4872553,0.056723867,-0.023348484,2.4034998,-0.88800967,-11.444112
83404000,-0.4862389,0.049850922,-0.018444246,2.4314108,-0.87964785,-11.394622
83412000,-0.47200245,0.045464475,-0.020878028,2.3966317,-0.9442108,-11.342254
83416000,-0.47569674,0.044628352,-0.020068884,2.4499342,-0.9352398,-11.301413
83424000,-0.46906832,0.05280709,-0.023407307,2.4143527,-0.9176357,-11.340591
83428000,-0.46769625,0.047392894,-0.019002693,2.4860127,-0.9466823,-11.2844
83436000,-0.46722096,0.04479929,-0.023801615,2.489492,-0.8718901,-11.156871
83440000,-0.46542993,0.040660754,-0.024521576,2.525703,-0.9077872,-11.108634
83448000,-0.45771727,0.044786237,-0.02461282,2.5186558,-0.96382326,-11.113254
83452000,-0.45817912,0.048527222,-0.02239717,2.4619071,-0.97062343,-11.213439
83460000,-0.44669536,0.050678343,-0.028252117,2.5438714,-0.94523525,-11.122838
83464000,-0.44558498,0.05151261,-0.026745737,2.461,-0.90583503,-10.990694
83468000,-0.44643563,0.052624803,-0.021815788,2.5042412,-0.9201272,-11.022123
83472000,-0.44327754,0.040226772,-0.018126432,2.5218425,-0.960522,-11.082224
83476000,-0.4426312,0.039126195,-0.024775207,2.5145547,-0.9405768,-10.980942
83484000,-0.43824208,0.05073729,-0.02490305,2.5469117,-0.9708354,-11.00758
83492000,-0.424739,0.052608233,-0.023233313,2.601184,-0.8852763,-10.976651
83500000,-0.41707748,0.043368295,-0.027019935,2.5892415,-0.9822596,-10.92775
83504000,-0.41336906,0.04785648,-0.02568748,2.5807629,-0.95038193,-10.959882
83508000,-0.41474167,0.04857949,-0.021588402,2.5405679,-0.98894566,-10.983077
83512000,-0.4124743,0.047882836,-0.024042465,2.5310857,-0.91376245,-10.914941
83520000,-0.39495748,0.050347064,-0.031727288,2.657189,-0.88112867,-10.885418
83524000,-0.396205,0.050092783,-0.0305447,2.6213236,-0.89303327,-10.851035
83528000,-0.4017427,0.04984904,-0.031518925,2.6308646,-0.95138705,-10.842023
83536000,-0.3930209,0.043524444,-0.030891206,2.5539896,-0.9824528,-10.912342
83540000,-0.39735296,0.043810915,-0.036211036,2.6316528,-0.9568509,-10.840564
83548000,-0.3972544,0.049558595,-0.031829808,2.5867171,-1.005105,-10.812269
83552000,-0.3901912,0.046940234,-0.03583578,2.6305563,-0.9038003,-10.829893
83556000,-0.38438272,0.04482433,-0.037598506,2.625146,-0.87381357,-10.838071
83560000,-0.38157424,0.0421938,-0.039291486,2.6195505,-0.89167684,-10.762942
83568000,-0.3758115,0.04182799,-0.044575315,2.6082907,-0.9517963,-10.756746
83576000,-0.36145896,0.041379098,-0.036572397,2.6448755,-1.0058956,-10.831741
83580000,-0.36582422,0.043889325,-0.037363257,2.6843293,-0.9739594,-10.823691
83584000,-0.3672212,0.04181932,-0.0406732,2.7189183,-1.0349231,-10.762789
83588000,-0.36339024,0.043102138,-0.043428425,2.7028356,-0.9975037,-10.779434
83592000,-0.36017773,0.048441645,-0.044977922,2.717086,-0.94086766,-10.779678
83596000,-0.35226387,0.04357533,-0.047220312,2.6992345,-0.95128846,-10.723481
83600000,-0.3537915,0.042663652,-0.042538885,2.6272354,-0.95378226,-10.712903
83608000,-0.35260138,0.04574121,-0.047091633,2.7189028,-1.0103606,-10.661316
83612000,-0.35739604,0.040913012,-0.051936843,2.7235744,-0.9761904,-10.733821
83616000,-0.34886006,0.034999225,-0.04943312,2.6746306,-1.0367945,-10.795301
83620000,-0.3458353,0.04073876,-0.048571106,2.7234912,-1.0368898,-10.753263
83624000,-0.34257925,0.042334057,-0.05315292,2.7273488,-0.9568242,-10.705847
83632000,-0.329684,0.051712338,-0.04491512,2.7602859,-0.95820487,-10.655927
83636000,-0.3293694,0.046841357,-0.04700986,2.7242901,-0.8965205,-10.693224
83640000,-0.33253762,0.044630505,-0.057042055,2.657803,-0.8747403,-10.654412
83644000,-0.33217523,0.046201985,-0.0523298,2.6647465,-0.90311235,-10.594711
83648000,-0.32962784,0.044166617,-0.049211454,2.6782818,-0.8865924,-10.601902
83656000,-0.31965947,0.050748393,-0.04995839,2.681915,-0.98544866,-10.634195
83664000,-0.32373613,0.053040754,-0.05059412,2.736117,-0.93726885,-10.602312
83672000,-0.31281155,0.048035696,-0.05132336,2.735445,-0.9849457,-10.6705675
83676000,-0.31026456,0.04740156,-0.061256904,2.7479224,-0.95590496,-10.633347
83684000,-0.30805793,0.046369776,-0.052407604,2.8317378,-0.93347883,-10.632217
83688000,-0.30095187,0.04019583,-0.050773457,2.821267,-0.98597914,-10.592837
83692000,-0.29761842,0.041627556,-0.051641475,2.79954,-0.9879857,-10.592347
83700000,-0.29772657,0.0439383,-0.061189618,2.7964869,-1.0389434,-10.678189
83708000,-0.290873,0.043415025,-0.05947432,2.781896,-0.97779995,-10.491085
83712000,-0.28860322,0.0402103,-0.057380382,2.7411487,-0.9278077,-10.458569
83720000,-0.28066412,0.037092544,-0.05967079,2.834814,-0.9586807,-10.550373
83724000,-0.28164196,0.034627225,-0.061894942,2.847555,-0.9813319,-10.509559
83728000,-0.27942485,0.03840159,-0.068713166,2.8375244,-0.90949017,-10.521629
83732000,-0.27481323,0.043687295,-0.07116254,2.849276,-0.91728866,-10.559795
83736000,-0.27632967,0.04029918,-0.07236039,2.91443,-1.0280027,-10.489728
83740000,-0.27507767,0.031872645,-0.07165542,2.8857172,-1.0449606,-10.472399
83748000,-0.27156454,0.03934985,-0.07089864,2.880576,-1.0910789,-10.602687
83752000,-0.27056542,0.03359876,-0.066388026,2.9059505,-1.0492874,-10.564612
83756000,-0.27407336,0.03044118,-0.066538535,2.331172,-0.98606366,-10.564893
83760000,-0.27506477,0.03181519,-0.07312434,1.4212378,-0.9510641,-10.596052
83768000,-0.28089,0.03957871,-0.069692686,0.37491068,-0.7284692,-10.732824
83772000,-0.2910294,0.042161725,-0.06875426,-0.11316482,-0.7252099,-10.737413
83776000,-0.2997276,0.051256705,-0.063121825,-0.39321178,-0.71440256,-10.810241
83780000,-0.31344634,0.055392195,-0.061693434,-0.60104614,-0.7004506,-10.835157
83784000,-0.31889004,0.053916678,-0.06359861,-0.83375686,-0.72943336,-10.836366
83788000,-0.3256917,0.05821243,-0.06216165,-0.9574589,-0.6822706,-10.853855
83796000,-0.34723994,0.06887575,-0.055569336,-1.0667806,-0.59444124,-10.853241
83800000,-0.35720202,0.07024857,-0.05064205,-1.1447076,-0.57883584,-10.85355
83804000,-0.3656081,0.07315582,-0.048518296,-1.2150751,-0.59713924,-10.873478
83808000,-0.37074918,0.07855172,-0.04575206,-1.269466,-0.5535269,-10.869019
83812000,-0.37804306,0.08335863,-0.04190671,-1.3060931,-0.539551,-10.971854
83816000,-0.38453716,0.08528045,-0.037360594,-1.3290201,-0.5898555,-10.917678
83820000,-0.39084765,0.09144249,-0.033770025,-1.2961396,-0.52393305,-10.838858
83824000,-0.40082905,0.102029644,-0.03767667,-1.2848402,-0.52916384,-10.924146
83828000,-0.40383577,0.10164258,-0.036108296,-1.3767205,-0.5751412,-10.949178
83836000,-0.4129598,0.10216397,-0.03408813,-1.3078452,-0.55429465,-11.060279
83840000,-0.4180224,0.10393887,-0.030227877,-1.3033595,-0.55713344,-11.058753
83844000,-0.4207219,0.105747774,-0.02649249,-1.2664725,-0.5056327,-11.0640955
83848000,-0.4271361,0.10607086,-0.028156733,-1.2697034,-0.52144885,-11.114061
83856000,-0.43001562,0.11215655,-0.01787322,-1.1285338,-0.4547062,-11.119731
83860000,-0.4275787,0.11339246,-0.015475656,-1.1506513,-0.45976412,-11.132782
83864000,-0.42438102,0.111883916,-0.014194301,-1.1043475,-0.4796901,-11.150507
83868000,-0.4277788,0.11641621,-0.015559887,-1.051951,-0.5113917,-11.208246
83876000,-0.4326524,0.1104146,-0.017574707,-1.1048638,-0.46973574,-11.241111
83880000,-0.43125403,0.10871235,-0.009992709,-1.0123165,-0.50901335,-11.283719
83884000,-0.43037537,0.09819584,-0.007520188,-0.9035128,-0.48119175,-11.32233
83888000,-0.43141937,0.0992985,-0.009384617,-0.84285945,-0.43806365,-11.3182745
83896000,-0.4247721,0.099724874,-0.004545874,-0.93210953,-0.33053488,-11.313167
83900000,-0.420265,0.09499826,-0.006432345,-0.94515514,-0.34488305,-11.279601
83904000,-0.41974217,0.09675556,-0.003349922,-0.86877614,-0.4350397,-11.3185835
83908000,-0.42441905,0.09585135,0.00223577,-0.8021883,-0.46631613,-11.3911495
83912000,-0.42163408,0.086585216,-0.004316188,-0.7194807,-0.42384958,-11.399891
83920000,-0.40953055,0.09522472,-0.015665494,-0.66134095,-0.47869706,-11.37832
83924000,-0.41294608,0.08912743,-0.012384013,-0.68193334,-0.49882123,-11.371865
83928000,-0.41060627,0.08032552,-0.017210925,-0.6454475,-0.4956512,-11.361434
