timestamp,roll,pitch,yaw,thrust_body[0]
81356000,-0.17719759,-0.17001498,-0.002809809,1
81360000,-0.17823263,-0.17031167,-0.002809809,1
81364000,-0.17927884,-0.15711486,-0.002809809,1
81372000,-0.18140353,-0.15798497,-0.002809809,1
81380000,-0.18350935,-0.15918122,-0.002809809,1
81384000,-0.18450598,-0.15982117,-0.002809809,1
81388000,-0.18554422,-0.14710546,-0.002809809,1
81392000,-0.18655749,-0.14786093,-0.002809809,1
81396000,-0.1875208,-0.14864959,-0.002809809,1
81400000,-0.18850976,-0.14948976,-0.002809809,1
81404000,-0.18953273,-0.15046524,-0.002809809,1
81408000,-0.19054537,-0.15154229,-0.002809809,1
81412000,-0.19156086,-0.1393512,-0.002809809,1
81416000,-0.19257987,-0.14050743,-0.002809809,1
81420000,-0.1935719,-0.1417194,-0.002809809,1
81424000,-0.19456255,-0.14301164,-0.002809809,1
81428000,-0.1954934,-0.14442141,-0.002809809,1
81432000,-0.1963979,-0.14588118,-0.002809809,1
81436000,-0.19732812,-0.13413313,-0.002809809,1
81440000,-0.19825743,-0.13566326,-0.002809809,1
81444000,-0.19917016,-0.13727342,-0.002809809,1
81448000,-0.20007095,-0.13892621,-0.002809809,1
81452000,-0.20099433,-0.14059508,-0.002809809,1
81460000,-0.20281653,-0.13088359,-0.002809809,1
81464000,-0.2037448,-0.13266344,-0.002809809,1
81468000,-0.20465319,-0.13452101,-0.002809809,1
81476000,-0.20641969,-0.13830568,-0.002809809,1
81480000,-0.2073087,-0.14022121,-0.002809809,1
81484000,-0.20814572,-0.12910806,-0.002809809,1
81488000,-0.2089872,-0.13108613,-0.002809809,1
81492000,-0.20981081,-0.13304184,-0.002809809,1
81496000,-0.21057543,-0.13499658,-0.002809809,1
81500000,-0.21136317,-0.13699077,-0.002809809,1
81504000,-0.2121895,-0.1390266,-0.002809809,1
81508000,-0.2129873,-0.12806694,-0.002809809,1
81512000,-0.21376476,-0.13007224,-0.002809809,1
81520000,-0.21527217,-0.13407458,-0.002809809,1
81524000,-0.2160246,-0.13606738,-0.002809809,1
81528000,-0.21674137,-0.13808846,-0.002809809,1
81532000,-0.21746688,-0.12720586,-0.002809809,1
81536000,-0.21821229,-0.12924619,-0.002809809,1
81540000,-0.21894307,-0.13126485,-0.002809809,1
81544000,-0.2196659,-0.13331336,-0.002809809,1
81548000,-0.22037637,-0.13532867,-0.002809809,1
81552000,-0.22106881,-0.13735679,-0.002809809,1
81556000,-0.22175589,-0.1265526,-0.002809809,1
81560000,-0.22245327,-0.12861098,-0.002809809,1
81564000,-0.22315015,-0.13061692,-0.002809809,1
81568000,-0.22382069,-0.13261464,-0.002809809,1
81576000,-0.22510614,-0.13648668,-0.002809809,1
81580000,-0.22580005,-0.12552594,-0.002809809,1
81584000,-0.22647445,-0.1273827,-0.002809809,1
81588000,-0.2271395,-0.12921381,-0.002809809,1
81596000,-0.22836787,-0.13287994,-0.002809809,1
81600000,-0.22896402,-0.13469148,-0.002809809,1
81604000,-0.22954355,-0.12359377,-0.002809809,1
81612000,-0.23067786,-0.12716316,-0.002809809,1
81616000,-0.23123723,-0.12892666,-0.002809809,1
81620000,-0.23181471,-0.13065536,-0.002809809,1
81624000,-0.23240162,-0.13235934,-0.002809809,1
81628000,-0.2329974,-0.12125503,-0.002809809,1
81636000,-0.23413923,-0.12463497,-0.002809809,1
81640000,-0.2346508,-0.12624857,-0.002809809,1
81644000,-0.23515458,-0.12781899,-0.002809809,1
81648000,-0.23563066,-0.12936576,-0.002809809,1
81652000,-0.23607981,-0.118149355,-0.002809809,1
81660000,-0.2369815,-0.1211515,-0.002809809,1
81664000,-0.23745602,-0.12263507,-0.002809809,1
81668000,-0.23793213,-0.12408009,-0.002809809,1
81672000,-0.2384112,-0.12553114,-0.002809809,1
81676000,-0.23889348,-0.114187375,-0.002809809,1
81680000,-0.23935916,-0.115555145,-0.002809809,1
81684000,-0.23981893,-0.116878875,-0.002809809,1
81688000,-0.24028385,-0.11818533,-0.002809809,1
81692000,-0.24076034,-0.11951005,-0.002809809,1
81696000,-0.2412154,-0.12086555,-0.002809809,1
81700000,-0.24164884,-0.10945789,-0.002809809,1
81704000,-0.2420836,-0.11073532,-0.002809809,1
81708000,-0.24250402,-0.112018086,-0.002809809,1
81712000,-0.24292831,-0.11335066,-0.002809809,1
81716000,-0.2433629,-0.11463047,-0.002809809,1
81720000,-0.24377173,-0.1158705,-0.002809809,1
81724000,-0.24412929,-0.10435156,-0.002809809,1
81728000,-0.24450675,-0.105536915,-0.002809809,1
81732000,-0.24493262,-0.1066938,-0.002809809,1
81736000,-0.24533941,-0.10786487,-0.002809809,1
81740000,-0.2457488,-0.10900151,-0.002809809,1
81744000,-0.24616225,-0.11015768,-0.002809809,1
81748000,-0.2465474,-0.09857042,-0.002809809,1
81752000,-0.24693616,-0.09971125,-0.002809809,1
81760000,-0.2477351,-0.10200321,-0.002809809,1
81764000,-0.24812391,-0.103193685,-0.002809809,1
81768000,-0.2485282,-0.10433029,-0.002809809,1
81772000,-0.24892822,-0.092667446,-0.002809809,1
81780000,-0.24964729,-0.094980136,-0.002809809,1
81784000,-0.25002682,-0.09607684,-0.002809809,1
81788000,-0.25039357,-0.09718097,-0.002809809,1
81792000,-0.25073484,-0.09834356,-0.002809809,1
81796000,-0.2510688,-0.08670407,-0.002809809,1
81800000,-0.25141227,-0.08776556,-0.002809809,1
81804000,-0.2517566,-0.08883384,-0.002809809,1
81808000,-0.25211313,-0.08996916,-0.002809809,1
81812000,-0.25246724,-0.09108504,-0.002809809,1
81816000,-0.2528113,-0.092157654,-0.002809809,1
81820000,-0.2531405,-0.08041503,-0.002809809,1
81828000,-0.25385246,-0.0825512,-0.002809809,1
81832000,-0.25419956,-0.083655246,-0.002809809,1
81836000,-0.25451437,-0.084759556,-0.002809809,1
81840000,-0.25482202,-0.08587926,-0.002809809,1
81844000,-0.2551559,-0.07417381,-0.002809809,1
81848000,-0.25549734,-0.07532558,-0.002809809,1
81852000,-0.2558117,-0.07646703,-0.002809809,1
81856000,-0.25613248,-0.07761057,-0.002809809,1
81860000,-0.25648165,-0.07877782,-0.002809809,1
81864000,-0.2568034,-0.07994644,-0.002809809,1
81872000,-0.25745052,-0.06945719,-0.002809809,1
81876000,-0.2577823,-0.07066579,-0.002809809,1
81880000,-0.2581268,-0.07189484,-0.002809809,1
81884000,-0.2584417,-0.0731203,-0.002809809,1
81888000,-0.25873023,-0.07430635,-0.002809809,1
81892000,-0.2590265,-0.062623546,-0.002809809,1
81896000,-0.2593534,-0.06390461,-0.002809809,1
81900000,-0.2596725,-0.06524826,-0.002809809,1
81904000,-0.26000395,-0.06655124,-0.002809809,1
81908000,-0.26031607,-0.06778157,-0.002809809,1
81912000,-0.26060712,-0.06901355,-0.002809809,1
81916000,-0.26093522,-0.057318535,-0.002809809,1
81920000,-0.26128423,-0.058565397,-0.002809809,1
81924000,-0.26163033,-0.059852112,-0.002809809,1
81928000,-0.2619521,-0.061132368,-0.002809809,1
81932000,-0.2622489,-0.06236214,-0.002809809,1
81940000,-0.2627942,-0.05200756,-0.002809809,1
81944000,-0.26309812,-0.053339228,-0.002809809,1
81948000,-0.26338524,-0.0546329,-0.002809809,1
81952000,-0.26365474,-0.055936385,-0.002809809,1
81956000,-0.26396635,-0.0572366,-0.002809809,1
81960000,-0.2642568,-0.058605067,-0.002809809,1
81964000,-0.26455852,-0.04696436,-0.002809809,1
81968000,-0.26489952,-0.04826386,-0.002809809,1
81972000,-0.26518375,-0.049594697,-0.002809809,1
81976000,-0.26542836,-0.05097247,-0.002809809,1
81980000,-0.26569852,-0.052336935,-0.002809809,1
81984000,-0.26600438,-0.05368595,-0.002809809,1
81988000,-0.2663258,-0.04204289,-0.002809809,1
81992000,-0.26663944,-0.043371204,-0.002809809,1
81996000,-0.26690143,-0.044696912,-0.002809809,1
82000000,-0.26715213,-0.046054702,-0.002809809,1
82008000,-0.26768684,-0.04883963,-0.002809809,1
82012000,-0.2679535,-0.037127703,-0.002809809,1
82016000,-0.2682332,-0.03845202,-0.002809809,1
82020000,-0.26851827,-0.039788347,-0.002809809,1
82024000,-0.26877093,-0.041159123,-0.002809809,1
82028000,-0.26899022,-0.042570543,-0.002809809,1
82032000,-0.2692413,-0.043946482,-0.002809809,1
82036000,-0.2695039,-0.03219574,-0.002809809,1
82040000,-0.26975912,-0.033637047,-0.002809809,1
82044000,-0.2700068,-0.03512297,-0.002809809,1
82052000,-0.27045426,-0.03802677,-0.002809809,1
82056000,-0.27066728,-0.039484926,-0.002809809,1
82060000,-0.2708989,-0.02775056,-0.002809809,1
82064000,-0.2711187,-0.029180057,-0.002809809,1
82068000,-0.2713316,-0.030614004,-0.002809809,1
82072000,-0.2715335,-0.032027356,-0.002809809,1
82076000,-0.27173164,-0.033469196,-0.002809809,1
82080000,-0.27193972,-0.034873016,-0.002809809,1
82084000,-0.2721497,-0.023051808,-0.002809809,1
82092000,-0.27259374,-0.02600231,-0.002809809,1
82096000,-0.27275217,-0.027424095,-0.002809809,1
82100000,-0.2729472,-0.028883126,-0.002809809,1
82108000,-0.27332732,-0.01856307,-0.002809809,1
82112000,-0.2735034,-0.020013873,-0.002809809,1
82116000,-0.27370366,-0.021425318,-0.002809809,1
82120000,-0.2738991,-0.022830721,-0.002809809,1
82124000,-0.2740713,-0.024272194,-0.002809809,1
82132000,-0.27440965,-0.01379107,-0.002809809,1
82140000,-0.27474388,-0.016652714,-0.002809809,1
82144000,-0.27493998,-0.018043341,-0.002809809,1
82148000,-0.27515575,-0.019447284,-0.002809809,1
82152000,-0.2753189,-0.02089619,-0.002809809,1
82156000,-0.2754622,-0.009022516,-0.002809809,1
82164000,-0.27574906,-0.011804412,-0.002809809,1
82168000,-0.27591482,-0.013214826,-0.002809809,1
82172000,-0.27609548,-0.014623586,-0.002809809,1
82180000,-0.27638316,-0.004037736,-0.002809809,1
82184000,-0.27653846,-0.005410812,-0.002809809,1
82188000,-0.2767159,-0.006803805,-0.002809809,1
82192000,-0.2768605,-0.008186013,-0.002809809,1
82196000,-0.27697256,-0.009543273,-0.002809809,1
82204000,-0.2773003,0.001114344,-0.002809809,1
82212000,-0.277638,-0.001682725,-0.002809809,1
82216000,-0.27782494,-0.003043656,-0.002809809,1
82220000,-0.27799386,-0.004423676,-0.002809809,1
82224000,-0.27813572,-0.005794128,-0.002809809,1
82228000,-0.27826878,0.006312119,-0.002809809,1
82236000,-0.27855608,0.003534278,-0.002809809,1
82240000,-0.27869752,0.002179565,-0.002809809,1
82244000,-0.27881595,0.000827713,-0.002809809,1
82248000,-0.27896047,-0.000553593,-0.002809809,1
82252000,-0.27913442,0.011580322,-0.002809809,1
82256000,-0.2793122,0.010211535,-0.002809809,1
82260000,-0.27944586,0.008803545,-0.002809809,1
82264000,-0.27955827,0.007459405,-0.002809809,1
82268000,-0.27970406,0.006144663,-0.002809809,1
82276000,-0.279969,0.01704931,-0.002809809,1
82284000,-0.28020942,0.014464,-0.002809809,1
82292000,-0.28049904,0.011799637,-0.002809809,1
82296000,-0.28065026,0.010413621,-0.002809809,1
82300000,-0.28077704,0.022608202,-0.002809809,1
82304000,-0.28089792,0.021289857,-0.002809809,1
82308000,-0.2810206,0.019998318,-0.002809809,1
82312000,-0.28110868,0.01866632,-0.002809809,1
82316000,-0.28119883,0.017328147,-0.002809809,1
82320000,-0.2813215,0.016013063,-0.002809809,1
82324000,-0.28142384,0.028373541,-0.002809809,1
82328000,-0.2815128,0.027041774,-0.002809809,1
82332000,-0.28162533,0.025723543,-0.002809809,1
82336000,-0.28172782,0.024451757,-0.002809809,1
82340000,-0.28183374,0.023156207,-0.002809809,1
82344000,-0.2819451,0.021815343,-0.002809809,1
82348000,-0.2820475,0.03418758,-0.002809809,1
82352000,-0.28211573,0.032878622,-0.002809809,1
82360000,-0.2822538,0.030258426,-0.002809809,1
82364000,-0.2823423,0.028918907,-0.002809809,1
82368000,-0.2824546,0.027598003,-0.002809809,1
82372000,-0.28257215,0.040015236,-0.002809809,1
82376000,-0.2826918,0.038719527,-0.002809809,1
82380000,-0.28281978,0.037447378,-0.002809809,1
82384000,-0.2829496,0.036138006,-0.002809809,1
82388000,-0.28306508,0.03483116,-0.002809809,1
82392000,-0.28317228,0.03349827,-0.002809809,1
82396000,-0.28330734,0.045975726,-0.002809809,1
82400000,-0.28346005,0.044626188,-0.002809809,1
82404000,-0.28359842,0.043285385,-0.002809809,1
82408000,-0.28373164,0.041961774,-0.002809809,1
82412000,-0.2838536,0.040636458,-0.002809809,1
82416000,-0.28397208,0.039357636,-0.002809809,1
82420000,-0.28412485,0.051923852,-0.002809809,1
82424000,-0.28429532,0.05062359,-0.002809809,1
82428000,-0.28446844,0.049338087,-0.002809809,1
82436000,-0.28475726,0.046710316,-0.002809809,1
82440000,-0.28489336,0.045416653,-0.002809809,1
82444000,-0.28500143,0.057997845,-0.002809809,1
82448000,-0.28513744,0.0566979,-0.002809809,1
82452000,-0.28526485,0.055422306,-0.002809809,1
82460000,-0.28555173,0.052790917,-0.002809809,1
82464000,-0.28569767,0.05143854,-0.002809809,1
82468000,-0.28583756,0.06405911,-0.002809809,1
82472000,-0.28596568,0.06271557,-0.002809809,1
82476000,-0.28606465,0.061358158,-0.002809809,1
82480000,-0.28619215,0.05999825,-0.002809809,1
82484000,-0.28632414,0.05867926,-0.002809809,1
82492000,-0.2866069,0.07007072,-0.002809809,1
82496000,-0.28677726,0.06875364,-0.002809809,1
82500000,-0.2869048,0.067452945,-0.002809809,1
82504000,-0.2870394,0.06610673,-0.002809809,1
82512000,-0.2872819,0.06331228,-0.002809809,1
82516000,-0.2874358,0.075929634,-0.002809809,1
82520000,-0.28757253,0.07453299,-0.002809809,1
82524000,-0.28771833,0.07315374,-0.002809809,1
82528000,-0.2878489,0.071791396,-0.002809809,1
82532000,-0.28799534,0.0704256,-0.002809809,1
82536000,-0.2881513,0.06907299,-0.002809809,1
82540000,-0.2882671,0.08176294,-0.002809809,1
82544000,-0.28837013,0.080377966,-0.002809809,1
82548000,-0.28849477,0.07903057,-0.002809809,1
82552000,-0.28862745,0.07768103,-0.002809809,1
82556000,-0.28873557,0.076359145,-0.002809809,1
82560000,-0.2888422,0.075024776,-0.002809809,1
82564000,-0.28893077,0.08769815,-0.002809809,1
82568000,-0.2890513,0.086257264,-0.002809809,1
82572000,-0.2892119,0.08483848,-0.002809809,1
82580000,-0.28945315,0.08199692,-0.002809809,1
82588000,-0.28971753,0.093372054,-0.002809809,1
82592000,-0.28983575,0.09200619,-0.002809809,1
82596000,-0.28994098,0.09061589,-0.002809809,1
82600000,-0.2900646,0.08919074,-0.002809809,1
82608000,-0.29029003,0.08642176,-0.002809809,1
82612000,-0.2903854,0.099248484,-0.002809809,1
82616000,-0.29049546,0.09786309,-0.002809809,1
82620000,-0.29062524,0.0964786,-0.002809809,1
82628000,-0.2908302,0.093544155,-0.002809809,1
82632000,-0.2909614,0.09209135,-0.002809809,1
82636000,-0.2910852,0.10487677,-0.002809809,1
82640000,-0.29118347,0.103438556,-0.002809809,1
82648000,-0.29145575,0.10051212,-0.002809809,1
82652000,-0.29158875,0.09907001,-0.002809809,1
82660000,-0.29188287,0.110422686,-0.002809809,1
82668000,-0.29213813,0.107548036,-0.002809809,1
82672000,-0.29226476,0.10616172,-0.002809809,1
82676000,-0.2923843,0.104774624,-0.002809809,1
82680000,-0.29250348,0.10333999,-0.002809809,1
82684000,-0.29263738,0.11615876,-0.002809809,1
82688000,-0.29278177,0.11465135,-0.002809809,1
82692000,-0.2929084,0.11318413,-0.002809809,1
82696000,-0.2930218,0.111765526,-0.002809809,1
82700000,-0.2931255,0.110367924,-0.002809809,1
82708000,-0.293335,0.12184182,-0.002809809,1
82712000,-0.29342765,0.12044706,-0.002809809,1
82716000,-0.29354227,0.11903017,-0.002809809,1
82720000,-0.29363883,0.11758664,-0.002809809,1
82724000,-0.2936896,0.1161179,-0.002809809,1
82728000,-0.29377082,0.11467349,-0.002809809,1
82732000,-0.2938823,0.12758228,-0.002809809,1
82736000,-0.29397544,0.12611566,-0.002809809,1
82740000,-0.29407656,0.124689005,-0.002809809,1
82744000,-0.29417488,0.123251684,-0.002809809,1
82748000,-0.29425225,0.12178134,-0.002809809,1
82756000,-0.29450783,0.13326143,-0.002809809,1
82760000,-0.2946318,0.13178892,-0.002809809,1
82764000,-0.29475293,0.13027371,-0.002809809,1
82768000,-0.29486626,0.12877527,-0.002809809,1
82772000,-0.29495868,0.12727569,-0.002809809,1
82776000,-0.29502636,0.1257596,-0.002809809,1
82780000,-0.2951323,0.13869946,-0.002809809,1
82784000,-0.29524434,0.13726243,-0.002809809,1
82792000,-0.2953554,0.13429268,-0.002809809,1
82796000,-0.29544184,0.1327831,-0.002809809,1
82804000,-0.295692,0.14419656,-0.002809809,1
82812000,-0.29591194,0.14114599,-0.002809809,1
82820000,-0.29608035,0.13819614,-0.002809809,1
82824000,-0.29615974,0.13672026,-0.002809809,1
82828000,-0.29626676,0.1496497,-0.002809809,1
82832000,-0.29636365,0.14810824,-0.002809809,1
82836000,-0.29645836,0.14665169,-0.002809809,1
82840000,-0.29656044,0.14521694,-0.002809809,1
82844000,-0.2966763,0.14375962,-0.002809809,1
82852000,-0.2968378,0.15522741,-0.002809809,1
82856000,-0.29690483,0.15373014,-0.002809809,1
82860000,-0.2969676,0.15225837,-0.002809809,1
82868000,-0.29716074,0.14925486,-0.002809809,1
82872000,-0.29724574,0.14775237,-0.002809809,1
82876000,-0.29733717,0.16077985,-0.002809809,1
82880000,-0.29745832,0.15932943,-0.002809809,1
82884000,-0.2976127,0.15788256,-0.002809809,1
82888000,-0.29776058,0.15639101,-0.002809809,1
82892000,-0.2978528,0.1549067,-0.002809809,1
82896000,-0.29792178,0.15338136,-0.002809809,1
82900000,-0.29799378,0.16638698,-0.002809809,1
82908000,-0.29815257,0.1633433,-0.002809809,1
82912000,-0.29826137,0.16182669,-0.002809809,1
82916000,-0.29837403,0.1603084,-0.002809809,1
82920000,-0.2984895,0.15882641,-0.002809809,1
82924000,-0.29858243,0.17192213,-0.002809809,1
82928000,-0.29864055,0.1703817,-0.002809809,1
82932000,-0.2986959,0.16884796,-0.002809809,1
82940000,-0.29887754,0.16577111,-0.002809809,1
82944000,-0.2989329,0.16427861,-0.002809809,1
82948000,-0.29898667,0.1773542,-0.002809809,1
82956000,-0.29918364,0.17423588,-0.002809809,1
82960000,-0.29926598,0.17270456,-0.002809809,1
82964000,-0.2993405,0.17118523,-0.002809809,1
82968000,-0.2994396,0.169657,-0.002809809,1
82972000,-0.2995383,0.17652954,-0.002809809,1
82976000,-0.2996593,0.17495432,-0.002809809,1
82980000,-0.29979688,0.17345196,-0.002809809,1
82984000,-0.29991645,0.17197402,-0.002809809,1
82988000,-0.30003315,0.17041764,-0.002809809,1
82992000,-0.30015504,0.1688393,-0.002809809,1
82996000,-0.30027828,0.16728261,-0.002809809,1
83000000,-0.30039158,0.16573972,-0.002809809,1
83004000,-0.30049032,0.16421965,-0.002809809,1
83012000,-0.30061796,0.16115704,-0.002809809,1
83016000,-0.3006686,0.15968975,-0.002809809,1
83020000,-0.30072448,0.15824607,-0.002809809,1
83024000,-0.30081525,0.1567781,-0.002809809,1
83028000,-0.30093122,0.15529564,-0.002809809,1
83036000,-0.30111942,0.1523352,-0.002809809,1
83040000,-0.30122352,0.15085277,-0.002809809,1
83044000,-0.888334,0.1681598,0.05187098,1
83048000,-0.8885183,0.16672078,0.052165963,1
83052000,-0.8887207,0.16526873,0.05246659,1
83056000,-0.8887579,0.16380422,0.0527407,1
83060000,-0.8885778,0.16230756,0.052982353,1
83064000,-0.8881909,0.16078857,0.053190965,1
83068000,-0.85516804,0.15926121,0.0533623,1
83072000,-0.8543662,0.15774643,0.053494304,1
83076000,-0.8534138,0.1562086,0.053602047,1
83080000,-0.8523114,0.15466309,0.05368248,1
83084000,-0.8510147,0.15312679,0.05372425,1
83088000,-0.84953976,0.15158801,0.053731974,1
83092000,-0.86713254,0.15010089,0.053912647,1
83096000,-0.86537623,0.14855918,0.053863324,1
83100000,-0.86344576,0.14698789,0.053784385,1
83104000,-0.8614049,0.14541467,0.053682357,1
83108000,-0.85930914,0.14384274,0.05356671,1
83112000,-0.8570797,0.14228725,0.05342018,1
83116000,-0.8593483,0.14075558,0.053240202,1
83120000,-0.85690093,0.13922146,0.05304251,1
83124000,-0.85439736,0.13763869,0.052838802,1
83128000,-0.85181254,0.13606882,0.05261389,1
83132000,-0.84913623,0.13453487,0.052362032,1
83140000,-0.847387,0.13151637,0.051809505,1
83144000,-0.84456676,0.13006228,0.051506076,1
83148000,-0.84168833,0.12858753,0.05119107,1
83156000,-0.8357798,0.12556897,0.050530933,1
83160000,-0.8327641,0.12411925,0.050173923,1
83168000,-0.8303841,0.12120858,0.04941997,1
83172000,-0.8272486,0.11969887,0.0490366,1
83176000,-0.82403356,0.1182294,0.048627727,1
83180000,-0.82073796,0.116828874,0.048189163,1
83184000,-0.81741416,0.115416765,0.047742628,1
83188000,-0.8169739,0.11400307,0.047289778,1
83196000,-0.8102788,0.11128764,0.04652343,1
83200000,-0.80692714,0.10996378,0.04604072,1
83204000,-0.80358034,0.108624436,0.04555713,1
83208000,-0.80023736,0.107302874,0.045068014,1
83212000,-0.81374973,0.10603928,0.04456309,1
83216000,-0.8103854,0.104829304,0.044048123,1
83220000,-0.80699337,0.103621475,0.043523885,1
83224000,-0.80358195,0.10240688,0.042993076,1
83228000,-0.8001578,0.10117385,0.04245835,1
83232000,-0.7967414,0.09999553,0.041915074,1
83236000,-0.7952798,0.09889303,0.041359387,1
83240000,-0.79184854,0.09779298,0.040797427,1
83244000,-0.7884228,0.096698865,0.040232733,1
83252000,-0.7815572,0.0945319,0.039088592,1
83260000,-0.77644974,0.09243231,0.037911225,1
83264000,-0.77297145,0.09146067,0.037307438,1
83268000,-0.76950026,0.090504296,0.03670076,1
83272000,-0.76602787,0.08954406,0.036091417,1
83276000,-0.76257366,0.08860252,0.035481192,1
83284000,-0.7574324,0.08672267,0.034256488,1
83288000,-0.7540609,0.08585865,0.03364785,1
83292000,-0.75084555,0.08501941,0.033444338,1
83296000,-0.7474688,0.08413331,0.03282366,1
83300000,-0.74409395,0.083260454,0.03219973,1
83308000,-0.75179577,0.08157458,0.030956766,1
83316000,-0.74509555,0.07991562,0.029695055,1
83320000,-0.7417544,0.07905166,0.029065095,1
83324000,-0.7384079,0.07823931,0.028427677,1
83328000,-0.7351009,0.077414185,0.027797097,1
83332000,-0.7326224,0.076604865,0.027173968,1
83340000,-0.7261545,0.07512239,0.025920331,1
83344000,-0.72293127,0.074385814,0.02529234,1
83348000,-0.71971935,0.07362983,0.024665866,1
83352000,-0.7165048,0.072896846,0.024035279,1
83356000,-0.71317434,0.072213404,0.023396004,1
83364000,-0.7067398,0.070858836,0.022117056,1
83368000,-0.70355535,0.0701956,0.021480866,1
83372000,-0.7004057,0.06958701,0.020847265,1
83376000,-0.69721687,0.06898692,0.020203246,1
83380000,-0.694235,0.06835863,0.019563772,1
83384000,-0.69111854,0.0677408,0.018932536,1
83388000,-0.6879957,0.067134276,0.018297687,1
83392000,-0.6848725,0.066542104,0.01761905,1
83396000,-0.68178606,0.06594499,0.01698967,1
83400000,-0.6787341,0.065355286,0.016365657,1
83404000,-0.68896127,0.06482474,0.015740706,1
83412000,-0.6830148,0.063827425,0.014511478,1
83416000,-0.68003714,0.063348554,0.013893194,1
83420000,-0.67707986,0.062823474,0.013279507,1
83428000,-0.6701479,0.06179311,0.012056567,1
83432000,-0.6672107,0.06130055,0.011441886,1
83436000,-0.6642751,0.060834102,0.010825465,1
83440000,-0.6613482,0.06040365,0.010208712,1
83444000,-0.6584328,0.059966356,0.009593381,1
83452000,-0.651821,0.05902463,0.008375972,1
83460000,-0.64614594,0.0580141,0.007172531,1
83464000,-0.64333487,0.057513807,0.006574294,1
83468000,-0.64054126,0.05701649,0.005978382,1
83472000,-0.6377737,0.056621645,0.005385352,1
83476000,-0.6335439,0.05623701,0.004788802,1
83484000,-0.6280115,0.055303197,0.003599129,1
83488000,-0.6253,0.05482455,0.00301426,1
83492000,-0.6226357,0.054343108,0.002442211,1
83500000,-0.62926316,0.05351943,0.001294514,1
83504000,-0.626661,0.053082827,0.000727364,1
83508000,-0.6240581,0.05264284,0.000158831,1
83512000,-0.6214636,0.05221086,-0.000409046,1
83516000,-0.6189017,0.05176966,-0.000971011,1
83520000,-0.6163992,0.05132287,-0.001521181,1
83524000,-0.6124798,0.050879247,-0.002073907,1
83528000,-0.60993403,0.050439574,-0.002635957,1
83532000,-0.6074104,0.050019234,-0.003194197,1
83536000,-0.6049192,0.049635116,-0.003746127,1
83540000,-0.6023889,0.049251974,-0.004307725,1
83548000,-0.5956544,0.04839661,-0.005438975,1
83552000,-0.5931678,0.047994062,-0.00599457,1
83556000,-0.59071296,0.047610585,-0.006543931,1
83560000,-0.58827186,0.047250863,-0.007090921,1
83568000,-0.5834168,0.04651811,-0.008182122,1
83572000,-0.5787669,0.046191905,-0.008714677,1
83580000,-0.57411265,0.045481097,-0.009766638,1
83584000,-0.57175463,0.045136638,-0.01030069,1
83588000,-0.5694138,0.044785053,-0.010832046,1
83592000,-0.56707376,0.044394232,-0.011406336,1
83596000,-0.57014465,0.04404243,-0.01192819,1
83600000,-0.5678636,0.04369855,-0.01245074,1
83604000,-0.5656026,0.04334872,-0.012969864,1
83608000,-0.5633175,0.04298626,-0.013495767,1
83612000,-0.5609921,0.042667173,-0.014030339,1
83616000,-0.5587259,0.042395305,-0.014550848,1
83620000,-0.5564788,0.042078413,-0.015069393,1
83624000,-0.5542417,0.04175239,-0.01558689,1
83628000,-0.55203193,0.041386586,-0.016100612,1
83636000,-0.5477462,0.040625423,-0.017101808,1
83640000,-0.5455609,0.04029021,-0.017611668,1
83644000,-0.54338646,0.039940976,-0.018120544,1
83648000,-0.5412348,0.039608378,-0.018624498,1
83652000,-0.5391192,0.039267246,-0.01912148,1
83656000,-0.5370254,0.038884897,-0.01961627,1
83660000,-0.53491473,0.038498435,-0.020116083,1
83664000,-0.53279215,0.038102817,-0.020620098,1
83668000,-0.5285908,0.037734598,-0.021111926,1
83672000,-0.52653456,0.037380055,-0.021600695,1
83676000,-0.52448887,0.037041478,-0.022087146,1
83684000,-0.5204121,0.036376,-0.023058692,1
83688000,-0.5184469,0.03609302,-0.023526203,1
83692000,-0.51350373,0.035799645,-0.024008349,1
83696000,-0.51157224,0.03548464,-0.02447168,1
83700000,-0.5096018,0.035181288,-0.024944136,1
83704000,-0.5076332,0.034863457,-0.025417777,1
83708000,-0.5057081,0.03456576,-0.025880974,1
83712000,-0.5038022,0.03429333,-0.026338972,1
83716000,-0.50703543,0.034033883,-0.026792523,1
83720000,-0.5051739,0.03378838,-0.027239906,1
83724000,-0.5033013,0.033566114,-0.02768904,1
83728000,-0.5014265,0.03331963,-0.028140826,1
83732000,-0.499573,0.033033773,-0.028590884,1
83736000,-0.49770793,0.032777958,-0.029042348,1
83740000,-0.49800396,0.017393075,-0.030727882,0.39849323
83748000,-0.49432603,0.016963556,-0.03165197,0.39849323
83752000,-0.4925097,0.016762555,-0.032108404,0.39849323
83756000,-0.49067125,0.01658956,-0.032568794,0.39849323
83760000,-0.48881176,0.0164131,-0.033035085,0.39849323
83764000,-0.48357594,0.001028912,-0.034848515,0.4208883
83772000,-0.47972855,0.000542344,-0.03586263,0.4208883
83780000,-0.4756415,-0.000132829,-0.036955092,0.4208883
83784000,-0.47351715,-0.000467052,-0.03752313,0.4208883
83788000,-0.46659496,-0.016002603,-0.039570246,0.44200632
83792000,-0.46429583,-0.016394349,-0.040397715,0.44200632
83796000,-0.46200225,-0.016836347,-0.041046076,0.44200632
83800000,-0.4596558,-0.017287664,-0.041710746,0.44200632
83804000,-0.457259,-0.017758768,-0.042392,0.44200632
83808000,-0.45483315,-0.018270463,-0.043086015,0.44200632
83812000,-0.46104932,-0.03398115,-0.04539753,0.4623643
83816000,-0.45855066,-0.034542628,-0.04614315,0.4623643
83820000,-0.45601654,-0.03515111,-0.046904683,0.4623643
83824000,-0.45340616,-0.035832673,-0.047696173,0.4623643
83828000,-0.45077902,-0.036508165,-0.0484941,0.4623643
83836000,-0.44048563,-0.05298803,-0.051863633,0.481527
83840000,-0.43777773,-0.053670704,-0.05271823,0.481527
83844000,-0.43505877,-0.054367047,-0.053579804,0.481527
83848000,-0.43229464,-0.055058118,-0.05445662,0.481527
83856000,-0.426761,-0.056498438,-0.05622523,0.481527
83860000,-0.41835958,-0.07239365,-0.05902228,0.49945027
83864000,-0.41563457,-0.07313111,-0.05992903,0.49945027
83868000,-0.41288123,-0.07389758,-0.060850136,0.49945027
83872000,-0.41010204,-0.07463256,-0.06177861,0.49945027
83876000,-0.40732715,-0.075335786,-0.06270503,0.49945027
83884000,-0.39663,-0.091778874,-0.06660582,0.51608247
83888000,-0.39388222,-0.092392884,-0.067548335,0.51608247
83892000,-0.39075613,-0.09289853,-0.069567405,0.51608247
83896000,-0.38805276,-0.09351509,-0.070512265,0.51608247
83900000,-0.3853743,-0.094090834,-0.07144671,0.51608247
83904000,-0.38270393,-0.09468155,-0.07238244,0.51608247
83908000,-0.3743626,-0.11040944,-0.07555558,0.5328136
83912000,-0.3716809,-0.1109089,-0.076514706,0.5328136
83916000,-0.36903164,-0.111395046,-0.077463396,0.5328136
83920000,-0.36639354,-0.111946404,-0.07841815,0.5328136
83924000,-0.36374307,-0.11244934,-0.079373315,0.5328136
83928000,-0.36110058,-0.11287465,-0.08031821,0.5328136
83932000,-0.3664844,-0.1284438,-0.08362968,0.5481671
83936000,-0.36393332,-0.12887746,-0.08457307,0.5481671
83940000,-0.36138034,-0.12930281,-0.08551783,0.5481671
83944000,-0.3588594,-0.12964517,-0.086442515,0.5481671
83948000,-0.35636204,-0.12990926,-0.0873503,0.5481671
83952000,-0.3538318,-0.1301265,-0.088264816,0.5481671
83956000,-0.34527016,-0.14544381,-0.09169803,0.562193
83960000,-0.34280834,-0.14561151,-0.092608355,0.562193
83964000,-0.3403298,-0.14582872,-0.09353245,0.562193
83968000,-0.33788598,-0.1459625,-0.09443388,0.562193
83972000,-0.3354955,-0.1460155,-0.095305994,0.562193
83976000,-0.33310968,-0.1460727,-0.09617775,0.562193
83980000,-0.3250508,-0.16126071,-0.099724725,0.57492197
83984000,-0.32269296,-0.16124497,-0.10060076,0.57492197
83988000,-0.3203685,-0.16121165,-0.10146248,0.57492197
83996000,-0.3153906,-0.16080748,-0.10422622,0.57492197
84000000,-0.31316406,-0.1606258,-0.105039,0.57492197
84004000,-0.30484304,-0.17559691,-0.108673796,0.58747077
84008000,-0.30263022,-0.1753608,-0.109495625,0.58747077
84012000,-0.30047703,-0.17512149,-0.11029399,0.58747077
84016000,-0.29834074,-0.17485544,-0.11108193,0.58747077
84020000,-0.29621455,-0.17452975,-0.11185707,0.58747077
84024000,-0.2940927,-0.174128,-0.11261901,0.58747077
84028000,-0.28640074,-0.18888515,-0.11631881,0.5987688
84032000,-0.2843452,-0.18842115,-0.11706537,0.5987688
84036000,-0.2822869,-0.18794894,-0.1178114,0.5987688
84040000,-0.28019485,-0.18745337,-0.118566826,0.5987688
84044000,-0.27814242,-0.18692298,-0.11930065,0.5987688
84048000,-0.27612546,-0.18637496,-0.120017104,0.5987688
84056000,-0.28005147,-0.2003924,-0.12449044,0.6088966
84060000,-0.27813628,-0.19972202,-0.12516436,0.6088966
84068000,-0.27426636,-0.1982217,-0.1265004,0.6088966
84072000,-0.27238867,-0.1974778,-0.1271447,0.6088966
84076000,-0.26539716,-0.21194147,-0.13097437,0.6179085
84080000,-0.26354825,-0.21113959,-0.13161427,0.6179085
84084000,-0.26174575,-0.21029374,-0.13222662,0.6179085
84088000,-0.25996527,-0.20938227,-0.13281791,0.6179085
84092000,-0.25779334,-0.20822312,-0.1344877,0.6179085
84096000,-0.25607228,-0.20729616,-0.13505486,0.6179085
84100000,-0.24935327,-0.22162254,-0.13892189,0.6267375
84104000,-0.24766771,-0.22064622,-0.13948065,0.6267375
84108000,-0.24599685,-0.21965627,-0.1400296,0.6267375
84112000,-0.24431391,-0.21863225,-0.1405767,0.6267375
84116000,-0.24267302,-0.21758473,-0.14110051,0.6267375
84124000,-0.2345325,-0.23063527,-0.14550124,0.63452643
84128000,-0.23296164,-0.22949651,-0.14599146,0.63452643
84132000,-0.2313896,-0.22833714,-0.14647718,0.63452643
84136000,-0.22982757,-0.22714305,-0.14695103,0.63452643
84140000,-0.22831297,-0.22590126,-0.14739439,0.63452643
84144000,-0.22679421,-0.2246515,-0.14783657,0.63452643
84148000,-0.2209664,-0.2387412,-0.15182218,0.6413839
84156000,-0.21806845,-0.23628159,-0.15267518,0.6413839
84160000,-0.21665284,-0.23499438,-0.15307441,0.6413839
84164000,-0.21524003,-0.2337248,-0.153474,0.6413839
84172000,-0.22166124,-0.24647197,-0.15783185,0.6473671
84180000,-0.21898603,-0.24380037,-0.15855783,0.6473671
84184000,-0.21766958,-0.24245478,-0.15890715,0.6473671
84188000,-0.21635132,-0.2411258,-0.15925875,0.6473671
84192000,-0.21474698,-0.23956206,-0.16050568,0.6473671
84196000,-0.20945892,-0.2515756,-0.16404544,0.65316117
84200000,-0.20818041,-0.25011808,-0.16436625,0.65316117
84204000,-0.20691676,-0.24866419,-0.1646792,0.65316117
84208000,-0.20564166,-0.24717969,-0.1649901,0.65316117
84212000,-0.20436348,-0.24567844,-0.1652976,0.65316117
84216000,-0.20316023,-0.24422042,-0.16557708,0.65316117
84220000,-0.19755533,-0.24038143,-0.16527595,0.6581405
84224000,-0.19636592,-0.23889664,-0.1655389,0.6581405
84228000,-0.19522043,-0.23740828,-0.16577959,0.6581405
84232000,-0.19406193,-0.23588611,-0.16601816,0.6581405
84236000,-0.19293529,-0.23435523,-0.16623896,0.6581405
84240000,-0.19185276,-0.23284373,-0.16644186,0.6581405
84244000,-0.18689503,-0.22922896,-0.16611224,0.66238284
84248000,-0.18584988,-0.22773376,-0.16629674,0.66238284
84252000,-0.18481219,-0.2262482,-0.16647822,0.66238284
84256000,-0.18378443,-0.22475475,-0.16665222,0.66238284
84260000,-0.18276802,-0.22325206,-0.16681784,0.66238284
84268000,-0.17659864,-0.21840139,-0.16666064,0.66595787
84272000,-0.17561364,-0.21688883,-0.16680458,0.66595787
84276000,-0.1746476,-0.21534754,-0.16693297,0.66595787
84280000,-0.17367223,-0.21381529,-0.16706583,0.66595787
84284000,-0.17271633,-0.21232267,-0.16719641,0.66595787
84288000,-0.17181069,-0.21085265,-0.16730773,0.66595787
84292000,-0.16705172,-0.20756312,-0.16773355,0.6689076
84296000,-0.16616651,-0.2061453,-0.16784474,0.6689076
84300000,-0.16531175,-0.20474774,-0.16794524,0.6689076
84304000,-0.16448712,-0.20334508,-0.16803019,0.6689076
84308000,-0.16363594,-0.20196086,-0.16812944,0.6689076
84316000,-0.15809657,-0.19797999,-0.16798426,0.6717567
84324000,-0.1565322,-0.195294,-0.16812916,0.6717567
84328000,-0.15583028,-0.1939729,-0.16816925,0.6717567
84332000,-0.15511057,-0.1926759,-0.16822109,0.6717567
84336000,-0.15437502,-0.19136935,-0.1682769,0.6717567
84340000,-0.16416773,-0.18890078,-0.16803381,0.67405117
84344000,-0.16343758,-0.18761347,-0.16808864,0.67405117
84348000,-0.16272475,-0.18635692,-0.1681413,0.67405117
84356000,-0.16130337,-0.18398938,-0.16827214,0.67405117
84360000,-0.16064015,-0.1828447,-0.16832373,0.67405117
84364000,-0.15598473,-0.18067674,-0.16810343,0.67586124
84368000,-0.1552874,-0.17951745,-0.16816472,0.67586124
84372000,-0.15461747,-0.17839807,-0.16822162,0.67586124
84376000,-0.15396617,-0.17728014,-0.16827008,0.67586124
84380000,-0.15330274,-0.17620741,-0.16833244,0.67586124
84384000,-0.15269202,-0.17518556,-0.16838205,0.67586124
84388000,-0.14838606,-0.17321952,-0.16817002,0.6772279
84392000,-0.14760657,-0.1720228,-0.16870776,0.6772279
84396000,-0.14703698,-0.17098153,-0.16873422,0.6772279
84400000,-0.14647081,-0.1699444,-0.16875945,0.6772279
84404000,-0.14588225,-0.1689487,-0.16880244,0.6772279
84408000,-0.14532955,-0.16802147,-0.16884394,0.6772279
84412000,-0.1404046,-0.16637158,-0.16866829,0.6784766
84416000,-0.13988826,-0.16542354,-0.16868848,0.6784766
84420000,-0.1393637,-0.1644805,-0.16871272,0.6784766
84424000,-0.13884458,-0.16359966,-0.16874737,0.6784766
84428000,-0.13833614,-0.16272508,-0.16877833,0.6784766
84436000,-0.13291442,-0.16027766,-0.16863027,0.6793222
84440000,-0.13242194,-0.15939057,-0.16865012,0.6793222
84444000,-0.13197836,-0.15857002,-0.16866304,0.6793222
84448000,-0.13154596,-0.15772408,-0.1686653,0.6793222
84452000,-0.13110861,-0.15688123,-0.16866998,0.6793222
84460000,-0.12613234,-0.1546711,-0.16850464,0.6798415
84468000,-0.12522653,-0.15294625,-0.16851562,0.6798415
84472000,-0.12478898,-0.15215313,-0.16852905,0.6798415
84476000,-0.124406256,-0.15142228,-0.16853243,0.6798415
84484000,-0.11883509,-0.14949578,-0.16839448,0.68004394
84488000,-0.118481964,-0.14882289,-0.16839698,0.68004394
84492000,-0.11816533,-0.14812317,-0.16839992,0.68004394
84496000,-0.117847316,-0.1473996,-0.16837613,0.68004394
84500000,-0.11753541,-0.14671889,-0.16835886,0.68004394
84504000,-0.117206454,-0.14608563,-0.16835889,0.68004394
84508000,-0.12688553,-0.14501669,-0.16822,0.67996985
84512000,-0.12663819,-0.14440525,-0.16819,0.67996985
84516000,-0.1263413,-0.14381024,-0.16818422,0.67996985
84520000,-0.12605785,-0.1431708,-0.16816287,0.67996985
84524000,-0.12582347,-0.14253595,-0.16812178,0.67996985
84528000,-0.12556204,-0.14192453,-0.16809697,0.67996985
84532000,-0.12055167,-0.14094312,-0.167975,0.6796235
84540000,-0.11999168,-0.13968827,-0.16793278,0.6796235
84544000,-0.11972816,-0.13913427,-0.1679207,0.6796235
84548000,-0.11948504,-0.1385737,-0.16789848,0.6796235
84552000,-0.11920125,-0.137963,-0.16788203,0.6796235
84556000,-0.114472836,-0.1370234,-0.16776295,0.6790442
84560000,-0.114218906,-0.13646749,-0.16774574,0.6790442
84564000,-0.11397666,-0.13591014,-0.16772316,0.6790442
84572000,-0.11357655,-0.13481332,-0.16764645,0.6790442
84580000,-0.107981145,-0.13336475,-0.1675232,0.6782606
84584000,-0.10770612,-0.13283724,-0.16752005,0.6782606
84588000,-0.10745337,-0.13231678,-0.16750908,0.6782606
84592000,-0.10721334,-0.1317929,-0.16752706,0.6782606
84596000,-0.106989935,-0.13127828,-0.167505,0.6782606
84604000,-0.10200238,-0.1299914,-0.16732587,0.67732126
84612000,-0.101619154,-0.12894648,-0.16725102,0.67732126
84616000,-0.101463154,-0.12846926,-0.16720879,0.67732126
84620000,-0.10133955,-0.12800565,-0.16715617,0.67732126
84624000,-0.101176344,-0.12753287,-0.16711774,0.67732126
84628000,-0.09573539,-0.12681752,-0.16700028,0.6762194
84632000,-0.09566371,-0.12632604,-0.16691977,0.6762194
84636000,-0.09559886,-0.12585136,-0.16684014,0.6762194
84644000,-0.09536797,-0.1249058,-0.16672319,0.6762194
84648000,-0.09527235,-0.12448679,-0.1666685,0.6762194
84652000,-0.0904188,-0.123844504,-0.16653891,0.6749805
84656000,-0.090361476,-0.12339947,-0.16646256,0.6749805
84660000,-0.090256944,-0.12293388,-0.1664009,0.6749805
84664000,-0.09015904,-0.122478165,-0.16633868,0.6749805
84668000,-0.09010579,-0.12201551,-0.16625655,0.6749805
84672000,-0.09006645,-0.12152072,-0.1661614,0.6749805
84676000,-0.08456959,-0.120857626,-0.16602191,0.67360187
84680000,-0.08450493,-0.12043688,-0.1659537,0.67360187
84684000,-0.08443233,-0.1200276,-0.16589129,0.67360187
84688000,-0.08433112,-0.11959325,-0.16583487,0.67360187
84692000,-0.08429633,-0.119190276,-0.16562392,0.67360187
84696000,-0.084252164,-0.11872831,-0.16553782,0.67360187
84700000,-0.09377153,-0.11807564,-0.16539055,0.67204916
84708000,-0.09376785,-0.11726551,-0.16520931,0.67204916
84712000,-0.093757376,-0.1168779,-0.16512612,0.67204916
84716000,-0.093731925,-0.11644469,-0.1650387,0.67204916
84720000,-0.0937154,-0.11600648,-0.1649465,0.67204916
84724000,-0.08848801,-0.115456805,-0.16481738,0.67038316
84728000,-0.08846562,-0.11504559,-0.16473359,0.67038316
84732000,-0.08843812,-0.114628635,-0.16465054,0.67038316
84740000,-0.08844651,-0.11382004,-0.16446443,0.67038316
84748000,-0.08364165,-0.11275117,-0.16421239,0.6686477
84752000,-0.08358739,-0.1122947,-0.16413113,0.6686477
84756000,-0.08356113,-0.11183839,-0.16403852,0.6686477
84760000,-0.08356112,-0.111377865,-0.1639343,0.6686477
84764000,-0.083534256,-0.110907525,-0.16383871,0.6686477
84768000,-0.08350626,-0.11041081,-0.16373757,0.6686477
84772000,-0.078255296,-0.10975672,-0.16357936,0.6668385
84780000,-0.07829292,-0.10886118,-0.16336131,0.6668385
84784000,-0.078296974,-0.10847095,-0.16327123,0.6668385
84788000,-0.07833044,-0.10804665,-0.16316159,0.6668385
84796000,-0.073368676,-0.106938645,-0.16315037,0.6651051
84804000,-0.073439404,-0.10603786,-0.16291776,0.6651051
84808000,-0.0734618,-0.10555513,-0.16279934,0.6651051
84812000,-0.07346873,-0.10505299,-0.1626827,0.6651051
84816000,-0.07349599,-0.104579024,-0.16256425,0.6651051
84820000,-0.0680112,-0.10401829,-0.16242976,0.66331965
84824000,-0.06800894,-0.103581145,-0.16233149,0.66331965
84828000,-0.068015054,-0.103141755,-0.16222933,0.66331965
84836000,-0.06813729,-0.102343544,-0.16199923,0.66331965
84844000,-0.06314817,-0.10142572,-0.16176601,0.66151035
84852000,-0.063234314,-0.10062483,-0.16154975,0.66151035
84856000,-0.06326777,-0.10017066,-0.16143322,0.66151035
84860000,-0.06330408,-0.0997197,-0.16131634,0.66151035
84864000,-0.06334463,-0.09931612,-0.16120848,0.66151035
84868000,-0.057935737,-0.09882669,-0.1610752,0.6596532
84872000,-0.057994954,-0.09842613,-0.1609606,0.6596532
84876000,-0.05807185,-0.098004684,-0.16083424,0.6596532
84880000,-0.05811771,-0.097589925,-0.16072172,0.6596532
84884000,-0.05817511,-0.09720453,-0.16061132,0.6596532
84888000,-0.05827926,-0.0968155,-0.16048151,0.6596532
84892000,-0.05298981,-0.09622052,-0.16077584,0.65777785
84896000,-0.053040817,-0.095863104,-0.16067441,0.65777785
84900000,-0.053116217,-0.09545901,-0.16055271,0.65777785
84908000,-0.05336611,-0.09462763,-0.1602647,0.65777785
84916000,-0.048149824,-0.09389597,-0.16002229,0.6561108
84920000,-0.04820951,-0.093494624,-0.15990755,0.6561108
84924000,-0.048258368,-0.093076386,-0.15979326,0.6561108
84928000,-0.04836368,-0.09268202,-0.15966202,0.6561108
84932000,-0.048485667,-0.092294514,-0.15952577,0.6561108
84936000,-0.04860301,-0.09192817,-0.15939622,0.6561108
84940000,-0.043711293,-0.09153512,-0.15925412,0.6544193
84944000,-0.04382843,-0.09115274,-0.15912105,0.6544193
84948000,-0.04393879,-0.09073293,-0.15898222,0.6544193
84952000,-0.044053383,-0.0903784,-0.15885651,0.6544193
84956000,-0.044210084,-0.09006645,-0.15872394,0.6544193
84960000,-0.044379544,-0.089731716,-0.15858117,0.6544193
84964000,-0.0390536,-0.08933996,-0.1584425,0.65272033
84968000,-0.03918081,-0.0889374,-0.1583011,0.65272033
84976000,-0.039471157,-0.08816707,-0.15801217,0.65272033
84980000,-0.039623413,-0.08783279,-0.15787652,0.65272033
84984000,-0.039793357,-0.08752308,-0.15773952,0.65272033
84988000,-0.034936182,-0.08716595,-0.15758047,0.65101415
84992000,-0.03517682,-0.08686148,-0.15728325,0.65101415
84996000,-0.035348814,-0.08655095,-0.15714546,0.65101415
85000000,-0.03549631,-0.08622989,-0.15701494,0.65101415
85004000,-0.035702135,-0.0858936,-0.15685813,0.65101415
85008000,-0.035937,-0.0855834,-0.15669599,0.65101415
85012000,-0.045329425,-0.08519541,-0.15652771,0.64922434
85016000,-0.04550615,-0.08488926,-0.15638933,0.64922434
85020000,-0.045682713,-0.08456142,-0.15624616,0.64922434
85028000,-0.04605936,-0.083827816,-0.15593319,0.64922434
85032000,-0.04623336,-0.083455384,-0.15578112,0.64922434
85036000,-0.04133307,-0.08306159,-0.15560979,0.64743173
85040000,-0.041556302,-0.082749546,-0.1554523,0.64743173
85044000,-0.041751564,-0.082420215,-0.15530185,0.64743173
85052000,-0.04214601,-0.08179782,-0.15500782,0.64743173
85056000,-0.042339794,-0.081462696,-0.15485683,0.64743173
85060000,-0.036714837,-0.08111137,-0.15470088,0.64565814
85064000,-0.03691553,-0.08082322,-0.15455791,0.64565814
85068000,-0.037122123,-0.080489725,-0.15440251,0.64565814
85076000,-0.037518147,-0.0798225,-0.15409847,0.64565814
85080000,-0.037729006,-0.079509296,-0.15394618,0.64565814
85084000,-0.032668393,-0.079099834,-0.15378167,0.64390033
85088000,-0.032884896,-0.07881634,-0.15363401,0.64390033
85092000,-0.033106383,-0.078517444,-0.1535592,0.64390033
85096000,-0.033329595,-0.0782229,-0.15340656,0.64390033
85100000,-0.03355473,-0.077910185,-0.15324914,0.64390033
85104000,-0.033754047,-0.07761743,-0.15310629,0.64390033
85108000,-0.028305814,-0.0773488,-0.15296166,0.6421871
85112000,-0.0285424,-0.07712563,-0.15282016,0.6421871
85116000,-0.028780501,-0.076887205,-0.15267467,0.6421871
85120000,-0.0290198,-0.07666458,-0.15253237,0.6421871
85124000,-0.029231787,-0.07640605,-0.15239261,0.6421871
85128000,-0.029445115,-0.076119944,-0.15224618,0.6421871
85132000,-0.024662428,-0.07583648,-0.15208782,0.6404786
85136000,-0.024917413,-0.07560364,-0.15193747,0.6404786
85140000,-0.025166988,-0.07534097,-0.15178254,0.6404786
85148000,-0.025695454,-0.07491396,-0.15148363,0.6404786
85156000,-0.020597752,-0.07433155,-0.1511682,0.6387724
85160000,-0.020899002,-0.074111156,-0.15100324,0.6387724
85164000,-0.021157283,-0.073929794,-0.15086356,0.6387724
85172000,-0.021664772,-0.073569395,-0.15058841,0.6387724
85176000,-0.021904081,-0.0733625,-0.15045047,0.6387724
85180000,-0.01717975,-0.073089555,-0.1502903,0.63708556
85188000,-0.017781954,-0.072647125,-0.14996108,0.63708556
85192000,-0.018080216,-0.072483905,-0.14981058,0.63708556
85196000,-0.018515997,-0.07245831,-0.14917167,0.63708556
85200000,-0.018794872,-0.07222207,-0.1490127,0.63708556
85204000,-0.013438139,-0.07183568,-0.14881796,0.6351649
85208000,-0.01372429,-0.07158881,-0.14865406,0.6351649
85212000,-0.014045142,-0.07137494,-0.14848435,0.6351649
85220000,-0.014647901,-0.07098824,-0.1481691,0.6351649
85224000,-0.014937557,-0.07083891,-0.14802584,0.6351649
85228000,-0.010136709,-0.07056953,-0.1478425,0.63325953
85236000,-0.010798041,-0.07021715,-0.14751324,0.63325953
85240000,-0.011112753,-0.070031255,-0.14735265,0.63325953
85244000,-0.011431702,-0.06982158,-0.14718527,0.63325953
85248000,-0.011778414,-0.06965111,-0.14701608,0.63325953
85252000,-0.006547976,-0.0693466,-0.14680341,0.63138855
85256000,-0.006863635,-0.06915718,-0.14664203,0.63138855
85260000,-0.007182539,-0.068934366,-0.14647214,0.63138855
85264000,-0.007519577,-0.06876031,-0.14630619,0.63138855
85268000,-0.007852316,-0.06864129,-0.1461541,0.63138855
85272000,-0.008184049,-0.068481945,-0.14599353,0.63138855
85276000,-0.003395863,-0.068165645,-0.1457815,0.6295589
85280000,-0.003760081,-0.06802421,-0.14561279,0.6295589
85284000,-0.004103839,-0.0678961,-0.14545487,0.6295589
85288000,-0.004454922,-0.06776412,-0.14529334,0.6295589
85292000,-0.004648324,-0.0674158,-0.1458292,0.6295589
85296000,-0.005054493,-0.0672115,-0.14563066,0.6295589
85300000,1.91E-05,-0.06696193,-0.14540747,0.62814933
85304000,-0.000412356,-0.06681289,-0.14521167,0.62814933
85308000,-0.000796732,-0.06667112,-0.14503534,0.62814933
85316000,-0.001627781,-0.0663242,-0.14464563,0.62814933
85320000,-0.002056386,-0.06618461,-0.14445338,0.62814933
85324000,0.002374003,-0.06605749,-0.14425409,0.6267316
85328000,0.001958778,-0.06598346,-0.1440813,0.6267316
85332000,0.001576627,-0.06591369,-0.14392196,0.6267316
85340000,0.000720091,-0.065697625,-0.14355212,0.6267316
85344000,0.000290219,-0.065603,-0.14336962,0.6267316
85348000,0.005230604,-0.06546083,-0.1431845,0.6253414
85352000,0.004823532,-0.06537275,-0.14301217,0.6253414
85356000,0.004401555,-0.06527902,-0.14283305,0.6253414
85360000,0.00395884,-0.065149516,-0.14263852,0.6253414
85364000,0.003516918,-0.065029904,-0.14244653,0.6253414
85372000,0.007617848,-0.064788386,-0.14208311,0.62397295
85376000,0.00721349,-0.06473568,-0.14191984,0.62397295
85380000,0.006833507,-0.06469343,-0.14176801,0.62397295
85384000,0.006393472,-0.06463734,-0.14159076,0.62397295
85388000,0.005920349,-0.06455095,-0.1413946,0.62397295
85396000,0.010252431,-0.06431919,-0.14068808,0.62247074
85404000,0.009353105,-0.06416715,-0.14031911,0.62247074
85408000,0.008893792,-0.06413688,-0.14014085,0.62247074
85412000,0.00843537,-0.06412324,-0.13996655,0.62247074
85420000,0.01221773,-0.063904695,-0.13957387,0.620983
85424000,0.011788601,-0.06382057,-0.13939574,0.620983
85428000,0.011376353,-0.06369751,-0.13921572,0.620983
85432000,0.010942956,-0.06358143,-0.13902941,0.620983
85436000,0.01051995,-0.06348017,-0.13885017,0.620983
85440000,0.01008245,-0.06336801,-0.13866332,0.620983
85444000,0.014926,-0.06317623,-0.13844201,0.6195156
85452000,0.013960337,-0.062968604,-0.13803853,0.6195156
85456000,0.013490146,-0.0628372,-0.13783586,0.6195156
85460000,0.013026893,-0.06275738,-0.13764669,0.6195156
85468000,0.01683196,-0.062517375,-0.13724509,0.6180949
85472000,0.016367963,-0.06239993,-0.13704804,0.6180949
85476000,0.015866116,-0.06230884,-0.13684253,0.6180949
85480000,0.015381207,-0.062257178,-0.13665164,0.6180949
85484000,0.014910706,-0.062195327,-0.13646407,0.6180949
85492000,0.019164879,-0.061969943,-0.13601723,0.61669433
85496000,0.018880222,-0.061736796,-0.13661793,0.61669433
85500000,0.018402115,-0.061694138,-0.13643093,0.61669433
85504000,0.017901042,-0.061604053,-0.13622567,0.61669433
85508000,0.01738898,-0.061521288,-0.13601792,0.61669433
85516000,0.021383112,-0.061402,-0.13561289,0.6157518
85524000,0.020386402,-0.06133246,-0.13522795,0.6157518
85532000,0.0192937,-0.061154492,-0.13478537,0.6157518
85536000,0.018773453,-0.06107025,-0.13457489,0.6157518
85540000,0.022784535,-0.06098754,-0.13436538,0.6148029
85544000,0.022222081,-0.06094718,-0.1341484,0.6148029
85548000,0.021686979,-0.060930174,-0.13394642,0.6148029
85552000,0.021188349,-0.06089185,-0.1337537,0.6148029
85556000,0.020704359,-0.060867414,-0.13356929,0.6148029
85560000,0.020226447,-0.06082692,-0.13338391,0.6148029
85564000,0.02465907,-0.060844768,-0.13319957,0.6138636
85568000,0.024134764,-0.060878128,-0.13301212,0.6138636
85572000,0.02359886,-0.06082134,-0.13280213,0.6138636
85576000,0.023033185,-0.060745552,-0.1325774,0.6138636
85580000,0.022448633,-0.06066794,-0.13234542,0.6138636
85584000,0.021890001,-0.060588554,-0.13212276,0.6138636
85588000,0.025702095,-0.060540438,-0.13190979,0.61291504
85592000,0.025229711,-0.06040185,-0.13212794,0.61291504
85596000,0.024664614,-0.060380768,-0.13191427,0.61291504
85600000,0.024135016,-0.060356848,-0.13171329,0.61291504
85604000,0.0235919,-0.060334377,-0.13150762,0.61291504
85608000,0.023059053,-0.06027453,-0.1312984,0.61291504
85612000,0.027495107,-0.06031069,-0.13110116,0.61223215
85616000,0.026911989,-0.060305983,-0.13088444,0.61223215
85620000,0.02634536,-0.06032593,-0.13067877,0.61223215
85624000,0.02575416,-0.06032931,-0.1304608,0.61223215
85628000,0.02519407,-0.060321853,-0.13025224,0.61223215
85636000,0.028433014,-0.060345214,-0.12985428,0.61153316
85640000,0.027877882,-0.060323223,-0.12964484,0.61153316
85644000,0.027312946,-0.06029627,-0.1294309,0.61153316
85648000,0.026745936,-0.060268737,-0.12921613,0.61153316
85652000,0.02616981,-0.060228616,-0.12899561,0.61153316
85656000,0.025597727,-0.060206108,-0.12878011,0.61153316
85660000,0.029805068,-0.06038621,-0.12803583,0.6108228
85664000,0.02926863,-0.060310997,-0.12798701,0.6108228
85668000,0.028759515,-0.060240515,-0.12794098,0.6108228
85676000,0.027727436,-0.060156703,-0.12773575,0.6108228
85680000,0.02719473,-0.06006683,-0.12752208,0.6108228
85684000,0.030716408,-0.060309768,-0.1263565,0.6101062
85688000,0.030181391,-0.06021648,-0.12630434,0.6101062
85692000,0.029721959,-0.060064945,-0.1264432,0.6101062
85696000,0.029199582,-0.05996663,-0.12639095,0.6101062
85700000,0.028657809,-0.059930384,-0.12635061,0.6101062
85704000,0.02814421,-0.059945352,-0.1263227,0.6101062
85708000,0.031918764,-0.06035495,-0.124780744,0.60951155
85712000,0.031394705,-0.06026862,-0.12473108,0.60951155
85716000,0.030854186,-0.060158517,-0.12467555,0.60951155
85720000,0.030319938,-0.06010496,-0.12463224,0.60951155
85724000,0.029806718,-0.0600444,-0.12458882,0.60951155
85728000,0.029289043,-0.05998201,-0.12454481,0.60951155
85732000,0.032482084,-0.060330294,-0.12319805,0.60888535
85736000,0.031937007,-0.06025178,-0.12314909,0.60888535
85740000,0.03140097,-0.060161054,-0.12309825,0.60888535
85748000,0.03029606,-0.05997856,-0.12299465,0.60888535
85752000,0.02972435,-0.059853174,-0.12293485,0.60888535
85756000,0.033372357,-0.060161322,-0.12140838,0.6082393
85760000,0.032814533,-0.060063183,-0.12135509,0.6082393
85764000,0.032250516,-0.059959464,-0.12130039,0.6082393
85768000,0.031676628,-0.059868727,-0.12124784,0.6082393
85772000,0.031083219,-0.059796285,-0.121198,0.6082393
85780000,0.03364408,-0.059937656,-0.11978169,0.6075551
85784000,0.033086292,-0.0598571,-0.119732484,0.6075551
85788000,0.032547038,-0.059741538,-0.119677365,0.6075551
85792000,0.03194409,-0.059682064,-0.11943177,0.6075551
85796000,0.031357218,-0.059654452,-0.11939179,0.6075551
85804000,0.049020477,-0.06105515,-0.11264567,0.60676837
85808000,0.048460208,-0.060985457,-0.11259867,0.60676837
85812000,0.047906075,-0.060897186,-0.11254839,0.60676837
85816000,0.047326144,-0.06081342,-0.11249758,0.60676837
85820000,0.046747312,-0.06075816,-0.112452656,0.60676837
85824000,0.046174828,-0.060675524,-0.11240267,0.60676837
85828000,0.049076185,-0.060880728,-0.11112411,0.6059586
85832000,0.04846503,-0.06079286,-0.111070946,0.6059586
85836000,0.047858987,-0.060690995,-0.111015394,0.6059586
85840000,0.047253247,-0.06061235,-0.110964596,0.6059586
85844000,0.046640545,-0.060527533,-0.11091227,0.6059586
85852000,0.049362842,-0.060658917,-0.10941825,0.6051289
85856000,0.048753086,-0.060585275,-0.109368525,0.6051289
85860000,0.048157193,-0.060517,-0.10932074,0.6051289
85864000,0.047538675,-0.060438395,-0.10926971,0.6051289
85868000,0.046904035,-0.060369477,-0.109219745,0.6051289
85872000,0.046265364,-0.060259078,-0.1091615,0.6051289
85876000,0.049085654,-0.06036213,-0.107888564,0.6042923
85880000,0.048476778,-0.060239177,-0.10782977,0.6042923
85884000,0.047857832,-0.060148194,-0.10777676,0.6042923
85888000,0.047217786,-0.06006837,-0.10772483,0.6042923
85892000,0.04655638,-0.060004804,-0.107660785,0.6042923
85896000,0.04588657,-0.059903108,-0.10760313,0.6042923
85900000,0.04908001,-0.060060762,-0.10617811,0.60345554
85904000,0.048410684,-0.059947614,-0.106118456,0.60345554
85908000,0.0477601,-0.059870638,-0.10606698,0.60345554
85916000,0.04635884,-0.059618197,-0.10593979,0.60345554
85920000,0.04565306,-0.05953307,-0.10588401,0.60345554
85924000,0.048092708,-0.059680395,-0.10472953,0.602581
85928000,0.04743164,-0.059546962,-0.10466721,0.602581
85932000,0.04679607,-0.05942944,-0.10460946,0.602581
85936000,0.0461701,-0.05937814,-0.10456496,0.602581
85940000,0.045491595,-0.059340097,-0.10452014,0.602581
85948000,0.04765204,-0.059429996,-0.10314254,0.6017075
85952000,0.046973467,-0.05936664,-0.10309313,0.6017075
85956000,0.04631196,-0.059276957,-0.10303983,0.6017075
85960000,0.045663044,-0.059190832,-0.10298799,0.6017075
85964000,0.045019224,-0.059092898,-0.102934316,0.6017075
85968000,0.044343844,-0.059013925,-0.102882564,0.6017075
85972000,0.046666965,-0.05910802,-0.101777665,0.60082805
85976000,0.046006873,-0.058972843,-0.10171647,0.60082805
85980000,0.045353264,-0.058872804,-0.101662315,0.60082805
85988000,0.04404376,-0.058717474,-0.10156248,0.60082805
85996000,0.046110958,-0.05876366,-0.10050768,0.6001324
86000000,0.04537879,-0.058640268,-0.100445494,0.6001324
86004000,0.044675067,-0.0585817,-0.10039686,0.6001324
86008000,0.04402969,-0.058524206,-0.10035163,0.6001324
86012000,0.04339797,-0.05840446,-0.10029591,0.6001324
86016000,0.042683877,-0.05833262,-0.10024459,0.6001324
86020000,0.04470759,-0.058503296,-0.099229746,0.5994183
86024000,0.044004466,-0.05843568,-0.099179916,0.5994183
86028000,0.043320388,-0.058340326,-0.099126205,0.5994183
86032000,0.042649325,-0.05825109,-0.09907439,0.5994183
86036000,0.04194443,-0.05818449,-0.099024944,0.5994183
86040000,0.041226387,-0.058124714,-0.09897612,0.5994183
86044000,0.043787178,-0.058292825,-0.09778906,0.59871286
86052000,0.042368256,-0.058152564,-0.09768899,0.59871286
86060000,0.040993705,-0.058070984,-0.097602,0.59871286
86068000,0.042435642,-0.058150657,-0.09654966,0.59801
86072000,0.041799344,-0.058143746,-0.09651499,0.59801
86076000,0.041169528,-0.058122635,-0.09647822,0.59801
86080000,0.040492646,-0.058029443,-0.09642643,0.59801
86084000,0.039829805,-0.05794348,-0.096376754,0.59801
86088000,0.0391874,-0.057883784,-0.09633281,0.59801
86092000,0.0418436,-0.05799903,-0.09540027,0.59731615
86096000,0.04118731,-0.058016565,-0.09536907,0.59731615
86100000,0.040552244,-0.058036283,-0.09533936,0.59731615
86104000,0.039908975,-0.05805235,-0.09530861,0.59731615
86108000,0.039279994,-0.058052294,-0.095275834,0.59731615
86116000,0.04064943,-0.05818157,-0.09425376,0.5968194
86120000,0.03998537,-0.05817749,-0.09421855,0.5968194
86124000,0.039307117,-0.058192026,-0.09418581,0.5968194
86128000,0.038666017,-0.058205392,-0.09415479,0.5968194
86132000,0.038033318,-0.05819775,-0.09412066,0.5968194
86140000,0.039763384,-0.05838701,-0.093013264,0.59627986
86148000,0.038464125,-0.058380507,-0.09294488,0.59627986
86152000,0.037823126,-0.058373854,-0.0929106,0.59627986
86156000,0.037209876,-0.058355033,-0.09287576,0.59627986
86160000,0.03656728,-0.05832891,-0.09283821,0.59627986
86164000,0.053371888,-0.059458405,-0.08666959,0.59572226
86168000,0.052736953,-0.059473444,-0.086639225,0.59572226
86172000,0.052105717,-0.05947499,-0.08660682,0.59572226
86180000,0.050748296,-0.059330218,-0.08651271,0.59572226
86184000,0.050097466,-0.059310474,-0.0864759,0.59572226
86188000,0.052396417,-0.059443086,-0.08541912,0.5951348
86196000,0.0511799,-0.059282415,-0.08555962,0.5951348
86204000,0.049860887,-0.059281163,-0.085491784,0.5951348
86208000,0.04919388,-0.05927256,-0.08545622,0.5951348
86212000,0.0508196,-0.059440486,-0.08461285,0.5947213
86220000,0.04940962,-0.059450034,-0.084542215,0.5947213
86224000,0.048712388,-0.059426162,-0.08450273,0.5947213
86228000,0.048024036,-0.059403166,-0.084463865,0.5947213
86232000,0.047362417,-0.059375815,-0.08442573,0.5947213
86236000,0.049267188,-0.05953475,-0.08348663,0.5942744
86240000,0.04860471,-0.059491012,-0.08344591,0.5942744
86244000,0.047918722,-0.05945523,-0.0834053,0.5942744
86248000,0.04721359,-0.059410334,-0.08336234,0.5942744
86252000,0.046528257,-0.059340544,-0.083316535,0.5942744
86260000,0.04737118,-0.059408464,-0.08247138,0.59380764
86264000,0.046685025,-0.05934491,-0.0824267,0.59380764
86268000,0.0459866,-0.059306473,-0.0823854,0.59380764
86276000,0.044609867,-0.059148617,-0.082291454,0.59380764
86280000,0.043931074,-0.059120405,-0.08225295,0.59380764
86284000,0.04580479,-0.05927795,-0.0813199,0.59332645
86288000,0.045101456,-0.059249934,-0.08128024,0.59332645
86292000,0.044403344,-0.059191197,-0.0812362,0.59332645
86296000,0.043685537,-0.05914829,-0.08105755,0.59332645
86300000,0.043004423,-0.059114292,-0.08101828,0.59332645
86304000,0.04230237,-0.059122045,-0.08098435,0.59332645
86308000,0.0441579,-0.059296668,-0.08005163,0.5927108
86316000,0.04285492,-0.05921467,-0.079974174,0.5927108
86324000,0.041457966,-0.059116457,-0.07988985,0.5927108
86332000,0.041997597,-0.059130304,-0.079135224,0.5920656
86336000,0.041325353,-0.05910411,-0.079097986,0.5920656
86340000,0.040644042,-0.05908571,-0.07906148,0.5920656
86344000,0.039982773,-0.05904862,-0.07902326,0.5920656
86348000,0.039328262,-0.05897722,-0.0789804,0.5920656
86352000,0.038644776,-0.05893383,-0.07894027,0.5920656
86356000,0.04029186,-0.059056252,-0.07809049,0.5914057
86360000,0.039650843,-0.059044436,-0.07805715,0.5914057
86364000,0.03903196,-0.05900841,-0.078021415,0.5914057
86368000,0.038373955,-0.058987375,-0.07798597,0.5914057
86372000,0.037682123,-0.058958076,-0.07794772,0.5914057
86376000,0.03702531,-0.058952272,-0.07791461,0.5914057
86380000,0.03802031,-0.058999978,-0.07730281,0.5907448
86384000,0.037328992,-0.05893971,-0.07726027,0.5907448
86388000,0.036606163,-0.058869306,-0.07721482,0.5907448
86392000,0.03591726,-0.05881111,-0.07717287,0.5907448
86396000,0.0353411,-0.058683537,-0.07752419,0.5907448
86400000,0.034659475,-0.058610328,-0.077480644,0.5907448
86404000,0.051450577,-0.05957345,-0.07129914,0.5904317
86408000,0.050762944,-0.059535433,-0.0712602,0.5904317
86412000,0.05007885,-0.059533413,-0.071226574,0.5904317
86416000,0.0493994,-0.059477445,-0.07118559,0.5904317
86420000,0.048739947,-0.0593886,-0.07114105,0.5904317
86424000,0.048064727,-0.059335824,-0.07110088,0.5904317
86428000,0.04891114,-0.059421647,-0.07050616,0.5900813
86436000,0.04751596,-0.059413,-0.07043737,0.5900813
86440000,0.046866596,-0.059347313,-0.07039686,0.5900813
86444000,0.04620468,-0.059279315,-0.07035551,0.5900813
86452000,0.046791792,-0.05935678,-0.069583684,0.5896843
86456000,0.04613346,-0.059336856,-0.06954925,0.5896843
86460000,0.045460552,-0.059267744,-0.06950745,0.5896843
86464000,0.04478369,-0.059169605,-0.0694616,0.5896843
86468000,0.04412934,-0.059098653,-0.06942062,0.5896843
86476000,0.044435576,-0.05906804,-0.0687867,0.5892734
86480000,0.043804996,-0.059088994,-0.06875937,0.5892734
86488000,0.0424967,-0.05905497,-0.06869235,0.5892734
86492000,0.04181364,-0.0590253,-0.068536,0.5892734
86496000,0.041178644,-0.05903147,-0.06850656,0.5892734
86500000,0.042437904,-0.05911571,-0.06780546,0.58870965
86504000,0.041781925,-0.05908873,-0.06777069,0.58870965
86508000,0.041135866,-0.05907005,-0.0677375,0.58870965
86512000,0.04047481,-0.059005998,-0.06769773,0.58870965
86516000,0.039801113,-0.05892671,-0.06765546,0.58870965
86520000,0.039134208,-0.058918487,-0.06762279,0.58870965
86524000,0.039810177,-0.05894337,-0.0671159,0.58813065
86528000,0.039147258,-0.058957845,-0.06708641,0.58813065
86532000,0.038520236,-0.05899731,-0.06706181,0.58813065
86536000,0.037873458,-0.05900275,-0.06703192,0.58813065
86540000,0.037202626,-0.05899369,-0.06699904,0.58813065
86544000,0.036544643,-0.058956698,-0.06696327,0.58813065
86548000,0.03745403,-0.058933463,-0.066359654,0.5875357
86552000,0.036802758,-0.058831677,-0.06631616,0.5875357
86556000,0.036155384,-0.05876219,-0.066277005,0.5875357
86560000,0.035491396,-0.058721125,-0.06624071,0.5875357
86564000,0.034841742,-0.058710415,-0.066208914,0.5875357
86572000,0.034506936,-0.05862273,-0.06577137,0.58691907
