timestamp,roll_body,pitch_body,yaw_body,yaw_sp_move_rate,q_d[0],q_d[1],q_d[2],q_d[3],thrust_body[0]
81312000,0,-0.12323306,1.6138798,0,0.69039893,0.044469696,-0.042593904,0.7208034,1
81336000,0,-0.116344064,1.6138798,0,0.69054157,0.04198663,-0.040215578,0.7209523,1
81360000,0,-0.10951867,1.6138798,0,0.6906748,0.039526,-0.03785874,0.7210914,1
81384000,0,-0.1027475,1.6138798,0,0.690799,0.037084464,-0.035520192,0.7212211,1
81408000,0,-0.09603194,1.6138798,0,0.69091433,0.034662556,-0.033200443,0.7213415,1
81432000,0,-0.089363575,1.6138798,0,0.6910212,0.03225728,-0.030896626,0.7214531,1
81456000,0,-0.082734734,1.6138798,0,0.69111985,0.029865911,-0.028606126,0.72155607,1
81480000,0,-0.07613838,1.6138798,0,0.69121045,0.027485933,-0.026326539,0.7216506,1
81504000,0,-0.06957294,1.6138798,0,0.6912931,0.025116814,-0.024057353,0.72173697,1
81528000,0,-0.06303228,1.6138798,0,0.6913681,0.022756366,-0.02179647,0.7218153,1
81552000,0,-0.056510724,1.6138798,0,0.6914355,0.02040257,-0.019541962,0.7218856,1
81576000,0,-0.050003108,1.6138798,0,0.6914954,0.018053588,-0.017292064,0.7219482,1
81600000,0,-0.043511037,1.6138798,0,0.69154793,0.015710028,-0.015047358,0.722003,1
81624000,0,-0.03702987,1.6138798,0,0.69159305,0.013370238,-0.012806264,0.7220501,1
81648000,0,-0.030555362,1.6138798,0,0.6916309,0.011032713,-0.010567338,0.7220896,1
81672000,0,-0.024083614,1.6138798,0,0.6916615,0.008696069,-0.008329256,0.72212154,1
81696000,0,-0.017613022,1.6138798,0,0.6916848,0.00635975,-0.006091487,0.72214586,1
81720000,0,-0.011140239,1.6138798,0,0.6917009,0.004022574,-0.003852896,0.72216266,1
81744000,0,-0.004662215,1.6138798,0,0.6917097,0.001683463,-0.001612453,0.7221719,1
81768000,0,0.001823861,1.6138798,0,0.6917113,-0.000658572,0.000630793,0.7221736,1
81792000,0,0.008319094,1.6138798,0,0.69170564,-0.003003907,0.002877198,0.7221676,1
81816000,0,0.014825882,1.6138798,0,0.6916926,-0.005353383,0.005127571,0.722154,1
81840000,0,0.02134639,1.6138798,0,0.6916722,-0.007707756,0.007382633,0.72213274,1
81864000,0,0.027882576,1.6138798,0,0.69164443,-0.010067708,0.009643038,0.7221037,1
81888000,0,0.034436204,1.6138798,0,0.6916091,-0.012433848,0.011909372,0.7220668,1
81912000,0,0.04100609,1.6138798,0,0.6915662,-0.014805726,0.0141812,0.7220221,1
81936000,0,0.047593724,1.6138798,0,0.69151574,-0.01718385,0.016459012,0.7219694,1
81960000,0,0.054200456,1.6138798,0,0.6914576,-0.01956868,0.018743247,0.7219087,1
81984000,0,0.06082747,1.6138798,0,0.6913917,-0.02196062,0.021034291,0.7218399,1
82008000,0,0.06747638,1.6138798,0,0.691318,-0.024360215,0.02333267,0.7217629,1
82032000,0,0.07414808,1.6138798,0,0.69123626,-0.02676777,0.02563867,0.7216776,1
82056000,0,0.08084337,1.6138798,0,0.6911466,-0.029183533,0.027952533,0.72158396,1
82080000,0,0.08756288,1.6138798,0,0.69104874,-0.031607714,0.030274456,0.72148186,1
82104000,0,0.09430595,1.6138798,0,0.69094276,-0.034040026,0.032604173,0.7213712,1
82128000,0,0.101073004,1.6138798,0,0.6908285,-0.03648061,0.034941807,0.7212519,1
82152000,0,0.10786439,1.6138798,0,0.69070584,-0.038929544,0.037287444,0.7211238,1
82176000,0,0.11468032,1.6138798,0,0.69057477,-0.041386876,0.039641123,0.72098696,1
82200000,0,0.12152098,1.6138798,0,0.6904352,-0.043852646,0.04200288,0.72084117,1
82224000,0,0.12838642,1.6138798,0,0.6902869,-0.046326827,0.0443727,0.72068644,1
82248000,0,0.13527656,1.6138798,0,0.69012994,-0.048809364,0.04675052,0.7205225,1
82272000,0,0.14219126,1.6138798,0,0.6899642,-0.051300164,0.04913625,0.7203495,1
82296000,0,0.14913286,1.6138798,0,0.6897895,-0.05380004,0.05153068,0.7201671,1
82320000,0,0.156101,1.6138798,0,0.6896058,-0.05630882,0.05393364,0.7199753,1
82344000,0,0.16309528,1.6138798,0,0.68941295,-0.058826324,0.056344952,0.719774,1
82368000,0,0.17011522,1.6138798,0,0.68921095,-0.06135234,0.058764417,0.71956307,1
82392000,0,0.17716004,1.6138798,0,0.68899965,-0.06388655,0.06119173,0.71934247,1
82416000,0,0.18422915,1.6138798,0,0.68877906,-0.0664287,0.06362665,0.71911216,1
82440000,0,0.19132191,1.6138798,0,0.6885491,-0.068978526,0.06606892,0.7188721,1
82464000,0,0.19843762,1.6138798,0,0.68830967,-0.07153572,0.06851825,0.7186221,1
82488000,0,0.20557557,1.6138798,0,0.68806076,-0.07410001,0.07097437,0.7183623,1
82512000,0,0.21273643,1.6138798,0,0.6878022,-0.07667157,0.07343747,0.7180923,1
82536000,0,0.21991938,1.6138798,0,0.68753403,-0.07925009,0.075907215,0.7178123,1
82560000,0,0.2271236,1.6138798,0,0.6872561,-0.0818352,0.07838328,0.7175222,1
82584000,0,0.23434821,1.6138798,0,0.6869685,-0.084426574,0.080865346,0.7172219,1
82608000,0,0.24159314,1.6138798,0,0.6866711,-0.08702412,0.083353326,0.7169114,1
82632000,0,0.24885747,1.6138798,0,0.6863638,-0.08962749,0.08584688,0.7165906,1
82656000,0,0.25614026,1.6138798,0,0.6860466,-0.09223627,0.088345625,0.7162594,1
82680000,0,0.26344058,1.6138798,0,0.6857196,-0.09485012,0.09084921,0.715918,1
82704000,0,0.2707577,1.6138798,0,0.6853826,-0.097468704,0.09335734,0.71556616,1
82728000,0,0.27809066,1.6138798,0,0.6850357,-0.10009166,0.09586965,0.715204,1
82752000,0,0.28543848,1.6138798,0,0.6846789,-0.10271857,0.09838576,0.7148314,1
82776000,0,0.29280025,1.6138798,0,0.6843121,-0.10534908,0.100905314,0.7144485,1
82800000,0,0.30017883,1.6138798,0,0.6839352,-0.107984155,0.10342924,0.714055,1
82824000,0,0.30757317,1.6138798,0,0.6835481,-0.110623404,0.10595716,0.7136508,1
82848000,0,0.31498224,1.6138798,0,0.6831509,-0.11326638,0.10848866,0.71323615,1
82872000,0,0.32240498,1.6138798,0,0.68274355,-0.115912676,0.11102332,0.7128109,1
82896000,0,0.3298424,1.6138798,0,0.68232596,-0.11856261,0.113561474,0.7123749,1
82920000,0,0.3372934,1.6138798,0,0.6818982,-0.12121572,0.11610268,0.71192825,1
82944000,0,0.34475693,1.6138798,0,0.68146014,-0.123871624,0.118646555,0.71147096,1
82968000,0,0.34906584,1.6138798,0,0.68120295,-0.12540418,0.12011446,0.7112024,1
82992000,0,0.34906584,1.6138798,0,0.68120295,-0.12540418,0.12011446,0.7112024,1
83016000,0,0.34906584,1.6138798,0,0.68120295,-0.12540418,0.12011446,0.7112024,1
83040000,-0.39344758,0.34906584,1.5276452,0,0.674031,-0.2568078,-0.010152042,0.6925523,1
83064000,-0.37075198,0.34906584,1.5274228,0,0.6769788,-0.24914292,-0.002264902,0.69254774,1
83088000,-0.3841549,0.34906584,1.5202514,0,0.67777276,-0.25369716,-0.00599625,0.6900911,1
83112000,-0.3874013,0.34906584,1.519788,0,0.67752,-0.25479865,-0.007057376,0.6899235,1
83136000,-0.3900322,0.34906584,1.5195469,0,0.6772674,-0.25569063,-0.007934094,0.689832,1
83160000,-0.39269614,0.34906584,1.5190799,0,0.6770872,-0.25659454,-0.008793019,0.6896627,1
83184000,-0.39472324,0.34906584,1.5188364,0,0.67691076,-0.2572818,-0.009460688,0.6895711,1
83208000,-0.40653825,0.34906584,1.5115663,0,0.677881,-0.26132363,-0.012584321,0.68704355,1
83232000,-0.40790737,0.34906584,1.5113076,0,0.6777908,-0.26178932,-0.013020776,0.68694717,1
83256000,-0.4091847,0.34906584,1.510823,0,0.6777899,-0.2622254,-0.013395943,0.6867745,1
83280000,-0.41040686,0.34906584,1.5103403,0,0.6777953,-0.26264286,-0.013752259,0.6866026,1
83304000,-0.42046458,0.34906584,1.5032307,0,0.67890215,-0.26610753,-0.016259022,0.68411565,1
83328000,-0.42100784,0.34906584,1.5027363,0,0.6789988,-0.266296,-0.016379021,0.68394345,1
83352000,-0.42093873,0.34906584,1.5024704,0,0.6790991,-0.26627472,-0.01631999,0.6838538,1
83376000,-0.42106763,0.34906584,1.5019784,0,0.6792501,-0.2663225,-0.016298532,0.6836856,1
83400000,-0.4303529,0.34906584,1.4945928,0,0.68052614,-0.26954317,-0.018477224,0.68109417,1
83424000,-0.42960986,0.34906584,1.4943217,0,0.6807185,-0.26929283,-0.018187687,0.6810087,1
83448000,-0.42901272,0.34906584,1.4938256,0,0.6809678,-0.269094,-0.017917588,0.68084526,1
83472000,-0.42799658,0.34906584,1.4935603,0,0.68119466,-0.26875034,-0.01753603,0.6807639,1
83496000,-0.43633232,0.34906584,1.4861425,0,0.6825886,-0.2716608,-0.01936578,0.6781579,1
83520000,-0.43534485,0.34906584,1.485874,0,0.68281364,-0.2713263,-0.018994518,0.67807573,1
83544000,-0.4341847,0.34906584,1.4853768,0,0.6831395,-0.2709348,-0.018533833,0.6779168,1
83568000,-0.43258575,0.34906584,1.4851084,0,0.6834469,-0.270391,-0.017955549,0.6778397,1
83592000,-0.43633232,0.34906584,1.4776576,0,0.6854595,-0.27174053,-0.018213078,0.67525595,1
83616000,-0.43633232,0.34906584,1.4771538,0,0.6856296,-0.2717451,-0.018144637,0.6750833,1
83640000,-0.43633232,0.34906584,1.4768813,0,0.6857215,-0.2717476,-0.018107608,0.6749898,1
83664000,-0.43484098,0.34906584,1.476376,0,0.68609446,-0.27124062,-0.017535776,0.6748299,1
83688000,-0.43274802,0.34906584,1.4761101,0,0.68646765,-0.27052474,-0.016793594,0.6747566,1
83712000,-0.43633232,0.34906584,1.468629,0,0.6885008,-0.27181998,-0.016986191,0.6721547,1
83736000,-0.4378373,0.34144258,1.4683617,0,0.6894067,-0.26999018,-0.020271957,0.67187256,0.39849323
83760000,-0.43546757,0.33382154,1.4678409,0,0.69090873,-0.26682433,-0.022221811,0.67153263,0.4208883
83784000,-0.4321384,0.32620165,1.4673724,0,0.6925028,-0.26332048,-0.023857951,0.6712177,0.44200632
83808000,-0.43821606,0.3185789,1.4595349,0,0.6953143,-0.26317406,-0.027682714,0.6682149,0.4623643
83832000,-0.43473017,0.31095234,1.4586952,0,0.6970289,-0.25961834,-0.0292359,0.6677533,0.481527
83856000,-0.43077233,0.30332118,1.4580824,0,0.6987079,-0.25588623,-0.030665651,0.6673749,0.49945027
83880000,-0.42712379,0.2956849,1.4572378,0,0.70040345,-0.25225696,-0.032173805,0.666908,0.51608247
83904000,-0.42316678,0.2880324,1.4566365,0,0.7020368,-0.24850366,-0.03361874,0.66652834,0.5328136
83928000,-0.42874357,0.28036383,1.4485446,0,0.7049641,-0.24823083,-0.037317865,0.66333574,0.5481671
83952000,-0.4245011,0.27267942,1.4479241,0,0.7066137,-0.24436551,-0.038695104,0.66293687,0.562193
83976000,-0.42052892,0.26497966,1.4470775,0,0.7082835,-0.24058798,-0.040143184,0.6624502,0.57492197
84000000,-0.41627622,0.25725678,1.446493,0,0.70987946,-0.23669145,-0.04154156,0.66205937,0.58747077
84024000,-0.41236633,0.24951175,1.4456931,0,0.71148497,-0.23290703,-0.043039173,0.6615823,0.5987688
84048000,-0.41787177,0.2417456,1.4377549,0,0.7143376,-0.23263241,-0.04682965,0.65833956,0.6088966
84072000,-0.41428223,0.23395954,1.4369911,0,0.71586895,-0.2289488,-0.048469946,0.6578486,0.6179085
84096000,-0.41076997,0.22614774,1.4365212,0,0.71727574,-0.2252715,-0.05018138,0.6574574,0.6267375
84120000,-0.40730873,0.21831176,1.43609,0,0.71864474,-0.2215977,-0.051924832,0.65707535,0.63452643
84144000,-0.40432405,0.21045317,1.4354427,0,0.72001344,-0.21808803,-0.053811356,0.6565993,0.6413839
84168000,-0.4107292,0.20257361,1.427579,0,0.7227104,-0.21816182,-0.058001034,0.6532465,0.6473671
84192000,-0.40789703,0.19566898,1.4269873,0,0.7239213,-0.21500592,-0.059600636,0.65280795,0.65316117
84216000,-0.4048275,0.19689515,1.4266839,0,0.7242247,-0.21428546,-0.058106355,0.652843,0.6581405
84240000,-0.4021104,0.19797735,1.4261613,0,0.7245758,-0.21365342,-0.056757614,0.6527791,0.66238284
84264000,-0.39919603,0.19893351,1.4259107,0,0.7248714,-0.21290222,-0.055420853,0.6528113,0.66595787
84288000,-0.39666164,0.19977896,1.4254456,0,0.725207,-0.21225959,-0.054226846,0.6527481,0.6689076
84312000,-0.3939522,0.20045611,1.4252454,0,0.72549105,-0.21149325,-0.053067036,0.65277654,0.6717567
84336000,-0.40134084,0.2010569,1.4173043,0,0.727229,-0.21457663,-0.05440116,0.6497195,0.67405117
84360000,-0.39855397,0.20158571,1.417137,0,0.727528,-0.21373138,-0.053278692,0.64975643,0.67586124
84384000,-0.3959576,0.20205548,1.4167228,0,0.7278919,-0.21294314,-0.052214034,0.6496941,0.6772279
84408000,-0.3928679,0.2024297,1.4165578,0,0.7282358,-0.21193856,-0.05105176,0.64972943,0.6784766
84432000,-0.3897539,0.20276174,1.4163961,0,0.7285842,-0.21091145,-0.04989785,0.64976287,0.6793222
84456000,-0.38684237,0.20305465,1.4159791,0,0.72899663,-0.20995158,-0.048797645,0.6496946,0.6798415
84480000,-0.38346064,0.20331554,1.415815,0,0.7293779,-0.20880347,-0.04758349,0.6497266,0.68004394
84504000,-0.39043862,0.20353343,1.4079294,0,0.7311785,-0.2116091,-0.04893396,0.64668775,0.67996985
84528000,-0.38712966,0.2037348,1.4077716,0,0.7315585,-0.21046495,-0.047771163,0.64671826,0.6796235
84552000,-0.38400534,0.20391247,1.4073637,0,0.73200065,-0.20938624,-0.046650857,0.64664996,0.6790442
84576000,-0.38045567,0.2040709,1.4071945,0,0.73241013,-0.2081395,-0.045425504,0.646676,0.6782606
84600000,-0.37717494,0.20420636,1.4067729,0,0.73287356,-0.20698896,-0.044269726,0.64660037,0.67732126
84624000,-0.3734651,0.20433263,1.4065932,0,0.733302,-0.20567204,-0.043003924,0.64662033,0.6762194
84648000,-0.3701161,0.20444596,1.4061612,0,0.73377395,-0.20448792,-0.04183399,0.6465372,0.6749805
84672000,-0.3663063,0.20454839,1.4059786,0,0.7342113,-0.20312515,-0.04054495,0.64655244,0.67360187
84696000,-0.3729898,0.2046441,1.3980961,0,0.7360611,-0.20577368,-0.041858383,0.643521,0.67204916
84720000,-0.36934122,0.2047355,1.3979132,0,0.7364851,-0.20446236,-0.0406309,0.64353234,0.67038316
84744000,-0.36597785,0.20482095,1.3974841,0,0.73695785,-0.2032583,-0.039472505,0.64344484,0.6686477
84768000,-0.36230162,0.20490105,1.3973053,0,0.73737997,-0.2019314,-0.038241163,0.64345324,0.6668385
84792000,-0.3588745,0.20495765,1.3968705,0,0.73785937,-0.20069304,-0.03707335,0.6433595,0.6651051
84816000,-0.35503438,0.20501438,1.3966807,0,0.7382991,-0.1992968,-0.0357975,0.64336145,0.66331965
84840000,-0.3515095,0.2050665,1.3962363,0,0.73878706,-0.19801903,-0.03459969,0.6432611,0.66151035
84864000,-0.34769568,0.20511949,1.3960454,0,0.7392198,-0.19662938,-0.033334047,0.6432572,0.6596532
84888000,-0.34401748,0.20517255,1.3956034,0,0.73971736,-0.19529298,-0.032087587,0.6431557,0.65777785
84912000,-0.3402342,0.20518583,1.3954111,0,0.7401461,-0.19390044,-0.030847222,0.6431445,0.6561108
84936000,-0.33672094,0.2052076,1.3949649,0,0.7406271,-0.1926133,-0.029666133,0.64303315,0.6544193
84960000,-0.33290887,0.2052294,1.3947625,0,0.7410559,-0.1912109,-0.028412774,0.6430142,0.65272033
84984000,-0.32937476,0.20525384,1.3943162,0,0.7415339,-0.18991473,-0.02722478,0.6428986,0.65101415
85008000,-0.3358119,0.20528422,1.3866904,0,0.74336153,-0.19242007,-0.028548792,0.639979,0.64922434
85032000,-0.33224174,0.20532143,1.3862346,0,0.7438463,-0.19111043,-0.02734854,0.6398606,0.64743173
85056000,-0.32817385,0.20535831,1.3860166,0,0.7442999,-0.18961129,-0.02601225,0.6398348,0.64565814
85080000,-0.32450888,0.20539716,1.385554,0,0.74479055,-0.1882647,-0.024781302,0.6397103,0.64390033
85104000,-0.32054812,0.20542449,1.3853383,0,0.74522847,-0.1868003,-0.023483783,0.63967854,0.6421871
85128000,-0.31703484,0.20545731,1.3848679,0,0.745703,-0.18550625,-0.02230385,0.6395444,0.6404786
85152000,-0.31313616,0.20549102,1.3846453,0,0.74613136,-0.18406498,-0.02102372,0.63950455,0.6387724
85176000,-0.3096555,0.20552891,1.3841751,0,0.7465976,-0.18278253,-0.01985325,0.6393657,0.63708556
85200000,-0.3057208,0.20560142,1.3839506,0,0.7470212,-0.18133774,-0.01854717,0.6393215,0.6351649
85224000,-0.30214712,0.20567292,1.3834673,0,0.7474923,-0.18002883,-0.017333865,0.6391748,0.63325953
85248000,-0.29823294,0.20575038,1.3832345,0,0.74791086,-0.17859131,-0.016032413,0.63912237,0.63138855
85272000,-0.2946327,0.20582625,1.3827425,0,0.7483819,-0.1772717,-0.014809154,0.63896793,0.6295589
85296000,-0.29077372,0.20584789,1.3824977,0,0.7487989,-0.1758357,-0.013546422,0.63890415,0.62814933
85320000,-0.28735834,0.20586821,1.382009,0,0.7492525,-0.17456602,-0.012404896,0.63874376,0.6267316
85344000,-0.28361776,0.205891,1.3817577,0,0.74965596,-0.17317283,-0.011179745,0.6386722,0.6253414
85368000,-0.28017157,0.20591328,1.3812551,0,0.7501119,-0.17189023,-0.010027476,0.6385025,0.62397295
85392000,-0.27645767,0.20596027,1.3809983,0,0.7505079,-0.17051265,-0.008801825,0.6384246,0.62247074
85416000,-0.27317077,0.20600787,1.3804898,0,0.75094545,-0.16929564,-0.007691264,0.6382482,0.620983
85440000,-0.26945037,0.20605777,1.3802302,0,0.7513379,-0.16791467,-0.006462999,0.6381648,0.6195156
85464000,-0.26613563,0.20610942,1.3797098,0,0.75177693,-0.16668652,-0.005342096,0.63798004,0.6180949
85488000,-0.26241356,0.20616311,1.3794448,0,0.75216603,-0.16530427,-0.004112229,0.63789016,0.61669433
85512000,-0.25889906,0.20614758,1.3791826,0,0.7525403,-0.16397788,-0.002975754,0.6377975,0.6157518
85536000,-0.25572643,0.20613863,1.3786695,0,0.7529637,-0.16278163,-0.001925692,0.6376081,0.6148029
85560000,-0.2522673,0.20613226,1.3783985,0,0.753331,-0.16147724,-0.000803478,0.6375083,0.6138636
85584000,-0.2492134,0.2061289,1.3778834,0,0.7537411,-0.16032566,0.000209957,0.6373146,0.61291504
85608000,-0.24571429,0.20608988,1.3776048,0,0.7541123,-0.15899447,0.001332104,0.6372077,0.61223215
85632000,-0.2426793,0.20606129,1.3770839,0,0.75452083,-0.15784048,0.002329148,0.637008,0.61153316
85656000,-0.23921856,0.20603338,1.3768141,0,0.7548809,-0.15652555,0.003441766,0.63690084,0.6108228
85680000,-0.23618688,0.20600498,1.3762897,0,0.75528646,-0.15537116,0.004437007,0.6366965,0.6101062
85704000,-0.23290886,0.20596871,1.3760102,0,0.75563186,-0.15412107,0.005488113,0.6365824,0.60951155
85728000,-0.2300563,0.20592825,1.3754867,0,0.75602055,-0.15302896,0.006420516,0.63637555,0.60888535
85752000,-0.22684996,0.2058995,1.3752197,0,0.75635207,-0.15180686,0.007449918,0.63626313,0.6082393
85776000,-0.22401002,0.20586915,1.3747004,0,0.7567342,-0.15072116,0.008380808,0.6360552,0.6075551
85800000,-0.20959286,0.20585929,1.3818642,0,0.7555189,-0.14530475,0.012441419,0.6386884,0.60676837
85824000,-0.20692013,0.20585224,1.3813403,0,0.7558803,-0.14428931,0.013330027,0.63847315,0.6059586
85848000,-0.20390245,0.20585108,1.3810695,0,0.75618356,-0.14314634,0.014312282,0.63835,0.6051289
85872000,-0.20127922,0.20585036,1.3805485,0,0.756537,-0.14215022,0.015186295,0.6381336,0.6042923
85896000,-0.19832051,0.20585407,1.3802707,0,0.7568348,-0.14102978,0.016151316,0.6380053,0.60345554
85920000,-0.1959291,0.20585847,1.3797525,0,0.7571679,-0.1401217,0.016952168,0.6377894,0.602581
85944000,-0.1931778,0.20586795,1.3794782,0,0.75744677,-0.1390805,0.017852258,0.6376617,0.6017075
85968000,-0.1909018,0.20587873,1.3789586,0,0.75776935,-0.13821694,0.018617969,0.6374441,0.60082805
85992000,-0.18828714,0.20586959,1.3786924,0,0.7580349,-0.13722074,0.019466039,0.6373183,0.6001324
86016000,-0.18617919,0.20586723,1.3781698,0,0.7583457,-0.13641572,0.020172495,0.6370992,0.5994183
86040000,-0.18370314,0.20586856,1.3778906,0,0.75860286,-0.13547423,0.020980638,0.6369679,0.59871286
86064000,-0.18160893,0.20587394,1.3773643,0,0.75891167,-0.1346758,0.021685123,0.636746,0.59801
86088000,-0.17911336,0.20588757,1.3770832,0,0.7591676,-0.13372982,0.022503667,0.63661176,0.59731615
86112000,-0.17706555,0.20587435,1.3765492,0,0.759475,-0.13294214,0.023185898,0.6363856,0.5968194
86136000,-0.17480657,0.2058652,1.376267,0,0.759715,-0.13207802,0.023919784,0.63625175,0.59627986
86160000,-0.1614913,0.2058595,1.383201,0,0.75836796,-0.12711228,0.027712416,0.6387116,0.59572226
86184000,-0.15927902,0.2058575,1.3829169,0,0.758599,-0.12626868,0.02843608,0.63857275,0.5951348
86208000,-0.15751646,0.2058315,1.3823835,0,0.758882,-0.12558421,0.029022332,0.63834506,0.5947213
86232000,-0.15555291,0.20581032,1.382098,0,0.7590972,-0.12482825,0.02965869,0.638208,0.5942744
86256000,-0.1538886,0.20579346,1.3815639,0,0.7593724,-0.12418316,0.030216444,0.63798034,0.59380764
86280000,-0.15193805,0.20578101,1.3812774,0,0.7595853,-0.1234342,0.030851532,0.6378419,0.59332645
86304000,-0.149982,0.20578808,1.3809891,0,0.7597972,-0.12268892,0.031495754,0.63770187,0.5927108
86328000,-0.14852381,0.20580308,1.3804553,0,0.7600558,-0.12213109,0.031999063,0.6374759,0.5920656
86352000,-0.1467546,0.2058169,1.3801666,0,0.7602545,-0.12145831,0.032585803,0.6373375,0.5914057
86376000,-0.14550914,0.20583458,1.3796282,0,0.7605005,-0.1209815,0.033022072,0.6371123,0.5907448
86400000,-0.13221098,0.20580658,1.3868277,0,0.75899225,-0.1160468,0.03682924,0.63961524,0.5904317
86424000,-0.13099997,0.20578742,1.3862965,0,0.75923336,-0.11557128,0.037239876,0.63939124,0.5900813
86448000,-0.12948303,0.20577255,1.3860221,0,0.75940937,-0.11498554,0.03773488,0.63925874,0.5896843
86472000,-0.12827565,0.20576191,1.3854934,0,0.75964826,-0.11451364,0.03814698,0.63903517,0.5892734
86496000,-0.12682603,0.20577,1.3852117,0,0.7598206,-0.11396012,0.038629305,0.6389003,0.58870965
86520000,-0.1258077,0.2057854,1.3846774,0,0.7600483,-0.11356766,0.03899086,0.63867736,0.58813065
86544000,-0.12459747,0.20580055,1.3843858,0,0.760209,-0.11310674,0.039399628,0.6385427,0.5875357
86568000,-0.123824194,0.20582029,1.3838547,0,0.7604211,-0.11280848,0.039684057,0.63832533,0.58691907
86592000,-0.12265598,0.20582156,1.3835667,0,0.76057863,-0.11235891,0.040073566,0.6381925,0.58642447
86616000,-0.11021399,0.20583227,1.390521,0,0.7590395,-0.107781105,0.04367257,0.640574,0.5859041
86640000,-0.10913453,0.20584826,1.3902428,0,0.7591858,-0.10737033,0.04403936,0.64044446,0.5853518
86664000,-0.10807935,0.2058682,1.3899586,0,0.75933224,-0.106969774,0.044400092,0.640313,0.58479184
86688000,-0.10742234,0.2058925,1.3894231,0,0.75953734,-0.10671605,0.044648316,0.64009476,0.5842111
86712000,-0.10646503,0.20590678,1.3891395,0,0.7596783,-0.106350616,0.04497526,0.6399654,0.5836977
86736000,-0.10604279,0.20592478,1.3886079,0,0.7598698,-0.10618392,0.045145493,0.6397537,0.5831551
86760000,-0.10529443,0.20594567,1.3883182,0,0.76000094,-0.10589959,0.04540822,0.6396263,0.58260584
86784000,-0.105008386,0.20597044,1.3877875,0,0.7601844,-0.10578664,0.04553728,0.6394179,0.582026
86808000,-0.10425435,0.20598973,1.3875024,0,0.7603143,-0.105499595,0.045800775,0.63929206,0.5815042
86832000,-0.092079885,0.20601566,1.3944793,0,0.7587072,-0.10105041,0.049349166,0.6416516,0.5809492
86856000,-0.0914866,0.20604096,1.3941941,0,0.7588273,-0.10082631,0.04956355,0.6415284,0.58038276
86880000,-0.09127005,0.20607242,1.3936539,0,0.7590098,-0.1007407,0.049672253,0.6413174,0.5798115
86904000,-0.090672456,0.20609856,1.3933661,0,0.75913066,-0.10051501,0.04988833,0.641193,0.57928777
86928000,-0.090593226,0.20612791,1.3928311,0,0.75930464,-0.10048089,0.04995185,0.64098746,0.57873
86952000,-0.090199314,0.20615628,1.3925413,0,0.75941575,-0.10033307,0.050103493,0.6408672,0.5781457
86976000,-0.08986848,0.206188,1.3922466,0,0.759525,-0.1002101,0.050236404,0.6407465,0.57757115
87000000,-0.08998906,0.20618187,1.3917136,0,0.75969005,-0.10024057,0.050222136,0.64054716,0.5772718
87024000,-0.07793697,0.20618346,1.3989459,0,0.7579601,-0.09585631,0.053735502,0.64297795,0.5769454
87048000,-0.07807991,0.20618854,1.3984077,0,0.7581259,-0.09589764,0.053717293,0.6427777,0.57660365
87072000,-0.077795796,0.20619729,1.3981203,0,0.75823146,-0.09578499,0.05382571,0.6426609,0.57622457
87096000,-0.07807734,0.20622805,1.3975787,0,0.75839037,-0.09588695,0.053772956,0.6424626,0.57566816
87120000,-0.07800641,0.20626336,1.397284,0,0.75848657,-0.095863365,0.053823337,0.6423483,0.5750975
87144000,-0.078428656,0.20629992,1.3967478,0,0.75863665,-0.09602072,0.053727426,0.6421556,0.5744927
87168000,-0.07851225,0.20633931,1.3964583,0,0.7587235,-0.09605718,0.053729534,0.64204735,0.57387066
87192000,-0.06714072,0.20633876,1.4034559,0,0.7570075,-0.09194175,0.05705764,0.64438397,0.5735325
87216000,-0.06712355,0.20634833,1.403173,0,0.7570989,-0.09193024,0.057079814,0.6442762,0.57316184
87240000,-0.067255974,0.20636472,1.402892,0,0.7571826,-0.09197759,0.057056323,0.6441733,0.5727681
87264000,-0.06787947,0.20638753,1.4023573,0,0.7573248,-0.09220571,0.05688884,0.6439881,0.57236916
87288000,-0.0680296,0.20641553,1.4020718,0,0.7574085,-0.092263386,0.05686433,0.6438837,0.57194155
87312000,-0.06863469,0.20647629,1.401537,0,0.7575497,-0.09249676,0.056717407,0.64369714,0.5712466
87336000,-0.068930596,0.2065439,1.4012517,0,0.7576244,-0.09262234,0.05666115,0.64359605,0.5705342
87360000,-0.06964543,0.20661306,1.4007199,0,0.7577588,-0.09290017,0.056482177,0.64341336,0.56980276
87384000,-0.058041975,0.20668529,1.4079756,0,0.7559436,-0.088743344,0.05992008,0.64582,0.56907076
87408000,-0.05876401,0.20672095,1.4074389,0,0.75608313,-0.08901167,0.059724376,0.645638,0.5686264
87432000,-0.05922023,0.20676522,1.4071449,0,0.75615543,-0.08918956,0.05960702,0.64553946,0.5681646
87456000,-0.059615564,0.20681377,1.4068583,0,0.75622797,-0.08934605,0.05951067,0.6454418,0.5676858
87480000,-0.060416035,0.20686609,1.40633,0,0.75636005,-0.08964982,0.059295915,0.6452646,0.56717795
87504000,-0.06086364,0.20691036,1.4060485,0,0.75642854,-0.08982494,0.05918097,0.64517045,0.56671935
87528000,-0.061807565,0.20696189,1.4055102,0,0.7565571,-0.090182565,0.05892033,0.64499354,0.5662415
87552000,-0.05048526,0.20701459,1.412777,0,0.7547059,-0.0861419,0.06227824,0.6473949,0.56574553
87576000,-0.051561393,0.2070702,1.4122452,0,0.75482893,-0.08654939,0.061973996,0.6472262,0.5652229
87600000,-0.0522158,0.20712304,1.4119577,0,0.754891,-0.086804464,0.061794717,0.6471368,0.56471324
87624000,-0.053309985,0.20718148,1.4114224,0,0.7550138,-0.08721978,0.061486173,0.646967,0.5641793
87648000,-0.054047793,0.2072425,1.4111385,0,0.75507045,-0.087509215,0.061283067,0.6468811,0.56363195
87672000,-0.054709367,0.20730571,1.4108528,0,0.7551308,-0.08777056,0.06110561,0.64679193,0.56307673
87696000,-0.055776637,0.20735689,1.4103223,0,0.7552529,-0.08817383,0.06080325,0.6466231,0.5626031
87720000,-0.056428406,0.20741443,1.4100428,0,0.7553118,-0.08842995,0.06062673,0.64653593,0.56210303
87744000,-0.045729514,0.20747548,1.4170771,0,0.7534937,-0.08463278,0.06381035,0.64885503,0.56158584
87768000,-0.046515737,0.2075368,1.4167935,0,0.7535495,-0.08493973,0.06359051,0.64877164,0.561051
87792000,-0.047786,0.2075848,1.4162617,0,0.7536656,-0.085417,0.06321932,0.6486103,0.56060654
87816000,-0.04872405,0.20764065,1.4159759,0,0.7537155,-0.085779496,0.062948495,0.6485309,0.5601459
87840000,-0.050083414,0.20770052,1.4154464,0,0.75382584,-0.086294495,0.06255319,0.6483724,0.5596585
87864000,-0.050975293,0.2077642,1.4151707,0,0.7538737,-0.08664258,0.0623001,0.64829487,0.5591406
87888000,-0.05193177,0.2078301,1.4148909,0,0.75391966,-0.08701565,0.062027186,0.64821756,0.55860394
87912000,-0.041375436,0.20787989,1.4219326,0,0.7520804,-0.083281174,0.06517374,0.6505318,0.5582039
87936000,-0.042387202,0.20793657,1.4216542,0,0.7521261,-0.083670944,0.064877674,0.65045863,0.55776584
87960000,-0.043756552,0.2079958,1.4211287,0,0.7522368,-0.08418812,0.064476795,0.6503038,0.55730134
87984000,-0.044856597,0.20805696,1.420849,0,0.7522785,-0.08461265,0.06415403,0.6502323,0.5568228
88008000,-0.04630295,0.2081209,1.4203172,0,0.752387,-0.08516039,0.06373058,0.65007687,0.556312
88032000,-0.04729453,0.20819159,1.4200395,0,0.7524316,-0.08554745,0.06344685,0.6500021,0.5557721
88056000,-0.048781965,0.20826617,1.4195101,0,0.75253624,-0.08611444,0.063014396,0.64984816,0.55522186
88080000,-0.049771577,0.20834373,1.419225,0,0.75258255,-0.086502895,0.06273448,0.64977014,0.55467594
88104000,-0.03901768,0.20839585,1.426534,0,0.750656,-0.08271346,0.065945186,0.65216964,0.5543397
88128000,-0.040439673,0.20845288,1.4259983,0,0.75076914,-0.083248116,0.06552526,0.65201384,0.55398726
88152000,-0.041527256,0.20851174,1.4257208,0,0.7508115,-0.083666414,0.06520449,0.6519436,0.55360377
88176000,-0.04310932,0.20856784,1.4251873,0,0.75091636,-0.08426123,0.06473238,0.65179324,0.55319345
88200000,-0.044308078,0.20864436,1.4249082,0,0.7509531,-0.08472711,0.06438236,0.6517252,0.5526557
88224000,-0.045922812,0.20871972,1.4243742,0,0.7510549,-0.085340746,0.063907355,0.65157455,0.5520903
88248000,-0.047087755,0.20880418,1.424099,0,0.7510907,-0.0857968,0.063571475,0.6515061,0.5515134
88272000,-0.048239466,0.20888615,1.4238205,0,0.751128,-0.08624706,0.06323922,0.65143603,0.55092776
88296000,-0.037939105,0.20895442,1.4308944,0,0.74925154,-0.082634725,0.06632727,0.653754,0.55048525
88320000,-0.039082523,0.20903197,1.4306172,0,0.74929124,-0.08307915,0.06599417,0.65368587,0.550018
88344000,-0.04055928,0.20910594,1.430082,0,0.7494013,-0.08363891,0.06556168,0.6535319,0.54954094
88368000,-0.041731488,0.20918854,1.4298053,0,0.7494387,-0.084095955,0.065221325,0.65346444,0.54905933
88392000,-0.043323595,0.20922653,1.4292779,0,0.74954206,-0.0846878,0.064737745,0.65331745,0.54882973
88416000,-0.04449273,0.20928237,1.4290044,0,0.74957913,-0.08513528,0.06438848,0.65325135,0.5485777
88440000,-0.04570632,0.20933902,1.4287314,0,0.7496139,-0.08559978,0.064025074,0.6531865,0.5482935
88464000,-0.047168702,0.2093994,1.4282076,0,0.74971926,-0.08615081,0.06359275,0.6530352,0.547985
88488000,-0.048303142,0.209464,1.4279313,0,0.7497574,-0.08658829,0.0632586,0.652966,0.5476637
88512000,-0.038084157,0.20953861,1.4350209,0,0.7478685,-0.08301617,0.06632832,0.65528744,0.5472664
88536000,-0.03928929,0.20962007,1.4347472,0,0.74790424,-0.08348434,0.06597545,0.6552227,0.5468476
88560000,-0.04088973,0.20970416,1.4342213,0,0.74800557,-0.08409299,0.065504774,0.6550764,0.54641134
88584000,-0.04217289,0.20979074,1.4339464,0,0.7480376,-0.08459214,0.06512862,0.65501314,0.5459681
88608000,-0.043387152,0.2098629,1.433669,0,0.7480736,-0.085060805,0.06476981,0.65494686,0.5456557
88632000,-0.04499222,0.20994137,1.4331361,0,0.74817586,-0.08566957,0.06429648,0.6547973,0.5453197
88656000,-0.046232454,0.21002136,1.432859,0,0.7482096,-0.086150706,0.063932404,0.6547314,0.5449615
88680000,-0.04781718,0.21010529,1.4323256,0,0.7483117,-0.08675392,0.06346827,0.6545801,0.54459506
88704000,-0.037308004,0.21017808,1.439675,0,0.74634475,-0.08308977,0.06662939,0.6569826,0.54432106
88728000,-0.038944032,0.210258,1.4391453,0,0.7464468,-0.08370889,0.06614405,0.6568371,0.5440282
88752000,-0.04019031,0.21034232,1.4388697,0,0.7464812,-0.08419251,0.06577792,0.656773,0.5437209
88776000,-0.04145789,0.21042939,1.4385905,0,0.7465153,-0.08468492,0.06540609,0.65670806,0.5434027
88800000,-0.043154664,0.21053667,1.4380593,0,0.7466126,-0.085336044,0.0649118,0.6565622,0.5429124
88824000,-0.044450294,0.21064885,1.4377837,0,0.7466424,-0.08584743,0.06454033,0.65649825,0.542403
88848000,-0.046140473,0.21076334,1.4372611,0,0.7467357,-0.08649901,0.064051025,0.6563545,0.5418614
88872000,-0.047294263,0.2108799,1.4369812,0,0.746772,-0.08695891,0.06372825,0.6562838,0.54132617
88896000,-0.048908584,0.210966,1.4364505,0,0.74687165,-0.087572955,0.06325404,0.65613467,0.54103774
88920000,-0.038330346,0.21105699,1.4438152,0,0.7449002,-0.08389641,0.06644914,0.65853584,0.5407422
88944000,-0.039473467,0.21115299,1.4435467,0,0.74493617,-0.08434472,0.06611995,0.65847105,0.54041684
88968000,-0.041057132,0.21125242,1.4430245,0,0.7450364,-0.08495001,0.065657884,0.6583261,0.54006666
88992000,-0.042286083,0.21134499,1.4427549,0,0.74506855,-0.08542931,0.06529947,0.65826327,0.53974056
89016000,-0.04386779,0.21144529,1.4422295,0,0.745169,-0.086034335,0.06483898,0.65811646,0.5393937
89040000,-0.045117848,0.21154833,1.4419545,0,0.7452007,-0.086524926,0.06447808,0.6580516,0.5390338
89064000,-0.04672741,0.2116557,1.4414269,0,0.74529934,-0.08714288,0.06401164,0.6579039,0.53867036
89088000,-0.08442652,0.20320156,0.8835627,0,0.8966984,-0.0812785,0.07365673,0.42883602,0.59839165
89112000,-0.12212564,0.19474363,0.8835627,0,0.89549595,-0.096392795,0.06175284,0.43009526,0.5984111
89136000,-0.15982476,0.18889672,0.8835627,0,0.8938716,-0.112034366,0.05100345,0.4310921,0.5982002
89160000,-0.19752388,0.1889523,0.8835627,0,0.8915976,-0.1288741,0.042893983,0.43197826,0.59778154
89184000,-0.235223,0.18901488,0.8835627,0,0.889006,-0.14566934,0.034772348,0.43271202,0.5972011
89208000,-0.2729221,0.18912248,0.8835627,0,0.8860947,-0.16242188,0.026658494,0.43329498,0.59620917
89232000,-0.3106212,0.18924922,0.8835627,0,0.8828664,-0.17912036,0.018543571,0.4337268,0.5951296
89256000,-0.3483203,0.18936852,0.8835627,0,0.879324,-0.1957533,0.01041849,0.43400618,0.59399813
89280000,-0.3860194,0.18949951,0.8835627,0,0.87546724,-0.21231869,0.00229466,0.43413413,0.59286225
89304000,-0.4237185,0.18965194,0.8835627,0,0.8712967,-0.2288125,-0.005820796,0.43411168,0.59160304
89328000,-0.46141762,0.18981212,0.8835627,0,0.8668146,-0.24522604,-0.013931185,0.43393815,0.5903493
89352000,-0.49911672,0.18997633,0.8835627,0,0.8620232,-0.26155272,-0.022035345,0.43361357,0.5891296
89376000,-0.5368158,0.19014534,0.88004893,0,0.8576833,-0.2778393,-0.029642045,0.43163186,0.5879699
89400000,-0.5745149,0.19034791,0.86405385,0,0.85569334,-0.29428664,-0.035331316,0.42418855,0.5866612
89424000,-0.612214,0.19055873,0.85526764,0,0.8518247,-0.3105889,-0.041864157,0.41973388,0.5854257
89448000,-0.64991313,0.19077149,0.84661573,0,0.8476008,-0.3268398,-0.048261955,0.41523427,0.5842808
89472000,-0.68761224,0.1909854,0.8303542,0,0.8446069,-0.34323964,-0.053198077,0.40742585,0.58324057
89496000,-0.72531134,0.19118989,0.8220071,0,0.8396531,-0.3593839,-0.05928012,0.40287933,0.5823636
89520000,-0.76301044,0.1913976,0.8061712,0,0.83586097,-0.3756981,-0.06380106,0.39511618,0.58158374
89544000,-0.7779126,0.19160579,0.7981073,0,0.834599,-0.3822155,-0.0651131,0.3913005,0.58091265
89568000,-0.7868722,0.19181235,0.7826699,0,0.83584815,-0.38648778,-0.06379518,0.3845975,0.58034205
89592000,-0.7909474,0.19207925,0.77481705,0,0.8365318,-0.38848242,-0.06293863,0.3812279,0.579417
89616000,-0.79909873,0.19234991,0.7597283,0,0.83776134,-0.39240533,-0.061416388,0.37470257,0.5785959
89640000,-0.80207753,0.19261725,0.75300443,0,0.8384006,-0.39389917,-0.06053485,0.37183797,0.5779061
89664000,-0.8054289,0.19288224,0.7453904,0,0.8391188,-0.39557302,-0.05953767,0.3685879,0.5773343
89688000,-0.812546,0.19314466,0.7307093,0,0.8403579,-0.39903063,-0.057807855,0.36225864,0.5768633
89712000,-0.81538117,0.19339609,0.7232817,0,0.8411027,-0.40047148,-0.056725442,0.35909748,0.576559
89736000,-0.8218035,0.19364782,0.7089358,0,0.84233737,-0.4036104,-0.0548755,0.35292345,0.576357
89760000,-0.8242868,0.1938973,0.7015846,0,0.8430994,-0.40489113,-0.053717434,0.3498013,0.57623506
89784000,-0.8301993,0.1941457,0.6874414,0,0.8443231,-0.40779233,-0.05176098,0.34372193,0.57621014
89808000,-0.8323585,0.19439054,0.6802408,0,0.84508747,-0.4089213,-0.05055359,0.34066823,0.5762788
89832000,-0.8373849,0.19463679,0.667184,0,0.8462356,-0.4114028,-0.04861766,0.335066,0.576421
89856000,-0.83918756,0.19488126,0.6601185,0,0.8470165,-0.41236708,-0.04735662,0.33207515,0.5766411
89880000,-0.84082466,0.19512463,0.6530991,0,0.8478126,-0.41325575,-0.04607214,0.32910597,0.5769321
89904000,-0.84566754,0.19536929,0.6394489,0,0.84900916,-0.41564792,-0.043926388,0.32325026,0.57726103
89928000,-0.8470471,0.19561732,0.63251823,0,0.84981096,-0.4164142,-0.04259821,0.32032165,0.57764345
89952000,-0.85147196,0.19586575,0.61907196,0,0.8509952,-0.41860452,-0.04038483,0.31455746,0.57807577
89976000,-0.852162,0.1961134,0.6131084,0,0.851759,-0.41904613,-0.039135627,0.3120503,0.5785693
90000000,-0.8561803,0.19635653,0.59988,0,0.8529349,-0.42103815,-0.036872074,0.30638093,0.579141
90024000,-0.8570633,0.1966043,0.5931779,0,0.85374534,-0.4215643,-0.035486244,0.3035511,0.57975
90048000,-0.86075956,0.19685136,0.58011264,0,0.85490376,-0.42339495,-0.033173695,0.2979524,0.58039784
90072000,-0.8613296,0.19709823,0.5735208,0,0.8557354,-0.42377263,-0.031753667,0.2951701,0.58110005
90096000,-0.86476666,0.1973502,0.56059426,0,0.85687006,-0.4254687,-0.029400922,0.28963023,0.5817934
90120000,-0.8647352,0.19760299,0.55492985,0,0.8576682,-0.42556307,-0.028080009,0.28725025,0.5825416
90144000,-0.86501753,0.19785585,0.54843193,0,0.85851175,-0.42579913,-0.026626013,0.28450614,0.5833095
90168000,-0.86805373,0.19810745,0.53570753,0,0.85963196,-0.4272905,-0.024229132,0.27904958,0.58411175
90192000,-0.8681413,0.1983516,0.5293068,0,0.860478,-0.42742747,-0.022765942,0.27634245,0.58497417
90216000,-0.87054414,0.19860068,0.5175379,0,0.8615507,-0.4286132,-0.020466313,0.27129734,0.58585453
90240000,-0.8704492,0.19885013,0.5112101,0,0.862401,-0.42865825,-0.018987164,0.26861882,0.5867483
90264000,-0.87266463,0.19910064,0.49874806,0,0.8635586,-0.42974785,-0.016496666,0.26327005,0.587662
90288000,-0.87266463,0.19935161,0.49247015,0,0.86435694,-0.42982,-0.015036605,0.2606065,0.58858657
90312000,-0.8721479,0.19962949,0.4870306,0,0.86514735,-0.42966035,-0.013677791,0.25831193,0.58931136
90336000,-0.87266463,0.1999119,0.47471634,0,0.86658394,-0.4299845,-0.010972254,0.2530321,0.59004897
90360000,-0.87266463,0.20019297,0.4685247,0,0.867337,-0.43004006,-0.009516403,0.25040263,0.5907926
90384000,-0.87266463,0.20047261,0.45631793,0,0.86882347,-0.43011287,-0.0067674,0.2451587,0.59155154
90408000,-0.87266463,0.20074455,0.45098123,0,0.86944973,-0.4301512,-0.005498871,0.24289244,0.59236705
90432000,-0.87266463,0.20102237,0.43888074,0,0.87087834,-0.43019816,-0.002772734,0.23768193,0.5931921
90456000,-0.87266463,0.201301,0.43282115,0,0.8715695,-0.4302258,-0.001345351,0.23509675,0.59401417
90480000,-0.87266463,0.20157912,0.42755097,0,0.8721612,-0.43024865,-8.79E-05,0.23285373,0.5948298
90504000,-0.87266463,0.20187207,0.41554344,0,0.8735177,-0.43026254,0.002625741,0.22767082,0.59549373
90528000,-0.87266463,0.20216542,0.40956122,0,0.8741692,-0.4302736,0.004043452,0.22511469,0.59615767
90552000,-0.87266463,0.20245752,0.39843133,0,0.8753831,-0.43026432,0.006568149,0.22030404,0.5968249
90576000,-0.87266463,0.20274733,0.39248332,0,0.87600946,-0.4302623,0.007977083,0.21775685,0.5974922
90600000,-0.87266463,0.20299603,0.386565,0,0.8766288,-0.43025315,0.009361319,0.21521278,0.5984681
90624000,-0.87266463,0.20324786,0.37554905,0,0.87777966,-0.43021095,0.011843525,0.21043094,0.5994449
90648000,-0.87266463,0.20350005,0.36966643,0,0.8783736,-0.43018982,0.013221599,0.20789817,0.60042
90672000,-0.87266463,0.20375213,0.3587045,0,0.879479,-0.43012583,0.015692025,0.20313083,0.60138386
90696000,-0.87266463,0.20401965,0.3528424,0,0.88004863,-0.43009353,0.017072424,0.20060536,0.60218054
90720000,-0.8723632,0.20429341,0.34701025,0,0.88067234,-0.42992467,0.018478967,0.19808993,0.60297775
90744000,-0.87266463,0.20456831,0.33611113,0,0.88165164,-0.42996532,0.020915605,0.19334571,0.6037718
90768000,-0.871511,0.20484462,0.33029088,0,0.88243634,-0.4294083,0.022400692,0.1908215,0.60455555
90792000,-0.8695654,0.20511715,0.32522383,0,0.88331246,-0.42850518,0.023794234,0.18861656,0.60538596
90816000,-0.8704857,0.20539103,0.31365424,0,0.88417006,-0.4287807,0.026311137,0.18357047,0.60620326
90840000,-0.8684566,0.20566495,0.30861503,0,0.88504285,-0.4278285,0.027698405,0.18136892,0.6070018
90864000,-0.8666837,0.20593847,0.30285528,0,0.88591915,-0.42697462,0.02921182,0.1788482,0.607798
90888000,-0.8671745,0.20621394,0.29207268,0,0.8867446,-0.4270407,0.03159449,0.17413215,0.60856694
90912000,-0.8653074,0.2064737,0.28632227,0,0.88762003,-0.4261308,0.033099238,0.17160302,0.6094554
90936000,-0.8629992,0.20674023,0.28132445,0,0.8885171,-0.4250328,0.034479484,0.16939801,0.6103353
90960000,-0.8636498,0.20700914,0.26985574,0,0.88931555,-0.42512798,0.036983885,0.16436595,0.6111728
90984000,-0.86120504,0.2072794,0.26487246,0,0.8902213,-0.42395693,0.038363043,0.16215691,0.6119781
91008000,-0.8590104,0.20756118,0.25916052,0,0.89112455,-0.42287847,0.03987594,0.15962644,0.6126692
91032000,-0.85906786,0.20784879,0.24849129,0,0.8919306,-0.42269534,0.042256624,0.15492903,0.6133332
91056000,-0.8567133,0.20813811,0.24280533,0,0.8928434,-0.42153227,0.043768205,0.15239905,0.6139801
91080000,-0.8539136,0.20842926,0.23785451,0,0.89378613,-0.42018127,0.04515334,0.15018345,0.61460644
91104000,-0.8514341,0.20869076,0.23216853,0,0.89471114,-0.41895047,0.046649005,0.14763616,0.6154213
91128000,-0.8513097,0.20895682,0.2215237,0,0.8954916,-0.41864815,0.04900744,0.14292192,0.6161892
91152000,-0.8482866,0.20922445,0.2165865,0,0.8964547,-0.4171787,0.050374605,0.14068815,0.6169269
91176000,-0.84554046,0.20949437,0.21092062,0,0.89740294,-0.41580963,0.051868208,0.13813049,0.6176312
91200000,-0.842321,0.20976737,0.20598707,0,0.89839023,-0.41424167,0.05323632,0.13588491,0.61828005
91224000,-0.84225106,0.21004488,0.19464742,0,0.899142,-0.41390806,0.055714615,0.13084196,0.61889094
91248000,-0.83888125,0.21032372,0.1897221,0,0.9001388,-0.4122596,0.05707704,0.12858646,0.6194597
91272000,-0.8354038,0.2106041,0.18479498,0,0.9011494,-0.41055727,0.058439557,0.1263224,0.62001497
91296000,-0.8322374,0.21087022,0.17913681,0,0.9021342,-0.4089677,0.05991775,0.12373008,0.62062377
91320000,-0.828568,0.21114025,0.17421106,0,0.9031671,-0.40716752,0.061270583,0.121448584,0.62116855
91344000,-0.8248198,0.21141206,0.1692799,0,0.90420735,-0.40532607,0.062621474,0.11915734,0.6216762
91368000,-0.82441235,0.21168557,0.1579434,0,0.9049332,-0.4047843,0.06506584,0.11407022,0.62212515
91392000,-0.8204791,0.21194184,0.15301165,0,0.90598947,-0.40284514,0.06640052,0.11175799,0.62267387
91416000,-0.8164502,0.21220317,0.14807913,0,0.9070552,-0.40085706,0.067733675,0.10943777,0.623157
91440000,-0.81222916,0.2124657,0.14314991,0,0.90814936,-0.39877623,0.069067515,0.10710715,0.62363136
91464000,-0.8083118,0.21272904,0.13748808,0,0.9092115,-0.39680177,0.07052122,0.10444862,0.62403935
91488000,-0.80391484,0.21299288,0.1325506,0,0.91032016,-0.3946286,0.07184594,0.1020966,0.6243907
91512000,-0.79938024,0.21325241,0.1276116,0,0.91144556,-0.39238665,0.07316541,0.0997322,0.62471116
91536000,-0.79468423,0.21351606,0.12266916,0,0.9125916,-0.3900649,0.07448451,0.09735501,0.62496674
91560000,-0.790328,0.21378009,0.11699255,0,0.91369534,-0.38786432,0.07591882,0.09464921,0.6251573
91584000,-0.78892606,0.21404397,0.106354,0,0.9144416,-0.3868151,0.07816504,0.08978267,0.6252988
91608000,-0.7839124,0.2142863,0.101397835,0,0.9156133,-0.38432682,0.07945394,0.08736307,0.6255463
91632000,-0.77880865,0.21453477,0.09643765,0,0.9167899,-0.38179073,0.080738135,0.08493278,0.6257279
91656000,-0.77350885,0.2147836,0.091472924,0,0.91799134,-0.37915805,0.08201903,0.082486,0.6258382
91680000,-0.76850533,0.21503265,0.08577233,0,0.9191534,-0.3766243,0.08341386,0.07970682,0.62591136
91704000,-0.76297116,0.2152865,0.08079814,0,0.92037237,-0.37387,0.08468142,0.077233285,0.62584364
91728000,-0.75730294,0.21554323,0.075819805,0,0.9216025,-0.371047,0.08594253,0.07474582,0.6257408
91752000,-0.74757904,0.21579935,0.07654223,0,0.9233541,-0.3665925,0.08629115,0.074706584,0.6255949
91776000,-0.7416067,0.216055,0.07155702,0,0.9246129,-0.36361602,0.08753902,0.07218963,0.6253888
91800000,-0.7355057,0.21627256,0.06656937,0,0.925882,-0.36057296,0.0887593,0.069651954,0.6253996
91824000,-0.7298024,0.216507,0.060844537,0,0.92708826,-0.3576739,0.09009071,0.06678629,0.6253517
91848000,-0.7234967,0.21673882,0.05584612,0,0.9283618,-0.35452095,0.091294974,0.06422236,0.6252359
91872000,-0.717104,0.21696477,0.050844688,0,0.9296348,-0.35132027,0.09248388,0.06164474,0.6250326
91896000,-0.7106344,0.21720837,0.045840394,0,0.93090355,-0.34807628,0.09366763,0.059057973,0.6247122
91920000,-0.7040328,0.21745087,0.040831525,0,0.9321785,-0.34476325,0.09483902,0.056455344,0.6243347
91944000,-0.6927921,0.21769474,0.0415526,0,0.93406785,-0.33955082,0.095146485,0.056299083,0.62390566
91968000,-0.6859885,0.21793966,0.03654611,0,0.9353415,-0.33612925,0.09629388,0.05367454,0.62338287
91992000,-0.6790991,0.21817213,0.031538583,0,0.93661183,-0.3326602,0.09742041,0.05103589,0.62292457
92016000,-0.67214423,0.21840724,0.026531808,0,0.93787444,-0.32915312,0.09853197,0.04838744,0.6223939
92040000,-0.66504294,0.21864425,0.021513589,0,0.9391421,-0.32556924,0.09963175,0.045719307,0.6218115
92064000,-0.65289426,0.2188829,0.02223678,0,0.9410733,-0.31989178,0.09990435,0.045491464,0.6211782
92088000,-0.6456634,0.2191232,0.017218925,0,0.9423211,-0.31623206,0.10097518,0.042803638,0.62049294
92112000,-0.6383947,0.21936758,0.012203701,0,0.9435549,-0.31254724,0.10202951,0.040108446,0.6196703
92136000,-0.6258011,0.21962081,0.01293689,0,0.9454761,-0.30663365,0.102287404,0.039850462,0.61878127
92160000,-0.61832166,0.21987717,0.007926464,0,0.9466985,-0.30283433,0.10331609,0.037134767,0.61785316
92184000,-0.6108455,0.22013436,0.002903469,0,0.94789976,-0.29902855,0.10432743,0.034406155,0.61689776
92208000,-0.5977521,0.22037257,0.003638662,0,0.949812,-0.29285133,0.104555935,0.034106407,0.6160473
92232000,-0.59017897,0.22061141,-0.001377039,0,0.9509831,-0.2889854,0.105522975,0.031359926,0.6151568
92256000,-0.5825534,0.22085175,-0.006401822,0,0.9521402,-0.2850869,0.10647275,0.028599616,0.6142268
92280000,-0.56911445,0.22109209,-0.005661368,0,0.9540114,-0.27871808,0.10667398,0.028270314,0.61325765
92304000,-0.56144875,0.22133991,-0.010675155,0,0.9551266,-0.27478647,0.107589066,0.02550108,0.61214954
92328000,-0.5477743,0.2215916,-0.009925216,0,0.9569603,-0.26828575,0.1077807,0.025157612,0.6109847
92352000,-0.5402105,0.22184287,-0.014937557,0,0.958014,-0.2643889,0.108658336,0.022382325,0.60980755
92376000,-0.52639073,0.22209392,-0.014186025,0,0.9597967,-0.25779927,0.108833976,0.022024201,0.6086149
92400000,-0.51889616,0.22231989,-0.019196562,0,0.9607953,-0.25392294,0.109660715,0.019238114,0.607624
92424000,-0.50495434,0.2225512,-0.01844722,0,0.96252286,-0.24725607,0.10981079,0.01886268,0.6066292
92448000,-0.49750307,0.22278467,-0.023459531,0,0.9634683,-0.24338771,0.11060302,0.016067564,0.60561603
92472000,-0.48330072,0.22301975,-0.02271258,0,0.96515423,-0.23657678,0.11073936,0.015670316,0.6046052
92496000,-0.4759952,0.22327533,-0.027722843,0,0.96603376,-0.23276639,0.1115027,0.012875808,0.6033983
92520000,-0.46189022,0.22353032,-0.026965968,0,0.9676332,-0.22598499,0.11162849,0.012484501,0.6022023
92544000,-0.45476082,0.22378331,-0.03196872,0,0.9684465,-0.22224909,0.112350985,0.009692607,0.6010078
92568000,-0.44075105,0.22403464,-0.031207673,0,0.9699629,-0.21549763,0.11245592,0.009301974,0.59980536
92592000,-0.42672008,0.2243301,-0.03043846,0,0.9714318,-0.20872518,0.11258154,0.00891777,0.59812605
92616000,-0.4200765,0.22463273,-0.035436563,0,0.972122,-0.20520894,0.11327071,0.00614599,0.59644556
92640000,-0.40625197,0.22493328,-0.03467264,0,0.9734991,-0.19852185,0.11338085,0.005765144,0.5947899
92664000,-0.3923782,0.22523445,-0.033917017,0,0.9748348,-0.19180115,0.113492325,0.005376255,0.5931995
92688000,-0.38510498,0.2255324,-0.038185365,0,0.97551835,-0.18800613,0.11405785,0.00291018,0.5916526
92712000,-0.37131712,0.22579381,-0.037425973,0,0.9767764,-0.18131477,0.11413393,0.002518933,0.5904568
92736000,-0.35765517,0.22605571,-0.03666488,0,0.9779773,-0.1746767,0.11420999,0.002134813,0.5892788
92760000,-0.35184914,0.22631498,-0.041672118,0,0.97846776,-0.17154518,0.11477229,-0.000623656,0.58813226
92784000,-0.33834335,0.22657117,-0.040914856,0,0.9795905,-0.16497229,0.11482838,-0.001006056,0.5870283
92808000,-0.324912,0.22683682,-0.04015825,0,0.9806625,-0.15842839,0.11488927,-0.001384545,0.58583
92832000,-0.31166595,0.22710173,-0.0394044,0,0.98167664,-0.15196839,0.11495025,-0.001754688,0.584662
92856000,-0.29849914,0.22736481,-0.038656168,0,0.9826423,-0.14554064,0.11501093,-0.002124069,0.5835396
92880000,-0.2936057,0.22762543,-0.043682523,0,0.98297215,-0.14284152,0.115492746,-0.004856639,0.582454
92904000,-0.28077492,0.22788206,-0.042934425,0,0.98385614,-0.13657092,0.11553428,-0.005211303,0.5813665
92928000,-0.2669836,0.2281399,-0.04144094,0,0.9847646,-0.129865,0.11552554,-0.005255139,0.58028656
92952000,-0.25449526,0.22839592,-0.040690087,0,0.98554444,-0.12375243,0.11557011,-0.005589956,0.5792487
92976000,-0.242134,0.22865017,-0.03993883,0,0.98627853,-0.11769794,0.11561446,-0.005918125,0.5782478
93000000,-0.23855835,0.22890875,-0.04494313,0,0.9864547,-0.11564022,0.11602087,-0.008577525,0.57717776
93024000,-0.22671905,0.22916837,-0.044186495,0,0.98711103,-0.10983811,0.11605459,-0.008875817,0.5761306
93048000,-0.21512972,0.22942539,-0.043429784,0,0.98772013,-0.104155876,0.116088666,-0.009160426,0.5751227
93072000,-0.2036503,0.22968604,-0.042685486,0,0.9882907,-0.09852386,0.116126254,-0.009445317,0.57418156
93096000,-0.19238664,0.22993699,-0.041930042,0,0.9888196,-0.09299631,0.11616011,-0.009713395,0.57336104
93120000,-0.18130623,0.23018895,-0.041184805,0,0.9893093,-0.08755603,0.11619648,-0.009976532,0.5725782
93144000,-0.16929437,0.23043881,-0.03969773,0,0.9898108,-0.081695415,0.11619736,-0.009927469,0.5718275
93168000,-0.15872511,0.23068607,-0.038956128,0,0.99021864,-0.076503076,0.116237305,-0.010164202,0.5711342
93192000,-0.14837469,0.23093395,-0.038202815,0,0.9905911,-0.07141783,0.11627896,-0.0103831,0.5704098
93216000,-0.14713001,0.2311857,-0.043215267,0,0.99059194,-0.070505954,0.11657423,-0.012928683,0.5697192
93240000,-0.13727924,0.23143576,-0.042465217,0,0.99091786,-0.06566614,0.11660835,-0.013122255,0.56906855
93264000,-0.12758212,0.23168853,-0.041721664,0,0.99121535,-0.06090063,0.11664597,-0.013310662,0.56846225
93288000,-0.118083894,0.23194101,-0.040984266,0,0.9914839,-0.056232125,0.116685845,-0.013491213,0.5678921
93312000,-0.10872868,0.23221506,-0.040238746,0,0.9917256,-0.051633622,0.11673807,-0.013659481,0.56707525
93336000,-0.0984307,0.2324887,-0.03877031,0,0.9919728,-0.046608813,0.116767704,-0.013525056,0.5663047
93360000,-0.089551635,0.23275807,-0.038042046,0,0.99215955,-0.042243727,0.11682474,-0.013675749,0.56556904
93384000,-0.08097319,0.23302369,-0.03730651,0,0.9923213,-0.03802761,0.11688279,-0.013806135,0.56485635
93408000,-0.07250522,0.23327483,-0.036574893,0,0.9924641,-0.03386574,0.11693551,-0.013933047,0.5642721
93432000,-0.06435058,0.23352395,-0.035851113,0,0.9925847,-0.029858485,0.11699055,-0.014046264,0.5637279
93456000,-0.05638321,0.23376988,-0.03513395,0,0.9926866,-0.025943495,0.117046416,-0.014152548,0.5632193
93480000,-0.048586715,0.23401915,-0.034420885,0,0.99277097,-0.022112796,0.1171062,-0.0142515,0.56276107
93504000,-0.04106485,0.2342641,-0.033703037,0,0.992838,-0.018418573,0.11716677,-0.014332731,0.5622987
93528000,-0.03376158,0.2345113,-0.03299039,0,0.9928894,-0.014832439,0.117231086,-0.014404379,0.5618404
93552000,-0.025606701,0.23475614,-0.031533785,0,0.992938,-0.010867111,0.11728504,-0.014157313,0.56141037
93576000,-0.018839551,0.23499937,-0.030819617,0,0.9929599,-0.007547243,0.117354535,-0.014198143,0.5610049
93600000,-0.012237949,0.23521622,-0.030108966,0,0.9929718,-0.004309628,0.11741316,-0.014231746,0.5608511
93624000,-0.005938594,0.2354335,-0.02939216,0,0.9929729,-0.001222513,0.1174752,-0.014245094,0.5607
93648000,0.000161628,0.2356474,-0.028678067,0,0.99296457,0.001765759,0.11753804,-0.014248628,0.5605657
93672000,0.015246333,0.23586462,-0.022212468,0,0.99295396,0.008876361,0.117564395,-0.011925414,0.56046337
93696000,0.020967757,0.23607326,-0.021506652,0,0.99291646,0.011676384,0.11763749,-0.011912225,0.56045526
93720000,0.026452249,0.23628189,-0.020797707,0,0.9928727,0.014358384,0.11771307,-0.011884064,0.5604372
93744000,0.032897323,0.23648846,-0.019357733,0,0.9928177,0.017473936,0.117789306,-0.011550084,0.5604285
93768000,0.037999727,0.23669234,-0.018651612,0,0.9927619,0.019965893,0.11786773,-0.011501852,0.5604178
93792000,0.042938884,0.23689075,-0.017945103,0,0.992702,0.022376537,0.11794536,-0.011444232,0.5603883
93816000,0.047619272,0.2370921,-0.017241858,0,0.99263906,0.024658704,0.11802688,-0.011373453,0.5603484
93840000,0.05204997,0.23729198,-0.01652915,0,0.9925742,0.02681614,0.11811015,-0.01128367,0.56028795
93864000,0.05625358,0.23749013,-0.015824102,0,0.99250793,0.028861098,0.11819471,-0.011184676,0.56024647
93888000,0.060459156,0.23769544,-0.015123464,0,0.99243677,0.030907067,0.11828364,-0.011088505,0.56022024
93912000,0.06431669,0.23789038,-0.014418431,0,0.9923677,0.032779824,0.118370324,-0.010969825,0.5602244
93936000,0.06923783,0.23808727,-0.012979731,0,0.9922802,0.035136603,0.11846598,-0.010550555,0.5602089
93960000,0.081672736,0.23828103,-0.006506898,0,0.99206233,0.04092178,0.11862725,-0.008080076,0.5601801
93984000,0.08486854,0.2384711,-0.005802244,0,0.99198717,0.042464945,0.11872344,-0.007924084,0.5601336
94008000,0.08788639,0.23863527,-0.005097635,0,0.99191505,0.043919686,0.11880826,-0.007757316,0.5603144
94032000,0.09072916,0.2387986,-0.004392028,0,0.99184465,0.045287356,0.1188941,-0.007579907,0.5604681
94056000,0.09339632,0.23895879,-0.003678665,0,0.99177647,0.046567313,0.11897993,-0.007388397,0.5605782
94080000,0.09598766,0.239122,-0.00297562,0,0.99170816,0.047810122,0.119068004,-0.007197813,0.5606978
94104000,0.09851245,0.2392981,-0.002275676,0,0.9916391,0.049019918,0.119163305,-0.007005361,0.5606636
94128000,0.100831695,0.23947194,-0.001575038,0,0.9915737,0.050127614,0.11925885,-0.006800511,0.5606181
94152000,0.10402622,0.23964256,-0.000134058,0,0.99148697,0.051624898,0.119369656,-0.006281031,0.5605767
94176000,0.10578948,0.2398094,0.000570007,0,0.99143314,0.052456424,0.11946524,-0.00604163,0.56051874
94200000,0.11642184,0.23997067,0.007056408,0,0.99114716,0.057337813,0.11969795,-0.003466836,0.56040907
94224000,0.11785469,0.24013568,0.00776393,0,0.9910973,0.058004636,0.11979774,-0.003206837,0.560271
94248000,0.11920165,0.24029866,0.008472934,0,0.99104923,0.05862871,0.11989708,-0.002941045,0.5601152
94272000,0.12034075,0.24046047,0.009177662,0,0.99100703,0.05914995,0.119996406,-0.002665008,0.55995226
94296000,0.12152084,0.2406194,0.00988517,0,0.9909634,0.059691258,0.120094694,-0.002390088,0.5599377
94320000,0.122670464,0.24077897,0.010597236,0,0.9909201,0.060217097,0.1201938,-0.002111221,0.55990446
94344000,0.1235333,0.24093553,0.011304684,0,0.9908855,0.060601056,0.12029189,-0.001817422,0.5598539
94368000,0.12547764,0.2410892,0.01275982,0,0.99081814,0.06147574,0.12041095,-0.001218312,0.55978125
94392000,0.13493012,0.24122779,0.019263841,0,0.99050874,0.06576475,0.12068697,0.001429068,0.55981743
94416000,0.13536002,0.24136983,0.01997877,0,0.99048555,0.06593323,0.12078119,0.00175234,0.55982065
94440000,0.13572885,0.24151054,0.020695701,0,0.99046427,0.066071294,0.12087488,0.002080292,0.5598072
94464000,0.13583818,0.2416507,0.021411702,0,0.9904515,0.066080846,0.12096805,0.002423459,0.55977994
94488000,0.13604282,0.24179769,0.0221297,0,0.99043506,0.06613735,0.12106483,0.002761596,0.5597581
94512000,0.1362015,0.24193503,0.02285114,0,0.9904205,0.066170916,0.12115692,0.003104522,0.55980605
94536000,0.13623823,0.24207766,0.02356907,0,0.9904096,0.06614419,0.12125135,0.003452905,0.5598283
94560000,0.13612626,0.2422194,0.024293631,0,0.9904035,0.06604337,0.12134527,0.003813613,0.559816
94584000,0.1359242,0.24236012,0.025015704,0,0.9904003,0.06589805,0.12143835,0.004178596,0.55978423
94608000,0.14559814,0.24248485,0.03228563,0,0.99004287,0.07024429,0.12177501,0.007185371,0.559877
94632000,0.1452192,0.24261072,0.033012643,0,0.990046,0.07001086,0.121861406,0.007563677,0.55992746
94656000,0.144701,0.24273665,0.03374196,0,0.9900537,0.06970829,0.121947184,0.007951638,0.5599517
94680000,0.14416365,0.24286796,0.034468718,0,0.9900616,0.06939628,0.12203524,0.008339345,0.5599642
94704000,0.14370756,0.24299851,0.035191983,0,0.9900666,0.069124654,0.122122966,0.008720429,0.5599724
94728000,0.1431282,0.24312787,0.03591559,0,0.9900755,0.06879195,0.12220935,0.00910929,0.5599395
94752000,0.1424904,0.2432632,0.0366457,0,0.9900859,0.06842978,0.122298405,0.00950477,0.5598862
94776000,0.14180247,0.24340409,0.03737749,0,0.99009734,0.06804257,0.12238974,0.009904001,0.5598208
94800000,0.14093132,0.24352208,0.038104847,0,0.9901161,0.067565165,0.1224684,0.010313137,0.5598711
94824000,0.13992375,0.24364173,0.038833577,0,0.990139,0.06702007,0.12254684,0.010731317,0.5598832
94848000,0.14883679,0.24375944,0.046130143,0,0.9897798,0.07098235,0.12291145,0.01379168,0.5598708
94872000,0.14757514,0.24387535,0.0468621,0,0.9898124,0.07031112,0.122985825,0.014227061,0.55983424
94896000,0.14646263,0.24399562,0.04759303,0,0.9898387,0.069713615,0.12306287,0.014652685,0.5597787
94920000,0.14536852,0.24412182,0.0483227,0,0.98986375,0.069125146,0.123142496,0.015076415,0.5597117
94944000,0.14426535,0.2442473,0.04905936,0,0.98988867,0.068531714,0.123221494,0.015504273,0.55959964
94968000,0.14296304,0.24437067,0.04979304,0,0.9899199,0.06783987,0.123297304,0.015943093,0.55946314
94992000,0.14164498,0.24447308,0.05052696,0,0.98995227,0.0671405,0.12336208,0.016383871,0.55952096
95016000,0.14030835,0.2445801,0.05126326,0,0.9899844,0.06643164,0.123428516,0.01682689,0.55954146
95040000,0.13895634,0.24468654,0.052001785,0,0.9900164,0.06571499,0.12349407,0.017272072,0.55953157
95064000,0.13750379,0.2447933,0.052738447,0,0.990051,0.064948626,0.12355822,0.017722616,0.55949986
95088000,0.13714293,0.24489969,0.05422782,0,0.99004287,0.06467609,0.12365588,0.018478401,0.5594196
95112000,0.13583665,0.2450197,0.054964624,0,0.99007076,0.06398176,0.12372675,0.018919667,0.5592079
95136000,0.134383,0.245144,0.05570325,0,0.99010235,0.06321421,0.12379782,0.019370899,0.55897367
95160000,0.14178501,0.24526776,0.06227591,0,0.98978674,0.066468276,0.124149,0.022160912,0.55872977
95184000,0.10408589,0.24539083,0.07855262,0,0.99062425,0.04678938,0.1241551,0.032556623,0.558469
95208000,0.066386774,0.24550222,0.07888835,0,0.99131745,0.028086202,0.12357929,0.03505528,0.5582902
95232000,0.02868766,0.24561657,0.07922698,0,0.99165744,0.009373267,0.1229549,0.037545137,0.55806994
95256000,-0.009011455,0.2457303,0.0795685,0,0.9916442,-0.009342681,0.12228017,0.04002529,0.5578246
95280000,-0.04671057,0.24584416,0.07991298,0,0.99127764,-0.028054988,0.12155565,0.042494748,0.55754054
95304000,-0.084409684,0.24594912,0.080260456,0,0.99055845,-0.046756838,0.12077699,0.044952374,0.55739164
95328000,-0.1221088,0.2460627,0.08096453,0,0.9894774,-0.06546307,0.11994145,0.047572333,0.557201
95352000,-0.15980792,0.2461774,0.0813212,0,0.98805165,-0.08412452,0.11906518,0.050005056,0.5569727
95376000,-0.19750704,0.24629259,0.08168103,0,0.9862738,-0.10275568,0.11813989,0.052423157,0.556711
95400000,-0.23520616,0.24639823,0.08204404,0,0.98414516,-0.12134978,0.11716082,0.054825105,0.5565131
95424000,-0.27290526,0.2465071,0.0824103,0,0.9816657,-0.13990039,0.11613454,0.057210505,0.5562749
95448000,-0.2885044,0.24661611,0.08277982,0,0.980527,-0.14757523,0.11571105,0.058303215,0.5560024
95472000,-0.29926172,0.24672522,0.08315267,0,0.9797011,-0.15286975,0.11542083,0.059115175,0.5557104
95496000,-0.30991885,0.24684294,0.083528884,0,0.9788538,-0.1581109,0.11513215,0.0599222,0.5552259
95520000,-0.3203911,0.24697402,0.083908506,0,0.97799265,-0.16325729,0.114850044,0.060719885,0.5547514
95544000,-0.33080932,0.24710384,0.08429159,0,0.9771088,-0.16837284,0.114563465,0.06151475,0.554281
95568000,-0.3514804,0.2472338,0.08506833,0,0.97528374,-0.17850813,0.11391576,0.063085236,0.5538255
95592000,-0.3615367,0.2473518,0.08546207,0,0.9743537,-0.18343323,0.11361859,0.063859254,0.5535337
95616000,-0.3715775,0.24747273,0.08585948,0,0.97339976,-0.1883462,0.113318115,0.064633034,0.55323243
95640000,-0.3814807,0.24759297,0.08626059,0,0.9724345,-0.19318756,0.113016546,0.06539936,0.5529428
95664000,-0.3913016,0.24771276,0.086665444,0,0.971453,-0.19798419,0.11271228,0.06616142,0.5526593
95688000,-0.40100968,0.24783325,0.087074116,0,0.97045904,-0.20272134,0.11240697,0.06691762,0.5523988
95712000,-0.41065413,0.24794847,0.08748665,0,0.9694488,-0.20742284,0.112096176,0.067670204,0.5522329
95736000,-0.42009598,0.24807234,0.08790309,0,0.9684365,-0.21202154,0.11179144,0.06841277,0.55207247
95760000,-0.42817882,0.24819674,0.09198334,0,0.9674211,-0.21616183,0.1111336,0.07085058,0.5519168
95784000,-0.43754467,0.24832131,0.09242518,0,0.9663743,-0.2207154,0.11081218,0.07159678,0.55176854
95808000,-0.44679415,0.24842624,0.092871286,0,0.96532017,-0.22520779,0.11048042,0.072335035,0.551871
95832000,-0.46528003,0.24853571,0.09377649,0,0.963157,-0.23417106,0.109754026,0.073801234,0.55197054
95856000,-0.4741874,0.24864694,0.09423571,0,0.9620801,-0.23848434,0.109423146,0.07452285,0.5520749
95880000,-0.48306534,0.24875946,0.09469944,0,0.9609872,-0.24277881,0.1090892,0.07524368,0.55218
95904000,-0.49178034,0.24889259,0.095167756,0,0.9598937,-0.24699049,0.108766556,0.07595877,0.5519715
95928000,-0.50044906,0.2490405,0.095640704,0,0.9587862,-0.25117546,0.10844803,0.07667395,0.551769
95952000,-0.5089352,0.2491897,0.09611837,0,0.95768356,-0.2552683,0.10813242,0.077380314,0.55158544
