timestamp,roll_body,pitch_body,yaw_body,yaw_sp_move_rate,q_d[0],q_d[1],q_d[2],q_d[3],thrust_body[0]
18000000,0.008008662,0,2.3836937,0,0.3699417,0.001481377,0.003720229,0.92904633,0.15
18024000,0.008008662,0,2.3836937,0,0.3699417,0.001481377,0.003720229,0.92904633,0.15
18048000,0.008008662,0,2.3836937,0,0.3699417,0.001481377,0.003720229,0.92904633,0.15
18072000,0.008008662,0,2.3836937,0,0.3699417,0.001481377,0.003720229,0.92904633,0.15
18096000,0.008008662,0,2.3836937,0,0.3699417,0.001481377,0.003720229,0.92904633,0.15
18120000,0.008008662,0,2.3836937,0,0.3699417,0.001481377,0.003720229,0.92904633,0.15
18144000,0.008008662,0,2.3836937,0,0.3699417,0.001481377,0.003720229,0.92904633,0.15
18168000,0.008008662,0,2.3836937,0,0.3699417,0.001481377,0.003720229,0.92904633,0.15
18192000,0.008008662,0,2.3836937,0,0.3699417,0.001481377,0.003720229,0.92904633,0.15
18216000,0.008008662,0,2.3836937,0,0.3699417,0.001481377,0.003720229,0.92904633,0.15
18240000,0,0,1.5953976,0,0.6983557,0,0,0.71575093,0
18264000,0,0,1.5953976,0,0.6983557,0,0,0.71575093,1
18288000,0,0,1.5953976,0,0.6983557,0,0,0.71575093,1
18312000,0,0,1.5953976,0,0.6983557,0,0,0.71575093,1
18336000,0,0,1.5953976,0,0.6983557,0,0,0.71575093,1
18360000,0,0,1.5953976,0,0.6983557,0,0,0.71575093,1
18384000,0,0,1.5953976,0,0.6983557,0,0,0.71575093,1
18408000,0,0,1.5953976,0,0.6983557,0,0,0.71575093,1
18432000,0,0,1.5953976,0,0.6983557,0,0,0.71575093,1
18456000,0,0,1.5953976,0,0.6983557,0,0,0.71575093,1
18480000,0,0,1.5953976,0,0.6983557,0,0,0.71575093,1
18504000,0,0,1.5953976,0,0.6983557,0,0,0.71575093,1
18528000,0,0,1.5953976,0,0.6983557,0,0,0.71575093,1
18552000,0,0,1.5953976,0,0.6983557,0,0,0.71575093,1
18576000,0,0,1.5953976,0,0.6983557,0,0,0.71575093,1
18600000,0,0,1.5953976,0,0.6983557,0,0,0.71575093,1
18624000,0,0,1.5953976,0,0.6983557,0,0,0.71575093,1
18648000,0,0,1.5953976,0,0.6983557,0,0,0.71575093,1
18672000,0,0,1.5953976,0,0.6983557,0,0,0.71575093,1
18696000,0,0,1.5953976,0,0.6983557,0,0,0.71575093,1
18720000,0,-0.37863457,1.5953976,0,0.68587816,0.13469604,-0.13142245,0.7029626,1
18744000,0,-0.3645684,1.5953976,0,0.68678546,0.12974876,-0.12659541,0.70389247,1
18768000,0,-0.35124674,1.5953976,0,0.6876134,0.1250574,-0.12201807,0.7047411,1
18792000,0,-0.33869237,1.5953976,0,0.6883658,0.12063117,-0.11769941,0.7055122,1
18816000,0,-0.32678258,1.5953976,0,0.6890545,0.11642782,-0.11359821,0.70621806,1
18840000,0,-0.31541908,1.5953976,0,0.6896888,0.1124134,-0.10968136,0.7068682,1
18864000,0,-0.30452165,1.5953976,0,0.69027615,0.10856022,-0.10592183,0.7074702,1
18888000,0,-0.29411092,1.5953976,0,0.6908182,0.10487613,-0.10232727,0.7080257,1
18912000,0,-0.28411615,1.5953976,0,0.6913209,0.10133656,-0.09887373,0.708541,1
18936000,0,-0.27447882,1.5953976,0,0.6917893,0.09792117,-0.09554134,0.70902103,1
18960000,0,-0.26515,1.5953976,0,0.6922275,0.09461296,-0.092313536,0.7094701,1
18984000,0,-0.25608835,1.5953976,0,0.69263864,0.09139751,-0.08917623,0.70989144,1
19008000,0,-0.2473106,1.5953976,0,0.6930233,0.08828101,-0.08613548,0.7102857,1
19032000,0,-0.23877923,1.5953976,0,0.69338447,0.08525036,-0.08317848,0.71065587,1
19056000,0,-0.23046218,1.5953976,0,0.6937244,0.08229436,-0.08029432,0.71100426,1
19080000,0,-0.22233166,1.5953976,0,0.69404507,0.07940327,-0.07747349,0.7113329,1
19104000,0,-0.21439348,1.5953976,0,0.6943471,0.07657931,-0.07471816,0.7116425,1
19128000,0,-0.20662287,1.5953976,0,0.6946321,0.07381379,-0.07201985,0.7119346,1
19152000,0,-0.19899814,1.5953976,0,0.69490165,0.0710991,-0.06937115,0.7122109,1
19176000,0,-0.19150022,1.5953976,0,0.6951568,0.06842856,-0.0667655,0.7124724,1
19200000,0,-0.1841279,1.5953976,0,0.6953982,0.065801814,-0.0642026,0.7127198,1
19224000,0,-0.17686476,1.5953976,0,0.6956268,0.063213095,-0.061676793,0.71295404,1
19248000,0,-0.16969618,1.5953976,0,0.6958434,0.06065726,-0.059183076,0.7131761,1
19272000,0,-0.16260922,1.5953976,0,0.69604874,0.058129758,-0.056716997,0.71338654,1
19296000,0,-0.15560615,1.5953976,0,0.69624305,0.05563146,-0.05427942,0.7135857,1
19320000,0,-0.14867567,1.5953976,0,0.696427,0.05315838,-0.051866446,0.7137742,1
19344000,0,-0.1418074,1.5953976,0,0.696601,0.05070688,-0.049474522,0.71395254,1
19368000,0,-0.13499226,1.5953976,0,0.6967655,0.048273742,-0.04710052,0.71412116,1
19392000,0,-0.1282305,1.5953976,0,0.69692075,0.045859113,-0.044744574,0.7142803,1
19416000,0,-0.121514104,1.5953976,0,0.69706714,0.043460168,-0.042403933,0.7144303,1
19440000,0,-0.11483574,1.5953976,0,0.6972048,0.041074313,-0.040076066,0.7145714,1
19464000,0,-0.1081887,1.5953976,0,0.6973342,0.038699202,-0.037758674,0.714704,1
19488000,0,-0.10157343,1.5953976,0,0.6974552,0.036335014,-0.035451945,0.7148281,1
19512000,0,-0.09498387,1.5953976,0,0.69756824,0.033979617,-0.033153795,0.7149439,1
19536000,0,-0.088414446,1.5953976,0,0.6976734,0.031631056,-0.030862309,0.71505165,1
19560000,0,-0.08186002,1.5953976,0,0.6977708,0.029287515,-0.028575726,0.7151515,1
19584000,0,-0.07531586,1.5953976,0,0.69786054,0.026947329,-0.026292415,0.71524346,1
19608000,0,-0.068784215,1.5953976,0,0.69794273,0.02461133,-0.024013188,0.7153277,1
19632000,0,-0.06226077,1.5953976,0,0.6980173,0.022278003,-0.02173657,0.71540415,1
19656000,0,-0.0557416,1.5953976,0,0.6980845,0.01994597,-0.019461213,0.71547294,1
19680000,0,-0.049223077,1.5953976,0,0.6981442,0.017613953,-0.017185872,0.71553415,1
19704000,0,-0.04270484,1.5953976,0,0.6981965,0.015281853,-0.01491045,0.7155878,1
19728000,0,-0.036183752,1.5953976,0,0.69824135,0.012948571,-0.012633875,0.7156338,1
19752000,0,-0.029656926,1.5953976,0,0.6982789,0.010613098,-0.010355162,0.71567225,1
19776000,0,-0.023121735,1.5953976,0,0.698309,0.008274517,-0.008073418,0.7157031,1
19800000,0,-0.01657858,1.5953976,0,0.6983317,0.005932999,-0.005788806,0.7157264,1
19824000,0,-0.010025195,1.5953976,0,0.6983469,0.003587756,-0.003500561,0.71574193,1
19848000,0,-0.003459511,1.5953976,0,0.69835466,0.001238074,-0.001207984,0.71574986,1
19872000,0,0.003120341,1.5953976,0,0.69835484,-0.001116693,0.001089554,0.7157501,1
19896000,0,0.00971585,1.5953976,0,0.69834745,-0.003477051,0.003392546,0.71574247,1
19920000,0,0.016328534,1.5953976,0,0.6983324,-0.005843517,0.005701499,0.7157271,1
19944000,0,0.022959776,1.5953976,0,0.69830966,-0.00821656,0.008016869,0.7157037,1
19968000,0,0.029610803,1.5953976,0,0.69827914,-0.010596593,0.010339058,0.7156725,1
19992000,0,0.03628068,1.5953976,0,0.6982408,-0.012983253,0.012667715,0.7156332,1
20016000,0,0.042970397,1.5953976,0,0.6981945,-0.015376868,0.015003156,0.71558577,1
20040000,0,0.04968081,1.5953976,0,0.6981402,-0.017777715,0.017345654,0.7155301,1
20064000,0,0.05641265,1.5953976,0,0.69807786,-0.020186026,0.019695435,0.7154662,1
20088000,0,0.06316564,1.5953976,0,0.6980074,-0.022601677,0.022052377,0.71539396,1
20112000,0,0.06994032,1.5953976,0,0.6979287,-0.025024824,0.024416633,0.7153134,1
20136000,0,0.07673711,1.5953976,0,0.6978417,-0.027455593,0.026788326,0.71522415,1
20160000,0,0.08355633,1.5953976,0,0.69774634,-0.029894063,0.029167533,0.7151264,1
20184000,0,0.09039817,1.5953976,0,0.69764245,-0.032340273,0.03155429,0.71501994,1
20208000,0,0.09726291,1.5953976,0,0.69753003,-0.03479429,0.033948667,0.7149047,1
20232000,0,0.104150586,1.5953976,0,0.697409,-0.037256096,0.03635064,0.7147807,1
20256000,0,0.111061156,1.5953976,0,0.6972792,-0.03972564,0.038760167,0.71464765,1
20280000,0,0.11799448,1.5953976,0,0.69714063,-0.042202838,0.04117716,0.7145056,1
20304000,0,0.1249507,1.5953976,0,0.6969932,-0.044687703,0.043601636,0.7143545,1
20328000,0,0.13192953,1.5953976,0,0.6968368,-0.047180112,0.046033468,0.71419424,1
20352000,0,0.13893065,1.5953976,0,0.6966714,-0.049679898,0.0484725,0.7140247,1
20376000,0,0.14595364,1.5953976,0,0.6964969,-0.052186877,0.05091855,0.71384585,1
20400000,0,0.15299876,1.5953976,0,0.69631326,-0.054701112,0.053371683,0.7136576,1
20424000,0,0.16006547,1.5953976,0,0.6961203,-0.05722237,0.055831667,0.7134599,1
20448000,0,0.16715318,1.5953976,0,0.6959181,-0.059750404,0.05829826,0.7132526,1
20472000,0,0.1742613,1.5953976,0,0.6957065,-0.06228497,0.060771223,0.71303576,1
20496000,0,0.18139035,1.5953976,0,0.6954855,-0.0648262,0.0632507,0.7128092,1
20520000,0,0.1885396,1.5953976,0,0.69525486,-0.067373805,0.06573638,0.71257293,1
20544000,0,0.19570832,1.5953976,0,0.6950148,-0.069927484,0.068228,0.7123268,1
20568000,0,0.20289578,1.5953976,0,0.69476515,-0.07248694,0.07072525,0.71207094,1
20592000,0,0.21010382,1.5953976,0,0.6945057,-0.075052775,0.07322873,0.71180505,1
20616000,0,0.21733159,1.5953976,0,0.6942366,-0.07762466,0.07573811,0.7115292,1
20640000,0,0.22457819,1.5953976,0,0.69395757,-0.08020223,0.07825304,0.7112433,1
20664000,0,0.23184274,1.5953976,0,0.6936688,-0.08278513,0.08077316,0.7109473,1
20688000,0,0.2391251,1.5953976,0,0.69337004,-0.08537327,0.08329839,0.71064115,1
20712000,0,0.24642436,1.5953976,0,0.6930615,-0.08796626,0.08582838,0.7103248,1
20736000,0,0.25373957,1.5953976,0,0.6927428,-0.09056376,0.08836274,0.7099983,1
20760000,0,0.2610698,1.5953976,0,0.69241434,-0.093165375,0.09090113,0.7096616,1
20784000,0,0.2684141,1.5953976,0,0.6920759,-0.095770724,0.09344316,0.7093147,1
20808000,0,0.27577356,1.5953976,0,0.69172734,-0.098380156,0.09598917,0.7089575,1
20832000,0,0.2831472,1.5953976,0,0.69136876,-0.10099327,0.09853878,0.70859,1
20856000,0,0.29053402,1.5953976,0,0.6910001,-0.103609696,0.101091616,0.70821214,1
20880000,0,0.2979331,1.5953976,0,0.6906214,-0.10622904,0.1036473,0.707824,1
20904000,0,0.3053437,1.5953976,0,0.6902326,-0.10885099,0.10620554,0.70742553,1
20928000,0,0.31276485,1.5953976,0,0.68983376,-0.11147521,0.10876597,0.7070167,1
20952000,0,0.3201957,1.5953976,0,0.6894249,-0.1141013,0.11132824,0.7065977,1
20976000,0,0.32763535,1.5953976,0,0.689006,-0.116728924,0.113892004,0.70616835,1
21000000,0,0.33508465,1.5953976,0,0.688577,-0.11935834,0.11645751,0.70572865,1
21024000,0,0.3425427,1.5953976,0,0.68813795,-0.121989176,0.11902441,0.7052787,1
21048000,0,0.34906584,1.5953976,0,0.68774605,-0.12428884,0.12126819,0.7048771,1
21072000,0,0.34906584,1.5953976,0,0.68774605,-0.12428884,0.12126819,0.7048771,1
21096000,0,0.34906584,1.5953976,0,0.68774605,-0.12428884,0.12126819,0.7048771,1
21120000,0,0.34906584,1.5953976,0,0.68774605,-0.12428884,0.12126819,0.7048771,1
21144000,-0.31900755,0.34906584,1.5707964,0,0.6680226,-0.2318315,0.010626808,0.7070269,1
21168000,-0.3056858,0.34906584,1.5707964,0,0.66955185,-0.22737677,0.015335962,0.7069404,1
21192000,-0.30905783,0.34906584,1.5707964,0,0.6691676,-0.22850531,0.014144026,0.70696527,1
21216000,-0.31227773,0.34906584,1.5707964,0,0.6687988,-0.22958237,0.01300583,0.70698714,1
21240000,-0.3259073,0.34906584,1.5640801,0,0.66958934,-0.23410589,0.0089738,0.70481473,1
21264000,-0.32877636,0.34906584,1.564067,0,0.6692575,-0.23506615,0.007964268,0.70482254,1
21288000,-0.3312822,0.34906584,1.5640541,0,0.668967,-0.23590446,0.007082678,0.7048277,1
21312000,-0.33349764,0.34906584,1.564041,0,0.66870993,-0.2366453,0.006303474,0.7048307,1
21336000,-0.3456424,0.34906584,1.5572603,0,0.66964644,-0.24069333,0.002839461,0.7025897,1
21360000,-0.34719795,0.34906584,1.5572355,0,0.66946775,-0.24121407,0.002295986,0.7025833,1
21384000,-0.34842592,0.34906584,1.557212,0,0.6693278,-0.24162504,0.001867436,0.7025768,1
21408000,-0.3493585,0.34906584,1.5571896,0,0.6692229,-0.2419371,0.001542553,0.7025701,1
21432000,-0.36030474,0.34906584,1.5503552,0,0.67028564,-0.24560261,-0.001463436,0.7002816,1
21456000,-0.36083424,0.34906584,1.5503271,0,0.6702305,-0.24578008,-0.001645394,0.7002718,1
21480000,-0.3611664,0.34906584,1.5502999,0,0.6701992,-0.24589142,-0.001758337,0.7002624,1
21504000,-0.36119172,0.34906584,1.550274,0,0.67020506,-0.24589995,-0.001764037,0.7002536,1
21528000,-0.3711531,0.34906584,1.5433999,0,0.6713748,-0.24925154,-0.004395075,0.6979328,1
21552000,-0.37079802,0.34906584,1.5433687,0,0.67142993,-0.2491324,-0.004267283,0.6979231,1
21576000,-0.3702321,0.34906584,1.5433395,0,0.67151064,-0.24894246,-0.004066169,0.6979144,1
21600000,-0.36938336,0.34906584,1.5433098,0,0.67162657,-0.24865752,-0.003766306,0.6979062,1
21624000,-0.3784507,0.34906584,1.5363996,0,0.6728996,-0.25172234,-0.006060623,0.6955612,1
21648000,-0.37753397,0.34906584,1.5363685,0,0.67302567,-0.25141394,-0.005737901,0.6955533,1
21672000,-0.37644196,0.34906584,1.5363384,0,0.6731733,-0.25104654,-0.005354352,0.69554627,1
21696000,-0.37515232,0.34906584,1.536309,0,0.6733453,-0.25061247,-0.004902169,0.69553965,1
21720000,-0.3836722,0.34906584,1.5293744,0,0.67467916,-0.25350434,-0.006986134,0.69317734,1
21744000,-0.38208812,0.34906584,1.529341,0,0.67489123,-0.25296998,-0.006432883,0.6931714,1
21768000,-0.38033897,0.34906584,1.5293084,0,0.6751235,-0.25237975,-0.005822547,0.6931658,1
21792000,-0.37853926,0.34906584,1.5292737,0,0.6753624,-0.25177222,-0.005194411,0.693159,1
21816000,-0.3865082,0.34906584,1.5223116,0,0.6767626,-0.25448734,-0.007070392,0.69078106,1
21840000,-0.38453904,0.34906584,1.5222794,0,0.677024,-0.25382102,-0.006386176,0.6907769,1
21864000,-0.38244706,0.34148905,1.5222471,0,0.67825216,-0.25067514,-0.008397877,0.69069934,0.39296174
21888000,-0.38018522,0.33391613,1.5221996,0,0.6794904,-0.24746707,-0.010347746,0.69061255,0.41519427
21912000,-0.3873666,0.32634604,1.5150394,0,0.68200266,-0.24751914,-0.014676817,0.68803436,0.43612418
21936000,-0.38443828,0.31877753,1.5147624,0,0.6833833,-0.2440877,-0.01637914,0.6878519,0.45590883
21960000,-0.3813004,0.31120947,1.5144663,0,0.6847773,-0.24057862,-0.018007949,0.6876612,0.47453302
21984000,-0.37798417,0.30364093,1.5141675,0,0.68617404,-0.23700179,-0.019576445,0.6874678,0.49195182
22008000,-0.38445538,0.2960621,1.5067397,0,0.6888468,-0.23686287,-0.023668692,0.68470865,0.5093364
22032000,-0.3808711,0.28847274,1.5064018,0,0.6902677,-0.23318669,-0.025162503,0.68448615,0.525403
22056000,-0.37728316,0.28087267,1.5060759,0,0.6916652,-0.2294989,-0.026661672,0.6842651,0.5401632
22080000,-0.37364194,0.27326196,1.5057627,0,0.6930445,-0.22578233,-0.02814924,0.6840464,0.55363077
22104000,-0.37000957,0.26562917,1.5054654,0,0.69439834,-0.22205481,-0.02965089,0.68382996,0.567382
22128000,-0.3763624,0.25797495,1.4978846,0,0.6971188,-0.22190899,-0.03376618,0.6809123,0.57983994
22152000,-0.37261245,0.25030014,1.4976032,0,0.6984595,-0.21812561,-0.035259724,0.68068516,0.59107316
22176000,-0.3689822,0.24260561,1.4973418,0,0.69976056,-0.21437073,-0.036804475,0.6804599,0.601172
22200000,-0.3653644,0.23488311,1.497111,0,0.701031,-0.21060413,-0.038367957,0.680242,0.61135685
22224000,-0.36190242,0.22713406,1.4969186,0,0.7022532,-0.20687646,-0.039998993,0.68003136,0.6204318
22248000,-0.36864695,0.21935992,1.48934,0,0.7049157,-0.20688695,-0.04434491,0.6769973,0.62849003
22272000,-0.3655006,0.21156223,1.4892026,0,0.70606726,-0.20325361,-0.046120286,0.67677915,0.63559407
22296000,-0.3624233,0.20373915,1.4890952,0,0.70718384,-0.19962996,-0.047931723,0.6765659,0.642236
22320000,-0.35940227,0.19599657,1.489012,0,0.70825875,-0.19604614,-0.04973544,0.67635924,0.6480274
22344000,-0.3563243,0.19725882,1.4889596,0,0.7084571,-0.19536795,-0.048227318,0.6764569,0.65303016
22368000,-0.36356258,0.19837867,1.481471,0,0.71016455,-0.19848147,-0.049522564,0.67366093,0.6573097
22392000,-0.3607521,0.19932231,1.4814639,0,0.71035427,-0.19778898,-0.048228644,0.6737583,0.66123915
22416000,-0.35786176,0.20016228,1.4814793,0,0.7105536,-0.19703382,-0.046947934,0.6738599,0.6645313
22440000,-0.35497627,0.20090635,1.4815123,0,0.7107548,-0.19624874,-0.04570558,0.67396224,0.6672484
22464000,-0.35220134,0.20156643,1.4815667,0,0.71094525,-0.1954751,-0.044533283,0.67406476,0.66943425
22488000,-0.34930897,0.20208685,1.4816246,0,0.71115816,-0.19461417,-0.043372825,0.6741648,0.6716326
22512000,-0.35646325,0.20255269,1.474235,0,0.71289814,-0.19747484,-0.0448837,0.6713906,0.6733756
22536000,-0.35345343,0.20296301,1.4743053,0,0.7131317,-0.1965326,-0.043728948,0.6714952,0.6746859
22560000,-0.35025275,0.20333321,1.4743834,0,0.71338385,-0.1955089,-0.042525448,0.67160356,0.6756233
22584000,-0.34692985,0.20366518,1.474454,0,0.7136525,-0.1944291,-0.04129406,0.67170835,0.6762162
22608000,-0.34361455,0.20392072,1.4745259,0,0.7139256,-0.19332695,-0.040093273,0.6718091,0.6767799
22632000,-0.34014836,0.20415194,1.4745826,0,0.7142189,-0.19216299,-0.0388491,0.67190444,0.677056
22656000,-0.33658856,0.20435692,1.4746468,0,0.7145191,-0.1909565,-0.037583657,0.6720011,0.67704976
22680000,-0.34337154,0.20454067,1.4672909,0,0.71631634,-0.1935831,-0.039083064,0.6692452,0.6768112
22704000,-0.33971283,0.20469454,1.4673579,0,0.7166324,-0.19232063,-0.03780824,0.6693439,0.67644066
22728000,-0.3359745,0.20483814,1.4674184,0,0.716957,-0.19102594,-0.03650973,0.66943914,0.67586184
22752000,-0.3322376,0.2049708,1.467473,0,0.7172821,-0.18972777,-0.03521493,0.6695294,0.6751172
22776000,-0.32839662,0.20509323,1.4675214,0,0.7176177,-0.18838856,-0.03388831,0.6696164,0.6742258
22800000,-0.32455713,0.20519306,1.4675734,0,0.71795154,-0.18704192,-0.032570682,0.6697015,0.6732584
22824000,-0.32067996,0.20529045,1.4676218,0,0.71828777,-0.18568043,-0.031240791,0.66978323,0.6721642
22848000,-0.32734734,0.20538352,1.4602661,0,0.7201143,-0.18822566,-0.03274697,0.66703385,0.6709818
22872000,-0.3235197,0.20546946,1.4603224,0,0.7204466,-0.18687388,-0.0314437,0.66711783,0.66968966
22896000,-0.31972787,0.20558181,1.4603701,0,0.7207736,-0.18554303,-0.030141532,0.6671962,0.6680686
22920000,-0.31588793,0.20569415,1.460413,0,0.721104,-0.18419433,-0.028822728,0.6672711,0.666387
22944000,-0.31200618,0.20580375,1.4604563,0,0.7214359,-0.18282908,-0.027490847,0.66734403,0.6646413
22968000,-0.3081512,0.2059116,1.4604969,0,0.72176385,-0.18147236,-0.026168115,0.6674129,0.6628591
22992000,-0.30422655,0.20598419,1.460532,0,0.72210056,-0.18007866,-0.024834588,0.6674773,0.6612881
23016000,-0.30029008,0.2060595,1.4605627,0,0.72243667,-0.17868096,-0.023495555,0.66753757,0.65968424
23040000,-0.296342,0.2061344,1.460597,0,0.72277,-0.17727822,-0.022152983,0.6675966,0.6580472
23064000,-0.3031369,0.20620812,1.4532597,0,0.7246011,-0.17984483,-0.023733951,0.6648652,0.65636533
23088000,-0.29924852,0.20628023,1.4532944,0,0.72493154,-0.17845848,-0.022417523,0.66492426,0.6546837
23112000,-0.2953001,0.20635542,1.4533274,0,0.7252649,-0.17705077,-0.021079682,0.6649808,0.65298057
23136000,-0.29137143,0.20643161,1.4533569,0,0.72559494,-0.17564994,-0.01974757,0.6650331,0.65127885
23160000,-0.2873675,0.20650797,1.4533814,0,0.72593045,-0.1742213,-0.018389836,0.66508174,0.64958096
23184000,-0.2834041,0.20658632,1.4534037,0,0.72626024,-0.17280743,-0.017044537,0.6651264,0.64791244
23208000,-0.2793849,0.20666504,1.4534203,0,0.7265939,-0.17137279,-0.015679926,0.66516674,0.6462263
23232000,-0.27535552,0.20674866,1.4534277,0,0.7269283,-0.16993545,-0.014309235,0.66520107,0.6445445
23256000,-0.27135992,0.20683305,1.4534373,0,0.7272561,-0.16850999,-0.012949623,0.6652332,0.6428758
23280000,-0.26737222,0.20691398,1.4534591,0,0.72757673,-0.16708556,-0.011594862,0.6652669,0.6412102
23304000,-0.26343557,0.2069889,1.4534746,0,0.727893,-0.16567722,-0.010258719,0.66529524,0.63959664
23328000,-0.2595205,0.20706977,1.4534844,0,0.72820604,-0.16427806,-0.008927003,0.6653187,0.6379936
23352000,-0.2555088,0.20715024,1.4534905,0,0.72852564,-0.16284303,-0.007562943,0.6653385,0.63640845
23376000,-0.25153172,0.20723161,1.45349,0,0.7288416,-0.16142029,-0.00620947,0.6653531,0.63483834
23400000,-0.25862792,0.2073047,1.4461191,0,0.73070556,-0.16405922,-0.007938318,0.66263944,0.633367
23424000,-0.25485596,0.20738149,1.4461142,0,0.7310091,-0.16270554,-0.006659448,0.6626525,0.6319076
23448000,-0.25105184,0.20745824,1.4461061,0,0.7313139,-0.16133952,-0.005369656,0.66266197,0.63046384
23472000,-0.24724753,0.20753652,1.4461014,0,0.73161477,-0.15997337,-0.004079498,0.6626702,0.629035
23496000,-0.24346629,0.20759092,1.4460951,0,0.7319137,-0.1586074,-0.002805762,0.662675,0.62780684
23520000,-0.23972958,0.20764644,1.4460845,0,0.73220783,-0.15725753,-0.001546033,0.6626758,0.62657344
23544000,-0.23594238,0.20770846,1.4460763,0,0.7325023,-0.15589072,-0.000267334,0.66267514,0.62537247
23568000,-0.23226924,0.2077705,1.4460617,0,0.73278743,-0.15456516,0.000974067,0.6626697,0.62418777
23592000,-0.22852734,0.20782854,1.4460496,0,0.73307496,-0.15321258,0.00223653,0.66266286,0.6230459
23616000,-0.22482401,0.20789143,1.4460359,0,0.7333572,-0.15187517,0.003488153,0.66265297,0.62189424
23640000,-0.2212561,0.20795354,1.44602,0,0.73362756,-0.15058666,0.00469473,0.66264033,0.6207458
23664000,-0.21770513,0.20801774,1.4460053,0,0.7338939,-0.14930457,0.00589636,0.6626259,0.6196062
23688000,-0.21424279,0.2080899,1.4459902,0,0.73415095,-0.1480571,0.007071622,0.6626096,0.6183912
23712000,-0.21086173,0.20816487,1.4459714,0,0.73440087,-0.14683993,0.008221209,0.6625902,0.6171835
23736000,-0.20749186,0.2082472,1.4459524,0,0.73464763,-0.14562884,0.009369835,0.66256887,0.61600316
23760000,-0.20407717,0.20832153,1.4459286,0,0.7348977,-0.14439824,0.010530606,0.66254336,0.61484057
23784000,-0.20070277,0.20840192,1.4459,0,0.73514396,-0.14318395,0.011680588,0.6625144,0.61371887
23808000,-0.19742689,0.20845886,1.4458737,0,0.7353821,-0.14199787,0.012788914,0.66248494,0.6127533
23832000,-0.19419397,0.20852137,1.4458433,0,0.7356164,-0.140829,0.013885327,0.6624522,0.611795
23856000,-0.19101052,0.20858596,1.4458144,0,0.7358446,-0.13967863,0.014965974,0.6624187,0.6108585
23880000,-0.1877811,0.20865233,1.4457934,0,0.7360715,-0.1385116,0.016061861,0.66238606,0.6099206
23904000,-0.18466079,0.20869575,1.4457793,0,0.7362884,-0.137377,0.017112501,0.66235507,0.6091192
23928000,-0.18150526,0.20874709,1.445752,0,0.73650974,-0.13623151,0.018178597,0.6623171,0.60834366
23952000,-0.17853092,0.2087983,1.4457213,0,0.7367182,-0.13515234,0.01918481,0.662278,0.6075722
23976000,-0.17553194,0.20885804,1.4456928,0,0.7369254,-0.13406658,0.020202152,0.6622378,0.6068237
24000000,-0.1726132,0.20889534,1.4456619,0,0.73712796,-0.13300277,0.021184605,0.66219616,0.6061535
24024000,-0.16976507,0.208945,1.4456336,0,0.73732275,-0.1319687,0.022148065,0.66215473,0.6054823
24048000,-0.16690989,0.20899571,1.4456053,0,0.73751634,-0.13093211,0.023114178,0.66211194,0.604799
24072000,-0.16418478,0.20905343,1.4455744,0,0.73770046,-0.12994546,0.024039928,0.6620682,0.6041299
24096000,-0.16143379,0.20907767,1.44555,0,0.73788506,-0.1289382,0.024961237,0.66202533,0.6036609
24120000,-0.15887403,0.20911348,1.4455231,0,0.738056,-0.12800497,0.025823656,0.6619828,0.6031708
24144000,-0.15628694,0.20915005,1.4454978,0,0.738227,-0.1270617,0.026695251,0.66193926,0.60266775
24168000,-0.15372008,0.20918979,1.4454678,0,0.7383968,-0.12612663,0.027561545,0.6618931,0.6021515
24192000,-0.15125005,0.2092219,1.4454372,0,0.73856014,-0.12522459,0.028392915,0.66184705,0.6016862
24216000,-0.14882307,0.20926313,1.4454045,0,0.73871976,-0.124341205,0.029213507,0.66179985,0.60121715
24240000,-0.14644256,0.20930192,1.4453778,0,0.7388736,-0.12347406,0.030017372,0.6617545,0.6007146
24264000,-0.1440879,0.20934889,1.4453506,0,0.73902446,-0.12261893,0.03081571,0.66170824,0.60020465
24288000,-0.14186655,0.2093649,1.4453235,0,0.7391682,-0.12180282,0.031558298,0.6616634,0.5998679
24312000,-0.12802555,0.2093861,1.4527206,0,0.7375408,-0.11682433,0.035712637,0.6641613,0.599493
24336000,-0.12590499,0.20941041,1.452698,0,0.7376703,-0.1160498,0.0364272,0.6641145,0.599087
24360000,-0.12381834,0.20943831,1.4526714,0,0.7377981,-0.115288734,0.037132014,0.664066,0.5986616
24384000,-0.121734984,0.20947024,1.4526502,0,0.73792297,-0.114530176,0.037836857,0.66401875,0.59820867
24408000,-0.119748354,0.20952313,1.4526232,0,0.73804224,-0.11381392,0.038517687,0.66397023,0.5976137
24432000,-0.11779485,0.20957522,1.4525948,0,0.7381595,-0.11310948,0.039187264,0.6639211,0.59698486
24456000,-0.115879856,0.20963706,1.4525692,0,0.73827225,-0.11242238,0.03984746,0.6638731,0.5963604
24480000,-0.114089884,0.20969726,1.452544,0,0.7383776,-0.11178079,0.04046547,0.663827,0.59572
24504000,-0.11229861,0.2097732,1.4525217,0,0.7384804,-0.11114384,0.041089576,0.6637812,0.5949907
24528000,-0.110610895,0.20984796,1.4524987,0,0.7385772,-0.11054464,0.041678865,0.66373676,0.59423465
24552000,-0.108991295,0.20993179,1.4524782,0,0.73866844,-0.10997352,0.04224876,0.66369396,0.5934767
24576000,-0.10744065,0.21001247,1.4524558,0,0.7387564,-0.109426744,0.042794645,0.6636516,0.59270036
24600000,-0.105880305,0.21004456,1.4524375,0,0.7388458,-0.10886048,0.043325365,0.66361076,0.59235054
24624000,-0.104460105,0.21007955,1.4524059,0,0.7389314,-0.10834657,0.04381135,0.6635676,0.591979
24648000,-0.10300513,0.2101258,1.4523771,0,0.739017,-0.10782349,0.044312883,0.6635242,0.5916123
24672000,-0.10157808,0.21017385,1.452355,0,0.73909837,-0.10731141,0.044805422,0.6634835,0.5912165
24696000,-0.10021314,0.21021858,1.4523338,0,0.739176,-0.10682115,0.045276035,0.66344416,0.59082544
24720000,-0.098969795,0.21026847,1.4523101,0,0.7392474,-0.10637742,0.04570836,0.6634063,0.5904222
24744000,-0.097786784,0.21032253,1.4522858,0,0.7393152,-0.1059573,0.046122205,0.66336924,0.58999795
24768000,-0.08480672,0.21037975,1.4597032,0,0.73752004,-0.101362094,0.05007225,0.66579473,0.5895599
24792000,-0.08364571,0.21043688,1.4596754,0,0.737585,-0.100952074,0.050481375,0.6657542,0.58913296
24816000,-0.08259716,0.2105017,1.4596528,0,0.737642,-0.10058616,0.05085565,0.66571796,0.58866674
24840000,-0.081529826,0.2105688,1.4596239,0,0.7377016,-0.10021388,0.051237296,0.66567874,0.5881885
24864000,-0.08052109,0.21063976,1.4596031,0,0.7377553,-0.09986465,0.051600456,0.66564363,0.58768713
24888000,-0.07958877,0.2106769,1.4595698,0,0.7378109,-0.0995321,0.051926207,0.6656066,0.587442
24912000,-0.0787493,0.21071862,1.4595466,0,0.7378581,-0.09923555,0.052222237,0.66557527,0.58716714
24936000,-0.07797214,0.21076515,1.459522,0,0.73790246,-0.09896354,0.052499376,0.665545,0.5868662
24960000,-0.0771452,0.21081263,1.4595002,0,0.73794806,-0.0986735,0.05279328,0.6655141,0.58652645
24984000,-0.0764509,0.2108693,1.4594786,0,0.7379865,-0.09843542,0.05304643,0.66548663,0.5861668
25008000,-0.07574717,0.21091352,1.4594563,0,0.73802626,-0.09818975,0.053298123,0.6654588,0.58585185
25032000,-0.07514787,0.21096575,1.4594356,0,0.7380599,-0.09798525,0.05351795,0.66543394,0.5854966
25056000,-0.07455537,0.21102265,1.4594145,0,0.7380929,-0.097784795,0.053737268,0.6654091,0.58511597
25080000,-0.07395791,0.21108305,1.4593934,0,0.738126,-0.097583644,0.05395951,0.6653839,0.58471596
25104000,-0.073481135,0.21117091,1.4593714,0,0.73815197,-0.09743606,0.054151855,0.66536105,0.58406293
25128000,-0.06122689,0.21126352,1.4668024,0,0.7362547,-0.09315792,0.05791625,0.6677547,0.58340174
25152000,-0.060776852,0.21135885,1.466777,0,0.73627937,-0.09302311,0.058102973,0.66773003,0.58274513
25176000,-0.060341652,0.21145754,1.4667549,0,0.7363022,-0.09289497,0.05828584,0.6677069,0.58207846
25200000,-0.059958864,0.2115186,1.4667288,0,0.7363256,-0.09277352,0.058437455,0.6676846,0.5816949
25224000,-0.05957902,0.21158734,1.4667064,0,0.7363473,-0.09265581,0.05859076,0.6676636,0.58127904
25248000,-0.05934288,0.21165942,1.4666811,0,0.7363631,-0.09259201,0.058697432,0.6676456,0.5808462
25272000,-0.05915329,0.21173598,1.4666559,0,0.7363766,-0.09254685,0.05879025,0.6676288,0.5804028
25296000,-0.05879998,0.21180727,1.4666349,0,0.7363965,-0.09243978,0.05893556,0.66760904,0.58001095
25320000,-0.05858926,0.21188283,1.4666204,0,0.7364073,-0.09238681,0.059034538,0.6675956,0.5795724
25344000,-0.058390923,0.21196173,1.4666005,0,0.7364192,-0.09233935,0.059130885,0.6675805,0.57911307
25368000,-0.05834685,0.21204205,1.4665785,0,0.7364247,-0.0923491,0.059176356,0.66756904,0.57864165
25392000,-0.058302693,0.21211042,1.4665612,0,0.73642915,-0.092355,0.059217207,0.66755974,0.57825345
25416000,-0.058241352,0.21218507,1.466543,0,0.7364344,-0.09235661,0.05926616,0.6675494,0.5778353
25440000,-0.0463106,0.21226288,1.4739907,0,0.7344789,-0.08822271,0.062947966,0.6699216,0.5774057
25464000,-0.046379626,0.21234445,1.4739755,0,0.7344772,-0.08827476,0.06295561,0.669916,0.5769468
25488000,-0.046438336,0.21241702,1.473952,0,0.734479,-0.08831976,0.062963754,0.6699072,0.5765773
25512000,-0.04663946,0.21249528,1.473933,0,0.7344729,-0.08841909,0.0629261,0.6699044,0.57616943
25536000,-0.046805378,0.21257508,1.4739165,0,0.73446727,-0.08850608,0.062900685,0.6699015,0.5757326
25560000,-0.04706481,0.21265766,1.4738963,0,0.7344587,-0.08862823,0.062845156,0.6698999,0.5752872
25584000,-0.047173038,0.2127436,1.4738783,0,0.7344558,-0.08869603,0.0628414,0.6698944,0.5748226
25608000,-0.047355708,0.21282879,1.4738554,0,0.7344514,-0.088790774,0.06281266,0.66988945,0.57437927
25632000,-0.047632158,0.21291988,1.47383,0,0.73444337,-0.08892183,0.062754795,0.6698864,0.5739265
25656000,-0.047893062,0.21301296,1.4738115,0,0.7344335,-0.089048065,0.062702574,0.6698853,0.5734448
25680000,-0.048060976,0.21310754,1.4737867,0,0.73442984,-0.08914045,0.06268233,0.66987884,0.5729581
25704000,-0.048309196,0.21323574,1.473765,0,0.73442,-0.08927362,0.06264745,0.66987526,0.57217324
25728000,-0.04858746,0.21337032,1.4737437,0,0.7344083,-0.089419946,0.06260486,0.66987246,0.5713714
25752000,-0.036988672,0.2135056,1.4812138,0,0.7324026,-0.085452355,0.06621982,0.6722345,0.5705573
25776000,-0.037311938,0.2136435,1.4812025,0,0.73238635,-0.085616514,0.06616234,0.6722371,0.5697277
25800000,-0.037643485,0.21371825,1.4811854,0,0.7323744,-0.085762374,0.066079095,0.67223954,0.5694402
25824000,-0.038111545,0.21379676,1.4811689,0,0.73235625,-0.0859595,0.06595135,0.6722467,0.56913364
25848000,-0.03856692,0.21387754,1.4811445,0,0.73234123,-0.08615248,0.06582902,0.6722504,0.5688316
25872000,-0.039084226,0.2139607,1.4811262,0,0.73232126,-0.08636912,0.065686494,0.6722584,0.5685027
25896000,-0.03968774,0.21404083,1.4811065,0,0.7322981,-0.08661626,0.06551393,0.6722686,0.5681948
25920000,-0.040239442,0.21412791,1.4810889,0,0.732276,-0.08684682,0.06536127,0.6722777,0.56785583
25944000,-0.04079462,0.21421923,1.4810743,0,0.7322526,-0.087080166,0.06520885,0.67228794,0.567489
25968000,-0.041269857,0.21431401,1.4810562,0,0.7322335,-0.087285265,0.065084726,0.672294,0.56711656
25992000,-0.041794166,0.21440256,1.4810424,0,0.7322112,-0.0875064,0.064941645,0.67230344,0.56678003
26016000,-0.042342607,0.21449801,1.4810226,0,0.7321894,-0.08773846,0.06479324,0.6723113,0.5664373
26040000,-0.042877603,0.2145963,1.4809998,0,0.732169,-0.08796646,0.06465053,0.6723175,0.5660888
26064000,-0.043463804,0.21469767,1.4809834,0,0.7321439,-0.08821443,0.06449146,0.6723275,0.5657166
26088000,-0.032151196,0.21480425,1.4884701,0,0.7301059,-0.084362686,0.06801715,0.67468655,0.5652763
26112000,-0.03272455,0.21491818,1.4884545,0,0.73008186,-0.08460975,0.06786611,0.67469686,0.56482095
26136000,-0.03333086,0.21503392,1.4884325,0,0.73005825,-0.08486922,0.06770488,0.67470586,0.5643605
26160000,-0.033977896,0.21515204,1.4884158,0,0.7300312,-0.08514453,0.067530565,0.67471814,0.56388223
26184000,-0.034622334,0.21527253,1.4883991,0,0.73000383,-0.08541968,0.06735801,0.6747301,0.5633938
26208000,-0.03534644,0.21538559,1.4883814,0,0.7299737,-0.085721366,0.06715589,0.67474467,0.5629972
26232000,-0.036080346,0.21550325,1.4883599,0,0.7299441,-0.08602803,0.0669523,0.67475784,0.56258994
26256000,-0.036758717,0.21562147,1.4883366,0,0.72991735,-0.08631455,0.066767745,0.67476845,0.56217736
26280000,-0.037488963,0.21574023,1.4883132,0,0.7298882,-0.08662018,0.066565886,0.6747808,0.56175065
26304000,-0.038259972,0.21585795,1.4882954,0,0.7298553,-0.08694049,0.06634963,0.67479646,0.5612981
26328000,-0.03905221,0.21597917,1.4882773,0,0.7298213,-0.08726971,0.06612753,0.67481256,0.5608127
26352000,-0.03989406,0.21610972,1.4882562,0,0.72978556,-0.08762004,0.065892234,0.67482877,0.56033486
26376000,-0.040704194,0.21623634,1.4882298,0,0.72975314,-0.08795731,0.06566643,0.67484206,0.5598558
26400000,-0.04146732,0.21633148,1.4882107,0,0.7297215,-0.088267066,0.065444626,0.6748573,0.5596736
26424000,-0.04221011,0.21642525,1.4881926,0,0.72969043,-0.08856898,0.06522915,0.67487234,0.55944175
26448000,-0.042995464,0.21652453,1.4881737,0,0.72965723,-0.08888821,0.065001346,0.67488813,0.5591974
26472000,-0.031863917,0.21662699,1.4956821,0,0.72759867,-0.08511785,0.068475045,0.67724913,0.55894196
26496000,-0.032723412,0.21674614,1.4956666,0,0.7275619,-0.085470185,0.06822815,0.6772691,0.5585179
26520000,-0.033453677,0.21687208,1.4956517,0,0.72752994,-0.08577782,0.06802746,0.6772848,0.55806524
26544000,-0.034165155,0.21700007,1.4956375,0,0.72749835,-0.0860793,0.06783384,0.6772998,0.55759335
26568000,-0.034916732,0.21713105,1.4956229,0,0.727465,-0.086396374,0.067627765,0.67731595,0.5571102
26592000,-0.03576281,0.21724738,1.4956106,0,0.7274271,-0.08674293,0.06738423,0.6773365,0.5567422
26616000,-0.03645229,0.21736962,1.4955957,0,0.72739667,-0.08703441,0.06719598,0.6773506,0.556357
26640000,-0.037237875,0.21749446,1.4955806,0,0.7273618,-0.087361716,0.06697615,0.6773676,0.55595666
26664000,-0.038012408,0.21762124,1.4955624,0,0.72732824,-0.08768553,0.066760905,0.6773831,0.5555592
26688000,-0.03875506,0.21770696,1.4955492,0,0.7272961,-0.087984055,0.06654124,0.6774005,0.555523
26712000,-0.039499775,0.21779779,1.495535,0,0.7272638,-0.08828502,0.06632279,0.6774174,0.55545884
26736000,-0.040302217,0.21789265,1.4955251,0,0.72722733,-0.08860846,0.06608607,0.67743754,0.5553538
26760000,-0.041110218,0.21799178,1.4955155,0,0.72719014,-0.08893536,0.065849,0.6774578,0.55522156
26784000,-0.041908015,0.21809532,1.4955037,0,0.7271537,-0.08925994,0.065617085,0.67747664,0.55507714
26808000,-0.042663228,0.21823466,1.4954911,0,0.7271176,-0.08958106,0.06541271,0.67749274,0.5545836
26832000,-0.04339153,0.21838158,1.4954793,0,0.727082,-0.089894965,0.06522018,0.67750794,0.55407053
26856000,-0.044143617,0.21853156,1.4954649,0,0.7270459,-0.090218455,0.06502081,0.67752284,0.5535621
26880000,-0.044935167,0.21868312,1.4954505,0,0.7270078,-0.0905568,0.06480866,0.6775389,0.5530497
26904000,-0.0337298,0.21882865,1.5029843,0,0.72494113,-0.08678929,0.06833033,0.6798962,0.5525843
26928000,-0.034488663,0.21897861,1.5029743,0,0.7249048,-0.08711478,0.06812734,0.6799139,0.552093
26952000,-0.035276096,0.21912922,1.5029626,0,0.7248674,-0.08745077,0.06791493,0.6799317,0.55159104
26976000,-0.035983767,0.21928187,1.5029484,0,0.72483426,-0.087758444,0.06773049,0.6799458,0.5510811
27000000,-0.03664456,0.21942636,1.5029312,0,0.7248044,-0.08804625,0.06755915,0.67995757,0.5506538
27024000,-0.037482284,0.21957642,1.5029167,0,0.7247654,-0.088400155,0.06732957,0.6799759,0.5502123
27048000,-0.038203947,0.21972844,1.5029033,0,0.7247309,-0.08871266,0.06714011,0.67999065,0.5497625
27072000,-0.038938776,0.21988292,1.5028912,0,0.7246952,-0.08903082,0.06694701,0.68000615,0.54930407
27096000,-0.039687525,0.22002892,1.5028758,0,0.7246603,-0.089351006,0.06674623,0.6800212,0.54890925
27120000,-0.040431757,0.22018056,1.5028627,0,0.7246243,-0.089671545,0.066548936,0.6800367,0.5484921
27144000,-0.041229773,0.22033317,1.5028465,0,0.7245868,-0.09001176,0.06633385,0.68005276,0.54808193
27168000,-0.041931972,0.22048825,1.5028325,0,0.72455245,-0.09031817,0.06615213,0.68006635,0.54765785
27192000,-0.042676147,0.2206449,1.5028211,0,0.7245153,-0.090640396,0.06595661,0.6800821,0.54718786
27216000,-0.043494187,0.22080825,1.5028098,0,0.72447425,-0.0909916,0.06573838,0.6801,0.5467005
27240000,-0.04424713,0.22097425,1.5027957,0,0.7244367,-0.09132004,0.06554338,0.68011475,0.5462197
27264000,-0.045018934,0.22114149,1.5027838,0,0.72439754,-0.091655776,0.06534233,0.6801308,0.5457312
27288000,-0.045803715,0.2212713,1.5027698,0,0.72436005,-0.09198347,0.06512333,0.68014747,0.5455918
27312000,-0.046515338,0.22140646,1.502758,0,0.72432476,-0.09228653,0.06493105,0.6801624,0.54543257
27336000,-0.04719629,0.22154388,1.502745,0,0.7242911,-0.092579186,0.064750075,0.6801757,0.5452638
27360000,-0.047892,0.22168173,1.5027324,0,0.72425646,-0.09287734,0.06456423,0.68018967,0.5450623
27384000,-0.04856136,0.22182694,1.5027167,0,0.7242236,-0.093168326,0.06439016,0.6802013,0.5448569
27408000,-0.04916919,0.22192435,1.502702,0,0.7241954,-0.09342089,0.06421957,0.6802127,0.54493827
27432000,-0.038064625,0.22203547,1.5102675,0,0.7221209,-0.089692846,0.067696914,0.6825787,0.54498446
27456000,-0.038756564,0.22215027,1.5102534,0,0.72208923,-0.0899812,0.06750301,0.68259346,0.5450148
27480000,-0.039358795,0.22226909,1.5102409,0,0.7220608,-0.09023857,0.067341104,0.68260556,0.5450211
27504000,-0.039977655,0.22242853,1.5102302,0,0.722029,-0.09051579,0.06718818,0.68261755,0.54462427
27528000,-0.040636506,0.2225947,1.5102241,0,0.7219934,-0.09080988,0.06702381,0.6826323,0.5441902
27552000,-0.0412466,0.22276194,1.5102147,0,0.7219609,-0.09108662,0.06687664,0.6826443,0.543748
27576000,-0.041957755,0.2229306,1.510203,0,0.7219244,-0.09140022,0.06669559,0.6826587,0.5433051
27600000,-0.04260036,0.22305527,1.5101944,0,0.72189194,-0.09167422,0.06652184,0.68267316,0.5432719
27624000,-0.04326297,0.22318543,1.5101825,0,0.72185946,-0.09195719,0.06634341,0.6826869,0.54322195
27648000,-0.043795045,0.22331889,1.51017,0,0.7218328,-0.09219414,0.06621076,0.682696,0.54315925
27672000,-0.04440196,0.22345525,1.5101584,0,0.7218022,-0.0924591,0.06605356,0.6827078,0.5430791
27696000,-0.04494205,0.22362639,1.5101484,0,0.7217723,-0.09271179,0.065931715,0.6827168,0.5426823
27720000,-0.04551782,0.22380452,1.5101391,0,0.7217401,-0.092979744,0.06580018,0.68272704,0.5422688
27744000,-0.046101484,0.22398432,1.5101285,0,0.7217079,-0.09325106,0.06566664,0.68273705,0.541839
27768000,-0.04662308,0.22416534,1.5101172,0,0.7216786,-0.09350035,0.06555475,0.6827447,0.541406
27792000,-0.047191374,0.22431862,1.5101074,0,0.7216479,-0.09375714,0.065416805,0.6827551,0.541235
27816000,-0.047718365,0.22447714,1.510096,0,0.72161925,-0.09400071,0.065294914,0.6827635,0.54104596
27840000,-0.04830156,0.22463867,1.5100831,0,0.7215883,-0.094265535,0.065155,0.6827731,0.5408503
27864000,-0.048868887,0.2248015,1.5100708,0,0.7215578,-0.094525084,0.065020956,0.68278235,0.5406314
27888000,-0.04949128,0.22497809,1.5100598,0,0.72152334,-0.094809204,0.06487303,0.6827934,0.5402532
27912000,-0.05006118,0.22516008,1.5100491,0,0.721491,-0.09507622,0.06474499,0.6828026,0.53986776
27936000,-0.050546065,0.22534518,1.5100359,0,0.72146326,-0.09531351,0.06464721,0.68280804,0.53948426
27960000,-0.05110293,0.22553208,1.5100236,0,0.7214316,-0.095577404,0.064525455,0.6828161,0.5390942
27984000,-0.05155619,0.22572124,1.5100143,0,0.72140366,-0.09580478,0.064439766,0.6828218,0.5386871
28008000,-0.052128516,0.22589466,1.5100051,0,0.72137076,-0.09606977,0.064307705,0.6828319,0.5384237
28032000,-0.05265827,0.22607349,1.5099925,0,0.7213406,-0.0963211,0.064192295,0.6828391,0.5381577
28056000,-0.05320084,0.22625414,1.5099825,0,0.7213088,-0.096577756,0.06407306,0.6828477,0.5378813
28080000,-0.05366902,0.22643647,1.509972,0,0.7212807,-0.09680811,0.06397985,0.68285364,0.53759557
28104000,-0.054077886,0.22662133,1.5099614,0,0.72125506,-0.09701793,0.06390782,0.68285745,0.53728276
28128000,-0.05457088,0.22680983,1.5099521,0,0.7212249,-0.09725936,0.06380832,0.6828644,0.5369548
28152000,-0.05496145,0.22699943,1.5099394,0,0.7212005,-0.0974641,0.06374436,0.6828668,0.536629
28176000,-0.04360856,0.22718993,1.5175436,0,0.7191329,-0.093690045,0.067332916,0.6852272,0.53629434
28200000,-0.044121493,0.22736804,1.5175331,0,0.71910375,-0.09393482,0.067222014,0.68523514,0.5360641
28224000,-0.04451799,0.22755206,1.5175257,0,0.71907866,-0.09413984,0.06715299,0.68524015,0.5358062
28248000,-0.04485895,0.22773758,1.5175157,0,0.71905696,-0.09432531,0.06710366,0.68524224,0.5355455
28272000,-0.045296986,0.22792555,1.5175054,0,0.7190306,-0.094546504,0.06702197,0.6852474,0.5352831
28296000,-0.04564869,0.22811559,1.5174967,0,0.7190076,-0.09473742,0.06697056,0.68525016,0.5349633
28320000,-0.046063766,0.22831208,1.5174859,0,0.71898204,-0.094953224,0.066899836,0.6852541,0.5346256
28344000,-0.046401486,0.22851035,1.517471,0,0.7189613,-0.09514168,0.066856466,0.68525386,0.5343021
28368000,-0.04674231,0.22870986,1.5174608,0,0.7189387,-0.09533183,0.06681226,0.68525547,0.5339694
28392000,-0.047189865,0.22888145,1.5174518,0,0.71891195,-0.09555087,0.06672135,0.6852619,0.5339058
28416000,-0.04762432,0.22905815,1.51744,0,0.7188865,-0.095766835,0.06663689,0.68526673,0.5338265
28440000,-0.047937755,0.229237,1.5174314,0,0.7188656,-0.095940135,0.06659453,0.6852686,0.53373474
28464000,-0.048379444,0.22941644,1.5174176,0,0.7188401,-0.096159555,0.066508695,0.6852728,0.5336389
28488000,-0.04874229,0.22962025,1.5174074,0,0.718816,-0.09635905,0.0664585,0.68527496,0.53326344
28512000,-0.04913991,0.22982812,1.5173976,0,0.7187897,-0.09657243,0.06639784,0.6852783,0.53287137
28536000,-0.049536377,0.23003845,1.5173873,0,0.7187636,-0.09678621,0.06633849,0.68528134,0.5324782
28560000,-0.0499622,0.23024835,1.5173761,0,0.7187363,-0.09701035,0.06626898,0.685285,0.5320868
28584000,-0.05033338,0.23045838,1.5173621,0,0.71871245,-0.09721481,0.06621836,0.6852859,0.5316992
28608000,-0.05068695,0.23067012,1.5173506,0,0.7186886,-0.097413585,0.0661743,0.685287,0.5312804
28632000,-0.051047087,0.23088658,1.5173373,0,0.7186646,-0.09761627,0.06612976,0.6852876,0.5308475
28656000,-0.05132047,0.2311031,1.517328,0,0.71864355,-0.097787924,0.06611478,0.6852867,0.5304063
28680000,-0.05161159,0.23131952,1.5173179,0,0.71862185,-0.09796588,0.06609374,0.68528605,0.5299488
28704000,-0.05181082,0.23148113,1.5173074,0,0.7186075,-0.09809214,0.066084385,0.685284,0.53003764
28727999,-0.052089196,0.2316546,1.5172945,0,0.71858937,-0.09825079,0.06605231,0.6852833,0.53013
28751999,-0.052285563,0.23181342,1.517281,0,0.71857625,-0.09837497,0.06604308,0.68528,0.530186
28776000,-0.052530967,0.23197386,1.517272,0,0.7185591,-0.09851746,0.06601742,0.68528014,0.5302118
28800000,-0.052866515,0.23216963,1.5172611,0,0.71853626,-0.09870431,0.06597373,0.68528134,0.5300532
28824000,-0.05309406,0.23236048,1.5172517,0,0.71851856,-0.09885071,0.065965205,0.68527967,0.5298593
28848000,-0.053377863,0.23255204,1.5172409,0,0.7184984,-0.09901751,0.06593772,0.6852793,0.52965885
28872000,-0.053578507,0.23274669,1.5172287,0,0.7184827,-0.09915545,0.06593992,0.6852756,0.52945197
28896000,-0.053824157,0.23293103,1.5172175,0,0.7184649,-0.09930608,0.06592293,0.6852742,0.5293457
28919999,-0.054071236,0.23312984,1.5172061,0,0.7184464,-0.09946213,0.06591068,0.6852723,0.529234
28943999,-0.05433376,0.23331465,1.5171967,0,0.7184269,-0.09961901,0.06588799,0.68527186,0.5290825
28968000,-0.054579668,0.23350202,1.5171887,0,0.71840775,-0.09977085,0.065871835,0.68527144,0.5289094
28992000,-0.054729808,0.23370118,1.5171775,0,0.71839386,-0.0998922,0.065892935,0.6852664,0.5288378
29016000,-0.0549195,0.23388436,1.517169,0,0.71837777,-0.10002239,0.06589457,0.685264,0.528702
29040000,-0.05520206,0.23407628,1.5171556,0,0.71835834,-0.100188754,0.065867774,0.6852628,0.5285754
29064000,-0.055411175,0.23427019,1.517143,0,0.7183421,-0.10032943,0.065866835,0.6852592,0.52843666
29088000,-0.055692513,0.23447485,1.5171326,0,0.71832097,-0.10049978,0.06584494,0.68525857,0.52816576
29111999,-0.055924654,0.23469052,1.5171206,0,0.7183021,-0.10065613,0.065843925,0.68525535,0.5279057
29136000,-0.056186713,0.2348823,1.5171111,0,0.7182822,-0.10081519,0.065823935,0.6852549,0.5275917
29160000,-0.056347627,0.2351069,1.5170985,0,0.7182667,-0.10094899,0.0658506,0.68524885,0.5273305
29184000,-0.056490168,0.23531099,1.5170867,0,0.7182528,-0.10106923,0.06587613,0.6852431,0.52702856
29208000,-0.056740936,0.23549603,1.5170772,0,0.7182338,-0.10122192,0.06585756,0.6852425,0.5269797
29232000,-0.056887243,0.2356885,1.517071,0,0.7182184,-0.101339735,0.06587731,0.6852392,0.52688384
29256000,-0.057005793,0.23588364,1.5170623,0,0.7182051,-0.101448394,0.06590766,0.685234,0.52678627
29280000,-0.05714199,0.2360806,1.5170519,0,0.7181915,-0.10156397,0.065932706,0.68522894,0.5266822
29303999,-0.057277676,0.23630092,1.517043,0,0.71817607,-0.10168734,0.06596629,0.6852235,0.52637064
29328000,-0.057390258,0.23650816,1.5170324,0,0.7181631,-0.101797916,0.066003166,0.6852171,0.52602464
29352000,-0.057505894,0.23673,1.51702,0,0.7181498,-0.10191449,0.066044345,0.6852098,0.5257083
29376000,-0.057603277,0.23695068,1.5170099,0,0.71813667,-0.10202418,0.06609127,0.6852028,0.52537197
29400000,-0.057693034,0.23713785,1.5169945,0,0.7181275,-0.102119565,0.06612895,0.68519443,0.52537924
29424000,-0.057856407,0.23733062,1.5169823,0,0.7181131,-0.10224338,0.06614326,0.6851897,0.5253596
29448000,-0.04614221,0.23752496,1.5246649,0,0.716054,-0.098370776,0.069848165,0.6875399,0.5253186
29471999,-0.046267815,0.23772776,1.5246545,0,0.7160412,-0.09848471,0.06987849,0.687534,0.5252739
29495999,-0.046364002,0.2379256,1.524645,0,0.7160296,-0.098586425,0.06991711,0.6875274,0.525034
29520000,-0.046484288,0.23812672,1.5246342,0,0.7160171,-0.098697856,0.06994867,0.6875213,0.52478546
29544000,-0.046577934,0.23834583,1.5246232,0,0.7160051,-0.09880586,0.06999588,0.6875133,0.5245663
29568000,-0.046739556,0.23855613,1.5246124,0,0.7159901,-0.09893523,0.07001655,0.6875083,0.52432793
29592000,-0.046854693,0.2387679,1.5246004,0,0.7159777,-0.09904839,0.070053786,0.68750113,0.52404624
29616000,-0.04699995,0.23898357,1.524589,0,0.7159634,-0.099173695,0.07008205,0.68749505,0.523751
29640000,-0.04707691,0.23920009,1.524577,0,0.7159526,-0.09927481,0.0701341,0.6874864,0.5234417
29663999,-0.047250953,0.23942547,1.524566,0,0.71593624,-0.099413745,0.07015595,0.68748116,0.5231352
29687999,-0.04743524,0.23962158,1.5245557,0,0.71592057,-0.09954636,0.0701637,0.6874775,0.5229273
29712000,-0.047522854,0.23982093,1.5245484,0,0.7159084,-0.09964558,0.07020569,0.6874715,0.5226935
29736000,-0.04762829,0.24003811,1.5245367,0,0.71589607,-0.09975712,0.07024821,0.6874639,0.52248275
29760000,-0.047691043,0.24024776,1.524525,0,0.7158862,-0.09985079,0.070302665,0.687455,0.5222515
29784000,-0.04775656,0.24045767,1.524515,0,0.71587557,-0.09994561,0.070356205,0.68744683,0.5220042
29808000,-0.047818083,0.24064995,1.5245031,0,0.7158666,-0.10003291,0.07040486,0.6874384,0.5219396
29832000,-0.04796195,0.24085492,1.5244938,0,0.715852,-0.1001541,0.070429645,0.6874335,0.5218534
29855999,-0.04810714,0.24105747,1.5244834,0,0.7158379,-0.100274906,0.07045317,0.6874282,0.52174574
29879999,-0.048254628,0.23704353,1.5244745,0,0.7160397,-0.09895594,0.068958074,0.6875606,0.51480746
29904000,-0.04838089,0.22850548,1.5244638,0,0.7164664,-0.09608232,0.06584094,0.68782914,0.48222005
29928000,-0.048487104,0.21996537,1.5244482,0,0.71688324,-0.093199015,0.06272892,0.6880825,0.45210698
29952000,-0.048644766,0.21142279,1.5244169,0,0.7172904,-0.09033121,0.059597798,0.68831885,0.42436093
29976000,-0.048888575,0.20287752,1.5243672,0,0.71768767,-0.08749142,0.056435645,0.6885382,0.3988945
30000000,-0.04910216,0.19432816,1.5242984,0,0.7180805,-0.0846375,0.053281993,0.68873644,0.3757407
30024000,-0.049418975,0.18577428,1.524213,0,0.71846265,-0.081817456,0.05009062,0.68891823,0.35465187
30047999,-0.049603622,0.17721575,1.5241147,0,0.71884227,-0.078946896,0.046942398,0.6890787,0.33553252
30071999,-0.04984106,0.16865139,1.5240086,0,0.7192104,-0.07609208,0.04377299,0.6892245,0.31820205
30096000,-0.049996596,0.16007535,1.5238923,0,0.71957284,-0.07320259,0.04062683,0.6893517,0.3030538
30120000,-0.05018633,0.15148808,1.5237725,0,0.71992296,-0.07032056,0.037463836,0.6894652,0.2894306
30144000,-0.050386112,0.14288896,1.5236485,0,0.72026193,-0.067437164,0.034292176,0.68956435,0.27715978
30168000,-0.05052375,0.13427775,1.523517,0,0.7205931,-0.0645263,0.03113679,0.68964654,0.26617044
30192000,-0.050634153,0.12564786,1.5233878,0,0.72091216,-0.061598483,0.027983004,0.68971616,0.2568907
30215999,-0.050817296,0.11699976,1.5232576,0,0.7212166,-0.058689922,0.024796661,0.68977326,0.2485896
30240000,-0.050883748,0.10833253,1.5231246,0,0.72151303,-0.05573202,0.02164286,0.68981475,0.24116673
30264000,-0.051014632,0.09964749,1.5229942,0,0.721794,-0.052790657,0.018459523,0.6898448,0.23454642
30288000,-0.051108323,0.09093782,1.522867,0,0.7220622,-0.049826864,0.01527928,0.6898623,0.22919846
30312000,-0.05129315,0.08220409,1.5227394,0,0.7223155,-0.046887185,0.012058234,0.689867,0.2244328
30336000,-0.05134621,0.073446885,1.5226108,0,0.7225594,-0.04389137,0.008873545,0.68985707,0.22020267
30360000,-0.05127075,0.06466685,1.5224835,0,0.72279227,-0.040840827,0.005724348,0.6898338,0.21644083
30384000,-0.05122463,0.05586474,1.5223628,0,0.7230084,-0.0377929,0.002556406,0.6897999,0.21291217
30408000,-0.0512235,0.047031745,1.5222424,0,0.7232102,-0.034750246,-0.000638651,0.6897529,0.20116374
30432000,-0.051226363,0.038168967,1.5221262,0,0.72339684,-0.031698477,-0.003846283,0.6896937,0.19059376
30456000,-0.05113454,0.03269947,1.522011,0,0.7235213,-0.029781274,-0.005793043,0.6896351,0.18106437
30480000,-0.051076766,0.029607184,1.521897,0,0.72360617,-0.02869539,-0.006891035,0.689582,0.1724575
30504000,-0.051036615,0.026547667,1.5217824,0,0.72368866,-0.02762723,-0.00798334,0.68952715,0.16530979
30528000,-0.050954327,0.023678271,1.5216663,0,0.723768,-0.026609385,-0.008992362,0.6894715,0.15889467
30552000,-0.050871752,0.020980505,1.521552,0,0.72384316,-0.025650622,-0.009939261,0.689416,0.1530944
30576000,-0.050712246,0.018458087,1.5214396,0,0.723915,-0.024724467,-0.010796262,0.6893615,0.14790952
30600000,-0.050611272,0.015871521,1.5213257,0,0.723986,-0.023797462,-0.011696739,0.68930477,0.14396138
30624000,-0.050492395,0.013438502,1.521213,0,0.7240539,-0.022916922,-0.012535542,0.68924856,0.14040452
30648000,-0.05036884,0.011158827,1.5210979,0,0.7241199,-0.022087596,-0.013317255,0.68919176,0.13725568
30672000,-0.05027687,0.00901411,1.5209837,0,0.7241827,-0.021316243,-0.014061063,0.6891352,0.13439724
30696000,-0.050149355,0.006777213,1.5208716,0,0.72424525,-0.020500306,-0.014826103,0.6890783,0.13254735
30720000,-0.049955852,0.00467037,1.5207585,0,0.7243065,-0.019705338,-0.01552137,0.6890217,0.13086043
30744000,-0.049826525,0.00269154,1.5206443,0,0.7243654,-0.01897777,-0.016192444,0.6889648,0.1293508
30768000,-0.049597725,0.000834136,1.5205308,0,0.7244231,-0.018256048,-0.01678535,0.68890935,0.1279844
30792000,-0.049283292,-0.001186487,1.5204184,0,0.7244818,-0.017447125,-0.017407963,0.68885314,0.12751529
30816000,-0.04900372,-0.003081765,1.5203079,0,0.72453755,-0.016694034,-0.017997269,0.688798,0.12710594
30840000,-0.048670106,-0.004868623,1.520197,0,0.72459227,-0.015958754,-0.018528761,0.6887439,0.12670842
30864000,-0.048356272,-0.006540407,1.5200865,0,0.7246449,-0.015270308,-0.019025449,0.6886904,0.12635966
30888000,-0.04802861,-0.008311502,1.5199742,0,0.72469836,-0.014542709,-0.019553412,0.6886352,0.12658395
30912000,-0.047704034,-0.009975567,1.5198628,0,0.72475,-0.013853121,-0.020043733,0.68858093,0.12675849
30936000,-0.047346555,-0.011533111,1.5197593,0,0.7247977,-0.013188253,-0.02048426,0.6885308,0.12689199
30960000,-0.047087222,-0.012991732,1.5196522,0,0.7248449,-0.012593089,-0.020922769,0.68847907,0.12697022
30984000,-0.04670181,-0.01435038,1.519547,0,0.7248911,-0.011986671,-0.021281721,0.68843025,0.12699671
31008000,-0.046302363,-0.015840644,1.5194423,0,0.7249374,-0.011329873,-0.021683598,0.68838024,0.12761891
31032000,-0.045930047,-0.017233388,1.5193415,0,0.72498095,-0.010716472,-0.022059556,0.6883321,0.12814057
31056000,-0.04555146,-0.01853121,1.5192416,0,0.7250233,-0.0101335,-0.022399025,0.6882854,0.12856828
31080000,-0.045037646,-0.019729981,1.5191407,0,0.72506577,-0.009535646,-0.022656111,0.6882408,0.1289689
31104000,-0.044576485,-0.021132072,1.5190445,0,0.7251066,-0.008886847,-0.023005076,0.6881949,0.13002136
31128000,-0.044129908,-0.022433253,1.5189499,0,0.7251459,-0.008278085,-0.023322552,0.6881504,0.13097316
31152000,-0.043713298,-0.0236446,1.5188558,0,0.725184,-0.007711131,-0.023617838,0.6881067,0.13179764
31176000,-0.043195717,-0.024767304,1.5187644,0,0.72522086,-0.007138067,-0.02384632,0.68806624,0.1324942
31200000,-0.042699758,-0.025933463,1.5186747,0,0.7252566,-0.006557881,-0.024098042,0.6880255,0.13348688
31224000,-0.042248514,-0.027015833,1.5185869,0,0.725291,-0.006022749,-0.024334837,0.6879858,0.13431898
31248000,-0.041763235,-0.028000526,1.5185028,0,0.7253235,-0.005508862,-0.024524573,0.68794906,0.13507548
31272000,-0.041263927,-0.028905917,1.5184227,0,0.7253542,-0.005017146,-0.024680791,0.6879149,0.13568237
31296000,-0.04074258,-0.029808274,1.5183384,0,0.72538596,-0.004518543,-0.02482836,0.68787956,0.136479
31320000,-0.028392008,-0.0306395,1.5270232,0,0.7224052,0.000337731,-0.020880152,0.6911546,0.13710459
31344000,-0.02787403,-0.031380355,1.526957,0,0.7224273,0.00078027,-0.020968663,0.69112843,0.13768417
31368000,-0.027369317,-0.032049265,1.5268947,0,0.722448,0.001193181,-0.021035805,0.6911041,0.13814363
31392000,-0.026873475,-0.032816064,1.5268323,0,0.72246826,0.001636723,-0.021141391,0.69107884,0.1389138
31416000,-0.026359534,-0.03349919,1.526773,0,0.72248733,0.002057902,-0.021210529,0.69105566,0.1395986
31440000,-0.025822924,-0.034101788,1.5267149,0,0.72250587,0.00245944,-0.021242779,0.691034,0.14020552
31464000,-0.025239449,-0.034643587,1.5266578,0,0.7225238,0.002856904,-0.021236902,0.6910138,0.1406634
31488000,-0.024685742,-0.03519771,1.5266031,0,0.72254074,0.003247895,-0.021245781,0.6909941,0.14132495
31512000,-0.024035957,-0.035690755,1.5265491,0,0.7225572,0.003652495,-0.021199431,0.6909763,0.14185314
31536000,-0.02349832,-0.036119424,1.526496,0,0.7225735,0.003994335,-0.021168595,0.6909583,0.14228761
31560000,-0.022868352,-0.03647825,1.5264432,0,0.72258943,0.0043454,-0.021080654,0.6909421,0.14267424
31584000,-0.02222722,-0.036776736,1.5263922,0,0.72260493,0.004679665,-0.02096708,0.69092745,0.1429837
31608000,-0.021598855,-0.03721257,1.5263435,0,0.722619,0.005056813,-0.020907532,0.6909118,0.14375755
31632000,-0.021004345,-0.03759661,1.5262953,0,0.7226329,0.005403837,-0.020840991,0.6908967,0.14440732
31656000,-0.020381067,-0.03791418,1.5262488,0,0.7226462,0.005738303,-0.020740513,0.69088304,0.14501826
31680000,-0.01986446,-0.038183127,1.5262039,0,0.72265923,0.006017443,-0.02065933,0.69086945,0.14551705
31704000,-0.019265035,-0.038351957,1.52616,0,0.7226719,0.006291928,-0.020513386,0.69085807,0.14589465
31728000,-0.018758593,-0.038467716,1.526118,0,0.72268444,0.006514498,-0.020380396,0.6908469,0.1462079
31752000,-0.018147625,-0.03853456,1.5260752,0,0.7226969,0.006757931,-0.020193642,0.6908369,0.14647458
31776000,-0.01750622,-0.038546342,1.5260346,0,0.7227087,0.006993366,-0.019976486,0.6908286,0.14673822
31800000,-0.01697478,-0.038657755,1.5259968,0,0.72271943,0.007223526,-0.019833304,0.6908192,0.14723873
31824000,-0.016408486,-0.038723942,1.5259603,0,0.7227296,0.007450674,-0.019661743,0.69081086,0.14767893
31848000,-0.015876519,-0.038739257,1.5259249,0,0.7227398,0.007647854,-0.019483667,0.69080323,0.14809915
31872000,-0.015346121,-0.038718745,1.5258945,0,0.72274834,0.007832143,-0.019293174,0.6907975,0.14841439
31896000,-0.014743969,-0.03867275,1.5258634,0,0.722757,0.008033556,-0.0190687,0.6907925,0.14873178
31920000,-0.014143079,-0.038580723,1.5258334,0,0.72276527,0.008218628,-0.018828029,0.69078827,0.14904429
31944000,-0.01357933,-0.038453147,1.525801,0,0.7227747,0.008377979,-0.018587356,0.6907829,0.14932518
31968000,-0.013069483,-0.038299587,1.5257729,0,0.72278297,0.008508921,-0.018355899,0.6907789,0.149534
31992000,-0.012431271,-0.038079035,1.5257459,0,0.7227906,0.008663124,-0.018055893,0.6907769,0.14968045
32016000,-0.011821885,-0.037829004,1.525719,0,0.7227984,0.008796737,-0.017755197,0.6907748,0.1498189
32040000,-0.011178696,-0.03756029,1.5256939,0,0.72280556,0.008936133,-0.017436067,0.69077367,0.14989492
32064000,-0.010638166,-0.037257828,1.52567,0,0.72281283,0.009026788,-0.017140193,0.6907723,0.14999078
32088000,-0.010106904,-0.0370302,1.5256485,0,0.722819,0.009139972,-0.016874548,0.6907709,0.1503085
32112000,-0.009579457,-0.03677671,1.5256246,0,0.72282606,0.009242829,-0.016600886,0.69076884,0.15061995
32136000,-0.009059684,-0.036498643,1.5256017,0,0.7228329,0.009334437,-0.01632099,0.690767,0.15092225
32160000,0.003354254,-0.03620506,1.5346285,0,0.71963763,0.013773116,-0.011864989,0.69411176,0.15117393
32184000,0.003852715,-0.035880614,1.5346131,0,0.7196419,0.013839789,-0.011575352,0.69411093,0.15145746
32208000,0.004437763,-0.035590984,1.5345992,0,0.7196448,0.013949714,-0.011268185,0.69411093,0.15186201
32232000,0.004947535,-0.035281863,1.5345877,0,0.71964747,0.014025804,-0.010980107,0.6941112,0.15224077
32256000,0.005516185,-0.034952987,1.5345738,0,0.7196506,0.014116214,-0.010664502,0.69411093,0.15261917
32280000,0.006027652,-0.034604702,1.5345643,0,0.71965283,0.014179343,-0.010361729,0.694112,0.1529822
32304000,0.006492599,-0.034258574,1.5345548,0,0.7196553,0.014226482,-0.010075874,0.69411266,0.1533877
32328000,0.007012396,-0.03389374,1.5345458,0,0.7196574,0.014286872,-0.009764249,0.6941137,0.15377899
32352000,0.007461668,-0.033512138,1.5345355,0,0.7196606,0.014316062,-0.009471069,0.69411385,0.15417442
32376000,0.007895798,-0.033125054,1.5345232,0,0.7196645,0.014337895,-0.009181188,0.6941132,0.15454748
32400000,0.00840664,-0.03285105,1.5345143,0,0.719666,0.014426591,-0.008905353,0.69411343,0.15527569
32424000,0.008858853,-0.032562185,1.5345055,0,0.71966785,0.014489038,-0.008644516,0.69411343,0.15600064
32448000,0.009376448,-0.03225958,1.5344992,0,0.71966857,0.014570255,-0.008356024,0.6941146,0.15671475
32472000,0.009782017,-0.031942826,1.5344944,0,0.7196696,0.014606256,-0.008101305,0.6941157,0.15740776
32496000,0.010200451,-0.031528965,1.5344896,0,0.7196713,0.014613194,-0.007807175,0.6941172,0.15788853
32520000,0.010656293,-0.031105176,1.5344869,0,0.7196721,0.014630158,-0.007496473,0.69411945,0.15837331
32544000,0.011102038,-0.030671213,1.534484,0,0.7196731,0.014639959,-0.007185615,0.69412154,0.15885891
32568000,0.011502259,-0.030229062,1.5344807,0,0.7196746,0.014630534,-0.006887607,0.69412327,0.15934867
32592000,0.011875149,-0.029788047,1.5344769,0,0.7196764,0.01461167,-0.006599498,0.69412446,0.15988575
32616000,0.012174667,-0.0293422,1.5344713,0,0.7196795,0.014564722,-0.006335129,0.6941247,0.16044337
32640000,0.012465829,-0.02889078,1.5344683,0,0.71968174,0.014512842,-0.006071631,0.69412583,0.16099803
32664000,0.012771695,-0.028435554,1.5344651,0,0.719684,0.014464933,-0.005801662,0.6941268,0.16156696
32688000,0.013077921,-0.027934529,1.5344657,0,0.71968526,0.014401272,-0.005515055,0.69412917,0.16204159
32712000,0.013311718,-0.027433097,1.5344647,0,0.7196875,0.014311404,-0.005253451,0.6941307,0.16253716
32736000,0.025372257,-0.02692897,1.5435499,0,0.71643215,0.018479954,-0.000802204,0.6974115,0.16304676
32760000,0.025646543,-0.02642273,1.5435495,0,0.7164345,0.018401742,-0.000525159,0.6974115,0.16357133
32784000,0.025942696,-0.02591337,1.5435501,0,0.71643627,0.018330276,-0.000239362,0.6974118,0.16410019
32808000,0.026185209,-0.025339037,1.5435518,0,0.71643865,0.018216942,5.10E-05,0.6974122,0.16447578
32832000,0.026345542,-0.024765115,1.5435532,0,0.7164419,0.018074315,0.000312602,0.6974125,0.16486557
32856000,0.026548358,-0.024192736,1.5435556,0,0.7164444,0.017947441,0.00058845,0.69741315,0.16527513
32880000,0.026817663,-0.023622941,1.5435593,0,0.7164458,0.017845284,0.000886569,0.6974139,0.1656997
32904000,0.026945423,-0.023109049,1.5435627,0,0.71644807,0.017711908,0.001115292,0.6974147,0.1662779
32928000,0.027082248,-0.02259578,1.5435638,0,0.7164509,0.017582,0.001346936,0.6974145,0.16688864
32952000,0.027175628,-0.022081522,1.5435665,0,0.7164537,0.017436177,0.001563797,0.69741493,0.16751155
32976000,0.027273318,-0.02156813,1.5435685,0,0.7164566,0.017292202,0.001781842,0.697415,0.16815418
33000000,0.027427949,-0.021028323,1.5435722,0,0.7164586,0.017159414,0.002029225,0.6974156,0.16873507
33024000,0.027516356,-0.020493126,1.5435761,0,0.71646106,0.017004507,0.002251864,0.6974162,0.16932778
33048000,0.027571028,-0.019961145,1.5435791,0,0.71646404,0.016838636,0.002461577,0.6974164,0.16993473
