timestamp,control[0],control[1],control[2],control[3],control[4],output[2],output[3],output[4],output[5],output[6],output[7],indicated_airspeed_m_s,true_airspeed_m_s,indicated_airspeed_m_s.1,equivalent_airspeed_m_s,true_airspeed_m_s.1,equivalent_ground_minus_wind_m_s,true_ground_minus_wind_m_s,differential_pressure_raw_pa,differential_pressure_filtered_pa,temperature,gyro_bias[0],gyro_bias[1],gyro_bias[2],accel_bias[0],accel_bias[1],accel_bias[2],instance_count,seq_reached,seq_current,seq_total,item_changed_index,item_do_jump_remaining,valid,warning,finished,failure,stay_in_failsafe,flight_termination,item_do_jump_changed,execution_mode,nav_roll,nav_pitch,nav_bearing,target_bearing,xtrack_error,wp_dist,acceptance_radius,rollspeed_integ,pitchspeed_integ,yawspeed_integ,additional_integ1,x,y,z,temperature.1,pressure,temperature.2,gyro_rad[0],gyro_rad[1],gyro_rad[2],accelerometer_m_s2[0],accelerometer_m_s2[1],accelerometer_m_s2[2],x.1,y.1,z.1,temperature.3,altitude_sp,altitude_filtered,height_rate_setpoint,height_rate,airspeed_sp,airspeed_filtered,airspeed_derivative_sp,airspeed_derivative,throttle_integ,pitch_integ,baro_alt_meter,baro_temp_celcius,baro_pressure_pa,rho,xyz[0],xyz[1],xyz[2],xyz[0].1,xyz[1].1,xyz[2].1,roll_body,pitch_body,yaw_body,q_d[0],q_d[1],q_d[2],q_d[3],thrust_body[0],lat,lon,alt,vel_m_s,vel_n_m_s,vel_e_m_s,vel_d_m_s,cog_rad,ground_contact,maybe_landed,landed,ref_lat,ref_lon,x.2,y.2,z.2,vx,vy,vz,ax,ay,az,yaw,dist_bottom,roll,pitch,yaw.1,thrust_body[0].1,timestamp.1,isTakeoff,isClimbing,isDescending,isCruise,isLand
215027393.0,-0.000771931,0.345302536,-0.011995472,0.0,1.0,1494.0,2000.0,1000.0,1500.0,1499.0,1670.0,11.81824181,12.07382866,11.80923412,11.93573739,12.19406823,13.07202939,13.35495141,86.06555935,86.06555935,12.12824165,-0.000388364,-0.005858116,0.0003694080000000001,-0.26265231,0.219074792,-0.014123906,2.0,8.890978196,9.890978196,11.0,0.0,0.0,1.0,0.0,0.0,0.0,0.0,0.0,0.0,0.0,0.006433426,0.045831444000000006,1.574582116,1.570052157,-0.158071089,285.4503496000001,34.59961577,-0.003528514000000001,0.292148872,-0.008375211,0.0,-0.247354877,0.27420062,-9.806162173999999,-1.05e+21,961.2969334,12.1305032,-0.000510169,-0.008617389,-0.001492933,-0.304468939,0.190457026,-9.857294228999999,-0.008940374000000001,-0.002430687,-0.003876272,-1.05e+21,41.5203021,43.43746775,-1.4469400469999998,-1.338300716,10.21704909,12.23325486,-0.040324125,-0.023294279,-0.120905634,154.7528375,441.8399553,12.13042052,96129.32563,1.142175422,-0.321157663,0.554745304,-0.06267474599999999,-7.69e-05,0.005557671,-0.001555338,0.006416916,0.044739309000000005,1.574518691,0.70566009,-0.013581818,0.018059237,0.708190029,0.0,398704021.0,327432414.9,442653.1882,12.07,0.00569914,12.07139785,1.237097419,1.569799793,0.0,0.0,0.0,39.8714138,32.7364372,-112.4197499,583.5552853999999,-42.1981588,0.035508562,12.07936124,1.353604777,0.060931842,-0.008985261999999999,-0.026570519,1.566912981,42.281324,0.005212169,0.090176531,0.002049812,0.0,215027393.0,0.0,0.0,0.0,0.0,1.0
215103188.0,0.001068242865731463,0.34127547460320645,-0.012089557236472946,0.0,1.0,1493.625250501002,2000.0,1000.0,1499.4916944769539,1499.5083055230461,1673.625250501002,11.830482560721443,12.086326463727456,11.797583505531064,11.92391013955912,12.181921790360722,13.071752047254508,13.354599088196393,85.9484690715431,85.9484690715431,12.128894756913828,-0.00038849827054108214,-0.005857387262525051,0.0003691473346693387,-0.26262203645891785,0.2190065136012024,-0.013830393260521042,2.0,8.895204692432866,9.895204692432866,11.0,0.0,0.0,1.0,0.0,0.0,0.0,0.0,0.0,0.0,0.0,0.006449893663326653,0.044887012559118235,1.5745597395511022,1.5700517165571142,-0.15730910980561122,284.48917840400804,34.60234573577154,-0.003515099625250501,0.29257228871943886,-0.008332266378757516,0.0,-0.23744280727054107,0.22190479692585172,-9.841475611883768,-1.05e+21,961.30436351002,12.13112734250501,0.0004485993667334657,-0.003562808386773547,-0.0014636434769539077,-0.2689185065691383,0.16072776235270542,-9.815345800266533,-0.004237159683366734,-0.005346724669338677,-0.003850055004008016,-1.05e+21,41.37838070172345,43.33134622492986,-1.4470675687114227,-1.339976172739479,10.21696611240481,12.222835408757515,-0.0401173916012024,-0.025465758919839678,-0.12153841938276554,154.77962641883767,441.77869389378753,12.131070579098196,96130.01112448898,1.1421835527134268,-0.022720345955911818,0.07344881431062128,-0.25690876477555113,0.0028230960941883765,0.003744794919839679,-0.0007691053326653308,0.006610704599198397,0.04024919913426853,1.5744935354609217,0.7056985678176352,-0.01192304540480962,0.016543944306613226,0.708218328486974,0.0,398704021.0,327432528.7300601,442555.5525763527,12.07,0.0018400233166332668,12.06367923282565,1.2255200699498998,1.5700018565190381,0.0,0.0,0.0,39.8714138,32.7364372,-112.41928105571142,584.4935026859721,-42.098868741442885,0.036679351509018035,12.081208482344689,1.3524872711302605,0.10844900597795591,0.0014487392044088155,-0.027680405204408814,1.5666926489519037,42.1820323749499,0.00574572468737475,0.08159410698997996,0.0019857935511022043,0.0,215103187.78557113,0.0,0.0,0.0,0.0,1.0
215182032.0,0.0011501540541082164,0.34730582130260523,-0.012244526929859719,0.0,1.0,1493.507812553106,2000.0,1000.0,1499.0,1500.0,1672.4989979959919,11.79696879751503,12.051957329759519,11.785932891062124,11.912082889118237,12.169775340721444,13.071474712004008,13.354246766392786,85.83137879308617,85.83137879308617,12.129547853827656,-0.0003886317915831663,-0.0058566585250501004,0.00036888566933867737,-0.2625917626673347,0.2189382352024048,-0.013536879771543085,2.0,8.899431188865732,9.899431188865732,11.0,0.0,0.0,1.0,0.0,0.0,0.0,0.0,0.0,0.0,0.0,0.006466362076152305,0.04394258111823647,1.5745373641022045,1.5700512761142285,-0.15654713061122244,283.528007108016,34.605075701543086,-0.0035022775310621242,0.2929631308797595,-0.008293289250501002,0.0,-0.2892507490861723,0.2161037347234469,-9.823003776787575,-1.05e+21,961.3231733787575,12.131767225511021,-0.0026919181302605217,-0.0057950768877755516,-0.0048811621783567145,-0.2141774268016032,0.17531496634669338,-9.868613879450901,-0.006731298050100201,-0.00965170681963928,-3.968458717434873e-05,-1.05e+21,41.23531526344689,43.224236997354716,-1.4461460236733465,-1.341775713478958,10.216876287314628,12.21138413751503,-0.03989015720240481,-0.02773684883967936,-0.12217753776553107,154.80610626272548,441.5955136891784,12.131695748496995,96132.12771380761,1.1422086912084168,-0.4531515680501002,0.2904668398697395,0.12816385721643292,0.0009013666292585175,0.0009577238036072146,-0.0018788162024048094,0.006729365911823647,0.044899818448897795,1.5744756013927854,0.7056763668036072,-0.013528026164328657,0.018226788274549096,0.7081705350360722,0.0,398704021.17515033,327432641.3843687,442456.50356993993,12.07,0.002019093366733467,12.057980110501003,1.2240381867334669,1.5699924799619238,0.0,0.0,0.0,39.8714138,32.7364372,-112.41898923507014,585.4733533280561,-41.99558547691383,0.0389978434248497,12.08434620004008,1.350305136238477,0.07965308104008016,0.026453257150300603,-0.0831393719258517,1.5664861195691384,42.07874786709419,0.005911646022044088,0.0928540029238477,0.0019046230561122245,0.0,215182032.48496994,0.0,0.0,0.0,0.0,1.0
215256856.0,0.0008090348336673346,0.345525621747495,-0.012123260893787575,0.0,1.0,1493.5767103887774,2000.0,1000.0,1499.0,1500.0,1670.124248496994,11.801314913026053,12.056393975490982,11.774282275350702,11.90025563991984,12.157628892324649,13.071197371763526,13.353894453346694,85.71428851462926,85.71428851462926,12.130200960741483,-0.0003887658116232465,-0.005855929663326653,0.00036862400400801605,-0.2625614883767535,0.2188699568036072,-0.013243366781563126,2.0,8.903657685298597,9.903657685298597,11.0,0.0,0.0,1.0,0.0,0.0,0.0,0.0,0.0,0.0,0.0,0.00648282998997996,0.04299814880160321,1.5745149876533067,1.5700508356713425,-0.15578515141683366,282.56683591202403,34.60780566731463,-0.0034899857094188376,0.29340231573947895,-0.008268303683366732,0.0,-0.3313775670480962,0.183710387002004,-9.710929166811622,-1.05e+21,961.3379496971944,12.13251462507014,0.001124005855711423,-0.010568590581162326,-0.0008173280521042085,-0.3012926900681363,0.16929822993987975,-9.80146768385571,-0.005196824284569138,-0.0038583419138276545,-0.0005401724849699399,-1.05e+21,41.09828203655311,43.121453644428854,-1.4551722708196393,-1.3433843421422846,10.21681747757515,12.208320980561123,-0.03983006961122244,-0.028789308773547094,-0.12279418348897796,154.8290311184369,441.59294680140283,12.132347616352705,96132.15831895791,1.1422091145891784,-0.021819525170340692,-0.42294721471943897,-0.35719448145691385,-0.0002082372725450898,0.00119459849498998,8.031208416833845e-06,0.006775794913827656,0.042572316781563126,1.5744510470701403,0.7057004634368738,-0.012687161911823647,0.017422263014028057,0.7081822072705412,0.0,398704021.5751503,327432752.87655306,442356.16654248495,12.07,0.0058782100501002,12.054121375751503,1.231756419224449,1.5697904165671344,0.0,0.0,0.0,39.8714138,32.7364372,-112.4181695725451,586.3997047665331,-41.897796330480965,0.03994381443286573,12.086018082284568,1.3497212156052103,0.0515253753507014,-0.012129522274549102,0.019369859450901805,1.5663985561482967,41.98095983995992,0.006204249278557114,0.08695327141282566,0.0018062880841683367,0.0,215256855.60921845,0.0,0.0,0.0,0.0,1.0
215328672.0,-0.00015305749098196402,0.3415187241703407,-0.012110931941883767,0.0,1.0,1493.5010020040081,2000.0,1000.0,1500.0,1499.0,1673.0,11.81701302981964,12.072332525230461,11.777750453366734,11.904250696072143,12.161648715651301,13.072342946392785,13.354997719278556,85.73604260913828,85.73604260913828,12.13084573523046,-0.00038860632064128257,-0.005855683480961924,0.000368549004008016,-0.26252970699198397,0.2187949374008016,-0.012919733715430863,2.0,8.907884181731463,9.907884181731463,11.0,0.0,0.0,1.0,0.0,0.0,0.0,0.0,0.0,0.0,0.0,0.006552566599198397,0.042213674709418836,1.5744931892184368,1.5700504167474951,-0.15505093545090182,281.6373078004009,34.61237505144288,-0.0034752455511022043,0.2938106535450902,-0.008240648370741484,0.0,-0.37607526151503007,0.1850966489719439,-9.715615447597195,-1.05e+21,961.3500421849699,12.133183410140282,-0.0030635003907815645,-0.010737814176352705,-6.217386573146265e-05,-0.25490148148496994,0.1612551064008016,-9.762455237330663,-0.0031878078977955913,-0.0047945024929859715,-0.005021394240480962,-1.05e+21,40.97095256523046,43.02562915821643,-1.480201105537074,-1.3446858585791583,10.216808540681361,12.218751437875751,-0.0400388631482966,-0.02788141044088176,-0.12337467852505009,154.8462370713427,441.4022824837676,12.132998832004008,96134.33410076152,1.1422348600581163,0.4207636923947896,-0.03662940810020046,-0.0459457914048097,-0.0005107990400801605,0.0033851291563126253,-0.0018753667755511023,0.00676108129258517,0.040743929875751504,1.5744288072024049,0.7057192347915832,-0.012044648390781563,0.01677212176753507,0.7081899154188377,0.0,398704021.9501002,327432864.1683367,442255.96816713427,12.07,0.009275310200400802,12.052110667034068,1.2408607010641282,1.5696206024208417,0.0,0.0,0.0,39.8714138,32.7364372,-112.41735727995992,587.3683508601201,-41.796346761422846,0.040349502368737473,12.087901232404809,1.3497309413086174,0.026643672096192388,-0.008270196380761529,0.03234552513827656,1.5662971289338679,41.87951076142285,0.0062701795250501005,0.08571905476152306,0.0017548090300601202,0.0,215328671.9699399,0.0,0.0,0.0,0.0,1.0
215403992.0,-6.269149699398866e-05,0.3488786873587174,-0.012074680615230461,0.0,1.0,1493.0,2000.0,1000.0,1499.12625250501,1499.87374749499,1671.87374749499,11.82228078759519,12.077632939338677,11.787942064208417,11.91528204509018,12.172857802064128,13.074121305490982,13.356748307835671,85.81954176142284,85.81954176142284,12.131486800300602,-0.00038831552705410823,-0.005855651601202405,0.00036855650501002005,-0.26249725498998,0.218716919501002,-0.012582706018036072,2.0,8.912110678290581,9.912110678290581,11.0,0.0,0.0,1.0,0.0,0.0,0.0,0.0,0.0,0.0,0.0,0.006645992498997996,0.04150033451302605,1.5744716466492987,1.5700500073106214,-0.15432906581362726,280.72185153787575,34.617762441803606,-0.0034617274488977956,0.2942198487995992,-0.008211862372745491,0.0,-0.371977160755511,0.21361303793587177,-9.764962381933868,-7.018637274549096e+20,961.3616865697395,12.133807777074148,-0.0014666877815631267,-0.006707538773547096,-0.004464378879759519,-0.2994554521503006,0.19786360903006012,-9.807825788014028,0.00019717873547094348,-0.009341317665330662,-0.005631350450901801,-7.018637274549096e+20,40.8439970647495,42.9300675451503,-1.504536074679359,-1.3459789121783567,10.216797983006012,12.229130269599198,-0.04024665693386773,-0.026853650198396792,-0.12395430582565131,154.86303091102204,441.2535971701403,12.133650837154308,96136.06411879759,1.1422555265871743,-0.31267205858917807,-0.6620985599719433,-0.2398133188617236,0.0050979009458917805,0.007373916214428855,-0.0037918849318637248,0.006815989971943888,0.04438720672344689,1.5744090776833666,0.7057039502284569,-0.013315326961923848,0.01807706084769539,0.7081509562344689,0.0,398704022.0,327432974.1220441,442156.5714671343,12.07,0.01,12.060789329619238,1.2579822139579158,1.5696373222424849,0.0,0.0,0.0,39.8714138,32.7364372,-112.41634732204409,588.3281859070141,-41.6960497250501,0.041106342346693386,12.089485198396794,1.3500959144468938,0.02629977595390783,0.012068451927855713,0.026820883026052116,1.5661805202925854,41.779213393186375,0.006362069294589178,0.09245545541683367,0.0017444759158316634,0.0,215403992.21242484,0.0,0.0,0.0,0.0,1.0
215475311.0,-0.00011661194589178327,0.3456537933206413,-0.012018619823647294,0.0,1.0,1493.6680696392784,2000.0,1000.0,1499.248496993988,1499.751503006012,1670.248496993988,11.813785748877756,12.068920863326653,11.7981336850501,11.926313384108216,12.184066878476955,13.075899654589179,13.358498888917836,85.90304092370741,85.90304092370741,12.132127872845691,-0.0003880254809619239,-0.005855620721442886,0.00036856375751503006,-0.262464802739479,0.2186389018496994,-0.012245678573146292,2.0,8.916337175597196,9.916337175597196,11.0,0.0,0.0,1.0,0.0,0.0,0.0,0.0,0.0,0.0,0.0,0.006739418398797596,0.04078699506412826,1.5744501048276551,1.5700495986212426,-0.1536071961763527,279.8063953006012,34.62314982967936,-0.0034541857775551104,0.2946588406813627,-0.008174919486973948,0.0,-0.32684996228256513,0.23732373584368738,-9.790092295288577,-2.5198797595190382e+20,961.3734231376753,12.134437248096193,0.001024692458917836,-0.005075391024048095,-0.008421130440881764,-0.19449988701202403,0.19588328181162326,-9.78699769556513,0.003223424384769539,-0.010181105971943888,-0.0012056661002004007,-2.5198797595190382e+20,40.71700756539078,42.834389017695386,-1.5059094854629258,-1.347332003266533,10.216725153687376,12.229471179298598,-0.04025493236072144,-0.02505825171943888,-0.12454326137274549,154.8764939268537,441.17019900280565,12.134302094408817,96137.00456503006,1.1422666601042084,0.36908496360120246,0.13929719764529053,-0.5646544090280562,-0.0017201564128256517,0.00547418597995992,0.0017496974488977956,0.007015973553106214,0.04050760476753507,1.574384150194389,0.70573822449499,-0.011870644751503007,0.01677926816232465,0.7081741939178358,0.0,398704022.0,327433083.7513026,442057.3921054108,12.07,0.01,12.072366679058117,1.277277796501002,1.569704624739479,0.0,0.0,0.0,39.8714138,32.7364372,-112.41507538276552,589.2606465466934,-41.598430498396795,0.04269391612625251,12.090635405831662,1.350782493509018,0.04072677907214429,0.021708451887775555,0.06137477596192385,1.5660519391022043,41.68159355803607,0.006390676975951904,0.08619529977555111,0.0018643561983967935,0.0,215475311.45490983,0.0,0.0,0.0,0.0,1.0
215554632.0,0.0009278750400801603,0.34098072412825653,-0.012026803847695392,0.0,1.0,1493.6579145971943,2000.0,1000.0,1499.7188389098196,1499.2811610901804,1673.623246492986,11.78825581769539,12.042777589218437,11.808325295891784,11.937344726893787,12.19527595488978,13.077678013687375,13.360249468737475,85.98654008599199,85.98654008599199,12.132768936653306,-0.0003877349378757515,-0.005855588841683366,0.00036857150701402803,-0.26243235036272544,0.2185608843246493,-0.011908651002004007,2.0,8.920563672030061,9.920563672030061,11.0,0.0,0.0,1.0,0.0,0.0,0.0,0.0,0.0,0.0,0.0,0.006832843298597195,0.040073654741482966,1.5744285631322645,1.5700491894348698,-0.15288532691583168,278.89093905070143,34.628537216292585,-0.0034420261022044085,0.2950526831663327,-0.008147121659318636,0.0,-0.3564301304388778,0.20107370339478958,-9.799414865997996,-8.686352705410821e+20,961.3836993158317,12.13508132733467,-0.006120998014028056,-0.005509450835671343,0.002953525553106212,-0.2568896162965932,0.16776163393987978,-9.775076119058117,-0.0008621596593186372,-0.0020691431663326654,-0.002939475595190381,-8.686352705410821e+20,40.590005401723445,42.738666898977954,-1.4987220930400802,-1.3487074781442885,10.216629113867736,12.22606962751503,-0.04018882142084169,-0.022976652006012024,-0.12513569443486974,154.888715097996,441.12266180721446,12.134961332805611,96137.54709186373,1.1422731102224448,-0.2660039499659319,0.12355588127655315,-0.286151732252505,0.0003329539358717436,0.0032507325290581164,-0.004106413779559118,0.007103296863727456,0.03822038201002004,1.5743618303346694,0.7057595012825651,-0.011029649136272546,0.016003326184368737,0.7081842030100199,0.0,398704022.1130261,327433194.7727455,441956.1093320641,12.07,0.011314675783567135,12.078685326332666,1.2821119456753507,1.5696572356272547,0.0,0.0,0.0,39.8714138,32.7364372,-112.41396537094188,590.2384931503007,-41.4959371832465,0.04471147753907816,12.092522651603206,1.351463485745491,0.007686353246492987,0.0331921751242485,0.07119374123246493,1.5658842896833667,41.57910033771543,0.006636370400801604,0.08089690095190381,0.0018554960741482965,0.0,215554631.6973948,0.0,0.0,0.0,0.0,1.0
215631835.0,-0.0007890902805611227,0.3485010316913828,-0.012486487386773548,0.0,1.0,1493.0,2000.0,1000.0,1499.0,1500.0,1671.995991983968,11.74079178533066,11.994246078136271,11.818516916713426,11.948376072144288,12.206485031302606,13.079456372785572,13.362000048557114,86.07003924827656,86.07003924827656,12.133410000480962,-0.0003874446412825651,-0.00585555795991984,0.0003685790080160321,-0.26239989798597196,0.2184828667995992,-0.011571623428857715,2.0,8.924790168462925,9.924790168462925,11.0,0.0,0.0,1.0,0.0,0.0,0.0,0.0,0.0,0.0,0.0,0.006926269198396794,0.03936031441883768,1.574407021436874,1.5700487804949899,-0.1521634579018036,277.9754828008016,34.63392460288577,-0.0034298586853707415,0.2954308543987976,-0.008112820951903809,0.0,-0.2935734500521043,0.12053458031062124,-9.777227498691383,-1.05e+21,961.3909610963927,12.13571121991984,-0.0005219584789579147,-0.01086476220240481,-0.0034928345731462937,-0.2399327345250501,0.16171887616032063,-9.719281949362726,-0.002095170492985972,-0.0015505167655310613,-0.0022451334188376753,-1.05e+21,40.45973587741483,42.64011664683367,-1.4930547289118237,-1.3503208746472946,10.21654920747495,12.224748969438878,-0.040164003831663325,-0.020678936230460923,-0.12574590613026052,154.89972014388778,440.9373608797595,12.135624962785572,96139.70309647295,1.1422987168517036,0.09425650116432899,0.8714217481162329,0.2158602647935874,-0.00023566252104208636,0.0009777375410821622,9.214716833667327e-05,0.0071525923146292586,0.04211902379759519,1.5743424394148298,0.7057443015430861,-0.012392735490981964,0.017396439759519038,0.7081446072044087,0.0,398704022.50060123,327433308.64028054,441850.7554937876,12.07,0.015173792466933867,12.074826211523046,1.2589572462004008,1.5693878688597194,0.0,0.0,0.0,39.8714138,32.7364372,-112.41235676012026,591.1710698354709,-41.39773044158317,0.0457327514749499,12.093440013286573,1.3521716308036071,0.01603601925250501,0.052331340653306614,0.08431143379959921,1.5657261052885774,41.480894832464934,0.006723751599198396,0.08860321705611224,0.0018435705470941884,0.0,215631835.25450903,0.0,0.0,0.0,0.0,1.0
215713271.0,-9.588368737474084e-06,0.3445338258597195,-0.011982908945891784,0.0,1.0,1493.627254509018,2000.0,1000.0,1499.0,1500.0,1669.7262115611222,11.775125333587175,12.02922945753507,11.82870852757515,11.95940741743487,12.217694107715431,13.081234721883767,13.363750632104209,86.15353841056113,86.15353841056113,12.134051074268537,-0.0003871543486973948,-0.005855526082164329,0.00036858613627254507,-0.26236744598196393,0.21840484890180362,-0.011234595859719438,2.0,8.929016664895792,9.929016664895792,11.0,0.0,0.0,1.0,0.0,0.0,0.0,0.0,0.0,0.0,0.0,0.007019695098196393,0.03864697472344689,1.574385478741483,1.5700483709318636,-0.15144158826452905,277.0600265881763,34.639311989519044,-0.003416456947895792,0.29585045544088173,-0.008094072653306613,0.0,-0.21369336413026055,0.15680041947294585,-9.822825751643286,-1.05e+21,961.4064305158316,12.136335436733466,-0.0018346961242484993,-0.012494147296593183,0.0004856228436873748,-0.22119086307615235,0.17899442043687377,-9.737286998406814,-0.003156124200400801,-0.007036481915831661,-0.002046876927855711,-1.05e+21,40.31698967084168,42.53076694266533,-1.4931917164008015,-1.3528427986032066,10.216530933386775,12.231374378096191,-0.04029687068336673,-0.017555962761523047,-0.12642400839879758,154.90608153687376,440.89673315991985,12.136276021883768,96140.13491537074,1.1423038206653306,-0.06496926063927932,-0.11595704835270551,-0.2900087118296594,0.002437769164328661,0.006195707889779561,-0.0009789653667334657,0.007284014154308617,0.03824972699599198,1.5743173356813627,0.7057762537294588,-0.010975916190380762,0.01607791341482966,0.7081669511102204,0.0,398704022.9254509,327433422.4705411,441745.401555511,12.07,0.0190329091503006,12.070967092985972,1.2358025470981964,1.5691185030921844,0.0,0.0,0.0,39.8714138,32.7364372,-112.41065042224449,592.1343611308616,-41.29648075392786,0.047067680747495,12.095142483366732,1.3525125280501002,0.01718956941082165,0.04080516175751504,0.036874046541082194,1.5656608715090181,41.37964527657314,0.006896429555110221,0.08065280733466934,0.001847544006012024,0.0,215713271.18236473,0.0,0.0,0.0,0.0,1.0
215791621.0,0.0005991574909819646,0.3419345825971944,-0.011862411955911823,0.0,1.0,1493.0,2000.0,1000.0,1499.0,1500.0,1673.74749498998,11.815647310400802,12.070570764328657,11.838900145891785,11.970438760180361,12.228903184128256,13.083013080981964,13.365501215671342,86.23703757032064,86.23703757032064,12.134692138076153,-0.00038686405410821644,-0.0058554949498998,0.0003685932625250501,-0.26233499323246495,0.218326831002004,-0.010897568288577153,2.0,8.933243161328658,9.933243161328658,11.0,0.0,0.0,1.0,0.0,0.0,0.0,0.0,0.0,0.0,0.0,0.0070876425250501,0.03820549584168337,1.5743639797414828,1.5700479568436874,-0.1507197171222445,276.12898173747493,34.64449300517034,-0.003405272991983968,0.29622925285771545,-0.008070420226452907,0.0,-0.185726508248497,0.23690528073947895,-9.855806462184368,-1.05e+21,961.421698170541,12.137008164769538,0.0034164345310621178,-0.0035993743627254528,-0.0015483841883767507,-0.25569219561523043,0.20588971369939876,-9.769046544280561,-0.0012627334368737425,-0.012160372424849701,-0.004143154096192388,-1.05e+21,40.1746382457515,42.42173295825651,-1.4932064843947894,-1.3552775964729458,10.216511767975952,12.23772036987976,-0.040424167529058114,-0.014438761050100201,-0.12710061331062125,154.9123143038076,440.71362624088175,12.136926070981964,96142.25712274549,1.1423290459519038,0.1904719569499001,0.008325395042084065,-0.0015487039779565337,-0.0004200218216432821,0.005159469410821641,-0.0037672411563126197,0.007284793649298597,0.03630697098997997,1.574294092256513,0.7057942595130261,-0.010287453066132267,0.01539281314428858,0.7081735273627254,0.0,398704023.0,327433534.6218437,441646.4101781563,12.07,0.025784050667334676,12.061323920761524,1.2328920248336674,1.5683443338356715,0.0,0.0,0.0,39.8714138,32.7364372,-112.40878334549097,593.1019485835673,-41.194819885771544,0.04867076626252505,12.097565384709418,1.35201867749499,0.01758774590581164,0.00823181212224447,-0.008307836803607194,1.5656067177414827,41.27798388577154,0.006723633567134269,0.07716325167334671,0.00195714755511022,0.0,215791621.48496994,0.0,0.0,0.0,0.0,1.0
215871911.0,-0.00032127276553106307,0.3475976117835671,-0.011900469901803606,0.0,1.0,1493.8470279238477,2000.0,1000.0,1499.877755511022,1499.122244488978,1671.2444889779558,11.885365552004007,12.141708161663328,11.849091759258517,11.981470107975952,12.240112260541082,13.084791438857716,13.367251798016031,86.32053672513027,86.32053672513027,12.135333201883768,-0.0003865738817635271,-0.005855463322645291,0.0003686005110220441,-0.2623025409779559,0.2182488132244489,-0.010560540839679357,2.0,8.937469658639278,9.937469658639278,11.0,0.0,0.0,1.0,0.0,0.0,0.0,0.0,0.0,0.0,0.0,0.007105499899799601,0.0382984959258517,1.5743425638156314,1.5700475319058116,-0.1499978433567134,275.1672897234469,34.649268274909815,-0.0033953981222444893,0.29660721386372757,-0.008040083342685371,0.0,-0.22863403726653309,0.2329258492985972,-9.786924961985973,-1.05e+21,961.4265487116232,12.137761912625251,-0.00043162072344689263,-0.0060811589498998,-0.0013171324468937893,-0.23087689023647295,0.14057558684569135,-9.786145967242485,0.005927265282565132,-0.011582450186372745,-0.008315383873747497,-1.05e+21,40.0418849693988,42.32037520789579,-1.4902497801362726,-1.3555941570841683,10.216470893867735,12.237273203106213,-0.040416040038076154,-0.011461894346693386,-0.12774081950300603,154.9154200102204,440.6317547957916,12.13757713008016,96143.21325599198,1.1423404196533067,-0.3919404057074154,-0.0007905334829658717,0.4730216337855718,0.0006188316472945871,0.0034289701763527054,-0.003229496268537077,0.0074232201002004,0.0401384508737475,1.5742748922525052,0.705781573026052,-0.01159529311022044,0.016793862048096193,0.7081354319819639,0.0,398704023.0,327433646.11402804,441549.54638597195,12.07,0.033502284034068144,12.049746578837675,1.236751141517034,1.5674013586192386,0.0,0.0,0.0,39.8714138,32.7364372,-112.40651839759519,594.0273670086173,-41.09724809733467,0.04973930394589179,12.09984979220441,1.350723553256513,0.0347631873987976,-0.0164268455731463,0.023516525981963937,1.5654652511783564,41.18041209733467,0.006696090232464929,0.08508035181963929,0.0020503186633266538,0.0,215871910.66733468,0.0,0.0,0.0,0.0,1.0
215943231.0,0.0012485768557114229,0.34375891067735476,-0.011767646629258516,0.0,1.0,1493.5030060120241,2000.0,1000.0,1499.0,1500.0,1671.0140616292585,11.816979829438878,12.07186376741483,11.85928337507014,11.992501448216434,12.251321336953907,13.086569789178357,13.369002377835672,86.40403588741484,86.40403588741484,12.135974275691384,-0.0003862834649298597,-0.005855432442885771,0.00036860851503006014,-0.2622700889759519,0.21817079569939882,-0.010223513146292584,2.0,8.94169615519439,9.94169615519439,11.0,0.0,0.0,1.0,0.0,0.0,0.0,0.0,0.0,0.0,0.0,0.0071233570300601205,0.038391496010020044,1.5743211468897795,1.5700471072124247,-0.14927596884368738,274.20559763466935,34.654043552204406,-0.003385723957915832,0.29700661255711425,-0.008002419773547095,0.0,-0.20664353948496994,0.19104848121442883,-9.853045011156313,-1.05e+21,961.4413822154308,12.138415951703406,0.0006160473286573103,-0.009496878266533065,-0.00043317186573146047,-0.2830149908997996,0.211956180503006,-9.761415637358716,0.0013222160160320628,-0.005093173799599197,-0.008243388675350702,-1.05e+21,39.915477726132266,42.22409277406814,-1.4853284171002004,-1.3545101936372748,10.216415682885772,12.232334575691382,-0.04031837235671343,-0.008577812693386772,-0.1283569600941884,154.9164582202405,440.61374083066136,12.138235113727456,96143.41068829659,1.1423427948116234,-0.32755936036873773,0.04172147403006006,0.10013055698997975,-0.0021058321022044088,0.005342118322645291,0.0004234915871743467,0.007256989072144288,0.035963668559118235,1.5742503126292584,0.7058118479378758,-0.010175367398797595,0.015262065893787573,0.7081614426853707,0.0,398704023.1006012,327433757.1032064,441451.33167114225,12.07,0.03851883388777555,12.04357258791583,1.2415108190380761,1.5667884478997998,0.0,0.0,0.0,39.8714138,32.7364372,-112.40429130601201,595.0106654162324,-40.99356500981964,0.04929192878557114,12.101335099318637,1.3518111430641282,-0.014293524823647307,0.0029768145290581215,0.011988900294589176,1.5653512174388777,41.0767290903006,0.006565540973947896,0.07844455824448897,0.0020135291883767534,0.0,215943230.90981963,0.0,0.0,0.0,0.0,1.0
216015064.0,-0.0006711302004008017,0.34091415051903806,-0.011647523803607214,0.0,1.0,1494.0,2000.0,1000.0,1500.3132824348697,1498.6867175651303,1672.8717434869739,11.782314568176352,12.036377866693387,11.869474989659318,12.003532797234469,12.262530413366735,13.088348148276554,13.370752966372745,86.48753504969939,86.48753504969939,12.136615339498999,-0.00038599304208416835,-0.005855400563126252,0.0003686156412825651,-0.26223763697394786,0.2180927781743487,-0.009886485575150301,2.0,8.945922651627253,9.945922651627253,11.0,0.0,0.0,1.0,0.0,0.0,0.0,0.0,0.0,0.0,0.0,0.007141214154308617,0.038484496222444896,1.5742997309639277,1.5700466823967936,-0.1485540953306613,273.24390554589183,34.65881882072144,-0.003372082092184369,0.29737335546292587,-0.007981534064128257,0.0,-0.26705208926452906,0.1900687740220441,-9.842050040096192,-1.0435871743486974e+21,961.4499465296594,12.139046111523045,-0.0012627083667334676,-0.005745467585170341,0.001299018605210421,-0.2207018615450902,0.21919402488577155,-9.716428681987976,-0.002028179220440882,-0.0022999012424849696,0.004194413805611224,-1.0435871743486974e+21,39.78896787386774,42.127870191142286,-1.4802324318016034,-1.3533799902284567,10.216361271142285,12.226853026853707,-0.040209830068136276,-0.005587231967935872,-0.12897348083767535,154.91678713326652,440.4842240717435,12.138894147254508,96144.91261867736,1.1423605816392786,-0.03447794134669328,0.2993927581743486,0.386906550018036,0.0032469289539078156,0.003902031827655311,0.0006512857434869734,0.007201848234468938,0.03889143639278557,1.574233159785571,0.7058021781843687,-0.011231474216432866,0.016275715420841684,0.7081328206472945,0.0,398704023.4384769,327433866.51883763,441349.11459038075,12.07,0.035530625116232464,12.05340812501002,1.2489387497675348,1.5671534788537074,0.0,0.0,0.0,39.8714138,32.7364372,-112.4018000248497,595.9456196739479,-40.89418309537074,0.04860501483567134,12.102596458617235,1.3530431770260523,-0.0419945760501002,-0.02308567473747495,0.024234650206412828,1.5653230548156312,40.97734833054109,0.006502734549098197,0.08322274970741483,0.001965319877755511,0.0,216015064.1783567,0.0,0.0,0.0,0.0,1.0
216089870.0,0.0007861459358717434,0.34754264108216437,-0.011349063927855712,0.0,1.0,1494.0,2000.0,1000.0,1499.0,1500.0,1671.246492985972,11.825306906693386,12.080231214649299,11.879666601783567,12.014564136252506,12.273739489779558,13.09012650490982,13.37250354747495,86.57103421198397,86.57103421198397,12.137256403306614,-0.00038570287575150303,-0.005855369683366734,0.0003686230140280561,-0.2622051847254509,0.21801475964929862,-0.009549458250501002,2.0,8.95014914806012,9.95014914806012,11.0,0.0,0.0,1.0,0.0,0.0,0.0,0.0,0.0,0.0,0.0,0.0071590715350701405,0.038577497178356714,1.5742783150380761,1.5700462573346694,-0.14783222081763528,272.2822134571142,34.66359409923848,-0.0033613999218436875,0.297756104757515,-0.007964964004008016,0.0,-0.2830049277695391,0.218833811006012,-9.783686076835671,-6.172184368737476e+20,961.4619267827655,12.139670425490982,0.00037088479959919776,-0.00488199039478958,0.0006116515591182366,-0.21794747131663325,0.1875048812224449,-9.737368071312625,-0.0030572481002004008,-0.004730103146292585,0.007477815747494991,-6.172184368737476e+20,39.66124541428857,42.03235493867735,-1.4730727835531063,-1.3517033166693386,10.216316421022045,12.214955308897796,-0.03997277451102204,-0.0013380609478957917,-0.12959449518436872,154.90873361322647,440.3190807314629,12.139545372865731,96146.81769541082,1.1423832506452907,0.3077729488877756,0.12742147422845687,0.373185758266533,0.002649370142284569,0.0074713577094188376,0.0011511735190380757,0.007303530803607215,0.03848872620240481,1.57420808652505,0.7058138184388778,-0.01105278430460922,0.016169758254509017,0.7081264143486974,0.0,398704023.8507014,327433975.73567134,441246.462143487,12.07,0.03167150843286574,12.064985474468937,1.2566569831342687,1.5676249087655312,0.0,0.0,0.0,39.8714138,32.7364372,-112.3995042787575,596.8999563577155,-40.792670668236475,0.0491596143486974,12.104671220841682,1.354485845008016,-0.014040307494989988,-0.012901016505010025,0.03982172397194388,1.565308198741483,40.87583625655311,0.0064307862144288575,0.08467304073747495,0.002044139032064128,0.0,216089870.39478958,0.0,0.0,0.0,0.0,1.0
216166706.0,0.0005873970160320648,0.3445110509018036,-0.01154417473747495,0.0,1.0,1494.0,2000.0,1000.0,1498.7711848496992,1500.2288151503008,1670.5150300601204,11.768944405651302,12.022588715831663,11.889858218837675,12.025595479058117,12.28494856997996,13.091904856472945,13.37425412729459,86.65453337426854,86.65453337426854,12.137897477114228,-0.00038541258116232466,-0.005855337803607214,0.00036863051503006016,-0.2621727323486974,0.2179367421242485,-0.009212430432865732,2.0,8.954375644492986,9.954375644492986,11.0,0.0,0.0,1.0,0.0,0.0,0.0,0.0,0.0,0.0,0.0,0.007176928408817635,0.03867049726252505,1.5742568991122246,1.5700458321442885,-0.1471103473046092,271.32052140621244,34.66836937396794,-0.0033513768236472946,0.29813346413026054,-0.007938223849699399,0.0,-0.2377278912004008,0.2527406698016032,-9.744240841571143,-2.0916032064128238e+20,961.4789519837675,12.140294931222446,0.0024051046092184386,-0.005720367024048095,0.001081600619238475,-0.25196365407815635,0.180247458751503,-9.766672227905811,-0.004264335997995991,-0.008488927677354709,0.001669628330661321,-2.0916032064128238e+20,39.533505623166334,41.93684979336673,-1.465883641735471,-1.3500188326673346,10.216271706593187,12.202965887174349,-0.03973388219038076,0.002929098006012023,-0.13021557391182365,154.90056022845687,440.3367582623246,12.140201723827655,96146.60216879759,1.1423806814609219,-0.15852029028456943,0.10233419658316645,0.10315691642084163,-0.00021793178156312779,0.007285907561122247,-0.003781879240480961,0.007379037869739479,0.03410197211623246,1.5741828612084168,0.70584538952505,-0.009472519881763527,0.014648676170340682,0.7081507463386774,0.0,398704024.0,327434087.55090183,441144.90345751506,12.07,0.03656282375150301,12.072187608356714,1.266562823751503,1.5672945798436873,0.0,0.0,0.0,39.8714138,32.7364372,-112.39727704729458,597.8722006841683,-40.68948791472946,0.05074630597394789,12.107617342464929,1.3559244966793587,0.03993182885771543,0.022759305819639288,0.0331115532204409,1.565258649052104,40.772652511122246,0.00654819649498998,0.07656941681563127,0.0021093543607214426,0.0,216166705.66733468,0.0,0.0,0.0,0.0,1.0
216248542.0,0.0016048438937875764,0.3402442313927856,-0.011331476096192384,0.0,1.0,1494.0,2000.0,1000.0,1499.995991983968,1499.004008016032,1672.9919839679358,11.77036137052104,12.024025901643286,11.900002171583166,12.036578070541083,12.296107841422847,13.093683985911824,13.376005487394789,86.73772638695391,86.73772638695391,12.138538592545089,-0.0003851223867735471,-0.005855308210420841,0.00036863886573146293,-0.2621403008216433,0.2178587671242485,-0.008875412360721443,2.0,8.958602140925851,9.958602140925851,11.0,0.0,0.0,1.0,0.0,0.0,0.0,0.0,0.0,0.0,0.0,0.0071951170100200395,0.03876234216432865,1.5742354800681362,1.5700454078777555,-0.14638837719238476,270.3588296456914,34.67314819965932,-0.003338241396793587,0.2984745276212425,-0.007900007699398796,0.0,-0.228248706753507,0.26309249545290586,-9.803372217202405,-1.0300801603206413e+21,961.4939189597194,12.140918906793589,0.004059793523046094,-0.0052642139378757495,-0.0016721754789579136,-0.24307750036272543,0.20605382245290585,-9.765904919244488,-0.010310297877755517,-0.005749656478957914,0.0074472587875751535,-1.0300801603206413e+21,39.398321254288575,41.83596810887775,-1.462132104503006,-1.3494541552004007,10.216224497274549,12.199142223887776,-0.03965835433466934,0.0054402002625250495,-0.13088136263927855,154.88832539579158,440.148187998998,12.140860405571143,96148.77868881763,1.1424065430801602,-0.13384592368136294,0.06693678270541153,0.8025839774248504,0.00276352067735471,0.004546223192384767,0.004446001977955915,0.007435950022044088,0.03641584809619239,1.5741653239899798,0.7058406670200401,-0.01027168359719439,0.015485429274549097,0.7081267978076151,0.0,398704024.0,327434201.3805612,441044.180508016,12.07,0.0481401728016032,12.076046726913829,1.278140172801603,1.5663516436332665,0.0,0.0,0.0,39.8714138,32.7364372,-112.39442058777556,598.7879592250501,-40.59231807591183,0.05174018838276553,12.110660941883767,1.3567302218276553,0.04102515253306611,-0.019426338741482956,-0.020450043779559147,1.5651570121182363,40.67548110763527,0.006760949220440881,0.07835449766332667,0.002064681879759519,0.0,216248541.9478958,0.0,0.0,0.0,0.0,1.0
216327830.0,0.0005180085150300589,0.3465307047314629,-0.011368191583166333,0.0,1.0,1494.0,2000.0,1000.0,1499.629258517034,1499.370741482966,1670.370741482966,11.794178099979959,12.048281932965931,11.890611073507015,12.027578075210421,12.286851124028056,13.095778848677355,13.378076665551102,86.69544272753507,86.69544272753507,12.13920086016032,-0.00038487435270541083,-0.005855805957915832,0.0003689943246492986,-0.2621164166352705,0.2177982209278557,-0.00854228923246493,2.0,8.962828637987975,9.962828637987975,11.0,0.0,0.0,1.0,0.0,0.0,0.0,0.0,0.0,0.0,0.0,0.0073489605991983965,0.03838071508617234,1.574212783965932,1.5700449521783568,-0.14562722435871744,269.39724698376756,34.67938344304609,-0.0033269070561122247,0.2988391648016032,-0.007872098026052104,0.0,-0.2556523538116232,0.12691433166332675,-9.742965154979961,-1.05e+21,961.5034416809619,12.141566714929859,0.001749483054108216,-0.005455555891783571,0.00375856543086171,-0.27102935672945894,0.17022086075150297,-9.77697853059519,0.00464673971943887,-0.010675273256513023,0.0008950236553106252,-1.05e+21,39.255457233306615,41.72954012380762,-1.461926719971944,-1.350044644462926,10.216174732104207,12.203742176673346,-0.03975134891382765,0.006139794845691382,-0.13159327436673346,154.8719008763527,440.08501258116235,12.141523735210422,96149.51329921844,1.142415272739479,-0.2137133411903802,0.029376197587172692,-0.3331970251242484,0.0017207569338677365,0.005044692274549104,0.001099955468937875,0.007685785931863727,0.03594458189579158,1.5741406291042084,0.7058529279539077,-0.010016438056112225,0.01540770865531062,0.7081197465190381,0.0,398704024.0629259,327434314.7076152,440943.4080987976,12.07,0.05773873827054108,12.078421704088177,1.289222826234469,1.5655813904328657,0.0,0.0,0.0,39.8714138,32.7364372,-112.39137186372746,599.7792298755511,-40.48759854905812,0.05399152178957915,12.112231978977956,1.356981601186373,0.1075110981583166,-0.04257468159318636,0.05085749871743482,1.5650939012284568,40.57076231739479,0.006869443416833668,0.0780159480981964,0.002185200342685371,0.0,216327830.12224448,0.0,0.0,0.0,0.0,1.0
216408168.0,8.588574949899895e-05,0.3419436269559118,-0.011627629086172344,0.0,1.0,1493.765601266533,2000.0,1000.0,1499.254509018036,1499.745490981964,1670.0180360721442,11.839836049619239,12.094856171482967,11.88081504488978,12.018163866693387,12.27717122955912,13.09788025252505,13.380154467054108,86.65055819444889,86.65055819444889,12.139863558597195,-0.0003846263146292585,-0.005856314661322646,0.000369357755511022,-0.2620927094769539,0.2177380362765531,-0.0082092467755511,2.0,8.967055134791583,9.967055134791583,11.0,0.0,0.0,1.0,0.0,0.0,0.0,0.0,0.0,0.0,0.0,0.0075056158697394786,0.03798927250300601,1.5741900617094189,1.5700444954829658,-0.14486525879158316,268.4356666867736,34.68564887753507,-0.00331604797995992,0.2991974661743487,-0.007855993975951905,0.0,-0.2391295706933868,0.09110525432264528,-9.779042528519039,-1.05e+21,961.5188829116232,12.14230062513026,0.0005153236112224544,0.000620623685370748,0.0017140552384769547,-0.25378529537875755,0.14941351513627263,-9.755528291689378,0.005635197420841687,-0.011351545513026053,0.0013164344408817612,-1.05e+21,39.11399714006012,41.624203094188374,-1.4617438602525052,-1.3506373998737475,10.216125295430862,12.206882629639278,-0.039815145967935874,0.0067558290240480965,-0.13225308453507015,154.854991593988,440.0277030310621,12.142182429018035,96150.17587262526,1.142423111198397,-0.19553322803206383,-0.20093718433867774,-0.30325795874949957,0.005254486394789581,0.0005930288697394798,-0.0012833242284569027,0.008001131981963927,0.031655782352705414,1.574116542997996,0.7058826063306614,-0.008386248769539079,0.014006010855711425,0.7081404814729458,0.0,398704024.3763527,327434425.3302605,440842.35808857717,12.07,0.056235041444889784,12.072469708316634,1.2975299146012023,1.5657800040480963,0.0,0.0,0.0,39.8714138,32.7364372,-112.38786034108216,600.7173808547095,-40.3882827846493,0.05741556581162324,12.113346436713426,1.3583523396613226,0.019706925250501113,-0.042191361619238484,0.061677853775551114,1.5650944754689378,40.471447346813626,0.007262263727454909,0.06917896564729459,0.0022538979959919837,0.0,216408168.4008016,0.0,0.0,0.0,0.0,1.0
216492804.0,-0.0003182153907815634,0.3437491817374749,-0.011060851086172347,0.0,1.0,1493.8892604408818,2000.0,1000.0,1499.4822456873746,1499.5177543126254,1671.7582352745492,11.88969876026052,12.145675679398797,11.871019026272545,12.008749668176351,12.267491335090181,13.099981661462927,13.382232268557114,86.60567365136272,86.60567365136272,12.140526261943887,-0.0003843792765531062,-0.005856823364729459,0.0003697201863727455,-0.26206900194789584,0.2176778516252505,-0.007876204438877755,2.0,8.971281631224448,9.971281631224448,11.0,0.0,0.0,1.0,0.0,0.0,0.0,0.0,0.0,0.0,0.0,0.007662272140280559,0.037597830919839675,1.574167339961924,1.5700440387875751,-0.1441032942244489,267.47408634068137,34.69191430693387,-0.0033079750701402806,0.2995315824629259,-0.007839595623246494,0.0,-0.20997731121643287,0.1292852360661322,-9.777028993326654,-1.05e+21,961.5320165931864,12.14301486274549,0.00750488600801601,-0.008821916601202396,0.0021517597795591165,-0.26726162762324646,0.1415560834428857,-9.744349910543086,-0.0014131107174348628,-0.011804840234468936,-2.1077234468890906e-06,-1.05e+21,38.983120754629255,41.5270903852505,-1.461730804971944,-1.3512472403927855,10.216078413246493,12.19902044488978,-0.03965883388977956,0.006741934410821644,-0.1325201206713427,154.8344277016032,439.8845137166332,12.142833846092184,96151.81882671342,1.1424427199559117,-0.060601965647295086,-0.10382967013627231,0.06227048516633265,-0.0018204831482965837,0.004275972679358709,-0.0011401237895791692,0.0081689411002004,0.035678566779559114,1.5740982791963927,0.7058714390340682,-0.009751387847695388,0.015485107482965929,0.7081028357094188,0.0,398704024.7759519,327434535.2717435,440741.2493046092,12.07,0.05237592401603207,12.064751093687374,1.3052481479679359,1.566184169717435,0.0,0.0,0.0,39.8714138,32.7364372,-112.38415544509017,601.6677593503006,-40.28761323496994,0.06052877936873747,12.114967481322646,1.358820643256513,-0.015337858975951961,0.0010735467795590578,0.006571503126252584,1.5650602801823648,40.37077857725451,0.007178660336673346,0.07797301109218435,0.0023672941963927855,0.0,216492804.14228457,0.0,0.0,0.0,0.0,1.0
216565790.0,0.001444686164328656,0.3453097262324649,-0.01126610743286573,0.0,1.0,1494.0,2000.0,1000.0,1499.1982053226452,1499.8017946773548,1669.9899799599198,11.796031305611223,12.0499997350501,11.861223002605211,11.99933546965932,12.257811440621243,13.102083067855713,13.384310075110221,86.56078911332665,86.56078911332665,12.141188967835673,-0.0003841317334669339,-0.0058573320681362725,0.00037008361723446894,-0.2620452949238477,0.2176176669739479,-0.007543161861723446,2.0,8.975508127657314,9.975508127657314,11.0,0.0,0.0,1.0,0.0,0.0,0.0,0.0,0.0,0.0,0.0,0.007818927410821644,0.03720638933667335,1.5741446174549099,1.5700435830921844,-0.1433413286573146,266.51250596913826,34.69817974392785,-0.003295455985971944,0.29991364770340684,-0.007811346124248497,0.0,-0.1940829595270541,0.1925065488096193,-9.719180063106213,-8.525410821643279e+20,961.5391779142285,12.143658800581163,0.002803410482965923,-0.014366235659318634,-0.0019053852665330674,-0.2238933585871743,0.13511459318036073,-9.833286560713427,-0.006458340302605205,-0.01333122380761523,-0.005431130048096196,-8.525410821643279e+20,38.854805483507015,41.43196785899799,-1.4617588404228457,-1.3518612146452906,10.21603213236473,12.188495776513026,-0.03944925795791583,0.006575604769539078,-0.13269211118036073,154.81297943326652,439.8934933036072,12.143493621963927,96151.72124022045,1.1424414829218437,0.14268534467535254,0.19472610961523057,0.38747786625451036,0.0014582427815631204,0.004430421769539061,-0.0019615790701402944,0.008188471891783568,0.03384810078557114,1.574074009204409,0.7058888779539079,-0.009096142456913826,0.01484618587775551,0.7081082536733467,0.0,398704025.151503,327434645.84368736,440640.1404206413,12.07,0.04851680683767535,12.06148234234469,1.3085168093326653,1.5664847636753507,0.0,0.0,0.0,39.8714138,32.7364372,-112.38037801783567,602.6405261344689,-40.184676806873746,0.06252655646492987,12.117477549839679,1.3578541244208417,0.05606444363326654,0.04686878547294585,-0.053972361330661286,1.5649974438176353,40.26784256557115,0.007208379665330661,0.07553590406012023,0.0023526696212424853,0.0,216565789.8496994,0.0,0.0,0.0,0.0,1.0
216641630.0,0.0006111741402805615,0.34074680755911824,-0.011132576386773549,0.0,1.0,1494.0,2000.0,1000.0,1498.0,1501.0,1672.1302605210421,11.786918164108217,12.040653325390782,11.851426979038076,11.989921271142284,12.248131546152305,13.104184472945892,13.386387881563126,86.51590457519038,86.51590457519038,12.141851673727455,-0.0003838842004008016,-0.005857840771543087,0.0003704470480961924,-0.2620215878897796,0.2175574823226453,-0.007210119274549098,2.0,8.979734624090181,9.979734624090181,11.0,0.0,0.0,1.0,0.0,0.0,0.0,0.0,0.0,0.0,0.0,0.007975583551102205,0.0368149476232465,1.5741218949579157,1.5700431263967936,-0.14257936395991985,265.5509255975952,34.70444517212425,-0.0032856979498997996,0.3002657682024048,-0.007795220971943888,0.0,-0.2015682251923847,0.21756607538677356,-9.763560927428857,-1.770941883767531e+20,961.545376569539,12.14428580256513,-0.004821992957915855,-0.003780208020040092,-0.00013332921242485555,-0.18690374161523027,0.10703130521042072,-9.761150330146293,0.0013433843567134205,-0.012891946585170337,-0.006013862541082176,-1.770941883767531e+20,38.7267449797996,41.33679773466934,-1.4641681761062124,-1.352055308496994,10.21598125246493,12.178756423947895,-0.03925548648096193,0.007248061651302602,-0.13285564329058117,154.78827702204407,439.71477499058113,12.144167559218436,96153.78846394789,1.1424661094789579,0.09740794664929772,-0.34448349575551085,-0.2657781215250512,0.0042429734929859755,0.002200735575150304,0.0045410426132264595,0.008315220703406814,0.030085388466933868,1.5740492562304609,0.7059139595210422,-0.007718835062124249,0.013563292641282566,0.7081253996593186,0.0,398704025.5260521,327434757.4358717,440539.03153667337,12.07,0.04465769177955912,12.065341840961924,1.3046576927795592,1.5666194465591183,0.0,0.0,0.0,39.8714138,32.7364372,-112.37644031122244,603.5653871703407,-40.087015443607214,0.0638852718777555,12.120257560581162,1.357347684987976,0.04130092354909823,-0.007022881603206426,0.002002422577154288,1.5650579740961923,40.17018047679359,0.007147907482965932,0.06767741456513028,0.0025177935851703405,0.0,216641630.26452905,0.0,0.0,0.0,0.0,1.0
216716429.0,-0.0002700519659318651,0.33866008523847696,-0.011400452943887779,0.0,1.0,1494.0,2000.0,1000.0,1499.5110220440881,1499.4889779559119,1671.4889779559119,11.863664721563126,12.118903790881763,11.841630960420842,11.98050707262525,12.238451651683366,13.106285880641282,13.388465683066132,86.4710200321042,86.4710200321042,12.142514377174349,-0.00038363716232464937,-0.0058583494749499,0.0003708094789579158,-0.26199788036072147,0.21749729767134268,-0.006877076947895792,2.0,8.983961120523047,9.983961120523047,11.0,0.0,0.0,1.0,0.0,0.0,0.0,0.0,0.0,0.0,0.0,0.008132238951903807,0.03642350517034068,1.5740991732004008,1.5700426704569137,-0.1418173985230461,264.589345250501,34.710710610320646,-0.0032760110881763526,0.30058299185170345,-0.007778990883767535,0.0,-0.2644704478857716,0.21131660714228456,-9.789163245320642,-7.417995991983975e+20,961.5534713627255,12.144930245791583,-0.0004159312645290684,-0.011024744699398821,-0.006140350206412841,-0.2187670632905811,0.20775024739278564,-9.757849134985971,0.005621722957915834,-0.01575675548897796,0.005664496569138288,-7.417995991983975e+20,38.599160336392785,41.24153872352706,-1.471025407016032,-1.351465130527054,10.215921760741484,12.170483898897794,-0.03909123454509018,0.009487240777555112,-0.13300337368537074,154.75749665230464,439.6142165276553,12.144819298817636,96154.92730288577,1.1424796384008016,-0.02846767627054203,0.4125287515410837,0.3694886560921846,0.00339633978957916,0.001954742268537076,-0.00036729507414830003,0.008390584519038076,0.03349947033667336,1.5740297909639278,0.705906605258517,-0.008901021631262527,0.014794905787575151,0.7080932547815632,0.0,398704025.9266533,327434868.9280561,440437.9226771543,12.07,0.04079857672144289,12.069201339579157,1.3007985769659318,1.5667541294428857,0.0,0.0,0.0,39.8714138,32.7364372,-112.37282745931864,604.5444325284569,-39.98390922655311,0.06445244249298597,12.123180246152305,1.3566646146693386,0.016355350368737455,0.019802785733466968,0.007841787326653301,1.5651514900801602,40.06707281370741,0.007111161729458918,0.07439366653106214,0.002598903625250501,0.0,216716429.33466935,0.0,0.0,0.0,0.0,1.0
216789273.0,0.0013236709278557136,0.3463719472925852,-0.010962895877755511,0.0,1.0,1494.0,2000.0,1000.0,1500.0,1499.0,1669.6192384769538,11.889037553026052,12.144803460961924,11.831834931803607,11.971092874108217,12.22877175721443,13.108387287034068,13.390543484569138,86.42613549901803,86.42613549901803,12.143177079318637,-0.000383389124248497,-0.005858858178356713,0.00037117290981963935,-0.26197417321242483,0.2174371130200401,-0.006544034110220442,2.0,8.988187617336672,9.988187617336672,11.0,0.0,0.0,1.0,0.0,0.0,0.0,0.0,0.0,0.0,0.0,0.00824588370541082,0.035808846863727456,1.574076421531062,1.570042214006012,-0.14105542138677354,263.62771065991984,34.71767891689379,-0.003264337523046092,0.3009579495170341,-0.00776045597995992,0.0,-0.2692949811362726,0.13798212650100217,-9.815363489591181,-1.05e+21,961.5567189090181,12.145563753306613,0.0012693401362725587,-0.011150046899799593,0.0036180515911823892,-0.25015478534468955,0.13873237993186355,-9.821934150831664,0.002978200434869749,-0.010746274995991999,0.005252412196392799,-1.05e+21,38.47067058727455,41.145526255170346,-1.4775066615751502,-1.350977701945892,10.215863511603207,12.163115236973947,-0.038945035002004004,0.011633350222444886,-0.1330914922945892,154.7260215581162,439.5257565092184,12.145475789258517,96155.9382529459,1.1424916052865732,-0.2703405764388782,-0.18741479793386792,-0.40971792292985976,0.0001607368096192476,0.006630850316633278,-0.000661192849699396,0.008514456789579157,0.0323126811723447,1.5740062869198397,0.7059209621342686,-0.008436899613226455,0.014420043675350705,0.7080931703326654,0.0,398704026.3142285,327434982.2913828,440335.2835905812,12.07,0.03693946028256514,12.07,1.2908183798476955,1.5669956561723448,0.0,0.0,0.0,39.8714138,32.7364372,-112.36868579478958,605.536062629058,-39.88000470735471,0.06616323561322646,12.125805540801604,1.3565702202805612,0.03423459975350694,0.030432356705410835,-0.007315714853707384,1.5651947581442884,39.96316770735471,0.00714245922244489,0.07390833801002006,0.002674922310621242,0.0,216789272.6232465,0.0,0.0,0.0,0.0,1.0
216871069.0,5.9439679358717405e-05,0.3425263761042084,-0.011054432937875752,0.0,1.0,1494.0,2000.0,1000.0,1499.6665498356713,1499.3334501643287,1672.006012024048,11.861027420661323,12.116216948697394,11.822038913186372,11.961678675591182,12.219091862745492,13.110488693426854,13.392621286132265,86.38125095593188,86.38125095593188,12.143839781462926,-0.0003831420861723447,-0.005859366881763527,0.0003715353466933868,-0.2619504663026052,0.21737692836873745,-0.006210992028056112,2.0,8.992414114388778,9.992414114388778,11.0,0.0,0.0,1.0,0.0,0.0,0.0,0.0,0.0,0.0,0.0,0.008333952779559117,0.03506145329258517,1.574053651771543,1.5700417573106211,-0.14029343731663327,262.6660437625251,34.72506519290581,-0.0032557555410821643,0.30129399020641284,-0.007743124162324647,0.0,-0.23119381457314628,0.07939602258316636,-9.802528767533067,-1.05e+21,961.5664097266533,12.146248130741482,0.004191882412825651,-0.01199751970941883,-0.002009471855711421,-0.2569943872945893,0.21525697120040072,-9.778568652723447,-0.0008218807194388776,-0.003945855210420842,-0.0009946830921843694,-1.05e+21,38.33229772214429,41.041286486913826,-1.4798825158176352,-1.3516122261623247,10.215818786192385,12.16561616733467,-0.038995949815631266,0.012763192074148296,-0.13252867555511022,154.6869605054108,439.46194580661324,12.146152821182365,96156.6964404008,1.1425005899639278,-0.15993586955711395,-0.135091524961924,0.07888607549498995,0.004738664066132264,-0.0004736735490981908,-0.0019044446252505034,0.008610226585170341,0.02814605585571143,1.5739818832004007,0.7059460671042085,-0.0069275381322645305,0.012983559468937879,0.7081127182525051,0.0,398704026.7012024,327435096.12144285,440232.24514669337,12.07,0.03308034359919839,12.07,1.2792410307975952,1.5672650615651302,0.0,0.0,0.0,39.8714138,32.7364372,-112.36470573707415,606.5013613639279,-39.779305576773545,0.06838850928056112,12.127818184629259,1.3556486743086171,0.055436126160320634,0.04008736280160323,-0.010747998867735458,1.5651888282464932,39.86246885965932,0.007005502683366734,0.06641264710821643,0.00278571224248497,0.0,216871068.8256513,0.0,0.0,0.0,0.0,1.0
216944914.0,-0.0005478281262525023,0.3429436071222445,-0.010658401693386775,0.0,1.0,1494.0,2000.0,1000.0,1500.0,1499.0,1671.9372461823648,11.868686029238477,12.12388756204409,11.812242888256513,11.952264477074149,12.209411968276552,13.112590103507014,13.39469909757515,86.33636641915831,86.33636641915831,12.144502487294588,-0.00038289441683366735,-0.005859875585170341,0.00037189877154308616,-0.2619267587735471,0.21731674371743487,-0.005877948945891784,2.0,8.996640610821643,9.996640610821643,11.0,0.0,0.0,1.0,0.0,0.0,0.0,0.0,0.0,0.0,0.0,0.008422021853707414,0.034314060090180364,1.5740308826432865,1.570041301246493,-0.139531453246493,261.70437686513026,34.7324514787976,-0.003244774264529058,0.3016109547234469,-0.00770983750501002,0.0,-0.18991816370541093,0.11508500282765523,-9.736735063460921,-1.05e+21,961.5917383138277,12.147012057855711,-0.0009757621102204168,-0.006890181933867722,-0.00259043645090179,-0.3192760410040083,0.13074976394589166,-9.801438140989982,0.00030753541683366335,-0.004426579549098192,-0.00335633219438877,-1.05e+21,38.18966233146293,40.933498345951904,-1.4804877422204408,-1.3527306396753507,10.215779903887775,12.17237378014028,-0.03913187827254509,0.013454725416833667,-0.13168511528657315,154.64462776813625,439.3052025234469,12.146806588436874,96158.47900416834,1.1425217604448898,0.15350072895390815,-0.10479634297194493,0.2972630576312613,0.005004887537074147,0.006340437841683368,-3.6756450901827796e-05,0.008705207791583167,0.033368697292585174,1.57396398750501,0.7059324173907816,-0.008743186599198396,0.014860445480961923,0.7080692900140281,0.0,398704027.0893787,327435208.8521042,440130.66876993986,12.07,0.03339849557314628,12.071044316533065,1.274973900266533,1.5671881601362725,0.0,0.0,0.0,39.8714138,32.7364372,-112.36145488557115,607.4183529565131,-39.68390206609219,0.06995730886973947,12.129521426873747,1.3530952668777556,0.04617973154108215,0.07002825986372745,0.013074035106212387,1.5651340863246492,39.76706613541082,0.0070921594529058125,0.07358004646693383,0.0028209026953907815,0.0,216944914.11222446,0.0,0.0,0.0,0.0,1.0
217018735.0,0.0005934431342685366,0.3463384220541082,-0.010687666116232465,0.0,1.0,1494.0,2000.0,1000.0,1499.0,1500.0,1669.743486973948,11.841030216873747,12.09554465977956,11.802446865951904,11.942850278557113,12.199732073807615,13.114691506212425,13.396776899078157,86.29148187975953,86.29148187975953,12.145165193186374,-0.0003826470100200401,-0.005860384288577154,0.0003722614589178357,-0.261903051501002,0.21725655906613228,-0.005544906863727455,2.0,9.000867107254509,10.0,11.0,0.0,0.0,1.0,0.0,0.0008671072545090188,0.0,0.0,0.0,0.0,0.0,0.008510090927855712,0.033566666893787574,1.574008113252505,1.5700408449198395,-0.13876946917635272,260.7427099677355,34.7398377547495,-0.0032351641462925857,0.301966331490982,-0.007671166058116232,0.0,-0.15582049874148296,0.15159596915430862,-9.756647544066132,-1.05e+21,961.6088398683366,12.147674772364729,0.003711477048096193,-0.010232342777555109,-0.0013740916673346698,-0.28627786840681363,0.19248957953106213,-9.760974717232465,0.0035396605090180365,-0.008735616006012026,-0.008513408673346693,-1.05e+21,38.05027613729459,40.828125520961926,-1.4863361533186374,-1.3538729300541084,10.215739109258518,12.17847787793587,-0.03925477516833668,0.014770878987975952,-0.1307463529318637,154.60270506492986,439.1231774973948,12.147465464689379,96160.58379374749,1.1425467521122246,0.09225666285971953,-0.2105676212404809,0.12344775127254497,-0.00019145852705410732,0.00784531882765531,-0.00021088824048096208,0.008752691074148297,0.030330970428857715,1.5739394212625248,0.705953508268537,-0.007650630310621242,0.013805270092184367,0.7080819066212425,0.0,398704027.4513026,327435318.71462923,440032.66138517036,12.07,0.043913668302605215,12.074637892484969,1.2885515580701403,1.5662659007555109,0.0,0.0,0.0,39.8714138,32.7364372,-112.3574636729459,608.3403172731462,-39.587815663466934,0.07081921151102205,12.132540239118237,1.3522702014689378,0.06600151267735471,0.04670277010621242,0.023547039995991982,1.5650209210861723,39.670980408857716,0.006888381993987976,0.07345663329659319,0.0029757882765531064,0.0,217018734.61322644,0.0,0.0,0.0,0.0,1.0
217098510.0,0.0007757193667334603,0.3406678020320642,-0.010295173170340682,0.0,1.0,1494.0,2000.0,1000.0,1499.1869709018038,1499.8130290981962,1672.5270541082164,11.820402681623246,12.074383838877756,11.792650838517035,11.933436080040078,12.190052179338677,13.116792913787576,13.398854700581163,86.24659734549098,86.24659734549098,12.145827897895792,-0.0003823999719438878,-0.005860892991983968,0.00037262463326653307,-0.26187934471543084,0.2171963744148297,-0.005211863781563127,2.0,9.005093603687374,10.0,11.0,0.0,0.0,1.0,0.0,0.005093603687374741,0.0,0.0,0.0,0.0,0.0,0.008598160002004007,0.032819273579158315,1.5739853434929858,1.570040388224449,-0.1380074851062124,259.7810430703407,34.7472240307014,-0.0032265181563126254,0.302281162759519,-0.007639853320641283,0.0,-0.177610397274549,0.14777884400400806,-9.781560426773547,-1.05e+21,961.6016722154309,12.1483049202004,0.005323149567134266,-0.005341080675350712,0.005458761929859686,-0.28185686137074156,0.20476648121042085,-9.802503061268537,0.0059594271022044044,-0.007216351737474959,-0.002916509382765553,-1.05e+21,37.923478116392786,40.73211021448898,-1.5124979699078156,-1.3551077231302606,10.215690888076153,12.18205012977956,-0.03932718332865731,0.0185069649519038,-0.12943875439078156,154.5623708981964,439.1074786034068,12.148137968216433,96160.75883314629,1.142548861026052,-0.09621589047094015,-0.6070192577014006,0.2177728652384752,0.002549386344689379,0.0018299063567134342,-0.0015869035691382727,0.0087611237995992,0.02656856734268538,1.573915367733467,0.7059752315531062,-0.006315269751503008,0.012480446751503008,0.7080982368877756,0.0,398704027.864529,327435428.33086175,439935.02576152305,12.07,0.05549101835270538,12.078497009859719,1.3039880239218435,1.5652555841663327,0.0,0.0,0.0,39.8714138,32.7364372,-112.35319087214427,609.3130444633265,-39.486807731883765,0.071449882250501,12.133156034448897,1.3499191496332668,0.038932844056112324,0.016434414458917898,0.003953899336673412,1.5649541069058117,39.56997209863727,0.006879367464929859,0.06507403734068137,0.0029878139799599203,0.0,217098510.47094187,0.0,0.0,0.0,0.0,1.0
