timestamp,control[0],control[1],control[2],control[3],control[4],output[2],output[3],output[4],output[5],output[6],output[7],indicated_airspeed_m_s,true_airspeed_m_s,indicated_airspeed_m_s.1,equivalent_airspeed_m_s,true_airspeed_m_s.1,equivalent_ground_minus_wind_m_s,true_ground_minus_wind_m_s,differential_pressure_raw_pa,differential_pressure_filtered_pa,temperature,gyro_bias[0],gyro_bias[1],gyro_bias[2],accel_bias[0],accel_bias[1],accel_bias[2],instance_count,seq_reached,seq_current,seq_total,item_changed_index,item_do_jump_remaining,valid,warning,finished,failure,stay_in_failsafe,flight_termination,item_do_jump_changed,execution_mode,nav_roll,nav_pitch,nav_bearing,target_bearing,xtrack_error,wp_dist,acceptance_radius,rollspeed_integ,pitchspeed_integ,yawspeed_integ,additional_integ1,x,y,z,temperature.1,pressure,temperature.2,gyro_rad[0],gyro_rad[1],gyro_rad[2],accelerometer_m_s2[0],accelerometer_m_s2[1],accelerometer_m_s2[2],x.1,y.1,z.1,temperature.3,altitude_sp,altitude_filtered,height_rate_setpoint,height_rate,airspeed_sp,airspeed_filtered,airspeed_derivative_sp,airspeed_derivative,throttle_integ,pitch_integ,baro_alt_meter,baro_temp_celcius,baro_pressure_pa,rho,xyz[0],xyz[1],xyz[2],xyz[0].1,xyz[1].1,xyz[2].1,roll_body,pitch_body,yaw_body,q_d[0],q_d[1],q_d[2],q_d[3],thrust_body[0],lat,lon,alt,vel_m_s,vel_n_m_s,vel_e_m_s,vel_d_m_s,cog_rad,ground_contact,maybe_landed,landed,ref_lat,ref_lon,x.2,y.2,z.2,vx,vy,vz,ax,ay,az,yaw,dist_bottom,roll,pitch,yaw.1,thrust_body[0].1,timestamp.1,isTakeoff,isClimbing,isDescending,isCruise,isLand
44688251.0,-0.045757291,0.012861668,0.046889919,0.22031981,0.0,1520.0,1500.0,1219.0,1524.0,1475.0,1507.0,13.81135257,14.15343249,13.93468738,13.98543209,14.3317055,14.68632903,15.04995743,120.0398043,120.0398043,11.71937794,-0.001782926,-0.006009484,0.00048742,-0.191229529,0.199545048,-0.050959039000000005,2.0,-0.236847369,0.763152631,11.0,0.0,0.0,1.0,0.0,0.0,0.0,0.0,0.0,0.0,0.0,0.540690107,-0.030052219,1.223288859,1.510209826,13.68148289,258.9958958,41.10675159,-0.032121315,-0.035564122000000004,-0.096552153,0.0,0.123901308,1.069853083,-10.67367774,-1.05e+21,954.0282876,11.71852272,-0.052270649,0.167090187,0.432122614,0.12494027,1.061353964,-10.56981441,-0.068317795,0.168207473,0.430413252,-1.05e+21,100.08058,105.060603,-0.249001005,-1.154130308,15.37122072,14.44107688,0.018602875,0.531266229,-0.328749098,53.30657057,505.2106593,11.71861896,95402.17412,1.133535658,-0.34724934,-0.188049604,0.004664289,-0.061644627,0.177857375,0.42917227,0.528268153,-0.032048804,1.244171959,0.781941447,0.22115141,0.139545837,0.565848748,0.218575965,398748723.7,327364643.1,505598.7065,14.30127127,11.76826866,8.128654739,-0.463180616,0.604128619,0.0,0.0,0.0,39.8714138,32.7364372,386.8705161,4.168333912,-105.5913059,10.9208816,9.235258522999999,-0.131190206,-4.371490502,4.778660233,1.425978839,0.7584143870000001,105.6744659,-0.070396022,0.132277934,0.419406451,0.2185975,44688251.0,0.0,0.0,0.0,1.0,0.0
45019703.0,-0.04870841653507014,0.0205009162004008,0.026286948601202408,0.21808804649298597,0.0,1508.4151121683367,1500.0,1216.563126252505,1526.4253380961923,1472.5746619038077,1509.4407191102205,13.788672100881763,14.130320130941884,13.823807632845691,13.86872967228457,14.212157891242486,14.623232773126253,14.985343986232465,118.41134791903808,118.41134791903808,11.718935000440881,-0.0017722577655310623,-0.006005052290581163,0.00046231511623246493,-0.19101773868537075,0.19915386535671342,-0.05008947709218437,2.0,-0.22010815008216433,0.7798918499178356,11.0,0.0,0.0,1.0,0.0,0.0,0.0,0.0,0.0,0.0,0.0,0.4960638531002004,-0.033595306456913825,1.3070149942965932,1.522626117719439,10.342625397575151,255.83868905611223,40.895441725210425,-0.032181933352705416,-0.036254521486973945,-0.0973462660480962,0.0,0.17966330856312623,1.0721710214549098,-10.572300434669339,-1.05e+21,954.0140662857716,11.718668415751504,-0.0939739742745491,0.15678082131262525,0.40625443919238474,0.1540237087975952,1.0837836473026052,-10.571664566553105,-0.09393392262925851,0.1500170688717435,0.4020004196933868,-1.05e+21,100.08058,104.69863245731463,-0.23090242608016032,-1.4037806516172344,15.370894973246493,14.62139364997996,0.014990030228456915,0.6563572410701403,-0.3306091049458918,51.55051548735471,505.2317912396794,11.718545177054109,95401.90971887775,1.133532483769539,0.12955775119238483,-0.17862386999198415,0.09834756980561123,-0.09098382253106213,0.1669749408216433,0.3985670398517034,0.48013756487975956,-0.034482213138276555,1.3228968733226452,0.7638360751843688,0.1978853485250501,0.13281151394188379,0.5997879957034068,0.21528681885971943,398749034.79719436,327364973.547495,505667.5534288577,14.184109128857715,10.383251135110221,9.626391999893787,-0.09912025137274552,0.7476922310581162,0.0,0.0,0.0,39.8714138,32.7364372,390.03681262585167,7.232978687797595,-105.58600604148296,9.500436112513027,10.61609192775551,0.27801465182565127,-4.6516883898276555,4.177449521787575,1.3181639691182363,0.8960510851723447,105.66916672304609,-0.0924803868737475,0.1397604080741483,0.3592067327054108,0.21551770681362725,45019703.15631262,0.0,0.0,0.0,1.0,0.0
45345035.0,-0.05475522456713427,0.023290833753507014,0.0003246445030060138,0.21434622182364732,0.0,1496.25250501002,1500.0,1213.12625250501,1528.87374749499,1470.12625250501,1511.0,13.854120016573146,14.19725470218437,13.899440264428858,13.943070384569138,14.288288782484969,14.69674896751503,15.060626993727455,119.44862843807616,119.44862843807616,11.720009730881765,-0.0017631045310621243,-0.0059988497074148295,0.00043670635871743486,-0.19059505937074148,0.19871143671342686,-0.04909537818436874,2.0,-0.20336893016432867,0.7966310698356713,11.0,0.0,0.0,1.0,0.0,0.0,0.0,0.0,0.0,0.0,0.0,0.4448795973266534,-0.034237504913827654,1.3794534655931865,1.533479140438878,7.4600795043927866,252.32964511222448,40.90027038168337,-0.03220608428056112,-0.03655499567735471,-0.0991277162985972,0.0,0.196842778498998,0.9675155560941884,-10.506888472064128,-5.7788376753507035e+20,954.0401921571142,11.719599565531063,-0.12160634682965932,0.13162765556112224,0.38028134351302606,0.30160754284569136,1.0201994700781563,-10.45013579486974,-0.11957540900801603,0.12702355526853706,0.37689743875951903,-5.7788376753507035e+20,100.08058,104.2321792735471,-0.20757993788977955,-1.6127799588076153,15.370708482424849,14.870291025410822,0.010008357889779558,0.7512094712865731,-0.33256556099398793,49.88438191835671,505.12373784048094,11.719266780661323,95403.16580472946,1.1335474159138277,-0.48408047808617216,-0.11083737447094176,-0.31478319493386775,-0.12054593943887776,0.1421929328737475,0.37315654248897795,0.4285128226693387,-0.03416899338276553,1.3922760673126253,0.7473374283086172,0.17383041466733468,0.12351408301202405,0.629290292016032,0.21103561587975952,398749307.01202404,327365348.39759517,505623.35471242486,14.161997788697395,8.9523381587495,10.955971658296594,0.3502826173567134,0.885588280765531,0.0,0.0,0.0,39.8714138,32.7364372,392.8002782671343,10.76510933002004,-105.45654248076151,8.006058397981965,11.820385371663328,0.6642836458757515,-4.708175390428858,3.534429831747495,1.1072841004008016,1.0267480910961924,105.53970248076152,-0.11886040273547094,0.13994269850701402,0.2927735154228457,0.21117513605811625,45345035.33466934,0.0,0.0,0.0,1.0,0.0
45648889.0,-0.056845048248497,0.02644991782765531,-0.02496041416432866,0.20791090340881765,0.0,1483.689378757515,1500.0,1203.7445166052103,1528.0846729458917,1470.9153270541083,1512.9153270541083,13.952782250741484,14.298212713186372,13.975072888537074,14.017411086853707,14.364419673727456,14.770265166272544,15.135910005591183,120.48590898817635,120.48590898817635,11.721084464428857,-0.0017539512965931863,-0.005992646871743487,0.0004110973486973948,-0.19017237974549098,0.19826900707014028,-0.048101279276553104,2.0,-0.186629710246493,0.8133702897535069,11.0,0.0,0.0,1.0,0.0,0.0,0.0,0.0,0.0,0.0,0.0,0.38747299183366735,-0.030527019236472944,1.4351412224629259,1.5420116570040079,5.235730956410822,248.41546825410822,41.17777387621243,-0.03217676418236473,-0.03632674204408817,-0.10186813157915832,0.0,0.05835356785771542,0.8334153313226452,-10.204720734749499,-1.05e+21,954.0772178589178,11.721256744168336,-0.1379431888797595,0.10270542746893788,0.34018908021843686,0.09171437176553106,0.8972556202925851,-10.248853790320641,-0.1408914710300601,0.10325056757114229,0.3271329363026052,-1.05e+21,100.08058,103.75562886873747,-0.183752361254509,-1.7265500270801601,15.37042226513026,15.083970101282565,0.005729047855711423,0.8003105407615231,-0.3343034001503006,48.57523415523046,504.8799404683367,11.720738167094188,95405.9194639078,1.133580142767535,-0.07225523047094179,0.05177483307014031,-0.06642822561322659,-0.13811051378757513,0.11543782293787574,0.33439063370140276,0.37329258334268534,-0.02986112185971944,1.4497624991222446,0.7336530969278557,0.1486221939799599,0.1120387877274549,0.6535290425871744,0.19786172524448897,398749537.1330661,327365775.6737475,505454.42141182366,14.224479384248497,7.465569362200402,12.093526244248496,0.6891847184989981,1.0175605629118236,0.0,0.0,0.0,39.8714138,32.7364372,395.04023844468935,14.546469058456914,-105.22193718837674,6.572115493841683,12.792518868697394,0.9999172928577155,-4.492887733036072,2.8064859021603206,1.0452943785330662,1.1420812327074148,105.30509718837675,-0.1286477619478958,0.1486599926953908,0.23291247316633268,0.19807002579158317,45648889.47695391,0.0,0.0,0.0,1.0,0.0
45970113.0,-0.05717740486172345,0.030666869681362723,-0.049977283885771544,0.19477101773547095,0.0,1473.0202867214427,1500.0,1192.5050100200401,1526.2016648857716,1472.7983351142284,1515.5152767014026,14.103050353326653,14.452044750661322,14.08133242745491,14.122983572084168,14.472488741703408,14.871703693146292,15.239736917735472,122.03037726753506,122.03037726753506,11.722571214048097,-0.001745603629258517,-0.005986830975951904,0.00038631724448897795,-0.1897521997975952,0.19778861718436874,-0.04713187819839679,2.0,-0.1698904913286573,0.8301095086713427,11.0,0.0,0.0,1.0,0.0,0.0,0.0,0.0,0.0,0.0,0.0,0.32782765403406816,-0.025356735861723448,1.4827556595330662,1.5494137566693387,3.3264178343106217,244.3364606993988,41.55446726835672,-0.03208717104609218,-0.03559310398196393,-0.10492739096593186,0.0,0.07478417916432858,0.7967185538597196,-10.091573533126253,-3.342725450901808e+20,954.097938443487,11.723532765851703,-0.15614948956513025,0.08454325320841682,0.28963781594589183,0.0689688761563127,0.7687918768877756,-10.10591474482966,-0.16930470498396794,0.07386056004408818,0.27962068589178357,-3.342725450901808e+20,100.08058,103.21657478997996,-0.15679962031663328,-1.76599076952505,15.370054029458917,15.335117855150301,0.0006987245771543093,0.8085288234288577,-0.3361016445611223,47.44516875084168,504.5716385004008,11.722862286673346,95409.45267234469,1.1336221539779558,0.014950597827655843,-0.18012074077955867,-0.12749673834468936,-0.15707115617234468,0.08832159713827656,0.28132745491783573,0.3142505529498998,-0.02415194564729459,1.4937560805811623,0.7234331521963928,0.12292163398997996,0.09754218763527053,0.6723174762184368,0.18818187341482967,398749728.3843687,327366238.88737476,505185.3627236473,14.350495493266534,6.018358811236473,13.01965796501002,1.0261447843647293,1.137452903292585,0.0,0.0,0.0,39.8714138,32.7364372,396.8889711701403,18.704635856553107,-104.87718558917835,5.1802687045791584,13.573073395310622,1.2952420370200401,-4.199510448220441,2.1729352806693387,0.8095330139138277,1.2439663638336673,104.96034591543086,-0.13709630578757515,0.15301247259318637,0.18066418384368738,0.18841175886172343,45970112.5751503,0.0,0.0,0.0,1.0,0.0
46286451.0,-0.054011324807615224,0.035531502434869744,-0.0695643558016032,0.18634031801202405,0.0,1461.9528290741482,1500.0,1184.8156312625251,1528.63126252505,1470.36873747495,1517.0471709258518,14.36814281741483,14.723338596893788,14.296915559318638,14.34003873260521,14.694562024629258,15.072811736432866,15.445452074669339,125.38526610941885,125.38526610941885,11.725528678216433,-0.0017401332865731463,-0.005982393785571143,0.0003644949899799599,-0.189340940496994,0.19717272223046092,-0.046250637997995996,2.0,-0.15315127141082163,0.8468487285891784,11.0,0.0,0.0,1.0,0.0,0.0,0.0,0.0,0.0,0.0,0.0,0.26495394710821646,-0.01830738939278557,1.5143738621663327,1.5545570173366734,2.0378204511382774,239.97919132424852,42.07650498294589,-0.031938552280561125,-0.03435514950901804,-0.10813026963927856,0.0,-0.014506406462925784,0.6063466520360723,-10.012765501162324,-1.05e+21,954.152012104008,11.726390259478958,-0.1722536088737475,0.055338928462925846,0.24435090066733467,0.01089614813627253,0.6260232223747496,-10.022586958597195,-0.17547095210821645,0.047878928545090176,0.23482052438677356,-1.05e+21,100.08058,102.71291559398797,-0.13161654162124248,-1.7332362959539078,15.369589439418837,15.589455430741483,-0.004397327284569137,0.7866869198757515,-0.3377010656753507,46.65378740643286,504.1756710246493,11.72555431218437,95413.98841855711,1.133676059725451,0.15544397604609012,-0.0898540113507022,0.13400862456713525,-0.17281245935070141,0.06338516230260521,0.2422301818877756,0.2550835728096193,-0.017000998631262528,1.526611854717435,0.7159080395791583,0.09773105308617236,0.08183697890380763,0.6864525356873747,0.1813288575991984,398749876.27955914,327366727.3042084,504814.81115631264,14.515778823246492,4.692173741110221,13.735227084388777,1.3257794523106212,1.2410983277334668,0.0,0.0,0.0,39.8714138,32.7364372,398.28151323026054,22.97026220496994,-104.45943552164329,3.955910751186373,14.16791349244489,1.526531374478958,-3.7007786136753507,1.7857032682064131,0.7075403715270543,1.3271999861663326,104.54259555851704,-0.1395694611703407,0.1597279082324649,0.13084539597995995,0.1816215701002004,46286450.631262526,0.0,0.0,0.0,1.0,0.0
46605528.0,-0.05245942239679359,0.03993518302805611,-0.0874020532264529,0.17931941486973949,0.0,1454.1843937274548,1500.0,1178.37875751503,1526.8156062725452,1472.1843937274548,1519.695720983968,14.589867142024048,14.950259718917836,14.512498691182364,14.557093893126254,14.916635301342685,15.273919789719438,15.651167231603207,128.7401549513026,128.7401549513026,11.728486136072144,-0.0017346629438877755,-0.005977956342685371,0.0003426729879759519,-0.18892968219639278,0.1965568282765531,-0.04536939779759519,2.0,-0.1364120518717435,0.8635879481282566,11.0,0.0,0.0,1.0,0.0,0.0,0.0,0.0,0.0,0.0,0.0,0.21031725476152305,-0.010450607879759518,1.5413876304248497,1.5591781979038075,0.9135354812224448,235.47070325751503,42.67892114737475,-0.0317182382244489,-0.032718063653306616,-0.11139657083567134,0.0,-0.09810664973346694,0.46393983269939876,-10.07870516789579,-2.1714228456913817e+20,954.2087583438878,11.729524945851702,-0.18516594793186372,0.04514872308416834,0.2004298927775551,-0.10095437672344693,0.5204473973807615,-10.047266708264528,-0.18184821082965932,0.040253835573146296,0.19042139243687375,-2.1714228456913817e+20,100.08058,102.1921046737475,-0.10557607318637274,-1.6263425103727454,15.369170819739479,15.819346008096193,-0.009003497206412827,0.7356855678537074,-0.33935363714028055,46.09736777841684,503.6622876226453,11.728648883967935,95419.83894521042,1.1337456016853709,0.1269358533847696,0.2945391656152303,-0.07892898173947889,-0.17404773811422847,0.05657698976753507,0.19589281483967935,0.19891883426252505,-0.009177488378757514,1.5499907221703406,0.710563881749499,0.07413234368937875,0.0662149182224449,0.6965700395851703,0.17819730407615234,398749992.3973948,327367244.02364725,504376.5073799599,14.723987085250501,3.5096586534348697,14.286375334629259,1.539594880965932,1.329573667735471,0.0,0.0,0.0,39.8714138,32.7364372,399.3252341721443,27.42465057703407,-103.97762338036071,2.8883304713567135,14.644197821282566,1.6880823530400804,-3.167975749302605,1.4305445120661324,0.3405629508777555,1.3967836295591183,104.06078338036072,-0.13979079529458918,0.16545898925450903,0.09000164235671342,0.17825378358717434,46605528.33266533,0.0,0.0,0.0,1.0,0.0
46917741.0,-0.050236822655310626,0.042506637743486966,-0.09757939863126251,0.177634227254509,0.0,1449.0,1500.0,1176.0,1524.8186410901803,1474.1813589098197,1521.058116232465,14.829695827795591,15.195622623206413,14.728047423827654,14.774099912625251,15.13865737232465,15.475036563226453,15.856890479579157,132.10209968557115,132.10209968557115,11.731447735070141,-0.0017292406533066132,-0.005973545947895792,0.0003210002905811623,-0.18852023425250505,0.195944244757515,-0.04448749926252505,2.0,-0.11967283257515031,0.8803271674248496,11.0,0.0,0.0,1.0,0.0,0.0,0.0,0.0,0.0,0.0,0.0,0.16095444487575153,-0.0020846726092184427,1.5653840454529058,1.563451445739479,-0.10246607845691351,230.86778303026054,43.33159736991984,-0.031439820428857713,-0.030836220881763528,-0.11440382894789579,0.0,-0.13178643099999993,0.4823005070100202,-10.03141474258517,-1.05e+21,954.3069423569139,11.733034186673347,-0.1770794557675351,0.03654631188376754,0.16034076302204414,-0.06030274989178334,0.4685767351082168,-10.057702919218437,-0.1729241839498998,0.033624503969939865,0.14777272172745495,-1.05e+21,100.08058,101.7424755733467,-0.08309455656112226,-1.4883151227895792,15.368810139378759,15.97322309488978,-0.012088258791583163,0.672152458719439,-0.34079847941683367,45.79664605587175,503.12431463987974,11.732037158236473,95426.023002004,1.133819006266533,0.0982347331082168,-0.2313153091242487,-0.5216913048857739,-0.17550429800200398,0.04274534867535069,0.14857698705410824,0.14708586186773553,-0.000322456450901809,1.5651027009499,0.707190687260521,0.05221681148697396,0.05169367615030061,0.7031927634368739,0.1763926631763527,398750075.77414834,327367770.9701403,503878.8496456914,14.96013251807615,2.503232572591183,14.722732961202404,1.6657166908937875,1.4020488471062125,0.0,0.0,0.0,39.8714138,32.7364372,400.07706228657315,32.086124209579154,-103.45488655651302,1.98050706288978,15.031936683366734,1.761692554420842,-2.587553213176353,1.136184166204409,0.12041693432865745,1.4530834912304609,103.53804655651302,-0.129781726252505,0.1713984883166333,0.057614693555110244,0.17641414284569137,46917740.77955912,0.0,0.0,0.0,1.0,0.0
47239010.0,-0.043940221813627264,0.04645001992985972,-0.10673738602004008,0.17680129871543085,0.0,1446.4949899799599,1500.0,1176.0,1520.0,1479.0,1523.0,15.063881100200401,15.435152980400801,14.94007418294589,14.986073384428858,15.355435519799599,15.677047343687374,16.06344198951904,136.18661009779558,136.18661009779558,11.73483303513026,-0.0017286484609218438,-0.005971879797595191,0.0003146059799599198,-0.18829630728857716,0.19567075086573146,-0.043538109937875755,2.0,-0.10293361265731464,0.8970663873426853,11.0,0.0,0.0,1.0,0.0,0.0,0.0,0.0,0.0,0.0,0.0,0.12195012128657316,0.00649584101803607,1.5764945178697396,1.5656690279879761,-0.5964546722364727,226.31926175651301,43.96210299276553,-0.031115163140280563,-0.02883850847294589,-0.1169428365771543,0.0,-0.13028838539478957,0.27875355345691377,-10.094828319038076,-4.954148296593204e+19,954.3337891356714,11.73636214476954,-0.1719266229739479,0.031444847258517025,0.11716486976753507,-0.17000136272344696,0.3180500698977956,-10.214920348056113,-0.16525773632064128,0.03315598826853707,0.11020426520240482,-4.954148296593204e+19,100.08058,101.31164148136273,-0.06155307173346694,-1.3165342074869741,15.368384624769538,16.151324674208418,-0.01565880189579158,0.5894751376232465,-0.3422541353446894,45.71357497599198,502.5938165977956,11.73549251749499,95432.10179775552,1.1338911681923847,0.01712168789579173,0.3474069943847696,-0.13948126811422804,-0.1660343688256513,0.046950361909819646,0.1116668794709419,0.10219182536673348,0.008700235515030057,1.5738286246152304,0.705261042757515,0.0329826375250501,0.03923624410821643,0.7070892102064129,0.17684947008617236,398750134.8679359,327368323.37515026,503345.4366284569,15.204680636372746,1.6602931731723447,15.104187490841683,1.6865025971182366,1.4606687211242484,0.0,0.0,0.0,39.8714138,32.7364372,400.56131782064125,36.76783914781563,-102.92906433126252,1.276993136472946,15.335213570801603,1.7548370823927855,-1.9854146807494992,0.8876739394769537,-0.09352035936272535,1.4953987588917836,103.01222433126253,-0.11437369208817635,0.17390499996593187,0.03473358401803608,0.17687044651302605,47239010.408817634,0.0,0.0,0.0,1.0,0.0
47550439.0,-0.0346639342244489,0.04830898929058117,-0.1083605039018036,0.1772127277955912,0.0,1445.0,1500.0,1177.0,1516.9318637274548,1482.0681362725452,1523.9318637274548,15.283773010521042,15.660070063146293,15.152100942064129,15.198046856232466,15.572213657274549,15.879058114148297,16.269993499458916,140.27112051002,140.27112051002,11.738218335771542,-0.0017280572004008015,-0.005970213647294589,0.00030821165931863725,-0.18807238032464932,0.19539725604208416,-0.042588721555110225,2.0,-0.08619439280761525,0.9138056071923847,11.0,0.0,0.0,1.0,0.0,0.0,0.0,0.0,0.0,0.0,0.0,0.08448640206212424,0.014883385138276554,1.582655990805611,1.5669537644649298,-0.8750017910901804,221.62073673887775,44.58512080981964,-0.030754584589178364,-0.026789869338677354,-0.11901441896593186,0.0,-0.11985806318436872,0.339172932246493,-10.314968845511022,-1.05e+21,954.3937249410823,11.739845685971945,-0.154120447004008,0.032429572064128255,0.078193528250501,-0.12139507285370736,0.33850713522845693,-10.255591318036071,-0.15878854705410822,0.026443098921843686,0.0792774615991984,-1.05e+21,100.08058,100.96125441482967,-0.044033619422845685,-1.1453846517214428,15.368163416152305,16.287862424328658,-0.01839396501803607,0.5073704446412826,-0.34354372051302606,45.80993814809619,502.0836469368736,11.738899861583167,95437.91331104208,1.133960246274549,0.3227357718436876,-0.4876805968877755,0.33624583602605235,-0.14987780558116232,0.03878905437675351,0.08240980973346693,0.07081285485571143,0.017485385456913825,1.582301847252505,0.7027795402885773,0.018672010084168335,0.03131594891583167,0.7104723132144288,0.17878794245290583,398750171.6593186,327368883.21543086,502811.4633721443,15.449227753987977,1.0242858111302606,15.426678495771544,1.6503860953707414,1.504133354212425,0.0,0.0,0.0,39.8714138,32.7364372,400.8614815831663,41.61739848885772,-102.4047391482966,0.735188424002004,15.596005086893788,1.681233150468938,-1.4091053881262523,0.7792423168677354,-0.36717969008216433,1.5269420424288578,102.48790198236473,-0.08538914329458917,0.1738253810541082,0.022486369338677353,0.17879136082164326,47550439.04408818,0.0,0.0,0.0,1.0,0.0
47871854.0,-0.03267519392184369,0.047864981150300606,-0.11184020870340682,0.18019877190380762,0.0,1443.36873747495,1500.0,1180.0,1515.63126252505,1483.36873747495,1523.63126252505,15.469007009298597,15.849415716873747,15.364127701182365,15.410020331723446,15.788991804749498,16.08106889092184,16.476545013086174,144.3556309222445,144.3556309222445,11.741603636412826,-0.0017274650761523046,-0.005968547496993988,0.00030181784368737475,-0.18784845336072145,0.19512376208216434,-0.04163933317234469,2.0,-0.06945517382164329,0.9305448261783568,11.0,0.0,0.0,1.0,0.0,0.0,0.0,0.0,0.0,0.0,0.0,0.049285235957915854,0.022987531486973942,1.581549287228457,1.5668685080721443,-0.8371482701002004,216.70191415430864,45.1971419097996,-0.03037633387174349,-0.024802393386773546,-0.12052991163527053,0.0,-0.20354908110420858,0.1798822521382767,-10.406343156553106,11.742839182264529,954.4500499833667,11.742839182264529,-0.1406364148997996,0.02974863217635268,0.055776976613226455,-0.20530971750901797,0.2488432268336675,-10.37032792282565,-0.1276294426773547,0.025814632352705418,0.03912145775751504,-3.97318637274547e+20,100.08058,100.64307025290582,-0.028124427082164335,-0.9676336058757516,15.368036042024048,16.38328559316633,-0.020304995054108214,0.42702955119438885,-0.3448311614408818,46.0822708708016,501.5108613659319,11.742099698977956,95444.46320623247,1.1340380799719438,-0.061698693979957475,-0.0801580057495021,0.03186085860921832,-0.13251111001803606,0.0408878321202405,0.05016523020440884,0.04069041603406815,0.025026561637274545,1.5812424846733468,0.7033836548757515,0.005416514454909827,0.02325892614428858,0.7104084592024048,0.18354826267935875,398750194.4743487,327369452.9382766,502304.63900040084,15.675566225310622,0.5543376811262527,15.663774876653306,1.594432910462926,1.5351257986212425,0.0,0.0,0.0,39.8714138,32.7364372,401.01948450801603,46.49992016106212,-101.91791610480962,0.36495062230260544,15.814197683967937,1.5452330571122246,-0.9946353329859722,0.638901506763527,-0.47350460782565107,1.5479828778697395,102.00107648917836,-0.06487514563126254,0.16835265674549096,0.011269347871743492,0.18349567591182364,47871854.20641282,0.0,0.0,0.0,1.0,0.0
48179370.0,-0.028168700414829665,0.046563559685370744,-0.11134890211623248,0.18586510382765528,0.0,1443.805611222445,1500.0,1185.805611222445,1513.9791185631261,1485.0208814368739,1522.5029999078156,15.649862564108215,16.034369009679356,15.5313480348497,15.577639873166333,15.960474368156312,16.229019712705412,16.62786444458918,147.33121685430865,147.33121685430865,11.744258319438877,-0.0017277882825651302,-0.005968229416833667,0.0002984575330661323,-0.1877216791963928,0.19496987023246493,-0.0405751043266533,2.0,-0.05271595390380764,0.9472840460961923,11.0,0.0,0.0,1.0,0.0,0.0,0.0,0.0,0.0,0.0,0.0,0.028641716681362752,0.030020786655310612,1.5804844396312625,1.5667749218116231,-0.7980321261362726,211.69862568777557,45.72145190386773,-0.02998733985771543,-0.0228866910741483,-0.1215321028737475,0.0,-0.2841276288376759,0.2527587992965932,-10.449367436272546,-1.05e+21,954.4931174192385,11.745768398316633,-0.121828005997996,0.030962857907815666,0.028435653837675472,-0.2003035408897787,0.19531242600801596,-10.360597923887775,-0.10922639519639282,0.025541009430861725,0.02711523415230463,-1.05e+21,100.08058,100.39004499318636,-0.015473194907815648,-0.8162034494088178,15.367675090601201,16.445331756633266,-0.02155311644288577,0.3467117308036073,-0.3459684989238477,46.45695576533066,501.14400918196395,11.744996283206412,95448.68607549099,1.1340882211603207,0.26485687115430656,-0.09968696827254195,0.22759297165530917,-0.11362672299398796,0.04225086779158318,0.029486356521042083,0.021460369963927875,0.03195098459318636,1.5801771194028056,0.7037736738537075,-0.0037975015511021943,0.01886393190380762,0.7101634094468938,0.18826017200601203,398750204.20561117,327370031.3356713,501834.1881789579,15.874261528897796,0.23563774046092223,15.868220573406814,1.419798749731463,1.5553548086172344,0.0,0.0,0.0,39.8714138,32.7364372,401.08656279539076,51.474645440641275,-101.47375726052104,0.1301851565490984,16.001748667635272,1.3863879745511025,-0.49011601031062196,0.5465853742464921,-0.5664394621703407,1.560743042250501,101.55691726052103,-0.03932470074749503,0.16206460330460923,0.005057004344689386,0.18841181394188378,48179369.831663325,0.0,0.0,0.0,1.0,0.0
48501835.0,-0.021531516488977956,0.044460959278557116,-0.1107548484008016,0.18986683271342686,0.0,1444.0,1500.0,1189.2424849699398,1510.0,1489.0,1522.0,15.793484372244489,16.181274325931863,15.68740176529058,15.734205562545089,16.120668416472945,16.363497764769537,16.765418998036072,150.03043779258516,150.03043779258516,11.746730915751503,-0.0017283388537074147,-0.00596824772745491,0.00029585279358717437,-0.18761911648697394,0.19484578461723448,-0.039482256144288574,2.0,-0.03597673398597194,0.9640232660140281,11.0,0.0,0.0,1.0,0.0,0.0,0.0,0.0,0.0,0.0,0.0,0.014146087723446893,0.0364748685250501,1.5794456528957916,1.5666777317815632,-0.758601331240481,206.65940060921844,46.19732529256513,-0.029582362691382764,-0.021095625104208416,-0.12199962564929859,0.0,-0.13203840671543082,0.17922208430060121,-10.407014838136273,-6.421523046092188e+20,954.5517347973948,11.748139563667335,-0.08641056867334669,0.03038977779559118,0.01581298688777555,-0.19273669740480964,0.2176328568436874,-10.457748760200401,-0.07646621254909819,0.02387799660521042,0.005814106823647294,-6.421523046092188e+20,100.08058,100.16853118116232,-0.004397370390781562,-0.6704429722845691,15.367553987334668,16.51621734256513,-0.02297325430460922,0.2866070243326653,-0.3470978754208417,46.96261228270541,500.72756918857715,11.74758119759519,95453.42742911824,1.1341446206032064,-0.029124487865731935,-0.24176914904007996,-0.38667270775150303,-0.08350504271743486,0.042017341761523046,0.008466869517034067,0.011364547102204407,0.03802943619839679,1.5791865306553108,0.7040721561242486,-0.009500350873747496,0.017421945577154308,0.70985099649499,0.1928424255250501,398750208.0,327370610.53587174,501420.3920314629,16.053042869218437,0.04686975874949899,16.05965184398798,1.2604351969999998,1.567700173765531,0.0,0.0,0.0,39.8714138,32.7364372,401.09946158557113,56.50135685256513,-101.0860974296593,0.012135361793587165,16.15344367771543,1.2099636983406812,-0.1747309996112224,0.4303162599959921,-0.6084950665130261,1.5666497476112224,101.1692580509018,-0.011713440717434867,0.15288709639078157,0.003976528873747495,0.1929038435511022,48501834.967935875,0.0,0.0,0.0,1.0,0.0
48817251.0,-0.01602346523647295,0.04188361189378758,-0.1085529235490982,0.19460659294589178,0.0,1445.0,1500.0,1194.0,1507.3206412825652,1491.6793587174348,1520.3206412825652,15.884784626072143,16.274622299198395,15.843455485731463,15.890771261923847,16.280862462845693,16.49797582004008,16.902973549539077,152.7296587823647,152.7296587823647,11.749203522064128,-0.001728889745490982,-0.0059682660380761515,0.0002932485390781563,-0.1875165540981964,0.194721700002004,-0.03838940747695391,2.0,-0.019237515068136285,0.9807624849318637,11.0,0.0,0.0,1.0,0.0,0.0,0.0,0.0,0.0,0.0,0.0,0.009992564200400804,0.041647241735470936,1.578471008220441,1.5665742783466934,-0.7191706112605211,201.5590794266533,46.564118526112225,-0.029187507230460923,-0.019433433775551102,-0.12204551492985972,0.0,-0.08770164954709424,0.08591973498396813,-10.277457253847695,-1.05e+21,954.5928108266532,11.75035192751503,-0.06720460390981965,0.02475044676352705,0.0018669864468938051,-0.15441756733867737,0.17299345428256507,-10.392231984348697,-0.04941090367334671,0.023009800713426856,0.006008143667334656,-1.05e+21,100.08058,100.0004696748497,0.004005493619238473,-0.5459837189038077,15.367509290741483,16.58390878773547,-0.024327989490981965,0.22513804864529063,-0.3481258745490982,47.53072108306613,500.3672879254509,11.749790204008015,95457.57608038076,1.1341939307194389,-0.13883189206012203,-0.03775668617234511,0.0891350353807625,-0.058393447448897795,0.03820474711623246,-0.0003723587835671445,0.008347439338677355,0.04298236688977956,1.5782089783747495,0.7043759995230461,-0.012311850126252504,0.018100333256513022,0.7094894316032064,0.19786847001603206,398750207.1641283,327371209.1276553,501043.4402581162,16.205885009158315,-0.042942573773547044,16.208708122324648,1.0912917920501002,1.573619607282565,0.0,0.0,0.0,39.8714138,32.7364372,401.09033998196395,61.54265166517034,-100.75577536753507,-0.017291756869739484,16.277433624468937,1.030848543478958,0.023579561064128233,0.38073909351903795,-0.5041764973807616,1.5681256770440881,100.83893536753507,0.015025684302605195,0.14239904959118238,-0.0010457515030060068,0.19814034434068137,48817250.67935872,0.0,0.0,0.0,1.0,0.0
49130766.0,-0.012163733246492999,0.03849224313226453,-0.10828985417034068,0.1994275710220441,0.0,1445.0,1500.0,1199.0,1505.88376753507,1493.11623246493,1519.0,15.94515908737475,16.33632337288577,15.948577404669338,15.99574879783567,16.38816727517034,16.59432240787575,17.001425753767535,155.00721709879755,155.00721709879755,11.751074322024047,-0.0017301701963927856,-0.0059681038857715436,0.00029005090981963925,-0.18755334957114228,0.1946144235531062,-0.037411323693386775,2.0,-0.0024982951503006237,0.9975017048496995,11.0,0.0,0.0,1.0,0.0,0.0,0.0,0.0,0.0,0.0,0.0,0.009788433320641278,0.04613452461322645,1.5775092986192385,1.5664628277074149,-0.6788072173747496,196.42349038056116,46.866796890501,-0.028800756985971947,-0.017894742258517036,-0.12196035701603207,0.0,-0.137762351955912,0.17537532933667335,-10.305276923767535,-8.520360721442866e+20,954.6147151378758,11.752052405571144,-0.04157384368336678,0.024968184340681397,-0.005379229386773513,-0.11497542973547076,0.21123523796192453,-10.376293751102205,-0.02918871633667337,0.021821203527054103,-0.0065659947474949725,-8.520360721442866e+20,100.08058,99.86392864637274,0.010832545484969933,-0.4336206793426855,15.367367649178357,16.62916783210421,-0.025235999533066135,0.1531050510781564,-0.34917498990180357,48.20283521511022,500.08875632484967,11.751652853947895,95460.74993911824,1.1342316366312626,-0.03943987852104382,0.05485881489780004,-0.12202925580561114,-0.035063998346693416,0.03254308488376752,-0.01061642526853706,0.00972446721843687,0.047183656595190374,1.5772736987114229,0.7046898540901803,-0.013308129539078156,0.020074349026052103,0.7091065313987976,0.20240739374549097,398750205.5767535,327371801.0955912,500735.35486352706,16.317107976993988,-0.043872708965931845,16.324853778216433,0.9151455869819641,1.5736453111102202,0.0,0.0,0.0,39.8714138,32.7364372,401.0801992378758,66.67854507382765,-100.47279746773548,0.01194723777354703,16.3795470943487,0.8662631502745493,0.18298791405010026,0.2088555617655312,-0.45958209890981977,1.5662910343867733,100.55595746773548,0.03479044757114226,0.1333860865270541,-0.0040692276472945885,0.20255799549098194,49130765.62925851,0.0,0.0,0.0,1.0,0.0
49439443.0,-0.009430666082164328,0.03615428245891784,-0.10771491837875752,0.20411916368737476,0.0,1446.0,1500.0,1203.5531062124248,1504.0,1495.0,1518.0,16.029785774729458,16.422732464048096,16.018500144288577,16.06507357072144,16.458920138396795,16.664316200581162,17.07285418689379,156.99336277014027,156.99336277014027,11.752529213066133,-0.0017319542104208417,-0.005967818110220442,0.0002864447074148297,-0.18768645568336673,0.19451876328857715,-0.03651255488577154,2.0,0.014240924767535074,1.014240924767535,11.0,0.0,0.0,1.0,0.0,0.0,0.0,0.0,0.0,0.0,0.0,0.01259668953707415,0.050121284144288576,1.5767321073607212,1.5663905624008017,-0.6460611303727455,191.26221182685373,47.12232526813627,-0.028443025424849704,-0.016462948382765533,-0.1217809511503006,0.0,-0.06082888451703406,0.1980031111863728,-10.35748665208417,-1.05e+21,954.6485193585171,11.753550220681362,-0.020430643869739473,0.02012306941282565,-0.013289241717434872,-0.0556277702184369,0.19669433392785568,-10.289501860841684,-0.024308193577154306,0.020351812264529062,-0.018143367112224452,-1.05e+21,100.08058,99.76585466094188,0.015736433216432866,-0.3438337794248497,15.367236240981963,16.6280154901002,-0.025215578599198395,0.10754319386973947,-0.35014329340280564,48.897241488336675,499.9392264286573,11.753186686773548,95462.4495495992,1.134251810503006,0.040206927955911846,-0.039895160953907854,0.4014814643787571,-0.011870774981963927,0.03171502837875752,-0.0101289618997996,0.013126825723446894,0.050943587561122244,1.5763582204028055,0.7050122556352705,-0.013432371480961925,0.022611168723446894,0.7087072969779559,0.2054897770681363,398750205.0,327372405.66012025,500462.2003577154,16.414820738116234,-0.013372377611222435,16.40819432458918,0.8124064486693386,1.5717299232665332,0.0,0.0,0.0,39.8714138,32.7364372,401.0830724547094,71.77589560881763,-100.24070769158317,0.06758005493386775,16.460842317254507,0.7181106356713427,0.22426509856913826,0.202887654763527,-0.46178688124048095,1.5630529817394792,100.3238685022044,0.04850108233667335,0.12469506501803607,-0.005635859472945892,0.20575859334669339,49439443.38476954,0.0,0.0,0.0,1.0,0.0
49763791.0,-0.0071349471382765525,0.03408172165330661,-0.10760114988376752,0.20724076274549097,0.0,1446.0,1500.0,1206.0,1503.0,1496.0,1517.0,16.132010006472946,16.527269202424847,16.088422883907814,16.134398344669336,16.529673001723445,16.734309993286573,17.14428261012024,158.97950844148292,158.97950844148292,11.753984105270542,-0.0017337382144288578,-0.005967532440881763,0.00028283861122244494,-0.18781956179559117,0.19442310290781564,-0.035613786078156316,2.0,0.030980143685370734,1.0309801436853705,11.0,0.0,0.0,1.0,0.0,0.0,0.0,0.0,0.0,0.0,0.0,0.02382538634468937,0.05330291835470941,1.5811800920721442,1.5676489228637276,-0.8591874482024047,186.06177864148296,47.2933371491984,-0.028102161048096194,-0.015114657170340681,-0.12159307491783568,0.0,-0.11923553627855718,0.1357377999078155,-10.258460054228456,-1.0457414829659303e+21,954.6582083016033,11.754664164589178,-0.008814238238476949,0.015134375122244501,-0.0097761746753507,-0.10440537132865726,0.1650544387414831,-10.24184884014028,-0.0027649542805611264,0.017254928200400806,-0.01486242948697393,-1.0457414829659303e+21,100.08058,99.69066063206412,0.019496161557114228,-0.26837105552505014,15.367228798757516,16.633531336533064,-0.02532604876953908,0.06663672226853709,-0.3510865973426854,49.63265609705411,499.710655706012,11.754421720501002,95465.09355791582,1.1342832145551103,-0.545986092891781,0.15334517968537026,-0.2942834192484967,-0.0038464517354709522,0.027105731142284564,-0.016968278811623223,0.029273505322645284,0.05398665945290581,1.5844202235691385,0.7022237884048096,-0.008937495220440884,0.029368241336673345,0.7112941166933868,0.20812553069138276,398750205.89498997,327373004.43907815,500257.48319198395,16.487764400661323,0.043323301995991964,16.5133228554509,0.596676698004008,1.5677717560661324,0.0,0.0,0.0,39.8714138,32.7364372,401.10445946072144,76.9780238390982,-100.04957880861724,0.1357201291142284,16.523177251002004,0.5844826109378759,0.1806438559218437,0.20368404121242478,-0.33658725412424867,1.5591676823807616,100.13273910561122,0.07396925432865731,0.11619692484569139,-0.010714063136272545,0.2077187003046092,49763790.85771543,0.0,0.0,0.0,1.0,0.0
50098990.0,-0.004193315605210431,0.03162401547895792,-0.10733726486372745,0.2084843563286573,0.0,1446.0,1500.0,1208.0,1501.0,1498.0,1515.0,16.17169455308617,16.567792841122245,16.14249810961924,16.188423852064126,16.584839738416832,16.78441290264529,17.195423970741484,160.28435346973947,160.28435346973947,11.755141056953908,-0.0017357547895791583,-0.0059673497194388785,0.0002796096973947896,-0.18791821682164328,0.19438172690781563,-0.03459883596993988,2.0,0.04771936360320639,1.0477193636032063,11.0,0.0,0.0,1.0,0.0,0.0,0.0,0.0,0.0,0.0,0.0,0.03197557852104208,0.05601781850901803,1.5837531384789578,1.5684402205751504,-0.983079076486974,180.94746879198397,47.42508633725451,-0.02775620217234469,-0.013848842511022046,-0.12151430902004008,0.0,-0.1087854547454911,0.15375211861723445,-10.19500402973948,-1.05e+21,954.6681838012024,11.755631279118237,0.016170299194388737,0.014243035262525022,-0.013291769436873846,-0.05986398261122215,0.23417830151903812,-10.176444959098196,0.017779634895791593,0.011039000941883757,-0.011865257122244502,-1.05e+21,100.08058,99.64171469513026,0.0219434646753507,-0.20714861049499006,15.367154302885771,16.657988229158317,-0.025816678376753506,0.02888413247695395,-0.35199794838476955,50.38408200719439,499.54973411843685,11.75540955222445,95466.92513865732,1.1343050169198396,0.07542997544689228,0.16264494331462992,-0.07289742836071769,0.02203880249899801,0.02208455959719437,-0.008423086262525048,0.03313260659318637,0.05667422271543086,1.583533593472946,0.7025446915551102,-0.008524996501002005,0.03168718992184369,0.7108825934969941,0.20941270890581162,398750208.1134268,327373606.7400802,500085.5592496994,16.547973869759517,0.11048110187174336,16.558712156693385,0.5285915857675352,1.5639319416873747,0.0,0.0,0.0,39.8714138,32.7364372,401.14605856432865,82.10596100507013,-99.90425866897796,0.19905906584569133,16.561200175090182,0.46638568274749514,0.24837198207014036,0.05067586268136267,-0.36265662104008056,1.5556449476773546,99.98741866897795,0.07170003723446894,0.10909863968937877,-0.00825471120641283,0.2097022456513026,50098990.19038076,0.0,0.0,0.0,1.0,0.0
50412627.0,-0.0042698716252505,0.03011856035671343,-0.1059388577254509,0.21009905693386774,0.0,1446.1362725450902,1500.0,1209.8637274549098,1502.0,1497.0,1515.0,16.18327055214429,16.57956061787575,16.17095250312625,16.217714910420842,16.614808229098198,16.80235803985972,17.213767026853706,160.48773311903813,160.48773311903813,11.75581630501002,-0.0017381483066132265,-0.005967332408817635,0.0002769923266533066,-0.1879611746533066,0.19442811288376752,-0.03339605461523046,2.0,0.06445858338476955,1.0644585833847695,11.0,0.0,0.0,1.0,0.0,0.0,0.0,0.0,0.0,0.0,0.0,0.03449611466933868,0.05804054371543086,1.582889987466934,1.5683732879619239,-0.943648343769539,175.97542998376755,47.49990941022044,-0.027455158765531062,-0.012644938547094189,-0.12145651145290581,0.0,-0.09276483215230463,0.30390608146092174,-10.124599144529059,-1.05e+21,954.6794409669338,11.756311704288576,0.011209897202404805,0.01793323834068137,-0.009675772845691384,-0.05131893958316633,0.27803994310220453,-10.158432579038076,0.013015111661322647,0.007988573044088178,-0.006088260587174346,-1.05e+21,100.08058,99.60473985835671,0.023792098945891786,-0.1564845914308617,15.367148435230463,16.713907645811624,-0.026935179102204408,-0.004443974939879766,-0.35293833795991986,51.17935791687374,499.39432140541084,11.756167501943887,95468.689712505,1.1343259351162325,0.1648274560561122,0.059613782541083626,0.09632984693386812,0.01773069496593186,0.02113177525250501,-0.006379343539078151,0.035105137120240486,0.05856103253306613,1.5826527541422846,0.7028584622124249,-0.008488822030060121,0.033054144845691386,0.7105106104088177,0.21129548629058117,398750213.5046092,327374217.36332667,499942.92599018035,16.580018978496994,0.20500948597595192,16.585009493567135,0.3849335641242485,1.5580544058496995,0.0,0.0,0.0,39.8714138,32.7364372,401.20635481422846,87.3160481344489,-99.79197427402805,0.24065887701603209,16.58451379905812,0.3693059608637274,0.04563393758717434,0.032187141585170345,-0.26989657573747494,1.5526719957374748,99.87513493945892,0.0671585057995992,0.10187066724248497,-0.005891576256513025,0.21178797298196395,50412627.088176355,0.0,0.0,0.0,1.0,0.0
50723092.0,-0.006452211561122246,0.028722664478957917,-0.10557862980961924,0.2128742139478958,0.0,1447.0,1500.0,1212.0,1502.3120697795591,1496.6879302204409,1514.0,16.186152238196392,16.58246932787575,16.199406896633263,16.247005968777554,16.644776724048096,16.820303174068137,17.232110087234467,160.69111279559118,160.69111279559118,11.756491556072145,-0.0017405425230460922,-0.005967316098196393,0.0002743746553106213,-0.18800413321242485,0.19447449813226453,-0.032193273260521044,2.0,0.08119780243887774,1.0811978024388778,11.0,0.0,0.0,1.0,0.0,0.0,0.0,0.0,0.0,0.0,0.0,0.03553369788977955,0.059576333332665335,1.5820167564709418,1.5682988431462925,-0.9029911206573147,170.80283653286574,47.54268912450902,-0.027172969551102204,-0.011468504579158318,-0.12145353917835672,0.0,-0.015587281707414809,0.16453649885170307,-10.074077421082164,-1.05e+21,954.6939953138277,11.756869715531062,0.012845150741482965,0.00671693271943891,-0.002742233575150296,-0.06466525254308615,0.21005139288977964,-10.032801700480961,0.008583372641282574,0.0013642556793587374,0.0008557041643286606,-1.05e+21,100.08058,99.5796051123046,0.02504883009018036,-0.11788342763326655,15.367048520801603,16.66418932543086,-0.02594280943486974,-0.03867841694589177,-0.35386039737074154,51.98154894406814,499.4136936567135,11.756746135931865,95468.49270633266,1.134323577256513,-0.2709572208296589,0.17302184840280527,0.03106827924448971,0.01757790595390785,0.01734565094589176,-0.0018549131262524836,0.03610648837875752,0.05979933398797595,1.581778748262525,0.7031681221102204,-0.00856248373747495,0.03384832958316633,0.7101658478777555,0.2134256003527054,398750219.1607215,327374822.3675351,499840.6491292585,16.600293631422844,0.24823728273747495,16.599706196553107,0.3053003024328658,1.555190846997996,0.0,0.0,0.0,39.8714138,32.7364372,401.27986084068135,92.48681528242484,-99.71110700236473,0.2672858243927856,16.60045274721443,0.2899999097575151,0.08850398056112212,0.003656939146292595,-0.23675876572144292,1.5513228454869739,99.79426700236473,0.061843158100200406,0.09694340755911823,-0.0036040740581162333,0.2133581436272545,50723092.28256513,0.0,0.0,0.0,1.0,0.0
51036508.0,-0.005601758210420849,0.027989275260521043,-0.10466067381362726,0.21312623396793587,0.0,1447.0,1500.0,1213.0,1503.0,1496.0,1514.0,16.256953483847695,16.654887666492986,16.220786103807615,16.26903586773547,16.66730784418838,16.833206881703408,17.245290009018035,160.80022033306608,160.80022033306608,11.757089458737475,-0.0017425380621242485,-0.005966694338677354,0.00027109405010020045,-0.18805707510821643,0.19452563826252506,-0.031042433162324648,2.0,0.09793702235671341,1.0979370223567133,11.0,0.0,0.0,1.0,0.0,0.0,0.0,0.0,0.0,0.0,0.0,0.03588775023446893,0.06099729056513026,1.581143380210421,1.5682208272925853,-0.8619830724889781,165.5718458763527,47.5695535088978,-0.02689573448496994,-0.010333611573146294,-0.12144680639078156,0.0,-0.03156895231863748,0.18147864902204403,-10.011997453653306,-1.05e+21,954.6942730797595,11.75723776527054,0.010838039208416753,0.0034945321062124744,-0.004819849038076143,-0.01711216239879754,0.21402041580561126,-10.011733417110221,0.00521797763126257,-0.0004329354328657044,-0.0017952386993988338,-1.05e+21,100.08058,99.56356210887775,0.025850833681362727,-0.08686528668336677,15.367035291603207,16.643212463767533,-0.025523549895791583,-0.055430750907815615,-0.3547282527234469,52.76648074705411,499.32136536553105,11.757162291823647,95469.54718603207,1.1343361125911824,0.1764043526252512,-0.04390419103206783,-0.05717892891383197,0.008754884917835739,0.01563484956513026,-0.0050886842304608436,0.03558298817034068,0.06135891951102204,1.580929083240481,0.7034607561723446,-0.009286375803607213,0.03421411492184369,0.7098494073286573,0.21290079489178357,398750226.7849699,327375437.9913828,499764.57290981966,16.61557688214429,0.25673363180761516,16.62231152332665,0.2044221136933868,1.5547356820801603,0.0,0.0,0.0,39.8714138,32.7364372,401.3603270312625,97.6794522362525,-99.65350249871744,0.2763821430641282,16.60354539735471,0.22222548101402814,0.03622070792585139,0.02633296544088149,-0.20408558252104217,1.550323526739479,99.73666249871744,0.056433935346693394,0.09339389494388778,-0.002076735110220442,0.21266095845691382,51036507.51302605,0.0,0.0,0.0,1.0,0.0
51348720.0,-0.008026004931863746,0.02822906214228458,-0.10438095649899802,0.21243754827655312,0.0,1447.0,1500.0,1212.0,1503.9537186152304,1495.0462813847696,1514.0,16.20545900771543,16.6021569801002,16.208340828997997,16.256352221122246,16.65428298064128,16.822008974288575,17.233786404468937,160.45863987715433,160.45863987715433,11.75731755717435,-0.0017426304408817636,-0.00596318197995992,0.0002646423026052104,-0.18815774581362726,0.1945995078256513,-0.030139907220440885,2.0,0.11467624227454906,1.114676242274549,11.0,0.0,0.0,1.0,0.0,0.0,0.0,0.0,0.0,0.0,0.0,0.03500201192184369,0.06253516786773547,1.580283095470942,1.5681360076072144,-0.820975091713427,160.33593818517033,47.564151491342685,-0.026624972601202408,-0.00921025238677355,-0.12144012931262525,0.0,0.03042853220240499,0.3287001560761516,-9.930369770382766,-1.05e+21,954.7067172074148,11.757516958517034,0.0037439415571143106,0.0028779793587174122,-0.003583690338677425,-0.038300150438876884,0.25398580913827684,-9.95209345756513,0.003715575110220466,-0.0010445048717435156,-0.007931865482965936,-1.0398877755511029e+21,100.08058,99.55244805931864,0.0264067217755511,-0.0711535027695391,15.367091636753507,16.598447678957918,-0.024627124174348702,-0.06445650239679357,-0.355568358248497,53.54517207178357,499.22162580861726,11.757456413847695,95470.6778327054,1.1343495566492985,-0.051981082665328276,0.15168250912425596,-0.03832288671542054,0.006239566190380693,0.012850852420841675,0.003113177144288622,0.03489204467935872,0.06292645915831663,1.580075801254509,0.7037528283867736,-0.010071627993987973,0.034523922034068136,0.7095340774609218,0.2112232563266533,398750234.40921843,327376041.0072144,499703.8965498998,16.619136924248497,0.29,16.62827576490982,0.17396545716032086,1.5531533568617235,0.0,0.0,0.0,39.8714138,32.7364372,401.44481678777555,102.88760125490981,-99.61381103935872,0.28162992054308617,16.60197548004008,0.16924539024649307,-0.013725241378757542,-0.029309741390781602,-0.08363533442084194,1.549950108236473,99.69697167561122,0.05327925587374751,0.09135242251102205,-0.001282938054108218,0.21095930372745492,51348720.16432866,0.0,0.0,0.0,1.0,0.0
51655378.0,-0.00806521566132264,0.028220913340681372,-0.10360317429258517,0.21075193196392786,0.0,1448.0,1500.0,1210.0,1503.0,1496.0,1514.0,16.22470738547094,16.62178969517034,16.195895558076153,16.243668564509015,16.64125811971944,16.810811066873747,17.22228280991984,160.117059347495,160.117059347495,11.757545651723447,-0.0017427225571142284,-0.005959670272545091,0.00025819094388777555,-0.18825841651903807,0.19467337738877755,-0.029237380889779563,2.0,0.13141546119238473,1.1314154611923848,11.0,0.0,0.0,1.0,0.0,0.0,0.0,0.0,0.0,0.0,0.0,0.037930620082164315,0.063333216753507,1.582616082234469,1.56905127046493,-0.9311176352084162,155.10452223066133,47.53118557114228,-0.026353195326653308,-0.00811593080961924,-0.12142594588577155,0.0,-0.04617568001603315,0.20813069022244485,-9.917807625198396,-1.05e+21,954.7083950721443,11.757707039398797,0.00034167617234470016,0.0038101203887774635,-0.0049839354028058105,-0.05414205400000118,0.1930428391683373,-9.97439916121042,0.011817552721442812,-0.0026291017555111116,0.0013658209318638632,-1.05e+21,100.08058,99.54670603985971,0.026693744066132265,-0.058007654200400834,15.367082533446894,16.594998748877757,-0.024558314509018037,-0.07159100526252503,-0.3563708203046092,54.30538071332665,499.20804409699394,11.757678336673347,95470.82520296593,1.1343513825791582,-0.049013865422848454,-0.44908264378957474,0.11982635169941669,0.01032664438076146,0.017143521745490903,-0.0015720158637275656,0.04536857746893788,0.06366370179358717,1.588174105967936,0.7009157322805611,-0.006802746639278555,0.03847198806212425,0.7121732456492986,0.21208145811222445,398750242.6557114,327376651.6991984,499660.551339479,16.603853341222447,0.2777074451142285,16.603853341222447,0.07312237051102229,1.5536375375170342,0.0,0.0,0.0,39.8714138,32.7364372,401.53286902945894,108.05260097835671,-99.58468542811623,0.2790216087715431,16.586288302084167,0.12774316240881775,-0.08714972047094093,-0.15284454088176289,-0.11895213953306574,1.549744235793587,99.66784542811622,0.06603571510821646,0.0879295648456914,-0.0005905777975951953,0.21217877906212423,51655378.05410822,0.0,0.0,0.0,1.0,0.0
51989531.0,-0.006039897232464938,0.02818785192785571,-0.10469093364328658,0.21430997093386772,0.0,1447.0,1500.0,1213.0480961923847,1502.1750210861721,1496.8249789138279,1513.9519038076153,16.154608580921845,16.549834548296595,16.1835671953507,16.231107303466935,16.628358705691383,16.799575348637273,17.2107405493988,159.77532866533065,159.77532866533065,11.757772723446895,-0.0017427961563126254,-0.005956158124248497,0.0002517276392785571,-0.18835892153306613,0.19474746396192386,-0.028335005406813624,2.0,0.14815468111022045,1.1481546811102203,11.0,0.0,0.0,1.0,0.0,0.0,0.0,0.0,0.0,0.0,0.0,0.04371168312825651,0.06357060187775551,1.5873436827114227,1.5707169140440882,-1.1546020769438878,149.87657232364728,47.477324734008015,-0.026063257102204408,-0.007028769032064126,-0.1214494348496994,0.0,-0.012986836689378672,0.3012490874729458,-9.805763950653308,-1.0324448897795568e+21,954.7060676551102,11.757809060380762,0.013742649176352704,8.071786573146008e-05,0.0047196169178356576,-0.018648466088176496,0.19522001810020043,-9.906564503350701,0.007489120112224432,-0.0032791341462925843,0.007363269480961928,-1.0324448897795568e+21,100.08058,99.54988442537075,0.026534919601202404,-0.04524482920040079,15.367003683887775,16.580703108236474,-0.02427399586773547,-0.0809035767955912,-0.357177144236473,55.072749782224456,499.16426274729463,11.757783466933867,95471.34325713426,1.134357472496994,-0.31039915372544735,0.059121732757516976,0.06077926059519079,0.014442791663326638,0.007296487496993991,0.0004993193046091975,0.04367715794589178,0.06383803333466934,1.5873493341042084,0.70120274350501,-0.00744203327254509,0.037933757685370745,0.7119130846673346,0.2141234575751503,398750251.7529058,327377257.9268537,499640.99865931866,16.588569536553106,0.28429139957114236,16.588569536553106,0.08284766406412818,1.5532928170921845,0.0,0.0,0.0,39.8714138,32.7364372,401.6189405831663,113.27554605811623,-99.56646146777555,0.2721987933707415,16.567293542364727,0.09262979390781562,0.03552358315030042,-0.056478552428857694,-0.09555322597595174,1.5502742918917836,99.64962146777555,0.05704248152104208,0.08605904136072146,0.0017718814328657342,0.21350896753507012,51989530.711422846,0.0,0.0,0.0,1.0,0.0
52311419.0,-0.008337826216432868,0.02882815338276553,-0.10315982621843688,0.2139272977955912,0.0,1448.0,1500.0,1213.0,1503.0,1496.0,1514.0,16.177522457975954,16.573392923446896,16.191978139098197,16.240257379298598,16.63771382028056,16.781631935611223,17.192338836232466,159.40694353927856,159.40694353927856,11.757818641322645,-0.0017395798456913828,-0.005952712541082164,0.00024311283567134267,-0.1884300319539078,0.1948600487014028,-0.027459422743486974,2.0,0.16489390102805612,1.1648939010280561,11.0,0.0,0.0,1.0,0.0,0.0,0.0,0.0,0.0,0.0,0.0,0.0417177129498998,0.06400265334268537,1.5867354823466935,1.5707868601282564,-1.124644208236473,144.65844659158316,47.42962156466934,-0.025816780651302607,-0.005933501923847695,-0.12145961847094189,0.0,-0.09188930972945887,0.15434014360120238,-9.826033645452906,-1.05e+21,954.7146875543086,11.757870307234468,0.001906918366733458,-0.0028039129198396727,0.002256644775551088,-0.044525422901803634,0.20607809286773554,-9.809266034607214,0.0036352554188376724,-0.0042058009819639286,0.00573141951302605,-1.05e+21,100.08058,99.55302317881764,0.026378023591182364,-0.03570236473346693,15.367118825190381,16.557284596312623,-0.02380330621042084,-0.08432167732064128,-0.3579576186492986,55.817283991943896,499.0933914290581,11.757858034068136,95472.13330036073,1.1343668260581163,-0.10712431668937894,-0.01180369399198336,-0.12917321084769579,0.005657180815631262,0.011590113853707418,0.0020914839519038013,0.041297488823647296,0.06445595236472947,1.586523459739479,0.7014849805511022,-0.008481194264529058,0.037306531024048094,0.711656592975952,0.2140384654789579,398750259.3819639,327377866.9082164,499635.67148036073,16.573285338577154,0.289856015006012,16.56657067200401,0.04,1.5530014719038077,0.0,0.0,0.0,39.8714138,32.7364372,401.70477498757515,118.41125143086172,-99.55471630965931,0.257065301747495,16.551772686973948,0.07432126240881763,0.02301817846893789,-0.12339453214228456,-0.03372045995791584,1.551325492973948,99.6378771912024,0.049749905569138275,0.08406324940881764,0.003149665573146293,0.21450711156312627,52311418.93587174,0.0,0.0,0.0,1.0,0.0
52613884.0,-0.008659787400801599,0.029095102825651302,-0.10313204062324649,0.21561447711422846,0.0,1447.0,1500.0,1215.0,1503.0781563126252,1495.9218436873748,1514.0,16.154961663406812,16.550369847575148,16.20129332531062,16.250354066352706,16.64803922945892,16.763396069178356,17.17363805440882,159.03739633206413,159.03739633206413,11.757856658096193,-0.0017362207975951903,-0.005949269813627255,0.00023440474549098195,-0.18849985916032064,0.19497431256913828,-0.026585008144288578,2.0,0.18163311994589176,1.1816331199458918,11.0,0.0,0.0,1.0,0.0,0.0,0.0,0.0,0.0,0.0,0.0,0.039249661709418834,0.06450520982965932,1.5858948881182364,1.570787234466934,-1.0836362443146292,139.4428626735471,47.37954084611223,-0.025568167895791583,-0.004860737795591183,-0.12142886990781562,0.0,-0.08148241106212431,0.19003665242885778,-9.801205917262525,-1.05e+21,954.7215931082164,11.757903233286573,-0.0033262799078156114,-0.0048912063046092245,0.0017360321703406866,-0.05040920161322645,0.2172851878316633,-9.808448577595192,-0.009483074607214412,-0.015297744971943878,-0.0014480289659318702,-1.05e+21,100.08058,99.55374349496994,0.026342063977955913,-0.03151698416432867,15.367055014068137,16.54437855961924,-0.023546457114228456,-0.0840893628517034,-0.35873683932064127,56.56878000410821,499.1373246308617,11.757874,95471.63971677356,1.1343609932725451,-0.08886377207815432,-0.035081754727455644,0.10673189514629411,0.0009826835230460997,0.004883467865731484,-0.0014674691823647194,0.038564073474949896,0.0648247015250501,1.5856944699979958,0.7017659795330662,-0.009556174156312625,0.03646700122845691,0.7114094532224449,0.21460864569138283,398750268.0062125,327378479.3220441,499624.00949699397,16.558001140601203,0.27395887162324656,16.557986287775552,0.030014852669338676,1.5536947120721443,0.0,0.0,0.0,39.8714138,32.7364372,401.7883049977956,123.62291459178356,-99.54702077038075,0.2370177455931864,16.534294391382765,0.06128293089178357,-0.10819439965330663,-0.08635897104208423,-0.02016704903406806,1.5521291252264529,99.63018079617235,0.045308415170340684,0.08410886515230462,0.0033830896813627255,0.21440415882965932,52613884.26653307,0.0,0.0,0.0,1.0,0.0
52920654.0,-0.008514415348697396,0.030507112639278564,-0.10457143633867735,0.2144848651503006,0.0,1447.6412825651303,1500.0,1214.0,1504.0,1495.0,1515.0,16.143978373987977,16.539043916492986,16.210608501523048,16.260450753406815,16.658364638637277,16.74516020274549,17.15493727258517,158.6678490733467,158.6678490733467,11.75789467002004,-0.0017328611082164328,-0.005945827086172345,0.00022569665531062125,-0.18856968736673346,0.19508857559318638,-0.025710593388777556,2.0,0.19837233986372743,1.1983723398637276,11.0,0.0,0.0,1.0,0.0,0.0,0.0,0.0,0.0,0.0,0.0,0.03654064589779559,0.06511838642284569,1.5850547334829659,1.5707876081643288,-1.0426282006072145,134.23104840861723,47.324740391943884,-0.025313324066132264,-0.0037707967815631275,-0.12137988078757515,0.0,-0.0830320594549096,0.2735316323867733,-9.887578824701404,-1.05e+21,954.7218988380761,11.757896937835671,-0.0045393405571142464,0.00045281191783571977,0.0008256377555110353,-0.06823874580360773,0.21442074967334643,-9.864811069388777,-0.008760699649298586,-0.003441827855711464,-0.006044579482965938,-1.05e+21,100.08058,99.55920985114228,0.026068594480961924,-0.024145981258517035,15.366879530961924,16.518944456813628,-0.02304129413226453,-0.07884688758517035,-0.35948772181162325,57.298564222144286,499.1264293933868,11.757904,95471.77359691383,1.1343626268136273,-0.32397918303807716,-0.041416113797593704,0.02979870026653504,-0.0019033626933867612,0.010683547521042041,-0.0002836057935871816,0.03597386216633267,0.06524897593386773,1.5848917368977957,0.7020364208496993,-0.010601802058116231,0.0356985732985972,0.7111667138517034,0.2142638634228457,398750275.6304609,327379080.30961925,499617.81508557114,16.54271622012024,0.2718491553847695,16.54271622012024,0.03,1.5538171893967936,0.0,0.0,0.0,39.8714138,32.7364372,401.8653226513026,128.75427569559116,-99.54861531132265,0.2179448884428858,16.51555810462926,0.04900172395190383,-0.08369926675150284,-0.03282571776352677,0.027634821138276512,1.5529943805551103,99.63177531132266,0.04252910829659319,0.08267682450901805,0.003087110388777556,0.2141036760521042,52920653.84769539,0.0,0.0,0.0,1.0,0.0
