timestamp,control[0],control[1],control[2],control[3],control[4]
10004000,0.021800047,0.019315979,0.000691554,0.15,0
10008000,0.021292176,0.019323006,0.000561101,0.15,0
10016000,0.020902565,0.019698337,0.000420803,0.15,0
10020000,0.021229967,0.019617608,0.000425632,0.15,0
10028000,0.02323893,0.019354954,0.000573761,0.15,0
10032000,0.023077639,0.01938802,0.000930724,0.15,0
10036000,0.022866238,0.019505939,0.001162952,0.15,0
10040000,0.023567501,0.019574648,0.000953995,0.15,0
10044000,0.024577754,0.019565906,0.00050906,0.15,0
10048000,0.024530029,0.019501628,0.000177006,0.15,0
10052000,0.02452725,0.01951542,0.000177258,0.15,0
10056000,0.022620222,0.019657282,0.000236344,0.15,0
10060000,0.022089487,0.019681677,0.000376356,0.15,0
10064000,0.02160334,0.019673208,0.000389579,0.15,0
10068000,0.02142468,0.0196088,0.000337261,0.15,0
10072000,0.021498483,0.019587645,0.000301104,0.15,0
10076000,0.02162393,0.019518131,0.00028772,0.15,0
10080000,0.022127476,0.0191888,8.18E-05,0.15,0
10084000,0.022899227,0.018727412,-0.000217802,0.15,0
10088000,0.023376083,0.018365318,-0.000554651,0.15,0
10092000,0.024095908,0.0182724,-0.000340647,0.15,0
10096000,0.024488185,0.018444242,0.000383696,0.15,0
10100000,0.023623744,0.018747097,0.000901802,0.15,0
10104000,0.022060396,0.018993016,0.000909864,0.15,0
10108000,0.020543158,0.019244928,0.000426624,0.15,0
10112000,0.020186035,0.01943257,0.000260572,0.15,0
10116000,0.020362958,0.019429566,0.000156113,0.15,0
10120000,0.021161366,0.019479776,0.000157885,0.15,0
10124000,0.022781031,0.019553872,0.000436787,0.15,0
10132000,0.023948083,0.01968086,0.000673014,0.15,0
10136000,0.022246396,0.019879492,0.000370889,0.15,0
10140000,0.02225459,0.019859692,0.000370607,0.15,0
10144000,0.021710405,0.019367963,-0.000112283,0.15,0
10148000,0.022261111,0.019187564,-0.000208618,0.15,0
10156000,0.023338193,0.019039355,-1.36E-05,0.15,0
10160000,0.023983112,0.01911568,-7.73E-05,0.15,0
10164000,0.023451414,0.019021887,-0.000250168,0.15,0
10168000,0.022247901,0.01877331,-0.000442734,0.15,0
10172000,0.02136482,0.01880782,-0.000603969,0.15,0
10176000,0.021140633,0.019205578,-0.000550139,0.15,0
10180000,0.021740295,0.0195339,-0.000291856,0.15,0
10188000,0.023072653,0.019636054,4.78E-05,0.15,0
10192000,0.023057671,0.019641137,4.76E-05,0.15,0
10196000,0.021180667,0.019528858,-0.000200343,0.15,0
10200000,0.020766826,0.019478293,-0.000236267,0.15,0
10204000,0.02133788,0.019293614,-0.000210642,0.15,0
10208000,0.021297462,0.019163046,-0.000334618,0.15,0
10212000,0.020530894,0.01929006,-0.000357918,0.15,0
10216000,0.019849367,0.019506017,-0.000292165,0.15,0
10220000,0.019654963,0.019756857,-0.000189408,0.15,0
10224000,0.020107526,0.019883303,-0.000187505,0.15,0
10228000,0.021598155,0.01974316,-0.000139939,0.15,0
10232000,0.0229722,0.019637857,-0.000216649,0.15,0
10240000,0.022219902,0.019841986,2.93E-05,0.15,0
10244000,0.022234334,0.019847073,2.97E-05,0.15,0
10248000,0.021763243,0.019817373,8.16E-05,0.15,0
10252000,0.023727572,0.019387186,9.71E-05,0.15,0
10256000,0.023730632,0.019384068,9.71E-05,0.15,0
10260000,0.0230756,0.01920746,0.000151202,0.15,0
10264000,0.022077573,0.019279012,0.000237518,0.15,0
10268000,0.021251528,0.019451024,6.76E-05,0.15,0
10272000,0.020833163,0.019673713,-0.000227479,0.15,0
10280000,0.02100995,0.019688526,-0.002080611,0,0
10284000,0.02086629,0.019365828,-0.001598421,0,0
10288000,0.020851327,0.019343661,-0.001632634,0,0
10292000,0.020415828,0.018962394,-0.000898787,0,0
10296000,0.019863948,0.019054938,6.65E-05,0,0
10300000,0.019790165,0.019098643,0.000866664,1,0
10308000,0.021957438,0.019173013,0.000290145,1,0
10312000,0.02180427,0.01937179,-0.00091536,1,0
10316000,0.0210695,0.019418757,-0.001674102,1,0
10320000,0.020773284,0.01929346,-0.000908936,1,0
10324000,0.020561874,0.01924237,0.000452406,1,0
10332000,0.019325374,0.019271987,-9.51E-05,1,0
10340000,0.020352462,0.01947083,-0.000375134,1,0
10344000,0.023003727,0.0199298,0.000348719,1,0
10348000,0.022454135,0.019946435,0.000734375,1,0
10352000,0.02157401,0.019634629,0.001435621,1,0
10356000,0.020979848,0.019232705,0.002972701,1,0
10360000,0.020317234,0.019071257,0.004227219,1,0
10364000,0.020320587,0.019076211,0.004336534,1,0
10368000,0.021023203,0.019403232,0.003015596,1,0
10372000,0.021268645,0.019582383,0.001276258,1,0
10376000,0.02092964,0.019549286,0.0007701,1,0
10384000,0.02069568,0.019615669,0.00187056,1,0
10388000,0.02184487,0.01945423,0.002636547,1,0
10392000,0.02230577,0.019198148,0.003546144,1,0
10396000,0.02164727,0.019268114,0.003839896,1,0
10400000,0.021086935,0.019624572,0.002452061,1,0
10408000,0.02102915,0.019773208,0.000650662,1,0
10412000,0.02161147,0.019661596,5.91E-05,1,0
10416000,0.02355035,0.019466817,0.000885112,1,0
10420000,0.023564655,0.019401735,0.000488245,1,0
10424000,0.022418607,0.019322863,-0.000674911,1,0
10428000,0.020802328,0.019319307,-0.000610979,1,0
10432000,0.020265961,0.019418776,0.000493306,1,0
10436000,0.0210356,0.019386504,0.000603568,1,0
10440000,0.022088645,0.019164458,0.000169265,1,0
10444000,0.022238074,0.019100418,2.83E-05,1,0
10448000,0.021628818,0.019236645,0.000219248,1,0
10452000,0.022056399,0.019291418,0.000637802,1,0
10456000,0.023273028,0.019457584,0.001242588,1,0
10460000,0.023564614,0.019633416,0.001554234,1,0
10464000,0.023323288,0.019476874,0.002177645,1,0
10468000,0.023013866,0.019305091,0.003742517,1,0
10476000,0.02271206,0.01927008,0.004799538,1,0
10480000,0.022751745,0.019439824,0.003936947,1,0
10488000,0.022927724,0.019177554,0.003442739,1,0
10492000,0.0229564,0.019178303,0.003474255,1,0
10496000,0.02448846,0.019248333,0.002539359,1,0
10500000,0.02553621,0.019331973,0.002930798,1,0
10504000,0.02537705,0.01930327,0.003045504,1,0
10508000,0.025354514,0.019255769,0.003067101,1,0
10512000,0.0222338,0.018758541,0.00209982,1,0
10516000,0.022081789,0.01870901,0.001402252,1,0
10520000,0.02230952,0.018858856,0.001136306,1,0
10524000,0.02230531,0.018878933,0.001178126,1,0
10528000,0.022071438,0.019394629,0.001666133,1,0
10532000,0.022076512,0.019388575,0.001676602,1,0
10536000,0.022238728,0.019488998,0.002097725,1,0
10540000,0.02222877,0.019506337,0.002165452,1,0
10548000,0.02149085,0.019545354,0.002557313,1,0
10556000,0.021324536,0.01930022,0.002328836,1,0
10560000,0.020125162,0.019256264,0.002327544,1,0
10564000,0.020365098,0.019437661,0.002249476,1,0
10572000,0.020860696,0.019412335,0.001906122,1,0
10576000,0.021969238,0.01908157,0.001672404,1,0
10580000,0.022716964,0.018872663,0.002040254,1,0
10584000,0.022512984,0.018736908,0.002263402,1,0
10588000,0.022406543,0.018495515,0.002357381,1,0
10592000,0.02350127,0.018727975,0.001936296,1,0
10596000,0.024138672,0.018912379,0.001500352,1,0
10600000,0.024184918,0.01903005,0.001316733,1,0
10604000,0.023224553,0.019025417,0.001311007,1,0
10608000,0.022283647,0.01894533,0.001074236,1,0
10612000,0.02269937,0.018860547,0.00084955,1,0
10616000,0.023826286,0.018786883,0.000862729,1,0
10620000,0.024274739,0.018897979,0.001078534,1,0
10628000,0.022631943,0.019137511,0.001060227,1,0
10636000,0.021308739,0.018896554,0.001212116,1,0
10644000,0.019459689,0.018376254,0.000559648,1,0
10648000,0.019525668,0.018661592,0.000110201,1,0
10652000,0.019880751,0.018800285,-0.000410281,1,0
10656000,0.020611888,0.018638182,-0.000862086,1,0
10660000,0.020662365,0.018610552,-0.000929701,1,0
10668000,0.02327451,0.018447893,-0.001348262,1,0
10672000,0.024162157,0.01826985,-0.001707555,1,0
10676000,0.02419365,0.018206114,-0.001919433,1,0
10680000,0.022886772,0.017941106,-0.003178669,1,0
10684000,0.021661984,0.017926976,-0.004152129,1,0
10688000,0.013892571,0.013239847,-0.005002076,1,0
10692000,0.014495511,0.01322941,-0.005783297,1,0
10696000,0.015619329,0.013087406,-0.006233648,1,0
10704000,0.015746307,0.01284759,-0.007733662,1,0
10708000,0.015758071,0.012853321,-0.008210037,1,0
10712000,0.013933262,0.013329387,-0.009547513,1,0
10716000,0.013204457,0.013271485,-0.010695288,1,0
10720000,0.01329195,0.013156636,-0.01165382,1,0
10724000,0.013821304,0.013048397,-0.012914892,1,0
10732000,0.014430746,-0.3433504,-0.014839725,1,0
10736000,0.014205911,-0.34360206,-0.015700577,1,0
10740000,0.013849198,-0.34378642,-0.016875574,1,0
10748000,0.013630117,-0.34396735,-0.018424153,1,0
10752000,0.012901351,-0.3432871,-0.020080224,1,0
10756000,0.011437974,-0.32674205,-0.02189046,1,0
10760000,0.008969129,-0.3261896,-0.023328144,1,0
10764000,0.00556904,-0.3255317,-0.025466938,1,0
10768000,0.002011857,-0.3248358,-0.02717237,1,0
10772000,-0.00089729,-0.32423434,-0.029306715,1,0
10776000,-0.003516185,-0.32359198,-0.030611794,1,0
10780000,-0.006376986,-0.30772826,-0.03237313,1,0
10784000,-0.008922242,-0.30669752,-0.03343083,1,0
10788000,-0.007381158,-0.26157695,-0.03526905,1,0
10792000,-0.008923245,-0.2609049,-0.036468673,1,0
10796000,-0.01101954,-0.2602528,-0.038220674,1,0
10800000,-0.013160798,-0.25960597,-0.03926097,1,0
10804000,-0.01516505,-0.2471617,-0.04105505,1,0
10808000,-0.017537393,-0.24667338,-0.04213248,1,0
10812000,-0.02018179,-0.24611127,-0.04385462,1,0
10816000,-0.022569723,-0.24555168,-0.044729058,1,0
10820000,-0.022932952,-0.24518538,-0.046123825,1,0
10828000,-0.026709877,-0.23303448,-0.048147265,1,0
10832000,-0.028335188,-0.23260643,-0.048883937,1,0
10836000,-0.03075883,-0.23229404,-0.050502986,1,0
10840000,-0.032031972,-0.23190714,-0.05094441,1,0
10844000,-0.033219196,-0.23155624,-0.052024573,1,0
10848000,-0.034908358,-0.23126285,-0.052434478,1,0
10852000,-0.037190072,-0.22030541,-0.053594347,1,0
10856000,-0.039255295,-0.21996228,-0.05386116,1,0
10860000,-0.04090516,-0.21962021,-0.05483892,1,0
10864000,-0.042376548,-0.21925732,-0.05512965,1,0
10868000,-0.043720774,-0.21892393,-0.056181718,1,0
10872000,-0.044830646,-0.21869929,-0.056392908,1,0
10876000,-0.045867912,-0.20840776,-0.057097897,1,0
10880000,-0.046846967,-0.20819095,-0.05704052,1,0
10884000,-0.047356497,-0.20786065,-0.058025252,1,0
10892000,-0.038821254,-0.18201418,-0.05853706,1,0
10896000,-0.040702593,-0.18185693,-0.057949007,1,0
10900000,-0.041795425,-0.17335865,-0.058395773,1,0
10908000,-0.043598477,-0.17354782,-0.05870502,1,0
10912000,-0.044243254,-0.17367743,-0.058466926,1,0
10916000,-0.044919714,-0.17373127,-0.058800995,1,0
10920000,-0.045475964,-0.1738407,-0.058383565,1,0
10924000,-0.04595556,-0.16574167,-0.058960356,1,0
10928000,-0.04676279,-0.16627105,-0.057878457,1,0
10932000,-0.04732888,-0.16643058,-0.057813607,1,0
10936000,-0.047806345,-0.16660604,-0.057098165,1,0
10940000,-0.048391312,-0.1668544,-0.056925375,1,0
10944000,-0.0491353,-0.16717064,-0.056150943,1,0
10948000,-0.050200388,-0.15985405,-0.055705335,1,0
10952000,-0.05170468,-0.1601988,-0.054766435,1,0
10956000,-0.053165562,-0.16056253,-0.054489754,1,0
10960000,-0.054102544,-0.16099256,-0.053839978,1,0
10964000,-0.05463678,-0.16110452,-0.05392652,1,0
10968000,-0.05550336,-0.16164587,-0.05253904,1,0
10972000,-0.055841304,-0.15447369,-0.051809054,1,0
10976000,-0.056197662,-0.15477034,-0.05057811,1,0
10980000,-0.05688179,-0.15510924,-0.049713276,1,0
10984000,-0.05783898,-0.15542857,-0.048448548,1,0
10988000,-0.05011556,-0.1422812,-0.047547773,1,0
10992000,-0.050862506,-0.14257467,-0.046282813,1,0
10996000,-0.051626477,-0.13633777,-0.045358006,1,0
11000000,-0.05257628,-0.13658236,-0.044020325,1,0
11004000,-0.05350199,-0.13684359,-0.04289729,1,0
11008000,-0.05411846,-0.13710652,-0.041424893,1,0
11012000,-0.054533243,-0.1373322,-0.040238492,1,0
11016000,-0.05497488,-0.13754204,-0.038767867,1,0
11020000,-0.055419046,-0.13153891,-0.037550557,1,0
11024000,-0.055827476,-0.13181028,-0.03611149,1,0
11028000,-0.056262255,-0.1320833,-0.034877595,1,0
11032000,-0.056786586,-0.13236871,-0.03333066,1,0
11036000,-0.05740852,-0.13266401,-0.03184531,1,0
11040000,-0.058121394,-0.13291131,-0.030146781,1,0
11044000,-0.058922514,-0.12706542,-0.02863836,1,0
11048000,-0.0595942,-0.12726401,-0.026928838,1,0
11052000,-0.060142472,-0.12742294,-0.025275862,1,0
11056000,-0.06090623,-0.127548,-0.023471879,1,0
11060000,-0.06172292,-0.12769717,-0.021880312,1,0
11068000,-0.06296954,-0.12213574,-0.0187003,1,0
11072000,-0.06351794,-0.12237064,-0.01697604,1,0
11076000,-0.064079896,-0.12261663,-0.015303005,1,0
11080000,-0.06460014,-0.122752056,-0.013552784,1,0
11084000,-0.06496453,-0.12282608,-0.011832998,1,0
11092000,-0.059868988,-0.111235954,-0.008752568,1,0
11096000,-0.059898876,-0.11117956,-0.006895761,1,0
11100000,-0.060310602,-0.11118862,-0.00526828,1,0
11108000,-0.061043825,-0.11133605,-0.002093302,1,0
11116000,-0.061820973,-0.10612192,0.000979072,1,0
11120000,-0.0623055,-0.106079616,0.00244765,1,0
11124000,-0.06274914,-0.10609823,0.003912438,1,0
11128000,-0.06316614,-0.10618527,0.005334307,1,0
11132000,-0.063624375,-0.10628194,0.0067589,1,0
11136000,-0.063434586,-0.10634915,0.008165389,1,0
11140000,-0.06372522,-0.10130013,0.009575583,1,0
11144000,-0.06407189,-0.10133406,0.010901131,1,0
11148000,-0.06437237,-0.10133218,0.012241035,1,0
11156000,-0.06538812,-0.10128074,0.014936647,1,0
11164000,-0.06647221,-0.0962938,0.017378613,1,0
11168000,-0.066831864,-0.0964654,0.018389292,1,0
11172000,-0.06727885,-0.096527755,0.01967987,1,0
11176000,-0.066827424,-0.09661448,0.020464156,1,0
11180000,-0.06669305,-0.096615456,0.021596301,1,0
11184000,-0.066576354,-0.09659465,0.022615995,1,0
11188000,-0.066561,-0.091636136,0.02371917,1,0
11196000,-0.067223564,-0.09169967,0.025829755,1,0
11204000,-0.06826635,-0.091723144,0.026997693,1,0
11208000,-0.06865963,-0.091829054,0.027682947,1,0
11216000,-0.06939218,-0.087252095,0.029478688,1,0
11220000,-0.06905531,-0.08760595,0.030005042,1,0
11224000,-0.06893732,-0.08778243,0.030486248,1,0
11228000,-0.068986565,-0.08793739,0.031081282,1,0
11232000,-0.06930048,-0.08804242,0.031548824,1,0
11236000,-0.06976204,-0.08339435,0.03200902,1,0
11240000,-0.07012052,-0.08358558,0.032231446,1,0
11244000,-0.07019127,-0.08389889,0.03267608,1,0
11248000,-0.07005301,-0.08424872,0.033067785,1,0
11256000,-0.070306055,-0.08474123,0.033691756,1,0
11260000,-0.070679545,-0.08021758,0.03433804,1,0
11264000,-0.070568286,-0.08048753,0.034149773,1,0
11268000,-0.07078151,-0.080706924,0.03441467,1,0
11272000,-0.07116076,-0.08087838,0.034838937,1,0
11276000,-0.07154178,-0.08119704,0.034625605,1,0
11284000,-0.07145868,-0.077143624,0.034479722,1,0
11288000,-0.071640104,-0.07745576,0.034276832,1,0
11292000,-0.072008096,-0.07764974,0.034589116,1,0
11300000,-0.07304611,-0.07827034,0.033877723,1,0
11304000,-0.07327636,-0.07855103,0.03357836,1,0
11308000,-0.073647514,-0.07421404,0.033741936,1,0
11312000,-0.07402381,-0.07463948,0.033103146,1,0
11316000,-0.07417433,-0.0749283,0.032879643,1,0
11320000,-0.07419515,-0.07520731,0.032503545,1,0
11324000,-0.07425386,-0.075543955,0.032127433,1,0
11328000,-0.07426229,-0.07592609,0.031593658,1,0
11332000,-0.07461578,-0.07167334,0.031505816,1,0
11336000,-0.074774735,-0.07213687,0.030507362,1,0
11340000,-0.07494726,-0.07248532,0.030014183,1,0
11344000,-0.07504595,-0.07286874,0.029419657,1,0
11348000,-0.07518554,-0.07323493,0.028754916,1,0
11352000,-0.07532623,-0.073511064,0.027832523,1,0
11356000,-0.075598374,-0.06927747,0.026915478,1,0
11360000,-0.07597684,-0.069514915,0.02594249,1,0
11364000,-0.07625247,-0.06982345,0.02506074,1,0
11368000,-0.076429516,-0.070244506,0.024225818,1,0
11372000,-0.07658781,-0.07075346,0.023492405,1,0
11376000,-0.07665771,-0.071269356,0.022731042,1,0
11380000,-0.07698148,-0.06717755,0.022219608,1,0
11384000,-0.07680268,-0.06778491,0.021332305,1,0
11392000,-0.077269875,-0.0685935,0.019878523,1,0
11396000,-0.07739288,-0.06912888,0.018979779,1,0
11400000,-0.07765619,-0.0699794,0.01779384,1,0
11404000,-0.07800683,-0.066144906,0.016982224,1,0
11408000,-0.07809882,-0.06656775,0.016167322,1,0
11412000,-0.07795605,-0.0670232,0.015421607,1,0
11420000,-0.07832095,-0.06793445,0.013919447,1,0
11428000,-0.0795921,-0.0647956,0.012188403,1,0
11432000,-0.079675555,-0.06541576,0.011248695,1,0
11436000,-0.079379044,-0.066057466,0.010361754,1,0
11440000,-0.07887564,-0.06666125,0.009477929,1,0
11444000,-0.07859423,-0.06721814,0.008582938,1,0
11448000,-0.078757994,-0.06778112,0.007707894,1,0
11452000,-0.07901492,-0.06403688,0.00693517,1,0
11460000,-0.07936794,-0.065251924,0.005515135,1,0
11464000,-0.0793466,-0.06592547,0.004747799,1,0
11468000,-0.07931733,-0.066595614,0.004067218,1,0
11476000,-0.0796822,-0.06353016,0.002740297,1,0
11480000,-0.0798255,-0.06411492,0.002209477,1,0
11484000,-0.08004951,-0.064598255,0.001553364,1,0
11488000,-0.08013033,-0.06510019,0.000940087,1,0
11492000,-0.07996562,-0.06567277,0.000301915,1,0
11496000,-0.07972029,-0.06631402,-0.000395019,1,0
11500000,-0.079616316,-0.06274093,-0.001067495,1,0
11504000,-0.07958866,-0.06339605,-0.001641154,1,0
11508000,-0.07961849,-0.06402549,-0.002225382,1,0
11512000,-0.07980084,-0.06465479,-0.002795906,1,0
11516000,-0.08015632,-0.065237716,-0.00334743,1,0
11520000,-0.08049022,-0.0658292,-0.003863688,1,0
11524000,-0.0806509,-0.0622514,-0.004333937,1,0
11528000,-0.08079567,-0.06290811,-0.004738642,1,0
11532000,-0.08097014,-0.063549764,-0.005146814,1,0
11536000,-0.081232384,-0.06417561,-0.005555055,1,0
11540000,-0.08139922,-0.06478186,-0.00592019,1,0
11548000,-0.081430286,-0.06175697,-0.006784637,1,0
11552000,-0.08116671,-0.06226427,-0.006993826,1,0
11556000,-0.08148416,-0.062853545,-0.007380429,1,0
11560000,-0.08161396,-0.06346172,-0.007665749,1,0
11564000,-0.08183433,-0.06404872,-0.008135373,1,0
11568000,-0.08091123,-0.06452945,-0.008207103,1,0
11572000,-0.08067303,-0.060852,-0.008416817,1,0
11580000,-0.08048306,-0.061858393,-0.008740573,1,0
11584000,-0.080446325,-0.06233725,-0.008961233,1,0
11588000,-0.080460995,-0.06288018,-0.009195886,1,0
11592000,-0.08047597,-0.063512884,-0.009348102,1,0
11596000,-0.080357,-0.059961155,-0.009460814,1,0
11600000,-0.08029831,-0.060519647,-0.009509617,1,0
11604000,-0.08041602,-0.0610512,-0.009534757,1,0
11608000,-0.08051785,-0.06157586,-0.009615492,1,0
11612000,-0.08056647,-0.062085368,-0.009754991,1,0
11616000,-0.080808185,-0.06262955,-0.009848606,1,0
11620000,-0.08118376,-0.059025325,-0.009926124,1,0
11624000,-0.08138013,-0.059548866,-0.009929358,1,0
11628000,-0.08156932,-0.060095925,-0.01009334,1,0
11632000,-0.08121348,-0.060443155,-0.009817917,1,0
11636000,-0.08139102,-0.061005693,-0.009976896,1,0
11640000,-0.08066589,-0.061540924,-0.0098757,1,0
11644000,-0.080481105,-0.05790235,-0.009908706,1,0
11648000,-0.080542356,-0.05833195,-0.009867936,1,0
11652000,-0.08067842,-0.05871586,-0.0097527,1,0
11660000,-0.08059671,-0.059676353,-0.009651796,1,0
11664000,-0.08062604,-0.060244728,-0.009582769,1,0
11668000,-0.08057131,-0.056586135,-0.009411744,1,0
11676000,-0.07986998,-0.057415277,-0.009014501,1,0
11680000,-0.07948983,-0.057822194,-0.008937274,1,0
11684000,-0.07946275,-0.058234587,-0.008935629,1,0
11688000,-0.079867415,-0.058659647,-0.00888811,1,0
11692000,-0.08001559,-0.055007514,-0.008874871,1,0
11696000,-0.08050733,-0.055488974,-0.008782189,1,0
11700000,-0.080677494,-0.05596991,-0.008575456,1,0
11704000,-0.08052546,-0.056414526,-0.008456852,1,0
11708000,-0.080662325,-0.056884598,-0.008428526,1,0
11712000,-0.08036899,-0.05721403,-0.008408333,1,0
11716000,-0.080497265,-0.05343549,-0.008387304,1,0
11720000,-0.08054669,-0.05379918,-0.008307683,1,0
11724000,-0.08036291,-0.054227255,-0.008185286,1,0
11728000,-0.08018277,-0.0546464,-0.008089958,1,0
11732000,-0.080313995,-0.055079162,-0.008064928,1,0
11740000,-0.080415286,-0.051664643,-0.008159418,1,0
11744000,-0.08027534,-0.05209349,-0.008061159,1,0
11748000,-0.08008514,-0.0525491,-0.007899283,1,0
11752000,-0.08007397,-0.05300822,-0.007748806,1,0
11756000,-0.08032964,-0.053340387,-0.00767889,1,0
11760000,-0.0806146,-0.05357789,-0.007701556,1,0
11764000,-0.080670595,-0.049719818,-0.007722591,1,0
11768000,-0.0806097,-0.05012887,-0.0076875,1,0
11772000,-0.080727994,-0.050552253,-0.007659596,1,0
11776000,-0.08057801,-0.051072255,-0.007718929,1,0
11780000,-0.080379106,-0.051480427,-0.007821771,1,0
11784000,-0.0800998,-0.05190856,-0.00798374,1,0
11788000,-0.08014587,-0.048208565,-0.008116336,1,0
11792000,-0.0803683,-0.048668563,-0.008133369,1,0
11796000,-0.080473855,-0.0490768,-0.008119951,1,0
11804000,-0.08042742,-0.049764693,-0.008051091,1,0
11808000,-0.080271825,-0.050104573,-0.008270293,1,0
11812000,-0.08023415,-0.046304554,-0.008498928,1,0
11816000,-0.0803338,-0.04668682,-0.008646365,1,0
11820000,-0.080549575,-0.047052737,-0.00876946,1,0
11824000,-0.08082412,-0.04746883,-0.008892062,1,0
11828000,-0.08093771,-0.047911152,-0.009040259,1,0
11832000,-0.08087981,-0.048308466,-0.009202157,1,0
11836000,-0.08065275,-0.044453427,-0.009357522,1,0
11844000,-0.08047111,-0.04515274,-0.009714233,1,0
11848000,-0.080825955,-0.04556687,-0.010130765,1,0
11852000,-0.08106217,-0.045960404,-0.01033768,1,0
11860000,-0.0814352,-0.042541534,-0.010951258,1,0
11864000,-0.08169198,-0.04296389,-0.011335283,1,0
11868000,-0.08177299,-0.043381326,-0.011615383,1,0
11876000,-0.08196088,-0.044089444,-0.012068812,1,0
11880000,-0.08201076,-0.044426568,-0.012361085,1,0
11884000,-0.081924945,-0.04061459,-0.012665743,1,0
11888000,-0.08197295,-0.041019443,-0.012886418,1,0
11892000,-0.08220965,-0.041427888,-0.013083485,1,0
11896000,-0.08223252,-0.041824646,-0.013377702,1,0
11900000,-0.08197214,-0.042218667,-0.013767605,1,0
11904000,-0.081736095,-0.042602938,-0.014216272,1,0
11908000,-0.081630774,-0.038748838,-0.01468985,1,0
11912000,-0.08163827,-0.039094053,-0.015052903,1,0
11916000,-0.081754245,-0.039426252,-0.015358362,1,0
11920000,-0.08184104,-0.039768293,-0.015737796,1,0
11924000,-0.08188373,-0.040149912,-0.016181707,1,0
11928000,-0.082025364,-0.040533356,-0.01661459,1,0
11932000,-0.08213062,-0.03667432,-0.01693762,1,0
11936000,-0.082508765,-0.0370631,-0.017399974,1,0
11940000,-0.08280849,-0.037503436,-0.017817136,1,0
11944000,-0.083032355,-0.0379775,-0.018231623,1,0
11948000,-0.08305083,-0.0384392,-0.018683072,1,0
11952000,-0.083022736,-0.038912088,-0.019125791,1,0
11956000,-0.08296824,-0.035153445,-0.01952878,1,0
11960000,-0.0828519,-0.03558532,-0.019944612,1,0
11964000,-0.08295676,-0.035972796,-0.02033976,1,0
11968000,-0.08281653,-0.036342908,-0.020877527,1,0
11972000,-0.08265099,-0.036737207,-0.021379601,1,0
11980000,-0.08253351,-0.03340298,-0.022452714,1,0
11984000,-0.08269781,-0.03379137,-0.022961374,1,0
11988000,-0.08281177,-0.034130692,-0.023412751,1,0
11992000,-0.08306909,-0.03449352,-0.023841033,1,0
11996000,-0.083236694,-0.03494127,-0.02423719,1,0
12000000,-0.08307439,-0.03543116,-0.024626821,1,0
12004000,-0.082907766,-0.031645786,-0.025023686,1,0
12012000,-0.08315728,-0.03256257,-0.02592836,1,0
12016000,-0.08325922,-0.032957427,-0.02638517,1,0
12020000,-0.08363834,-0.03329792,-0.026997931,1,0
12024000,-0.08395245,-0.03370308,-0.027412485,1,0
12028000,-0.08406287,-0.02985232,-0.027838357,1,0
12032000,-0.08435935,-0.030323677,-0.028185096,1,0
12036000,-0.08427439,-0.030731298,-0.02871222,1,0
12040000,-0.08438732,-0.031134829,-0.029162962,1,0
12044000,-0.08454528,-0.031500094,-0.029645558,1,0
12048000,-0.08447066,-0.03189878,-0.029989995,1,0
12052000,-0.08441118,-0.028055439,-0.030387513,1,0
12056000,-0.084402665,-0.028552433,-0.030885141,1,0
12060000,-0.08450899,-0.028961949,-0.031334653,1,0
12068000,-0.08453387,-0.029865019,-0.032238595,1,0
12072000,-0.083865255,-0.03026752,-0.032421444,1,0
12076000,-0.08359788,-0.026447356,-0.03274472,1,0
12080000,-0.08349638,-0.026924951,-0.0331603,1,0
12084000,-0.083543055,-0.027344316,-0.03360515,1,0
12088000,-0.08375876,-0.027777037,-0.034028,1,0
12092000,-0.083855465,-0.028214425,-0.034451388,1,0
12096000,-0.08440843,-0.02873006,-0.034878593,1,0
12104000,-0.0844429,-0.02540069,-0.035499234,1,0
12108000,-0.08453429,-0.025838673,-0.035903566,1,0
12112000,-0.08449972,-0.026272248,-0.036182046,1,0
12116000,-0.084625304,-0.026688468,-0.03655795,1,0
12124000,-0.08500536,-0.023206966,-0.037390146,1,0
12128000,-0.08499879,-0.023639277,-0.037790462,1,0
12132000,-0.08508166,-0.024078205,-0.038149964,1,0
12136000,-0.084750585,-0.024500504,-0.038311526,1,0
12140000,-0.084837124,-0.024951367,-0.038534604,1,0
12144000,-0.0848258,-0.025430683,-0.038768295,1,0
12148000,-0.08462419,-0.021563705,-0.039079737,1,0
12156000,-0.08440633,-0.022413174,-0.039809354,1,0
12160000,-0.08427815,-0.022843227,-0.040126026,1,0
12164000,-0.08413733,-0.02326024,-0.040402457,1,0
12168000,-0.084263064,-0.02371348,-0.040609594,1,0
12172000,-0.08457533,-0.019837879,-0.040748265,1,0
12176000,-0.08488528,-0.020292228,-0.04092797,1,0
12180000,-0.085175335,-0.020703636,-0.041171025,1,0
12184000,-0.085167475,-0.021094529,-0.041521788,1,0
12188000,-0.08493474,-0.02152154,-0.041909292,1,0
12196000,-0.08489713,-0.018048914,-0.042454273,1,0
12200000,-0.08508493,-0.018448785,-0.04257359,1,0
12204000,-0.085234314,-0.018831672,-0.04277023,1,0
12208000,-0.08506752,-0.019187767,-0.043090574,1,0
12212000,-0.08479082,-0.019572267,-0.043358885,1,0
12220000,-0.084927805,-0.016179267,-0.043690123,1,0
12224000,-0.08499461,-0.016670458,-0.043859556,1,0
12228000,-0.08489251,-0.017061502,-0.04403919,1,0
12236000,-0.08533892,-0.017853606,-0.044619612,1,0
12240000,-0.08556254,-0.018326798,-0.04489495,1,0
12244000,-0.08558501,-0.014362961,-0.045098163,1,0
12248000,-0.085448205,-0.014759038,-0.045220867,1,0
12252000,-0.085160226,-0.015214367,-0.04529933,1,0
12256000,-0.08490941,-0.015699241,-0.045288946,1,0
12260000,-0.08484628,-0.016092064,-0.0452673,1,0
12264000,-0.08487055,-0.016459346,-0.045322422,1,0
12268000,-0.08492453,-0.012452748,-0.045399833,1,0
12272000,-0.08490908,-0.01284679,-0.045449447,1,0
12276000,-0.08478067,-0.013210098,-0.045427762,1,0
12280000,-0.08475995,-0.013607148,-0.04542747,1,0
12284000,-0.0850319,-0.014060926,-0.045427896,1,0
12288000,-0.08539287,-0.014522833,-0.045455754,1,0
12292000,-0.085546724,-0.010484587,-0.04547073,1,0
12296000,-0.08550141,-0.010807022,-0.04548393,1,0
12300000,-0.08548398,-0.011114897,-0.045440488,1,0
12304000,-0.08566964,-0.011436325,-0.045413163,1,0
12308000,-0.08589108,-0.011763379,-0.04543325,1,0
12312000,-0.086007506,-0.012120415,-0.045523617,1,0
12316000,-0.08606804,-0.00807039,-0.04552734,1,0
12320000,-0.08573759,-0.008523259,-0.045586143,1,0
12324000,-0.08537507,-0.009007383,-0.045587417,1,0
12328000,-0.08531977,-0.00950484,-0.045601282,1,0
12332000,-0.085433036,-0.009948422,-0.045563612,1,0
12336000,-0.08544057,-0.010354636,-0.045503244,1,0
12340000,-0.08543861,-0.00627406,-0.045384258,1,0
12344000,-0.08547472,-0.00658093,-0.045346987,1,0
12348000,-0.085484564,-0.006906771,-0.04539523,1,0
12352000,-0.085466534,-0.007347507,-0.045512445,1,0
12356000,-0.0855864,-0.007829897,-0.045636304,1,0
12360000,-0.08591859,-0.008290388,-0.045761354,1,0
12364000,-0.086137496,-0.004257914,-0.045820348,1,0
12372000,-0.085638955,-0.00501109,-0.04581079,1,0
12376000,-0.0856271,-0.005319789,-0.045828465,1,0
12380000,-0.085801825,-0.005627781,-0.04586164,1,0
12384000,-0.08606595,-0.006004965,-0.04589627,1,0
12388000,-0.08613025,-0.001919121,-0.04590005,1,0
12392000,-0.08667992,-0.002420973,-0.04595085,1,0
12396000,-0.08684228,-0.002802759,-0.04598728,1,0
12404000,-0.08692655,-0.003583014,-0.0460838,1,0
12408000,-0.08658973,-0.003982063,-0.046255447,1,0
12412000,-0.08638217,9.95E-05,-0.046356812,1,0
12416000,-0.086437754,-0.00031724,-0.046390407,1,0
12420000,-0.08649568,-0.000657244,-0.0463633,1,0
12428000,-0.08617929,-0.001332006,-0.046291478,1,0
12432000,-0.086121604,-0.001760144,-0.04632914,1,0
12436000,-0.08606738,0.002286146,-0.046410214,1,0
12440000,-0.08617967,0.001868945,-0.04656464,1,0
12444000,-0.08639215,0.00154781,-0.046635106,1,0
12448000,-0.086413704,0.001206664,-0.04662136,1,0
12452000,-0.08638476,0.000786722,-0.046579458,1,0
12456000,-0.08633259,0.000338987,-0.04662194,1,0
12460000,-0.08630315,0.004466828,-0.046657734,1,0
12464000,-0.086593814,0.00411316,-0.046668462,1,0
12472000,-0.08728995,0.003390847,-0.046624128,1,0
12476000,-0.08723875,0.00304082,-0.04668928,1,0
12480000,-0.0870033,0.002653223,-0.046807192,1,0
12484000,-0.08682209,0.006782878,-0.046832208,1,0
12488000,-0.08677569,0.006391086,-0.046811864,1,0
12492000,-0.08683532,0.006015623,-0.046797357,1,0
12496000,-0.08702337,0.005620247,-0.046832986,1,0
12500000,-0.087147035,0.005185925,-0.046879247,1,0
12504000,-0.08703648,0.004759288,-0.046961635,1,0
12508000,-0.08691637,0.008937446,-0.046993397,1,0
12512000,-0.08701222,0.008529399,-0.04702373,1,0
12516000,-0.08707295,0.008113749,-0.04702823,1,0
12524000,-0.08711702,0.007302502,-0.047092743,1,0
12528000,-0.08715534,0.006832248,-0.047303144,1,0
12532000,-0.087115265,0.010974977,-0.04733204,1,0
12536000,-0.08702366,0.010553665,-0.047345445,1,0
12540000,-0.08712104,0.010169907,-0.047363106,1,0
12544000,-0.08728707,0.009768887,-0.04739533,1,0
12548000,-0.087251656,0.00929871,-0.04734328,1,0
12552000,-0.08730661,0.008889431,-0.04737084,1,0
12556000,-0.0872372,0.013051093,-0.047305934,1,0
12564000,-0.08757107,0.012384975,-0.04747033,1,0
12568000,-0.08761774,0.011970207,-0.04749926,1,0
12572000,-0.08719723,0.011449259,-0.04758063,1,0
12580000,-0.087097466,0.01526952,-0.047686,1,0
12584000,-0.08735176,0.014903499,-0.04773525,1,0
12588000,-0.087505095,0.014507815,-0.047690988,1,0
12592000,-0.08757258,0.014122233,-0.047651775,1,0
12596000,-0.087820284,0.013775142,-0.04764166,1,0
12600000,-0.0881325,0.013422757,-0.047696535,1,0
12604000,-0.088184744,0.017629972,-0.04770063,1,0
12608000,-0.08803405,0.017120717,-0.047739454,1,0
12612000,-0.087834835,0.016620712,-0.04774576,1,0
12616000,-0.087757386,0.016133497,-0.047775116,1,0
12620000,-0.087868795,0.015727889,-0.047789287,1,0
12624000,-0.0880354,0.015403191,-0.047817677,1,0
12628000,-0.08819964,0.019684555,-0.04780136,1,0
12632000,-0.088350974,0.019271165,-0.047803894,1,0
12636000,-0.08840472,0.0188659,-0.047808,1,0
12640000,-0.088400126,0.01844554,-0.04770945,1,0
12644000,-0.08833873,0.018040225,-0.047636416,1,0
12652000,-0.08871941,0.021745492,-0.04766427,1,0
12656000,-0.08876021,0.02132919,-0.047697783,1,0
12660000,-0.08816427,0.020873051,-0.04775838,1,0
12664000,-0.088022605,0.020463143,-0.04778943,1,0
12668000,-0.088289276,0.019984955,-0.04775796,1,0
12672000,-0.08856023,0.019495433,-0.047736436,1,0
12676000,-0.08862064,0.023708435,-0.047740515,1,0
12684000,-0.088480234,0.022839367,-0.04757131,1,0
12688000,-0.08827641,0.022463681,-0.047583804,1,0
12692000,-0.08817567,0.022013208,-0.04760671,1,0
12696000,-0.08820092,0.021555794,-0.047668144,1,0
12700000,-0.08839847,0.025817264,-0.047695525,1,0
12704000,-0.08875969,0.025439369,-0.04775814,1,0
12708000,-0.089060195,0.02503365,-0.047812164,1,0
12712000,-0.08909386,0.02458676,-0.047896132,1,0
12716000,-0.089145795,0.024159748,-0.04790023,1,0
12724000,-0.08884857,0.02797063,-0.04797497,1,0
12728000,-0.08908753,0.027621225,-0.048000958,1,0
12731999,-0.0891337,0.027196614,-0.047913477,1,0
12736000,-0.08897331,0.026724521,-0.04786077,1,0
12740000,-0.08889519,0.026298743,-0.04783696,1,0
12744000,-0.08896516,0.025871055,-0.04783918,1,0
12748000,-0.089013696,0.030120421,-0.047843255,1,0
12751999,-0.08903283,0.029634153,-0.047833145,1,0
12756000,-0.08905853,0.029185066,-0.047855437,1,0
12760000,-0.08910587,0.028777905,-0.047934573,1,0
12763999,-0.08895615,0.02842132,-0.047893044,1,0
12768000,-0.08870132,0.028068691,-0.047792323,1,0
12772000,-0.088742435,0.032349885,-0.047796384,1,0
12776000,-0.08860922,0.032042094,-0.047682002,1,0
12780000,-0.088609934,0.031617574,-0.047667727,1,0
12783999,-0.0886279,0.031098522,-0.047739215,1,0
12788000,-0.088542596,0.030502332,-0.047809288,1,0
12792000,-0.088561974,0.029962685,-0.04788757,1,0
12795999,-0.08876013,0.03429504,-0.047865592,1,0
12800000,-0.089048356,0.033997975,-0.04783468,1,0
12804000,-0.0893771,0.03365735,-0.047805972,1,0
12808000,-0.08957674,0.033251386,-0.0478186,1,0
12812000,-0.089730985,0.032825723,-0.047798857,1,0
12815999,-0.08989337,0.03239181,-0.04785218,1,0
12820000,-0.089871824,0.036618352,-0.047851317,1,0
12824000,-0.08975052,0.036131784,-0.047854207,1,0
12827999,-0.08980167,0.03565831,-0.047823258,1,0
12832000,-0.09013158,0.035212487,-0.047847692,1,0
12836000,-0.09041861,0.034836657,-0.047901742,1,0
12840000,-0.090444535,0.034501463,-0.047972776,1,0
12844000,-0.09038769,0.03885321,-0.04795124,1,0
12847999,-0.09010204,0.03841798,-0.048018783,1,0
12852000,-0.08958033,0.037939645,-0.048113443,1,0
12856000,-0.08923871,0.037424646,-0.04819394,1,0
12859999,-0.0892673,0.036989868,-0.04819805,1,0
12864000,-0.08885438,0.03646133,-0.048290268,1,0
12868000,-0.08879253,0.040731758,-0.048283428,1,0
12872000,-0.08887202,0.040327918,-0.0482731,1,0
12876000,-0.08902069,0.039993748,-0.04825132,1,0
12879999,-0.08942275,0.03966421,-0.048256792,1,0
12884000,-0.090041116,0.03932928,-0.048193462,1,0
12888000,-0.090437666,0.038952455,-0.048171513,1,0
12891999,-0.09037351,0.043274414,-0.04812651,1,0
12896000,-0.090080656,0.04289056,-0.048071325,1,0
12900000,-0.089826114,0.042471442,-0.047994267,1,0
12904000,-0.08969624,0.04198459,-0.048043214,1,0
12908000,-0.08973962,0.041554082,-0.04804728,1,0
12911999,-0.089818865,0.04091666,-0.048143886,1,0
12916000,-0.08977294,0.045133095,-0.048151243,1,0
12920000,-0.08980107,0.044771858,-0.04818394,1,0
12923999,-0.08990087,0.044481948,-0.04818532,1,0
12928000,-0.09003581,0.044149213,-0.04827527,1,0
12932000,-0.09032588,0.043782637,-0.04831803,1,0
12936000,-0.09058942,0.043356076,-0.048309453,1,0
12940000,-0.09062858,0.047406923,-0.04831356,1,0
12943999,-0.09040261,0.046904698,-0.048346885,1,0
12948000,-0.0903064,0.04642471,-0.048398796,1,0
12955999,-0.090353,0.045611557,-0.04848388,1,0
12960000,-0.09008521,0.045218848,-0.048535228,1,0
12964000,-0.08991317,0.04476635,-0.04853765,1,0
12968000,-0.09000307,0.044302188,-0.048563957,1,0
12972000,-0.0902663,0.04386405,-0.048582383,1,0
12980000,-0.09069894,0.043006763,-0.048743214,1,0
12987999,-0.091113806,0.042181022,-0.04883511,1,0
12996000,-0.09057267,0.04138186,-0.049022138,1,0
13000000,-0.090195514,0.041044686,-0.049061492,1,0
13004000,-0.090234414,0.040630408,-0.04906574,1,0
13007999,-0.09046319,0.040289506,-0.049027584,1,0
13012000,-0.090642564,0.039914355,-0.048996445,1,0
13016000,-0.0907139,0.039495982,-0.048994124,1,0
13019999,-0.09091973,0.03904892,-0.048938725,1,0
13024000,-0.09125093,0.03864566,-0.04895978,1,0
13028000,-0.09143617,0.038321525,-0.049035642,1,0
13032000,-0.09135519,0.038049284,-0.04919976,1,0
13036000,-0.091189355,0.037781797,-0.049236413,1,0
13039999,-0.0910969,0.037525386,-0.0492256,1,0
13044000,-0.09107451,0.03727942,-0.049195252,1,0
13048000,-0.091024145,0.036995262,-0.049252167,1,0
13051999,-0.090931565,0.036667913,-0.04924644,1,0
13056000,-0.09102118,0.03634739,-0.04920076,1,0
13060000,-0.09130254,0.036051624,-0.04915351,1,0
13068000,-0.0916709,0.03535301,-0.04933822,1,0
13071999,-0.0917039,0.034990773,-0.049467348,1,0
13076000,-0.091653205,0.03471397,-0.04948351,1,0
13083999,0.07285107,0.04011172,0.007809684,1,0
13088000,0.072572075,0.03996738,0.00797548,1,0
13092000,0.07254916,0.039674565,0.00801515,1,0
13096000,0.0721155,0.03954774,0.008045947,1,0
13100000,0.07061506,0.039303515,0.008061892,1,0
13103999,0.07044264,0.039028384,0.008116391,1,0
13108000,0.063318655,0.038766265,0.008030593,1,0
13112000,0.05849766,0.0385278,0.008085523,1,0
13115999,0.053741556,0.038313296,0.008131861,1,0
13120000,0.049231984,0.038120247,0.00813783,1,0
13124000,0.044837393,0.037900798,0.008125743,1,0
13128000,0.04065297,0.037668213,0.008153362,1,0
13132000,0.036694173,0.037530042,0.008203395,1,0
13135999,0.032871604,0.037431214,0.008268205,1,0
13140000,0.029229002,0.03724031,0.008367479,1,0
13144000,0.025806837,0.036977135,0.008462613,1,0
13147999,0.02511121,0.03679667,0.008565334,1,0
13152000,0.019465629,0.03665819,0.008628313,1,0
13156000,0.016535444,0.036508314,0.008685153,1,0
13160000,0.013716268,0.03627732,0.008728049,1,0
13164000,0.011139954,0.036053114,0.008780531,1,0
13167999,0.008634755,0.035931595,0.008848113,1,0
13172000,0.007781414,0.03579421,0.008965412,1,0
13176000,0.00373371,0.035861447,0.00892508,1,0
13180000,0.002837027,0.03575947,0.009043263,1,0
13184000,-0.000988973,0.03585806,0.009025347,1,0
13188000,-0.003202376,0.035733394,0.009182613,1,0
13196000,-0.006130535,0.035512853,0.009509528,1,0
13199999,-0.008650206,0.035498418,0.009612558,1,0
13204000,-0.009628537,0.035416476,0.009741843,1,0
13208000,-0.012089126,0.03538289,0.009657051,1,0
13212000,-0.013476625,0.035354614,0.009743202,1,0
13216000,-0.01474085,0.035280313,0.009822074,1,0
13219999,-0.015992235,0.035177525,0.009854238,1,0
13224000,-0.017306566,0.03507454,0.009884173,1,0
13228000,-0.018836914,0.03497898,0.009955242,1,0
13231999,-0.020439025,0.03495936,0.010059178,1,0
13236000,-0.021841709,0.034987025,0.010173147,1,0
13240000,-0.023141496,0.034931403,0.010291332,1,0
13244000,-0.024345364,0.034803517,0.010421821,1,0
13248000,-0.025323188,0.03471783,0.010555014,1,0
13252000,-0.026257107,0.03471922,0.010654861,1,0
13256000,-0.027452055,0.034758285,0.010712402,1,0
13260000,-0.028826151,0.034794502,0.010764798,1,0
13263999,-0.030003272,0.034790248,0.01084264,1,0
13268000,-0.03085773,0.034748442,0.010920306,1,0
13276000,-0.032258246,0.034689598,0.011052499,1,0
13280000,-0.033153504,0.03464508,0.011162887,1,0
13283999,-0.034330945,0.03456162,0.011293627,1,0
13292000,-0.036231793,0.034452245,0.011650311,1,0
13295999,-0.036613956,0.034474842,0.011762247,1,0
13300000,-0.03701075,0.03452815,0.011841833,1,0
13304000,-0.037746493,0.034560807,0.011903318,1,0
13308000,-0.038719077,0.03457132,0.011985417,1,0
13315999,-0.040385075,0.034572423,0.012218891,1,0
13320000,-0.040773608,0.034575664,0.012373799,1,0
13324000,-0.041216608,0.03455064,0.012506822,1,0
13327999,-0.04186996,0.034538917,0.012595953,1,0
13332000,-0.04239852,0.03457614,0.012699537,1,0
13336000,-0.042852774,0.0346312,0.0128073,1,0
13340000,-0.043834902,0.034635834,0.01293737,1,0
13344000,-0.044263996,0.03457079,0.01306245,1,0
13347999,-0.0449475,0.034552403,0.013193207,1,0
13352000,-0.045912463,0.034571964,0.013320031,1,0
13356000,-0.04618579,0.034633905,0.013463646,1,0
13364000,-0.04753506,0.03463646,0.013734567,1,0
13368000,-0.04773023,0.034537084,0.013821321,1,0
13372000,-0.04854246,0.03443826,0.013947243,1,0
13379999,-0.049867053,0.034365848,0.014141774,1,0
13384000,-0.050267383,0.03434179,0.014267751,1,0
13388000,-0.05060643,0.03433744,0.014574984,1,0
13391999,-0.051045164,0.034301452,0.014783358,1,0
13400000,-0.052396733,0.0343307,0.015039787,1,0
13404000,-0.052283365,0.03436186,0.015065186,1,0
13408000,-0.05278058,0.03434161,0.015141675,1,0
13411999,-0.05328562,0.034350052,0.015223109,1,0
13416000,-0.053824775,0.03437614,0.015365852,1,0
13420000,-0.05432871,0.034433197,0.015537307,1,0
13423999,-0.054680523,0.0345236,0.015671764,1,0
13428000,-0.055535264,0.034554154,0.015791863,1,0
13436000,-0.056195427,0.034669627,0.016091052,1,0
13440000,-0.056211434,0.0345155,0.016299302,1,0
13443999,-0.056610517,0.034493454,0.016383681,1,0
13448000,-0.05680733,0.03452187,0.016450286,1,0
13452000,-0.05710075,0.03454733,0.016555917,1,0
13455999,-0.057542726,0.03454244,0.016675914,1,0
13460000,-0.057953924,0.0345594,0.016804302,1,0
13468000,-0.058519807,0.034555968,0.01709779,1,0
13472000,-0.058962017,0.034535885,0.01718505,1,0
13475999,-0.059507743,0.03449748,0.017303014,1,0
13480000,-0.059877984,0.034500264,0.017479911,1,0
13484000,-0.06016977,0.03460349,0.01765183,1,0
13488000,-0.06057702,0.03475748,0.017841946,1,0
13492000,-0.061068602,0.034805305,0.017967314,1,0
13500000,-0.06202151,0.03473848,0.018176218,1,0
13504000,-0.062269833,0.03478669,0.018341482,1,0
13508000,-0.06300932,0.034801345,0.018458959,1,0
13512000,-0.062398378,0.034850825,0.018572336,1,0
13516000,-0.06262696,0.034884676,0.018617978,1,0
13520000,-0.06315031,0.03486204,0.01867596,1,0
13528000,-0.064216405,0.034787722,0.019001089,1,0
13532000,-0.06428386,0.034850977,0.019174831,1,0
13536000,-0.06418883,0.034948155,0.019308163,1,0
13540000,-0.06401717,0.035029978,0.019389044,1,0
13544000,-0.06421602,0.035101604,0.019456845,1,0
13548000,-0.06491673,0.03514837,0.019550102,1,0
13556000,-0.06609082,0.035191033,0.019747809,1,0
13564000,-0.06722059,0.035284586,0.019948788,1,0
13568000,-0.06744466,0.035292268,0.019976806,1,0
13572000,-0.067696914,0.035232704,0.019926798,1,0
13576000,-0.067848966,0.03519036,0.019886026,1,0
13580000,-0.06761694,0.035169818,0.0198759,1,0
13584000,-0.06819026,0.035126917,0.019853283,1,0
13588000,-0.06743851,0.035314403,0.01999951,1,0
13592000,-0.06781164,0.03528984,0.02002095,1,0
13596000,-0.06821263,0.03519222,0.020036744,1,0
13600000,-0.06856289,0.035079867,0.020036858,1,0
13604000,-0.068914555,0.03503274,0.020018034,1,0
13612000,-0.06974398,0.03496859,0.019990433,1,0
13616000,-0.069887854,0.034862176,0.019961901,1,0
13620000,-0.07000466,0.03475046,0.019901514,1,0
13624000,-0.07012502,0.034694284,0.019814119,1,0
13628000,-0.070225745,0.03467775,0.019743338,1,0
13632000,-0.070397176,0.034724,0.019737419,1,0
13636000,-0.0706547,0.034801982,0.019748762,1,0
13640000,-0.0708618,0.034803987,0.019745465,1,0
13644000,-0.07098311,0.03474424,0.019750206,1,0
13648000,-0.07103771,0.03470732,0.01973625,1,0
13652000,-0.07108484,0.03467828,0.019707074,1,0
13656000,-0.07132516,0.0346138,0.01967707,1,0
13660000,-0.07175208,0.034544397,0.019618418,1,0
13664000,-0.07216275,0.034479544,0.019550828,1,0
13668000,-0.07266119,0.03443236,0.019535882,1,0
13672000,-0.0727235,0.034364145,0.019560624,1,0
13676000,-0.07282609,0.034357168,0.019543905,1,0
13680000,-0.07290528,0.034363516,0.019483276,1,0
13684000,-0.073053956,0.034374874,0.019377766,1,0
13688000,-0.07330556,0.03432647,0.019258466,1,0
13692000,-0.07378195,0.034295674,0.019239515,1,0
13696000,-0.07376936,0.03430202,0.019209726,1,0
13700000,-0.07422023,0.034424737,0.019202966,1,0
13708000,-0.074532434,0.034369513,0.019080142,1,0
13712000,-0.07464081,0.034252394,0.018970333,1,0
13716000,-0.074991815,0.03427559,0.018866872,1,0
13720000,-0.0753025,0.034351334,0.018819116,1,0
13724000,-0.0753905,0.03438059,0.018833717,1,0
13732000,-0.07596226,0.03443239,0.018840872,1,0
13740000,-0.07640679,0.034550987,0.018844627,1,0
13748000,-0.076805145,0.03448916,0.01871506,1,0
13752000,-0.07631097,0.03448971,0.01854733,1,0
13756000,-0.07646296,0.03452768,0.018517714,1,0
13760000,-0.076776646,0.034506135,0.018493446,1,0
13764000,-0.077229865,0.03447084,0.018441467,1,0
13768000,-0.07752848,0.034467667,0.018406136,1,0
13772000,-0.07760249,0.034462005,0.018405154,1,0
13776000,-0.077713214,0.034464467,0.01837026,1,0
13780000,-0.077868566,0.034465283,0.018258449,1,0
13784000,-0.07828018,0.0344621,0.018233046,1,0
13788000,-0.07834988,0.034574438,0.018290203,1,0
13792000,-0.07863913,0.034638304,0.01827611,1,0
13796000,-0.07903941,0.034657735,0.018244235,1,0
13800000,-0.07897146,0.034765124,0.018193215,1,0
13804000,-0.07936042,0.03476452,0.01816779,1,0
13812000,-0.07932668,0.034678742,0.018124238,1,0
13816000,-0.07975992,0.03467659,0.018028203,1,0
13820000,-0.08026571,0.03470707,0.017984297,1,0
13824000,-0.08063908,0.03475205,0.01794377,1,0
13828000,-0.080639824,0.03482525,0.017872447,1,0
13832000,-0.080444954,0.03491691,0.01781677,1,0
13836000,-0.08043854,0.034943894,0.017796554,1,0
13840000,-0.080587104,0.03491751,0.017757678,1,0
13844000,-0.080809884,0.03486263,0.017695619,1,0
13852000,-0.08146104,0.034842726,0.017611196,1,0
13856000,-0.081409544,0.03491111,0.017565634,1,0
13860000,-0.081601426,0.035003774,0.017552326,1,0
13864000,-0.081910275,0.03508654,0.0175655,1,0
13868000,-0.08226817,0.03512556,0.017528683,1,0
13872000,-0.082568556,0.035288922,0.01750717,1,0
13876000,0.08252515,0.038187906,0.026260782,0.40691948,0
13880000,0.08271377,0.038328663,0.026285391,0.40691948,0
13884000,0.08301077,0.038392864,0.02629451,0.40691948,0
13888000,0.08268517,0.038499903,0.02625731,0.40691948,0
13892000,0.08094064,0.03869626,0.026255948,0.40691948,0
13896000,0.07772793,0.0388799,0.026320377,0.40691948,0
13900000,0.07230847,0.034710757,0.02792973,0.4307531,0
13904000,0.06782843,0.034746103,0.028055537,0.4307531,0
13908000,0.06363495,0.03479108,0.028146882,0.4307531,0
13912000,0.06012597,0.03483086,0.028189272,0.4307531,0
13916000,0.057382558,0.034859814,0.028184703,0.4307531,0
13920000,0.05517037,0.03497409,0.028156925,0.4307531,0
13924000,0.05454559,0.030982193,0.029769558,0.4534322,0
13932000,0.0485816,0.03122125,0.029613689,0.4534322,0
13936000,0.046626143,0.031246062,0.029677194,0.4534322,0
13940000,0.044877395,0.0312512,0.02976644,0.4534322,0
13944000,0.04334093,0.03122254,0.029843051,0.4534322,0
13948000,0.040587973,0.02721787,0.03152109,0.47499624,0
13952000,0.03854453,0.027044434,0.03156092,0.47499624,0
13956000,0.037129167,0.027137903,0.031567194,0.47499624,0
13960000,0.035830427,0.027228907,0.031517163,0.47499624,0
13964000,0.03458917,0.027305804,0.03148671,0.47499624,0
13968000,0.033419922,0.027439,0.03148447,0.47499624,0
13972000,0.032378294,0.02349951,0.03319671,0.49537668,0
13976000,0.031280383,0.023602372,0.03307478,0.49537668,0
13980000,0.030233538,0.02374597,0.03309912,0.49537668,0
13984000,0.029149838,0.02387537,0.033144318,0.49537668,0
13988000,0.027969662,0.024453875,0.033595093,0.49537668,0
13992000,0.026958117,0.024714783,0.033658795,0.49537668,0
13996000,0.024595343,0.020856718,0.035329144,0.5151974,0
14000000,0.023330117,0.021105004,0.035433054,0.5151974,0
14004000,0.02235711,0.02130514,0.035561934,0.5151974,0
14008000,0.02160731,0.021478001,0.03568804,0.5151974,0
14012000,0.020929623,0.021675795,0.03578485,0.5151974,0
14016000,0.020147244,0.021959791,0.035849288,0.5151974,0
14020000,0.018021738,0.018160691,0.03762595,0.53372216,0
14024000,0.017277077,0.018635442,0.03756755,0.53372216,0
14028000,0.016784541,0.018985504,0.03762711,0.53372216,0
14036000,0.015451001,0.019649407,0.037770905,0.53372216,0
14040000,0.014675085,0.0199272,0.03782388,0.53372216,0
14044000,0.012471907,0.016121566,0.039581552,0.55094594,0
14048000,0.011434191,0.016450115,0.03978218,0.55094594,0
14052000,0.010557959,0.016806865,0.04001347,0.55094594,0
14056000,0.009563099,0.01718792,0.040154114,0.55094594,0
14060000,0.008581115,0.017621525,0.04021628,0.55094594,0
14064000,0.007840317,0.018106075,0.040256403,0.55094594,0
14068000,0.006084946,0.014536688,0.042014733,0.5668725,0
14072000,0.005643555,0.014984451,0.04212261,0.5668725,0
14076000,0.00508566,0.01541283,0.042199865,0.5668725,0
14080000,0.004448085,0.015889551,0.042266443,0.5668725,0
14084000,0.003570042,0.016312223,0.042390347,0.5668725,0
14088000,0.002617449,0.017985027,0.043421768,0.5668725,0
14092000,0.00099191,0.01442075,0.045313384,0.582936,0
14096000,0.000554334,0.014857901,0.045515418,0.582936,0
14100000,7.33E-05,0.015303792,0.04570208,0.582936,0
14104000,-0.000371057,0.015831225,0.045857944,0.582936,0
14108000,-0.001212847,0.016288215,0.04597723,0.582936,0
14116000,-0.003490738,0.013525628,0.0480025,0.5976864,0
14120000,-0.004250833,0.014046537,0.048088845,0.5976864,0
14124000,-0.004985528,0.014554419,0.04819364,0.5976864,0
14128000,-0.005762234,0.01501786,0.04835797,0.5976864,0
14136000,-0.006644161,0.016001021,0.048748523,0.5976864,0
14140000,-0.008180884,0.012668492,0.05069112,0.61121655,0
14144000,-0.008529622,0.013272654,0.050779615,0.61121655,0
14148000,-0.008717001,0.013870826,0.050884444,0.61121655,0
14152000,-0.00895403,0.014502,0.051014505,0.61121655,0
14156000,-0.009729076,0.015009327,0.05111689,0.61121655,0
14160000,-0.010026597,0.015652765,0.051235534,0.61121655,0
14164000,-0.011654769,0.012258291,0.053182192,0.6235628,0
14168000,-0.011961469,0.012872854,0.053350087,0.6235628,0
14172000,-0.012703054,0.013403827,0.053442463,0.6235628,0
14176000,-0.012850753,0.014118882,0.053606015,0.6235628,0
14180000,-0.013102236,0.014651638,0.053738147,0.6235628,0
14184000,-0.013196631,0.015181502,0.053888775,0.6235628,0
14188000,-0.015266242,0.012430066,0.056327015,0.6347826,0
14192000,-0.01537791,0.013128666,0.05646847,0.6347826,0
14196000,-0.015763242,0.013784729,0.056593727,0.6347826,0
14200000,-0.016135447,0.014352391,0.05676034,0.6347826,0
14204000,-0.01673504,0.014850004,0.056963243,0.6347826,0
14208000,-0.017455414,0.015359124,0.057175163,0.6347826,0
14212000,-0.018959384,0.012001321,0.05922693,0.64568406,0
14216000,-0.018988706,0.012615725,0.059353113,0.64568406,0
14224000,-0.018802673,0.013890231,0.059548203,0.64568406,0
14228000,-0.01901776,0.014466381,0.059655055,0.64568406,0
14232000,-0.019506847,0.015007768,0.05978152,0.64568406,0
14236000,-0.020918963,0.011660187,0.061822012,0.65553135,0
14240000,-0.021070689,0.0122135,0.061961368,0.65553135,0
14244000,-0.02112709,0.01276193,0.062079884,0.65553135,0
14252000,-0.02221115,0.01398501,0.06241882,0.65553135,0
14256000,-0.022711758,0.014533134,0.062599346,0.65553135,0
14260000,-0.023778934,0.011145292,0.064662464,0.6643938,0
14264000,-0.023743447,0.01165342,0.06474228,0.6643938,0
14268000,-0.02387089,0.012139717,0.06478453,0.6643938,0
14272000,-0.024359608,0.012646284,0.06484844,0.6643938,0
14276000,-0.024777018,0.01318077,0.064908266,0.6643938,0
14280000,-0.024808865,0.013703151,0.06494833,0.6643938,0
14284000,-0.02563171,0.01035269,0.066995606,0.67236614,0
14292000,-0.026854817,0.012201458,0.06792237,0.67236614,0
14300000,-0.027442016,0.013301291,0.06817283,0.67236614,0
14304000,-0.027639272,0.013778919,0.068253934,0.67236614,0
14308000,-0.028662339,0.01040668,0.070345744,0.68027985,0
14312000,-0.029032692,0.010969982,0.07046349,0.68027985,0
14316000,-0.029294692,0.01156217,0.07049742,0.68027985,0
14324000,-0.029894007,0.012624448,0.07062195,0.68027985,0
14328000,-0.029768758,0.013167877,0.07085586,0.68027985,0
14332000,-0.030701235,0.011634072,0.07204412,0.687377,0
14336000,-0.030740658,0.012088498,0.072151974,0.687377,0
14340000,-0.030757315,0.012575045,0.072224125,0.687377,0
14344000,-0.03102187,0.01313474,0.07228863,0.687377,0
14348000,-0.03152352,0.013684219,0.07234099,0.687377,0
14352000,-0.031949315,0.014165986,0.07233554,0.687377,0
14356000,-0.033846483,0.015409764,0.0719327,0.6937357,0
14360000,-0.033981383,0.015884357,0.07204952,0.6937357,0
14364000,-0.034200296,0.016387308,0.0722028,0.6937357,0
14368000,-0.034328938,0.016912077,0.07231193,0.6937357,0
14372000,-0.03432791,0.017428737,0.07236742,0.6937357,0
14376000,-0.034409236,0.017946867,0.07237892,0.6937357,0
14380000,-0.035426706,0.019148897,0.07205856,0.699404,0
14388000,-0.035844017,0.01999716,0.072145,0.699404,0
14396000,-0.036744542,0.021305004,0.072563745,0.699404,0
14400000,-0.036884338,0.021832447,0.07254515,0.699404,0
14404000,-0.037428968,0.022956427,0.072242364,0.70483655,0
14408000,-0.037515797,0.023425257,0.072316945,0.70483655,0
14412000,-0.037605964,0.02385869,0.0724032,0.70483655,0
14416000,-0.037603546,0.024249014,0.072467715,0.70483655,0
14420000,-0.037737932,0.02458894,0.072495736,0.70483655,0
14424000,-0.037869573,0.024905838,0.07246881,0.70483655,0
14428000,-0.038349196,0.025847454,0.07211882,0.7096696,0
14432000,-0.038557734,0.026303343,0.07212357,0.7096696,0
14436000,-0.039021447,0.026799038,0.07213062,0.7096696,0
14440000,-0.039429113,0.027302029,0.07211358,0.7096696,0
14444000,-0.03959442,0.027767397,0.07210607,0.7096696,0
14448000,-0.039620597,0.028167466,0.07212146,0.7096696,0
14452000,-0.040320583,0.029065998,0.07186058,0.7139703,0
14460000,-0.040921986,0.029824039,0.071928196,0.7139703,0
14468000,-0.04151269,0.030561473,0.07210034,0.7139703,0
14476000,-0.042271823,0.031814918,0.071822226,0.7177558,0
14480000,-0.042282514,0.032262534,0.07183206,0.7177558,0
14484000,-0.042660847,0.03270003,0.07186933,0.7177558,0
14488000,-0.04278606,0.033402078,0.07204997,0.7177558,0
14492000,-0.04284247,0.03363435,0.07181421,0.7177558,0
14500000,-0.045457214,0.03486036,0.07153954,0.7212869,0
14504000,-0.045528017,0.035265498,0.07157282,0.7212869,0
14508000,-0.045534786,0.035660885,0.071593344,0.7212869,0
14516000,-0.046070598,0.036482338,0.07166793,0.7212869,0
14524000,-0.045899294,0.03760729,0.07148698,0.72439414,0
14528000,-0.045837656,0.037907794,0.07144967,0.72439414,0
14532000,-0.045774333,0.03821472,0.071428776,0.72439414,0
14540000,-0.045903444,0.039007813,0.07145555,0.72439414,0
14544000,-0.046152838,0.039376184,0.07145504,0.72439414,0
14548000,-0.048004944,0.04011296,0.071234174,0.7271359,0
14552000,-0.048161075,0.040499195,0.071221165,0.7271359,0
14556000,-0.048429724,0.04084138,0.07118879,0.7271359,0
14560000,-0.048773028,0.04114268,0.07113234,0.7271359,0
14564000,-0.049124323,0.041560642,0.07115553,0.7271359,0
14572000,-0.051147975,0.042526215,0.07093468,0.7295339,0
14576000,-0.05106643,0.04286004,0.07100639,0.7295339,0
14580000,-0.050852776,0.043252207,0.07101554,0.7295339,0
14584000,-0.050676256,0.04362297,0.07098958,0.7295339,0
14588000,-0.051054515,0.044141464,0.07110059,0.7295339,0
14596000,-0.05087515,0.04499626,0.070850074,0.73169833,0
14600000,-0.05123827,0.04532371,0.070840575,0.73169833,0
14604000,-0.05156415,0.045719042,0.07085793,0.73169833,0
14608000,-0.05161401,0.045984074,0.07069428,0.73169833,0
14612000,-0.05164698,0.04630044,0.070656896,0.73169833,0
14620000,-0.053766273,0.047336593,0.0705096,0.73358417,0
14624000,-0.053760223,0.047713354,0.07068342,0.73358417,0
14628000,-0.053971224,0.04797417,0.07079568,0.73358417,0
14636000,-0.05439554,0.04866324,0.07080911,0.73358417,0
14640000,-0.053917978,0.049129575,0.07063262,0.73358417,0
14644000,-0.054496635,0.049769264,0.07038114,0.7351866,0
14652000,-0.05489773,0.0503952,0.07022071,0.7351866,0
14656000,-0.055161178,0.05074656,0.07025878,0.7351866,0
14660000,-0.05546558,0.05105774,0.070362136,0.7351866,0
14668000,-0.056395233,0.05185318,0.07031003,0.7365545,0
14672000,-0.056434575,0.052169338,0.07028131,0.7365545,0
14676000,-0.05646022,0.052527077,0.070206866,0.7365545,0
14684000,-0.05677703,0.053210407,0.07015251,0.7365545,0
14688000,-0.056683537,0.053516105,0.07008051,0.7365545,0
14692000,-0.058403205,0.05302248,0.06928445,0.73769015,0
14696000,-0.058369674,0.053216763,0.06925268,0.73769015,0
14700000,-0.058388203,0.053407308,0.06923162,0.73769015,0
14704000,-0.058502465,0.053591825,0.069170475,0.73769015,0
14708000,-0.05877673,0.05376479,0.06906604,0.73769015,0
14712000,-0.058958203,0.053921476,0.068964034,0.73769015,0
14716000,-0.059617713,0.053832084,0.06847314,0.738623,0
14720000,-0.059382603,0.053935073,0.068391904,0.738623,0
14724000,-0.059159316,0.05409468,0.068295,0.738623,0
14728000,-0.059298348,0.0542802,0.06818012,0.738623,0
14732000,-0.059726242,0.05445265,0.06806004,0.738623,0
14736000,-0.06004895,0.054627784,0.0679865,0.738623,0
14740000,-0.06104734,0.054534666,0.06753717,0.7393765,0
14744000,-0.061003458,0.05474048,0.067559555,0.7393765,0
14752000,-0.061013043,0.055153824,0.067457005,0.7393765,0
14756000,-0.060710013,0.055341832,0.06731367,0.7393765,0
14760000,-0.06081243,0.05546859,0.06721261,0.7393765,0
14764000,-0.061791174,0.05533266,0.06670393,0.739958,0
14768000,-0.061845776,0.05548167,0.066674374,0.739958,0
14772000,-0.061872177,0.055699214,0.066682056,0.739958,0
14776000,-0.061972,0.055945627,0.06665172,0.739958,0
14780000,-0.062019516,0.056086585,0.06656981,0.739958,0
14784000,-0.061898835,0.056159146,0.06646253,0.739958,0
14788000,-0.06400956,0.05530586,0.06554349,0.7403846,0
14796000,-0.06325488,0.05563456,0.065464005,0.7403846,0
14804000,-0.0635831,0.055911012,0.06544897,0.7403846,0
14808000,-0.06386345,0.055982053,0.06539919,0.7403846,0
14812000,-0.06503864,0.055760443,0.06486304,0.74062985,0
14816000,-0.0649945,0.055810533,0.06474394,0.74062985,0
14820000,-0.06488487,0.05596801,0.064676724,0.74062985,0
14824000,-0.06470069,0.056167923,0.06458088,0.74062985,0
14828000,-0.06442021,0.056396816,0.06448552,0.74062985,0
14836000,-0.06476727,0.056509443,0.06384599,0.74074477,0
14840000,-0.06439278,0.056601703,0.06375031,0.74074477,0
14844000,-0.06412428,0.056644708,0.06372008,0.74074477,0
14852000,-0.064628765,0.05684077,0.063790634,0.74074477,0
14856000,-0.06477662,0.05699233,0.06373379,0.74074477,0
14860000,-0.06749271,0.05612862,0.06287789,0.74073213,0
14864000,-0.067582205,0.05630898,0.06279341,0.74073213,0
14868000,-0.06771575,0.056489453,0.06272636,0.74073213,0
14872000,-0.06770686,0.05665662,0.06264649,0.74073213,0
14876000,-0.067442894,0.05677537,0.06256016,0.74073213,0
14884000,-0.068173096,0.05652076,0.06197994,0.7406347,0
14888000,-0.06812869,0.057169273,0.062216297,0.7406347,0
14892000,-0.06810151,0.057310224,0.062135953,0.7406347,0
14896000,-0.06808787,0.057462968,0.062086176,0.7406347,0
14900000,-0.06806272,0.05759451,0.06204001,0.7406347,0
14908000,-0.069227204,0.057382233,0.061469458,0.740817,0
14912000,-0.069233224,0.057524107,0.061422095,0.740817,0
14916000,-0.06902182,0.05766703,0.06136672,0.740817,0
14920000,-0.06887808,0.05786167,0.061331224,0.740817,0
14924000,-0.069026195,0.058053378,0.06130545,0.740817,0
14928000,-0.06924352,0.058219925,0.061253697,0.740817,0
14932000,-0.07156663,0.057212137,0.06034939,0.7408993,0
14936000,-0.071284905,0.057283737,0.06034339,0.7408993,0
14940000,-0.070819795,0.05730819,0.060349144,0.7408993,0
14944000,-0.07053779,0.057331335,0.060343992,0.7408993,0
14948000,-0.07057439,0.057393074,0.06030655,0.7408993,0
14952000,-0.07063023,0.057525072,0.060228657,0.7408993,0
14956000,-0.073053166,0.05648431,0.059307463,0.7408873,0
14960000,-0.072537266,0.056737885,0.05915935,0.7408873,0
14968000,-0.072478145,0.057002448,0.05903303,0.7408873,0
14972000,-0.07249971,0.057032626,0.059052676,0.7408873,0
14976000,-0.07251111,0.057090476,0.059007585,0.7408873,0
14980000,-0.073696025,0.056639113,0.058431588,0.74080634,0
14984000,-0.073476136,0.05673766,0.058424346,0.74080634,0
14988000,-0.07349742,0.056693003,0.05829606,0.74080634,0
14992000,-0.072796635,0.05685757,0.0583164,0.74080634,0
14996000,-0.07254231,0.056996234,0.05821518,0.74080634,0
15004000,-0.073612936,0.05675019,0.057592437,0.74053377,0
15012000,-0.0727614,0.056885198,0.057454176,0.74053377,0
15016000,-0.072606206,0.056925997,0.057411194,0.74053377,0
15020000,-0.07261461,0.05704276,0.0573562,0.74053377,0
15024000,-0.07259873,0.05721751,0.057278182,0.74053377,0
15028000,-0.07502646,0.05619001,0.056290023,0.7401917,0
15032000,-0.07503825,0.056312867,0.056195512,0.7401917,0
15036000,-0.075142816,0.056390867,0.056114852,0.7401917,0
15044000,-0.07545002,0.056612052,0.055953205,0.7401917,0
15052000,-0.077295244,0.055650312,0.055013124,0.73983,0
15060000,-0.07651572,0.055737063,0.054966353,0.73983,0
15064000,-0.07665498,0.055753827,0.054969683,0.73983,0
15068000,-0.07683116,0.055841323,0.05490856,0.73983,0
15072000,-0.07661331,0.0560285,0.05474726,0.73983,0
15076000,-0.0773727,0.05562331,0.054053135,0.7394218,0
15080000,-0.07676008,0.05569115,0.054021757,0.7394218,0
15084000,-0.07649788,0.055729024,0.054055262,0.7394218,0
15088000,-0.07646364,0.055737406,0.054038208,0.7394218,0
15092000,-0.07643388,0.055833623,0.05403347,0.7394218,0
15100000,-0.0776924,0.055484336,0.053434856,0.7388835,0
15108000,-0.07746519,0.05555631,0.05319482,0.7388835,0
15112000,-0.07714677,0.05559787,0.053078607,0.7388835,0
15116000,-0.07673763,0.055654217,0.052967213,0.7388835,0
15120000,-0.076464355,0.05573748,0.052907087,0.7388835,0
15124000,-0.07910772,0.054630615,0.051950354,0.7383306,0
15128000,-0.0790347,0.054786377,0.051917106,0.7383306,0
15132000,-0.07887814,0.05488684,0.051834635,0.7383306,0
15136000,-0.078751184,0.054942995,0.051715013,0.7383306,0
15140000,-0.07863327,0.055001378,0.051633317,0.7383306,0
15144000,-0.0782952,0.055106714,0.051551245,0.7383306,0
15148000,-0.08050582,0.053963784,0.050515488,0.73775256,0
15152000,-0.08014913,0.054096922,0.050484046,0.73775256,0
15156000,-0.08013156,0.054202046,0.050423793,0.73775256,0
15160000,-0.08059945,0.054303475,0.050390773,0.73775256,0
15164000,-0.08049527,0.054293796,0.050362483,0.73775256,0
15168000,-0.07999651,0.054299086,0.05033821,0.73775256,0
15172000,-0.082291305,0.053066675,0.04931525,0.7371501,0
15176000,-0.08193852,0.053121455,0.049246117,0.7371501,0
15180000,-0.08187566,0.05316467,0.049216725,0.7371501,0
15188000,-0.081834525,0.053368032,0.04916031,0.7371501,0
15192000,-0.081898935,0.053605728,0.049195323,0.7371501,0
15196000,-0.081970006,0.053769648,0.048915796,0.73665816,0
15200000,-0.081661865,0.05381068,0.04878394,0.73665816,0
15204000,-0.08120541,0.053852428,0.048716076,0.73665816,0
15208000,-0.08082241,0.053902842,0.048720103,0.73665816,0
15212000,-0.08063264,0.05397541,0.04869621,0.73665816,0
15216000,-0.080490455,0.05406338,0.04861117,0.73665816,0
