timestamp,roll_body,pitch_body,yaw_body,q_d[0],q_d[1],q_d[2],q_d[3],thrust_body[0]
10632000,0,0,1.6169292,0.6906097,0,0,0.7232277,1
10656000,0,0,1.6169292,0.6906097,0,0,0.7232277,1
10680000,0,0,1.6169292,0.6906097,0,0,0.7232277,1
10704000,0,0,1.6169292,0.6906097,0,0,0.7232277,1
10728000,0,-0.3473724,1.6169292,0.68021905,0.12498406,-0.11934721,0.7123463,1
10752000,0,-0.3317466,1.6169292,0.68113077,0.119414814,-0.11402913,0.71330106,1
10776000,0,-0.3171081,1.6169292,0.6819471,0.114190824,-0.10904075,0.714156,1
10800000,0,-0.30345654,1.6169292,0.6826755,0.109313525,-0.104383424,0.71491873,1
10824000,0,-0.29062068,1.6169292,0.6833314,0.10472302,-0.09999995,0.71560556,1
10848000,0,-0.27846667,1.6169292,0.68392646,0.10037237,-0.09584552,0.7162288,1
10872000,0,-0.26688772,1.6169292,0.6844699,0.09622412,-0.09188436,0.7167979,1
10896000,0,-0.25590238,1.6169292,0.68496424,0.09228555,-0.088123426,0.71731555,1
10920000,0,-0.2454187,1.6169292,0.68541676,0.08852425,-0.084531754,0.7177895,1
10944000,0,-0.23536216,1.6169292,0.68583316,0.0849139,-0.08108424,0.71822554,1
10968000,0,-0.22567144,1.6169292,0.68621796,0.08143286,-0.07776019,0.7186285,1
10992000,0,-0.2163535,1.6169292,0.6865728,0.078083925,-0.074562296,0.7190001,1
11016000,0,-0.20735599,1.6169292,0.68690133,0.07484854,-0.07147282,0.71934414,1
11040000,0,-0.19863512,1.6169292,0.6872064,0.071711175,-0.06847696,0.7196637,1
11064000,0,-0.19015382,1.6169292,0.6874906,0.0686587,-0.06556216,0.7199613,1
11088000,0,-0.18191598,1.6169292,0.6877548,0.06569266,-0.06272989,0.720238,1
11112000,0,-0.17388962,1.6169292,0.68800104,0.0628017,-0.059969306,0.7204958,1
11136000,0,-0.16604719,1.6169292,0.6882309,0.059976004,-0.057271052,0.7207365,1
11160000,0,-0.15836477,1.6169292,0.6884458,0.05720707,-0.054626998,0.7209616,1
11184000,0,-0.15082145,1.6169292,0.6886469,0.05448745,-0.05203003,0.7211722,1
11208000,0,-0.14342168,1.6169292,0.6888348,0.051818825,-0.04948177,0.7213689,1
11232000,0,-0.13614696,1.6169292,0.68901014,0.04919461,-0.046975903,0.7215526,1
11256000,0,-0.12898098,1.6169292,0.68917406,0.04660898,-0.04450689,0.7217243,1
11280000,0,-0.121909276,1.6169292,0.6893271,0.044056788,-0.042069804,0.72188455,1
11304000,0,-0.11493252,1.6169292,0.6894697,0.04153832,-0.039664917,0.7220338,1
11328000,0,-0.10803809,1.6169292,0.6896023,0.03904907,-0.037287936,0.72217274,1
11352000,0,-0.10121452,1.6169292,0.6897255,0.03658495,-0.03493495,0.7223018,1
11376000,0,-0.09445158,1.6169292,0.6898397,0.0341423,-0.032602463,0.72242135,1
11400000,0,-0.08774879,1.6169292,0.6899451,0.031720996,-0.030290361,0.7225317,1
11424000,0,-0.081097156,1.6169292,0.690042,0.02931782,-0.02799557,0.7226332,1
11448000,0,-0.074488506,1.6169292,0.6901308,0.026929848,-0.025715297,0.7227261,1
11472000,0,-0.06791538,1.6169292,0.69021153,0.02455442,-0.023447003,0.72281075,1
11496000,0,-0.06137847,1.6169292,0.6902845,0.02219182,-0.021190958,0.72288716,1
11520000,0,-0.054871142,1.6169292,0.69034976,0.019839674,-0.018944895,0.7229555,1
11544000,0,-0.048387337,1.6169292,0.6904076,0.017495824,-0.016706752,0.723016,1
11568000,0,-0.041921478,1.6169292,0.690458,0.015158276,-0.014474629,0.72306883,1
11592000,0,-0.03547237,1.6169292,0.69050103,0.012826628,-0.01224814,0.7231139,1
11616000,0,-0.02903516,1.6169292,0.6905369,0.010499147,-0.010025629,0.72315145,1
11640000,0,-0.022605395,1.6169292,0.6905656,0.00817425,-0.007805586,0.7231815,1
11664000,0,-0.016179014,1.6169292,0.6905871,0.005850492,-0.005586631,0.723204,1
11688000,0,-0.009755315,1.6169292,0.69060147,0.003527643,-0.003368544,0.72321904,1
11712000,0,-0.003330774,1.6169292,0.69060874,0.001204453,-0.001150132,0.72322667,1
11736000,0,0.003097823,1.6169292,0.69060886,-0.001120215,0.001069693,0.72322685,1
11760000,0,0.009533436,1.6169292,0.6906018,-0.003447409,0.003291929,0.72321945,1
11784000,0,0.015978765,1.6169292,0.6905877,-0.005778081,0.005517487,0.7232046,1
11808000,0,0.022434352,1.6169292,0.69056624,-0.008112402,0.007746528,0.7231822,1
11832000,0,0.028902512,1.6169292,0.6905376,-0.010451185,0.00997983,0.72315216,1
11856000,0,0.03538533,1.6169292,0.6905016,-0.012795157,0.012218088,0.7231145,1
11880000,0,0.041884672,1.6169292,0.69045824,-0.015144969,0.014461922,0.7230691,1
11904000,0,0.048399787,1.6169292,0.6904075,-0.017500324,0.01671105,0.72301596,1
11928000,0,0.05493225,1.6169292,0.6903492,-0.019861765,0.018965987,0.72295487,1
11952000,0,0.061483484,1.6169292,0.6902834,-0.022229778,0.021227201,0.72288597,1
11976000,0,0.06805474,1.6169292,0.6902099,-0.024604786,0.023495097,0.722809,1
12000000,0,0.07464714,1.6169292,0.69012874,-0.026987173,0.025770037,0.722724,1
12024000,0,0.081261665,1.6169292,0.6900397,-0.029377257,0.028052326,0.72263074,1
12048000,0,0.08789913,1.6169292,0.6899428,-0.03177531,0.030342225,0.7225293,1
12072000,0,0.09456027,1.6169292,0.68983793,-0.034181565,0.032639958,0.7224195,1
12096000,0,0.10124522,1.6169292,0.689725,-0.036596037,0.034945536,0.7223012,1
12120000,0,0.10795445,1.6169292,0.68960387,-0.03901887,0.037259094,0.72217435,1
12144000,0,0.114688344,1.6169292,0.6894745,-0.041450165,0.03958074,0.7220389,1
12168000,0,0.12144713,1.6169292,0.68933684,-0.043889977,0.041910514,0.7218947,1
12192000,0,0.1282307,1.6169292,0.6891907,-0.046338234,0.044248354,0.7217417,1
12216000,0,0.13503917,1.6169292,0.6890361,-0.048794936,0.04659426,0.72157973,1
12240000,0,0.1418725,1.6169292,0.6888729,-0.051260043,0.048948184,0.72140884,1
12264000,0,0.14873064,1.6169292,0.688701,-0.053733498,0.05131009,0.72122884,1
12288000,0,0.15561402,1.6169292,0.6885203,-0.05621542,0.053680073,0.7210396,1
12312000,0,0.1625224,1.6169292,0.68833077,-0.05870569,0.05605803,0.7208411,1
12336000,0,0.16945545,1.6169292,0.6881323,-0.06120415,0.058443807,0.72063327,1
12360000,0,0.17641275,1.6169292,0.68792486,-0.0637106,0.060837213,0.720416,1
12384000,0,0.1833938,1.6169292,0.68770826,-0.06622484,0.06323806,0.7201892,1
12408000,0,0.19039899,1.6169292,0.6874826,-0.06874696,0.06564643,0.7199529,1
12432000,0,0.1974277,1.6169292,0.68724763,-0.0712767,0.06806208,0.71970683,1
12456000,0,0.20447929,1.6169292,0.6870034,-0.07381379,0.07048474,0.71945107,1
12480000,0,0.21155307,1.6169292,0.6867498,-0.07635794,0.07291415,0.7191855,1
12504000,0,0.21864888,1.6169292,0.6864868,-0.07890906,0.07535022,0.71891004,1
12528000,0,0.22576596,1.6169292,0.68621427,-0.081466824,0.07779262,0.71862465,1
12552000,0,0.23290351,1.6169292,0.6859323,-0.08403091,0.08024107,0.71832937,1
12576000,0,0.24006072,1.6169292,0.68564075,-0.08660098,0.08269522,0.7180241,1
12600000,0,0.24723901,1.6169292,0.6853395,-0.08917751,0.085155554,0.7177086,1
12624000,0,0.25443748,1.6169292,0.6850286,-0.09176012,0.08762169,0.717383,1
12648000,0,0.2616552,1.6169292,0.68470794,-0.09434846,0.09009329,0.71704715,1
12672000,0,0.26889125,1.6169292,0.6843775,-0.09694213,0.09256998,0.71670115,1
12696000,0,0.27614507,1.6169292,0.6840372,-0.0995409,0.09505154,0.7163448,1
12719999,0,0.2834154,1.6169292,0.68368715,-0.10214427,0.0975375,0.7159782,1
12744000,0,0.29070216,1.6169292,0.68332726,-0.10475217,0.100027785,0.7156013,1
12768000,0,0.2980035,1.6169292,0.68295753,-0.10736388,0.10252171,0.71521413,1
12792000,0,0.3053201,1.6169292,0.68257797,-0.10997964,0.105019495,0.7148166,1
12815999,0,0.31265074,1.6169292,0.68218845,-0.11259892,0.10752064,0.7144087,1
12840000,0,0.3199953,1.6169292,0.681789,-0.115221664,0.11002511,0.7139904,1
12864000,0,0.32735196,1.6169292,0.6813797,-0.11784717,0.11253219,0.7135617,1
12888000,0,0.33472177,1.6169292,0.68096036,-0.12047577,0.11504224,0.7131226,1
12911999,0,0.34210348,1.6169292,0.68053114,-0.12310698,0.117554784,0.71267307,1
12936000,0,0.34906584,1.6169292,0.6801178,-0.12558717,0.119923115,0.7122402,1
12960000,0,0.34906584,1.6169292,0.6801178,-0.12558717,0.119923115,0.7122402,1
12984000,0,0.34906584,1.6169292,0.6801178,-0.12558717,0.119923115,0.7122402,1
13007999,0,0.34906584,1.6169292,0.6801178,-0.12558717,0.119923115,0.7122402,1
13032000,0,0.34906584,1.6169292,0.6801178,-0.12558717,0.119923115,0.7122402,1
13056000,0,0.34906584,1.6169292,0.6801178,-0.12558717,0.119923115,0.7122402,1
13080000,0.43633232,0.34906584,2.450024,0.36123323,-0.08725299,0.25799525,0.8918161,1
13103999,0.43633232,0.34906584,2.4578214,0.35775355,-0.08825818,0.25765312,0.8932176,1
13128000,0.43633232,0.34906584,2.4575245,0.35788608,-0.08821994,0.2576662,0.8931645,1
13152000,0.43633232,0.34906584,2.465354,0.35438687,-0.08922795,0.25731888,0.8945587,1
13176000,0.43633232,0.34906584,2.469288,0.35262656,-0.08973396,0.25714287,0.89525414,1
13199999,0.43633232,0.34906584,2.477152,0.3491037,-0.09074433,0.25678805,0.8966337,1
13224000,0.43633232,0.34906584,2.4808,0.34746772,-0.09121254,0.2566221,0.89726895,1
13248000,0.43633232,0.34906584,2.4847658,0.34568784,-0.09172122,0.25644073,0.8979562,1
13272000,0.43633232,0.34906584,2.492673,0.34213498,-0.09273436,0.2560761,0.89931583,1
13295999,0.43633232,0.34906584,2.500594,0.3385706,-0.093747824,0.25570682,0.9006638,1
13320000,0.43633232,0.34906584,2.5003297,0.33868954,-0.09371404,0.2557192,0.9006191,1
13344000,0.43633232,0.34906584,2.5082731,0.3351099,-0.09472894,0.255345,0.90195715,1
13368000,0.43633232,0.34906584,2.5122793,0.33330253,-0.09524023,0.25515473,0.90262663,1
13391999,0.43633232,0.34906584,2.5159824,0.3316307,-0.0957125,0.25497794,0.9032421,1
13416000,0.43633232,0.34906584,2.5239668,0.32802215,-0.09672965,0.2545938,0.9045589,1
13440000,0.43633232,0.34906584,2.5279984,0.32619804,-0.09724268,0.25439832,0.9052183,1
13464000,0.43633232,0.34906584,2.5360165,0.32256645,-0.098261766,0.25400642,0.90651876,1
13488000,0.43633232,0.34906584,2.535773,0.32267675,-0.09823085,0.25401837,0.9064795,1
13512000,0.43633232,0.34906584,2.543799,0.3190365,-0.09924942,0.2536221,0.90776706,1
13536000,0.43633232,0.34906584,2.5518441,0.31538236,-0.10026883,0.25322083,0.9090431,1
13560000,0.43633232,0.34906584,2.5515985,0.31549397,-0.10023776,0.25323313,0.9090044,1
13584000,0.43633232,0.34906584,2.5596576,0.31182858,-0.101257324,0.2528272,0.91026825,1
13608000,0.43633232,0.34906584,2.5637324,0.30997333,-0.10177225,0.25262034,0.91090167,1
13632000,0.43633232,0.34906584,2.5674994,0.3082571,-0.10224787,0.2524282,0.9114839,1
13656000,0.43633232,0.34906584,2.5755937,0.30456567,-0.103268646,0.25201234,0.912724,1
13680000,0.43633232,0.34906584,2.5796864,0.3026973,-0.10378413,0.25180048,0.9133453,1
13704000,0.43633232,0.34906584,2.5834444,0.3009806,-0.10425708,0.25160503,0.9139125,1
13728000,0.43633232,0.34906584,2.587514,0.29912037,-0.10476881,0.25139236,0.91452307,1
13752000,0.43633232,0.34906584,2.5956237,0.29540962,-0.10578732,0.25096548,0.91572845,1
13776000,0.43633232,0.34906584,2.5953639,0.2955286,-0.10575471,0.25097924,0.91569,1
13800000,0.43633232,0.34906584,2.6034918,0.29180482,-0.10677382,0.25054738,0.9168835,1
13824000,0.43633232,0.34906584,2.6072633,0.2900753,-0.1072461,0.2503456,0.9174321,1
13848000,0.43633232,0.34906584,2.6113527,0.2881988,-0.10775775,0.25012577,0.9180233,1
13872000,0.8680879,0.34156767,2.6195025,0.2998036,-0.042012222,0.440181,0.8453364,0.40691948
13896000,0.86490726,0.33407077,2.6192577,0.29849163,-0.039125875,0.43823016,0.8469511,0.4307531
13920000,0.86518306,0.3265743,2.6278749,0.29348838,-0.037660852,0.4375716,0.8491039,0.4534322
13944000,0.86028045,0.3190773,2.6282182,0.291896,-0.03513857,0.43487158,0.8511456,0.47499624
13968000,0.85987544,0.31157896,2.63713,0.28673196,-0.03381387,0.43393564,0.8534291,0.49537668
13992000,0.8570756,0.3040737,2.642001,0.28323978,-0.031941697,0.43205374,0.85561943,0.5151974
14016000,0.85398984,0.29656112,2.6465745,0.27986535,-0.030029044,0.43005538,0.85780305,0.53372216
14040000,0.8509773,0.28904104,2.6514924,0.27633977,-0.02816289,0.42808428,0.85999244,0.55094594
14064000,0.8477224,0.2815134,2.6560767,0.27294987,-0.026241302,0.42601466,0.86216074,0.5668725
14088000,0.84466213,0.2739679,2.6609921,0.26941392,-0.024341486,0.42402497,0.8643069,0.582936
14112000,0.84142834,0.26640505,2.6655445,0.26602706,-0.022366136,0.42196512,0.8664149,0.5976864
14136000,0.83846235,0.25882548,2.6704078,0.26250315,-0.02039937,0.42001852,0.86848164,0.61121655
14160000,0.8353902,0.2512299,2.6749058,0.25913158,-0.018349059,0.4180306,0.8704967,0.6235628
14184000,0.83263665,0.24361916,2.6797125,0.25562355,-0.016302042,0.4161799,0.87245923,0.6347826
14208000,0.829852,0.23598863,2.6841474,0.2522716,-0.014160156,0.41432002,0.87435555,0.64568406
14232000,0.8274164,0.22833945,2.6888666,0.24879193,-0.012012847,0.4126125,0.87619025,0.65553135
14256000,0.8252168,0.22067282,2.6935213,0.24533573,-0.009803899,0.41101155,0.877943,0.6643938
14280000,0.822973,0.21298994,2.6978006,0.24203837,-0.007505558,0.4093957,0.8796342,0.67236614
14304000,0.8211077,0.20528598,2.7023563,0.23861414,-0.005198777,0.40794778,0.8812576,0.68027985
14328000,0.8192066,0.20121722,2.7065034,0.23603432,-0.004439272,0.4067774,0.8824966,0.687377
14352000,0.8147995,0.2028159,2.7062702,0.2364186,-0.005632035,0.40495884,0.8832229,0.6937357
14376000,0.81335366,0.20426776,2.7106795,0.23473066,-0.007348485,0.40441975,0.8839074,0.699404
14400000,0.8117926,0.20553572,2.7147024,0.23317657,-0.008915454,0.40381148,0.8845821,0.70483655
14424000,0.8105681,0.20670049,2.7190363,0.2314649,-0.010457546,0.40333778,0.8852306,0.7096696
14448000,0.8091766,0.20776935,2.7230048,0.22989415,-0.011900164,0.40278018,0.88587534,0.7139703
14472000,0.8079928,0.20875092,2.727286,0.2281678,-0.013340659,0.40230176,0.88651824,0.7177558
14496000,0.8038391,0.2096305,2.7268536,0.22849025,-0.014125504,0.40052798,0.887226,0.7212869
14520000,0.80533504,0.21045221,2.7354426,0.22483857,-0.016048968,0.40118718,0.88782823,0.72439414
14544000,0.8010473,0.21121743,2.7349713,0.22515088,-0.016783185,0.39934212,0.88856703,0.7271359
14568000,0.79661554,0.21193367,2.7344875,0.2254565,-0.01751037,0.39742833,0.8893332,0.7295339
14592000,0.79787916,0.21259342,2.7430918,0.221759,-0.019378938,0.39795825,0.8899869,0.73169833
14616000,0.79313725,0.21322177,2.7426283,0.22203106,-0.020097926,0.39589608,0.89082235,0.73358417
14640000,0.7913481,0.21381798,2.7468734,0.22022724,-0.02140569,0.39509666,0.8915943,0.7351866
14664000,0.78920454,0.21438682,2.7507873,0.21855931,-0.022671334,0.394137,0.89239776,0.7365545
14688000,0.7839364,0.2149303,2.7503233,0.21880212,-0.023403145,0.39182797,0.8933357,0.73769015
14712000,0.7817018,0.21545425,2.7545834,0.21696395,-0.024718419,0.39081413,0.89419234,0.738623
14736000,0.7791308,0.21596211,2.7584693,0.21528251,-0.02598562,0.38964933,0.89507073,0.7393765
14760000,0.7766663,0.21645503,2.7627234,0.21343145,-0.027301893,0.38852218,0.8959644,0.739958
14784000,0.77074,0.21693416,2.7622495,0.2136456,-0.028061315,0.38590422,0.89702064,0.7403846
14808000,0.76772493,0.21740608,2.7661853,0.21191815,-0.02935554,0.38452607,0.8979804,0.74062985
14832000,0.76482224,0.21787032,2.7704778,0.21002665,-0.030697636,0.3831881,0.8989512,0.74074477
14856000,0.7584163,0.21832357,2.7700458,0.21019942,-0.0314954,0.3803433,0.90009063,0.74073213
14880000,0.75510275,0.21877156,2.7740011,0.20844173,-0.032797933,0.37881672,0.90109605,0.7406347
14904000,0.7519532,0.2191649,2.7783237,0.20650755,-0.034121975,0.3773499,0.90210724,0.740817
14928000,0.7451216,0.21956114,2.7778702,0.20666148,-0.034924135,0.3742996,0.90331125,0.7408993
14952000,0.7381274,0.21995583,2.7774277,0.20680414,-0.03574585,0.37117165,0.9045363,0.7408873
14976000,0.7343745,0.22035432,2.7813826,0.20501254,-0.037047647,0.3694269,0.90560544,0.74080634
15000000,0.7308177,0.22076483,2.7856915,0.20306136,-0.038393512,0.36776006,0.9066667,0.74053377
15024000,0.72343016,0.22117871,2.7852542,0.20318455,-0.03925438,0.36444327,0.9079407,0.7401917
15048000,0.7158425,0.2215931,2.7848318,0.20329341,-0.04013993,0.36103088,0.90923995,0.73983
15072000,0.711714,0.22201005,2.7888298,0.2014579,-0.04146997,0.3590976,0.9103537,0.7394218
15096000,0.7078256,0.22243388,2.7931688,0.19946796,-0.042832676,0.35726154,0.9114505,0.7388835
15120000,0.6998272,0.22286417,2.792747,0.19955587,-0.043754697,0.3536496,0.91279507,0.7383306
15144000,0.69159955,0.22329476,2.7923143,0.19963948,-0.044699207,0.34992814,0.91416425,0.73775256
15168000,0.6832125,0.22372971,2.791889,0.19971234,-0.04566433,0.3461286,0.9155461,0.7371501
15192000,0.6828375,0.2241481,2.8006372,0.19576171,-0.047408976,0.34577924,0.9164422,0.73665816
15216000,0.6741866,0.22457395,2.8002207,0.19581112,-0.04838222,0.34184816,0.91785455,0.73613155
15240000,0.66533566,0.22500329,2.7998002,0.1958532,-0.049377277,0.3378198,0.9192831,0.7355517
15264000,0.6562182,0.2254387,2.7994008,0.19587466,-0.050406132,0.33366263,0.92073965,0.7349751
15288000,0.64683634,0.22587793,2.7990096,0.19588083,-0.051465195,0.32937747,0.9222215,0.7343411
15312000,0.63717973,0.22632498,2.7986226,0.19587323,-0.05255667,0.32495922,0.92372775,0.7336679
15336000,0.63209236,0.22677529,2.8029692,0.19379361,-0.053966664,0.3225205,0.92493904,0.73296124
15360000,0.62656075,0.227232,2.8070033,0.19184063,-0.055361867,0.31987852,0.9261803,0.732238
15384000,0.61644965,0.22768807,2.806621,0.19179925,-0.05648496,0.31523114,0.9277133,0.7314993
15408000,0.60604656,0.22814867,2.8062599,0.19173384,-0.0576424,0.31044045,0.92926973,0.73073894
15432000,0.59534323,0.22861269,2.805882,0.19166091,-0.05882851,0.30550316,0.9308454,0.72993684
15456000,0.5844306,0.22908016,2.805512,0.19157128,-0.060038324,0.30046028,0.93242663,0.7290994
15480000,0.57329357,0.22954579,2.8051538,0.19146144,-0.06127126,0.2953041,0.9340149,0.7282378
15504000,0.567262,0.22998196,2.8095796,0.18926232,-0.06270176,0.29237586,0.93528855,0.727606
15528000,0.5556818,0.23042822,2.8092322,0.18911472,-0.0639581,0.286995,0.9368985,0.72695684
15552000,0.5438792,0.2308713,2.8088748,0.18895592,-0.06523289,0.28150108,0.93850815,0.72628695
15576000,0.53183675,0.23131606,2.8085396,0.18877046,-0.06653451,0.27588487,0.94012046,0.72557235
15600000,0.51961386,0.23178378,2.8082032,0.18857323,-0.067864016,0.27017602,0.94172156,0.72467065
15624000,0.5071229,0.2322564,2.8078482,0.18836683,-0.06921872,0.26433247,0.9433212,0.72374564
15648000,0.49439472,0.23272648,2.807514,0.18813238,-0.07059723,0.25836664,0.94491744,0.7227915
15672000,0.48146763,0.23319781,2.807181,0.18788037,-0.07199497,0.2522971,0.94650084,0.7218045
15696000,0.4684351,0.23366676,2.806838,0.18761866,-0.07339993,0.24616818,0.9480574,0.72081983
15720000,0.4551824,0.23414062,2.8064897,0.1873414,-0.07482682,0.23992577,0.9495998,0.71977764
15744000,0.44170704,0.23461455,2.8061318,0.18704954,-0.076272994,0.23356822,0.9511261,0.71873343
15768000,0.42807543,0.23509295,2.8057652,0.18674517,-0.07773433,0.22712728,0.9526263,0.7176666
15792000,0.40833932,0.2355635,2.8009892,0.18829067,-0.07927963,0.21793847,0.9543396,0.7166149
15816000,0.39442462,0.23603682,2.8006334,0.18794529,-0.08077817,0.21134162,0.95576465,0.7155206
15840000,0.3804155,0.23651725,2.8002906,0.1875787,-0.08228932,0.20469035,0.95715445,0.7144046
15864000,0.36629388,0.2369922,2.7999504,0.18719369,-0.08380741,0.19797564,0.95850956,0.71326584
15888000,0.35209072,0.23748396,2.7996218,0.18678874,-0.08534099,0.1912136,0.95982504,0.71201867
15912000,0.33785138,0.23796996,2.7993028,0.18636484,-0.086874485,0.18442474,0.9610975,0.7107601
15936000,0.32359698,0.2384611,2.7989502,0.18594441,-0.088407144,0.17762214,0.9623197,0.7095017
15960000,0.30261248,0.2389496,2.794169,0.18734199,-0.090189375,0.16776828,0.96365064,0.708205
15984000,0.2883111,0.23944077,2.793809,0.18689546,-0.09173612,0.16092737,0.96475756,0.7069021
16008000,0.27400985,0.23990777,2.7934632,0.18642807,-0.093270406,0.1540768,0.96581864,0.7057896
16032000,0.2597186,0.2403795,2.793124,0.18594587,-0.0948045,0.14722423,0.9668306,0.70465803
16056000,0.23858787,0.24084745,2.7883978,0.18724391,-0.09666738,0.1372668,0.96786004,0.7035213
16080000,0.22444938,0.24131735,2.7880733,0.1867338,-0.09819618,0.13047491,0.9687436,0.7023914
16104000,0.21026622,0.24179728,2.787761,0.18620372,-0.09973237,0.12365601,0.96958274,0.7011041
16128000,0.19622347,0.24228224,2.787442,0.18567175,-0.101254985,0.11690071,0.9703647,0.69980085
16152000,0.175239,0.24276227,2.7827141,0.18691063,-0.10317892,0.10699668,0.9710666,0.69851345
16176000,0.15385704,0.24324104,2.7776728,0.18825951,-0.105160795,0.09691458,0.9716518,0.6972459
16200000,0.14037077,0.24373297,2.7773502,0.18771437,-0.10665317,0.09041967,0.9722205,0.6957998
16224000,0.119871885,0.24422577,2.7726738,0.18889505,-0.108623415,0.08074702,0.9726251,0.6943738
16248000,0.10672204,0.24471158,2.7723522,0.1883405,-0.11008801,0.0744107,0.97307324,0.6929451
16272000,0.09383762,0.24519315,2.7720559,0.18777727,-0.11152386,0.06819945,0.97347367,0.6915459
16296000,0.07393668,0.24564007,2.7673998,0.18892847,-0.113468215,0.058813754,0.97363853,0.6904665
16320000,0.061672408,0.24608614,2.7671344,0.18835998,-0.114835136,0.052897766,0.97392774,0.6894176
16344000,0.049651258,0.24653146,2.7668304,0.1878147,-0.11617522,0.047101088,0.97417164,0.6884069
16368000,0.030527025,0.24697544,2.7621427,0.18897721,-0.118093304,0.03810146,0.9741098,0.6874075
16392000,0.019078778,0.24741055,2.761827,0.18844888,-0.119380005,0.032584246,0.9742555,0.6864458
16416000,0.000644384,0.24784414,2.7571788,0.18959986,-0.121267885,0.023925588,0.97405005,0.68549114
16440000,-0.018060014,0.24827492,2.752187,0.19088139,-0.12320801,0.015163785,0.97373205,0.6845654
16464000,-0.02851157,0.24870673,2.7519016,0.1903657,-0.12441248,0.010134664,0.97374517,0.6836569
16488000,-0.045961693,0.2491477,2.747267,0.19151872,-0.12627889,0.001974,0.9733294,0.682561
16512000,-0.055756412,0.24958792,2.7470016,0.19101584,-0.12742962,-0.002732327,0.97327656,0.68148804
16536000,-0.07244179,0.25002414,2.7424111,0.19216631,-0.1292551,-0.010511877,0.97275627,0.6804655
16560000,-0.08155313,0.25045744,2.7421365,0.19169511,-0.13034153,-0.014881749,0.9726472,0.67946887
16584000,-0.09754506,0.2508891,2.7375383,0.19286647,-0.13213114,-0.022311,0.97203195,0.6785061
16608000,-0.10596495,0.25129783,2.7372835,0.19241671,-0.13314338,-0.02634407,0.97188205,0.6777731
16632000,-0.12894689,0.25170282,2.7280362,0.19534612,-0.13571346,-0.036840998,0.97060007,0.677037
16656000,-0.13670178,0.25210255,2.7278087,0.19491039,-0.13666776,-0.04054632,0.970406,0.67630875
16680000,-0.15120623,0.25249633,2.7232757,0.19609278,-0.1383753,-0.047227453,0.9696233,0.67559683
16704000,-0.15822329,0.25290844,2.7230916,0.19567414,-0.13926598,-0.05057197,0.96941173,0.67463744
16728000,-0.17183903,0.2533155,2.7186012,0.19687438,-0.14091909,-0.05681018,0.9685839,0.67371166
16752000,-0.17819493,0.25371367,2.718432,0.19648507,-0.14174095,-0.059832532,0.968361,0.67281044
16776000,-0.19105488,0.2541051,2.7139208,0.1977291,-0.1433384,-0.06569177,0.96749264,0.6719212
16800000,-0.19658798,0.25445497,2.713773,0.19738196,-0.14405823,-0.068318695,0.9672746,0.67143464
16824000,-0.21612135,0.2548013,2.70462,0.20036423,-0.14649963,-0.07705413,0.9656369,0.670935
16848000,-0.22091813,0.25514334,2.7044725,0.20006046,-0.14714967,-0.079320155,0.96541756,0.6704523
16872000,-0.23215272,0.25547987,2.7000241,0.20135298,-0.14862046,-0.08437319,0.9644947,0.6700024
16896000,-0.23625235,0.25580478,2.6998882,0.20109041,-0.14919434,-0.0863025,0.9642902,0.66956836
16920000,-0.24670777,0.25612867,2.6954317,0.20243105,-0.1506016,-0.09096956,0.96336144,0.6691307
16944000,-0.24994886,0.25644863,2.69533,0.20221198,-0.15108712,-0.09248561,0.9631871,0.6687187
16968000,-0.25956857,0.2567595,2.690854,0.20361309,-0.15242335,-0.09674012,0.96226305,0.668312
16992000,-0.26937363,0.2570535,2.6860254,0.20516156,-0.1538044,-0.10105066,0.96127087,0.6680299
17016000,-0.2782132,0.2573455,2.6815488,0.20660606,-0.15508401,-0.10491651,0.96034133,0.6677433
17040000,-0.28021955,0.2576323,2.6814144,0.20649146,-0.15543482,-0.10583478,0.9602084,0.6674711
17064000,-0.28854114,0.25791577,2.6769369,0.20796725,-0.1566729,-0.10944433,0.95928365,0.66718215
17088000,-0.29647654,0.25819704,2.672458,0.20946658,-0.15788358,-0.11286196,0.9583625,0.66684574
17112000,-0.29765996,0.2584792,2.6723146,0.20941742,-0.15814956,-0.113382906,0.9582679,0.66650945
17136000,-0.30495766,0.25875646,2.6678414,0.2109563,-0.15930508,-0.116488464,0.95736605,0.666178
17160000,-0.312465,0.25902882,2.6629887,0.21265356,-0.16051568,-0.1196582,0.9563969,0.66584074
17184000,-0.31916785,0.25929528,2.6584785,0.21424526,-0.16163011,-0.122465044,0.9554983,0.665501
17208000,-0.31928578,0.25953567,2.6583045,0.21429683,-0.16176705,-0.12247677,0.9554621,0.66539556
17232000,-0.32553893,0.259775,2.653795,0.21592054,-0.16283177,-0.12506622,0.9545798,0.66525686
17256000,-0.33144712,0.26001015,2.6492898,0.21756513,-0.16386749,-0.12748657,0.95370865,0.6651036
17280000,-0.33091605,0.2602417,2.6491256,0.21766502,-0.16392934,-0.12718987,0.9537148,0.66495144
17304000,-0.3363881,0.26046938,2.644625,0.21933861,-0.16492322,-0.12939847,0.9528625,0.66477084
17328000,-0.33532485,0.26069683,2.6444645,0.21948087,-0.16492407,-0.12884891,0.952904,0.66457146
17352000,-0.34706888,0.26092106,2.6352773,0.22285786,-0.1669312,-0.13364735,0.95110816,0.6643489
17376000,-0.34567416,0.26114047,2.6350846,0.22304422,-0.16689168,-0.13293877,0.9511707,0.6641038
17400000,-0.35027534,0.26133677,2.6305554,0.22479288,-0.16780211,-0.13472083,0.9503478,0.6640655
17424000,-0.34850708,0.26153412,2.6303718,0.22500877,-0.16770825,-0.13383864,0.9504379,0.6639977
17448000,-0.35271987,0.26172888,2.6258419,0.22678694,-0.16858041,-0.13543266,0.94963485,0.6638915
17472000,-0.35675016,0.26192158,2.621309,0.22857824,-0.16943821,-0.13693625,0.94883674,0.6637543
17496000,-0.35452947,0.26210332,2.6211324,0.22883171,-0.16928144,-0.13584286,0.9489608,0.6636927
17520000,-0.35831082,0.26228556,2.616591,0.23064631,-0.17011118,-0.13722594,0.9481738,0.66357374
17544000,-0.3623365,0.26246506,2.6117074,0.23259877,-0.17099823,-0.13869232,0.94732356,0.6634133
17568000,-0.36562997,0.2626412,2.6071565,0.23445304,-0.17178197,-0.13983707,0.94655603,0.66323113
17592000,-0.3627149,0.26281384,2.6069455,0.23478521,-0.17153531,-0.13841501,0.94672745,0.6630469
17616000,-0.36574858,0.2629858,2.6023846,0.23666474,-0.17228998,-0.13943423,0.9459726,0.6628314
17640000,-0.36262244,0.26315525,2.602169,0.23701826,-0.1720138,-0.13791294,0.9461573,0.66257095
17664000,-0.36536717,0.26332277,2.5976024,0.23892385,-0.17273447,-0.13879359,0.94541764,0.6622756
17688000,-0.36196586,0.26347166,2.597403,0.23929614,-0.17241101,-0.13714716,0.9456228,0.6621358
17712000,-0.36444816,0.2636236,2.5928411,0.24122205,-0.17309372,-0.1379046,0.9448983,0.66196436
17736000,-0.36080357,0.2637751,2.592639,0.24161702,-0.17273825,-0.13614331,0.94511783,0.6617707
17760000,-0.3695442,0.26392612,2.5833547,0.24522583,-0.17451206,-0.13944215,0.94338,0.66155237
17784000,-0.37164274,0.26407245,2.5787432,0.24720126,-0.17516059,-0.14000708,0.9426602,0.6612812
17808000,-0.3676726,0.2641872,2.5784953,0.24765334,-0.17473999,-0.13809702,0.9429014,0.66137373
17832000,-0.36963204,0.26430392,2.5738878,0.24964091,-0.17535652,-0.13859999,0.9421886,0.6614267
17856000,-0.36548415,0.26441845,2.5736508,0.25010377,-0.17490779,-0.13660797,0.9424403,0.6614155
17880000,-0.36725688,0.2645322,2.5690398,0.2521085,-0.17549862,-0.13702217,0.9417359,0.66135186
17904000,-0.36295557,0.26465732,2.5688071,0.25258195,-0.17502978,-0.13495746,0.9419943,0.6610419
17928000,-0.36454374,0.26478687,2.5641887,0.25460365,-0.1756033,-0.135281,0.9412967,0.6606992
17952000,-0.3600506,0.26491457,2.563955,0.2550943,-0.17510569,-0.13312632,0.9415637,0.6603137
17976000,-0.3614548,0.26503572,2.5593126,0.25714338,-0.17565101,-0.13336182,0.9408712,0.6598986
18000000,-0.35679454,0.2651208,2.5590436,0.25766978,-0.17510845,-0.13113268,0.9411416,0.6598798
18024000,-0.35855937,0.26520684,2.5540402,0.25985965,-0.17570522,-0.13151094,0.9403752,0.65981984
18048000,-0.35977197,0.26529184,2.5493796,0.2619347,-0.17620939,-0.13165782,0.9396843,0.6596982
18072000,-0.35492176,0.26537603,2.5491128,0.262478,-0.17562991,-0.12934226,0.93996274,0.65952426
18096000,-0.3559876,0.2654485,2.5444443,0.26457012,-0.17610592,-0.12942131,0.93927604,0.659427
18120000,-0.3510326,0.26552597,2.5441802,0.26512182,-0.17550254,-0.12705871,0.9395559,0.65927386
18144000,-0.35201687,0.2656058,2.5395083,0.2672211,-0.17596734,-0.12709805,0.93886876,0.6590672
18168000,-0.34690845,0.2656856,2.5392444,0.26778555,-0.1753376,-0.12466401,0.93915194,0.6588262
18192000,-0.34780115,0.265744,2.534543,0.26990813,-0.17577764,-0.12466123,0.9384622,0.6587198
18216000,-0.34254557,0.26580638,2.5342526,0.27049917,-0.1751144,-0.122159526,0.938745,0.65855825
18240000,-0.3372121,0.2658667,2.5339646,0.27109444,-0.17443755,-0.119621135,0.9390261,0.6583327
18264000,-0.3379993,0.26592386,2.5292568,0.27322963,-0.17485265,-0.11957051,0.9383363,0.65804005
18288000,-0.33263433,0.26598567,2.5289688,0.27382678,-0.17416453,-0.117018186,0.93861187,0.65770733
18312000,-0.3333639,0.26604277,2.5242612,0.27596605,-0.17456657,-0.11694098,0.9379201,0.6573234
18336000,-0.32793766,0.26610523,2.5239744,0.27656716,-0.17386249,-0.114361025,0.9381919,0.65689576
18360000,-0.3287131,0.26616073,2.519253,0.27870828,-0.17426571,-0.11430487,0.9374901,0.65640575
18384000,-0.3298869,0.26621723,2.5141685,0.28098267,-0.17474675,-0.11440213,0.93670934,0.65587217
18408000,-0.32446316,0.2662642,2.5138564,0.2815972,-0.17402327,-0.11182675,0.9369704,0.6554318
18432000,-0.3251088,0.26631176,2.509112,0.28375828,-0.17440163,-0.11170815,0.93626213,0.65493315
18456000,-0.3195814,0.26636687,2.5088034,0.28437838,-0.17365901,-0.10908445,0.9365213,0.65442157
18480000,-0.31402016,0.26641288,2.5084958,0.2849999,-0.17290522,-0.10644587,0.9367754,0.65388143
18504000,-0.31459367,0.2664412,2.5037484,0.28717038,-0.17325282,-0.10629895,0.93606466,0.6537094
18528000,-0.30904356,0.26647073,2.50344,0.2877918,-0.17248487,-0.103669494,0.9363105,0.6534704
18552000,-0.30966866,0.2665002,2.4986813,0.289962,-0.17283529,-0.103546366,0.93558973,0.65318406
18576000,-0.30409265,0.2665299,2.4983704,0.29058546,-0.17205559,-0.10090593,0.93582845,0.65283823
18600000,-0.2984779,0.26653942,2.4980433,0.2912196,-0.1712596,-0.09824873,0.93606013,0.6526656
18624000,-0.2991722,0.2665538,2.493263,0.2933952,-0.17160244,-0.09816146,0.9353268,0.65244216
18648000,-0.29349676,0.2665687,2.4929392,0.2940311,-0.1707915,-0.09547674,0.9355534,0.65217304
18672000,-0.2878135,0.2665855,2.4926138,0.29466605,-0.16997817,-0.092787445,0.9357723,0.6518504
18696000,-0.28848222,0.26660177,2.4878252,0.29684737,-0.1703066,-0.09269012,0.9350325,0.65146893
18720000,-0.2828029,0.2666229,2.4874988,0.29748058,-0.1694874,-0.09000343,0.9352426,0.6510209
18744000,-0.2771892,0.2666443,2.4871726,0.29810584,-0.16867588,-0.087346904,0.9354421,0.65052974
18768000,-0.27794635,0.26666683,2.4823735,0.30028376,-0.16900909,-0.08729197,0.9346902,0.6500065
18792000,-0.2722912,0.26667193,2.4820347,0.30091834,-0.16817604,-0.08461939,0.9348821,0.6496222
18816000,-0.26669085,0.26668268,2.4816947,0.30154613,-0.16735166,-0.081970975,0.93506366,0.64917713
18840000,-0.26756945,0.26669464,2.4768782,0.30372256,-0.16768754,-0.081976146,0.9342984,0.6486765
18864000,-0.2619513,0.2667075,2.4765396,0.3043495,-0.16685306,-0.07932089,0.9344729,0.64813817
18888000,-0.25634605,0.26670963,2.4762013,0.30497387,-0.16601339,-0.07667317,0.9346399,0.64771336
18912000,-0.25076145,0.26671743,2.4758625,0.30559394,-0.16517732,-0.0740338,0.9347983,0.6472315
18936000,-0.25170162,0.2667255,2.4710383,0.30776945,-0.16550383,-0.07407285,0.9340233,0.6467227
18960000,-0.24612255,0.26673418,2.4706984,0.30838805,-0.16466081,-0.071437635,0.93417364,0.64617527
18984000,-0.24065343,0.26674533,2.470357,0.30899578,-0.1638338,-0.068852946,0.9343122,0.64557797
19008000,-0.23511371,0.2667371,2.470009,0.30961156,-0.162985,-0.06623782,0.9344458,0.64524835
19032000,-0.23618807,0.26673484,2.4651675,0.31178525,-0.16331133,-0.06634502,0.93365824,0.64486635
19056000,-0.23081888,0.2667354,2.4648187,0.31238532,-0.16248512,-0.06380986,0.93377846,0.6444354
19080000,-0.22539036,0.2667373,2.4644704,0.31298777,-0.16164818,-0.061246622,0.9338937,0.6439622
19104000,-0.22654423,0.2667355,2.4596221,0.31515744,-0.16197719,-0.061393246,0.93309695,0.64349234
19128000,-0.22110005,0.26673925,2.459272,0.31576037,-0.16113076,-0.058824196,0.9332053,0.642975
19152000,-0.21577984,0.2667439,2.458921,0.31635126,-0.16030224,-0.056312636,0.93330264,0.64240485
19176000,-0.21048863,0.26674983,2.4585702,0.31693754,-0.15947692,-0.053814318,0.93339247,0.6417929
19200000,-0.2052066,0.26673248,2.4582176,0.31752342,-0.15864038,-0.051324032,0.9334764,0.6415246
19224000,-0.20659582,0.2667204,2.453355,0.31968248,-0.15898119,-0.05158812,0.9326664,0.64118797
19248000,-0.20136766,0.26671156,2.4530008,0.32026285,-0.1581496,-0.049123395,0.9327418,0.6408184
19272000,-0.19612627,0.2667057,2.452646,0.3208421,-0.15731531,-0.04665189,0.9328107,0.64040065
19296000,-0.18370424,0.26670137,2.4571595,0.31970668,-0.15522493,-0.041208494,0.9338066,0.6398687
19320000,-0.18528049,0.2667097,2.452292,0.3218554,-0.15558234,-0.041564472,0.9329929,0.63929856
19344000,-0.18010753,0.2667085,2.451937,0.32242242,-0.15475573,-0.039123923,0.9330401,0.6386674
19368000,-0.17500246,0.266717,2.4515815,0.32298172,-0.15394267,-0.036713347,0.9330791,0.6380161
19392000,-0.1700425,0.2667274,2.451226,0.32352766,-0.15315215,-0.03437021,0.93310934,0.6372774
19416000,-0.1650143,0.26674077,2.4508698,0.3240771,-0.15235017,-0.031994734,0.93313444,0.6364861
19440000,-0.166803,0.26675713,2.445994,0.32621357,-0.1527271,-0.032454204,0.93231213,0.6356612
19464000,-0.16192348,0.2667754,2.4456367,0.3267506,-0.15194461,-0.030149195,0.93232924,0.63482875
19488000,-0.15706381,0.2667685,2.4452798,0.32728565,-0.15115198,-0.027857915,0.9323417,0.6343637
19512000,-0.15223102,0.26676917,2.444922,0.32781675,-0.15036559,-0.025577918,0.93234766,0.63385963
19536000,-0.14742011,0.26677302,2.444564,0.32834408,-0.14958256,-0.023307685,0.9323476,0.6333252
19560000,-0.14262792,0.26678008,2.4442058,0.32886824,-0.14880243,-0.021045748,0.93234146,0.63277733
19584000,-0.14478797,0.2667901,2.4393203,0.33098316,-0.14921558,-0.021686524,0.93151194,0.6322093
19608000,-0.14013185,0.26679787,2.4389615,0.33149636,-0.14845172,-0.019489858,0.9315001,0.63165987
19632000,-0.12814766,0.2668122,2.4434884,0.33026975,-0.14643751,-0.014236901,0.9323494,0.63106984
19656000,-0.123503804,0.26682812,2.4431305,0.33077484,-0.14567977,-0.012043197,0.9323199,0.6304499
19680000,-0.11892632,0.26684636,2.4427726,0.33127335,-0.14493257,-0.009880234,0.93228483,0.6297839
19704000,-0.1143647,0.26684758,2.4424145,0.33176985,-0.14417855,-0.007727824,0.93224543,0.6293942
19728000,-0.116850935,0.26685616,2.437525,0.33386803,-0.14461616,-0.008531697,0.9314212,0.6289686
19752000,-0.11246467,0.26686892,2.437165,0.33435148,-0.14389066,-0.006460819,0.93137693,0.6285169
19776000,-0.108018026,0.26688442,2.4368055,0.3348372,-0.1431549,-0.004361626,0.9313279,0.62803614
19800000,-0.103747696,0.26689622,2.436445,0.33530942,-0.14244553,-0.002345353,0.9312741,0.6275862
19824000,-0.09948791,0.26691496,2.436087,0.33577794,-0.14173977,-0.000333194,0.9312159,0.62709624
19848000,-0.09531737,0.26693687,2.4357283,0.33623874,-0.14104916,0.001637738,0.93115306,0.6265885
19872000,-0.08364784,0.2669625,2.440262,0.3349433,-0.13911243,0.006759863,0.93188787,0.6260483
19896000,-0.07952934,0.26698944,2.4399033,0.3353951,-0.13843337,0.008708324,0.9318103,0.62552065
19920000,-0.08244172,0.26702154,2.4350085,0.33747134,-0.13891809,0.007696971,0.93099713,0.6249632
19944000,-0.07839558,0.26705676,2.4346492,0.33791745,-0.13824968,0.009611379,0.9309171,0.6243788
19968000,-0.074386634,0.26709464,2.4342887,0.33836013,-0.13758756,0.011508741,0.93083274,0.6237832
19992000,-0.07048554,0.26712686,2.4339283,0.33879438,-0.13693985,0.013354633,0.93074566,0.6232694
20016000,-0.06660324,0.26716515,2.4335697,0.33922496,-0.13629699,0.01519241,0.93065506,0.62271655
20040000,-0.06277005,0.267207,2.433212,0.33965042,-0.13566294,0.017007602,0.9305611,0.62214094
20064000,-0.051421512,0.26725352,2.43775,0.33830097,-0.13380533,0.021992065,0.9312169,0.621558
20088000,-0.047656823,0.2672832,2.4373922,0.33871785,-0.13317783,0.023773838,0.9311115,0.6212263
20112000,-0.04392235,0.26732248,2.437034,0.33913144,-0.13255881,0.02554292,0.93100244,0.6208389
20136000,-0.04726744,0.26736626,2.4321358,0.3411869,-0.13308702,0.024319297,0.9302086,0.62042403
20160000,-0.043702066,0.2674149,2.4317756,0.34158954,-0.13249646,0.02600983,0.93009937,0.62000597
20184000,-0.040174752,0.26746777,2.4314153,0.34198847,-0.13191336,0.027683094,0.9299873,0.6195748
20208000,-0.036625307,0.26752874,2.4310553,0.3423875,-0.13132922,0.02936773,0.92987144,0.6189884
20232000,-0.03315565,0.26759282,2.4306984,0.3427788,-0.13075925,0.031015305,0.9297542,0.6183749
20256000,-0.022179073,0.2676608,2.4352393,0.34137788,-0.12898926,0.03583656,0.9303432,0.6177543
20280000,-0.018968115,0.26773176,2.4348824,0.3417486,-0.12846735,0.03736529,0.9302193,0.61711526
20304000,-0.015721032,0.26780298,2.4345253,0.34212095,-0.1279385,0.03891059,0.930092,0.61644727
20328000,-0.012552038,0.26788163,2.434167,0.3424878,-0.12742557,0.040420625,0.92996293,0.6157614
20352000,-0.00940537,0.26796347,2.4338083,0.3428525,-0.12691706,0.04192054,0.92983156,0.6150731
20376000,-0.006369094,0.26804927,2.4334497,0.34320936,-0.12642853,0.043369528,0.9297001,0.6143821
20400000,0.004273463,0.268126,2.4379907,0.3417644,-0.12474551,0.048046146,0.9302296,0.6138908
20424000,0.007305922,0.26820877,2.4376335,0.3421175,-0.12425684,0.049492832,0.9300894,0.6133807
20448000,0.003233287,0.2682944,2.432736,0.34413862,-0.12487611,0.047919337,0.9293429,0.6128669
20472000,0.006093846,0.26838323,2.4323792,0.34448066,-0.12441626,0.049285952,0.92920643,0.6123501
20496000,0.008973182,0.2684725,2.4320226,0.3448232,-0.12395266,0.05066109,0.9290673,0.611847
20520000,0.011731402,0.26856986,2.4316652,0.34515783,-0.12351294,0.05198112,0.92892873,0.6113332
20544000,0.021926148,0.26867,2.4362047,0.34367245,-0.12192695,0.056456096,0.92942774,0.61081254
20568000,0.02456599,0.268773,2.435846,0.3439979,-0.1215108,0.057722155,0.9292839,0.6102935
20592000,0.027215002,0.2688849,2.4354882,0.34432295,-0.121096574,0.05899368,0.9291379,0.60961354
20616000,0.029741868,0.2690038,2.4351296,0.34464028,-0.12070598,0.060209434,0.928993,0.60893846
20640000,0.032308523,0.26912686,2.4347732,0.34495854,-0.12030988,0.061443996,0.9288454,0.6082606
20664000,0.034795824,0.26925182,2.4344168,0.34527147,-0.119927764,0.06264177,0.92869854,0.6075735
20688000,0.044741727,0.26937598,2.4389563,0.34375396,-0.118419416,0.067011856,0.92914987,0.6069521
20712000,0.047084827,0.26950616,2.4385982,0.34405726,-0.118065044,0.0681435,0.92900044,0.60633266
20736000,0.04939652,0.26963857,2.4382405,0.34435803,-0.117716536,0.06926066,0.9288505,0.6057196
20760000,0.05165942,0.2697738,2.4378827,0.3446557,-0.11737722,0.07035542,0.9287008,0.60511434
20784000,0.05379084,0.26991293,2.4375246,0.34494534,-0.117061846,0.07138958,0.9285541,0.6045264
20808000,0.06343621,0.27003312,2.4420633,0.34339756,-0.11562479,0.07562493,0.9289724,0.6043176
20832000,0.06547018,0.2701616,2.441706,0.34367996,-0.11532168,0.07661179,0.9288249,0.6040808
20856000,0.0674964,0.27029395,2.4413488,0.34396148,-0.11502125,0.07759547,0.92867625,0.6038399
20880000,0.069407836,0.2704294,2.4409914,0.3442362,-0.11474155,0.07852621,0.92853075,0.6036045
20904000,0.07119376,0.270575,2.4406345,0.3445033,-0.11448777,0.07940017,0.9283888,0.6031228
20928000,0.0729956,0.2707289,2.440277,0.3447712,-0.1142347,0.080282755,0.92824453,0.602638
20952000,0.08227664,0.2708861,2.4448156,0.34319055,-0.11289852,0.08435976,0.92863214,0.6021517
20976000,0.08403624,0.27104542,2.444458,0.34345523,-0.11265559,0.08522338,0.9284849,0.601665
21000000,0.08564206,0.27119648,2.4441006,0.34371096,-0.112434834,0.08601405,0.92834413,0.60137266
21024000,0.08717992,0.271352,2.443743,0.34396285,-0.11222747,0.0867738,0.9282051,0.60106534
21048000,0.0886767,0.27150813,2.443386,0.34421203,-0.1120272,0.08751441,0.92806745,0.6007546
21072000,0.097628444,0.27166578,2.4479232,0.34260458,-0.11076664,0.091442585,0.92843467,0.6004421
21096000,0.09911729,0.27182418,2.447566,0.34285277,-0.11056901,0.09217959,0.9282938,0.6001332
21120000,0.100428306,0.27198732,2.4472086,0.3430911,-0.11040373,0.09283474,0.92816013,0.59981424
21144000,0.10174354,0.27215356,2.4468513,0.34332958,-0.11023892,0.09349223,0.92802554,0.59948736
21168000,0.102909416,0.27232242,2.446494,0.34355965,-0.110100694,0.094080746,0.92789733,0.5991658
21192000,0.111572154,0.27249175,2.451029,0.34192988,-0.108912766,0.09788013,0.9282465,0.59885454
21216000,0.11267114,0.27266607,2.450672,0.34215596,-0.10878863,0.09843816,0.92811865,0.5985363
21240000,0.11375946,0.2728421,2.4503145,0.34238157,-0.108666904,0.09899145,0.92799085,0.59821033
21264000,0.11477542,0.27302146,2.4499571,0.3426032,-0.10855888,0.09951164,0.92786604,0.5978845
21288000,0.115720585,0.27320302,2.4495997,0.34282097,-0.1084638,0.099999264,0.92774427,0.59748715
21312000,0.12395713,0.2733921,2.454132,0.34116352,-0.10737435,0.103607,0.9280861,0.59707105
21336000,0.12474956,0.2735846,2.4537747,0.34137306,-0.10731044,0.10402519,0.9279697,0.5966551
21360000,0.12537718,0.27378014,2.4534173,0.34157375,-0.10727594,0.10436737,0.92786133,0.5962557
21384000,0.12604359,0.27397808,2.4530597,0.34177667,-0.107235804,0.104727924,0.92775065,0.5958475
21408000,0.13410372,0.27416942,2.4575906,0.34010598,-0.10619238,0.10825675,0.9280795,0.5955976
21432000,0.13469931,0.2743663,2.4572332,0.34030506,-0.106163666,0.108583875,0.92797154,0.5953422
21456000,0.13528979,0.27456397,2.456875,0.3405043,-0.106135994,0.10890876,0.9278636,0.5950822
21480000,0.13577358,0.27476433,2.456517,0.3406978,-0.106127664,0.10918456,0.9277611,0.59482574
21504000,0.13623829,0.27495795,2.456159,0.34089017,-0.106119335,0.109450415,0.92766005,0.5947484
21528000,0.14395423,0.27515778,2.4606874,0.3391989,-0.10515243,0.11282293,0.927986,0.59466636
21552000,0.14434426,0.27536,2.4603295,0.3393876,-0.10516053,0.11305512,0.9278878,0.59457326
21576000,0.14459585,0.27556476,2.4599721,0.3395689,-0.10519327,0.11322348,0.9277973,0.59447587
21600000,0.14482018,0.27578035,2.4596148,0.3397488,-0.10523568,0.11338094,0.9277074,0.59408677
21624000,0.14496909,0.2760002,2.4592576,0.33992463,-0.105292805,0.1135041,0.92762136,0.59369814
21648000,0.15245469,0.2762232,2.4637833,0.3382203,-0.104388475,0.116775036,0.92794055,0.59331834
21672000,0.15252931,0.27644846,2.4634242,0.33839363,-0.10446018,0.11686427,0.92785805,0.5929346
21696000,0.15249223,0.27667144,2.4630656,0.33856088,-0.10454972,0.11690132,0.9277823,0.5925675
21720000,0.19019134,0.26821998,2.860667,0.1506883,-0.11861922,0.11180782,0.9750495,0.65235275
21744000,0.22789046,0.25976968,2.860667,0.15250315,-0.11162881,0.12964615,0.9733825,0.6522183
21768000,0.26558957,0.2543209,2.860667,0.15427431,-0.1060763,0.14764069,0.97115886,0.65189165
21792000,0.30328867,0.25451806,2.860667,0.15625918,-0.10324559,0.16593094,0.9681892,0.6513169
21816000,0.34098777,0.25472397,2.860667,0.15819278,-0.10038197,0.18416221,0.9648745,0.65062714
21840000,0.37868688,0.25493434,2.860667,0.16007434,-0.09748427,0.20232773,0.96121615,0.6498786
21864000,0.41638598,0.25514898,2.860667,0.16190325,-0.09455333,0.220421,0.9572155,0.64909667
21888000,0.45408508,0.25535476,2.860667,0.16367763,-0.09158378,0.23843487,0.9528751,0.64837086
21912000,0.4917842,0.25558046,2.860667,0.16539979,-0.08859041,0.25636443,0.948194,0.6476799
21936000,0.5294833,0.25580397,2.860667,0.16706699,-0.0855636,0.27420217,0.9431758,0.6470128
21960000,0.5671824,0.25602385,2.860667,0.16867837,-0.08250365,0.2919416,0.93782234,0.6463865
21984000,0.6048815,0.25625983,2.860667,0.17023596,-0.07942092,0.30957747,0.93213403,0.64584506
22008000,0.6425806,0.2565107,2.860667,0.17173944,-0.0763157,0.3271032,0.9261128,0.6450691
22032000,0.6429019,0.25676712,2.860667,0.1717893,-0.0764083,0.32726374,0.92603916,0.644385
22056000,0.642753,0.25702706,2.860667,0.17182171,-0.076542914,0.3272067,0.92604226,0.64380693
22080000,0.64242005,0.25729027,2.860667,0.17184755,-0.0766949,0.32706457,0.9260751,0.6433538
22104000,0.64188814,0.257574,2.860667,0.17186865,-0.076873586,0.32683128,0.9261387,0.6426155
22128000,0.6411767,0.25786704,2.860667,0.17188413,-0.0770721,0.3265153,0.9262308,0.6419648
22152000,0.6402163,0.25816154,2.860667,0.17189008,-0.07729272,0.32608393,0.92636317,0.6414258
22176000,0.63905156,0.25845972,2.860667,0.17188847,-0.07753262,0.32555807,0.9265284,0.64100134
22200000,0.6377299,0.25876248,2.860667,0.1718812,-0.07778819,0.32495967,0.9267185,0.64058787
22224000,0.63613385,0.25907063,2.860667,0.17186375,-0.0780699,0.32423416,0.92695206,0.6402683
22248000,0.63427746,0.2593787,2.860667,0.17183572,-0.07837395,0.32338777,0.9272272,0.6400438
22272000,0.6412735,0.25968713,2.8705637,0.16756928,-0.07953237,0.3262538,0.9269054,0.6399194
22296000,0.6504925,0.2599895,2.8833249,0.16207133,-0.08100809,0.33002573,0.92641973,0.63993484
22320000,0.6591481,0.26029447,2.8958883,0.156653,-0.082545385,0.33353212,0.92596024,0.6400177
22344000,0.66313195,0.26059958,2.903367,0.15340269,-0.083629474,0.33507663,0.92584956,0.64017445
22368000,0.67109096,0.26090434,2.915637,0.1481069,-0.08523755,0.3382523,0.9254104,0.64039105
22392000,0.6784218,0.2612243,2.9276547,0.1429129,-0.08689489,0.34113604,0.9250143,0.64037853
22416000,0.6853861,0.26154816,2.9395103,0.13778757,-0.08858763,0.343845,0.9246283,0.6404393
22440000,0.6920983,0.2618725,2.9513094,0.13268608,-0.09032123,0.34642756,0.9242427,0.6405684
22464000,0.69849545,0.26219666,2.9629588,0.12764812,-0.09208089,0.3488587,0.92386395,0.64076674
22488000,0.700972,0.2625159,2.9698968,0.124610364,-0.09328505,0.34968707,0.92384475,0.64103675
22512000,0.7067869,0.26283976,2.9813368,0.11965425,-0.095087126,0.35183904,0.92349905,0.6413647
22536000,0.7122121,0.26316196,2.9926088,0.114764504,-0.096907586,0.35380694,0.9231786,0.64176035
22560000,0.7174152,0.26348454,3.003778,0.10991867,-0.098746315,0.35566527,0.92285925,0.6422133
22584000,0.7222699,0.2638073,3.0148394,0.105112255,-0.100607,0.3573562,0.92256504,0.64272875
22608000,0.7268289,0.26414707,3.0257742,0.10035874,-0.10248855,0.3589053,0.9222859,0.6429478
22632000,0.7311564,0.26448864,3.0366092,0.09564591,-0.1043831,0.36034095,0.92201436,0.64323056
22656000,0.73209786,0.2648287,3.0430026,0.092806906,-0.10564842,0.36043933,0.92212194,0.64356893
22680000,0.7360787,0.26516828,3.0537152,0.08813994,-0.10755964,0.3617027,0.92186403,0.64396137
22704000,0.7397712,0.2654958,3.0642948,0.08352209,-0.1094691,0.36282894,0.9216267,0.6445708
22728000,0.7432098,0.26582667,3.074755,0.07895098,-0.11138269,0.36383334,0.92140424,0.64522433
22752000,0.7464429,0.2661563,3.0851684,0.074394435,-0.1133078,0.3647345,0.9211925,0.64591724
22776000,0.74958146,0.2664864,3.095537,0.06985782,-0.11524016,0.3655834,0.92097145,0.6466369
22800000,0.752423,0.2668286,3.1057947,0.06536163,-0.11717884,0.36629063,0.92077583,0.64715254
22824000,0.75109786,0.2671721,3.1102448,0.0632966,-0.11819396,0.36541286,0.92113906,0.6476909
22848000,0.7506292,0.26751432,3.116219,0.06057868,-0.11945702,0.3648359,0.9213875,0.64826554
22872000,0.7529706,0.26785666,3.1263208,0.056128263,-0.12139051,0.36529943,0.921233,0.64886576
22896000,0.7551149,0.26819494,3.1363404,0.051706232,-0.12331959,0.36566657,0.92108995,0.6495065
22920000,0.757128,0.2685372,-3.1368747,-0.04730252,0.125251,-0.36596563,-0.92094725,0.6501606
22944000,0.75893897,0.26887903,-3.1269813,-0.042924233,0.1271783,-0.3661659,-0.920818,0.6508332
22968000,0.7605312,0.26922074,-3.1171582,-0.038566858,0.12910168,-0.3662595,-0.9207059,0.65151674
22992000,0.76193976,0.26955602,-3.1074185,-0.034237042,0.13101378,-0.36626396,-0.9206052,0.6522478
23016000,0.7594751,0.2698951,-3.1032414,-0.03221449,0.13197401,-0.36484322,-0.9211051,0.65296185
23040000,0.76062864,0.27023274,-3.0935676,-0.027898537,0.13387622,-0.36471978,-0.92102027,0.65367156
23064000,0.76154804,0.27056947,-3.083975,-0.023605702,0.13576774,-0.36448395,-0.92095673,0.6544079
23088000,0.7624659,0.27091235,-3.07439,-0.019318694,0.13766147,-0.3642379,-0.92087287,0.65494144
23112000,0.7631713,0.27125663,-3.0648727,-0.015049886,0.13954574,-0.36388874,-0.920807,0.655475
23136000,0.76372886,0.27159798,-3.0554237,-0.010802642,0.14141677,-0.36346674,-0.9207478,0.65599704
23160000,0.760483,0.271937,-3.0513935,-0.008779738,0.14231867,-0.36167067,-0.9213375,0.6565241
23184000,0.76079017,0.2722744,-3.042,-0.004537541,0.14416964,-0.36112356,-0.92129487,0.65704674
23208000,0.76096404,0.27259937,-3.0326595,-0.000308305,0.14600338,-0.36051005,-0.92125756,0.65770066
23232000,0.7610064,0.27292538,-3.0233614,0.003910437,0.1478271,-0.35982984,-0.92122436,0.6583273
23256000,0.7573206,0.27324983,-3.019394,0.005951099,0.14867838,-0.3578203,-0.921859,0.6589224
23280000,0.7572287,0.27357256,-3.0101128,0.010175586,0.15048446,-0.35706627,-0.92182136,0.65947473
23304000,0.75700366,0.2738953,-3.0008986,0.014379114,0.15227386,-0.35624692,-0.92178845,0.6599126
23328000,0.7530309,0.27421874,-2.9969738,0.016431626,0.15308824,-0.3540969,-0.92244756,0.66032517
23352000,0.75260633,0.27453908,-2.9878068,0.020632591,0.15485175,-0.35317633,-0.9224217,0.66073203
23376000,0.75209093,0.2748576,-2.9786806,0.02482238,0.15660088,-0.3522084,-0.9223932,0.66111284
23400000,0.7477771,0.2751826,-2.9747958,0.02689287,0.1573756,-0.3498928,-0.92308444,0.66120774
23424000,0.7470549,0.27550906,-2.965722,0.031077277,0.1590994,-0.34882048,-0.92306334,0.66128445
23448000,0.7461974,0.27583298,-2.956695,0.035251945,0.16080506,-0.3476812,-0.92304754,0.6613563
23472000,0.7415684,0.27615458,-2.9528544,0.037338674,0.16153333,-0.34521264,-0.9237645,0.6614095
23496000,0.740698,0.27646908,-2.9438524,0.041509017,0.16321114,-0.34405798,-0.92372257,0.66147083
23520000,0.7397375,0.2767842,-2.934883,0.04567206,0.16487442,-0.34285623,-0.92367744,0.6614898
23544000,0.7349043,0.2770982,-2.9310737,0.047773536,0.16555555,-0.34028563,-0.9243997,0.66148746
23568000,0.7338459,0.27741036,-2.9221566,0.051925614,0.16718617,-0.3390315,-0.92434305,0.66147673
23592000,0.7288489,0.27772248,-2.9183693,0.05403805,0.1678359,-0.33638027,-0.92507255,0.6613537
23616000,0.72769165,0.27803513,-2.9094915,0.0581847,0.16943653,-0.3350724,-0.925004,0.6612173
23640000,0.7226032,0.2783467,-2.9057102,0.06030941,0.17005914,-0.3323727,-0.9257273,0.6610722
23664000,0.7214141,0.27865705,-2.89686,0.06445098,0.17163172,-0.3310415,-0.9256349,0.66092145
23688000,0.71917534,0.27896392,-2.8894486,0.06801849,0.17292133,-0.32934183,-0.925746,0.6607408
23712000,0.7180765,0.2792732,-2.8806424,0.0721338,0.17447132,-0.32804257,-0.925605,0.66054046
23736000,0.7130048,0.27958187,-2.8768928,0.074257225,0.1750391,-0.32534066,-0.9262832,0.6603338
23760000,0.7120241,0.27989087,-2.8681133,0.0783536,0.17656818,-0.3240881,-0.9260946,0.66014594
23784000,0.7069869,0.28020048,-2.864371,0.08047691,0.17711341,-0.32139677,-0.92674613,0.6599643
23808000,0.70196164,0.2805115,-2.8606257,0.08260323,0.17764996,-0.31870767,-0.9273848,0.65964335
23832000,0.70098996,0.28082624,-2.8518863,0.08668591,0.17914253,-0.31744936,-0.9271566,0.6592967
23856000,0.6959295,0.28114143,-2.8481555,0.088814095,0.17965412,-0.31473923,-0.92778003,0.6589401
23880000,0.6950298,0.28145722,-2.8394463,0.09287898,0.18112537,-0.3135071,-0.927513,0.65858704
23904000,0.6900209,0.28177682,-2.8357382,0.09499717,0.18161485,-0.31081715,-0.9281079,0.65805054
23928000,0.68799436,0.28210205,-2.8284714,0.09849683,0.1827917,-0.30918372,-0.9280576,0.6575394
23952000,0.6872283,0.2824281,-2.819827,0.10252052,0.18423581,-0.30800352,-0.92772865,0.6570325
23976000,0.6822974,0.2827552,-2.816151,0.10462392,0.18469346,-0.30534428,-0.9282817,0.6565381
24000000,0.677392,0.2830881,-2.8124833,0.106722444,0.18514378,-0.30269468,-0.9288207,0.65590566
24024000,0.67245865,0.28342485,-2.8088126,0.10882673,0.18558489,-0.300029,-0.92935324,0.65530264
24048000,0.6718843,0.28376365,-2.8002338,0.11280744,0.1869924,-0.29892883,-0.92895097,0.65473664
24072000,0.667046,0.2841048,-2.796582,0.114898406,0.1874162,-0.29630405,-0.92945004,0.65419734
24096000,0.6654562,0.28444147,-2.789407,0.118324295,0.18853761,-0.29485595,-0.92925394,0.65374863
24120000,0.660776,0.2847829,-2.78576,0.120402746,0.18894956,-0.29230082,-0.92971045,0.65330446
24144000,0.6605614,0.2851264,-2.7772503,0.12431939,0.19033492,-0.2913576,-0.9292083,0.6528793
24168000,0.65587413,0.28547317,-2.773638,0.12638582,0.1907233,-0.28879786,-0.9296489,0.6525061
24192000,0.6512498,0.28582448,-2.7700317,0.12844473,0.19110754,-0.28626543,-0.93007094,0.6520524
24216000,0.6466759,0.28618112,-2.7664335,0.13049611,0.1914871,-0.28375477,-0.9304766,0.6516262
24240000,0.64543146,0.2865401,-2.7593415,0.13385457,0.19257265,-0.28245527,-0.93017083,0.6512357
24264000,0.64096713,0.28690305,-2.7557576,0.13589157,0.19294125,-0.27999258,-0.93054354,0.6508647
24288000,0.6411321,0.28728342,-2.7473345,0.13973016,0.19430378,-0.27921084,-0.9299263,0.65014035
24312000,0.6368185,0.2876671,-2.7437735,0.14174207,0.19467026,-0.27681458,-0.93026143,0.6494117
24336000,0.6324954,0.28805363,-2.7402194,0.14375293,0.19502787,-0.27441263,-0.93058956,0.6487414
24360000,0.6282339,0.2884434,-2.7366712,0.14575619,0.19538207,-0.27203792,-0.9309009,0.64813495
24384000,0.6273917,0.2888359,-2.7296638,0.14903535,0.1964503,-0.27091357,-0.93048453,0.6475763
24408000,0.6231997,0.28922033,-2.726135,0.15102683,0.19678715,-0.26857054,-0.93077147,0.64718014
24432000,0.6190816,0.28961393,-2.722614,0.15300739,0.19712453,-0.26626018,-0.93104035,0.64685464
24456000,0.6149796,0.2900108,-2.7190943,0.1549868,0.19745639,-0.26395553,-0.93129885,0.64653915
24480000,0.61094105,0.29040998,-2.715582,0.15695755,0.19778523,-0.2616795,-0.9315413,0.64626324
24504000,0.60688865,0.29080802,-2.7120795,0.15892664,0.19810322,-0.25939685,-0.9317784,0.6460419
24528000,0.6064591,0.29121125,-2.7051325,0.16214076,0.19915217,-0.2584574,-0.93126184,0.64583486
24552000,0.6025243,0.29161677,-2.7016437,0.16409314,0.19946522,-0.2562272,-0.9314691,0.645646
24576000,0.5986082,0.2920255,-2.6981623,0.16604102,0.19977263,-0.25400478,-0.9316668,0.6454945
24600000,0.5947889,0.29244354,-2.694684,0.16797754,0.20008433,-0.25182536,-0.9318443,0.64515054
24624000,0.5909753,0.2928668,-2.6912131,0.16991049,0.20039055,-0.2496475,-0.93201405,0.6448415
24648000,0.587221,0.29329246,-2.6877477,0.17183574,0.20069483,-0.24749643,-0.9321692,0.64457947
24672000,0.58724195,0.29372165,-2.6808548,0.17497861,0.20174423,-0.2467578,-0.9315538,0.6443541
24696000,0.58364916,0.29416203,-2.6773999,0.17688239,0.20205352,-0.24467863,-0.9316756,0.6439275
24720000,0.58015,0.2946036,-2.6739516,0.17877445,0.20236391,-0.24264249,-0.9317795,0.6435379
24744000,0.5766413,0.29504776,-2.6705077,0.18066612,0.2026673,-0.24060106,-0.93187815,0.6431978
24768000,0.5679871,0.2955017,-2.6718237,0.18085884,0.20193535,-0.23663996,-0.9330132,0.6429246
24792000,0.56455594,0.29594392,-2.6683853,0.18274295,0.2022306,-0.23463392,-0.9330888,0.64286715
24816000,0.5650315,0.2963873,-2.661533,0.18582359,0.20327988,-0.23410252,-0.9323856,0.64283615
24840000,0.56168056,0.29684076,-2.6581068,0.18769358,0.20357332,-0.23213136,-0.9324399,0.64286196
24864000,0.55838436,0.29730475,-2.6546836,0.18955588,0.20386985,-0.23018366,-0.9324812,0.64293265
24888000,0.55523,0.29776984,-2.6512632,0.191403,0.20417376,-0.22830138,-0.93250006,0.64283407
24912000,0.5520739,0.29823896,-2.647847,0.19324869,0.20447269,-0.22641721,-0.93251336,0.642754
24936000,0.54747206,0.29871038,-2.645764,0.19462085,0.2044762,-0.22399415,-0.93281233,0.64270675
24960000,0.5444015,0.29918507,-2.6423538,0.1964559,0.20477304,-0.22214824,-0.9328039,0.6427071
24984000,0.5414395,0.2996621,-2.6389463,0.19827884,0.20507546,-0.22035205,-0.9327779,0.6427356
25008000,0.5384922,0.30014285,-2.6355412,0.20009932,0.20537499,-0.21856168,-0.9327445,0.6426851
25032000,0.5355469,0.30063006,-2.6321387,0.20191811,0.20567165,-0.21677075,-0.93270504,0.6426564
25056000,0.5271313,0.3011189,-2.6334677,0.20209149,0.20490216,-0.2129124,-0.93372506,0.6426929
25080000,0.52833164,0.3016104,-2.626667,0.20507145,0.20597243,-0.21270531,-0.9328866,0.64274436
25104000,0.5254759,0.30209267,-2.6232696,0.20688146,0.2062583,-0.21095528,-0.9328212,0.6431531
25128000,0.52278465,0.3025748,-2.6198735,0.2086744,0.20655552,-0.20928137,-0.9327332,0.64355946
25152000,0.5144083,0.3030604,-2.621204,0.20884848,0.20576501,-0.20544115,-0.9337222,0.64398956
25176000,0.5117968,0.3035487,-2.6178105,0.21063313,0.20606145,-0.2038033,-0.9336148,0.6444195
25200000,0.5092495,0.30404255,-2.6144185,0.21241017,0.20636193,-0.20219412,-0.9334957,0.64456654
25224000,0.51092947,0.30454078,-2.6076307,0.21533349,0.20745526,-0.20220397,-0.93258107,0.64472824
25248000,0.50274485,0.30504122,-2.6089635,0.21548957,0.2066687,-0.19845134,-0.93352526,0.64490604
25272000,0.50038034,0.30554453,-2.605575,0.21724622,0.20697771,-0.1969246,-0.9333729,0.64511025
25296000,0.49806744,0.30604678,-2.602188,0.2189973,0.20728703,-0.19542152,-0.93321097,0.6453336
25320000,0.4899628,0.30655107,-2.6035185,0.21914601,0.20650093,-0.19170226,-0.9341213,0.6455556
25344000,0.48767856,0.3070558,-2.6001284,0.22089711,0.20680407,-0.19021168,-0.93394655,0.6458194
25368000,0.48975742,0.307563,-2.5933428,0.2237801,0.20791253,-0.19040394,-0.93297446,0.6461051
25392000,0.48170698,0.308073,-2.594672,0.22392644,0.2071191,-0.18670946,-0.93386203,0.6463458
25416000,0.47963107,0.30858535,-2.591281,0.22565645,0.20743528,-0.1853132,-0.9336535,0.6466112
25440000,0.47763255,0.30909833,-2.5878909,0.22737804,0.20775625,-0.18395238,-0.9334334,0.64689434
25464000,0.46955597,0.3096127,-2.5892186,0.22752753,0.20695195,-0.1802424,-0.93429905,0.6471945
25488000,0.46756256,0.31012598,-2.5858266,0.22925119,0.20726356,-0.17888376,-0.9340698,0.6474635
25512000,0.4640828,0.31064627,-2.5837593,0.23050958,0.2072854,-0.17696664,-0.93412036,0.64773285
25536000,0.46227637,0.31116176,-2.580368,0.23221377,0.20761108,-0.17569406,-0.9338662,0.647978
25560000,0.46049973,0.31167814,-2.5769727,0.23391664,0.20793727,-0.17443411,-0.93360484,0.64824116
25584000,0.45258301,0.31219363,-2.5782962,0.23405388,0.20713252,-0.17079654,-0.9344215,0.648524
25608000,0.4509252,0.31270692,-2.5749006,0.23574653,0.20746157,-0.16959271,-0.9341422,0.64884233
25632000,0.4430923,0.31322315,-2.5762248,0.23587352,0.20666318,-0.16599172,-0.93493354,0.6491557
25656000,0.44147882,0.31373984,-2.5728228,0.23756571,0.20699011,-0.16480766,-0.93464226,0.6494947
25680000,0.44440958,0.31425714,-2.5660267,0.24037069,0.20813787,-0.16539231,-0.9335662,0.6498294
25704000,0.43665603,0.3147722,-2.5673451,0.24049594,0.20733345,-0.16182971,-0.93433714,0.6502085
25728000,0.43517083,0.31528696,-2.56394,0.2421766,0.20766428,-0.16070384,-0.9340237,0.6505712
25752000,0.42746222,0.31579924,-2.5652602,0.24229562,0.20686017,-0.15716065,-0.9347739,0.65092844
25776000,0.42608964,0.3163115,-2.56185,0.2439687,0.20719486,-0.1560876,-0.93444437,0.651301
25800000,0.41844818,0.31682044,-2.5631666,0.24408175,0.206394,-0.15257387,-0.93517214,0.65169245
25824000,0.41722506,0.31733358,-2.5597503,0.24574353,0.20673907,-0.15157026,-0.9348238,0.65209204
25848000,0.4095741,0.31784657,-2.5610611,0.24585876,0.20593566,-0.148049,-0.93553495,0.6525012
25872000,0.41315696,0.3183582,-2.5542397,0.24861686,0.2071195,-0.14894041,-0.93440247,0.6529033
25896000,0.40571553,0.31886637,-2.555548,0.24871437,0.20633072,-0.14551885,-0.9350898,0.6533575
25920000,0.4047871,0.319375,-2.5521219,0.25035194,0.20669647,-0.14465205,-0.9347065,0.653814
25944000,0.39739856,0.31987578,-2.5534275,0.25044522,0.20590761,-0.14125454,-0.935375,0.65423626
25968000,0.39665577,0.32037508,-2.5499954,0.25206867,0.20628496,-0.14047582,-0.934973,0.654636
25992000,0.38935634,0.32087436,-2.5513074,0.25214916,0.20550272,-0.13711949,-0.9356215,0.65475285
26016000,0.3887144,0.32137513,-2.5478709,0.25376534,0.20588621,-0.13638768,-0.9352072,0.6548743
26040000,0.38141316,0.32187432,-2.5491767,0.25384817,0.20510074,-0.13302863,-0.9358409,0.6549921
26064000,0.38560626,0.3223716,-2.5423117,0.25657097,0.20632254,-0.13420533,-0.9346611,0.65513635
26088000,0.37830803,0.3228612,-2.5436134,0.25665864,0.20552433,-0.13085045,-0.93528837,0.655699
26112000,0.37771764,0.32335365,-2.5401618,0.25827795,0.20589939,-0.13014181,-0.93485886,0.6562419
26136000,0.37056106,0.32384178,-2.5414603,0.25835195,0.20511553,-0.1268519,-0.93546265,0.65676534
