timestamp,roll,pitch,yaw,thrust_body[0]
10660000,0.029142719,0.027163425,0.000233937,1
10668000,0.029279785,0.027046015,0.000233937,1
10672000,0.029363653,0.026961189,0.000233937,1
10676000,0.029404283,0.026870133,0.000233937,1
10680000,0.029431501,0.026802324,0.000233937,1
10684000,0.029469484,0.026727952,0.000233937,1
10688000,0.029520126,0.026650896,0.000233937,1
10692000,0.029621106,0.026582453,0.000233937,1
10696000,0.029721448,0.026444674,0.000233937,1
10704000,0.029834053,0.026285898,0.000233937,1
10708000,0.029857459,0.026297068,0.000233937,1
10712000,0.02985854,0.02621541,0.000233937,1
10716000,0.029896487,0.026144596,0.000233937,1
10720000,0.029944338,0.02607117,0.000233937,1
10724000,0.030003203,0.025997085,0.000233937,1
10732000,0.030089123,-0.6687554,0.000233937,1
10736000,0.030120315,-0.66884446,0.000233937,1
10740000,0.030146427,-0.66891164,0.000233937,1
10748000,0.030205032,-0.6688897,0.000233937,1
10752000,0.030184735,-0.66875434,0.000233937,1
10756000,0.030106753,-0.63732713,0.000233937,1
10760000,0.029954292,-0.6370807,0.000233937,1
10764000,0.029718177,-0.63672626,0.000233937,1
10768000,0.029452058,-0.6363314,0.000233937,1
10772000,0.029157192,-0.635903,0.000233937,1
10776000,0.028789902,-0.6353647,0.000233937,1
10780000,0.02836022,-0.6054369,0.000233937,1
10784000,0.027930012,-0.6046872,0.000233937,1
10788000,0.02747525,-0.6038901,0.000233937,1
10792000,0.026936661,-0.6030758,0.000233937,1
10796000,0.026337672,-0.6021573,0.000233937,1
10800000,0.02572213,-0.6012193,0.000233937,1
10804000,0.025047533,-0.5730072,0.000233937,1
10808000,0.024280882,-0.57201076,0.000233937,1
10812000,0.023473907,-0.57097733,0.000233937,1
10816000,0.022635445,-0.5699359,0.000233937,1
10820000,0.021760866,-0.56890386,0.000233937,1
10828000,0.019912852,-0.54110634,0.000233937,1
10832000,0.018953312,-0.54007435,0.000233937,1
10836000,0.01804482,-0.5391099,0.000233937,1
10840000,0.01711737,-0.53809947,0.000233937,1
10844000,0.016167449,-0.5371492,0.000233937,1
10848000,0.015123087,-0.536186,0.000233937,1
10852000,0.014042296,-0.510899,0.000233937,1
10856000,0.012959019,-0.50993,0.000233937,1
10860000,0.011842665,-0.5089562,0.000233937,1
10864000,0.01070103,-0.507971,0.000233937,1
10868000,0.009540428,-0.5070124,0.000233937,1
10872000,0.008378568,-0.50610155,0.000233937,1
10876000,0.007181827,-0.48204002,0.000233937,1
10880000,0.005992803,-0.48111895,0.000233937,1
10884000,0.004775147,-0.48020634,0.000233937,1
10892000,0.002226354,-0.47842738,0.000233937,1
10900000,-0.000396917,-0.45480543,0.000233937,1
10908000,-0.003050735,-0.45347157,0.000233937,1
10912000,-0.004402455,-0.45284143,0.000233937,1
10916000,-0.005752568,-0.45224413,0.000233937,1
10920000,-0.007098032,-0.45175666,0.000233937,1
10924000,-0.008472272,-0.4303769,0.000233937,1
10928000,-0.009846044,-0.42998317,0.000233937,1
10932000,-0.011210131,-0.42961773,0.000233937,1
10936000,-0.012585768,-0.42933363,0.000233937,1
10940000,-0.01397949,-0.42912003,0.000233937,1
10944000,-0.015389608,-0.42897663,0.000233937,1
10948000,-0.016855694,-0.40878808,0.000233937,1
10952000,-0.018370159,-0.4087431,0.000233937,1
10956000,-0.01987078,-0.40878448,0.000233937,1
10960000,-0.021356666,-0.40890557,0.000233937,1
10964000,-0.022886211,-0.40901685,0.000233937,1
10968000,-0.024393028,-0.4091359,0.000233937,1
10976000,-0.027404757,-0.39015096,0.000233937,1
10980000,-0.028948879,-0.3903967,0.000233937,1
10984000,-0.030515796,-0.39066216,0.000233937,1
10988000,-0.03208587,-0.39100108,0.000233937,1
10992000,-0.0336579,-0.39131102,0.000233937,1
10996000,-0.035265725,-0.37300596,0.000233937,1
11000000,-0.036905058,-0.37337056,0.000233937,1
11004000,-0.03853697,-0.37374833,0.000233937,1
11008000,-0.040149383,-0.3741408,0.000233937,1
11012000,-0.041774813,-0.37451237,0.000233937,1
11016000,-0.04340829,-0.37490568,0.000233937,1
11020000,-0.04503387,-0.35734692,0.000233937,1
11024000,-0.046659462,-0.3577794,0.000233937,1
11028000,-0.048291598,-0.35822523,0.000233937,1
11032000,-0.049935807,-0.35869706,0.000233937,1
11036000,-0.051540427,-0.35923862,0.000233937,1
11040000,-0.05316246,-0.3597629,0.000233937,1
11044000,-0.054805446,-0.34285057,0.000233937,1
11048000,-0.056423016,-0.3433663,0.000233937,1
11052000,-0.05806648,-0.34384105,0.000233937,1
11056000,-0.05974943,-0.3443013,0.000233937,1
11060000,-0.06141396,-0.3447736,0.000233937,1
11068000,-0.064761154,-0.3287249,0.000233937,1
11072000,-0.06644028,-0.32922277,0.000233937,1
11076000,-0.0681284,-0.32968992,0.000233937,1
11080000,-0.06980536,-0.3300805,0.000233937,1
11084000,-0.07146667,-0.33047864,0.000233937,1
11092000,-0.07476921,-0.31479463,0.000233937,1
11096000,-0.07641741,-0.315084,0.000233937,1
11100000,-0.07808063,-0.31538677,0.000233937,1
11108000,-0.08134536,-0.3159615,0.000233937,1
11116000,-0.08464458,-0.30035838,0.000233937,1
11120000,-0.08627622,-0.30051395,0.000233937,1
11124000,-0.08792306,-0.30071032,0.000233937,1
11128000,-0.08955264,-0.3009013,0.000233937,1
11132000,-0.091140956,-0.3010616,0.000233937,1
11136000,-0.09274474,-0.301234,0.000233937,1
11140000,-0.09435789,-0.28575078,0.000233937,1
11144000,-0.095946714,-0.28586322,0.000233937,1
11148000,-0.09753386,-0.28597116,0.000233937,1
11156000,-0.10076575,-0.2860993,0.000233937,1
11164000,-0.10397341,-0.27093917,0.000233937,1
11168000,-0.10556947,-0.27108955,0.000233937,1
11172000,-0.107114844,-0.2711646,0.000233937,1
11180000,-0.11015551,-0.27127498,0.000233937,1
11184000,-0.11163596,-0.27128923,0.000233937,1
11188000,-0.11312529,-0.25627512,0.000233937,1
11196000,-0.11611046,-0.25631803,0.000233937,1
11204000,-0.11911288,-0.25632444,0.000233937,1
11208000,-0.120592445,-0.25638464,0.000233937,1
11216000,-0.12352141,-0.24188638,0.000233937,1
11220000,-0.12493656,-0.24200825,0.000233937,1
11228000,-0.12775831,-0.2423109,0.000233937,1
11232000,-0.12918638,-0.24243711,0.000233937,1
11236000,-0.1306048,-0.22810525,0.000233937,1
11240000,-0.13199928,-0.22832568,0.000233937,1
11244000,-0.1333164,-0.22867082,0.000233937,1
11248000,-0.13461848,-0.2290334,0.000233937,1
11256000,-0.13726011,-0.22969538,0.000233937,1
11260000,-0.1385403,-0.21580175,0.000233937,1
11264000,-0.13981065,-0.21616575,0.000233937,1
11268000,-0.14111286,-0.21655062,0.000233937,1
11272000,-0.14241438,-0.21696255,0.000233937,1
11276000,-0.14367253,-0.2173513,0.000233937,1
11284000,-0.14613417,-0.20418993,0.000233937,1
11292000,-0.14864823,-0.20513251,0.000233937,1
11300000,-0.15115422,-0.2061015,0.000233937,1
11304000,-0.15238327,-0.20661838,0.000233937,1
11308000,-0.1536541,-0.19328865,0.000233937,1
11312000,-0.15489489,-0.19384755,0.000233937,1
11316000,-0.156099,-0.19437912,0.000233937,1
11320000,-0.1573104,-0.1949425,0.000233937,1
11324000,-0.15850584,-0.19555481,0.000233937,1
11328000,-0.1596756,-0.19618475,0.000233937,1
11332000,-0.16088238,-0.18310721,0.000233937,1
11336000,-0.16206752,-0.18374519,0.000233937,1
11340000,-0.16321836,-0.1844145,0.000233937,1
11344000,-0.16438319,-0.18511724,0.000233937,1
11348000,-0.16552977,-0.18579102,0.000233937,1
11352000,-0.16667221,-0.18640631,0.000233937,1
11356000,-0.16783279,-0.17346306,0.000233937,1
11360000,-0.16898587,-0.174096,0.000233937,1
11364000,-0.17011705,-0.17476006,0.000233937,1
11368000,-0.17125009,-0.17550449,0.000233937,1
11372000,-0.17237303,-0.17629321,0.000233937,1
11376000,-0.1734725,-0.17709851,0.000233937,1
11380000,-0.17457068,-0.16450179,0.000233937,1
11384000,-0.17567122,-0.16534631,0.000233937,1
11392000,-0.17782782,-0.16718593,0.000233937,1
11396000,-0.17892146,-0.16820681,0.000233937,1
11400000,-0.18001427,-0.16927046,0.000233937,1
11404000,-0.18110111,-0.15697664,0.000233937,1
11408000,-0.18213789,-0.15799175,0.000233937,1
11412000,-0.18317012,-0.15908374,0.000233937,1
11420000,-0.18533015,-0.16128108,0.000233937,1
11428000,-0.18749507,-0.15043068,0.000233937,1
11432000,-0.18852943,-0.15166815,0.000233937,1
11436000,-0.18952134,-0.15294105,0.000233937,1
11440000,-0.19048712,-0.15420523,0.000233937,1
11444000,-0.19145525,-0.15549569,0.000233937,1
11448000,-0.1924383,-0.1568335,0.000233937,1
11452000,-0.19338784,-0.14506467,0.000233937,1
11460000,-0.19529083,-0.147884,0.000233937,1
11464000,-0.19620572,-0.1493317,0.000233937,1
11468000,-0.19713701,-0.15081836,0.000233937,1
11476000,-0.19898792,-0.14079784,0.000233937,1
11480000,-0.19991577,-0.14224808,0.000233937,1
11484000,-0.20083417,-0.14371018,0.000233937,1
11488000,-0.2017283,-0.14518106,0.000233937,1
11492000,-0.202586,-0.14669715,0.000233937,1
11496000,-0.20344558,-0.14823438,0.000233937,1
11500000,-0.20430364,-0.13686052,0.000233937,1
11504000,-0.2051416,-0.1384274,0.000233937,1
11508000,-0.20598425,-0.14000575,0.000233937,1
11512000,-0.20683786,-0.14160669,0.000233937,1
11516000,-0.20770673,-0.14316921,0.000233937,1
11520000,-0.20855378,-0.14478579,0.000233937,1
11524000,-0.20939136,-0.13356078,0.000233937,1
11528000,-0.21024294,-0.13520864,0.000233937,1
11532000,-0.21108305,-0.13686584,0.000233937,1
11536000,-0.2119478,-0.13852519,0.000233937,1
11540000,-0.2127628,-0.14018682,0.000233937,1
11548000,-0.21435055,-0.13065408,0.000233937,1
11552000,-0.21517304,-0.13229793,0.000233937,1
11556000,-0.2159906,-0.1339648,0.000233937,1
11560000,-0.21676315,-0.13562857,0.000233937,1
11564000,-0.21748824,-0.13724808,0.000233937,1
11568000,-0.21821533,-0.13884905,0.000233937,1
11572000,-0.21894152,-0.1276943,0.000233937,1
11580000,-0.22034165,-0.1308568,0.000233937,1
11584000,-0.22102144,-0.13241217,0.000233937,1
11588000,-0.22170989,-0.13401555,0.000233937,1
11592000,-0.22237,-0.13565855,0.000233937,1
11596000,-0.22300877,-0.12452984,0.000233937,1
11600000,-0.22366531,-0.12611704,0.000233937,1
11604000,-0.22432029,-0.1277216,0.000233937,1
11608000,-0.22495331,-0.12930328,0.000233937,1
11612000,-0.22558862,-0.13086879,0.000233937,1
11616000,-0.22625928,-0.13247159,0.000233937,1
11620000,-0.22691773,-0.12134836,0.000233937,1
11624000,-0.22754931,-0.1229005,0.000233937,1
11628000,-0.22816439,-0.12441357,0.000233937,1
11632000,-0.22877315,-0.12593801,0.000233937,1
11636000,-0.22934638,-0.12750013,0.000233937,1
11640000,-0.22990555,-0.12905343,0.000233937,1
11644000,-0.23047447,-0.11786541,0.000233937,1
11648000,-0.23104984,-0.11931968,0.000233937,1
11652000,-0.23158377,-0.120770626,0.000233937,1
11660000,-0.23261382,-0.1237506,0.000233937,1
11664000,-0.23312628,-0.1252396,0.000233937,1
11668000,-0.23360795,-0.11401042,0.000233937,1
11676000,-0.23447858,-0.116837986,0.000233937,1
11680000,-0.23490147,-0.118239895,0.000233937,1
11684000,-0.23536234,-0.119599365,0.000233937,1
11688000,-0.2358464,-0.12096887,0.000233937,1
11692000,-0.23631719,-0.109707594,0.000233937,1
11696000,-0.23677582,-0.11107913,0.000233937,1
11700000,-0.23720951,-0.11244434,0.000233937,1
11704000,-0.23763768,-0.113792785,0.000233937,1
11708000,-0.23806658,-0.11509296,0.000233937,1
11712000,-0.23849893,-0.116407484,0.000233937,1
11716000,-0.23894082,-0.104998626,0.000233937,1
11720000,-0.23934156,-0.10625811,0.000233937,1
11724000,-0.23972346,-0.10756069,0.000233937,1
11728000,-0.24011694,-0.10879074,0.000233937,1
11732000,-0.2405267,-0.109985664,0.000233937,1
11740000,-0.24130279,-0.09976978,0.000233937,1
11744000,-0.24165863,-0.10098858,0.000233937,1
11748000,-0.24201252,-0.10224213,0.000233937,1
11756000,-0.242784,-0.10458584,0.000233937,1
11760000,-0.24316117,-0.105678484,0.000233937,1
11764000,-0.24351318,-0.0941423,0.000233937,1
11768000,-0.24387425,-0.09530639,0.000233937,1
11772000,-0.24423738,-0.09648666,0.000233937,1
11776000,-0.24458474,-0.09763219,0.000233937,1
11780000,-0.24489748,-0.09875514,0.000233937,1
11784000,-0.24521585,-0.09992159,0.000233937,1
11788000,-0.24558163,-0.088397525,0.000233937,1
11792000,-0.2459114,-0.0895698,0.000233937,1
11796000,-0.24622916,-0.09070325,0.000233937,1
11804000,-0.24686332,-0.09294084,0.000233937,1
11808000,-0.24716656,-0.09401656,0.000233937,1
11812000,-0.2474865,-0.08240975,0.000233937,1
11816000,-0.24780172,-0.08349131,0.000233937,1
11820000,-0.2481389,-0.08456271,0.000233937,1
11824000,-0.24847236,-0.08568308,0.000233937,1
11828000,-0.2487842,-0.08678447,0.000233937,1
11832000,-0.24909249,-0.08785275,0.000233937,1
11836000,-0.24936609,-0.076147735,0.000233937,1
11844000,-0.24998581,-0.07826535,0.000233937,1
11848000,-0.250317,-0.079323284,0.000233937,1
11852000,-0.25060934,-0.080367796,0.000233937,1
11860000,-0.25128174,-0.06968628,0.000233937,1
11864000,-0.2516063,-0.07075064,0.000233937,1
11868000,-0.25192872,-0.07180875,0.000233937,1
11876000,-0.2526009,-0.07385174,0.000233937,1
11884000,-0.25322786,-0.0631358,0.000233937,1
11888000,-0.25357103,-0.064184666,0.000233937,1
11892000,-0.25391248,-0.06524129,0.000233937,1
11896000,-0.25420776,-0.066278815,0.000233937,1
11900000,-0.2544956,-0.067324825,0.000233937,1
11904000,-0.2547939,-0.068353646,0.000233937,1
11908000,-0.25508785,-0.056539223,0.000233937,1
11912000,-0.255384,-0.057561856,0.000233937,1
11916000,-0.25568786,-0.058559865,0.000233937,1
11920000,-0.25597787,-0.059562642,0.000233937,1
11924000,-0.25627762,-0.06058193,0.000233937,1
11928000,-0.25659308,-0.06158232,0.000233937,1
11932000,-0.25691074,-0.049730763,0.000233937,1
11936000,-0.25724038,-0.050750025,0.000233937,1
11940000,-0.25758445,-0.05181412,0.000233937,1
11944000,-0.2579131,-0.05288517,0.000233937,1
11948000,-0.25822794,-0.053954445,0.000233937,1
11952000,-0.25855717,-0.055065103,0.000233937,1
11956000,-0.25885886,-0.04329087,0.000233937,1
11960000,-0.25916216,-0.044388287,0.000233937,1
11964000,-0.25947785,-0.04547318,0.000233937,1
11972000,-0.2600395,-0.04765826,0.000233937,1
11980000,-0.26063055,-0.036979076,0.000233937,1
11984000,-0.26091766,-0.038054883,0.000233937,1
11988000,-0.26121104,-0.03912853,0.000233937,1
11992000,-0.26153922,-0.040228307,0.000233937,1
11996000,-0.2618168,-0.041381314,0.000233937,1
12004000,-0.26235905,-0.030717224,0.000233937,1
12012000,-0.26294824,-0.033040456,0.000233937,1
12016000,-0.2632542,-0.03414824,0.000233937,1
12020000,-0.26357362,-0.035301764,0.000233937,1
12024000,-0.2638946,-0.036446877,0.000233937,1
12028000,-0.2642304,-0.024621127,0.000233937,1
12032000,-0.26451865,-0.025784282,0.000233937,1
12036000,-0.26483598,-0.02690954,0.000233937,1
12040000,-0.26518077,-0.028046586,0.000233937,1
12044000,-0.26547313,-0.029196167,0.000233937,1
12048000,-0.2657699,-0.03034539,0.000233937,1
12052000,-0.26607114,-0.018478652,0.000233937,1
12056000,-0.2663724,-0.019685328,0.000233937,1
12060000,-0.2666934,-0.020843228,0.000233937,1
12068000,-0.26724008,-0.023200996,0.000233937,1
12072000,-0.2674825,-0.024391599,0.000233937,1
12076000,-0.2677347,-0.012548744,0.000233937,1
12080000,-0.26798436,-0.013751309,0.000233937,1
12084000,-0.26824257,-0.014937062,0.000233937,1
12088000,-0.26851642,-0.016169928,0.000233937,1
12092000,-0.26880428,-0.017412055,0.000233937,1
12096000,-0.26908648,-0.018651336,0.000233937,1
12104000,-0.2695988,-0.008068047,0.000233937,1
12108000,-0.26986644,-0.00931302,0.000233937,1
12112000,-0.27012804,-0.010585732,0.000233937,1
12116000,-0.27040544,-0.011819856,0.000233937,1
12124000,-0.27096176,-0.001147578,0.000233937,1
12128000,-0.27121168,-0.002380147,0.000233937,1
12132000,-0.27144784,-0.003631733,0.000233937,1
12136000,-0.2717003,-0.004902166,0.000233937,1
12140000,-0.27195704,-0.006165515,0.000233937,1
12144000,-0.27216974,-0.007466253,0.000233937,1
12148000,-0.27238122,0.004487278,0.000233937,1
12156000,-0.27280664,0.001962603,0.000233937,1
12160000,-0.27299038,0.000701409,0.000233937,1
12164000,-0.2731778,-0.00055298,0.000233937,1
12168000,-0.27340195,-0.001855155,0.000233937,1
12172000,-0.2736135,0.010113569,0.000233937,1
12176000,-0.2738403,0.008833274,0.000233937,1
12180000,-0.27407053,0.0075758,0.000233937,1
12188000,-0.2744469,0.005052696,0.000233937,1
12196000,-0.2748505,0.015827952,0.000233937,1
12200000,-0.27506796,0.014576002,0.000233937,1
12204000,-0.2752597,0.013339958,0.000233937,1
12208000,-0.27541643,0.012143621,0.000233937,1
12212000,-0.27558142,0.010902336,0.000233937,1
12220000,-0.27595666,0.021679096,0.000233937,1
12224000,-0.2761074,0.020404955,0.000233937,1
12228000,-0.27626172,0.019188505,0.000233937,1
12236000,-0.27666825,0.016674794,0.000233937,1
12240000,-0.27684805,0.015401838,0.000233937,1
12244000,-0.27701917,0.027569229,0.000233937,1
12248000,-0.27716586,0.026323507,0.000233937,1
12252000,-0.27729145,0.025010739,0.000233937,1
12256000,-0.27743095,0.023728644,0.000233937,1
12260000,-0.27759427,0.02252588,0.000233937,1
12264000,-0.27775437,0.021293648,0.000233937,1
12268000,-0.27791733,0.03350848,0.000233937,1
12272000,-0.27805415,0.03230339,0.000233937,1
12276000,-0.2781837,0.031106507,0.000233937,1
12280000,-0.27834105,0.0298813,0.000233937,1
12284000,-0.2785286,0.028638186,0.000233937,1
12288000,-0.27870372,0.027408488,0.000233937,1
12292000,-0.27885893,0.03973269,0.000233937,1
12296000,-0.27900738,0.038573615,0.000233937,1
12300000,-0.2791707,0.037414305,0.000233937,1
12304000,-0.279358,0.036269333,0.000233937,1
12308000,-0.27953064,0.0351506,0.000233937,1
12312000,-0.2797069,0.034017082,0.000233937,1
12316000,-0.27986342,0.046412088,0.000233937,1
12320000,-0.27997696,0.045240194,0.000233937,1
12324000,-0.2801055,0.04403735,0.000233937,1
12328000,-0.2802648,0.042825177,0.000233937,1
12332000,-0.28039613,0.041641843,0.000233937,1
12336000,-0.2805135,0.040440626,0.000233937,1
12340000,-0.28063935,0.052850846,0.000233937,1
12344000,-0.28076538,0.051736634,0.000233937,1
12348000,-0.28088796,0.05057342,0.000233937,1
12352000,-0.28101206,0.049361337,0.000233937,1
12356000,-0.2811697,0.048172705,0.000233937,1
12360000,-0.28134277,0.046983525,0.000233937,1
12364000,-0.28148052,0.059425868,0.000233937,1
12372000,-0.2816924,0.057100214,0.000233937,1
12376000,-0.2818343,0.055974074,0.000233937,1
12380000,-0.28197348,0.054855388,0.000233937,1
12384000,-0.28212973,0.053687494,0.000233937,1
12388000,-0.28230107,0.06618306,0.000233937,1
12392000,-0.28246242,0.06503187,0.000233937,1
12396000,-0.28263184,0.06389869,0.000233937,1
12404000,-0.28294265,0.061585333,0.000233937,1
12408000,-0.28307155,0.060445413,0.000233937,1
12412000,-0.28322196,0.073002085,0.000233937,1
12416000,-0.28337687,0.07184853,0.000233937,1
12420000,-0.28350398,0.07074488,0.000233937,1
12428000,-0.28372604,0.06847932,0.000233937,1
12432000,-0.28384253,0.067315884,0.000233937,1
12436000,-0.28395417,0.079913214,0.000233937,1
12440000,-0.28410724,0.078798376,0.000233937,1
12444000,-0.28423008,0.0777016,0.000233937,1
12448000,-0.2843329,0.076550245,0.000233937,1
12452000,-0.28445938,0.0753786,0.000233937,1
12456000,-0.2845628,0.07421845,0.000233937,1
12460000,-0.28468493,0.086902946,0.000233937,1
12464000,-0.2848504,0.085777774,0.000233937,1
12472000,-0.28520676,0.08351496,0.000233937,1
12476000,-0.28536186,0.08242086,0.000233937,1
12480000,-0.2855056,0.08128039,0.000233937,1
12484000,-0.28565583,0.09400111,0.000233937,1
12488000,-0.28580162,0.09288133,0.000233937,1
12492000,-0.28596047,0.091754496,0.000233937,1
12496000,-0.28613165,0.09061072,0.000233937,1
12500000,-0.28628054,0.089445576,0.000233937,1
12504000,-0.28640807,0.08830305,0.000233937,1
12508000,-0.28655517,0.10107527,0.000233937,1
12512000,-0.286721,0.09989768,0.000233937,1
12516000,-0.28684774,0.09874165,0.000233937,1
12524000,-0.2871566,0.0963971,0.000233937,1
12528000,-0.28730074,0.0952214,0.000233937,1
12532000,-0.28743246,0.10797088,0.000233937,1
12536000,-0.28756085,0.10678556,0.000233937,1
12540000,-0.2877334,0.10562466,0.000233937,1
12544000,-0.2878672,0.10442028,0.000233937,1
12548000,-0.28798637,0.1031702,0.000233937,1
12552000,-0.28812426,0.10195683,0.000233937,1
12556000,-0.2882598,0.1147819,0.000233937,1
12564000,-0.2885689,0.112449,0.000233937,1
12568000,-0.2886763,0.11121335,0.000233937,1
12572000,-0.28878108,0.109992936,0.000233937,1
12580000,-0.28904894,0.1216723,0.000233937,1
12584000,-0.289191,0.12048465,0.000233937,1
12588000,-0.28930783,0.11928102,0.000233937,1
12592000,-0.28944215,0.11810761,0.000233937,1
12596000,-0.28961563,0.11696106,0.000233937,1
12600000,-0.28977147,0.115796946,0.000233937,1
12604000,-0.28989878,0.12863906,0.000233937,1
12608000,-0.29002386,0.12740949,0.000233937,1
12612000,-0.29014245,0.12616776,0.000233937,1
12616000,-0.29027733,0.12491827,0.000233937,1
12620000,-0.2904216,0.12372756,0.000233937,1
12624000,-0.29055542,0.12255211,0.000233937,1
12628000,-0.29070175,0.1354389,0.000233937,1
12636000,-0.29097554,0.13298985,0.000233937,1
12640000,-0.2910918,0.13177796,0.000233937,1
12644000,-0.2912143,0.13055114,0.000233937,1
12652000,-0.29151452,0.14215618,0.000233937,1
12656000,-0.29159987,0.14090574,0.000233937,1
12660000,-0.2916821,0.13968825,0.000233937,1
12664000,-0.2918088,0.13841347,0.000233937,1
12668000,-0.29199174,0.13711433,0.000233937,1
12672000,-0.29214397,0.13582993,0.000233937,1
12676000,-0.2923015,0.14868656,0.000233937,1
12684000,-0.29254684,0.14615719,0.000233937,1
12688000,-0.29267,0.1448766,0.000233937,1
12692000,-0.2927923,0.14356464,0.000233937,1
12696000,-0.2929238,0.14228512,0.000233937,1
12700000,-0.29307294,0.15523742,0.000233937,1
12704000,-0.29324466,0.15397964,0.000233937,1
12708000,-0.29339838,0.15270948,0.000233937,1
12712000,-0.29353386,0.15142356,0.000233937,1
12716000,-0.29366022,0.15013805,0.000233937,1
12724000,-0.2939543,0.16186298,0.000233937,1
12728000,-0.29410297,0.1606241,0.000233937,1
12731999,-0.2942104,0.15931064,0.000233937,1
12736000,-0.29432362,0.15802191,0.000233937,1
12740000,-0.29445237,0.15676981,0.000233937,1
12744000,-0.29457775,0.15546975,0.000233937,1
12748000,-0.29469243,0.16842784,0.000233937,1
12751999,-0.29480755,0.16712871,0.000233937,1
12756000,-0.29493,0.16582721,0.000233937,1
12760000,-0.29505005,0.1645626,0.000233937,1
12763999,-0.29510686,0.16330475,0.000233937,1
12768000,-0.29518303,0.16203894,0.000233937,1
12772000,-0.2952714,0.17508999,0.000233937,1
12776000,-0.29533276,0.17384705,0.000233937,1
12780000,-0.2954165,0.17256272,0.000233937,1
12783999,-0.29548743,0.17123476,0.000233937,1
12788000,-0.29554945,0.16986191,0.000233937,1
12792000,-0.2956401,0.16854358,0.000233937,1
12795999,-0.29572356,0.18162052,0.000233937,1
12800000,-0.29582688,0.18035506,0.000233937,1
12804000,-0.2959403,0.1790807,0.000233937,1
12808000,-0.29603228,0.17778747,0.000233937,1
12812000,-0.29615492,0.17651312,0.000233937,1
12820000,-0.2963529,0.18824196,0.000233937,1
12827999,-0.29656518,0.18559471,0.000233937,1
12832000,-0.29671448,0.18428269,0.000233937,1
12836000,-0.296833,0.18302318,0.000233937,1
12840000,-0.2969363,0.1817623,0.000233937,1
12844000,-0.2970452,0.19485025,0.000233937,1
12847999,-0.2971058,0.19355068,0.000233937,1
12852000,-0.29715556,0.19224715,0.000233937,1
12856000,-0.29722288,0.19089895,0.000233937,1
12859999,-0.29726577,0.18957257,0.000233937,1
12864000,-0.2972986,0.18825963,0.000233937,1
12868000,-0.29734814,0.20130253,0.000233937,1
12872000,-0.2973901,0.20001167,0.000233937,1
12876000,-0.29748333,0.19875778,0.000233937,1
12879999,-0.29762203,0.19749686,0.000233937,1
12884000,-0.29776672,0.19625323,0.000233937,1
12888000,-0.29788318,0.19498591,0.000233937,1
12891999,-0.29796118,0.20814374,0.000233937,1
12896000,-0.2980345,0.20690629,0.000233937,1
12900000,-0.29810968,0.20561597,0.000233937,1
12904000,-0.29819748,0.20431025,0.000233937,1
12908000,-0.2982942,0.2029886,0.000233937,1
12911999,-0.29836693,0.20160991,0.000233937,1
12916000,-0.2984376,0.21471311,0.000233937,1
12920000,-0.29852363,0.21346948,0.000233937,1
12923999,-0.2986025,0.21220389,0.000233937,1
12928000,-0.29870638,0.21093577,0.000233937,1
12932000,-0.29882506,0.20967571,0.000233937,1
12940000,-0.29899916,0.22069553,0.000233937,1
12943999,-0.29907545,0.2194006,0.000233937,1
12948000,-0.29917374,0.21807204,0.000233937,1
12955999,-0.29932728,0.2155301,0.000233937,1
12960000,-0.2993749,0.21422453,0.000233937,1
12964000,-0.29944366,0.21290404,0.000233937,1
12968000,-0.2995274,0.21159065,0.000233937,1
12972000,-0.299625,0.21029389,0.000233937,1
12980000,-0.29982316,0.20768847,0.000233937,1
12987999,-0.30009243,0.20509826,0.000233937,1
12996000,-0.30018187,0.20256495,0.000233937,1
13000000,-0.30025744,0.20132357,0.000233937,1
13004000,-0.3003382,0.20005351,0.000233937,1
13007999,-0.30042496,0.19881164,0.000233937,1
13012000,-0.30049065,0.19757427,0.000233937,1
13016000,-0.30056235,0.19629353,0.000233937,1
13019999,-0.30066705,0.1950185,0.000233937,1
13024000,-0.30077618,0.1937856,0.000233937,1
13028000,-0.30087245,0.19260514,0.000233937,1
13032000,-0.30094773,0.19145027,0.000233937,1
13036000,-0.30101883,0.19029552,0.000233937,1
13039999,-0.30108905,0.18918246,0.000233937,1
13044000,-0.30116275,0.188096,0.000233937,1
13048000,-0.30122128,0.18699709,0.000233937,1
13051999,-0.30127007,0.1858962,0.000233937,1
13056000,-0.30134565,0.18481632,0.000233937,1
13060000,-0.3014351,0.18376206,0.000233937,1
13068000,-0.30160823,0.18159568,0.000233937,1
13071999,-0.3016926,0.1805334,0.000233937,1
13076000,-0.30178908,0.17953162,0.000233937,1
13083999,0.29857862,0.1956279,0.045746993,1
13088000,0.29839802,0.19466779,0.04597551,1
13092000,0.29824588,0.193754,0.046168033,1
13096000,0.298012,0.19285151,0.04637134,1
13100000,0.2975393,0.19194718,0.046612605,1
13103999,0.29684448,0.19108516,0.046881426,1
13108000,0.29593334,0.19024463,0.04718111,1
13112000,0.29480857,0.18943511,0.047509782,1
13115999,0.29352048,0.18866208,0.04785877,1
13120000,0.2920167,0.18792796,0.04823622,1
13124000,0.29032484,0.18718597,0.048646826,1
13128000,0.2884845,0.18647067,0.04907803,1
13132000,0.28648064,0.18586072,0.049517475,1
13135999,0.28432584,0.18524179,0.04998502,1
13140000,0.28203854,0.18457413,0.050485674,1
13144000,0.27962077,0.18392433,0.051006604,1
13147999,0.27708983,0.18335079,0.051533736,1
13152000,0.27445826,0.18281248,0.05207302,1
13156000,0.27170706,0.18223585,0.05264227,1
13160000,0.26886255,0.18164764,0.053232204,1
13164000,0.26596248,0.18110192,0.05382581,1
13167999,0.26294923,0.18063304,0.05442576,1
13172000,0.2598682,0.1801924,0.05503421,1
13176000,0.25671595,0.17980023,0.05564755,1
13180000,0.25348362,0.17946477,0.056265466,1
13184000,0.25018787,0.17910339,0.056902457,1
13188000,0.2467863,0.17874838,0.05778069,1
13196000,0.24002855,0.17811494,0.05908302,1
13199999,0.23655526,0.17781502,0.059751354,1
13204000,0.23304117,0.17753766,0.06042489,1
13208000,0.22953494,0.17729776,0.061091773,1
13212000,0.22601698,0.17705676,0.06176384,1
13216000,0.22246242,0.17680334,0.0624481,1
13219999,0.21888687,0.1765734,0.0631338,1
13224000,0.21528095,0.17634505,0.06382753,1
13228000,0.21162209,0.17612293,0.06453238,1
13231999,0.20797092,0.17597015,0.06522274,1
13236000,0.20431565,0.17581856,0.065916434,1
13240000,0.20062369,0.17560697,0.06663392,1
13244000,0.1969489,0.17539714,0.067351066,1
13248000,0.19329377,0.17523485,0.06805633,1
13252000,0.18961331,0.1751209,0.068757445,1
13256000,0.18588422,0.17502491,0.069465905,1
13260000,0.18215802,0.17494297,0.07017326,1
13263999,0.17846225,0.17484069,0.07088289,1
13268000,0.17477748,0.17474805,0.071590915,1
13276000,0.16743216,0.17460673,0.07299985,1
13280000,0.16373153,0.17452326,0.07371707,1
13283999,0.15998125,0.17442352,0.07445087,1
13292000,0.15248574,0.17437622,0.07629606,1
13295999,0.14886472,0.17434673,0.07699874,1
13300000,0.14521906,0.17431995,0.077708155,1
13304000,0.14155737,0.17430034,0.07842147,1
13308000,0.1379069,0.17428277,0.07913481,1
13315999,0.13069753,0.17426603,0.08054672,1
13320000,0.12715843,0.17423874,0.08124906,1
13324000,0.12358715,0.17422064,0.08195786,1
13327999,0.12004073,0.17423087,0.08265647,1
13332000,0.11656421,0.17425425,0.08334003,1
13336000,0.1130711,0.17428592,0.08402698,1
13340000,0.109569594,0.17427403,0.084730685,1
13344000,0.10610841,0.17425622,0.08543062,1
13347999,0.10265012,0.17428222,0.08611989,1
13352000,0.09921214,0.17431746,0.08680481,1
13356000,0.09582707,0.17433852,0.08748564,1
13364000,0.08906915,0.17433594,0.088865586,1
13368000,0.08568339,0.17432779,0.08956289,1
13372000,0.0823064,0.17426993,0.090276055,1
13379999,0.07563036,0.17427613,0.091657266,1
13384000,0.072357416,0.17421597,0.092357665,1
13388000,0.06896257,0.1743094,0.09351013,1
13396000,0.062491868,0.17427781,0.09488642,1
13400000,0.059298273,0.174274,0.09556573,1
13404000,0.056105465,0.17423853,0.09625734,1
13408000,0.05293669,0.17423761,0.09693539,1
13411999,0.049788617,0.17424765,0.09760791,1
13416000,0.046661902,0.17424615,0.098281965,1
13420000,0.043566983,0.17427775,0.09894078,1
13428000,0.037478074,0.17440693,0.10022166,1
13436000,0.031460848,0.17437331,0.10154912,1
13440000,0.028459147,0.17438377,0.10220579,1
13443999,0.025515981,0.17440802,0.10284716,1
13448000,0.022605479,0.17443861,0.10348134,1
13452000,0.019683663,0.1744465,0.10412778,1
13455999,0.016785853,0.17445332,0.104771405,1
13460000,0.013927653,0.17448428,0.10540011,1
13468000,0.008284438,0.17448005,0.10666998,1
13472000,0.005446296,0.17449382,0.10730632,1
13475999,0.002657201,0.1744666,0.10794787,1
13480000,-8.20E-05,0.1744704,0.1085694,1
13484000,-0.002838392,0.1745415,0.1091734,1
13488000,-0.005651701,0.17468426,0.109983444,1
13492000,-0.008399982,0.17471257,0.110605344,1
13500000,-0.013824951,0.17475793,0.11184254,1
13504000,-0.016462412,0.1748098,0.112436265,1
13508000,-0.019079532,0.17483324,0.11303721,1
13512000,-0.021679046,0.17488208,0.11362678,1
13516000,-0.024281375,0.17495067,0.11421162,1
13520000,-0.026904631,0.17496319,0.114823446,1
13528000,-0.032007016,0.17498273,0.11602071,1
13532000,-0.034492135,0.17502534,0.116594404,1
13536000,-0.036926508,0.17507997,0.11715327,1
13540000,-0.039335713,0.17513385,0.117707975,1
13544000,-0.041789923,0.1752133,0.11826553,1
13548000,-0.044249684,0.17527814,0.11883142,1
13556000,-0.049059913,0.17542556,0.119934976,1
13564000,-0.053875543,0.17559671,0.12103701,1
13568000,-0.056221824,0.175661,0.12152997,1
13572000,-0.058365535,0.17546012,0.121423095,1
13576000,-0.060461454,0.17526306,0.12131976,1
13580000,-0.062469702,0.17506962,0.12122341,1
13584000,-0.064483404,0.17491502,0.12111126,1
13588000,-0.06670066,0.17500919,0.12154814,1
13592000,-0.06870433,0.17481646,0.12145403,1
13596000,-0.07070942,0.17460132,0.12136997,1
13604000,-0.07466545,0.17423806,0.121180825,1
13612000,-0.078583874,0.17386195,0.12100324,1
13616000,-0.0805185,0.17364179,0.12093139,1
13620000,-0.082439825,0.17345005,0.120849326,1
13624000,-0.08433792,0.17328867,0.12075694,1
13628000,-0.08621005,0.1731238,0.1206689,1
13632000,-0.08806427,0.172996,0.120566994,1
13636000,-0.08990821,0.17288151,0.12046072,1
13640000,-0.09172958,0.17272134,0.1203767,1
13644000,-0.093529224,0.1725627,0.12029445,1
13648000,-0.09530136,0.17244211,0.12019845,1
13652000,-0.09706269,0.17230093,0.12011285,1
13656000,-0.09884828,0.1721436,0.12003289,1
13660000,-0.10062532,0.17201269,0.11994255,1
13664000,-0.102386,0.17186785,0.11986025,1
13668000,-0.104129635,0.17169867,0.11979074,1
13672000,-0.105847344,0.17155412,0.11971299,1
13676000,-0.10754726,0.17143393,0.11962631,1
13680000,-0.10923814,0.1713216,0.11953732,1
13684000,-0.11092809,0.1712369,0.11943635,1
13688000,-0.11260177,0.17108354,0.11930205,1
13692000,-0.114265725,0.17096378,0.1192199,1
13696000,-0.11593446,0.1709221,0.119102344,1
13700000,-0.1176084,0.17090026,0.1189755,1
13708000,-0.12087136,0.17070748,0.11879768,1
13712000,-0.12251553,0.1706492,0.118690744,1
13716000,-0.12414605,0.17065307,0.11855654,1
13720000,-0.12573616,0.17061599,0.118444666,1
13724000,-0.12730059,0.17055374,0.11834675,1
13732000,-0.13043198,0.1705446,0.11809771,1
13740000,-0.1335256,0.17048258,0.11787695,1
13748000,-0.13652527,0.17046607,0.11764302,1
13752000,-0.1380066,0.17047524,0.11751948,1
13756000,-0.13948113,0.17046633,0.11740513,1
13760000,-0.14097983,0.17043428,0.11729993,1
13764000,-0.14247392,0.17043123,0.11718148,1
13768000,-0.14391465,0.17042021,0.11707121,1
13772000,-0.14534995,0.17038617,0.11697252,1
13776000,-0.14679629,0.17039058,0.11685465,1
13780000,-0.14822918,0.17039934,0.11673584,1
13784000,-0.1496588,0.17036161,0.11663976,1
13788000,-0.15142517,0.17090517,0.11750759,1
13792000,-0.15282764,0.17093357,0.117381826,1
13796000,-0.15421584,0.17096496,0.11725579,1
13800000,-0.15558532,0.1709842,0.11713712,1
13804000,-0.15693237,0.170953,0.117044926,1
13812000,-0.15966685,0.17096476,0.11682141,1
13820000,-0.16240765,0.17099595,0.116588056,1
13824000,-0.16375428,0.17102814,0.11646516,1
13828000,-0.16504239,0.1710928,0.11633082,1
13832000,-0.16632466,0.17115083,0.11620018,1
13836000,-0.16762789,0.17116426,0.116089955,1
13840000,-0.16891465,0.17119613,0.11597193,1
13844000,-0.17021024,0.17120543,0.11586445,1
13852000,-0.17274576,0.17126755,0.11563223,1
13856000,-0.17399047,0.1713213,0.11550656,1
13860000,-0.1752362,0.1713762,0.11538017,1
13864000,-0.17647873,0.17142531,0.11525686,1
13868000,-0.17771327,0.1715142,0.115114085,1
13872000,-0.17894065,0.17161822,0.11496407,1
13876000,0.42316008,0.18025993,0.15971103,0.40691948
13880000,0.4218798,0.18058008,0.15994307,0.40691948
13884000,0.42058957,0.18090308,0.16017698,0.40691948
13888000,0.4191913,0.18131968,0.16039936,0.40691948
13892000,0.41757616,0.18179205,0.16066177,0.40691948
13896000,0.4157501,0.18227655,0.16098121,0.40691948
13900000,0.40917295,0.16979069,0.16892132,0.4307531
13904000,0.40696758,0.17031932,0.16935655,0.4307531
13908000,0.40463477,0.17086947,0.16982177,0.4307531
13912000,0.4022013,0.17142516,0.1703163,0.4307531
13916000,0.39969182,0.17198992,0.17083097,0.4307531
13920000,0.3971155,0.17263205,0.17133167,0.4307531
13924000,0.39481607,0.16045186,0.17951147,0.4534322
13932000,0.38915417,0.16179055,0.18070886,0.4534322
13936000,0.38624814,0.16243313,0.18134612,0.4534322
13940000,0.3832796,0.16306774,0.18200886,0.4534322
13948000,0.3702199,0.1514684,0.19122109,0.47499624
13952000,0.36711577,0.15211341,0.19196004,0.47499624
13956000,0.36398,0.15279289,0.1926953,0.47499624
13960000,0.3608078,0.15346353,0.193449,0.47499624
13964000,0.35760406,0.15413302,0.19421598,0.47499624
13972000,0.35060152,0.14286846,0.20367368,0.49537668
13976000,0.3473516,0.14360684,0.20446286,0.49537668
13980000,0.34407312,0.14436413,0.20525506,0.49537668
13984000,0.340784,0.14511015,0.20605864,0.49537668
13988000,0.33677834,0.14713855,0.20879573,0.49537668
13996000,0.3260982,0.13621962,0.21849039,0.5151974
14000000,0.32275453,0.13707069,0.21931449,0.5151974
14004000,0.31942013,0.137908,0.22014399,0.5151974
14008000,0.31608582,0.13874897,0.22097377,0.5151974
14012000,0.31275377,0.1396228,0.22178875,0.5151974
14016000,0.3094101,0.14055726,0.22258016,0.5151974
14020000,0.30166838,0.12901764,0.23162763,0.53372216
14024000,0.29837596,0.13001043,0.23240831,0.53372216
14028000,0.2951021,0.1310058,0.23318219,0.53372216
14036000,0.28851065,0.13308555,0.23470744,0.53372216
14040000,0.2852069,0.13413474,0.2354709,0.53372216
14044000,0.2775629,0.12274954,0.24469429,0.55094594
14048000,0.27429038,0.123804785,0.24547954,0.55094594
14052000,0.27098995,0.12487902,0.24626806,0.55094594
14056000,0.26765695,0.12602803,0.2470334,0.55094594
14060000,0.26436827,0.12720971,0.24776551,0.55094594
14064000,0.26110756,0.1284234,0.24847116,0.55094594
14068000,0.25324202,0.11727783,0.25777102,0.5668725
14072000,0.25001118,0.118504696,0.25849357,0.5668725
14076000,0.24679351,0.11978605,0.25918365,0.5668725
14080000,0.24360421,0.12109824,0.25984678,0.5668725
14084000,0.24042857,0.12241976,0.26050007,0.5668725
14088000,0.23553777,0.12694186,0.26564765,0.5668725
14092000,0.22805785,0.115976974,0.27507308,0.582936
14096000,0.2249454,0.11730425,0.27575263,0.582936
14100000,0.22186014,0.11866001,0.2764061,0.582936
14104000,0.21881463,0.12006165,0.27701885,0.582936
14108000,0.21577322,0.12148263,0.27762017,0.582936
14116000,0.20509374,0.112147205,0.2877329,0.5976864
14120000,0.2020797,0.11363169,0.28832176,0.5976864
14124000,0.19907495,0.11510704,0.28891152,0.5976864
14128000,0.19606008,0.11655103,0.28952295,0.5976864
14136000,0.19022892,0.11946834,0.29064068,0.5976864
14140000,0.18309326,0.108867295,0.30024123,0.61121655
14144000,0.1802454,0.11038488,0.3007683,0.61121655
14148000,0.17746088,0.1119177,0.30125743,0.61121655
14152000,0.17467824,0.11347897,0.30173045,0.61121655
14156000,0.17188387,0.115041286,0.30220833,0.61121655
14160000,0.16912894,0.11661141,0.30266333,0.61121655
14164000,0.1620434,0.106104895,0.31233177,0.6235628
14168000,0.1593737,0.10769564,0.31276348,0.6235628
14172000,0.15670273,0.109327935,0.31317297,0.6235628
14176000,0.15405224,0.110920906,0.31359363,0.6235628
14180000,0.15148368,0.11247816,0.3139937,0.6235628
14184000,0.14892155,0.1140455,0.31438497,0.6235628
14188000,0.14139974,0.105672054,0.32668763,0.6347826
14192000,0.13888516,0.10733469,0.3270403,0.6347826
14196000,0.13639829,0.108959556,0.3273993,0.6347826
14200000,0.13390565,0.11054675,0.32778144,0.6347826
14204000,0.13138768,0.112129495,0.32817855,0.6347826
14208000,0.12891015,0.11371634,0.32855278,0.6347826
14212000,0.12253006,0.10336096,0.33839893,0.64568406
14216000,0.12017772,0.10497009,0.33872247,0.64568406
14224000,0.11557591,0.108179204,0.33932024,0.64568406
14228000,0.1132741,0.10977516,0.3396237,0.64568406
14232000,0.11097952,0.11136678,0.33992535,0.64568406
14236000,0.105266854,0.10106782,0.3498339,0.65553135
14244000,0.10090105,0.10421918,0.35038474,0.65553135
14252000,0.09652778,0.107407585,0.35091686,0.65553135
14256000,0.094379455,0.10894568,0.35119337,0.65553135
14260000,0.089138865,0.09865238,0.36119837,0.6643938
14264000,0.08707704,0.10021539,0.3614367,0.6643938
14268000,0.084965505,0.10177401,0.361704,0.6643938
14272000,0.082872674,0.10335107,0.36195025,0.6643938
14276000,0.08083472,0.10491901,0.3621714,0.6643938
14284000,0.07367075,0.096192375,0.37246335,0.67236614
14292000,0.06846112,0.10180065,0.37597314,0.67236614
14300000,0.06458828,0.104882635,0.37639275,0.67236614
14304000,0.06264661,0.10638447,0.3766271,0.67236614
14308000,0.058064945,0.096158385,0.3868249,0.68027985
14312000,0.0561637,0.09772758,0.38701853,0.68027985
14316000,0.054303914,0.09930697,0.38718206,0.68027985
14324000,0.050644472,0.10233064,0.3875503,0.68027985
14328000,0.04883685,0.10383697,0.3877242,0.68027985
14332000,0.044342533,0.099155456,0.39321184,0.687377
14336000,0.04259578,0.10061769,0.39338553,0.687377
14340000,0.040866986,0.102112934,0.39352936,0.687377
14348000,0.037372626,0.10515019,0.3938098,0.687377
14352000,0.035647504,0.10666981,0.39393598,0.687377
14356000,0.027673818,0.11055274,0.39195442,0.6937357
14360000,0.025988422,0.11200555,0.39209113,0.6937357
14364000,0.024326771,0.11346981,0.39220697,0.6937357
14368000,0.02270908,0.11493392,0.39229673,0.6937357
14372000,0.02111119,0.116390675,0.39237884,0.6937357
14376000,0.019507468,0.11788054,0.39244443,0.6937357
14380000,0.01583054,0.121524945,0.39059997,0.699404
14388000,0.012661703,0.124361575,0.39078313,0.699404
14396000,0.008826874,0.1287221,0.39257228,0.699404
14400000,0.007326268,0.1301656,0.3926031,0.699404
14404000,0.003579229,0.13346395,0.3909696,0.70483655
14408000,0.002061017,0.13487962,0.39102334,0.70483655
14412000,0.000589564,0.13625409,0.39107352,0.70483655
14416000,-0.000882879,0.13762,0.3911289,0.70483655
14420000,-0.002383649,0.13898115,0.39120334,0.70483655
14424000,-0.003837869,0.14033821,0.39125255,0.70483655
14428000,-0.007013895,0.14342579,0.38971716,0.7096696
14432000,-0.008479439,0.14480509,0.38975644,0.7096696
14436000,-0.009938218,0.14621472,0.38977322,0.7096696
14440000,-0.011366442,0.14762114,0.38977355,0.7096696
14444000,-0.012766756,0.14899132,0.3897787,0.7096696
14448000,-0.014171958,0.15034157,0.3897981,0.7096696
14452000,-0.017580144,0.15328658,0.38836947,0.7139703
14460000,-0.020395644,0.15596792,0.38841638,0.7139703
14468000,-0.023203857,0.158567,0.38850713,0.7139703
14476000,-0.027638644,0.16265349,0.3871947,0.7177558
14480000,-0.028960645,0.16394183,0.38719523,0.7177558
14484000,-0.03030277,0.16525213,0.38719404,0.7177558
14488000,-0.03197936,0.1673506,0.38803896,0.7177558
14492000,-0.03337788,0.1687107,0.38804245,0.7177558
14500000,-0.042013243,0.1726478,0.38682908,0.7212869
14504000,-0.0433311,0.17394425,0.38682052,0.7212869
14508000,-0.04466027,0.17525542,0.38680944,0.7212869
14516000,-0.047313146,0.1778237,0.38681597,0.7212869
14524000,-0.047806747,0.1816021,0.38566786,0.72439414
14528000,-0.0490862,0.18283921,0.38566935,0.72439414
14532000,-0.05036889,0.18408798,0.3856654,0.72439414
14540000,-0.052879103,0.18658254,0.38562572,0.72439414
14544000,-0.05414202,0.18782207,0.3856148,0.72439414
14548000,-0.06149185,0.19016752,0.38452303,0.7271359
14552000,-0.062735945,0.19140857,0.38449797,0.7271359
14556000,-0.063999906,0.19264978,0.3844844,0.7271359
14560000,-0.06526872,0.19389445,0.38447142,0.7271359
14564000,-0.06651063,0.19514921,0.38443577,0.7271359
14572000,-0.07530275,0.1985698,0.38342908,0.7295339
14576000,-0.076470956,0.19973895,0.3834005,0.7295339
14580000,-0.07762149,0.20093906,0.38334185,0.7295339
14584000,-0.078767136,0.20209557,0.38330728,0.7295339
14588000,-0.08010787,0.20365682,0.38372225,0.7295339
14596000,-0.08064455,0.20693353,0.38275144,0.73169833
14600000,-0.081827484,0.20810744,0.38272727,0.73169833
14604000,-0.08297682,0.20929554,0.3826738,0.73169833
14608000,-0.08413285,0.21045828,0.38264006,0.73169833
14612000,-0.085258335,0.2116023,0.38259938,0.73169833
14620000,-0.09424113,0.21478042,0.38161469,0.73358417
14624000,-0.09536326,0.21583854,0.38162443,0.73358417
14628000,-0.09647592,0.2169063,0.3816223,0.73358417
14636000,-0.09859002,0.21916321,0.38147402,0.73358417
14640000,-0.09959611,0.22027937,0.38137645,0.73358417
14644000,-0.10319251,0.22223532,0.38046408,0.7351866
14652000,-0.10526128,0.2245022,0.38027835,0.7351866
14656000,-0.10630418,0.22558895,0.38021982,0.7351866
14660000,-0.10733759,0.22664675,0.38017374,0.7351866
14668000,-0.112410955,0.2295345,0.37926364,0.7365545
14672000,-0.11339063,0.23060724,0.37917423,0.7365545
14676000,-0.11436538,0.23168378,0.37907916,0.7365545
14684000,-0.116299786,0.23378941,0.3789095,0.7365545
14688000,-0.11724091,0.2348342,0.3787973,0.7365545
14692000,-0.124450125,0.23338953,0.3747279,0.73769015
14696000,-0.12522948,0.23401569,0.3742686,0.73769015
14700000,-0.12599884,0.234638,0.37381077,0.73769015
14704000,-0.12678216,0.23527412,0.37334165,0.73769015
14708000,-0.12758833,0.2359152,0.37286842,0.73769015
14712000,-0.12835668,0.23653245,0.37241134,0.73769015
14716000,-0.13179226,0.2364873,0.36988625,0.738623
14720000,-0.13252929,0.2370768,0.369447,0.738623
14724000,-0.13325657,0.23768775,0.3689893,0.738623
14728000,-0.13404149,0.23830374,0.36852887,0.738623
14732000,-0.13481359,0.23891667,0.36806926,0.738623
14736000,-0.13556325,0.2395038,0.36762846,0.738623
14740000,-0.13938825,0.23921175,0.36493886,0.7393765
14744000,-0.1400934,0.23977448,0.36451313,0.7393765
14752000,-0.14149149,0.24095473,0.36361438,0.7393765
14756000,-0.14218795,0.24152401,0.36318034,0.7393765
14760000,-0.14290005,0.24208724,0.36275083,0.7393765
14764000,-0.14655504,0.24183515,0.36014956,0.739958
14768000,-0.14722677,0.24236262,0.3597451,0.739958
14772000,-0.14789438,0.24292067,0.35931468,0.739958
14776000,-0.14856194,0.24348634,0.35887727,0.739958
14780000,-0.149232,0.24400589,0.35847664,0.739958
14784000,-0.14986973,0.24453083,0.35806978,0.739958
14788000,-0.15753773,0.24192049,0.35331595,0.7403846
14796000,-0.15874243,0.24294904,0.35251147,0.7403846
14804000,-0.15999731,0.24389511,0.3517735,0.7403846
14808000,-0.1606227,0.2443797,0.35139403,0.7403846
14812000,-0.16487345,0.24369599,0.3485845,0.74062985
14816000,-0.16546397,0.24415684,0.3482214,0.74062985
14820000,-0.16604581,0.2446388,0.3478399,0.74062985
14824000,-0.16658977,0.24514097,0.34743983,0.74062985
14828000,-0.1671084,0.24563804,0.34704244,0.74062985
14836000,-0.17158742,0.24555197,0.34387907,0.74074477
14840000,-0.17206153,0.24600017,0.34351856,0.74074477
14844000,-0.17253037,0.24643572,0.34316805,0.74074477
14852000,-0.17355925,0.247289,0.3424827,0.74074477
14856000,-0.17406031,0.2477428,0.3421161,0.74074477
14860000,-0.18230323,0.2449959,0.33743486,0.74073213
14864000,-0.1827998,0.24543762,0.33707634,0.74073213
14868000,-0.18329376,0.2458975,0.33670166,0.74073213
14872000,-0.18374968,0.24635224,0.33632994,0.74073213
14876000,-0.18418983,0.24678482,0.33597592,0.74073213
14884000,-0.18909058,0.24626438,0.3327748,0.7406347
14892000,-0.19051108,0.24873073,0.33357012,0.7406347
14896000,-0.1909042,0.24914569,0.333227,0.7406347
14900000,-0.1913179,0.24956113,0.3328835,0.7406347
14908000,-0.19595304,0.24905139,0.3298548,0.740817
14912000,-0.1963332,0.24945572,0.32951802,0.740817
14916000,-0.19668007,0.24986656,0.32917464,0.740817
14920000,-0.19704783,0.25029126,0.32881945,0.740817
14924000,-0.19743508,0.25070715,0.32847172,0.740817
14928000,-0.197802,0.2511371,0.32811108,0.740817
14932000,-0.20647424,0.2480316,0.3234028,0.7408993
14936000,-0.20678897,0.24838023,0.32310936,0.7408993
14940000,-0.20709749,0.24871942,0.32282346,0.7408993
14944000,-0.20742686,0.24905485,0.3225411,0.7408993
14948000,-0.20776293,0.24941063,0.32224092,0.7408993
14952000,-0.20805165,0.24978605,0.32192257,0.7408993
14956000,-0.21686074,0.24660994,0.31718755,0.7408873
14960000,-0.21711753,0.24699733,0.3168567,0.7408873
14968000,-0.21766812,0.24770351,0.31625426,0.7408873
14972000,-0.21793732,0.24803811,0.3159685,0.7408873
14976000,-0.21820024,0.24839297,0.3156648,0.7408873
14980000,-0.2230405,0.24709637,0.31275493,0.74080634
14988000,-0.22329688,0.24725977,0.31179366,0.74080634
14992000,-0.2234872,0.2476076,0.31149307,0.74080634
14996000,-0.22366107,0.2479529,0.31119433,0.74080634
15004000,-0.22834916,0.24712281,0.30810612,0.74053377
15012000,-0.22860977,0.24774887,0.30756128,0.74053377
15016000,-0.22874765,0.24805668,0.30729333,0.74053377
15020000,-0.2288742,0.24840128,0.30699256,0.74053377
15024000,-0.22897404,0.24874997,0.30668774,0.74053377
15028000,-0.23817408,0.24544019,0.30183893,0.7401917
15032000,-0.23829629,0.24578077,0.30154043,0.7401917
15036000,-0.23842892,0.24612035,0.30124265,0.7401917
15044000,-0.23866968,0.24684139,0.30060926,0.7401917
15052000,-0.24814767,0.24376652,0.29544154,0.73983
15060000,-0.2482768,0.24435534,0.2949208,0.73983
15064000,-0.24837448,0.24463388,0.2946747,0.73983
15068000,-0.24843326,0.24497128,0.29437578,0.73983
15072000,-0.24841997,0.24534616,0.29404265,0.73983
15076000,-0.25349325,0.24391495,0.29100424,0.7394218
15080000,-0.25348532,0.24417536,0.2907723,0.7394218
15084000,-0.25348678,0.24445538,0.29052287,0.7394218
15088000,-0.25340313,0.24453548,0.29007182,0.7394218
15092000,-0.2533753,0.24481228,0.2898249,0.7394218
15100000,-0.2581559,0.24379037,0.28669167,0.7388835
15108000,-0.2581004,0.24434642,0.2861944,0.7388835
15112000,-0.25803077,0.24463776,0.2859334,0.7388835
15116000,-0.25796494,0.24492031,0.28568035,0.7388835
15120000,-0.25790054,0.2451986,0.28543094,0.7388835
15124000,-0.26776233,0.24167809,0.28043962,0.7383306
15128000,-0.26767224,0.24196891,0.280178,0.7383306
15132000,-0.26758927,0.24227008,0.2799073,0.7383306
15136000,-0.26750797,0.2425709,0.27963677,0.7383306
15140000,-0.26741123,0.24285445,0.27938172,0.7383306
15144000,-0.2672584,0.24317302,0.27909482,0.7383306
15148000,-0.27732363,0.23958768,0.2740367,0.73775256
15152000,-0.27719545,0.23987186,0.27378005,0.73775256
15156000,-0.27709383,0.24019444,0.27348897,0.73775256
15160000,-0.27698353,0.24048364,0.27322796,0.73775256
15164000,-0.2768218,0.24071659,0.27301744,0.73775256
15168000,-0.27664068,0.24098256,0.27277702,0.73775256
15172000,-0.28691825,0.23734605,0.26771405,0.7371501
15176000,-0.286754,0.23759304,0.2674903,0.7371501
15180000,-0.28659365,0.23782906,0.26727644,0.7371501
15188000,-0.28622866,0.23834084,0.2668129,0.7371501
15192000,-0.2862473,0.23912501,0.26708126,0.7371501
15196000,-0.28652984,0.2397686,0.26603383,0.73665816
15200000,-0.2863126,0.24002312,0.26580352,0.73665816
15204000,-0.2860888,0.24025339,0.26559532,0.73665816
15208000,-0.28586534,0.24046955,0.26539993,0.73665816
15212000,-0.28565204,0.2407244,0.26516965,0.73665816
15216000,-0.28540862,0.24098153,0.26493734,0.73665816
15220000,-0.2959673,0.23721215,0.2598338,0.73613155
15224000,-0.29570356,0.23744917,0.2596193,0.73613155
15228000,-0.295462,0.23767921,0.25941113,0.73613155
15232000,-0.29519936,0.23790123,0.25921035,0.73613155
15236000,-0.2949161,0.23812601,0.2590073,0.73613155
15240000,-0.29462722,0.23836647,0.25879,0.73613155
15244000,-0.30544695,0.23457393,0.2536275,0.7355517
15248000,-0.30514625,0.23482254,0.25340244,0.7355517
15252000,-0.3048279,0.23506506,0.25318316,0.7355517
15256000,-0.30452794,0.2353128,0.2529592,0.7355517
15260000,-0.30423865,0.23553194,0.25276127,0.7355517
15264000,-0.3039305,0.2357286,0.25258398,0.7355517
15268000,-0.31512007,0.23184009,0.24736944,0.7349751
15272000,-0.3148252,0.23204991,0.2471798,0.7349751
15276000,-0.3145151,0.2322446,0.24700403,0.7349751
15280000,-0.31418702,0.2324582,0.24681127,0.7349751
15284000,-0.31379116,0.23268643,0.24660574,0.7349751
15288000,-0.3133159,0.23273134,0.24627042,0.7349751
15292000,-0.32476914,0.22876397,0.24100447,0.7343411
15296000,-0.32441813,0.22892983,0.24085537,0.7343411
15300000,-0.32402694,0.2290916,0.24071041,0.7343411
15304000,-0.3236248,0.22927985,0.24054155,0.7343411
15308000,-0.32322273,0.22948235,0.24035981,0.7343411
15312000,-0.32280523,0.22968116,0.24018185,0.7343411
15316000,-0.3346043,0.22568211,0.23481184,0.7336679
15320000,-0.3341666,0.22590666,0.23461024,0.7336679
15324000,-0.3336945,0.22610742,0.23443085,0.7336679
15328000,-0.33325505,0.22631496,0.23424523,0.7336679
15336000,-0.33234978,0.22671832,0.2338855,0.7336679
15340000,-0.33831218,0.2250007,0.2307096,0.73296124
15344000,-0.3378193,0.22519517,0.23053715,0.73296124
15348000,-0.33733442,0.22536455,0.23038772,0.73296124
15352000,-0.3368201,0.22550853,0.23026195,0.73296124
15356000,-0.33630976,0.22564387,0.23014422,0.73296124
15360000,-0.3358219,0.22578834,0.23001808,0.73296124
15364000,-0.34232613,0.22387984,0.22664858,0.732238
15368000,-0.34180683,0.22403735,0.22651134,0.732238
15372000,-0.34128818,0.22419077,0.22637792,0.732238
15380000,-0.34017584,0.22452305,0.22608966,0.732238
15384000,-0.33962476,0.2246832,0.22595124,0.732238
15388000,-0.35191745,0.22050492,0.22049274,0.7314993
15392000,-0.35132337,0.22059642,0.22041748,0.7314993
15396000,-0.35071513,0.22069654,0.22033472,0.7314993
15400000,-0.3501421,0.22082719,0.22022392,0.7314993
15404000,-0.34959602,0.22096562,0.22010581,0.7314993
15408000,-0.3490554,0.22108275,0.2200072,0.7314993
15412000,-0.36171192,0.2169152,0.21451294,0.73073894
15416000,-0.36109146,0.21706799,0.21438318,0.73073894
15420000,-0.36043972,0.21721756,0.214257,0.73073894
15428000,-0.35918713,0.2174004,0.21411048,0.73073894
15432000,-0.35857037,0.21750687,0.21402366,0.73073894
15436000,-0.37160856,0.2132394,0.20849082,0.72993684
15440000,-0.37096548,0.21334021,0.20840976,0.72993684
15444000,-0.3702794,0.2134524,0.20831917,0.72993684
15448000,-0.36956787,0.2135421,0.2082497,0.72993684
15452000,-0.36886668,0.2136225,0.20818882,0.72993684
15456000,-0.36817122,0.21374059,0.20809376,0.72993684
15460000,-0.38144544,0.20951003,0.2024828,0.7290994
15468000,-0.38000128,0.20967947,0.20235497,0.7290994
15472000,-0.37923917,0.20979543,0.20226373,0.7290994
15476000,-0.37847948,0.20990069,0.20218249,0.7290994
15484000,-0.39129615,0.20558032,0.19661337,0.7282378
15488000,-0.39056367,0.2056344,0.19657837,0.7282378
15492000,-0.39003417,0.20645173,0.19731203,0.7282378
15496000,-0.3892406,0.20647302,0.19730836,0.7282378
15500000,-0.3884673,0.20646703,0.19732907,0.7282378
15504000,-0.38767704,0.20648308,0.1973303,0.7282378
15508000,-0.3945792,0.2044469,0.1940477,0.727606
15512000,-0.39373553,0.20451763,0.19400121,0.727606
15516000,-0.39291048,0.2045761,0.19396561,0.727606
15520000,-0.39208487,0.20461276,0.19394997,0.727606
15524000,-0.391258,0.20463844,0.19394429,0.727606
15528000,-0.3904245,0.20464791,0.19395351,0.727606
15532000,-0.40447566,0.20021264,0.18828575,0.72695684
15536000,-0.40361905,0.20025626,0.18826501,0.72695684
15540000,-0.40272173,0.20028384,0.18825983,0.72695684
15548000,-0.40099132,0.20035249,0.18823628,0.72695684
15552000,-0.4000655,0.20033409,0.18827334,0.72695684
15560000,-0.4134168,0.19583304,0.1826452,0.72628695
15564000,-0.4124403,0.19583714,0.1826636,0.72628695
15572000,-0.41051728,0.19581324,0.18272886,0.72628695
15576000,-0.40952596,0.19578817,0.182774,0.72628695
15580000,-0.4240815,0.19128332,0.1770756,0.72557235
15588000,-0.42213154,0.19121929,0.17717816,0.72557235
15592000,-0.42101178,0.19063291,0.17676477,0.72557235
15596000,-0.42004275,0.19057994,0.17683457,0.72557235
15600000,-0.4190353,0.19057381,0.17686366,0.72557235
15604000,-0.43384778,0.18614145,0.17111996,0.72467065
15608000,-0.4328422,0.18613993,0.17114526,0.72467065
15612000,-0.43179643,0.18614303,0.17116764,0.72467065
15616000,-0.4307538,0.18613337,0.17120136,0.72467065
15620000,-0.42969644,0.18610215,0.17125456,0.72467065
15628000,-0.44368348,0.18159512,0.16553429,0.72374564
15632000,-0.44260076,0.18153204,0.16561674,0.72374564
15636000,-0.4415074,0.18150261,0.16566972,0.72374564
15644000,-0.43929356,0.18150386,0.1657238,0.72374564
15648000,-0.43814448,0.1814762,0.16577695,0.72374564
15652000,-0.45350134,0.17699814,0.15996185,0.7227915
15656000,-0.45234442,0.17696112,0.16002385,0.7227915
15660000,-0.4512102,0.17692351,0.16008587,0.7227915
15664000,-0.45005482,0.17690489,0.16013178,0.7227915
15668000,-0.448842,0.17687714,0.16018738,0.7227915
15672000,-0.4476336,0.17685735,0.16023593,0.7227915
15676000,-0.46322322,0.17243278,0.15436147,0.7218045
15680000,-0.46201897,0.17239684,0.15442456,0.7218045
15684000,-0.4608028,0.1723764,0.1544745,0.7218045
15692000,-0.45832264,0.17239407,0.15459467,0.7218045
15696000,-0.45703372,0.17233352,0.1546817,0.7218045
15700000,-0.4726888,0.16791518,0.148858,0.72081983
15708000,-0.47014317,0.16775449,0.14906633,0.72081983
15712000,-0.46882838,0.16768661,0.14916074,0.72081983
15716000,-0.4675102,0.16759272,0.14927767,0.72081983
15720000,-0.46618927,0.16750422,0.14938991,0.72081983
15724000,-0.48211253,0.16310106,0.1435239,0.71977764
15728000,-0.4807674,0.16307603,0.14358264,0.71977764
15732000,-0.47942677,0.1630792,0.14361726,0.71977764
15736000,-0.47806594,0.1630511,0.14367935,0.71977764
15740000,-0.4767168,0.16297542,0.14378195,0.71977764
15744000,-0.47535795,0.16291003,0.14387591,0.71977764
15752000,-0.490147,0.15845081,0.13806793,0.71873343
15756000,-0.48873827,0.15836656,0.13817988,0.71873343
15764000,-0.48595145,0.15822273,0.1383817,0.71873343
15768000,-0.48453614,0.1581278,0.13850264,0.71873343
15772000,-0.50089145,0.15378408,0.13257402,0.7176666
15776000,-0.49944136,0.15373233,0.13265994,0.7176666
15780000,-0.49799445,0.153668,0.13275643,0.7176666
15784000,-0.49653816,0.15359968,0.13285652,0.7176666
15788000,-0.49503824,0.1536115,0.13302623,0.7176666
15796000,-0.5177368,0.14713287,0.124863334,0.7166149
15800000,-0.51620394,0.14707384,0.12495825,0.7166149
15804000,-0.5146733,0.14699802,0.12506706,0.7166149
15808000,-0.51312023,0.14691222,0.12518488,0.7166149
15812000,-0.5115341,0.14680931,0.12531772,0.7166149
15820000,-0.52659345,0.14242029,0.119569555,0.7155206
15828000,-0.5233426,0.14223582,0.119820476,0.7155206
15832000,-0.5217302,0.14212017,0.11996466,0.7155206
15836000,-0.52009755,0.14201005,0.120104685,0.7155206
15840000,-0.5184286,0.14191025,0.1202371,0.7155206
15844000,-0.53513396,0.13772297,0.11432701,0.7144046
15852000,-0.53175235,0.13755779,0.11456599,0.7144046
15856000,-0.5300595,0.13745138,0.114704855,0.7144046
15860000,-0.5283311,0.13733181,0.11485532,0.7144046
15864000,-0.52659684,0.13725457,0.11497131,0.7144046
15868000,-0.5434003,0.133137,0.109042756,0.71326584
15872000,-0.54164815,0.13306107,0.10915895,0.71326584
15876000,-0.5399089,0.13298963,0.10927101,0.71326584
15880000,-0.53812563,0.13291666,0.1093856,0.71326584
15884000,-0.5363412,0.13284194,0.10950155,0.71326584
15888000,-0.53447276,0.13255256,0.10938601,0.71326584
15892000,-0.55129766,0.12853852,0.10344606,0.71201867
15896000,-0.549466,0.12844999,0.10357532,0.71201867
15900000,-0.5476498,0.12832737,0.1037312,0.71201867
15904000,-0.54587984,0.12820575,0.10388452,0.71201867
15908000,-0.5440758,0.12808894,0.104034826,0.71201867
15912000,-0.542207,0.12796517,0.10419242,0.71201867
15916000,-0.55905324,0.12397969,0.09831024,0.7107601
15920000,-0.55716556,0.12385753,0.09846777,0.7107601
15924000,-0.5552578,0.12373264,0.09862778,0.7107601
15928000,-0.5533599,0.123629555,0.09876997,0.7107601
15932000,-0.55150956,0.123529896,0.09890771,0.7107601
15936000,-0.54958797,0.12342861,0.09904881,0.7107601
15940000,-0.5663793,0.11956822,0.093158,0.7095017
15944000,-0.56441784,0.11947091,0.093298085,0.7095017
15952000,-0.5605067,0.11925833,0.09359115,0.7095017
15956000,-0.5585241,0.119174585,0.09372072,0.7095017
15964000,-0.5821135,0.11325806,0.08544815,0.708205
15968000,-0.5800911,0.113117024,0.08562379,0.708205
15972000,-0.5780761,0.11299819,0.0857817,0.708205
15976000,-0.5760776,0.11287799,0.08593976,0.708205
15980000,-0.5740433,0.112713985,0.08613216,0.708205
15984000,-0.5719902,0.11257661,0.086304344,0.708205
15988000,-0.5889021,0.109093145,0.08073604,0.7069021
15992000,-0.586859,0.108971484,0.080896616,0.7069021
15996000,-0.5847985,0.10885237,0.081055455,0.7069021
16000000,-0.5826921,0.10873932,0.081210904,0.7069021
16004000,-0.5805867,0.108640656,0.08135515,0.7069021
16012000,-0.59522593,0.104852006,0.07572935,0.7057896
16016000,-0.5930719,0.10474775,0.07587983,0.7057896
16020000,-0.59091,0.10465753,0.0760198,0.7057896
16024000,-0.5887775,0.10457815,0.07615051,0.7057896
16028000,-0.5866057,0.104489714,0.076289006,0.7057896
16036000,-0.60104406,0.10090448,0.0706002,0.70465803
16040000,-0.5988495,0.100792125,0.0707579,0.70465803
16044000,-0.5966778,0.10062115,0.07095756,0.70465803
16048000,-0.5944587,0.10047094,0.07114298,0.70465803
16052000,-0.59223145,0.1003243,0.071325526,0.70465803
16056000,-0.59000474,0.10017813,0.071507186,0.70465803
16060000,-0.6156826,0.094755426,0.06317965,0.7035213
16064000,-0.61340165,0.094637655,0.063343056,0.7035213
16068000,-0.6110973,0.09450965,0.06351422,0.7035213
16072000,-0.6087789,0.094390504,0.063679025,0.7035213
16076000,-0.6064565,0.09429322,0.0638278,0.7035213
16080000,-0.6041354,0.09420431,0.06397024,0.7035213
16084000,-0.62050945,0.090888575,0.058269598,0.7023914
16088000,-0.6180949,0.090649426,0.058190513,0.7023914
16092000,-0.61576676,0.09055345,0.058338903,0.7023914
16096000,-0.61344755,0.09044408,0.058496147,0.7023914
16100000,-0.61110383,0.090343416,0.058647677,0.7023914
16108000,-0.62507856,0.08697106,0.053128146,0.7011041
16112000,-0.6226741,0.08685417,0.053293616,0.7011041
16116000,-0.6202495,0.086738996,0.05345811,0.7011041
16120000,-0.6178024,0.086583495,0.053651005,0.7011041
16124000,-0.6153273,0.08642108,0.053848963,0.7011041
16128000,-0.61288655,0.086301155,0.05401574,0.7011041
16132000,-0.62905926,0.08319804,0.048362605,0.69980085
16136000,-0.62658226,0.08300787,0.04857979,0.69980085
16140000,-0.62412596,0.08279986,0.04880762,0.69980085
16148000,-0.61918014,0.08258189,0.049126945,0.69980085
16152000,-0.61666775,0.082475826,0.049285345,0.69980085
16156000,-0.64196503,0.07759616,0.041068234,0.69851345
16160000,-0.6394677,0.07748021,0.04123355,0.69851345
16164000,-0.63695186,0.07737115,0.041394345,0.69851345
16172000,-0.63191205,0.07710445,0.04174725,0.69851345
16180000,-0.6551239,0.0720932,0.03358666,0.6972459
16184000,-0.6525479,0.07195762,0.033766218,0.6972459
16188000,-0.64991426,0.0717348,0.033780128,0.6972459
16192000,-0.6472858,0.07161543,0.03394959,0.6972459
16196000,-0.6446265,0.07149723,0.03411877,0.6972459
16200000,-0.64199275,0.07139908,0.034273434,0.6972459
16204000,-0.65723306,0.068712,0.02885559,0.6957998
16212000,-0.6518985,0.06846264,0.029203137,0.6957998
16220000,-0.646506,0.06815815,0.029585494,0.6957998
16224000,-0.6437774,0.06802055,0.029767275,0.6957998
16228000,-0.6682626,0.06367969,0.021726066,0.6943738
16232000,-0.66555023,0.06354508,0.021906165,0.6943738
16236000,-0.66277915,0.06340412,0.022091614,0.6943738
16240000,-0.6600104,0.06330411,0.022250397,0.6943738
16244000,-0.657259,0.06320445,0.02240783,0.6943738
16252000,-0.6691387,0.060619496,0.017288303,0.6929451
16260000,-0.6635865,0.06040252,0.017616082,0.6929451
16264000,-0.66080815,0.06027703,0.017789597,0.6929451
16268000,-0.6580048,0.060151696,0.017963175,0.6929451
