timestamp,control[0],control[1],control[2],control[3],control[4],output[2],output[3],output[4],output[5],output[6],output[7],indicated_airspeed_m_s,true_airspeed_m_s,air_temperature_celsius,indicated_airspeed_m_s.1,equivalent_airspeed_m_s,true_airspeed_m_s.1,equivalent_ground_minus_wind_m_s,true_ground_minus_wind_m_s,differential_pressure_raw_pa,differential_pressure_filtered_pa,temperature,gyro_bias[0],gyro_bias[1],gyro_bias[2],accel_bias[0],accel_bias[1],accel_bias[2],instance_count,seq_reached,seq_current,seq_total,item_changed_index,item_do_jump_remaining,valid,warning,finished,failure,stay_in_failsafe,flight_termination,item_do_jump_changed,execution_mode,nav_roll,nav_pitch,nav_bearing,target_bearing,xtrack_error,wp_dist,acceptance_radius,rollspeed_integ,pitchspeed_integ,yawspeed_integ,additional_integ1,x,y,z,temperature.1,pressure,temperature.2,gyro_rad[0],gyro_rad[1],gyro_rad[2],accelerometer_m_s2[0],accelerometer_m_s2[1],accelerometer_m_s2[2],x.1,y.1,z.1,temperature.3,altitude_sp,altitude_filtered,height_rate_setpoint,height_rate,airspeed_sp,airspeed_filtered,airspeed_derivative_sp,airspeed_derivative,throttle_integ,pitch_integ,baro_alt_meter,baro_temp_celcius,baro_pressure_pa,rho,xyz[0],xyz[1],xyz[2],xyz[0].1,xyz[1].1,xyz[2].1,roll_body,pitch_body,yaw_body,q_d[0],q_d[1],q_d[2],q_d[3],thrust_body[0],lat,lon,alt,vel_m_s,vel_n_m_s,vel_e_m_s,vel_d_m_s,cog_rad,ground_contact,maybe_landed,landed,ref_timestamp,ref_lat,ref_lon,x.2,y.2,z.2,vx,vy,vz,ax,ay,az,dist_bottom,roll,pitch,yaw,thrust_body[0].1,timestamp.1,isTakeoff,isClimbing,isDescending,isCruise,isLand
9000000,0.0,0.0,0.0,0.499,0.5,900.0,900.0,900.0,900.0,900.0,900.0,1.9468714,1.9849108,12.404602,1.2420452,1.2420452,1.2663174,0.055327657999999995,0.05640888,0.57151264,0.57151264,12.404602,-0.0007071930000000001,-0.005146375,-0.000529372,0.030616779,0.002432482,-0.111323915,2.0,-1.0,0.0,11,0,0,1,0,0.0,0,0,0,0,0,0.0,0.0,1.5752882,1.5750723,-0.006953625,296.17035,31.615036,4.33e-06,1.4400000000000001e-05,-1.01e-06,0.0,-0.118745424,0.26680568,-10.021980000000001,-1.3900000000000002e-25,966.1468,12.404602,-0.003731395,-0.002747726,2.46e-06,-0.2039415,0.20994374,-9.94355,-0.004415787,-0.009544579000000001,-0.004312929,-1.3900000000000002e-25,0.009191727,-0.0028082740000000004,0.40060008,-0.27258617,10.195412,6.662840400000001,0.07065143,17.085504999999998,0.23094437,-19.22034,399.60184,12.404602,96616.44,1.1479629999999998,0.3798737,0.5819464,0.21160913,-0.004281654,0.000891695,0.0009773339999999998,0.007962049,0.0,2.4050531000000004,0.35999888,0.0014331720000000001,0.003714093,0.93294424,0.15,398714138.0,327364368.0,400117.0,0.0,0.01,0.0,0.03,0.60999256,0,0,1.0,787999,39.8714138,32.7364368,0.004669844,-0.005415201999999999,-0.046151035,0.017144926,0.017327141,-0.04982907,-0.031016342000000002,-0.028253619,-0.034870576,0.10292487,0.040135752000000004,0.049674913,-0.006798121,0.15,9000000,1,0,0,0,0
9043074,0.0,0.0,0.0,0.499,0.5,900.0,900.0,900.0,900.0,900.0,900.0,0.104705605,0.106753007,12.404602,1.2104549470000001,1.2104549470000001,1.234109738,0.054729060999999996,0.055798578,0.514364089,0.514364089,12.404602,-0.0007102780000000001,-0.005154233,-0.000513077,0.03048384,0.002498143,-0.11165185,2.0,-1.0,0.0,11,0,0,1,0,0.0,0,0,0,0,0,0.0,-0.010443199,1.574771062,1.574968839,0.02288061,295.56455189999997,33.68019621,4.45e-06,1.36e-05,-7.09e-07,0.0,-0.16212163,0.24977880600000002,-10.00527328,-1.3900000000000002e-25,966.150738,12.404602,-0.005943474,-0.004947218,0.001588464,-0.253566466,0.205540098,-9.878725006,-0.0037798000000000003,-0.00948603,-0.006275369,-1.3900000000000002e-25,-0.004639497,-0.016639498,0.40060008,-0.29042686,10.77726021,7.988680427,0.055771594,17.51696908,0.207936147,-18.82866098,399.59040150000004,12.404602,96616.59942,1.1479650190000001,-0.25549635800000003,-0.125972335,-0.35919136,0.000554609,0.006198239,0.004094466,0.007919419,0.0,2.4050531000000004,0.359998924,0.001425499,0.003694208,0.932944337,0.15,398714138.0,327364368.0,400117.7586,0.0,0.008103621,0.0,0.026207241000000003,0.8331065959999999,0,0,1.0,787999,39.8714138,32.7364368,0.004603305,-0.0055504,-0.045876517,0.016111673,0.01806958,-0.048626437,0.00505335,-0.013143515,-0.014029255,0.10179505900000001,0.040117786,0.049821328,-0.006745905,0.15,9043074,1,0,0,0,0
9078148,0.0,0.0,0.0,0.499,0.5,900.0,900.0,900.0,900.0,900.0,900.0,0.476517166,0.485827203,12.404602,1.178864694,1.178864694,1.201902075,0.054130463,0.055188275999999994,0.457215539,0.457215539,12.404602,-0.0007133619999999999,-0.005162092,-0.000496782,0.030350901,0.002563803,-0.111979784,2.0,-1.0,0.0,11,0,0,1,0,0.0,0,0,0,0,0,0.0,-0.020886399,1.574253924,1.5748653769999998,0.052714845999999996,294.9587537,35.74535642,5.07e-06,1.3300000000000001e-05,-3.38e-06,0.0,-0.20549783600000002,0.232751932,-9.988566561,-1.3900000000000002e-25,966.154676,12.404602,-0.004712757,-0.008508068,-0.0014584939999999998,-0.14694802,0.25516795,-9.967581432000001,-0.003143812,-0.00942748,-0.008237809,-1.3900000000000002e-25,-0.018470722,-0.030470722000000002,0.40060008,-0.308267549,11.35910841,9.314520453,0.040891759,17.94843315,0.184927925,-18.43698195,399.7222137,12.404602,96615.07702000001,1.147946929,-0.013766542,-0.323613955,-0.330830165,-0.002215575,0.004203054,-8.149999999999999e-05,0.007871128,0.0,2.394013502,0.365123219,0.0014370070000000001,0.003663595,0.930893072,0.15,398714138.0,327364368.0,400118.5171,0.0,0.006207241,0.0,0.022414483,1.056220632,0,0,1.0,787999,39.8714138,32.7364368,0.004536765,-0.005685598,-0.045602,0.015078421000000002,0.018812019,-0.04742380400000001,0.041123043,0.001966588,0.0068120659999999994,0.10066524800000001,0.040113824,0.049597351,-0.0067047240000000004,0.15,9078148,1,0,0,0,0
9113223,0.024060222000000003,0.035111367000000004,-0.000745013,0.04584917,0.436943452,900.0,900.0,900.0,900.0,900.0,900.0,-0.6857297059999999,-0.699128533,12.404602,1.147274441,1.147274441,1.169694413,0.053531866,0.054577975,0.40006698799999996,0.40006698799999996,12.404602,-0.0007164469999999999,-0.00516995,-0.000480487,0.030217962,0.002629464,-0.112307719,2.0,-1.0,0.0,11,0,0,1,0,0.0,0,0,0,0,0,0.0,-0.031329598,1.573736786,1.574761916,0.082549081,294.35295560000003,37.81051663,4.56e-06,1.3800000000000002e-05,-2.82e-06,0.0,-0.21148907600000003,0.21502749399999999,-9.968944028,1.962800597,966.1565728,12.404602,0.002383254,-0.001024383,-0.006856767,-0.11935660099999999,0.19222508800000002,-9.866145246,-0.002020432,-0.008079427,-0.008400134,1.962800597,-0.032301946,-0.044301945999999995,0.40060008,-0.32610823899999997,11.94095662,10.64036048,0.026011923,18.37989723,0.161919702,-18.04530293,399.56266539999996,12.404602,96616.91067000001,1.147968741,0.05921569999999999,-0.023188451000000002,-0.366316655,0.0037954959999999998,0.006357318000000001,-0.005605875,0.007886083,0.0,2.3550196,0.38322312,0.001511073,0.0036419990000000004,0.9236474,0.15,398714138.0,327364368.0,400119.2757,0.0,0.004310862,0.0,0.018621724,1.279334667,0,0,1.0,787999,39.8714138,32.7364368,0.004434249,-0.005744638000000001,-0.045488821,0.014055176,0.01900644,-0.046600145,0.074844617,0.008860141,0.020639146,0.1,0.040078494,0.049589826,-0.0067240730000000005,0.15,9113223,1,0,0,0,0
9148297,0.032806807,0.034837571,-0.004937934000000001,0.15,0.349257992,900.0,900.0,900.0,900.0,900.0,900.0,-0.387403537,-0.39497196,12.404602,1.115684187,1.115684187,1.13748675,0.052933268,0.053967673,0.342918438,0.342918438,12.404602,-0.000719531,-0.005177809,-0.000464192,0.030085023,0.002695124,-0.112635653,2.0,-1.0,0.0,11,0,0,1,0,0.0,0,0,0,0,0,0.0,-0.041772798,1.573219648,1.574658455,0.112383317,293.7471575,39.87567684,4.89e-06,1.3800000000000002e-05,-1.95e-06,0.0,-0.163647854,0.196298599,-9.945122871,6.751934795,966.1555304,12.404602,-0.0006447240000000001,-0.008347008000000001,0.002300695,-0.144125416,0.225703085,-9.960974745,-0.00019523099999999997,-0.0048745540000000006,-0.005970383,6.751934795,-0.04613317,-0.058133171,0.40060008,-0.343948928,12.52280482,11.96620051,0.011132086999999999,18.81136131,0.138911479,-17.65362391,399.58174710000003,12.404602,96616.70035,1.147966209,0.587640174,-0.124591404,-0.161265546,0.002885219,0.0033257829999999997,-0.002908548,0.007920339,0.0,2.3550196,0.383223109,0.0015176360000000002,0.003657819,0.923647318,0.15,398714138.0,327364368.0,400120.0342,0.0,0.002414483,0.0,0.014828966,1.5024487030000002,0,0,1.0,787999,39.8714138,32.7364368,0.004280214,-0.005694619000000001,-0.045606676,0.013046263,0.018416102,-0.046319172,0.105203708,0.003987677,0.024421903999999998,0.1,0.03994957,0.049447419000000006,-0.006744184,0.15,9148297,1,0,0,0,0
9183371,0.03305348,0.034888229,-0.005367416999999999,0.15,0.261572543,900.0,900.0,900.0,900.0,900.0,900.0,1.306360595,1.331890201,12.404602,1.084093934,1.084093934,1.105279088,0.052334671,0.053357370999999994,0.285769887,0.285769887,12.404602,-0.000722616,-0.005185667,-0.000447897,0.029952084,0.002760785,-0.112963588,2.0,-1.0,0.0,11,0,0,1,0,0.0,0,0,0,0,0,0.0,-0.052215997,1.572702509,1.574554993,0.142217552,293.14135939999994,41.94083705,4.52e-06,1.39e-05,-5.21e-06,0.0,-0.115806633,0.177569704,-9.921301714,11.54106899,966.1544880000001,12.404602,-0.005215093,-0.004390296,-0.0022579370000000002,-0.175425236,0.182823971,-9.907804715,0.001629969,-0.0016696810000000001,-0.003540632,11.54106899,-0.059964395,-0.071964395,0.40060008,-0.361789618,13.10465303,13.29204053,-0.003747748,19.24282539,0.115903256,-17.26194488,399.61945130000004,12.404602,96616.26064,1.147961035,-0.19743776,0.286648246,0.26996641,-0.00406897,0.005845787,-0.000156312,0.007802169,0.0,2.292442,0.411930685,0.0016069839999999999,0.0035547129999999997,0.91120681,0.15,398714138.0,327364368.0,400120.7928,0.0,0.000518104,0.0,0.011036207,1.7255627390000001,0,0,1.0,787999,39.8714138,32.7364368,0.004126179000000001,-0.005644601,-0.045724532000000005,0.01203735,0.017825765,-0.046038199,0.13556279999999998,-0.0008847880000000001,0.028204662000000002,0.1,0.039585561,0.049524078,-0.006582111999999999,0.15,9183371,1,0,0,0,0
9222445,0.031518683,0.035716129,-0.005476563,0.15,0.163886971,900.0,900.0,900.0,900.0,900.0,900.0,1.406161819,1.433625137,12.404602,1.052503681,1.052503681,1.073071426,0.05173607400000001,0.052747069,0.22862133699999998,0.22862133699999998,12.404602,-0.0007257,-0.005193525,-0.00043160199999999995,0.029819145,0.002826446,-0.11329152199999999,2.0,-1.0,0.0,11,0,0,1,0,0.0,0,0,0,0,0,0.0,-0.062659197,1.572185371,1.5744515319999999,0.172051788,292.53556119999996,44.00599726,4.38e-06,1.29e-05,-1.94e-06,0.0,-0.106946126,0.16984022399999998,-9.922340014,8.479000807,966.1550152000001,12.404602,0.004371985,-0.004625347,0.0009099010000000001,-0.17113662899999998,0.206806527,-9.994434647,-0.002000346,-0.002516575,0.001572732,8.479000807,-0.070762594,-0.08276259400000001,0.40060008,-0.357087438,13.25394635,14.41105872,-0.023142244,19.16450993,0.10999999,-17.07477724,399.58826789999995,12.404602,96616.62942000001,1.14796543,-0.16809794,0.347400086,0.028582836,-0.0007652000000000001,0.006212365,-0.000537681,0.007731328000000001,0.0,2.292442,0.41193072399999997,0.001592394,0.0035224379999999997,0.9112069340000001,0.15,398714138.0,327364368.0,400121.5513,0.0,0.0,0.0,0.004486897,1.92344261,0,0,1.0,787999,39.8714138,32.7364368,0.003925586,-0.005662314,-0.045954102000000004,0.012046448999999999,0.017518043,-0.04532743,0.10698408599999999,-0.001118345,0.006243684,0.1,0.039538038,0.049545322999999995,-0.006599076,0.15,9222445,1,0,0,0,0
9257520,0.033923823,0.034456308,-0.005555116999999999,0.15,0.076201427,900.0,900.0,900.0,900.0,900.0,900.0,0.7466353440000001,0.7612267079999999,12.404602,1.020913428,1.020913428,1.040863763,0.051137475999999994,0.052136768,0.17147278600000002,0.17147278600000002,12.404602,-0.000728785,-0.005201384,-0.00041530699999999996,0.029686206,0.0028921059999999998,-0.113619457,2.0,-1.0,0.0,11,0,0,1,0,0.0,0,0,0,0,0,0.0,-0.073102396,1.571668233,1.574348071,0.201886023,291.9297631,46.07115747,4.62e-06,1.4000000000000001e-05,-3.44e-06,0.0,-0.10666039,0.164530338,-9.928846766,3.689866608,966.1558877,12.404602,0.0018298729999999999,-0.0053956590000000006,-0.0006160919999999999,-0.21124793600000003,0.15146294,-9.867382484,-0.006830737,-0.004254756,0.007276424,3.689866608,-0.080514034,-0.09251403400000001,0.40060008,-0.34460525799999997,13.25395625,15.45869851,-0.044094840999999996,18.91025926,0.10999999,-16.95819061,399.61066569999997,12.404602,96616.35729,1.147962102,-0.167115861,-0.620110029,-0.45764369299999996,0.0006296,-0.001180954,-0.000801124,0.007648731999999999,0.0,2.2328331,0.43890188399999996,0.00167853,0.003436312,0.8985268359999999,0.15,398714138.0,327364368.0,400122.3099,0.0,0.0,0.0,-0.00309862,2.1118367780000002,0,0,1.0,787999,39.8714138,32.7364368,0.003714937,-0.005694656,-0.046207803,0.012275433999999998,0.017271366,-0.044523828,0.065675104,-0.00034992199999999996,-0.021277811,0.1,0.039282392,0.049245122999999995,-0.006550949,0.15,9257520,1,0,0,0,0
9292594,0.032056128999999996,0.034776222999999995,-0.0056500790000000006,0.15,0.0,900.0,900.0,900.0,900.0,900.0,900.0,1.305383824,1.330875814,12.404602,0.989323175,0.989323175,1.008656101,0.050538879,0.05152646599999999,0.114324236,0.114324236,12.404602,-0.00073187,-0.005209242,-0.00039901199999999997,0.029553267,0.002957767,-0.113947392,2.0,-1.0,0.0,11,0,0,1,0,0.0,0,0,0,0,0,0.0,-0.083545596,1.571151095,1.574244609,0.23172025899999998,291.323965,48.13631768,4.42e-06,1.3300000000000001e-05,-2.55e-06,0.0,-0.107347779,0.160479713,-9.942921871,-1.3900000000000002e-25,966.1568516000001,12.404602,-0.00014925,-0.007005845,0.001895461,-0.20022286,0.123118575,-9.909744851000001,-0.009678155,-0.005997474,0.009881335,-1.3900000000000002e-25,-0.090265475,-0.102265475,0.40060008,-0.332123077,13.25396614,16.50633829,-0.065047437,18.65600858,0.10999999,-16.84160399,399.5931595,12.404602,96616.54458999999,1.147964427,0.7419298790000001,-0.663272475,0.37818627899999996,0.004479598,0.0010641939999999999,0.006893231,0.007623789000000001,0.0,2.182338691,0.461425643,0.0017588060000000001,0.0033816890000000002,0.8871228790000001,0.15,398714138.0,327364368.0,400123.0684,0.0,0.0,0.0,-0.010684137,2.300230946,0,0,1.0,787999,39.8714138,32.7364368,0.003513465,-0.005706922,-0.046460155,0.012333446000000001,0.016932898000000002,-0.043920107,0.029298087,-0.001869258,-0.051648495999999995,0.1,0.039152741,0.049316577,-0.0064815359999999995,0.15,9292594,1,0,0,0,0
9339668,0.030767472,0.034473059,-0.004853325,0.15,0.0,900.0,900.0,900.0,900.0,900.0,900.0,0.047512295,0.048440417,12.404602,0.957732922,0.957732922,0.9764484379999999,0.049940280999999996,0.05091616400000001,0.057175685,0.057175685,12.404602,-0.0007349539999999999,-0.005217101,-0.000382717,0.029420328,0.003023428,-0.114275326,2.0,-1.0,0.0,11,0,0,1,0,0.0,0,0,0,0,0,0.0,-0.093988795,1.5706339569999999,1.574141148,0.26155449399999997,290.71816689999997,50.20147789,4.66e-06,1.31e-05,-1.33e-06,0.0,-0.111301615,0.160655996,-9.982401355,-1.3900000000000002e-25,966.1581217,12.404602,0.00036791199999999997,-0.006986396999999999,-0.0035257759999999996,-0.209619157,0.241760232,-9.99557408,-0.005869411999999999,-0.007755419,0.002084695,-1.3900000000000002e-25,-0.100016916,-0.112016916,0.40060008,-0.319640897,13.25397603,17.55397808,-0.086000033,18.4017579,0.10999999,-16.72501736,399.64431349999995,12.404602,96615.9955,1.14795787,-0.138329755,-0.384671439,-0.06648839,0.002083396,0.003499509,-0.0023010920000000002,0.0075409990000000005,0.0,2.1203662999999997,0.48870881,0.001842685,0.003289546,0.8724387490000001,0.15,398714138.0,327364368.0,400123.82700000005,0.0,0.0,0.0,-0.018269654,2.488625114,0,0,1.0,787999,39.8714138,32.7364368,0.003342114,-0.005653302,-0.04670808,0.011830395,0.016293211000000002,-0.043972312,0.009105791,-0.010896093999999999,-0.09136907,0.1,0.039014801,0.049105418,-0.006405468,0.15,9339668,1,0,0,0,0
9382742,0.03052164,0.035227206000000004,-0.005181479,0.15,0.0,900.0,900.0,900.0,900.0,900.0,900.0,1.08578597,1.107005324,12.404602,0.9261426690000001,0.9261426690000001,0.9442407759999999,0.049341684000000004,0.050305862,2.71e-05,2.71e-05,12.404602,-0.0007380389999999999,-0.005224959,-0.000366422,0.029287389,0.003089088,-0.114603261,2.0,-1.0,0.0,11,0,0,1,0,0.0,0,0,0,0,0,0.0,-0.104431995,1.570116819,1.574037687,0.29138873,290.1123687,52.2666381,4.82e-06,1.27e-05,-1.9e-06,0.0,-0.115255451,0.160832279,-10.02188084,-1.3900000000000002e-25,966.1593919,12.404602,0.0029583509999999997,-0.002608623,0.002029374,-0.265529215,0.182724915,-10.0096323,-0.0020606689999999998,-0.009513365,-0.005711944,-1.3900000000000002e-25,-0.109768356,-0.121768356,0.40060008,-0.30715871699999997,13.25398592,18.60161787,-0.10695263,18.14750722,0.10999999,-16.60843073,399.66665739999996,12.404602,96615.70679,1.147954481,0.106884359,-0.08732382699999999,-0.195311035,0.0007222730000000001,0.002253775,0.001456359,0.007406116,0.0,2.11483005,0.491105513,0.001818352,0.0032257220000000003,0.871053979,0.15,398714138.0,327364368.0,400124.5855,0.0,0.0,0.0,-0.025855171,2.677019283,0,0,1.0,787999,39.8714138,32.7364368,0.003170762,-0.005599682,-0.046956005999999995,0.011327345,0.015653524,-0.044024518,-0.011086505,-0.019922931,-0.131089644,0.1,0.039019403,0.049012135,-0.006302800999999999,0.15,9382742,1,0,0,0,0
9417816,0.030786634,0.035048052999999996,-0.005211419,0.15,0.0,900.0,900.0,900.0,900.0,900.0,900.0,0.489395122,0.498960856,12.404602,0.8945524159999999,0.8945524159999999,0.9120331140000001,0.048743087000000004,0.049695561,-0.057121415999999994,-0.057121415999999994,12.404602,-0.000741123,-0.005232817,-0.000350127,0.02915445,0.003154749,-0.114931195,2.0,-1.0,0.0,11,0,0,1,0,0.0,0,0,0,0,0,0.0,-0.114875194,1.569599681,1.573934225,0.321222965,289.50657060000003,54.33179831,5.19e-06,1.3300000000000001e-05,-3.2e-06,0.0,-0.138810635,0.15579126199999999,-10.02790458,-1.3900000000000002e-25,966.1606942,12.404602,0.002056255,0.0024264770000000002,0.00138877,-0.245756282,0.189563583,-9.926357003,-0.00025564,-0.009107127,-0.006661777,-1.3900000000000002e-25,-0.11654068599999999,-0.128540687,0.400600104,-0.296059136,13.25399637,19.49755611,-0.12487118400000001,17.74095914,0.10999999,-16.90069311,399.5422005,12.404602,96617.15916,1.147971648,-0.166007614,-0.131000107,-0.014107051,0.003330548,0.008656994,0.004385518,0.007292926999999999,0.0,2.0667312,0.511927143,0.001866732,0.0031324029999999998,0.859021057,0.15,398714138.0,327364368.0,400124.6559,0.0,0.0,-0.000860172,-0.026559312,2.9619910039999997,0,0,1.0,787999,39.8714138,32.7364368,0.0030220390000000002,-0.005617987,-0.04718808,0.011293103,0.0155179,-0.043793267000000004,-0.019618596999999998,0.00622501,-0.093718428,0.1,0.038945033999999996,0.048904209000000004,-0.0062055009999999996,0.15,9417816,1,0,0,0,0
9452891,0.030610408999999998,0.034391362,-0.004798695,0.15,0.0,900.0,900.0,900.0,900.0,900.0,900.0,0.465319163,0.474404748,12.404602,0.862962162,0.862962162,0.879825451,0.048144489000000006,0.049085259000000006,-0.114269966,-0.114269966,12.404602,-0.000744208,-0.005240676,-0.00033383199999999994,0.029021511,0.003220409,-0.11525913,2.0,-1.0,0.0,11,0,0,1,0,0.0,0,0,0,0,0,0.0,-0.125318394,1.5690825430000002,1.573830764,0.35105720100000004,288.9007725,56.39695853,4.82e-06,1.28e-05,-3.25e-06,0.0,-0.17342136100000002,0.147807586,-10.01505863,-1.3900000000000002e-25,966.1620146,12.404602,-0.002694191,-0.007543299,-0.002651062,-0.24067199600000003,0.317423381,-9.865841373,0.000419256,-0.007480248,-0.003749877,-1.3900000000000002e-25,-0.120173045,-0.13217304800000002,0.400600154,-0.286416811,13.25400741,20.23360157,-0.13959187,17.17389024,0.10999999,-17.62388058,399.6695039,12.404602,96615.68159,1.147954148,-0.265779262,0.379936585,-0.127744667,0.00200512,0.005436016,-0.0031011790000000003,0.007209608,0.0,2.049795469,0.519143846,0.001870815,0.00308102,0.8545916859999999,0.15,398714138.0,327364368.0,400123.8974,0.0,0.0,-0.002756551,-0.018973795,3.363304986,0,0,1.0,787999,39.8714138,32.7364368,0.002885785,-0.005675924000000001,-0.047411420999999995,0.011517177,0.015660016000000002,-0.04340583,-0.02172587,0.051754394,-0.013869325,0.1,0.038697156,0.048765714,-0.006174749,0.15,9452891,1,0,0,0,0
9487965,0.031101565,0.035231709,-0.004776135,0.15,0.0,900.0,900.0,900.0,900.0,900.0,900.0,0.514876267,0.524940148,12.404602,0.831371909,0.831371909,0.8476177890000001,0.047545892,0.048474957,-0.171418517,-0.171418517,12.404602,-0.000747292,-0.005248534,-0.000317537,0.028888572,0.00328607,-0.115587064,2.0,-1.0,0.0,11,0,0,1,0,0.0,0,0,0,0,0,0.0,-0.135761593,1.568565405,1.573727303,0.380891436,288.2949744,58.46211874,3.72e-06,1.26e-05,-2.77e-06,0.0,-0.205808995,0.140402011,-10.00073529,-1.3900000000000002e-25,966.1635447999998,12.404602,-2.45e-05,-0.006188541999999999,0.000920044,-0.181214483,0.164233768,-9.883731302000001,0.000897639,-0.0058911480000000006,-0.000924837,-1.3900000000000002e-25,-0.123805405,-0.13580541,0.400600203,-0.276774485,13.25401844,20.96964704,-0.154312557,16.60682135,0.10999999,-18.34706804,399.5676135,12.404602,96616.87561,1.147968285,0.239324903,-0.14175633599999998,-0.414617776,0.000261945,0.007573474,-0.000951751,0.007012131,0.0,2.0144386,0.534210147,0.001872983,0.002963845,0.8453443970000001,0.15,398714138.0,327364368.0,400123.1388,0.0,0.0,-0.004652931,-0.011388278,3.764618968,0,0,1.0,787999,39.8714138,32.7364368,0.00275532,-0.005727321,-0.047649222000000005,0.011738294,0.01581308,-0.042993599,-0.021627774,0.093537681,0.06100631,0.1,0.038239389,0.048744521,-0.005902999,0.15,9487965,1,0,0,0,0
9523039,0.03010198,0.034617213,-0.005261263,0.15,0.0,900.0,900.0,900.0,900.0,900.0,900.0,0.760972758,0.775839003,12.404602,0.799781656,0.799781656,0.815410126,0.046947294,0.047864655,-0.22856706699999998,-0.22856706699999998,12.404602,-0.000750377,-0.005256393000000001,-0.000301242,0.028755633,0.0033517309999999997,-0.115914999,2.0,-1.0,0.0,11,0,0,1,0,0.0,0,0,0,0,0,0.0,-0.125646399,1.568644475,1.5737304980000002,0.379015809,287.45460160000005,59.11823087,4.47e-06,1.51e-05,-3.4e-06,0.0,-0.195255856,0.14416288900000002,-9.957874931000001,-1.3900000000000002e-25,966.1691275000001,12.404602,-0.00061552,-0.005360318,0.00123788,-0.19747349100000003,0.216442671,-9.905994061,-0.002419766,-0.005031761,0.000222439,-1.3900000000000002e-25,-0.127437765,-0.139437771,0.40060025200000005,-0.267132159,13.25402947,21.705692499999998,-0.16903324399999997,16.03975245,0.10999999,-19.07025551,399.4568237,12.404602,96618.14876,1.147983433,-0.450097573,-0.20952804100000003,0.200817004,-0.005116478,0.001789768,-0.000655546,0.006715689,0.0,1.9632561000000002,0.555666554,0.001865849,0.002791717,0.831398436,0.15,398714138.0,327364368.0,400122.3803,0.0,0.0,-0.00654931,-0.0038027609999999996,4.16593295,0,0,1.0,787999,39.8714138,32.7364368,0.002722581,-0.00566831,-0.048131117,0.011909508000000001,0.016150925,-0.042162847,0.015696131999999998,0.072088221,0.051931648,0.1,0.037919094,0.048550535,-0.005702578000000001,0.15,9523039,1,0,0,0,0
9562113,0.030767832999999998,0.034120517,-0.005211902,0.15,0.0,900.0,900.0,900.0,900.0,900.0,900.0,-0.175223535,-0.17864199,12.404602,0.768191403,0.768191403,0.783202464,0.046348697,0.047254354000000005,-0.285715618,-0.285715618,12.404602,-0.0007534610000000001,-0.005264251,-0.000284947,0.028622694,0.0034173909999999997,-0.116242933,2.0,-1.0,0.0,11,0,0,1,0,0.0,0,0,0,0,0,0.0,-0.11439851,1.568756395,1.573739569,0.37539308200000004,286.60130449999997,59.69670951,4.19e-06,1.3000000000000001e-05,-2.91e-06,0.0,-0.184702717,0.147923768,-9.915014569,-1.3900000000000002e-25,966.1747101,12.404602,-0.0014813920000000002,-0.009356638,-0.003375355,-0.16933389999999998,0.19201942,-9.924135519,-0.005737171,-0.004172374,0.001369716,-1.3900000000000002e-25,-0.131070124,-0.14307013300000002,0.400600302,-0.257489833,13.25404051,22.44173796,-0.183753931,15.47268355,0.10999999,-19.79344297,399.613503,12.404602,96616.34901,1.14796209,-0.011820668999999999,-0.048105322,0.334505963,-0.002223315,0.008697527,0.002375001,0.00620524,0.0,1.9129968999999998,0.576382115,0.0017882999999999998,0.00253539,0.817174415,0.15,398714138.0,327364368.0,400121.6217,0.0,0.0,-0.008445689000000001,0.0037827570000000003,4.567246932,0,0,1.0,787999,39.8714138,32.7364368,0.002689843,-0.005609299,-0.048613013,0.012080723,0.01648877,-0.041332095,0.053020038,0.050638762000000004,0.042856987,0.1,0.037168526,0.048321682000000005,-0.005140124,0.15,9562113,1,0,0,0,0
9597187,0.030793936,0.034771505,-0.004724792,0.15,0.0,900.0,900.0,900.0,900.0,900.0,900.0,1.371359056,1.398153849,12.404602,0.73660115,0.73660115,0.750994802,0.045750099999999995,0.046644052000000005,-0.34286416799999997,-0.34286416799999997,12.404602,-0.0007565460000000001,-0.00527211,-0.000268653,0.028489755,0.003483052,-0.11657086800000001,2.0,-1.0,0.0,11,0,0,1,0,0.0,0,0,0,0,0,0.0,-0.103150622,1.568868315,1.57374864,0.371770355,285.7480075,60.27518814,4.56e-06,1.31e-05,-2.02e-06,0.0,-0.162342639,0.158045933,-9.888044605,-1.3900000000000002e-25,966.1765195,12.404602,0.001590439,-0.00318216,0.0042056490000000005,-0.20871713,0.237875306,-9.9447995,-0.00542546,-0.0057981740000000006,0.0027558870000000003,-1.3900000000000002e-25,-0.132167589,-0.144167599,0.400600329,-0.230660892,13.25405027,23.1141721,-0.197202417,14.87072128,0.10999999,-20.71849692,399.45821639999997,12.404602,96618.08715,1.147982687,0.112932265,-0.608495749,-0.083594675,0.007600569000000001,0.006560537,0.00145963,0.005946728,0.0,1.875113332,0.59172436,0.0017590529999999998,0.002397,0.8060665440000001,0.15,398714138.0,327364368.0,400120.9316,0.0,0.000342068,-0.009315863,0.009315863,4.757615138,0,0,1.0,787999,39.8714138,32.7364368,0.002637209,-0.005657559,-0.04902586,0.011686761,0.016464619,-0.040890097,0.06205194,0.044788892000000004,0.028832752000000003,0.10003652199999999,0.036750089,0.04837521,-0.004819164,0.15,9597187,1,0,0,0,0
9632262,0.029891342999999997,0.03424801,-0.005258243,0.15,0.0,900.0,900.0,900.0,900.0,900.0,900.0,0.332599055,0.33909483700000004,12.404602,0.7050108970000001,0.7050108970000001,0.718787139,0.045151502,0.04603375,-0.40001271899999996,-0.40001271899999996,12.404602,-0.0007596310000000001,-0.005279968,-0.000252358,0.028356816,0.0035487120000000003,-0.11689880300000001,2.0,-1.0,0.0,11,0,0,1,0,0.0,0,0,0,0,0,0.0,-0.09190273300000001,1.568980234,1.5737577109999998,0.36814762799999995,284.8947105,60.85366677,4.68e-06,1.32e-05,-1.51e-06,0.0,-0.126070096,0.175663791,-9.879798767999999,-1.3900000000000002e-25,966.1738826,12.404602,0.0019451689999999998,-0.0023821420000000003,-0.0045174709999999995,-0.167208172,0.19187136600000002,-9.907346302999999,-0.000837453,-0.010352343,0.004423555,-1.3900000000000002e-25,-0.124792254,-0.136792262,0.400600279,-0.146386278,13.25405579,23.57398754,-0.20639862,14.15212911,0.10999999,-22.31828266,399.4920094,12.404602,96617.75188,1.147978819,0.029121001,-0.542060016,-0.12423944099999999,0.000968742,-0.0020248510000000003,0.00240784,0.005620176,0.0,1.7963898740000002,0.622977468,0.001750123,0.00219831,0.782146785,0.15,398714137.8,327364368.0,400120.5523,0.0,0.002238448,-0.005523105,0.005523105,3.9894753439999997,0,0,1.0,787999,39.8714138,32.7364368,0.002561878,-0.005828193000000001,-0.049359939000000005,0.010648046999999999,0.016027503999999998,-0.04089159,0.038808373,0.056735006,0.009162053,0.10011470800000001,0.036399889,0.048242533,-0.004564969,0.15,9632262,1,0,0,0,0
9675336,0.030053561,0.033581924,-0.004554816,0.15,0.0,900.0,900.0,900.0,900.0,900.0,900.0,1.099732526,1.121212214,12.404602,0.673420644,0.673420644,0.686579477,0.044552905,0.045423448,-0.457161269,-0.457161269,12.404602,-0.000762715,-0.005287826,-0.00023606299999999998,0.028223877,0.0036143729999999997,-0.117226737,2.0,-1.0,0.0,11,0,0,1,0,0.0,0,0,0,0,0,0.0,-0.080654844,1.569092154,1.5737667830000002,0.36452490000000004,284.04141339999995,61.43214541,4.26e-06,1.3500000000000001e-05,-1.9e-06,0.0,-0.089797553,0.19328164899999997,-9.871552931,-1.3900000000000002e-25,966.1712457,12.404602,-0.003536138,-0.006838244,0.002263204,-0.183692515,0.243554493,-9.944916747999999,0.003750554,-0.014906512,0.006091224,-1.3900000000000002e-25,-0.11741691900000001,-0.129416925,0.40060023,-0.062111664000000004,13.254061300000002,24.03380299,-0.215594822,13.43353694,0.10999999,-23.91806841,399.64312689999997,12.404602,96615.95638999999,1.147957336,-0.018265995,-0.031808038,-0.302686397,0.002488937,0.005050334,0.002436394,0.005264699,0.0,1.7187263769999999,0.652915027,0.0017186760000000001,0.001993826,0.7574212020000001,0.15,398714137.6,327364368.0,400120.17299999995,0.0,0.004134827,-0.001730346,0.001730346,3.221335549,0,0,1.0,787999,39.8714138,32.7364368,0.002486548,-0.005998826999999999,-0.049694017,0.009609333000000001,0.015590389,-0.040893082000000004,0.015564807,0.06868112,-0.010508645,0.100192895,0.035968432,0.048189645,-0.004193911,0.15,9675336,1,0,0,0,0
9710410,0.031260183,0.034006712,-0.004649961,0.15,0.0,900.0,900.0,900.0,900.0,900.0,900.0,1.246805618,1.271161209,12.404602,0.6418303910000001,0.6418303910000001,0.654371814,0.043954307000000005,0.044813147000000005,-0.51430982,-0.51430982,12.404602,-0.0007658,-0.005295685,-0.000219768,0.028090938,0.0036800340000000004,-0.117554672,2.0,-1.0,0.0,11,0,0,1,0,0.0,0,0,0,0,0,0.0,-0.06940695599999999,1.569204074,1.573775854,0.360902173,283.1881164,62.01062404,4.67e-06,1.29e-05,-1.1e-06,0.0,-0.090738024,0.182754854,-9.914170279,4.161335778,966.1678707000001,12.404602,-0.0016215479999999998,-0.0041873890000000006,0.002403301,-0.143990425,0.19249341399999997,-9.957623236,0.001959676,-0.010221195,0.007802596,4.161335778,-0.110041584,-0.122041588,0.40060018,0.022162951,13.25406682,24.49361843,-0.22479102399999998,12.71494478,0.10999999,-25.51785415,399.5939999,12.404602,96616.54695,1.147964459,-0.558887713,0.091762686,-0.255655682,0.001103634,0.004775321,-0.000757726,0.0047488059999999995,0.0,1.6701793999999999,0.671109319,0.0015934870000000002,0.0017602779999999999,0.741354615,0.15,398714137.4,327364368.0,400119.7938,0.0,0.006031206,0.002062412,-0.002062412,2.453195755,0,0,1.0,787999,39.8714138,32.7364368,0.002423647,-0.005941799,-0.049337146,0.009681299999999999,0.01572401,-0.039850796,0.017993574,0.047512589,-0.017338414,0.101760501,0.03544396,0.047817270999999995,-0.003780315,0.15,9710410,1,0,0,0,0
9749484,0.029676572999999998,0.033814617000000005,-0.0042588109999999995,0.15,0.0,900.0,900.0,900.0,900.0,900.0,900.0,-1.152519867,-1.175041191,12.404602,0.610240137,0.610240137,0.6221641520000001,0.04335571,0.044202845,-0.57145837,-0.57145837,12.404602,-0.000768884,-0.005303543000000001,-0.000203473,0.027957999,0.0037456940000000004,-0.117882606,2.0,-1.0,0.0,11,0,0,1,0,0.0,0,0,0,0,0,0.0,-0.058159067,1.569315993,1.573784925,0.357279446,282.33481939999996,62.58910267,4.42e-06,1.1900000000000001e-05,-2.92e-06,0.0,-0.09729262300000001,0.167982026,-9.964461083,8.950469977000001,966.1643845000001,12.404602,-0.003514285,-0.009286854,0.0032213479999999997,-0.162593257,0.16902762699999999,-9.874157222000001,-0.0007935510000000001,-0.0041419659999999995,0.009520563000000001,8.950469977000001,-0.102666249,-0.114666251,0.400600131,0.106437565,13.25407234,24.95343387,-0.233987227,11.99635261,0.10999999,-27.117639899999997,399.53792519999996,12.404602,96617.17987,1.147971937,-0.42881200399999997,0.058509292000000004,0.155380736,-0.0017457929999999998,0.001603616,-0.002577466,0.004027817,0.0,1.6207169,0.6892374,0.001388063,0.001459145,0.7245328000000001,0.15,398714137.2,327364368.0,400119.4145,0.0,0.007927586,0.005855171,-0.005855171,1.68505596,0,0,1.0,787999,39.8714138,32.7364368,0.002362469,-0.005853226,-0.048884535,0.009907164,0.015936713,-0.038663882999999996,0.023979534,0.02175565,-0.022388926,0.10353448300000001,0.034345892,0.047912210999999996,-0.002986252,0.15,9749484,1,0,0,0,0
9788559,0.029225386000000003,0.034355571,-0.0036848259999999996,0.15,0.0,900.0,900.0,900.0,900.0,900.0,900.0,0.22479611100000002,0.229187064,12.404602,0.578649884,0.578649884,0.58995649,0.042757113,0.043592543,-0.628606921,-0.628606921,12.404602,-0.000771969,-0.005311402,-0.000187178,0.02782506,0.003811355,-0.118210541,2.0,-1.0,0.0,11,0,0,1,0,0.0,0,0,0,0,0,0.0,-0.046911179000000004,1.5694279130000002,1.573793996,0.353656719,281.48152230000005,63.16758131,4.09e-06,1.3699999999999998e-05,-2.52e-07,0.0,-0.115061025,0.162993405,-9.996016702,12.404602,966.1623037,12.404602,-0.004924701,-0.003818922,-0.002661246,-0.209176113,0.17228452600000002,-9.92491457,-0.003246756,-0.00051905,0.009242325,12.404602,-0.095290914,-0.107290914,0.400600081,0.19071217899999998,13.25407785,25.41324932,-0.24318342899999998,11.27776044,0.10999999,-28.71742564,399.69446989999994,12.404602,96615.40034,1.14795073,-0.11958005199999999,0.047753699999999996,0.336540654,0.0019089460000000001,0.003678988,-0.0012680130000000001,0.003319452,0.0,1.581733847,0.70319845,0.001166008,0.0011810339999999999,0.71093173,0.15,398714137.0,327364368.0,400119.0352,0.0,0.009823965,0.00964793,-0.00964793,0.9169161659999999,0,0,1.0,787999,39.8714138,32.7364368,0.00230873,-0.005736946999999999,-0.048247227999999996,0.009936740999999999,0.016243964,-0.037690186,0.021354387000000002,0.003796722,-0.021110478999999998,0.10452373300000001,0.033865847000000004,0.047757799000000004,-0.002573275,0.15,9788559,1,0,0,0,0
9823633,0.02831485,0.03394107,-0.003503745,0.15,0.0,900.0,900.0,900.0,900.0,900.0,900.0,0.715680373,0.729665771,12.404602,0.547059631,0.547059631,0.5577488270000001,0.042158515,0.042982241,-0.6857554709999999,-0.6857554709999999,12.404602,-0.000775053,-0.00531926,-0.00017088299999999998,0.027692121,0.0038770159999999996,-0.118538475,2.0,-1.0,0.0,11,0,0,1,0,0.0,0,0,0,0,0,0.0,-0.03566329,1.569539833,1.5738030680000001,0.350033992,280.6282253,63.74605994,4.31e-06,1.22e-05,-1.83e-06,0.0,-0.16184357800000002,0.18332005399999998,-9.97909764,12.404602,966.1638596000001,12.404602,-0.000251514,-0.006401118000000001,0.00022517200000000002,-0.226872734,0.21341528399999998,-9.965164081000001,-0.004923697,-0.003251498,0.003799188,12.404602,-0.061119587999999996,-0.073119589,0.40060008,0.37108059,13.25407059,25.55281843,-0.24597496100000002,10.69100119,0.10999999,-30.47721267,399.57143060000004,12.404602,96616.81848999999,1.147967687,-0.06389807,-0.0972238,-0.350482371,-0.001494156,0.0036959859999999996,0.0009523380000000001,0.0033286979999999997,0.0,1.5729882,0.70633044,0.0011755819999999999,0.001178161,0.707880257,0.15,398714137.2,327364368.0,400119.6881,0.0,0.008279656,0.01,-0.0065593119999999994,0.896295373,0,0,1.0,787999,39.8714138,32.7364368,0.00227325,-0.0055526709999999995,-0.047156605,0.009484556,0.016783271000000002,-0.037239804,-0.002405711,0.004977095999999999,-0.004298343,0.103586949,0.033360574,0.047802854000000006,-0.002197986,0.15,9823633,1,0,0,0,0
9866707,0.028305117,0.033983672,-0.003238557,0.15,0.0,900.0,900.0,900.0,900.0,900.0,900.0,-1.496052418,-1.525285616,12.404602,0.5154693779999999,0.5154693779999999,0.525541165,0.041559918,0.04237194,-0.742904022,-0.742904022,12.404602,-0.000778138,-0.0053271180000000005,-0.000154588,0.027559182,0.003942676,-0.11886641,2.0,-1.0,0.0,11,0,0,1,0,0.0,0,0,0,0,0,0.0,-0.024415402000000003,1.569651752,1.5738121390000002,0.346411264,279.77492830000006,64.32453858,4.08e-06,1.3500000000000001e-05,-9.1e-07,0.0,-0.20862613100000002,0.203646703,-9.962178578,12.404602,966.1654154999999,12.404602,-0.0030723079999999997,-0.003547824,-0.0098761,-0.183574061,0.251658998,-9.988698451,-0.006600638000000001,-0.0059839459999999995,-0.001643949,12.404602,-0.026224828999999998,-0.038224831,0.40060008,0.5540433260000001,13.25406298,25.68374159,-0.24859358,10.10780116,0.10999999,-32.24131938,399.5914322,12.404602,96616.55742000001,1.1479645859999998,0.055833954000000005,0.101912423,0.104659998,-0.002987959,0.013411843,0.00770925,0.0035510890000000003,0.0,1.5729882,0.7063303040000001,0.0012541219999999999,0.0012568739999999998,0.7078801440000001,0.15,398714137.4,327364368.0,400120.4467,0.0,0.006383277,0.01,-0.0027665529999999997,0.9521648970000001,0,0,1.0,787999,39.8714138,32.7364368,0.002237769,-0.005368394,-0.046065981,0.009032370999999999,0.017322578,-0.036789421,-0.026165808999999998,0.006157470999999999,0.012513793,0.102650165,0.033771584,0.048006334000000005,-0.00248132,0.15,9866707,1,0,0,0,0
9901781,0.030164872000000002,0.032882748999999996,-0.002931944,0.15,0.0,900.0,900.0,900.0,900.0,900.0,900.0,1.3844569,1.411509484,12.404602,0.483879125,0.483879125,0.49333350200000003,0.040961321,0.041761638,-0.800052572,-0.800052572,12.404602,-0.000781223,-0.005334976999999999,-0.000138293,0.027426243,0.004008337,-0.119194345,2.0,-1.0,0.0,11,0,0,1,0,0.0,0,0,0,0,0,0.0,-0.013167513,1.5697636719999999,1.57382121,0.342788537,278.9216312,64.90301721,4.31e-06,1.36e-05,-2.1e-06,0.0,-0.20777720100000002,0.183994397,-9.950335185,9.106799228,966.1630021999999,12.404602,-0.0025647820000000003,-0.0040046579999999995,0.00047095,-0.208945675,0.169293723,-9.909230800000001,-0.004965165,-0.004961069,-0.001264549,9.106799228,0.00866993,-0.003330073,0.40060008,0.7370060620000001,13.25405537,25.81466474,-0.25121219899999997,9.524601121,0.10999999,-34.00542609,399.6853957,12.404602,96615.47481,1.147951652,0.12265495300000001,-0.33257632,0.33803656299999996,-0.003390052,0.001237471,-0.0048227520000000005,0.003424576,0.0,1.5729882,0.7063303740000001,0.001209443,0.001212096,0.7078802209999999,0.15,398714137.6,327364368.0,400121.2052,0.0,0.004486897,0.01,0.001026205,1.0080344209999998,0,0,1.0,787999,39.8714138,32.7364368,0.002222039,-0.004965567,-0.045084825999999995,0.009058970999999999,0.01802055,-0.036373285,-0.0067693269999999995,0.005558431,0.017790366999999998,0.102563716,0.033525931,0.047992952,-0.002332468,0.15,9901781,1,0,0,0,0
9936855,0.028854972000000003,0.034116147,-0.001779024,0.15,0.0,900.0,900.0,900.0,900.0,900.0,900.0,-0.049139495,-0.050097443,12.404602,0.452288872,0.452288872,0.46112584,0.040362722999999996,0.041151336000000004,-0.857201123,-0.857201123,12.404602,-0.0007843069999999999,-0.005342835,-0.00012199799999999999,0.027293303999999997,0.004073997,-0.11952227900000001,2.0,-1.0,0.0,11,0,0,1,0,0.0,0,0,0,0,0,0.0,-0.001919625,1.5698755919999998,1.573830281,0.33916581,278.0683342,65.48149584,3.71e-06,1.36e-05,-2.4e-06,0.0,-0.185388375,0.14626282,-9.94078711,4.317665029,966.158794,12.404602,-0.0058604009999999995,-0.007980339,-0.002933955,-0.206371307,0.170871174,-9.948747382999999,-0.001831752,-0.002239959,0.001747916,4.317665029,0.043564689000000004,0.031564685,0.40060008,0.919968798,13.25404776,25.9455879,-0.253830818,8.941401085,0.10999999,-35.7695328,399.63510069999995,12.404602,96616.05425,1.14795852,-0.318286748,0.218765548,-0.39225697600000003,-0.001227292,0.008550430999999999,0.002806854,0.0035854140000000003,0.0,1.5729882,0.7063303190000001,0.001266245,0.001269023,0.707880148,0.15,398714137.7,327364368.0,400121.9638,0.0,0.002590518,0.01,0.004818964,1.063903945,0,0,1.0,787999,39.8714138,32.7364368,0.002214745,-0.004469376,-0.044150435999999994,0.009290106,0.018786304,-0.035971777999999996,0.031063596000000002,0.004199227,0.018138964,0.10284053,0.033519741,0.047842212,-0.0024911720000000003,0.15,9936855,1,0,0,0,0
9971930,0.028108501,0.033052766000000004,-0.0026543390000000004,0.15,0.0,900.0,900.0,900.0,900.0,900.0,900.0,1.328527697,1.354498596,12.404602,0.494158548,0.494165158,0.5038201179999999,0.112395735,0.11459170699999999,-0.035237081,-0.035237081,12.40460165,-0.000782138,-0.005354108000000001,-9.470000000000001e-05,0.027161497000000003,0.004148091,-0.119826302,2.0,-1.0,0.0,11,0,0,1,0,0.0,0,0,0,0,0,0.0,0.009328264000000001,1.569987511,1.573839353,0.335543083,277.2150372,66.05997448,3.89e-06,1.31e-05,-1.73e-06,0.0,-0.16326695800000002,0.11346273300000001,-9.934933867,-1.3900000000000002e-25,966.1548746,12.404602,0.000673854,-0.012135518,0.000480002,-0.18664545899999999,0.16593207199999999,-10.01314967,0.001022227,-0.000135956,0.004192988,-1.3900000000000002e-25,0.078459448,0.066459444,0.40060008,1.102931534,13.25404015,26.07651106,-0.256449437,8.358201048,0.10999999,-37.53363952,399.5915859,12.404602,96616.62012,1.14796522,-0.16549559,0.039400902,-0.16685962099999999,0.0008683610000000001,0.005562337,0.0024992879999999997,0.0034930559999999996,0.0,1.5729882,0.7063303390000001,0.001233627,0.001236334,0.707880174,0.15,398714137.9,327364368.0,400122.7223,0.0,0.000694139,0.01,0.008611721999999999,1.119773468,0,0,0.9909982,787999,39.8714138,32.7364368,0.00220314,-0.0039769029999999995,-0.0432517,0.009558918000000001,0.019564323999999998,-0.03548485,0.06590429,0.005803481,0.018921803,0.10295302199999999,0.033333972999999996,0.047946703,-0.0024253260000000002,0.15,9971930,1,0,0,0,0
10007004,0.026028852999999998,0.033603061000000004,-0.001889865,0.15,0.0,900.0,900.0,900.0,900.0,900.0,900.0,1.7291574319999998,1.7629391509999999,12.404602,1.208766528,1.2088402759999999,1.232458477,0.8495813740000001,0.866180341,8.837547543,8.837547543,12.40459812,-0.000731856,-0.005396653,3.35e-05,0.027040055,0.0042994159999999995,-0.119911344,2.0,-1.0,0.0,11,0,0,1,0,0.0,0,0,0,0,0,0.0,0.019909466,1.5691754919999998,1.5736302530000001,0.38993743,276.32221860000004,66.138703,3.85e-06,1.36e-05,-2.62e-07,0.0,-0.14359444300000002,0.125824721,-9.962917516000001,-1.3900000000000002e-25,966.1536005,12.404602,-0.000731799,-0.006435149,-0.003794579,-0.12472558,0.231550745,-9.916086652999999,0.0013171779999999998,-0.003683342,0.00144193,-1.3900000000000002e-25,0.138006027,0.126006024,0.400600047,1.276124753,13.25407524,26.08730071,-0.256664527,7.8574196,0.10999999,-39.31069413,399.6266602,12.404602,96616.17468,1.147960018,-0.6008949889999999,0.26705200100000004,0.265619287,-0.002475741,0.003770259,0.0008355560000000001,0.003592077,0.0,1.5729882,0.706330303,0.0012685980000000001,0.001271381,0.707880104,0.15,398714138.0,327364368.0,400122.7596,0.0,0.0,0.00879776,0.00879776,1.110721425,0,0,0.9521904379999999,787999,39.8714138,32.7364368,0.0021572979999999998,-0.0035139459999999996,-0.042636047999999996,0.010126872,0.020439725,-0.034319702,0.076987245,0.030937037999999997,0.023152448,0.10176082300000001,0.033310437000000005,0.047998019,-0.002457044,0.15,10007004,1,0,0,0,0
10042078,0.027475135,0.034061946,-0.00210878,0.15,0.0,900.0,900.0,900.0,900.0,900.0,900.0,-0.671216259,-0.684333278,12.404602,1.923374507,1.923515395,1.961096837,1.5867670130000002,1.617768974,17.71033217,17.71033217,12.40459459,-0.0006815739999999999,-0.005439198,0.00016159399999999998,0.026918612999999997,0.00445074,-0.119996386,2.0,-1.0,0.0,11,0,0,1,0,0.0,0,0,0,0,0,0.0,0.030412921000000002,1.568255725,1.57339571,0.45109761600000003,275.4247912,66.15915163,3.98e-06,1.27e-05,1.93e-07,0.0,-0.123921929,0.138186709,-9.990901164,-1.3900000000000002e-25,966.1523265000001,12.404602,0.00515245,-0.005600356999999999,-0.002475606,-0.17112204,0.193634992,-9.895847675,0.001612129,-0.0072307280000000005,-0.0013091280000000001,-1.3900000000000002e-25,0.207275978,0.19527597800000002,0.400600002,1.4454645990000001,13.25412718,26.05070633,-0.25593159600000004,7.389146362999999,0.10999999,-41.09285577,399.59829269999994,12.404602,96616.50283,1.147963904,0.421658287,-0.311647703,0.320451028,0.003321653,0.005815122,0.0029712370000000003,0.0,0.0,1.6169364,0.6906071,0.0,0.0,0.7232301999999999,0.089017804,398714138.0,327364368.0,400122.3803,0.0,0.0,0.00690138,0.00690138,1.064185548,0,0,0.913382677,787999,39.8714138,32.7364368,0.0021114560000000003,-0.003050989,-0.042020395,0.010694826000000001,0.021315127000000003,-0.033154552999999996,0.0880702,0.05607059599999999,0.027383092999999997,0.100568625,0.028334341000000002,0.047900116,-0.0026863290000000003,0.0,10042078,1,0,0,0,0
10077152,0.025376764,0.033971599,-0.002303362,0.15,0.0,900.0,900.0,900.0,900.0,900.0,900.0,0.953769862,0.972405922,12.404602,2.637982487,2.638190513,2.689735197,2.323952653,2.369357608,26.58311679,26.58311679,12.40459105,-0.000631292,-0.005481743000000001,0.000289737,0.026797171,0.004602065,-0.120081428,2.0,-1.0,0.0,11,0,0,1,0,0.0,0,0,0,0,0,0.0,0.040916375,1.5673359580000001,1.5731611680000002,0.512257803,274.5273637,66.17960026,3.71e-06,1.31e-05,-1.85e-06,0.0,-0.12860164400000001,0.16962352600000002,-9.997056533,-1.3900000000000002e-25,966.1550557,12.404602,-0.002103124,-0.011331266999999999,-0.000778791,-0.237434013,0.120323678,-9.864409145,0.00039834699999999996,-0.007283393000000001,-0.003866315,-1.3900000000000002e-25,0.276545928,0.264545931,0.40059995600000003,1.614804445,13.25417911,26.01411195,-0.255198666,6.920873126,0.10999999,-42.8750174,399.5203732,12.404602,96617.39312000001,1.147974467,-0.424139776,-0.191557177,0.194489938,0.0037769509999999997,0.0052884080000000005,-0.00043593,0.0,0.0,1.6169364,0.6906071,0.0,0.0,0.7232301999999999,1.0,398714138.0,327364368.0,400122.001,0.0,0.0,0.005005000999999999,0.005005000999999999,1.017649671,0,0,0.874574915,787999,39.8714138,32.7364368,0.002133518,-0.0024883229999999998,-0.041814001,0.010968393,0.021679221000000002,-0.032636753,0.066715729,0.049848708,0.023151779,0.1,0.028396302999999998,0.047894658,-0.0026863290000000003,1.0,10077152,1,0,0,0,0
10116453,0.026055282000000003,0.033634192,-0.002133026,0.15,0.0,900.0,900.0,900.0,900.0,900.0,900.0,-0.40990586,-0.41791865799999994,12.404602,3.3525904669999997,3.3528656310000002,3.418373557,3.061138292,3.1209462410000004,35.45590141,35.45590141,12.40458752,-0.00058101,-0.005524286999999999,0.00041788,0.026675729,0.004753389,-0.12016647,2.0,-1.0,0.0,11,0,0,1,0,0.0,0,0,0,0,0,0.0,0.05141983,1.5664161909999998,1.572926625,0.57341799,273.6299363,66.20004889,3.57e-06,1.29e-05,0.0,0.0,-0.156839223,0.21951295699999998,-9.982095655,-1.3900000000000002e-25,966.1616575999999,12.404602,0.0024610829999999998,-0.010021806999999999,-0.001382004,-0.170885473,0.19147720199999999,-9.957871896,-0.002274956,-0.003955333,-0.006235955,-1.3900000000000002e-25,0.345815879,0.333815885,0.40059991,1.784144292,13.25423105,25.97751757,-0.254465736,6.452599889,0.10999999,-44.65717904,399.71774930000004,12.404602,96615.12632000001,1.147947551,-0.530904308,-0.377081716,-0.161438652,0.003664718,0.007116904,-0.006580167,0.0,0.0,1.6169364,0.6906071,0.0,0.0,0.7232301999999999,1.0,398714138.0,327364368.0,400121.6217,0.0,0.0,0.003108622,0.003108622,0.9711137940000001,0,0,0.8357671529999999,787999,39.8714138,32.7364368,0.002217502,-0.001834736,-0.041980800000000006,0.010973513,0.021577065,-0.032709257,0.01578218,0.01503438,0.011204165,0.1,0.028533281,0.047691900999999995,-0.0026863290000000003,1.0,10116453,1,0,0,0,0
10159301,0.025780225,0.033558566,-0.001672219,0.15,0.0,900.0,900.0,900.0,900.0,900.0,900.0,0.159767731,0.162890585,12.404602,4.067198446,4.06754075,4.1470119169999995,3.7983239319999997,3.872534875,44.32868604,44.32868604,12.40458399,-0.0005307280000000001,-0.005566832,0.0005460230000000001,0.026554288,0.004904714,-0.12025151199999999,2.0,-1.0,0.0,11,0,0,1,0,0.0,0,0,0,0,0,0.0,0.061923284,1.565496424,1.5726920830000002,0.634578176,272.7325088,66.22049752,3.5e-06,1.2e-05,0.0,0.0,-0.185076803,0.269402388,-9.967134777,-1.3900000000000002e-25,966.1682595000001,12.404602,-0.005753436999999999,-0.0063959080000000005,-0.000261579,-0.224272859,0.213211449,-9.909515902999999,-0.004948258,-0.000627274,-0.008605595,-1.3900000000000002e-25,0.41508583,0.403085838,0.400599865,1.953484138,13.25428298,25.94092319,-0.25373280600000003,5.984326652000001,0.10999999,-46.43934067,399.6475161,12.404602,96615.9069,1.147956751,0.224256895,0.02759349,-0.039763056,0.001916071,0.002915097,-0.000173102,0.0,0.0,1.6169364,0.6906071,0.0,0.0,0.7232301999999999,1.0,398714138.0,327364368.0,400121.2424,0.0,0.0,0.0012122419999999999,0.0012122419999999999,0.924577917,0,0,0.796959392,787999,39.8714138,32.7364368,0.002301485,-0.001181149,-0.0421476,0.010978632,0.021474907999999997,-0.032781761,-0.03515137,-0.019779947,-0.000743449,0.1,0.028436773999999998,0.047733898,-0.0026863290000000003,1.0,10159301,1,0,0,0,0
10194375,0.026389329,0.033567246,-0.001598285,0.15,0.0,900.0,900.0,900.0,900.0,900.0,900.0,-0.6847558009999999,-0.6981336459999999,12.404602,4.781806426,4.782215868,4.875650277,4.535509571,4.6241235089999995,53.20147066,53.20147066,12.40458046,-0.000480446,-0.005609377,0.000674166,0.026432846,0.005056038,-0.120336554,2.0,-1.0,0.0,11,0,0,1,0,0.0,0,0,0,0,0,0.0,0.072426739,1.564576657,1.57245754,0.6957383629999999,271.8350814,66.24094615,3.26e-06,1.34e-05,0.0,4.56e-06,17.4915668,0.21209707600000002,-9.930548338,-1.3900000000000002e-25,966.1597609999999,12.404602,-0.0008630210000000001,-0.0036471040000000004,0.001913626,-0.17782316899999998,0.100783354,-10.00191677,-0.0005791430000000001,-0.001183384,-0.0063473919999999994,-1.3900000000000002e-25,0.503590451,0.49159046,0.400599751,2.118100489,13.2543414,25.85654308,-0.252044033,5.551117027,0.10999999,-48.23755848,399.51025469999996,12.404602,96617.52712,1.147976065,0.34375836,0.143789172,0.354621478,0.00038421,0.006429811,0.002260789,0.0,0.0,1.6169364,0.6906071,0.0,0.0,0.7232301999999999,1.0,398714138.0,327364368.0,400121.2052,0.0,0.0006841369999999999,-0.0006841369999999999,0.0013682739999999998,1.213759434,0,0,0.75815163,787999,39.8714138,32.7364368,0.002177596,0.002547946,-0.042254472,-0.003473627,0.344385445,-0.024209962,-0.81605401,17.27866192,0.44009192799999997,0.1,0.028526628,0.047665875,-0.0026863290000000003,1.0,10194375,1,0,0,0,0
10229449,0.026416738,0.033583724,-0.002570082,0.15,0.0,900.0,900.0,900.0,900.0,900.0,900.0,-0.361840166,-0.36890922600000003,12.404602,5.496414405,5.4968909870000005,5.604288637000001,5.27269521,5.375712142,62.07425529,62.07425529,12.40457692,-0.000430164,-0.005651921999999999,0.000802309,0.026311404,0.005207363,-0.12042159599999999,2.0,-1.0,0.0,11,0,0,1,0,0.0,0,0,0,0,0,0.0,0.082930193,1.563656891,1.5722229980000002,0.75689855,270.9376539,66.26139478,3.46e-06,1.28e-05,0.0,2.8699999999999996e-05,36.74686233,0.145233768,-9.892033661000001,-1.3900000000000002e-25,966.149916,12.404602,-0.002916153,-0.00867394,-0.002875412,-0.260657204,0.23295049,-9.905925363,0.004417909,-0.002085825,-0.003676548,-1.3900000000000002e-25,0.6146233489999999,0.602623356,0.40059955700000005,2.277184526,13.25440742,25.71619477,-0.24923574399999998,5.15897506,0.10999999,-50.05458181,399.5820413,12.404602,96616.67922,1.147966021,-0.004374944,-0.041526634,-0.20736268100000002,-0.0030513009999999998,0.00574322,-0.002477779,0.0,0.0,1.6169364,0.6906071,0.0,0.0,0.7232301999999999,1.0,398714138.0,327364368.0,400121.7742,0.0,0.002580516,-0.002580516,0.005161032,2.097808613,0,0,0.719343869,787999,39.8714138,32.7364368,0.0020390720000000003,0.006493554,-0.042357125,-0.018943674,0.69003579,-0.015029611000000002,-1.648345828,35.79734965,0.912802827,0.1,0.028527531000000002,0.0475972,-0.0026863290000000003,1.0,10229449,1,0,0,0,0
10268523,0.023632541,0.033713727,0.001369924,1.0,0.0,997.5017002999998,997.3394678999999,1078.4556910000001,995.3926785,999.1240247999999,999.9351869999999,0.5904072229999999,0.6019460999999999,12.404602,6.211022385,6.211566105,6.332926997,6.00988085,6.127300776,70.94703991,70.94703991,12.40457339,-0.00037988199999999995,-0.005694466,0.000930452,0.026189962,0.005358686999999999,-0.12050663800000001,2.0,-1.0,0.0,11,0,0,1,0,0.0,0,0,0,0,0,0.0,0.09343364800000001,1.562737124,1.571988455,0.8180587359999999,270.0402264,66.28184341,3.64e-06,1.3300000000000001e-05,0.0,4.93e-05,48.32833919,0.107097115,-9.864340891,1.570736761,966.1458287,12.404602,-0.000988219,-0.000669672,0.002599734,16.34237474,0.128127692,-9.859569898,0.007383085,-0.003476303,-0.0007531819999999999,1.570736761,0.725656248,0.713656253,0.400599363,2.436268563,13.25447343,25.57584646,-0.24642745600000002,4.766833092,0.10999999,-51.87160513,399.5922452,12.404602,96616.56883999999,1.147964701,0.41273577200000006,0.210499092,-0.038711172,0.000384762,0.00272359,-0.000598887,0.0,0.0,1.6169364,0.6906071,0.0,0.0,0.7232301999999999,1.0,398714138.0,327364368.0,400122.3431,0.0,0.004476895,-0.004476895,0.008953791,2.981857793,0,0,0.680536107,787999,39.8714138,32.7364368,-0.000206665,0.058001915,-0.0413475,-0.059821285999999994,1.5942313540000002,0.008636371,-2.162213595,47.36471901,1.211968993,0.1,0.028500896,0.047496566,-0.0026863290000000003,1.0,10268523,1,0,0,0,0
10303598,0.025776597999999998,0.033582368,0.003129235,1.0,0.0,1500.0,1500.0,2000.0,1488.0,1511.0,1516.0,2.8578840789999997,2.913719134,12.404602,6.925630364,6.926241223,7.061565357,6.747066489,6.87888941,79.81982453,79.81982453,12.40456986,-0.00032960000000000004,-0.005737011,0.001058594,0.026068521,0.005510012,-0.12059168,2.0,-1.0,0.0,11,0,0,1,0,0.0,0,0,0,0,0,0.0,0.10393710199999999,1.5618173569999998,1.5717539130000002,0.8792189229999999,269.142799,66.30229204,3.22e-06,1.31e-05,0.0,7.219999999999999e-05,44.186367700000005,0.127820605,-9.858821917,6.359870958999999,966.1535387,12.404602,0.0007500260000000001,-0.004694166,-0.00192041,52.0956348,0.17443619,-9.790808476,0.0061850030000000005,-0.005866754,0.002687598,6.359870958999999,0.8366891470000001,0.82468915,0.400599169,2.5953526,13.25453944,25.43549815,-0.243619168,4.374691124,0.10999999,-53.68862846,399.6672848,12.404602,96615.70245,1.14795435,0.166142604,-0.084301722,-0.269418266,0.0031958509999999996,0.003599302,-0.001834532,0.0,0.0,1.6169364,0.6906071,0.0,0.0,0.7232301999999999,1.0,398714138.0,327364368.0,400122.912,0.0,0.006373275,-0.006373275,0.012746549,3.865906972,0,0,0.6417283460000001,787999,39.8714138,32.7364368,-0.006445681,0.19964419100000003,-0.038230049,-0.148847569,3.556899418,0.059753382,-2.07265108,45.75897527,1.182258787,0.1,0.028433952999999998,0.047331156,-0.0026863290000000003,1.0,10303598,1,0,0,0,0
10342672,0.022426781,0.033823353,0.003941548,1.0,0.0,1502.0,1500.0,2000.0,1489.0,1510.0,1516.0,5.0212471160000005,5.119410405,12.404602,7.640238344,7.640916342000001,7.790203717000001,7.484252129,7.630478042999999,88.69260916,88.69260916,12.40456633,-0.00027931799999999997,-0.005779556,0.001186737,0.025947078999999998,0.0056613359999999995,-0.12067672199999999,2.0,-1.0,0.0,11,0,0,1,0,0.0,0,0,0,0,0,0.0,0.114440557,1.56089759,1.57151937,0.94037911,268.2453715,66.32274067,3.55e-06,1.25e-05,0.0,8.190000000000001e-05,40.04439621,0.148544095,-9.853302943,11.14900516,966.1612485999999,12.404602,-0.009368719000000001,-0.007658399000000001,-0.000836095,49.04632545,0.263969622,-9.853679149,0.004986921,-0.008257206,0.006128378,11.14900516,0.947722046,0.9357220470000001,0.400598974,2.754436637,13.25460545,25.29514984,-0.24081087899999998,3.982549156,0.10999999,-55.50565179,399.6179986,12.404602,96616.29626,1.14796136,-0.40195861299999996,0.37869128399999996,-0.185483915,-0.002035014,0.0034271009999999997,0.0014961129999999999,0.0,0.0,1.6169364,0.6906071,0.0,0.0,0.7232301999999999,1.0,398714138.0,327364368.0,400123.4809,0.0,0.008269654,-0.008269654,0.016539308,4.749956151,0,0,0.602920584,787999,39.8714138,32.7364368,-0.012684696,0.341286466,-0.035112599,-0.237873852,5.519567482,0.110870392,-1.983088566,44.15323153,1.152548581,0.1,0.028513642999999998,0.04723232,-0.0026863290000000003,1.0,10342672,1,0,0,0,0
10385746,0.022947645,0.033070014,0.00500365,1.0,0.0,1501.0,1500.0,2000.0,1487.0,1512.0,1516.0,6.291243593,6.414128452999999,12.404602,8.354846323,8.35559146,8.518842076,8.221437768,8.382066677000001,97.56539378,97.56539378,12.40456279,-0.00022903599999999998,-0.005822101,0.00131488,0.025825637000000002,0.005812660999999999,-0.12076176400000001,2.0,-1.0,0.0,11,0,0,1,0,0.0,0,0,0,0,0,0.0,0.124944011,1.559977823,1.571284828,1.001539296,267.3479441,66.34318929999999,3.24e-06,1.27e-05,0.0,9.070000000000001e-05,36.57410264,0.151354545,-9.870827758999999,8.871064642999999,966.1622957999999,12.404602,0.00206623,-0.006798004,-0.002404625,44.36982964,0.205226125,-9.773938122,0.0049323990000000005,-0.009630474,0.003933097,8.871064642999999,1.062041072,1.050041072,0.40059882,2.910269267,13.25467399,25.15191897,-0.23794489,3.6174714960000003,0.10999999,-57.23298479,399.5127869,12.404602,96617.49578,1.147975592,-0.215115938,0.090251225,0.056496742,0.005744101999999999,0.005555943000000001,0.000416026,0.0,0.0,1.6169364,0.6906071,0.0,0.0,0.7232301999999999,1.0,398714138.0,327364369.1,400123.8838,0.11755151,0.010166033,0.107219439,0.02,5.49037169,0,0,0.564112823,787999,39.8714138,32.7364368,-0.024114995,0.597582838,-0.028465444,-0.308889992,7.084338485,0.151986431,-1.845106629,41.04876922,1.054269854,0.1,0.028494629,0.046989222000000004,-0.0026863290000000003,1.0,10385746,1,0,0,0,0
10421640,0.024829027000000004,0.033455206,0.003234477,1.0,0.0,1502.769554,1500.0,2000.0,1488.769554,1510.230446,1516.0,8.176004309,8.335735296000001,12.404602,9.069454302999999,9.070266578,9.247480436,8.958623407000001,9.133655311,106.4381784,106.4381784,12.40455926,-0.000178753,-0.005864645,0.0014430229999999999,0.025704195,0.005963985,-0.120846806,2.0,-1.0,0.0,11,0,0,1,0,0.0,0,0,0,0,0,0.0,0.135447466,1.559058056,1.571050285,1.062699483,266.45051659999996,66.36363793,3.14e-06,1.13e-05,0.0,0.000100927,33.34248114,0.147799828,-9.896540887999999,4.081930444,966.1609754000001,12.404602,-0.004612739,-0.00522673,-1.05e-06,40.27493835,0.168886864,-9.874282276,0.0052842259999999995,-0.010642299999999999,-0.000264886,4.081930444,1.189182771,1.177182771,0.40059882,3.0534147039999997,13.25475237,24.99744016,-0.234853746,3.3580004389999996,0.10999999,-58.610340599999994,399.59583239999995,12.404602,96616.56309,1.147964659,-0.38765476600000004,0.236637283,0.284979065,0.002328222,0.006681713000000001,0.004816010999999999,0.0,0.0,1.6169364,0.6906071,0.0,0.0,0.7232301999999999,1.0,398714138.0,327364381.4,400122.5563,1.460188038,0.012062412,1.446063151,0.02,4.733882425,0,0,0.525305061,787999,39.8714138,32.7364368,-0.037215316,0.890763141,-0.020682792,-0.374112316,8.521107012,0.18988518199999999,-1.691548286,37.46217292,0.933932808,0.1,0.028375458,0.046939071,-0.0026863290000000003,1.0,10421640,1,0,0,0,0
10463894,0.021820796,0.03346013,0.001781112,1.0,0.0,1501.0,1500.0,2000.0,1487.078616,1511.921384,1516.0,9.427124035,9.611281751,12.404602,9.784062282999999,9.784941697,9.976118796,9.695809047000001,9.885243943999999,115.31096299999999,115.31096299999999,12.40455573,-0.000128471,-0.00590719,0.0015711660000000001,0.025582753,0.00611531,-0.12093184800000001,2.0,-1.0,0.0,11,0,0,1,0,0.0,0,0,0,0,0,0.0,0.14595092,1.558138289,1.570815743,1.12385967,265.5530892,66.38408656,2.73e-06,1.15e-05,0.0,0.000112174,30.22821551,0.144210317,-9.920841302000001,-1.3900000000000002e-25,966.1607137,12.404602,0.0045173159999999995,-0.013219165,0.000742727,36.25903875,0.196898725,-9.849023128999999,0.00430327,-0.011578118,-0.0030996229999999997,-1.3900000000000002e-25,1.31632447,1.30432447,0.40059882,3.1965601410000004,13.25483074,24.84296135,-0.23176260199999998,3.0985293819999997,0.10999999,-59.987696400000004,399.4955311,12.404602,96617.7177,1.147978256,-0.530500318,-0.06940927200000001,-0.19468045,0.006604161,0.002726717,0.001760636,0.0,0.0,1.6169364,0.6906071,0.0,0.0,0.7232301999999999,1.0,398714138.0,327364393.7,400121.2288,2.802824565,0.013958792,2.7849068630000002,0.02,3.97739316,0,0,0.486497299,787999,39.8714138,32.7364368,-0.051302474,1.211280911,-0.012328243000000001,-0.437103749,9.922274387,0.226525038,-1.5422553369999998,34.00411552,0.830186745,0.1,0.02898305,0.046641485999999996,-0.0026863290000000003,1.0,10463894,1,0,0,0,0
