timestamp,control[0],control[1],control[2],control[3],control[4],output[2],output[3],output[4],output[5],output[6],output[7],indicated_airspeed_m_s,true_airspeed_m_s,indicated_airspeed_m_s.1,equivalent_airspeed_m_s,true_airspeed_m_s.1,equivalent_ground_minus_wind_m_s,true_ground_minus_wind_m_s,differential_pressure_raw_pa,differential_pressure_filtered_pa,temperature,gyro_bias[0],gyro_bias[1],gyro_bias[2],accel_bias[0],accel_bias[1],accel_bias[2],instance_count,seq_reached,seq_current,seq_total,item_changed_index,item_do_jump_remaining,valid,warning,finished,failure,stay_in_failsafe,flight_termination,item_do_jump_changed,execution_mode,nav_roll,nav_pitch,nav_bearing,target_bearing,xtrack_error,wp_dist,acceptance_radius,rollspeed_integ,pitchspeed_integ,yawspeed_integ,additional_integ1,x,y,z,temperature.1,pressure,temperature.2,gyro_rad[0],gyro_rad[1],gyro_rad[2],accelerometer_m_s2[0],accelerometer_m_s2[1],accelerometer_m_s2[2],x.1,y.1,z.1,temperature.3,altitude_sp,altitude_filtered,height_rate_setpoint,height_rate,airspeed_sp,airspeed_filtered,airspeed_derivative_sp,airspeed_derivative,throttle_integ,pitch_integ,baro_alt_meter,baro_temp_celcius,baro_pressure_pa,rho,xyz[0],xyz[1],xyz[2],xyz[0].1,xyz[1].1,xyz[2].1,roll_body,pitch_body,yaw_body,q_d[0],q_d[1],q_d[2],q_d[3],thrust_body[0],lat,lon,alt,vel_m_s,vel_n_m_s,vel_e_m_s,vel_d_m_s,cog_rad,ground_contact,maybe_landed,landed,ref_lat,ref_lon,x.2,y.2,z.2,vx,vy,vz,ax,ay,az,yaw,dist_bottom,roll,pitch,yaw.1,thrust_body[0].1,timestamp.1,isTakeoff,isClimbing,isDescending,isCruise,isLand
33000000,0.0,0.0,0.0,0.5,0.5,900.0,900.0,900.0,900.0,900.0,900.0,-0.62036705,-0.63248456,0.59011465,0.59011465,0.60164124,0.048542835,0.04949101,0.21329413,0.21329413,12.404602,-0.001369733,-0.00574472,0.000530458,0.022402955,0.003651142,-0.097823836,2.0,-1.0,0.0,11,0,0,1,0,0.0,0,0,0,0,0,0.008008662,0.0,2.2651038,1.597891,-0.17724179999999998,,0.28647888,4.65e-06,4.15e-06,-3.22e-06,0.0,-0.14561065,0.24957761,-9.771596,-6.64e-34,966.18164,12.404602,-0.00024082,-0.004164421,-0.001567773,-0.09451174,0.15214983,-9.944138,-0.002175978,-0.002861468,-0.00217294,-6.64e-34,-0.18708567,-0.19908568,0.40060034,0.188378,13.253957999999999,25.785017,-0.25062117,8.144163,0.10999999,-37.8736,399.56427,12.404602,96616.86,1.1479682,0.36868906,0.15161423,0.15694056,-0.000186205,0.004130454,-0.00388481,0.008008662,0.0,2.2651038,0.42434700000000003,0.001699235,0.003625904,0.90549076,0.15,398714138.0,327364372.0,400131.0,0.0,0.02,0.02,-0.049999997000000004,0.8356636000000001,0,0,1.0,39.871413700000005,32.7364371,0.037373297,-0.020362647,-0.027875967,0.028744135,-0.038798727000000005,0.010853265,0.0012916569999999999,0.015892081000000002,-0.06428267,1.5977963,0.102481276,0.039471067,0.023486682999999998,-0.007392035,0.15,33000000,1,0,0,0,0
33048218,0.0,0.0,0.0,0.5,0.5,900.0,900.0,900.0,900.0,900.0,900.0,1.019497547,1.03941961,0.61776344,0.61776344,0.629830153,0.048525955,0.049473803,0.24382477100000002,0.24382477100000002,12.404602,-0.001370422,-0.005743872,0.0005284490000000001,0.022434423999999998,0.0036798459999999996,-0.097753022,2.0,-1.0,0.0,11,0,0,1,0,0.0,0,0,0,0,0,0.007300555,0.0,1.789608255,1.732300291,-0.362939864,,3.440507955,4.05e-06,5.47e-06,-1.87e-06,0.0,-0.105258917,0.231541708,-9.80902667,-6.64e-34,966.1714924,12.404602,0.00252474,-0.004546611,-0.001587264,-0.16553337099999998,0.16673917800000002,-9.856869498,-0.001005993,-0.00329269,0.00013207600000000001,-6.64e-34,-0.14627172900000002,-0.158271744,0.40060028299999995,0.35297569700000003,13.25397708,25.75012719,-0.24992299199999998,7.58266364,0.10999999,-40.06938723,399.6407877,12.404602,96616.02916,1.147958205,0.223778466,0.27429145899999996,0.759479557,0.0037256990000000003,0.0067165309999999995,-0.0023222679999999997,0.001262418,0.0,1.703138564,0.654384689,0.00026785299999999997,0.000571557,0.746418571,0.023644729,398714138.0,327364372.0,400128.3859,0.0,0.013464693,0.015643129,-0.049999997000000004,1.396205361,0,0,1.0,39.871413700000005,32.7364371,0.037477632999999996,-0.020716155,-0.028645836,0.028272596,-0.038822876,0.010444146999999999,0.02331563,0.0045907809999999995,-0.041172094,1.597838488,0.10267488699999999,0.027979492,0.023538936,-0.007393627,0.0,33048218,1,0,0,0,0
33088437,0.0,0.0,0.0,0.5,0.5,900.0,900.0,900.0,900.0,900.0,900.0,0.5435938220000001,0.554212464,0.64541223,0.64541223,0.658019067,0.048509075,0.049456596,0.274355413,0.274355413,12.404602,-0.001371112,-0.005743023000000001,0.000526441,0.022465892999999997,0.0037085509999999996,-0.097682207,2.0,-1.0,0.0,11,0,0,1,0,0.0,0,0,0,0,0,0.0065924469999999995,0.0,1.31411271,1.866709582,-0.548637928,,6.59453703,3.91e-06,5.62e-06,-1.96e-06,0.0,-0.064907185,0.213505807,-9.84645734,-6.64e-34,966.1613448999999,12.404602,0.00170026,-0.00461508,0.004449296,-0.059623573,0.213185772,-9.917114737,0.000163991,-0.0037239129999999997,0.002437093,-6.64e-34,-0.10545778800000001,-0.11745780900000001,0.40060022700000003,0.517573394,13.25399616,25.71523738,-0.249224814,7.02116428,0.10999999,-42.26517446,399.66632230000005,12.404602,96615.72188,1.147954633,-0.11074963199999999,-0.063162507,0.016897543,0.0007487,0.0074708990000000005,0.00172616,0.0,0.0,1.5979786,0.6974314,0.0,0.0,0.71665156,1.0,398714138.0,327364372.0,400125.7718,0.0,0.006929386,0.011286257,-0.049999997000000004,1.956747122,0,0,1.0,39.871413700000005,32.7364371,0.037581968,-0.021069663,-0.029415706,0.027801057,-0.038847024,0.010035029,0.045339604000000006,-0.006710518,-0.018061518999999998,1.5978806769999998,0.102868498,0.028150438,0.023651146,-0.007393627,1.0,33088437,1,0,0,0,0
33132655,0.0,0.0,0.0,0.5,0.5,900.0,900.0,900.0,900.0,900.0,900.0,-0.011268031000000001,-0.011483198,0.67306102,0.67306102,0.68620798,0.048492195,0.04943938900000001,0.30488605399999996,0.30488605399999996,12.404602,-0.001371801,-0.005742175,0.000524432,0.022497362000000003,0.003737255,-0.097611393,2.0,-1.0,0.0,11,0,0,1,0,0.0,0,0,0,0,0,0.00588434,0.0,0.838617165,2.0011188730000002,-0.734335992,,9.748566104,3.41e-06,6.45e-06,0.0,0.0,-0.089396604,0.200047969,-9.851643225,-6.64e-34,966.1583673,12.404602,-0.005808425999999999,-0.0049506179999999995,0.000492985,-0.10046298099999999,0.29281990199999997,-9.944919449,0.001950114,-0.004184815,0.0009070980000000001,-6.64e-34,-0.06464384599999999,-0.076643873,0.40060017,0.682171091,13.25401524,25.68034756,-0.248526637,6.45966492,0.10999999,-44.46096169,399.6150513,12.404602,96616.3169,1.147961732,0.661853107,0.12206432199999999,0.18079778100000002,-0.002956385,0.006917232,-0.004844124,0.0,0.0,1.5979786,0.6974314,0.0,0.0,0.71665156,1.0,398714138.0,327364372.0,400123.1576,0.0,0.00039407900000000003,0.006929386,-0.049999997000000004,2.517288882,0,0,1.0,39.871413700000005,32.7364371,0.037753552999999995,-0.021352542999999998,-0.029786212000000003,0.027187502000000002,-0.039349077999999996,0.00916694,0.047785503,-0.001707011,-0.005222114,1.597903694,0.104269295,0.028160611000000002,0.023521279,-0.007393627,1.0,33132655,1,0,0,0,0
33176874,0.0,0.0,0.0,0.5,0.5,900.0,900.0,900.0,900.0,900.0,900.0,-1.050127968,-1.070646983,0.70070981,0.70070981,0.7143968940000001,0.048475315,0.049422182,0.335416695,0.335416695,12.404602,-0.001372491,-0.005741326999999999,0.000522423,0.022528832000000002,0.00376596,-0.097540578,2.0,-1.0,0.0,11,0,0,1,0,0.0,0,0,0,0,0,0.005176233,0.0,0.363121619,2.135528164,-0.920034056,,12.90259518,3.24e-06,5.02e-06,0.0,0.0,-0.135590664,0.18812257100000002,-9.846035633,-6.64e-34,966.1577897,12.404602,0.00308023,-0.006642436,-0.007763234,-0.11520314,0.181705489,-9.901818431,0.00394248,-0.004655653,-0.001906612,-6.64e-34,-0.023829905,-0.035829938,0.400600113,0.846768788,13.25403432,25.64545775,-0.24782845899999997,5.898165561,0.10999999,-46.65674892,399.56728599999997,12.404602,96616.88991,1.147968435,0.279589947,0.481184313,-0.06391116200000001,-0.0026765820000000003,0.004169416,0.0014303929999999999,0.0,0.0,1.5979786,0.6974314,0.0,0.0,0.71665156,1.0,398714138.0,327364372.0,400120.5435,0.0,-0.006141228,0.002572515,-0.049999997000000004,3.077830643,0,0,1.0,39.871413700000005,32.7364371,0.03794777,-0.021611653999999998,-0.030022315,0.026526152,-0.040011969,0.008144388,0.043642514,0.008783784000000001,0.004160586,1.597920258,0.106076364,0.028109257999999998,0.02362112,-0.007393627,1.0,33176874,1,0,0,0,0
33217092,0.0,0.0,0.0,0.5,0.5,900.0,900.0,900.0,900.0,900.0,900.0,0.36499813200000003,0.37212888299999997,0.7283586,0.7283586,0.742585807,0.048458435,0.049404974000000004,0.365947336,0.365947336,12.404602,-0.00137318,-0.005740479000000001,0.000520414,0.022560301,0.003794664,-0.097469764,2.0,-1.0,0.0,11,0,0,1,0,0.0,0,0,0,0,0,0.004468125,0.0,-0.112373926,2.269937455,-1.105732119,,16.05662425,2.93e-06,5.27e-06,0.0,-9.25e-06,-0.162552774,0.16977868699999998,-9.872325208,-6.64e-34,966.1577879,12.404602,0.001635346,-0.00587768,-0.003887905,-0.074732885,0.21817108300000002,-9.912930037,0.004556,-0.004523721,-0.001079659,-6.64e-34,0.026643541,0.014643508000000001,0.400600058,0.9923184420000001,13.25407685,25.57712763,-0.246461006,5.412476756,0.10999999,-48.68508081,399.60375089999997,12.404602,96616.44099,1.147963217,0.31547153,-0.240306057,-0.38512646700000003,0.004912774,0.004770956,-0.000504179,0.0,0.0,1.5979786,0.6974314,0.0,0.0,0.71665156,1.0,398714138.0,327364372.0,400118.7323,0.0,-0.01,0.001784357,-0.044646927,3.297201916,0,0,1.0,39.871413700000005,32.7364371,0.038059606,-0.021894522000000003,-0.030519464,0.026185505,-0.040561036,0.007450959,0.026841031,-0.0038865609999999997,0.014305787,1.5979353019999998,0.10587667699999999,0.028149389,0.023632273999999998,-0.007393627,1.0,33217092,1,0,0,0,0
33257311,0.0,0.0,0.0,0.5,0.5,900.0,900.0,900.0,900.0,900.0,900.0,-0.7053391259999999,-0.719122513,0.75600739,0.75600739,0.77077472,0.048441555,0.049387767,0.39647797799999995,0.39647797799999995,12.404602,-0.00137387,-0.00573963,0.000518406,0.02259177,0.003823369,-0.097398949,2.0,-1.0,0.0,11,0,0,1,0,0.0,0,0,0,0,0,0.003760018,0.0,-0.587869471,2.404346746,-1.291430183,,19.21065333,3.16e-06,5.3e-06,0.0,-1.6899999999999997e-05,-0.170161323,0.144975728,-9.93071365,-6.64e-34,966.1583655,12.404602,-0.000947118,-0.011059427,0.005011695,-0.126600871,0.16941730600000002,-9.834615151,0.003781955,-0.0037852059999999997,0.003410977,-6.64e-34,0.090803069,0.078803044,0.400600006,1.110879851,13.25415262,25.46141756,-0.244145289,5.034200248,0.10999999,-50.47615338,399.65053739999996,12.404602,96615.92278,1.147957002,0.33982684799999996,0.36798519399999996,-0.426634034,0.000691167,0.008737535,-0.003622615,0.0,0.0,1.5979786,0.6974314,0.0,0.0,0.71665156,1.0,398714138.0,327364372.0,400118.0788,0.0,-0.01,0.006141228,-0.031576312999999995,3.024706319,0,0,1.0,39.871413700000005,32.7364371,0.038087866,-0.022201491,-0.031281447999999996,0.026170217000000003,-0.040994627,0.007091431,-0.002802735,-0.040054325,0.02522456,1.597948802,0.103641098,0.028048012,0.023498867000000003,-0.007393627,1.0,33257311,1,0,0,0,0
33305529,0.007877832,0.006283378,0.00030228,0.308861772,0.496177235,900.0,900.0,900.0,900.0,900.0,900.0,0.904979575,0.922659111,0.78365618,0.78365618,0.798963634,0.048424675,0.04937056,0.427008619,0.427008619,12.404602,-0.001374559,-0.0057387819999999996,0.0005163969999999999,0.022623239,0.0038520729999999997,-0.097328135,2.0,-1.0,0.0,11,0,0,1,0,0.0,0,0,0,0,0,0.0030519109999999996,0.0,-1.0633650159999999,2.5387560369999997,-1.4771282469999998,,22.3646824,3.28e-06,4.82e-06,0.0,-2.7300000000000003e-05,-0.17936324399999998,0.14503081,-9.974598771,-6.64e-34,966.1594997000001,12.404602,0.0016391939999999999,-0.003870389,0.001292711,-0.13098343099999998,0.21560432100000002,-9.869920755,0.002828259,-0.0036072290000000004,0.006572843,-6.64e-34,0.15496259699999998,0.14296258,0.400599954,1.2294412590000001,13.25422839,25.34570748,-0.241829572,4.6559237389999995,0.10999999,-52.26722594,399.5775859,12.404602,96616.74002000001,1.1479666240000002,-0.229956178,-0.09364208199999999,0.464970905,0.001602198,0.00319648,-0.00132258,0.0,0.0,1.5979786,0.6974314,0.0,0.0,0.71665156,1.0,398714138.0,327364372.0,400117.4253,0.0,-0.01,0.010498100000000002,-0.0185057,2.752210722,0,0,1.0,39.871413700000005,32.7364371,0.038077359,-0.022508167000000003,-0.032121969,0.025950986000000002,-0.041495455,0.006577976,-0.023329577999999997,-0.06763361,0.023738765,1.597952993,0.101999656,0.027822566,0.023741567,-0.007393627,1.0,33305529,1,0,0,0,0
33347495,0.032273501,0.015533813999999998,-0.005699931,0.15,0.39126235200000004,900.0,900.0,900.0,900.0,900.0,900.0,-0.662320059,-0.6752607279999999,0.81130497,0.81130497,0.8271525470000001,0.048407795,0.049353352999999996,0.45753926,0.45753926,12.404602,-0.001375248,-0.005737934,0.0005143880000000001,0.022654708,0.003880778,-0.09725732,2.0,-1.0,0.0,11,0,0,1,0,0.0,0,0,0,0,0,0.0023438029999999998,0.0,-1.538860561,2.673165328,-1.662826311,,25.51871148,3.16e-06,4.77e-06,0.0,-3.09e-05,-0.193406117,0.22060913899999998,-9.974420167,-6.64e-34,966.1623254000001,12.404602,-9.37e-05,-0.008809771,-0.0029349370000000003,-0.07172698599999999,0.219391363,-9.928156699,0.001328755,-0.005132263,0.005697661999999999,-6.64e-34,0.219122125,0.20712211600000002,0.40059990100000004,1.3480026680000001,13.25430416,25.22999741,-0.239513855,4.27764723,0.10999999,-54.0582985,399.6240512,12.404602,96616.1835,1.147960069,0.29545322399999996,-0.666044445,0.146046277,0.002027793,0.002853584,0.001084818,0.0,0.0,1.5979786,0.6974314,0.0,0.0,0.71665156,1.0,398714138.0,327364372.0,400116.7718,0.0,-0.01,0.014854971000000002,-0.0054350859999999996,2.479715125,0,0,1.0,39.871413700000005,32.7364371,0.037947128999999996,-0.022813933999999998,-0.033205041,0.025101901,-0.042203937999999996,0.005589131,-0.015699735,-0.068688255,-0.016057268,1.597928435,0.10219314300000001,0.027799407999999998,0.023736342999999997,-0.007393627,1.0,33347495,1,0,0,0,0
33389966,0.031327167999999996,0.015706923,-0.005212114,0.15,0.285085217,900.0,900.0,900.0,900.0,900.0,900.0,0.9115992629999999,0.92940328,0.838953759,0.838953759,0.855341461,0.048390915,0.049336146,0.48806990100000003,0.48806990100000003,12.404602,-0.001375938,-0.005737085,0.000512379,0.022686177000000002,0.003909482,-0.09718650599999999,2.0,-1.0,0.0,11,0,0,1,0,0.0,0,0,0,0,0,0.001635696,0.0,-2.014356106,2.80757462,-1.848524375,,28.67274055,3.01e-06,6.03e-06,0.0,-3.3799999999999995e-05,-0.20744899100000003,0.296187467,-9.974241563,-6.64e-34,966.1651511,12.404602,-0.002935425,-0.0051645729999999996,0.003224184,-0.056953730999999994,0.198811037,-9.813174253,-0.00017074900000000001,-0.006657296,0.004822481,-6.64e-34,0.283281653,0.271281652,0.400599849,1.466564076,13.25437993,25.11428733,-0.237198138,3.899370722,0.10999999,-55.84937106,399.55515299999996,12.404602,96617.04035,1.1479701979999999,-0.046001225,-0.029472606000000002,0.34684352799999996,-6.709999999999999e-05,0.005039545,0.000863833,0.0,0.0,1.5979786,0.6974314,0.0,0.0,0.71665156,1.0,398714138.0,327364372.0,400116.1182,0.0,-0.01,0.019211842,0.007635527,2.207219528,0,0,1.0,39.871413700000005,32.7364371,0.037816899,-0.023119701,-0.034288114,0.024252816,-0.042912421,0.0046002859999999994,-0.008069893,-0.069742899,-0.055853302,1.5979038769999998,0.10238663,0.027674751,0.023836936,-0.007393627,1.0,33389966,1,0,0,0,0
33438184,0.033580735,0.016202263,-0.005472967,0.15,0.164539102,900.0,900.0,900.0,900.0,900.0,900.0,-0.154549231,-0.157567704,0.8666025490000001,0.8666025490000001,0.883530374,0.048374035,0.049318939000000006,0.518600543,0.518600543,12.404602,-0.001376627,-0.005736237,0.000510371,0.022717646,0.003938187,-0.09711569099999999,2.0,-1.0,0.0,11,0,0,1,0,0.0,0,0,0,0,0,0.0009275889999999999,0.0,-2.489851651,2.9419839110000003,-2.034222439,,31.82676963,2.86e-06,5.1e-06,0.0,-4.04e-05,-0.180344096,0.26075774,-9.940496876000001,-6.64e-34,966.1679236,12.404602,0.000383769,-0.007571854,0.0038210740000000003,-0.118526409,0.208440405,-9.889511522000001,-0.006023501999999999,-0.0067570880000000005,-0.0021781879999999997,5.493856537,0.367481622,0.35548162200000005,0.40060002200000006,1.5996614519999999,13.25442945,24.9816971,-0.234545347,3.594158559,0.10999999,-57.46510486,399.5875145,12.404602,96616.6163,1.1479652679999999,0.56852741,0.010617918999999998,0.461745604,-0.000522519,0.003059886,-0.001474021,0.0,0.0,1.5979786,0.6974314,0.0,0.0,0.71665156,1.0,398714137.8,327364371.8,400116.7137,0.0,-0.008215643,0.016431286,0.004646929,2.7703191260000004,0,0,1.0,39.871413700000005,32.7364371,0.037530895,-0.023320955,-0.035524993,0.023766992999999997,-0.043806504,0.004479297,0.02154457,-0.038139515,-0.033494618999999996,1.597893868,0.102452745,0.027768533999999997,0.023832634,-0.007393627,1.0,33438184,1,0,0,0,0
33478403,0.031318575,0.015799665,-0.005392769,0.15,0.063992989,900.0,900.0,900.0,900.0,900.0,900.0,-0.43013632,-0.438541786,0.8942513390000001,0.8942513390000001,0.911719287,0.048357155,0.049301732,0.5491311839999999,0.5491311839999999,12.404602,-0.001377317,-0.0057353890000000005,0.0005083619999999999,0.022749116,0.003966891,-0.09704487699999999,2.0,-1.0,0.0,11,0,0,1,0,0.0,0,0,0,0,0,0.000219481,0.0,-2.965347197,3.0763932019999998,-2.219920503,,34.9807987,2.49e-06,4.4e-06,0.0,-6.14e-05,-0.153109105,0.224977039,-9.906646064,-6.64e-34,966.1706960000001,12.404602,-0.003400378,-0.0034522570000000002,0.003043819,-0.090963774,0.206940878,-9.915095206,-0.01189002,-0.006852373,-0.009198223,11.00508299,0.455858534,0.44385853399999997,0.40060024200000005,1.735788497,13.25447349,24.84558861,-0.2318223,3.304174885,0.10999999,-59.04429354,399.608136,12.404602,96616.41052,1.147962771,-0.443517541,-0.11294727199999999,0.697172138,0.0018256,0.008830113,-0.002229926,0.0,0.0,1.5979786,0.6974314,0.0,0.0,0.71665156,1.0,398714137.6,327364371.6,400117.5851,0.0,-0.006037206999999999,0.012074415,-0.0018883779999999998,3.517961609,0,0,1.0,39.871413700000005,32.7364371,0.03724376,-0.02352145,-0.036762987999999996,0.023283807000000004,-0.044701935,0.004364609,0.05131863,-0.006299049,-0.010684721999999999,1.597883965,0.102517935,0.027771193,-0.069634885,-0.007393627,1.0,33478403,1,0,0,0,0
33518621,0.03213238,0.016109479,-0.0060182180000000005,0.15,0.0,900.0,900.0,900.0,900.0,900.0,900.0,-0.869393564,-0.886375183,0.9219001290000001,0.9219001290000001,0.9399082009999999,0.048340275,0.049284525,0.579661825,0.579661825,12.404602,-0.001378006,-0.005734541,0.0005063530000000001,0.022780585,0.003995595,-0.09697406199999999,2.0,-1.0,0.0,11,0,0,1,0,0.0,0,0,0,0,0,0.0,-0.01378412,-3.1053862430000003,2.7372905110000003,-2.8125507260000004,207.387973,37.45374038,2.99e-06,4.77e-06,0.0,-0.00016634200000000001,-0.139177722,0.204699395,-9.892699803,-6.64e-34,966.1685162,12.404602,-0.003529255,-0.009534582,0.006587313000000001,-0.08564605800000001,0.19472804300000002,-9.882183564,-0.011693324,-0.00538897,-0.00350729,8.292894556,0.5442354460000001,0.5322354460000001,0.40060046299999996,1.871915543,13.25451754,24.70948012,-0.22909925399999997,3.01419121,0.10999999,-60.62348223,399.64101739999995,12.404602,96616.02556000001,1.147958199,0.758608306,-0.330743477,-0.145481392,0.001941512,0.002840295,-0.000602014,0.0,-0.396035846,1.5979786,0.68380084,0.14098391400000002,-0.137202819,0.702645373,1.0,398714137.4,327364371.4,400118.4565,0.0,-0.0038587720000000003,0.007717544000000001,-0.008423685,4.265604091,0,0,1.0,39.871413700000005,32.7364371,0.036879195,-0.023648726000000002,-0.037861561,0.022764396,-0.044569029,0.0045685479999999995,0.049167050999999996,-0.002270373,-0.005793915,1.5979074290000002,0.10300305400000001,0.023469032,-0.710288062,-0.007393627,1.0,33518621,1,0,0,0,0
33558840,0.031034698,0.016477871,-0.005942202,0.15,0.0,900.0,900.0,900.0,900.0,900.0,900.0,-0.9706136479999999,-0.9895853920000001,0.949548919,0.949548919,0.9680971140000001,0.048323395,0.049267318,0.610192466,0.610192466,12.404602,-0.001378696,-0.0057336919999999994,0.000504344,0.022812054,0.004024300000000001,-0.09690324800000001,2.0,-1.0,0.0,11,0,0,1,0,0.0,0,0,0,0,0,0.0,-0.033759796,-3.09474483,2.185495554,-3.58796687,207.3728624,39.62075099,5.05e-06,-0.000296777,0.0,-0.000465774,-0.129774544,0.18969859,-9.885528536,-6.64e-34,966.1646509,12.404602,0.001172732,-0.004264201,-0.004802796,-0.13280116,0.151351462,-9.908514601,-0.009432867,-0.0033950290000000004,0.0065101280000000004,2.781668102,0.6326123579999999,0.6206123579999999,0.40060068299999996,2.008042588,13.25456158,24.57337163,-0.226376208,2.724207536,0.10999999,-62.20267091,399.59614730000004,12.404602,96616.54707999999,1.147964308,0.33782632100000004,0.112046256,-0.286578974,0.002710367,0.009631654,-0.008814245,0.0,-0.37078571200000005,1.5979786,0.685479383,0.132102162,-0.128559246,0.704370188,1.0,398714137.2,327364371.2,400119.3279,0.0,-0.0016803360000000002,0.0033606720000000003,-0.014958991999999999,5.013246574,0,0,1.0,39.871413700000005,32.7364371,0.036487565,-0.023750409,-0.038911401,0.022232321,-0.044076673,0.004883862,0.035856053,-0.007963144,-0.00716662,1.5979425569999999,0.10363495699999999,0.014238229,-0.654263443,-0.007393627,1.0,33558840,1,0,0,0,0
33607058,0.033349392,0.01645715,-0.006135334,0.15,0.0,900.0,900.0,900.0,900.0,900.0,900.0,1.3845495509999999,1.411596064,0.977197709,0.977197709,0.996286028,0.048306514,0.04925011,0.640723108,0.640723108,12.404602,-0.001379385,-0.005732844,0.000502336,0.022843522999999998,0.004053004,-0.09683243300000001,2.0,-1.0,0.0,11,0,0,1,0,0.0,0,0,0,0,0,0.0,-0.053735472,-3.0841034169999997,1.6337005969999998,-4.363383014,207.3577519,41.78776161,-8.17e-06,-0.001750662,0.0,-0.000867919,-0.132623975,0.165255405,-9.89270788,-6.64e-34,966.1638662,12.404602,-0.000457735,-0.001441561,0.0008493589999999999,-0.203723741,0.21586272399999998,-9.880375022,-0.004475664,-0.0024890999999999997,0.009612723,-6.64e-34,0.7316323690000001,0.719632369,0.400600743,2.1490122680000003,13.2546041,24.43600281,-0.22362798399999997,2.447893354,0.10999999,-63.77084022,399.57084580000003,12.404602,96616.83873999999,1.147967901,0.10427287699999999,0.488055821,-0.46992111700000005,-0.001633563,0.0075443030000000005,6.26e-05,0.0,-0.34813524100000004,1.5979786,0.686890095,0.124116465,-0.12078773599999999,0.70581979,1.0,398714137.0,327364371.0,400119.9502,0.0,0.0,0.0,-0.019003801,5.5084913,0,0,1.0,39.871413700000005,32.7364371,0.036120565,-0.023924497000000003,-0.039866405,0.021737716,-0.04440372099999999,0.005009643,0.022419988,-0.014864726000000002,0.008357537,1.597962586,0.10389382300000001,0.0036427829999999997,-0.605067658,-0.007393627,1.0,33607058,1,0,0,0,0
33647277,0.029087005,0.015924811,-0.005747483,0.15,0.0,900.0,900.0,900.0,900.0,900.0,900.0,0.55666241,0.567539095,1.0048464990000001,1.0048464990000001,1.024474941,0.048289634000000005,0.049232903,0.671253749,0.671253749,12.404602,-0.001380074,-0.005731996,0.000500327,0.022874992,0.004081709,-0.09676161900000001,2.0,-1.0,0.0,11,0,0,1,0,0.0,0,0,0,0,0,0.0,-0.073711148,-3.0734620039999996,1.0819056390000001,-5.138799157,207.34264130000003,43.95477222,-9.640000000000001e-05,-0.0029349640000000004,0.0,-0.0015308879999999998,-0.147959929,0.131189577,-9.9145118,-6.64e-34,966.1662210000001,12.404602,-0.0065601209999999995,-0.00620482,0.0008269089999999999,-0.15086675800000002,0.23757961800000002,-9.856189059,0.00322977,-0.002691953,0.0056684840000000005,-6.64e-34,0.8641194590000001,0.8521194590000001,0.400600301,2.305209552,13.25464182,24.29467086,-0.22080058800000002,2.2145627080000003,0.10999999,-65.30435924,399.61190849999997,12.404602,96616.35717999999,1.147962158,-0.5075570189999999,-0.7372936309999999,0.026949266,0.003921266,0.008593385,-0.001626765,0.0,-0.32742415399999997,1.5979786,0.688103745,0.116800744,-0.11366821099999999,0.7070668459999999,1.0,398714137.3,327364371.3,400119.7323,0.0,0.0,0.0,-0.014646929,5.152273714,0,0,1.0,39.871413700000005,32.7364371,0.035779285,-0.024174189,-0.040722381,0.021282235,-0.045586389000000005,0.0049375140000000005,0.008853328,-0.023028548,0.041525377,1.597966849,0.103763163,-0.007010625,-0.548532522,-0.007393627,1.0,33647277,1,0,0,0,0
33702990,0.03053059,0.016256832,-0.005829308,0.15,0.0,900.0,900.0,900.0,900.0,900.0,900.0,-0.8629461159999999,-0.879807399,1.032495289,1.032495289,1.052663855,0.048272754,0.049215695999999996,0.70178439,0.70178439,12.404602,-0.001380764,-0.005731147,0.000498318,0.022906461,0.004110413,-0.096690804,2.0,-1.0,0.0,11,0,0,1,0,0.0,0,0,0,0,0,0.0,-0.093686824,-3.0628205910000004,0.530110682,-5.9142153010000005,207.32753069999998,46.12178284,-0.000244874,-0.0038034320000000003,0.0,-0.002391774,-0.156143076,0.116455852,-9.927069187,-6.64e-34,966.1699986,12.404602,-0.001900166,-0.001897663,-0.001737163,-0.061185274000000005,0.195931148,-9.935671734,0.0065785240000000005,-0.003182424,0.001529426,-6.64e-34,0.99660655,0.98460655,0.400599858,2.461406835,13.25467954,24.15333892,-0.217973193,1.981232062,0.10999999,-66.83787825,399.5226717,12.404602,96617.39386,1.147974538,0.31555805800000003,-0.315751347,0.293783138,-0.000284862,0.007516500000000001,-0.003720996,0.0,-0.308318356,1.5979786,0.689158398,0.110041006,-0.10708976699999999,0.708150572,1.0,398714137.5,327364371.5,400119.5145,0.0,0.0,0.0,-0.010290058000000001,4.796056129,0,0,1.0,39.871413700000005,32.7364371,0.035422492,-0.024417899,-0.04163009,0.020991341,-0.046335127000000004,0.00473764,-0.008389367,-0.032052607000000004,0.061442707,1.597962415,0.10361902099999999,-0.019840321,-0.502992542,-0.007393627,1.0,33702990,1,0,0,0,0
33743714,0.031787496,0.016033329,-0.005247300999999999,0.15,0.0,900.0,900.0,900.0,900.0,900.0,900.0,-0.107216525,-0.109309734,1.060144079,1.060144079,1.080852768,0.048255874000000004,0.049198489000000005,0.732315031,0.732315031,12.404602,-0.001381453,-0.005730299,0.000496309,0.02293793,0.004139118,-0.09661999,2.0,-1.0,0.0,11,0,0,1,0,0.0,0,0,0,0,0,0.0,-0.113662499,-3.0521791780000003,-0.021684276000000002,-6.689631445,207.3124201,48.28879345,-0.000407523,-0.004575092,0.0,-0.003384841,-0.142222337,0.161462955,-9.911052574,-6.64e-34,966.1781735999999,12.404602,-0.0013074710000000002,-0.010774586000000001,-8.159999999999999e-05,-0.1225463,0.194532255,-9.854408182,-0.0035359000000000002,-0.004561701,-0.003211668,-6.64e-34,1.1290936409999999,1.1170936409999999,0.400599415,2.617604119,13.25471727,24.01200698,-0.215145797,1.747901416,0.10999999,-68.37139727,399.5291373,12.404602,96617.30639,1.147973463,-0.016364228999999997,0.11658988599999999,-0.23726340899999998,0.002049487,0.0042546170000000005,-0.000951334,0.0,-0.29052581899999996,1.5979786,0.6900843409999999,0.103736914,-0.10095475400000001,0.70910204,1.0,398714137.7,327364371.7,400119.2967,0.0,0.0,0.0,-0.0059331869999999995,4.4398385430000005,0,0,1.0,39.871413700000005,32.7364371,0.035015865,-0.024642391,-0.042703988,0.021229182000000003,-0.045689854,0.004127378,-0.03744141,-0.043840198,0.038792457,1.597930041,0.103431569,-0.031961691,-0.47826715799999997,-0.007393627,1.0,33743714,1,0,0,0,0
33783932,0.031357273,0.016110733000000002,-0.0055817409999999994,0.15,0.0,900.0,900.0,900.0,900.0,900.0,900.0,-1.271705117,-1.2965521420000001,1.087792869,1.087792869,1.109041681,0.048238994,0.049181282,0.762845673,0.762845673,12.404602,-0.001382143,-0.005729451,0.0004943009999999999,0.0229694,0.004167822,-0.096549175,2.0,-1.0,0.0,11,0,0,1,0,0.0,0,0,0,0,0,0.0,-0.133638175,-3.041537765,-0.5734792329999999,-7.465047589,207.29730949999998,50.45580407,-0.000575487,-0.005427114,0.0,-0.004471006,-0.12830159900000002,0.20647005899999998,-9.89503596,-6.64e-34,966.1863484999999,12.404602,0.0017042370000000002,-0.008160322,-0.007116531999999999,-0.10845201199999999,0.268665119,-9.879468934,-0.013650325,-0.005940978,-0.007952762,-6.64e-34,1.261580731,1.249580731,0.40059897299999997,2.7738014019999997,13.25475499,23.87067504,-0.212318402,1.51457077,0.10999999,-69.90491628,399.4696963,12.404602,96618.00662999999,1.14798178,0.9424312359999999,0.435001866,0.532657945,-0.002113509,0.005303539,-0.0039674720000000005,0.0,-0.27378786899999996,1.5979786,0.6909057590000001,0.097798999,-0.095176089,0.709946105,1.0,398714137.9,327364371.9,400119.0788,0.0,0.0,0.0,-0.001576315,4.083620957,0,0,1.0,39.871413700000005,32.7364371,0.034609237,-0.024866884,-0.043777885,0.021467023999999998,-0.04504458099999999,0.003517117,-0.06649345200000001,-0.055627789000000004,0.016142208,1.5978976669999998,0.103244116,-0.04891954900000001,-0.446698036,-0.007393627,1.0,33783932,1,0,0,0,0
33824301,0.032255382,0.015917361,-0.005587747,0.15,0.0,900.0,900.0,900.0,900.0,900.0,900.0,1.260303815,1.2849230759999999,1.115441659,1.115441659,1.137230595,0.048222114,0.049164075,0.7933763140000001,0.7933763140000001,12.404602,-0.001382832,-0.0057286030000000005,0.000492292,0.023000869,0.004196527,-0.096478361,2.0,-1.0,0.0,11,0,0,1,0,0.0,0,0,0,0,0,0.0,-0.153613851,-3.030896352,-1.12527419,-8.240463733,207.2821989,52.62281468,-0.000739218,-0.006350382,0.0,-0.0053644140000000005,-0.130133905,0.185140303,-9.892780537,-6.64e-34,966.1797777,12.404602,-0.0015374470000000002,-0.001473775,0.002935253,-0.089412008,0.18282324,-9.869472911,-0.009933655999999999,-0.002363099,-0.0022111270000000002,-6.64e-34,1.402089902,1.390089902,0.40059882,2.912068802,13.25484213,23.75510708,-0.210005298,1.3374892040000002,0.10999999,-71.20348031,399.57010269999995,12.404602,96616.80941,1.14796758,-0.34850902,-0.215616977,0.20550047100000002,-0.000533964,0.008617634,-0.0016454220000000001,0.0,-0.25794103399999996,1.5979786,0.691639131,0.09217090800000001,-0.08969894,0.7106996520000001,1.0,398714138.0,327364372.0,400118.7219,0.0,0.0,0.0,0.008341668,4.067379256000001,0,0,1.0,39.871413700000005,32.7364371,0.034321582999999996,-0.025179766,-0.044771247,0.021025927000000003,-0.04525363,0.002725047,-0.015107018,-0.051759941,0.018773061,1.597857721,0.103935685,-0.066644838,-0.422487809,-0.007393627,1.0,33824301,1,0,0,0,0
33868369,0.030903457000000002,0.016417446000000002,-0.005738055,0.15,0.0,900.0,900.0,900.0,900.0,900.0,900.0,-0.7906042529999999,-0.8060555490000001,1.143090449,1.143090449,1.165419508,0.048205234000000007,0.049146867999999996,0.823906955,0.823906955,12.404602,-0.001383522,-0.005727754,0.000490283,0.023032338,0.004225230999999999,-0.096407546,2.0,-1.0,0.0,11,0,0,1,0,0.0,0,0,0,0,0,0.0,-0.173589527,-3.020254939,-1.6770691480000002,-9.015879877,207.2670884,54.789825300000004,-0.000919951,-0.007335581999999999,0.0,-0.006086704,-0.132066139,0.163389742,-9.890612407,-6.64e-34,966.1731133,12.404602,0.0033700220000000003,-0.006325413,0.005069164,-0.18882995800000002,0.19220944199999998,-10.01730362,-0.00612925,0.001246226,0.003597003,-6.64e-34,1.5468235869999998,1.534823587,0.40059882,3.040894133,13.25495529,23.65310672,-0.207963025,1.190029002,0.10999999,-72.37831454,399.61393599999997,12.404602,96616.34133,1.1479619559999998,0.340178376,-0.007786906999999999,-0.459934585,0.0030894620000000003,0.004649727,4.429999999999999e-05,0.0,-0.242830657,1.5979786,0.692296336,0.086798763,-0.084470874,0.7113749859999999,1.0,398714138.0,327364372.0,400118.2863,0.0,0.0,0.0,0.021412282,4.243872085,0,0,1.0,39.871413700000005,32.7364371,0.034035668,-0.025493941000000003,-0.04576343099999999,0.020574901,-0.04547517400000001,0.0019303179999999999,0.037455847,-0.047663128,0.021773656000000002,1.5978176640000001,0.104640111,-0.082684859,-0.409255889,-0.007393627,1.0,33868369,1,0,0,0,0
33913175,0.030232428,0.016020922,-0.005704246,0.15,0.0,900.0,900.0,900.0,900.0,900.0,900.0,0.983121549,1.002328495,1.170739239,1.170739239,1.193608422,0.048188354,0.049129661,0.8544375959999999,0.8544375959999999,12.404602,-0.001384211,-0.0057269059999999995,0.000488274,0.023063807000000002,0.004253936,-0.096336732,2.0,-1.0,0.0,11,0,0,1,0,0.0,0,0,0,0,0,0.0,-0.19356520300000002,-3.0096135260000003,-2.228864105,-9.79129602,207.25197780000002,56.95683591,-0.0011363130000000001,-0.008282715,0.0,-0.006536406999999999,-0.106092873,0.158935782,-9.908714787000001,-6.64e-34,966.1693998,12.404602,-0.0010159610000000001,-0.005341973000000001,0.0009646710000000001,-0.11999603699999999,0.271292342,-9.926890019,-0.008003553,-0.001062024,0.0026986840000000002,-6.64e-34,1.691557271,1.679557271,0.40059882,3.169719465,13.25506846,23.55110635,-0.20592075199999998,1.0425688,0.10999999,-73.55314876,399.5947878,12.404602,96616.55405,1.147964491,-0.462536212,0.047336457,-0.052029022,0.0030494429999999998,0.00790898,-0.001147654,0.0,-0.22833109,1.5979786,0.6928901359999999,0.081639168,-0.079449652,0.7119851540000001,1.0,398714138.0,327364372.0,400117.8506,0.0,0.0,0.0,0.034482897,4.420364915,0,0,1.0,39.871413700000005,32.7364371,0.03376085,-0.025718407000000002,-0.046268224000000004,0.020227144,-0.045340772,0.001513524,0.023533197000000002,-0.035235372,0.023565165,1.597787644,0.10620022,-0.10497941,-0.36797728700000004,-0.007393627,1.0,33913175,1,0,0,0,0
33969612,0.028753432000000002,0.015798578,-0.005821626,0.15,0.0,900.0,900.0,900.0,900.0,900.0,900.0,1.153513341,1.176046338,1.198388029,1.198388029,1.221797335,0.048171474000000006,0.04911245400000001,0.884968238,0.884968238,12.404602,-0.0013849,-0.005726058000000001,0.000486266,0.023095276,0.00428264,-0.09626591699999999,2.0,-1.0,0.0,11,0,0,1,0,0.0,0,0,0,0,0,0.0,-0.213540879,-2.998972113,-2.7806590630000003,-10.56671216,207.23686719999998,59.12384653,-0.0013713570000000001,-0.009055201,0.0,-0.00669135,-0.070462613,0.160467495,-9.933831991,-6.64e-34,966.1667074,12.404602,0.004287188,0.001149461,0.002328795,-0.13184959400000001,0.118771092,-9.911664437999999,-0.011843033999999999,-0.0054181130000000004,-0.000520475,-6.64e-34,1.836290955,1.824290955,0.40059882,3.298544797,13.25518162,23.44910599,-0.20387847899999997,0.895108598,0.10999999,-74.72798299,399.5232353,12.404602,96617.36817,1.147974171,0.8482933340000001,0.352102278,0.242868549,-0.000912488,0.004377179,1.74e-05,0.0,-0.21430660899999998,1.5979786,0.6934301279999999,0.076644582,-0.074589019,0.712540015,1.0,398714138.0,327364372.0,400117.4149,0.0,0.0,0.0,0.047553511,4.596857743999999,0,0,1.0,39.871413700000005,32.7364371,0.033490057000000004,-0.025910328,-0.046596190999999995,0.019916853,-0.045077232,0.001233844,-0.014510348000000001,-0.019785156,0.024918017999999997,1.597761265,0.108070771,-0.12492807199999999,-0.326738319,-0.007393627,1.0,33969612,1,0,0,0,0
34013024,0.031000233999999998,0.016146522,-0.0056051619999999995,0.15,0.0,900.0,900.0,900.0,900.0,900.0,900.0,-1.014885878,-1.034717499,1.5934115569999998,1.593427396,1.624558399,0.456974654,0.465906221,5.746589051,5.746589051,12.40459939,-0.00138554,-0.005725123,0.00048463699999999995,0.023128978999999997,0.004309721,-0.096208672,2.0,-1.0,0.0,11,0,0,1,0,0.0,0,0,0,0,0,0.0,-0.22107291199999998,-2.987082315,-3.1208764939999996,-11.43009301,207.2420893,60.68807459,-0.0016164439999999999,-0.009654698,0.0,-0.006535327,-0.076419575,0.162851988,-9.963655283,2.712188435,966.1657467,12.404602,0.00018829,-0.004131694,-0.0017952089999999999,-0.029608435,0.172991667,-9.927037338,-0.012340723999999999,-0.008065313000000001,-0.001749031,2.712188435,1.9827778530000002,1.970777856,0.40059876,3.42800593,13.25529504,23.3489233,-0.201872555,0.750418213,0.10999999,-75.89360051,399.6563466,12.404602,96615.83017,1.147955901,-0.183037953,-0.156424359,-0.329897679,0.005335193,0.010194536,0.0015011120000000002,0.0,-0.20069636300000002,1.5979786,0.6939217609999999,0.071793937,-0.069868464,0.7130452359999999,1.0,398714138.0,327364372.0,400116.9896,0.0,0.0,0.000104021,0.059167834,4.731111029,0,0,0.9739947990000001,39.871413700000005,32.7364371,0.033261518999999996,-0.026151487999999997,-0.046814598,0.019262731,-0.044649495,0.00115355,-0.027650357,-0.008069257,0.018977911,1.5977596930000002,0.109025993,-0.140285641,-0.298357781,-0.007393627,1.0,34013024,1,0,0,0,0
34053243,0.030972197000000003,0.015496589,-0.00597157,0.15,0.0,900.0,900.0,900.0,900.0,900.0,900.0,1.752371796,1.78660366,2.383277094,2.383325796,2.4298970069999997,1.30516388,1.330674401,15.80050304,15.80050304,12.40459397,-0.0013861429999999998,-0.005724127,0.00048328,0.023164281000000002,0.0043356409999999995,-0.09616113400000001,2.0,-1.0,0.0,11,0,0,1,0,0.0,0,0,0,0,0,0.0,-0.20830995600000002,-2.9731564589999997,-3.116021054,-12.4369401,207.2804732,61.26919301,-0.001880086,-0.01016897,0.0,-0.006108786,-0.125295463,0.166116569,-9.99833536,8.223414888999999,966.1665731,12.404602,0.00040632,0.0007107760000000001,0.0041349920000000005,-0.12726527199999998,0.19303250100000002,-9.902234256,-0.009389613,-0.008948901,-0.000923243,8.223414888999999,2.152991568,2.140991615,0.40059789,3.566071579,13.25541191,23.27333979,-0.200358552,0.64321269,0.10999999,-76.93448532,399.5436058,12.404602,96617.13218,1.147971395,-0.000392205,0.622127938,0.130728241,0.000966347,0.006398028,0.003437496,0.0,-0.18744686100000002,1.5979786,0.694369734,0.06706868,-0.065269939,0.7135055579999999,1.0,398714138.0,327364372.0,400116.7718,0.0,0.0,0.002282456,0.041740348,4.023010335,0,0,0.9293858770000001,39.871413700000005,32.7364371,0.033078394,-0.026445571,-0.046915253,0.018239072,-0.044045285,0.00128755,-0.014024881999999999,-0.000366875,0.005199577,1.5977847840000001,0.108997452,-0.151630563,-0.275797957,-0.007393627,1.0,34053243,1,0,0,0,0
34101461,0.029934012000000003,0.015153705,-0.005509189,0.15,0.0,900.0,900.0,900.0,900.0,900.0,900.0,0.642050268,0.65459402,3.173142632,3.173224196,3.235235616,2.153353106,2.195442582,25.85441703,25.85441703,12.40458855,-0.0013867460000000001,-0.00572313,0.000481924,0.023199582000000003,0.004361561,-0.096113596,2.0,-1.0,0.0,11,0,0,1,0,0.0,0,0,0,0,0,0.0,-0.195547,-2.959230603,-3.111165615,-13.44378719,207.3188571,61.85031142,-0.002098998,-0.010589883000000001,0.0,-0.005627075,-0.164458913,0.177924943,-10.00910414,11.07456266,966.1674681,12.404602,-0.00016513900000000002,-0.0052426190000000004,-0.000643337,-0.127885846,0.233508909,-9.867649265,-0.007145726,-0.010311851,0.001132039,11.07456266,2.323205284,2.311205374,0.40059702,3.704137228,13.25552878,23.19775628,-0.19884454899999998,0.5360071670000001,0.10999999,-77.97537012,399.6114744,12.404602,96616.34834,1.147962078,-0.299292389,0.21164565600000002,-0.5203497029999999,-0.000420556,0.008347067,-0.0038279720000000002,0.0,-0.17448639300000002,1.5979786,0.69477859,0.062443665999999995,-0.060768965,0.713925688,1.0,398714138.0,327364372.0,400116.5539,0.0,0.0,0.004460892,0.024312862999999997,3.3149096410000003,0,0,0.884776955,39.871413700000005,32.7364371,0.032867968,-0.026681200000000002,-0.046979006,0.01751292,-0.043557096,0.001684608,-0.001502152,0.00085358,-0.008783057,1.597817307,0.10873521300000001,-0.162633663,-0.264305717,-0.007393627,1.0,34101461,1,0,0,0,0
34141680,0.030725407000000003,0.016406313999999998,-0.006352395,0.15,0.0,900.0,900.0,900.0,900.0,900.0,900.0,-0.8342427859999999,-0.850540981,3.9630081689999996,3.9631225960000003,4.040574225,3.001542332,3.060210762,35.90833102,35.90833102,12.40458314,-0.00138735,-0.005722134,0.000480567,0.023234884,0.0043874809999999995,-0.09606605800000001,2.0,-1.0,0.0,11,0,0,1,0,0.0,0,0,0,0,0,0.0,-0.18278404399999998,-2.945304747,-3.106310175,-14.45063427,207.357241,62.43142984,-0.00232415,-0.011070652,0.0,-0.0050779779999999995,-0.173089788,0.216592069,-9.94470403,5.563336204,966.1685787999999,12.404602,0.005478406999999999,-0.005464594000000001,0.006647254,-0.092455585,0.179361959,-9.887659662,-0.007125113000000001,-0.01318175,0.007052426,5.563336204,2.493418999,2.481419133,0.40059615,3.842202877,13.25564566,23.12217277,-0.19733054600000002,0.428801644,0.10999999,-79.01625493,399.5954499,12.404602,96616.56616,1.147964632,-0.38275226100000004,0.07669831099999999,0.07895712,0.004710683,0.004252642,0.001850134,0.0,-0.161774318,1.5979786,0.6951507240000001,0.057904687999999996,-0.056351717,0.7143080270000001,1.0,398714138.0,327364372.0,400116.3361,0.0,0.0,0.006639328000000001,0.006885377,2.606808946,0,0,0.8401680340000001,39.871413700000005,32.7364371,0.032566241,-0.026721337,-0.046919338,0.017781757,-0.043456931,0.002961446,0.007332535,-0.019604266000000002,-0.023448955,1.5978746830000001,0.107691391,-0.172581053,-0.251299402,-0.007393627,1.0,34141680,1,0,0,0,0
34189898,0.030375735,0.015856394,-0.005574776,0.15,0.0,900.0,900.0,900.0,900.0,900.0,900.0,0.917183007,0.9350970670000001,4.752873706,4.753020996,4.845912833,3.8497315569999997,3.924978942,45.962245,45.962245,12.40457772,-0.001387953,-0.005721138000000001,0.000479211,0.023270186,0.004413401,-0.09601852,2.0,-1.0,0.0,11,0,0,1,0,0.0,0,0,0,0,0,0.0,-0.17002108800000001,-2.931378891,-3.1014547360000004,-15.45748136,207.3956249,63.01254826,-0.002545463,-0.011624638999999999,0.0,-0.004575535,-0.181720663,0.255259195,-9.880303916,0.05210975,966.1696895,12.404602,-0.006256559,-0.008267031,-9.01e-05,-0.098880435,0.183349197,-9.89924572,-0.007104500000000001,-0.01605165,0.012972813,0.05210975,2.6636327140000002,2.651632892,0.40059528,3.980268527,13.25576253,23.04658927,-0.195816543,0.321596122,0.10999999,-80.05713973,399.3257839,12.404602,96619.67475,1.1480016240000002,-0.075409209,-0.357889158,-0.18326174399999998,-0.002371453,0.004105219,-0.000401495,0.0,-0.149251705,1.5979786,0.695489534,0.053431052,-0.05199806,0.71465619,1.0,398714138.0,327364372.0,400116.1182,0.0,0.0,0.008817764,-0.010542108,1.8987082519999998,0,0,0.7955591120000001,39.871413700000005,32.7364371,0.032264514,-0.026761474,-0.04685967,0.018050593,-0.043356766,0.004238284,0.016167223,-0.040062112000000004,-0.038114853,1.5979320590000001,0.106647569,-0.182612873,-0.232694265,-0.007393627,1.0,34189898,1,0,0,0,0
34230116,0.026602796,0.01632075,-0.005800421,0.15,0.0,900.0,900.0,900.0,900.0,900.0,900.0,1.229501227,1.25353003,5.542739243,5.542919396,5.651251442,4.697920783,4.789747122,56.01615899,56.01615899,12.404572300000002,-0.001388556,-0.005720141,0.000477854,0.023305487000000003,0.00443932,-0.095970981,2.0,-1.0,0.0,11,0,0,1,0,0.0,0,0,0,0,0,0.0,-0.157258132,-2.917453035,-3.096599297,-16.46432845,207.43400880000002,63.59366667,-0.002773733,-0.012230115,0.0,-0.004193012,-0.152186459,0.290084528,-9.894437509,-6.64e-34,966.1613822999999,12.404602,5.8599999999999995e-05,-0.003314684,-0.001014811,-0.086356381,0.236681555,-9.817589097,-1.28e-05,-0.013125868,0.008066798,-6.64e-34,2.85939975,2.847399928,0.40059567100000004,4.127752827,13.25587498,22.97930338,-0.194468575,0.225678441,0.10999999,-81.10370837,399.6873131,12.404602,96615.50452,1.147952025,0.458544375,-0.146409547,-0.163116975,0.005363428000000001,0.005945437,-0.003225772,0.0,-0.136887965,1.5979786,0.6957975040000001,0.049012134000000006,-0.047697656,0.714972632,1.0,398714138.0,327364372.0,400116.4981,0.0,0.0,0.009003801,-0.017011402,1.7013841509999998,0,0,0.75095019,39.871413700000005,32.7364371,0.032111052,-0.026981127999999997,-0.046969565,0.017461711,-0.043778618,0.004585822,0.025020076000000002,-0.020326393999999998,-0.02370036,1.5979584999999998,0.10609160699999999,-0.192318042,-0.228089823,-0.007393627,1.0,34230116,1,0,0,0,0
34274335,0.021178555,0.016132452,-0.000745008,0.0,0.0,900.0,900.0,900.0,900.0,900.0,900.0,-0.81254747,-0.828420888,6.332604781000001,6.332817795,6.456590051,5.5461100089999995,5.654515302,66.07007298,66.07007298,12.40456688,-0.00138916,-0.005719145,0.000476497,0.023340789,0.00446524,-0.09592344300000001,2.0,-1.0,0.0,11,0,0,1,0,0.0,0,0,0,0,0,0.0,-0.144495176,-2.9035271789999997,-3.091743857,-17.47117554,207.4723927,64.17478509,-0.003010665,-0.012841086000000002,0.0,-0.003985103,-0.12228795099999999,0.32487319,-9.909320741,-6.64e-34,966.1529853000001,12.404602,0.002927443,-0.0032124890000000002,0.00470429,-0.12086333099999999,0.18575090600000002,-9.867833033,0.007146346,-0.010144765,0.0030574409999999997,-6.64e-34,3.082566162,3.070566297,0.40059741299999996,4.285336214,13.25598269,22.92091457,-0.193298638,0.141864074,0.10999999,-82.15637145,399.51263,12.404602,96617.51,1.1479758,-0.367112125,0.005433935,0.101900549,0.002187208,0.00627083,0.002906515,0.0,-0.12464251800000001,1.5979786,0.696076458,0.044633663,-0.043436613,0.7152593140000001,1.0,398714138.0,327364372.0,400117.5873,0.0,0.0,0.006825365,-0.010476095,2.110222635,0,0,0.706341268,39.871413700000005,32.7364371,0.031960867000000004,-0.02720475,-0.047083208,0.016853873000000002,-0.044212006,0.004912822,0.03387333,0.00029758,-0.008643206,1.5979842569999998,0.105546425,-0.202081407,-0.212184873,-0.007393627,1.0,34274335,1,0,0,0,0
34318553,0.02442295,0.016038895,0.002657837,1.0,0.0,1500.413283,1500.0,2000.0,1487.0,1512.0,1508.0,0.587675986,0.599156927,7.1224703179999995,7.122716195,7.261928659,6.394299235,6.5192834820000005,76.12398697,76.12398697,12.40456146,-0.0013897629999999998,-0.0057181490000000005,0.000475141,0.02337609,0.00449116,-0.095875905,2.0,-1.0,0.0,11,0,0,1,0,0.0,0,0,0,0,0,0.0,-0.13173222,-2.889601323,-3.086888418,-18.47802262,207.5107765,64.75590351,-0.00325487,-0.013451045,0.0,-0.003959188,10.60291572,0.286056092,-9.776905194,-6.64e-34,966.151247,12.404602,0.0033394690000000003,-0.007023196,-0.005727210999999999,-0.09549079699999999,0.234186433,-9.902507313,0.00750907,-0.006975875,0.002495311,-6.64e-34,3.305732574,3.2937326660000004,0.400599155,4.4429196,13.25609041,22.86252577,-0.192128701,0.058049707,0.10999999,-83.20903454,399.6554702,12.404602,96615.8376,1.147955934,0.34118802200000004,-0.183277248,-0.611534268,-0.002457208,0.006092344,-0.0021254439999999998,0.0,-0.112493452,1.5979786,0.6963277240000001,0.040288008,-0.039207507999999995,0.715517486,1.0,398714138.0,327364372.0,400118.6765,0.0,0.0,0.004646929,-0.003940788,2.519061119,0,0,0.661732346,39.871413700000005,32.7364371,0.031077799,-0.002292818,-0.046512207,-0.008396473,0.865644367,0.026755248,-0.404666696,16.94384133,0.424276941,1.598037893,0.10620241400000001,-0.21279574699999998,-0.199876621,-0.007393627,1.0,34318553,1,0,0,0,0
34366772,0.021572922,0.015839078,-0.002419234,1.0,0.0,1499.0,1500.0,2000.0,1488.0,1511.0,1507.039608,2.81347967,2.868461002,7.912335855,7.912614595,8.067267268,7.242488461000001,7.384051662,86.17790096,86.17790096,12.40455605,-0.001390366,-0.005717152,0.000473784,0.023411392000000003,0.00451708,-0.095828367,2.0,-1.0,0.0,11,0,0,1,0,0.0,0,0,0,0,0,0.0,-0.118969264,-2.8756754669999998,-3.082032978,-19.48486971,207.5491604,65.33702192,-0.00350073,-0.014067941,0.0,-0.004104763,25.09067958,0.22134482,-9.592670601,-6.64e-34,966.1518512,12.404602,-0.0017576739999999999,-0.003368113,-0.0025575010000000002,2.437151199,0.153763392,-9.934522878,0.005480834,-0.0037409220000000003,0.003497695,-6.64e-34,3.528898987,3.516899035,0.400600897,4.600502987,13.25619812,22.80413696,-0.19095876399999998,-0.025764661,0.10999999,-84.26169762,399.5720097,12.404602,96616.79437,1.147967392,0.519343863,0.057325096,0.353337635,0.00263801,0.0066241040000000005,0.001743371,0.0,-0.10040987900000001,1.5979786,0.6965522470000001,0.035964316,-0.034999776,0.715748194,1.0,398714138.0,327364372.0,400119.7658,0.0,0.0,0.002468494,0.002594519,2.927899603,0,0,0.617123425,39.871413700000005,32.7364371,0.029918935,0.032078061,-0.045683564,-0.042920225,2.118058634,0.056694303,-1.011568607,40.2557746,1.014446212,1.5981020190000002,0.107310425,-0.220073827,-0.185711565,-0.007393627,1.0,34366772,1,0,0,0,0
34418990,0.021649642,0.016178434,-0.00107398,1.0,0.0,1499.0,1500.0,2000.0,1489.0,1510.0,1508.0,4.803474656000001,4.897320951,8.702201393,8.702512995,8.872605877,8.090677687000001,8.248819842,96.23181495,96.23181495,12.40455063,-0.00139097,-0.005716156,0.000472427,0.023446692999999998,0.004543,-0.095780829,2.0,-1.0,0.0,11,0,0,1,0,0.0,0,0,0,0,0,0.0,-0.10620630800000001,-2.861749611,-3.0771775389999996,-20.4917168,207.58754430000002,65.91814034,-0.00374161,-0.014682956,0.0,-0.004365096,35.56517332,0.177049343,-9.468198594,-6.64e-34,966.1582298000001,12.404602,-0.001384147,-0.0030502990000000002,0.00538795,53.34596348,0.229918441,-9.23719643,0.0026811129999999997,-0.0031882340000000003,0.003253181,-6.64e-34,3.7520653989999997,3.7400654039999996,0.400602639,4.7580863739999995,13.25630583,22.74574815,-0.189788827,-0.10957902800000001,0.10999999,-85.31436071,399.6233818,12.404602,96616.24309,1.1479608000000001,0.060602937,-0.12052241300000001,-0.020325725,-8.73e-05,0.003969549,0.000127679,0.0,-0.08837936099999999,1.5979786,0.696750407,0.03165829,-0.030809232000000002,0.7159517809999999,1.0,398714138.0,327364372.0,400120.855,0.0,0.0,0.000290058,0.009129826,3.336738087,0,0,0.572514503,39.871413700000005,32.7364371,0.026077867,0.16683669,-0.0424083,-0.088838683,3.7910100669999998,0.09632395099999999,-1.297045403,50.06462262,1.238629959,1.598148329,0.10622833300000001,-0.226404656,-0.177067068,-0.007393627,1.0,34418990,1,0,0,0,0
34462417,0.022668781000000002,0.01604979,-0.001894562,1.0,0.0,1499.0,1500.0,2000.0,1488.0,1511.0,1508.0,6.781663946,6.914117900000001,9.49206693,9.492411395,9.677944485,8.938866912,9.113588022,106.28572890000001,106.28572890000001,12.40454521,-0.001391573,-0.00571516,0.000471071,0.023481995,0.00456892,-0.095733291,2.0,-1.0,0.0,11,0,0,1,0,0.0,0,0,0,0,0,0.0,-0.093443352,-2.8478237560000004,-3.0723221,-21.49856388,207.62592819999998,66.49925876,-0.003980137,-0.01529721,0.0,-0.004691109000000001,41.845319399999994,0.154090814,-9.406185643999999,-6.64e-34,966.1706432,12.404602,0.000259382,-0.005296434,0.00010185600000000001,49.34706998,0.281704377,-9.323291171000001,-0.000924905,-0.005438834,0.001705509,-6.64e-34,3.977191988,3.965191988,0.40060282,4.89912164,13.25645615,22.70999959,-0.189070853,-0.164995648,0.10999999,-86.19131545,399.56983239999994,12.404602,96616.85639,1.147968025,0.542588783,-0.082413221,0.632929269,0.00046479599999999996,0.006202534,-0.0016582779999999998,0.0,-0.076378801,1.5979786,0.696922288,0.027361817000000004,-0.02662799,0.7161284520000001,1.0,398714138.0,327364388.8,400121.0,1.548469694,-0.003776755,1.546581316,0.004334867,3.047912965,0,0,0.5279055810000001,39.871413700000005,32.7364371,0.019269579,0.412650458,-0.036426433,-0.14736267,5.929185725,0.146673933,-1.226941853,44.93552245,1.057937879,1.59817493,0.102723416,-0.232160881,-0.171894125,-0.007393627,1.0,34462417,1,0,0,0,0
34507427,0.021223896000000003,0.015678025,-0.001678716,1.0,0.0,1499.0,1500.0,2000.0,1489.60172,1509.39828,1507.39828,8.52213306,8.688662537999999,10.28193247,10.28230979,10.48328309,9.787056137999999,9.978356202,116.3396429,116.3396429,12.40453979,-0.001392176,-0.005714163,0.00046971400000000004,0.023517296,0.004594839,-0.095685752,2.0,-1.0,0.0,11,0,0,1,0,0.0,0,0,0,0,0,0.0,-0.080715249,-2.833687724,-3.0674485689999997,-22.50935537,207.6662506,67.04469612,-0.004210519,-0.01590249,0.0,-0.005027178,45.55749153,0.141738957,-9.368848602,-6.64e-34,966.180354,12.404602,0.000444465,-0.008282227,0.00024276400000000002,43.34986883,0.20811586699999998,-9.401331065,-0.003264335,-0.0071941,-0.000110404,-6.64e-34,4.20254529,4.19054529,0.40060282,5.038242947,13.2566114,22.67686961,-0.18840515300000002,-0.217127779,0.10999999,-87.04794774,399.6347912,12.404602,96616.07876,1.147958883,0.312500722,0.01984629,-0.643533253,3.6e-05,0.0070518130000000005,-0.003418729,0.0,-0.064390558,1.5979786,0.6970691170000001,0.023068783,-0.022450092,0.716279344,1.0,398714138.0,327364408.2,400121.0,3.334786957,-0.008133627,3.330720144,-0.00220044,2.651925531,0,0,0.48329665899999996,39.871413700000005,32.7364371,0.011465608,0.69343927,-0.029672305,-0.202458766,7.9353788970000005,0.193890767,-1.140818047,40.10436297,0.9008675190000001,1.5982049180000002,0.1,-0.237890207,-0.16056174,-0.007393627,1.0,34507427,1,0,0,0,0
34555646,0.020876048,0.016848178999999998,-0.001112964,1.0,0.0,1500.0,1500.0,2000.0,1489.85117,1509.14883,1508.0,10.04684878,10.24307257,11.071798,11.07220819,11.288621699999998,10.63524536,10.84312438,126.39355690000001,126.39355690000001,12.40453437,-0.00139278,-0.005713167,0.000468357,0.023552597999999998,0.004620759,-0.095638214,2.0,-1.0,0.0,11,0,0,1,0,0.0,0,0,0,0,0,0.0,-0.06844924299999999,-2.8167651719999998,-3.0623351789999997,-23.57244194,207.7322738,67.11707174,-0.004434391,-0.016477692,0.0,-0.005335952,41.05603058,0.163312411,-9.410437149,-6.64e-34,966.1814203,12.404602,-0.00382371,-0.002645828,0.001127679,39.41370428,0.254360304,-9.421021501,-0.001552601,-0.007365048000000001,-0.0027842870000000003,-6.64e-34,4.427898593,4.4158985930000005,0.40060282,5.1773642539999996,13.25676665,22.64373963,-0.187739452,-0.269259911,0.10999999,-87.90458003,399.6307107,12.404602,96616.12177,1.1479593609999998,0.321088358,-0.43055736299999997,-0.40355395299999997,0.009289008,0.005662273000000001,-0.0020921570000000003,0.0,-0.052397877,1.5979786,0.69719111,0.018773338,-0.018269848999999998,0.716404672,1.0,398714138.0,327364427.6,400121.0,5.121104221,-0.012490498000000001,5.1148589719999995,-0.008735747,2.255938096,0,0,0.438687738,39.871413700000005,32.7364371,0.00019183099999999997,1.096110811,-0.020226968,-0.24560918,9.481633099,0.230189055,-0.9988660779999999,36.31148165,0.8261152690000001,1.598246707,0.1,-0.24324890600000001,-0.141343178,-0.007393627,1.0,34555646,1,0,0,0,0
34595864,0.018829866,0.014530112,-0.000318299,1.0,0.0,1499.0,1500.0,2000.0,1489.0,1510.0,1508.0,11.46661998,11.69060866,11.86166354,11.86210659,12.09396031,11.48343459,11.70789256,136.4474709,136.4474709,12.40452896,-0.001393383,-0.005712170999999999,0.000467001,0.023587899,0.004646679,-0.095590676,2.0,-1.0,0.0,11,0,0,1,0,0.0,0,0,0,0,0,0.0,-0.056183237000000004,-2.79984262,-3.05722179,-24.63552851,207.79829709999998,67.18944736,-0.004649384,-0.017024443,0.0,-0.005596195,36.55456962,0.184885865,-9.452025696,-6.64e-34,966.1824866000001,12.404602,0.001708425,-0.007382063,0.006162611,35.08305499,0.22718645699999998,-9.558753653,0.000159132,-0.007535995,-0.0054581709999999995,-6.64e-34,4.653251896,4.641251896,0.40060282,5.316485561,13.25692189,22.61060965,-0.18707375199999998,-0.321392042,0.10999999,-88.76121231,399.5396958,12.404602,96617.18704,1.1479719259999999,-0.127488651,0.60972312,0.769514177,0.003267136,0.0037930570000000003,-0.003443571,0.0,-0.040383676,1.5979786,0.697288389,0.014469512,-0.014081449,0.71650465,1.0,398714138.0,327364447.0,400121.0,6.9074214839999994,-0.016847368999999997,6.8989978,-0.015271054,1.859950662,0,0,0.394078816,39.871413700000005,32.7364371,-0.011081945,1.498782351,-0.010781631000000002,-0.288759594,11.027887300000002,0.266487343,-0.8569141090000001,32.51860033,0.75136302,1.598288495,0.1,-0.246755817,-0.138009495,-0.007393627,1.0,34595864,1,0,0,0,0
34640082,0.016864927,0.014480706999999999,-0.002176019,1.0,0.0,1499.0,1500.0,2000.0,1491.0,1508.0,1507.0,12.74310899,12.99207269,12.65152908,12.65200499,12.89929892,12.33162382,12.57266074,146.5013849,146.5013849,12.40452354,-0.001393986,-0.005711174,0.00046564400000000003,0.023623201,0.004672599,-0.09554313800000001,2.0,-1.0,0.0,11,0,0,1,0,0.0,0,0,0,0,0,0.0,-0.04391723,-2.782920067,-3.0521084010000004,-25.69861508,207.86432030000003,67.26182298,-0.004867812,-0.017549887,0.0,-0.005813387,33.27919,0.19048991399999998,-9.539003947000001,5.4417467870000005,966.1755249,12.404602,-0.00029899799999999997,-0.010231727,0.001778919,31.87816991,0.264923765,-9.472515121,-0.0019119120000000002,-0.0030573279999999998,-0.002194306,5.4417467870000005,4.886018413,4.87401844,0.40060174200000004,5.445820487000001,13.25707356,22.58151984,-0.18648892600000003,-0.366362985,0.10999999,-89.60216097,399.6714207,12.404602,96615.66709,1.1479540240000001,-0.149655469,-0.060244531,0.210649807,0.006891874,0.005725788000000001,0.005201878,0.0,-0.028335435,1.5979786,0.697360871,0.010152971,-0.009880674,0.7165790959999999,1.0,398714138.0,327364477.9,400121.3011,8.584754891000001,-0.016989398,8.574754951000001,-0.021806361,1.573109537,0,0,0.349469894,39.871413700000005,32.7364371,-0.026013842000000002,2.078423711,0.002483846,-0.318527748,12.37188852,0.29911977100000003,-0.594473629,29.60996236,0.699458371,1.599422215,0.1,-0.250791222,-0.11353778199999999,-0.007393627,1.0,34640082,1,0,0,0,0
34684301,0.019989226000000002,0.015110683,-0.009584767,1.0,0.0,1496.0,1500.0,2000.0,1490.209842,1508.790158,1507.0,13.94195949,14.21440271,13.44139462,13.44190339,13.70463753,13.17981304,13.43742892,156.5552989,156.5552989,12.40451812,-0.00139459,-0.005710178000000001,0.00046428699999999997,0.023658502,0.004698519,-0.0954956,2.0,-1.0,0.0,11,0,0,1,0,0.0,0,0,0,0,0,0.0,-0.031651224,-2.765997515,-3.046995012,-26.76170165,207.9303436,67.3341986,-0.005067031,-0.018009789,0.0,-0.005992036,30.01946487,0.195890067,-9.62656173,10.95297324,966.1684607000001,12.404602,0.001109116,-0.002367987,0.008054461,29.18970977,0.047697645,-9.568134104,-0.004031254000000001,0.001480705,0.001145371,10.95297324,5.135278235,5.123278349,0.400598264,5.553382162999999,13.25721725,22.56141884,-0.186084035,-0.395401341,0.10999999,-90.40821586,399.61942789999995,12.404602,96616.25816,1.147961005,0.133698684,-0.595372096,1.38985614,-0.002614996,0.0030662640000000004,0.043283252,0.0,-0.016241049,1.5979786,0.69740835,0.005819522,-0.005663446,0.7166278540000001,1.0,398714138.0,327364538.9,400122.3903,9.976775077000001,-0.006097219,9.966775355,-0.028341667,1.572006922,0,0,0.304860972,39.871413700000005,32.7364371,-0.041054329,2.663318349,0.015862722,-0.347898654,13.70988594,0.33164337899999996,-0.32845649600000004,26.7275728,0.648231944,1.600588347,0.1,-0.25417674100000004,-0.099311137,-0.007393627,1.0,34684301,1,0,0,0,0
34732519,0.012222473999999999,-0.039587374,-0.021644657,1.0,0.0,1490.6627330000001,1500.0,2000.0,1493.3372669999999,1505.6627330000001,1505.0,14.98215471,15.27501152,14.23126015,14.23180179,14.50997614,14.02800227,14.302197099999999,166.6092129,166.6092129,12.4045127,-0.0013951929999999999,-0.005709181999999999,0.000462931,0.023693804,0.004724439,-0.09544806199999999,2.0,-1.0,0.0,11,0,0,1,0,0.0,0,0,0,0,0,0.0,-0.019385217,-2.749074963,-3.041881623,-27.82478822,207.9963669,67.40657422,-0.005269308,-0.018451228,0.0,-0.006173105,27.2816473,0.12011200699999999,-9.692524901,8.345004306,966.1685309000001,12.404602,0.0013417529999999998,-0.007886667,0.063663403,26.34310036,-0.123577268,-9.516477351,0.000125458,0.000890822,0.04431003,8.345004306,5.384538057,5.372538258,0.40059478600000004,5.660943838,13.25736094,22.54131784,-0.18567914300000002,-0.424439698,0.10999999,-91.21427075,399.5372395,12.404602,96617.2306,1.147972506,0.28337531,0.419466765,1.8773694490000001,0.005447932,0.0034974990000000003,0.10923361599999999,0.0,-0.004094517,1.5979786,0.6974294590000001,0.001467169,-0.00142782,0.716649578,1.0,398714138.0,327364599.9,400123.4795,11.36879526,0.0047949590000000005,11.35879576,-0.034876974,1.5709043059999999,0,0,0.26025205,39.871413700000005,32.7364371,-0.054870336,3.295397325,0.029377051,-0.368126619,14.80652264,0.337990794,-0.34814781200000006,24.43332905,0.193589574,1.605305385,0.1,-0.25714749600000003,-0.086332935,-0.007393627,1.0,34732519,1,0,0,0,0
34788738,-0.015193389,-0.33792445299999996,-0.037985017999999995,1.0,0.0,1483.1156230000001,1500.0,2000.0,1502.768754,1496.231246,1316.8843769999999,15.99063156,16.30300784,15.02112569,15.02170019,15.31531475,14.87619149,15.16696528,176.6631269,176.6631269,12.40450728,-0.0013957960000000001,-0.005708185,0.000461574,0.023729106,0.004750358,-0.095400523,2.0,-1.0,0.0,11,0,0,1,0,0.0,0,0,0,0,0,0.0,-0.007119210999999999,-2.7321524110000004,-3.0367682339999997,-28.88787479,208.0623901,67.47894984,-0.005470022,-0.018870028,0.0,-0.006384058000000001,24.73045315,0.015306286,-9.750766282999999,2.833777852,966.1711521999999,12.404602,0.001087647,-0.011995934,0.12358589800000001,23.99021904,-0.078760786,-9.670185921,0.006526359,-0.001532699,0.101715285,2.833777852,5.633797878999999,5.621798167000001,0.400591308,5.768505512999999,13.25750463,22.52121683,-0.18527425100000003,-0.45347805399999996,0.10999999,-92.02032564,399.5749561,12.40459916,96616.7392,1.147966759,0.944775257,0.6891068509999999,0.558266658,0.035443635,-0.017306679,0.146549796,0.0,0.008109221,1.5979786,0.6974248390000001,-0.0029057320000000003,0.002827802,0.716644842,1.0,398714138.0,327364660.8,400124.5687,12.76081545,0.015687137,12.75081616,-0.04141228,1.5698016909999999,0,0,0.215643129,39.871413700000005,32.7364371,-0.068208665,3.945883215,0.042944219000000006,-0.38478786299999995,15.80900296,0.334126706,-0.479295838,22.36852477,-0.418427957,1.611407654,0.1,-0.260299785,-0.074513073,-0.007393627,1.0,34788738,1,0,0,0,0
