timestamp,control[0],control[1],control[2],control[3],control[4],output[2],output[3],output[4],output[5],output[6],output[7],indicated_airspeed_m_s,true_airspeed_m_s,indicated_airspeed_m_s.1,equivalent_airspeed_m_s,true_airspeed_m_s.1,equivalent_ground_minus_wind_m_s,true_ground_minus_wind_m_s,differential_pressure_raw_pa,differential_pressure_filtered_pa,temperature,gyro_bias[0],gyro_bias[1],gyro_bias[2],accel_bias[0],accel_bias[1],accel_bias[2],instance_count,seq_reached,seq_current,seq_total,item_changed_index,item_do_jump_remaining,valid,warning,finished,failure,stay_in_failsafe,flight_termination,item_do_jump_changed,execution_mode,nav_roll,nav_pitch,nav_bearing,target_bearing,xtrack_error,wp_dist,acceptance_radius,rollspeed_integ,pitchspeed_integ,yawspeed_integ,additional_integ1,x,y,z,temperature.1,pressure,temperature.2,gyro_rad[0],gyro_rad[1],gyro_rad[2],accelerometer_m_s2[0],accelerometer_m_s2[1],accelerometer_m_s2[2],x.1,y.1,z.1,temperature.3,altitude_sp,altitude_filtered,height_rate_setpoint,height_rate,airspeed_sp,airspeed_filtered,airspeed_derivative_sp,airspeed_derivative,throttle_integ,pitch_integ,baro_alt_meter,baro_temp_celcius,baro_pressure_pa,rho,xyz[0],xyz[1],xyz[2],xyz[0].1,xyz[1].1,xyz[2].1,roll_body,pitch_body,yaw_body,q_d[0],q_d[1],q_d[2],q_d[3],thrust_body[0],lat,lon,alt,vel_m_s,vel_n_m_s,vel_e_m_s,vel_d_m_s,cog_rad,ground_contact,maybe_landed,landed,ref_lat,ref_lon,x.2,y.2,z.2,vx,vy,vz,ax,ay,az,dist_bottom,roll,pitch,yaw,thrust_body[0].1,timestamp.1,isTakeoff,isClimbing,isDescending,isCruise,isLand
11000000,0.0,0.0,0.0,0.499,0.5,900.0,900.0,900.0,900.0,900.0,900.0,0.5082251,0.5181503,-0.56263644,-0.56263644,-0.57362753,0.00632658,0.006450169,-1.5566508999999997,-1.5566508999999997,12.404602,-0.001098333,-0.005625865,0.000305705,0.022832666,-0.0031088509999999997,-0.12788434,2.0,-1.0,0.0,11,0,0,1,0,0.0,0,0,0,0,0,0.0,-0.21367326,1.5681937,1.5737086999999998,0.38801226,289.4084,56.442413,-0.000694591,-0.005342311,0.0,-0.002712255,-0.20456378,0.26723784,-9.9781,2.2000000000000002e-23,966.16614,12.404602,-0.0011351360000000001,-0.0045669529999999995,0.000300673,-0.23818748,0.23783849,-9.947128,-0.008985428,-0.003993453,-0.003362001,2.2000000000000002e-23,-0.13363013,-0.14563012,0.40059984,-0.29808116,13.254076999999999,19.374346,-0.12240537,17.872906,0.10999999,-17.95601,399.6394,12.404602,96616.05,1.1479584999999999,0.07420397,-0.28579944,-0.29865086,0.002070154,0.008815868000000001,-0.002720823,0.0,-0.1965777,1.6137167,0.6884316999999999,0.07086186,-0.0678839,0.71863216,1.0,398714138.0,327364367.0,400122.0,0.0,0.0,-0.01,0.01,4.925842299999999,0,0,1.0,39.871413700000005,32.7364368,0.017624693,-0.003111071,-0.016309861000000002,0.011475187,0.015912983999999998,-0.018895628,0.06507177,0.027758212999999997,-0.061704773,0.10959534,-0.06477046,-0.33195165,-0.0058768990000000005,1.0,11000000,1,0,0,0,0
11037266,0.0,0.0,0.0,0.499,0.5,900.0,900.0,900.0,900.0,900.0,900.0,-0.109308404,-0.11144587800000001,-0.490878665,-0.490878665,-0.500468122,0.012118004,0.012354711,5.793744869,5.793744869,12.40460094,-0.001057957,-0.005663596,0.000416761,0.022822982999999998,-0.002941301,-0.12787011,2.0,-1.0,0.0,11,0,0,1,0,0.0,0,0,0,0,0,0.0,-0.20334112199999999,1.568309797,1.5737164680000002,0.384869707,288.67522560000003,57.09439369,-0.0009115639999999999,-0.005872791,0.0,-0.0030173279999999997,-0.166067405,0.24529325100000002,-9.99033808,4.4020331960000005,966.1632372000001,12.404602,-0.0024805820000000003,-0.005439932,-0.002403507,-0.16243158300000002,0.181564103,-9.882795012,-0.0076719940000000006,-0.002359249,-0.003785802,4.4020331960000005,-0.135166296,-0.147166286,0.40059984,-0.29520235300000003,13.25406578,20.01399142,-0.135198506,17.33586841,0.10999999,-18.64606739,399.6246384,12.404602,96616.16744,1.147959916,-0.48200012799999997,0.179463942,0.25072871399999996,-0.000865364,0.003152307,-0.0021504510000000003,0.0,-0.184578694,1.6137167,0.688825198,0.066549052,-0.06375233200000001,0.7190429140000001,1.0,398714138.0,327364367.2,400121.826,0.0,0.0,-0.008259652,0.008259652,4.25322271,0,0,0.964392879,39.871413700000005,32.7364368,0.017932326000000002,-0.003160231,-0.014042019,0.011293176,0.016314931,-0.017498991000000002,0.04024539,0.0038074429999999998,-0.057761346,0.108883323,-0.083323964,-0.301008533,-0.0058768990000000005,1.0,11037266,1,0,0,0,0
11077266,0.006351326,0.009707902,0.000269135,0.34108481700000004,0.496835367,900.0,900.0,900.0,900.0,900.0,900.0,0.9694099979999999,0.988349458,-0.419120891,-0.419120891,-0.42730871299999995,0.017909428,0.018259252,13.14414064,13.14414064,12.40459988,-0.001017581,-0.005701326,0.000527818,0.022813299999999998,-0.00277375,-0.12785588,2.0,-1.0,0.0,11,0,0,1,0,0.0,0,0,0,0,0,0.0,-0.193008983,1.5684258930000001,1.573724235,0.38172715399999996,287.9420511,57.74637438,-0.001129803,-0.0063222669999999995,0.0,-0.0031768029999999997,-0.12757103,0.223348661,-10.00257616,8.804066392000001,966.1603343,12.404602,0.003220225,0.005932903000000001,0.0019734329999999997,-0.151663339,0.18345848399999998,-9.968528509,-0.0063585609999999996,-0.000725044,-0.004209603,8.804066392000001,-0.136702463,-0.148702453,0.40059984,-0.292323546,13.25405457,20.65363684,-0.14799164199999998,16.79883082,0.10999999,-19.33612478,399.5874184,12.404602,96616.62337,1.147965245,0.09404850699999999,-0.37142923,0.06442851599999999,0.004217619000000001,0.0040571209999999995,-0.0061254790000000005,0.0,-0.172919617,1.6137167,0.689186229,0.062356354,-0.059735832999999995,0.719419813,1.0,398714138.0,327364367.3,400121.6519,0.0,0.0,-0.006519304,0.006519304,3.580603121,0,0,0.928785757,39.871413700000005,32.7364368,0.018239959,-0.003209391,-0.011774176,0.011111165,0.016716879,-0.016102354,0.01541901,-0.020143326,-0.053817919000000006,0.108171306,-0.098870148,-0.28388837699999997,-0.0058768990000000005,1.0,11077266,1,0,0,0,0
11109899,0.029733642999999997,0.032154188,-0.0046287329999999995,0.15,0.41525314,900.0,900.0,900.0,900.0,900.0,900.0,-1.0521645929999999,-1.0727224370000001,-0.347363116,-0.347363116,-0.354149305,0.023700852999999997,0.024163794,20.49453641,20.49453641,12.40459881,-0.000977205,-0.005739057,0.000638874,0.022803617999999998,-0.0026062,-0.12784165,2.0,-1.0,0.0,11,0,0,1,0,0.0,0,0,0,0,0,0.0,-0.182676845,1.56854199,1.5737320030000002,0.378584601,287.2088767,58.39835507,-0.0013720999999999998,-0.006759139,0.0,-0.003195339,-0.10503038,0.205730398,-10.00650473,11.60310441,966.1581241,12.404602,0.003214392,-0.011068466,0.004148795,-0.16060479999999996,0.144771256,-9.904973523999999,-0.005091474,2.6899999999999997e-05,-0.004820344,11.60310441,-0.138238629,-0.150238619,0.40059984,-0.289444739,13.25404335,21.29328227,-0.16078477900000002,16.26179323,0.10999999,-20.02618217,399.5971768,12.404602,96616.52972,1.1479642190000001,0.362728083,-0.234761722,-0.202129088,-0.004071768,0.005198648,-0.0035382509999999996,0.0,-0.161651539,1.6137167,0.689510941,0.058302069000000005,-0.055851927,0.719758715,1.0,398714138.0,327364367.5,400121.4779,0.0,0.0,-0.004778956,0.004778956,2.907983531,0,0,0.8931786359999999,39.871413700000005,32.7364368,0.018508271,-0.00331368,-0.009512335,0.011091862,0.017156765,-0.014973018999999999,-0.004914515,-0.034926858,-0.047666252,0.107150817,-0.11176113800000001,-0.269343534,-0.0058768990000000005,1.0,11109899,1,0,0,0,0
11153063,0.029158665,0.030931262999999997,-0.004795227,0.15,0.307341657,900.0,900.0,900.0,900.0,900.0,900.0,0.065330292,0.06660638099999999,-0.275605342,-0.275605342,-0.280989897,0.029492277,0.030068335,27.84493218,27.84493218,12.40459775,-0.00093683,-0.005776788000000001,0.000749931,0.022793935,-0.00243865,-0.12782742,2.0,-1.0,0.0,11,0,0,1,0,0.0,0,0,0,0,0,0.0,-0.17234470600000001,1.568658087,1.57373977,0.375442048,286.4757023,59.05033576,-0.0015736860000000001,-0.007086891999999999,0.0,-0.003093915,-0.154166993,0.207547117,-9.973104805,7.201071215,966.1590255000001,12.404602,-0.001291254,0.000932788,0.003949799,-0.230531615,0.223005468,-9.963487887000001,-0.004032588,-0.003184787,-0.006270866,7.201071215,-0.139774796,-0.151774786,0.40059984,-0.28656593199999997,13.25403214,21.93292769,-0.173577915,15.72475563,0.10999999,-20.71623956,399.6214373,12.404602,96616.23601000001,1.1479607459999999,-0.32800182699999997,0.228395073,0.389882777,0.0026715109999999997,0.007781848,-0.00113988,0.0,-0.150666427,1.6137167,0.6898079909999999,0.054347952000000005,-0.052063983,0.7200688590000001,1.0,398714138.0,327364367.7,400121.3039,0.0,0.0,-0.003038608,0.003038608,2.235363941,0,0,0.8575715140000001,39.871413700000005,32.7364368,0.018601813999999998,-0.003663009,-0.007277171999999999,0.011795761,0.017765277,-0.015031786,-0.005278264,-0.008963991,-0.031699427,0.104759231,-0.126789991,-0.242325172,-0.0058768990000000005,1.0,11153063,1,0,0,0,0
11187165,0.029632867,0.031212302,-0.004190789,0.15,0.22208864,900.0,900.0,900.0,900.0,900.0,900.0,0.550537643,0.561294276,-0.20384756699999998,-0.20384756699999998,-0.20783048899999998,0.035283701,0.035972877,35.19532795,35.19532795,12.40459669,-0.000896454,-0.005814519000000001,0.000860987,0.022784252,-0.0022711,-0.127813189,2.0,-1.0,0.0,11,0,0,1,0,0.0,0,0,0,0,0,0.0,-0.162012568,1.5687741830000002,1.5737475380000001,0.372299495,285.7425278,59.70231645,-0.001788764,-0.007411648000000001,0.0,-0.0028794190000000002,-0.20330360600000003,0.209363837,-9.939704881,2.7990380189999997,966.1599269,12.404602,-0.0038640809999999997,-0.005114844,0.0018698620000000001,-0.15141000400000001,0.170389912,-10.01804403,-0.0029737009999999996,-0.006396429,-0.007721388,2.7990380189999997,-0.14131096199999998,-0.153310952,0.40059984,-0.283687125,13.25402092,22.57257311,-0.186371051,15.18771804,0.10999999,-21.40629695,399.631452,12.404602,96616.10689,1.147959158,0.323852165,-0.359436899,0.306534648,4.94e-05,0.012067233,0.001159728,0.0,-0.13995206699999999,1.6137167,0.6900764540000001,0.050489611,-0.048367789,0.720349109,1.0,398714138.0,327364367.9,400121.1298,0.0,0.0,-0.00129826,0.00129826,1.5627443509999999,0,0,0.821964393,39.871413700000005,32.7364368,0.018695358000000002,-0.004012337,-0.005042008,0.01249966,0.01837379,-0.015090552,-0.005642014,0.016998877,-0.015732603,0.102367645,-0.139431895,-0.22235372,-0.0058768990000000005,1.0,11187165,1,0,0,0,0
11227595,0.028210118,0.031134692000000002,-0.0042066609999999996,0.15,0.121012379,900.0,900.0,900.0,900.0,900.0,900.0,-1.222850753,-1.246743331,-0.132089793,-0.132089793,-0.13467108,0.041075125,0.041877418,42.54572371,42.54572371,12.40459563,-0.000856078,-0.005852249,0.000972043,0.022774568999999998,-0.002103549,-0.12779895900000002,2.0,-1.0,0.0,11,0,0,1,0,0.0,0,0,0,0,0,0.0,-0.15168043,1.56889028,1.573755305,0.36915694200000004,285.0093534,60.35429714,-0.002010317,-0.007755883000000001,0.0,-0.0025738000000000002,5.808329519,0.202231734,-9.913629737,2.2000000000000002e-23,966.1615337999999,12.404602,-0.004308532,-0.004602799,0.000498671,-0.10496699300000001,0.17015390600000002,-9.98866485,-0.002272819,-0.008622867,-0.007579309,2.2000000000000002e-23,-0.142130747,-0.15413073800000002,0.400599866,-0.27477030199999997,13.25401017,23.13710554,-0.197661917,14.61962129,0.10999999,-22.31812406,399.6133028,12.404602,96616.34637,1.147962014,0.38231758299999996,0.285963831,-0.056118722,0.0013722510000000001,0.006742573000000001,0.000401506,0.0,-0.129457561,1.6137167,0.69032117,0.04670910599999999,-0.044746159,0.72060454,1.0,398714138.0,327364368.0,400120.9116,0.026967393,0.000884177,0.026967393,0.0,1.081494457,0,0,0.786357271,39.871413700000005,32.7364368,0.018809871000000002,-0.004240169,-0.003193047,0.012639083,0.018443833,-0.014743456,-0.005853223,0.021934008999999997,-0.001033791,0.10074309099999999,-0.149676649,-0.203214641,-0.0058768990000000005,1.0,11227595,1,0,0,0,0
11260861,0.030196761000000003,0.031215759,-0.00475534,0.15,0.037847763,900.0,900.0,900.0,900.0,900.0,900.0,-0.587047007,-0.598516458,-0.060332018,-0.060332018,-0.061511672,0.04686655,0.04778196,49.89611948,49.89611948,12.40459456,-0.000815702,-0.00588998,0.0010831,0.022764887,-0.0019359989999999999,-0.127784729,2.0,-1.0,0.0,11,0,0,1,0,0.0,0,0,0,0,0,0.0,-0.141348291,1.5690063769999998,1.573763073,0.366014389,284.276179,61.00627783,-0.002207992,-0.008069326,0.0,-0.00227232,22.4028547,0.179473823,-9.900344609,2.2000000000000002e-23,966.1643728,12.404602,0.000548042,-0.010705072,0.0062794619999999995,-0.219467236,0.204904056,-9.88191869,-0.00219706,-0.009129007,-0.004656343,2.2000000000000002e-23,-0.141225081,-0.153225076,0.40059995299999995,-0.25131055,13.25400053,23.520723800000003,-0.20533447300000002,13.97671667,0.10999999,-23.7640969,399.5831214,12.404602,96616.68277,1.147965945,-0.22615308,0.39755668299999997,0.542927072,0.001286243,0.003770177,-0.0037778309999999997,0.0,-0.11915892800000001,1.6137167,0.690542164,0.042997867,-0.041190886,0.7208352179999999,1.0,398714138.0,327364368.2,400120.5635,0.133128626,0.004364873,0.133128626,0.0,1.162230684,0,0,0.75075015,39.871413700000005,32.7364368,0.018960505,-0.004258735,-0.0020092779999999998,0.011806256000000001,0.01758642,-0.013697306999999999,-0.005801698,-0.009348877,0.011481007,0.100439666,-0.161782575,-0.185775826,-0.0058768990000000005,1.0,11260861,1,0,0,0,0
11297063,0.022441546,0.031197909,0.000794326,0.0,0.0,900.0,900.0,900.0,900.0,900.0,900.0,0.40012691899999997,0.407946231,0.011425757,0.011425757,0.011647736,0.052657974,0.053686502000000004,57.24651525,57.24651525,12.404593499999999,-0.000775326,-0.005927711,0.001194156,0.022755203999999998,-0.0017684489999999998,-0.127770499,2.0,-1.0,0.0,11,0,0,1,0,0.0,0,0,0,0,0,0.0,-0.131016153,1.5691224730000002,1.57377084,0.362871836,283.5430045,61.65825852,-0.002413586,-0.008367732,0.0,-0.002010177,38.99737987,0.15671591199999999,-9.887059482,2.2000000000000002e-23,966.1672117,12.404602,0.0014628179999999998,0.002728698,0.000885754,-0.21378683399999998,0.22414862600000002,-9.899408194,-0.002121301,-0.009635148,-0.0017333770000000001,2.2000000000000002e-23,-0.140319416,-0.15231941400000001,0.400600041,-0.227850799,13.253990900000002,23.90434205,-0.213007029,13.33381205,0.10999999,-25.21006975,399.6673517,12.404602,96615.7021,1.147954333,-0.15506911,0.453265404,-0.410078702,0.001408959,0.003974012,0.000348473,0.0,-0.109008458,1.6137167,0.6907425159999999,0.039338929,-0.037685712,0.7210443459999999,1.0,398714138.0,327364368.4,400120.2154,0.239289858,0.007845569,0.239289858,0.0,1.24296691,0,0,0.715143029,39.871413700000005,32.7364368,0.019111139,-0.004277301,-0.00082551,0.010973429,0.016729007,-0.012651157,-0.005750172,-0.040631763,0.023995805,0.10013624199999999,-0.170795883,-0.167395616,-0.0058768990000000005,1.0,11297063,1,0,0,0,0
11333696,0.01862834,0.031215626,0.0039083220000000005,1.0,0.0,900.0,900.0,900.0,900.0,900.0,900.0,-1.561751382,-1.592271494,0.08318353099999999,0.08318353099999999,0.084807144,0.058449398,0.059591042999999996,64.59691102,64.59691102,12.40459244,-0.00073495,-0.005965442,0.001305213,0.022745521,-0.001600899,-0.127756269,2.0,-1.0,0.0,11,0,0,1,0,0.0,0,0,0,0,0,0.0,-0.120684014,1.56923857,1.573778608,0.35972928299999996,282.80983010000006,62.31023921,-0.002619537,-0.008652215,0.0,-0.0018359079999999998,46.07439884,0.148394329,-9.852162011,2.2000000000000002e-23,966.1667748,12.404602,0.00572372,-0.005070643,0.0008961630000000001,-0.15879791099999999,0.17237084600000002,-9.94340148,-0.002054968,-0.011354813,-0.0012354689999999999,2.2000000000000002e-23,-0.13941375,-0.15141375199999998,0.40060012899999997,-0.20439104800000002,13.25398126,24.28796031,-0.220679585,12.69090743,0.10999999,-26.65604259,399.6097349,12.404602,96616.39242,1.147962556,-0.40680062,0.351531336,0.48836667899999997,3.6700000000000004e-05,0.0045488659999999995,-0.001323583,0.0,-0.098994531,1.6137167,0.690922514,0.035728207000000005,-0.034226732,0.7212322520000001,1.0,398714138.0,327364368.6,400119.8674,0.34545109,0.011326265,0.34545109,0.0,1.323703136,0,0,0.679535907,39.871413700000005,32.7364368,0.017716041000000002,0.029337171000000002,0.0008460710000000001,-0.024111706,0.829057513,0.006841794,-0.423017464,9.437041699,0.25762084399999996,0.1,-0.179372754,-0.160927511,-0.0058768990000000005,1.0,11333696,1,0,0,0,0
11370329,0.022189748,0.030574681,0.0006566289999999999,1.0,0.0,1500.0,1500.0,2000.0,1488.804961,1510.195039,1515.0,0.900473073,0.918065097,0.154941306,0.154941306,0.157966553,0.064240822,0.065495585,71.94730679,71.94730679,12.40459138,-0.000694574,-0.006003171999999999,0.001416269,0.022735837999999998,-0.0014333479999999999,-0.127742039,2.0,-1.0,0.0,11,0,0,1,0,0.0,0,0,0,0,0,0.0,-0.110351876,1.5693546669999998,1.573786376,0.35658673,282.0766557,62.9622199,-0.002817508,-0.008941371,0.0,-0.001765595,45.2447176,0.15206577400000001,-9.799310012000001,2.2000000000000002e-23,966.1636164999999,12.404602,-0.006112785999999999,-4.0799999999999996e-05,0.004436923,18.35807619,0.18911075,-9.85732352,-0.001996466,-0.014082617,-0.002752185,2.2000000000000002e-23,-0.138508085,-0.15050809,0.400600216,-0.18093129600000002,13.25397162,24.67157856,-0.228352141,12.04800281,0.10999999,-28.10201543,399.57072819999996,12.404602,96616.83317,1.1479677940000002,0.151888415,0.330323329,-0.388426893,0.00733076,0.0032248690000000004,-0.005323557,0.0,-0.08909413699999999,1.6137167,0.6910834229999999,0.03215754,-0.030806122000000002,0.721400205,1.0,398714138.0,327364368.7,400119.5193,0.451612322,0.014806961,0.451612322,0.0,1.404439362,0,0,0.643928786,39.871413700000005,32.7364368,0.015061281000000001,0.090360161,0.002915183,-0.08711002,2.3040743409999997,0.041367569,-1.180369721,26.66383399,0.671434904,0.1,-0.189422614,-0.147481377,-0.0058768990000000005,1.0,11370329,1,0,0,0,0
11405924,0.02379886,0.031154163,0.00310895,1.0,0.0,1501.714543,1500.0,2000.0,1488.0,1511.0,1515.0,1.482009858,1.510962736,0.22669908,0.22669908,0.23112596100000002,0.07003224599999999,0.071400126,79.29770256,79.29770256,12.40459032,-0.0006541990000000001,-0.006040903,0.001527325,0.022726155,-0.001265798,-0.127727809,2.0,-1.0,0.0,11,0,0,1,0,0.0,0,0,0,0,0,0.0,-0.10001973800000001,1.5694707630000002,1.5737941430000002,0.353444177,281.3434812,63.61420059,-0.003018506,-0.009293999,0.0,-0.001769475,44.41503636,0.15573722,-9.746458013,2.2000000000000002e-23,966.1604581,12.404602,-0.007175251,-0.008261437,-0.000250081,52.4907559,0.19912938,-9.870543003,-0.001937964,-0.01681042,-0.004268900999999999,2.2000000000000002e-23,-0.137602419,-0.149602428,0.40060030399999996,-0.157471545,13.25396198,25.05519682,-0.236024697,11.4050982,0.10999999,-29.54798828,399.5692635,12.404602,96616.8523,1.147968017,0.504255471,0.120177771,0.263649963,0.000496282,0.005224569,0.0019470829999999998,0.0,-0.079281002,1.6137167,0.6912264690000001,0.028617579,-0.027414926000000003,0.7215495279999999,1.0,398714138.0,327364368.9,400119.1712,0.557773555,0.018287658000000002,0.557773555,0.0,1.485175589,0,0,0.608321664,39.871413700000005,32.7364368,0.012406522,0.151383151,0.004984295,-0.150108334,3.779091169,0.075893343,-1.9377219780000001,43.89062627,1.085248965,0.1,-0.197940769,-0.14934878199999999,-0.0058768990000000005,1.0,11405924,1,0,0,0,0
11443190,0.020004749,0.030615726,0.004295585,1.0,0.0,1501.0,1500.0,2000.0,1489.0,1510.0,1515.0,3.436031109,3.5031631689999996,0.298456855,0.298456855,0.30428536899999997,0.075823671,0.07730466799999999,86.64809833,86.64809833,12.40458925,-0.000613823,-0.006078634,0.001638382,0.022716472999999997,-0.001098248,-0.127713579,2.0,-1.0,0.0,11,0,0,1,0,0.0,0,0,0,0,0,0.0,-0.089687599,1.56958686,1.5738019109999999,0.350301624,280.6103068,64.26618128,-0.003217759,-0.009715738,0.0,-0.001821873,41.65574032,0.154374507,-9.75554422,2.2000000000000002e-23,966.160608,12.404602,0.00141169,-0.0064669440000000005,-0.004421324,49.04172396,0.290552966,-9.853233091,-0.003663814,-0.014542493,-0.00210284,2.2000000000000002e-23,-0.127716463,-0.13971647199999998,0.400600313,-0.064055116,13.25396993,25.27813245,-0.240483248,10.8343185,0.10999999,-31.06165602,399.5560354,12.404602,96616.9888,1.1479695859999999,0.001089356,-0.073042723,0.355050811,0.000545668,0.0005165980000000001,-0.003483852,0.0,-0.069547344,1.6137167,0.6913514470000001,0.025105585,-0.024050522999999997,0.72167998,1.0,398714138.0,327364380.3,400119.3537,1.3960332069999999,0.020884177,1.397801516,-0.000884177,1.528644027,0,0,0.572714543,39.871413700000005,32.7364368,0.005076501,0.325157126,0.009237318000000001,-0.21242225399999998,5.240783932,0.110724079,-2.016851716,45.78394648,1.112865253,0.1,-0.20499035399999999,-0.138567367,-0.0058768990000000005,1.0,11443190,1,0,0,0,0
11484456,0.022683206,0.031391153,0.0069876619999999995,1.0,0.0,1502.246449,1500.0,2000.0,1488.753551,1510.246449,1515.0,5.389821596,5.49512218,0.37021462899999996,0.37021462899999996,0.377444778,0.081615095,0.083209209,93.9984941,93.9984941,12.40458819,-0.0005734469999999999,-0.006116365,0.0017494379999999999,0.02270679,-0.000930697,-0.12769934900000002,2.0,-1.0,0.0,11,0,0,1,0,0.0,0,0,0,0,0,0.0,-0.079355461,1.5697029569999998,1.5738096780000002,0.34715907100000004,279.87713239999994,64.91816197,-0.003415038,-0.010193554,0.0,-0.00190927,38.17657252,0.151133726,-9.787737405,2.2000000000000002e-23,966.1619919999999,12.404602,-0.003834029,-0.012770453000000001,0.001534905,43.84983555,0.12262441199999999,-9.830496369,-0.006055343,-0.010410834,0.001437135,2.2000000000000002e-23,-0.111505867,-0.123505874,0.400600268,0.078630411,13.25399025,25.38790248,-0.242678239,10.31433496,0.10999999,-32.62299994,399.62963160000004,12.404602,96616.13466,1.1479595059999999,0.737060093,0.33950705,0.246731901,0.00047413699999999996,0.002770489,0.002368095,0.0,-0.059869362999999995,1.6137167,0.6914601109999999,0.021613113,-0.020704823,0.721793448,1.0,398714138.0,327364402.6,400120.0498,2.943202641,0.022624525,2.9484515589999996,-0.002624525,1.5360251040000001,0,0,0.537107421,39.871413700000005,32.7364368,-0.003942208,0.539656342,0.014279161,-0.274488972,6.697664092999999,0.145664967,-1.851009975,42.13887302,1.000988327,0.1,-0.21139736399999998,-0.140572065,-0.0058768990000000005,1.0,11484456,1,0,0,0,0
11520861,0.021999335,0.03086652,0.005253025,1.0,0.0,1502.273055,1500.0,2000.0,1488.0,1511.0,1515.0,6.7508519620000005,6.88275303,0.441972404,0.441972404,0.450604186,0.087406519,0.08911375099999999,101.3488899,101.3488899,12.40458713,-0.000533071,-0.006154095,0.001860495,0.022697107,-0.0007631469999999999,-0.127685119,2.0,-1.0,0.0,11,0,0,1,0,0.0,0,0,0,0,0,0.0,-0.069023322,1.569819054,1.5738174459999998,0.344016518,279.1439579,65.57014266,-0.003618679,-0.010734981000000001,0.0,-0.0020181689999999998,34.69740471,0.147892945,-9.819930591,2.2000000000000002e-23,966.163376,12.404602,0.004780575,-0.003537455,0.00123745,40.20788803,0.23359370899999998,-9.850206229,-0.008446872,-0.006279175,0.00497711,2.2000000000000002e-23,-0.09529527,-0.107295277,0.400600222,0.221315939,13.25401058,25.49767252,-0.24487323,9.794351419,0.10999999,-34.18434386,399.5565685,12.404602,96616.98693,1.1479695859999999,-0.026255907000000002,0.430807095,0.163739471,0.0029723040000000003,0.0052871459999999995,-0.0038301579999999997,0.0,-0.05023676,1.6137167,0.691551406,0.01813649,-0.017374306000000003,0.721888704,1.0,398714138.0,327364424.9,400120.7459,4.490372074,0.024364873,4.499101602,-0.004364873,1.543406181,0,0,0.5015003,39.871413700000005,32.7364368,-0.012960916999999999,0.7541555590000001,0.019321005,-0.336555691,8.154544254,0.18060585399999998,-1.685168235,38.49379956,0.889111402,0.1,-0.217325204,-0.142523083,-0.0058768990000000005,1.0,11520861,1,0,0,0,0
11553494,0.021968405,0.030532197,0.002985396,1.0,0.0,1501.0,1500.0,2000.0,1488.207441,1510.792559,1515.0,8.220594643,8.381190811,0.513730178,0.513730178,0.5237635939999999,0.093197943,0.095018293,108.6992856,108.6992856,12.40458607,-0.000492695,-0.006191826,0.001971551,0.022687423999999998,-0.000595597,-0.127670888,2.0,-1.0,0.0,11,0,0,1,0,0.0,0,0,0,0,0,0.0,-0.059212350999999996,1.569513781,1.573732671,0.365660525,278.32923639999996,65.75689253,-0.003800548,-0.011242162,0.0,-0.00211936,32.09109804,0.170830225,-9.871299599,2.2000000000000002e-23,966.1602887,12.404602,-0.001042995,-0.009749961,0.0012932619999999999,37.06818814,0.245538963,-9.870716193,-0.009373245,-0.0048656409999999995,0.006366126999999999,2.2000000000000002e-23,-0.07908467400000001,-0.091084679,0.40060017700000006,0.364001467,13.25403091,25.60744256,-0.24706822,9.274367877000001,0.10999999,-35.74568778,399.6099582,12.404602,96616.35932999999,1.1479621979999999,0.9094005009999999,0.121990396,0.25058633,-0.000955075,0.00015916,-0.003733017,0.0,-0.040637444,1.6137167,0.691627405,0.014671489,-0.014054921000000001,0.721968065,1.0,398714138.0,327364447.1,400121.4421,6.0375415079999994,0.026105221,6.049751645,-0.006105221,1.5507872580000002,0,0,0.465893179,39.871413700000005,32.7364368,-0.027480163999999998,1.114860451,0.027836887999999997,-0.38801637200000005,9.409664718,0.21162976600000002,-1.5147651030000002,35.43943432,0.8483049640000001,0.1,-0.223963413,-0.134020572,-0.0058768990000000005,1.0,11553494,1,0,0,0,0
11586127,0.02439968,0.03116588,0.0047705759999999995,1.0,0.0,1502.0,1500.0,2000.0,1487.0,1512.0,1515.0,9.548311086,9.734901481,0.585487953,0.585487953,0.596923002,0.098989367,0.100922834,116.0496814,116.0496814,12.404585,-0.000452319,-0.006229556999999999,0.002082607,0.022677742,-0.000428047,-0.127656658,2.0,-1.0,0.0,11,0,0,1,0,0.0,0,0,0,0,0,0.0,-0.049501739,1.569127366,1.573630076,0.392077619,277.49881150000004,65.85405404,-0.003988002,-0.011759301000000002,0.0,-0.002220642,29.57072631,0.19634478800000002,-9.924556505,2.2000000000000002e-23,966.1567613,12.404602,0.001489226,-0.003884914,-0.0018697639999999999,33.44308993,0.137106003,-9.830008334,-0.01015537,-0.0037197109999999997,0.007543379,2.2000000000000002e-23,-0.062874077,-0.074874081,0.400600131,0.506686995,13.25405124,25.717212600000003,-0.249263211,8.754384336000001,0.10999999,-37.30703169,399.6295038,12.404602,96616.12855,1.147959467,0.17109898,-0.358882885,0.098154754,0.0005260330000000001,0.0054453999999999995,-0.001467365,0.0,-0.031060305,1.6137167,0.691686152,0.011214129,-0.010742856,0.7220294429999999,1.0,398714138.0,327364469.4,400122.1382,7.584710942,0.027845569,7.600401688,-0.007845569,1.558168335,0,0,0.43028605700000006,39.871413700000005,32.7364368,-0.042488722,1.488571369,0.036661811,-0.43853357200000004,10.64683723,0.242305235,-1.3439562040000002,32.43761674,0.8138207479999999,0.1,-0.228975095,-0.135108865,-0.0058768990000000005,1.0,11586127,1,0,0,0,0
11622760,0.021521946,0.031097362000000003,0.0031652259999999997,1.0,0.0,1501.0,1500.0,2000.0,1488.831566,1510.168434,1515.0,10.70347812,10.91261078,0.6572457279999999,0.6572457279999999,0.670082411,0.104780792,0.106827376,123.40007720000001,123.40007720000001,12.40458394,-0.000411943,-0.006267288,0.002193664,0.022668058999999997,-0.000260496,-0.127642428,2.0,-1.0,0.0,11,0,0,1,0,0.0,0,0,0,0,0,0.0,-0.039791127,1.568740952,1.573527481,0.41849471299999996,276.6683865,65.95121554,-0.004171317,-0.012248186999999999,0.0,-0.002315646,27.10198831,0.21598338600000003,-9.972134071000001,0.406952336,966.1543651000001,12.404602,0.00046875300000000003,-0.009982375,0.006518431999999999,30.84237172,0.138570145,-9.852305354,-0.010659823,-0.002551079,0.009191270999999999,0.406952336,-0.046663481,-0.058663482999999995,0.400600085,0.6493725229999999,13.25407156,25.82698263,-0.251458202,8.234400793999999,0.10999999,-38.86837561,399.5928965,12.404602,96616.56726,1.147964589,0.033246556000000003,0.450619127,-0.6840188690000001,0.0019713879999999997,0.003329883,0.0015451820000000002,0.0,-0.021493307000000003,1.6137167,0.6917304390000001,0.007760195,-0.007434074000000001,0.722075625,1.0,398714138.0,327364491.7,400122.8344,9.131880376,0.029585917000000003,9.151051731,-0.009585917,1.565549413,0,0,0.39467893600000004,39.871413700000005,32.7364368,-0.057795387000000004,1.869748474,0.045652649000000003,-0.487522713,11.85033629,0.272110119,-1.177258122,29.52800373,0.775492143,0.1,-0.23394555600000003,-0.12187371300000001,-0.0058768990000000005,1.0,11622760,1,0,0,0,0
11659393,0.022625582,0.030710936,0.003114118,1.0,0.0,1501.0,1500.0,2000.0,1489.0,1510.0,1515.0,11.66931342,11.89733589,0.7290035020000001,0.7290035020000001,0.7432418190000001,0.110572216,0.11273191699999999,130.7504729,130.7504729,12.40458288,-0.00037156699999999995,-0.006305018000000001,0.00230472,0.022658376,-9.290000000000001e-05,-0.127628198,2.0,-1.0,0.0,11,0,0,1,0,0.0,0,0,0,0,0,0.0,-0.030080515,1.5683545369999998,1.573424885,0.44491180700000005,275.8379616,66.04837704,-0.004347789,-0.012702456,0.0,-0.002399746,25.14014232,0.177937211,-9.963957134,4.8089855319999995,966.1630736,12.404602,-0.000501903,-0.009159643,-0.000262707,28.53161613,0.161979435,-9.867347802000001,-0.008438336999999999,-0.001159576,0.015459485,4.8089855319999995,-0.005496801999999999,-0.017496802,0.40060004299999996,0.7873184329999999,13.25407199,25.81514226,-0.25122139,7.800575923999999,0.10999999,-40.44293696,399.53671380000003,12.404602,96617.23165,1.1479725170000001,-0.328648905,0.299082746,0.606852209,-0.004066607,0.0016845120000000002,-0.002934593,0.0,-0.011929131,1.6137167,0.6917572679999999,0.004307086,-0.00412608,0.722103598,1.0,398714138.0,327364538.1,400123.5305,10.26392865,0.026021204,10.27862329,-0.0060212040000000005,1.5677454030000002,0,0,0.359071814,39.871413700000005,32.7364368,-0.075727368,2.316677532,0.05610464,-0.5230548079999999,12.75728566,0.294248091,-1.046762494,27.43040218,0.7033074309999999,0.1,-0.23781813,-0.11907617699999999,-0.0058768990000000005,1.0,11659393,1,0,0,0,0
11692026,0.022681267999999997,0.03089592,0.002167403,1.0,0.0,1501.0,1500.0,2000.0,1492.0,1507.0,1511.0,12.64016251,12.88706054,0.800761277,0.800761277,0.8164012270000001,0.11636364,0.118636459,138.10086869999998,138.10086869999998,12.40458182,-0.00033119199999999996,-0.006342749,0.002415777,0.022648692999999998,7.46e-05,-0.127613968,2.0,-1.0,0.0,11,0,0,1,0,0.0,0,0,0,0,0,0.0,-0.020369903,1.5679681230000002,1.57332229,0.47132890200000005,275.0075367,66.14553854,-0.004523511,-0.013119546999999999,0.0,-0.002481931,23.17829634,0.139891036,-9.955780197000001,9.211018729,966.1717821000001,12.404602,-0.0016557689999999999,-0.003122793,-0.005079483,26.57845927,0.162992108,-9.875256064,-0.006216851,0.000231928,0.021727699,9.211018729,0.039068565,0.027068567,0.40060000100000004,0.924618871,13.25406972,25.78674017,-0.250653399,7.378484726,0.10999999,-42.01929835,399.6929714,12.404602,96615.44012,1.14795124,0.28701286,-0.10640184400000001,-0.106953754,0.002131341,0.003647948,0.0009198810000000001,0.0,-0.002357573,1.6137167,0.6917699390000001,0.000851222,-0.000815449,0.7221168309999999,1.0,398714138.0,327364592.1,400124.2266,11.26636897,0.02080016,11.27410247,-0.00080016,1.56832252,0,0,0.323464693,39.871413700000005,32.7364368,-0.093659349,2.7636065889999997,0.06655663099999999,-0.558586903,13.66423503,0.31638606199999997,-0.916266866,25.33280064,0.631122718,0.1,-0.24136261899999997,-0.110755119,-0.0058768990000000005,1.0,11692026,1,0,0,0,0
11724659,0.01557041,0.02405692,0.002400554,1.0,0.0,1501.0,1500.0,2000.0,1492.0,1507.0,1511.390078,13.5019986,13.76586186,0.8725190509999999,0.8725190509999999,0.8895606359999999,0.12215506400000001,0.12454100000000001,145.4512645,145.4512645,12.40458076,-0.000290816,-0.00638048,0.002526833,0.022639011,0.000242154,-0.12759973800000002,2.0,-1.0,0.0,11,0,0,1,0,0.0,0,0,0,0,0,0.0,-0.010659291000000001,1.567581708,1.573219695,0.497745996,274.17711180000003,66.24270005,-0.004697481,-0.013504133,0.0,-0.002571527,21.40428857,0.071999408,-10.00205861,11.19615208,966.1776811000001,12.404602,-0.006442485,-0.010140501,-0.00084743,24.15403988,0.180894284,-9.86983073,0.0059486140000000005,-0.003965337,0.048638623,11.19615208,0.08363393200000001,0.071633936,0.400599959,1.061919308,13.25406744,25.75833807,-0.250085408,6.956393527,0.10999999,-43.59565973,399.6576068,12.404602,96615.82136,1.147955799,0.37426499399999996,0.19992468,0.19088981600000002,0.000876522,0.008286324,-0.0029805340000000004,0.0,0.007229327,1.6137167,0.691765092,-0.0026102029999999997,0.002500509,0.722111765,1.0,398714138.0,327364646.0,400124.9228,12.26880928,0.015579116,12.26958166,0.004420884,1.568899636,0,0,0.287857572,39.871413700000005,32.7364368,-0.110024494,3.244578287,0.076890056,-0.584387899,14.53783183,0.333900773,-0.744996587,23.41856687,0.507151927,0.1,-0.245097796,-0.099956495,-0.0058768990000000005,1.0,11724659,1,0,0,0,0
11757291,0.014945281999999999,0.024068145,0.001791045,1.0,0.0,1500.0,1500.0,2000.0,1492.090418,1506.909582,1511.0,14.40749929,14.68903318,0.944276826,0.944276826,0.9627200440000001,0.127946489,0.130445542,152.8016602,152.8016602,12.40457969,-0.00025044,-0.006418211,0.002637889,0.022629327999999997,0.000409705,-0.12758550800000001,2.0,-1.0,0.0,11,0,0,1,0,0.0,0,0,0,0,0,0.0,-0.0009486789999999999,1.5671952930000002,1.5731171,0.52416309,273.3466869,66.33986155,-0.004866859,-0.013864617,0.0,-0.0026790290000000003,20.1266828,-0.074765113,-10.19224674,6.794118879,966.1761552000002,12.404602,0.002938542,-0.001650095,0.014320985,22.40225237,0.11767793,-9.922029297,0.044393135,-0.022932102000000003,0.130102251,6.794118879,0.12819929900000002,0.116199305,0.400599917,1.199219745,13.25406516,25.72993598,-0.249517417,6.534302329,0.10999999,-45.17202112,399.4551244,12.404602,96618.18497,1.147983875,-0.130123632,-0.269129164,0.254695513,0.000830928,0.011531916000000001,0.004642902,0.0,0.01683596,1.6137167,0.691745706,-0.006078696,0.005823239,0.722091558,1.0,398714138.0,327364700.0,400125.6189,13.271249599999999,0.010358072,13.26506084,0.009641928000000001,1.5694767530000002,0,0,0.25225045,39.871413700000005,32.7364368,-0.12247100400000001,3.8106901619999998,0.08692694699999999,-0.585851551,15.32801432,0.339852775,-0.47174946799999995,21.96293336,0.253664866,0.1,-0.24829483600000002,-0.09586731400000001,-0.0058768990000000005,1.0,11757291,1,0,0,0,0
11791849,0.012698101000000002,0.021431422999999998,0.00132985,1.0,0.0,1500.0,1500.0,2000.0,1494.0,1505.0,1509.0,15.25780218,15.55579613,1.0160346,1.0160346,1.035879452,0.133737913,0.136350084,160.15205600000002,160.15205600000002,12.40457863,-0.000210064,-0.006455941,0.002748946,0.022619645,0.000577255,-0.127571278,2.0,-1.0,0.0,11,0,0,1,0,0.0,0,0,0,0,0,0.0,0.008761933000000001,1.566808879,1.573014504,0.550580185,272.516262,66.43702305,-0.005035314,-0.01420949,0.0,-0.002807192,18.84907703,-0.22152963399999998,-10.38243487,2.392085683,966.1746292000001,12.404602,-0.003542698,-0.002643649,0.027769349,21.10905053,0.017296918,-9.828808595,0.082837655,-0.041898866,0.21156587899999998,2.392085683,0.172764666,0.160764675,0.400599875,1.336520183,13.25406288,25.70153388,-0.248949426,6.11221113,0.10999999,-46.74838251,399.5563104,12.404602,96616.98608,1.1479696129999999,0.009117963,-0.373603005,0.557705172,0.003181331,0.00632212,-0.000674333,0.0,0.026472443999999998,1.6137167,0.6917090340000001,-0.009557815,0.009156149,0.7220532270000001,1.0,398714138.0,327364753.9,400126.3151,14.27368991,0.005137027,14.26054002,0.014862973,1.57005387,0,0,0.216643329,39.871413700000005,32.7364368,-0.13491751400000002,4.376802036,0.09696383900000001,-0.587315203,16.11819681,0.345804777,-0.19850235,20.50729985,0.00017780400000000002,0.1,-0.251571278,-0.079019514,-0.0058768990000000005,1.0,11791849,1,0,0,0,0
11826557,0.012564803999999999,-0.27066959399999996,6.86e-05,1.0,0.0,1498.0,1500.0,2000.0,1494.05141,1504.94859,1364.308462,15.85625862,16.16607597,1.087792375,1.087792375,1.10903886,0.139529337,0.142254625,167.50245180000002,167.50245180000002,12.40457757,-0.000169688,-0.006493672,0.002860002,0.022609962,0.000744805,-0.127557048,2.0,-1.0,0.0,11,0,0,1,0,0.0,0,0,0,0,0,0.0,0.018472545,1.566422464,1.572911909,0.576997279,271.6858371,66.53418455,-0.0052222959999999995,-0.014579713000000001,0.0,-0.002993252,17.58098758,-0.213689133,-10.42325019,2.2000000000000002e-23,966.170501,12.40459714,0.028523657,-0.019148196,0.10894974,20.12054729,-0.607316147,-10.46196452,0.129413975,-0.047954185999999996,0.250302776,2.2000000000000002e-23,0.222882423,0.21088243399999998,0.400599809,1.473588264,13.25406982,25.65862057,-0.248091024,5.700988494,0.10999999,-48.33230738,399.669319,12.404602,96615.69072,1.147954263,1.5418143619999998,-0.434996183,3.478431754,0.0034207120000000002,0.007141754,0.007362237,0.0,0.036136326,1.6137167,0.691657156,-0.013046617,0.012498334,0.7219990629999999,1.0,398714138.0,327364808.1,400127.028,15.27013703,5.6000000000000006e-05,15.25019404,0.019719944,1.570618279,0,0,0.181036207,39.871413700000005,32.7364368,-0.147067747,4.95421265,0.106211464,-0.5893008829999999,16.81907467,0.34484655200000003,-0.22237635100000003,19.12373093,-0.089193866,0.1,-0.254672626,-0.075376582,-0.0058768990000000005,1.0,11826557,1,0,0,0,0
11866380,0.001548506,-0.250628058,-0.012230665,1.0,0.0,1490.4680939999998,1500.0,2000.0,1501.5319060000002,1497.4680939999998,1376.0,16.57556788,16.89947949,1.15955015,1.15955015,1.1821982690000001,0.145320761,0.14815916699999998,174.8528476,174.8528476,12.40457651,-0.000129312,-0.006531403000000001,0.0029710590000000003,0.022600278999999997,0.000912356,-0.127542817,2.0,-1.0,0.0,11,0,0,1,0,0.0,0,0,0,0,0,0.0,0.028183157,1.56603605,1.5728093140000001,0.603414373,270.8554122,66.63134606,-0.005393876,-0.014914756999999999,0.0,-0.003212816,16.32422374,-0.021849568,-10.28629341,2.2000000000000002e-23,966.1632758,12.40458649,0.10142796800000001,-0.05369134,0.250706321,18.065403600000003,-0.32753329,-10.5084801,0.18566814,-0.038643292,0.23818958899999998,2.2000000000000002e-23,0.299447089,0.287447105,0.40059963,1.6095495969999998,13.25412064,25.54658807,-0.245849355,5.341534537,0.10999999,-49.95225831,399.5704966,12.404602,96616.80542,1.147967532,1.8717764380000002,-1.2876505870000001,2.066171411,0.004090604,0.00790704,0.015958736,0.0,0.045837623,1.6137167,0.6915879540000001,-0.016548603999999998,0.01585315,0.7219268959999999,1.0,398714138.2,327364878.4,400128.7684,15.90014321,0.003536707,15.88368074,0.002316463,1.5704056780000002,0,0,0.14542908599999999,39.871413700000005,32.7364368,-0.158882934,5.54440047,0.114566544,-0.591876898,17.41896218,0.33607388,-0.582250464,17.8216564,0.007024736,0.1,-0.258419505,-0.062158159000000004,-0.0058768990000000005,1.0,11866380,1,0,0,0,0
11899823,-0.010124574,-0.208112685,-0.027016039,1.0,0.0,1483.987598,1500.0,2000.0,1507.0,1492.0,1396.04961,17.19118654,17.52699964,1.231307924,1.231307924,1.2553576770000001,0.151112185,0.154063708,182.20324330000003,182.20324330000003,12.40457544,-8.89e-05,-0.006569134,0.003082115,0.022590597,0.001079906,-0.127528587,2.0,-1.0,0.0,11,0,0,1,0,0.0,0,0,0,0,0,0.0,0.037893769,1.565649635,1.5727067190000001,0.629831468,270.0249873,66.72850756,-0.005594705,-0.015309024,0.0,-0.003528812,15.06745989,0.169989997,-10.14933664,2.2000000000000002e-23,966.1560507000002,12.40457585,0.163632468,-0.058686734000000004,0.29462662100000003,16.67287938,-0.144691564,-10.37169795,0.24192230399999998,-0.029332398,0.22607640199999998,2.2000000000000002e-23,0.376011755,0.364011776,0.400599452,1.7455109309999999,13.25417145,25.43455558,-0.243607685,4.98208058,0.10999999,-51.57220923,399.6564969,12.40460103,96615.85347,1.147956204,1.9750571119999998,0.55188498,-0.26349141800000003,-0.000733035,0.004123402,0.033049026,0.0,0.055576994000000005,1.6137167,0.691502816,-0.02006396,0.019220774,0.7218379970000001,1.0,398714138.4,327364948.8,400130.5087,16.53014938,0.007017403,16.51716743,-0.015087017,1.5701930769999999,0,0,0.10982196400000001,39.871413700000005,32.7364368,-0.170698121,6.134588289,0.12292162400000001,-0.594452914,18.01884969,0.327301208,-0.9421245770000001,16.51958188,0.103243339,0.1,-0.261362301,-0.058265450999999996,-0.0058768990000000005,1.0,11899823,1,0,0,0,0
11932456,-0.022755195,-0.19910618100000002,-0.037997262000000004,1.0,0.0,1478.507101,1500.0,2000.0,1513.492899,1485.507101,1404.0,17.828571,18.17694737,1.303065699,1.303065699,1.328517085,0.15690361,0.15996825,189.55363909999997,189.55363909999997,12.40457438,-4.8599999999999995e-05,-0.0066068640000000005,0.003193171,0.022580914,0.001247456,-0.127514357,2.0,-1.0,0.0,11,0,0,1,0,0.0,0,0,0,0,0,0.0,0.047604380999999994,1.56526322,1.572604123,0.656248562,269.1945624,66.82566906,-0.005757255,-0.01562945,0.0,-0.003833703,13.94110256,0.38406606,-10.08031385,2.2000000000000002e-23,966.1560374,12.40455806,0.226854405,-0.034598448999999996,0.27820447600000003,15.535217000000001,0.050665602000000004,-10.235534,0.281936835,-0.024718733,0.155814518,2.2000000000000002e-23,0.452576421,0.44057644700000004,0.400599273,1.8814722640000001,13.25422227,25.32252308,-0.241366015,4.622626623,0.10999999,-53.19216016,399.686128,12.404572,96615.48886,1.147951769,0.9644688370000001,0.328869749,-2.650065005,0.06285408599999999,-0.019540211000000002,0.18106462899999998,0.0,0.065360445,1.6137167,0.691400345,-0.02359473,0.022603163,0.7217310240000001,1.0,398714138.5,327365019.1,400132.249,17.16015556,0.010498100000000002,17.15065413,-0.032490498,1.569980476,0,0,0.074214843,39.871413700000005,32.7364368,-0.177952458,6.796477427,0.12962500300000002,-0.604332778,18.56666265,0.319262012,-1.20631807,15.25429094,0.133074246,0.1,-0.26444246899999996,-0.04768054,-0.0058768990000000005,1.0,11932456,1,0,0,0,0
11965089,-0.035843999,-0.183338967,-0.045216318,1.0,0.0,1476.0,1500.0,2000.0,1519.973395,1479.026605,1408.0,18.33938813,18.69788597,1.365014582,1.365014582,1.391675999,0.16227724300000002,0.165446839,196.90403490000003,196.90403490000003,12.40457332,-8.18e-06,-0.006644595,0.0033042279999999998,0.022571231,0.0014150060000000001,-0.127500127,2.0,-1.0,0.0,11,0,0,1,0,0.0,0,0,0,0,0,0.0,0.057314993,1.564876806,1.572501528,0.682665656,268.3641375,66.92283056,-0.005928404,-0.01596822,0.0,-0.004201430999999999,12.88852331,0.610722523,-10.04972504,2.2000000000000002e-23,966.1601042000001,12.40453624,0.27428399,-0.020642972,0.207610627,14.3226547,0.095762665,-10.245560099999999,0.312763717,-0.022762546,0.052654739000000006,2.2000000000000002e-23,0.529141086,0.517141118,0.400599094,2.0174335969999997,13.25427309,25.21049058,-0.239124345,4.263172667,0.10999999,-54.81211109,399.70074520000003,12.404572,96615.33655,1.147949959,1.085430355,0.593899883,-3.4201669060000004,0.113977669,-0.047610999,0.259714757,0.0,0.07518976299999999,1.6137167,0.6912809540000001,-0.027141497,0.026000877000000002,0.7216064090000001,1.0,398714138.7,327365089.4,400133.9894,17.79016173,0.013978796000000002,17.78414083,-0.049893979000000005,1.569767875,0,0,0.038607722000000004,39.871413700000005,32.7364368,-0.182782738,7.496475289,0.135450515,-0.618094585,19.08679836,0.311612653,-1.419658015,14.00855021,0.127620579,0.1,-0.266986591,-0.042552249,-0.0058768990000000005,1.0,11965089,1,0,0,0,0
11997722,-0.040155194,-0.16082777199999998,-0.04692666,1.0,0.0,1476.453891,1500.0,2000.0,1522.453891,1476.546109,1422.0,18.86009326,19.22867288,1.3574482819999998,1.3574482819999998,1.3839618390000001,0.164690012,0.16790672,204.25443059999998,204.25443059999998,12.40457226,3.2200000000000003e-05,-0.006682326,0.003415284,0.022561547999999997,0.001582557,-0.127485897,2.0,-1.0,0.0,11,0,0,1,0,0.0,0,0,0,0,0,0.0,0.067025605,1.5644903909999999,1.572398933,0.70908275,267.5337125,67.01999206,-0.006113555,-0.016335505,0.0,-0.004654454000000001,11.83594406,0.837378987,-10.01913623,2.2000000000000002e-23,966.1641710000001,12.40451441,0.320156864,-0.008481578,0.118351625,13.35837172,0.378557506,-10.15832932,0.343590599,-0.020806359,-0.050505039,2.2000000000000002e-23,0.605705752,0.593705789,0.400598915,2.15339493,13.25432391,25.09845809,-0.236882675,3.90371871,0.10999999,-56.43206202,399.67317310000004,12.404541,96615.64183,1.147953651,0.765981543,0.18283341600000003,-3.63235333,0.193464565,-0.038627827,0.29101319600000003,0.0,0.08506770400000001,1.6137167,0.6911441220000001,-0.030705146000000003,0.029414764,0.7214636109999999,1.0,398714138.9,327365159.7,400135.7297,18.42016791,0.017459492,18.41762753,-0.067297459,1.569555274,0,0,0.0030006,39.871413700000005,32.7364368,-0.18761301800000002,8.196473152000001,0.141276026,-0.631856392,19.60693408,0.303963294,-1.63299796,12.76280947,0.12216691199999999,0.1,-0.269877152,-0.034434616,-0.0058768990000000005,1.0,11997722,1,0,0,0,0
12034355,-0.052541403,-0.151561573,-0.044145795,1.0,0.0,1479.0,1500.0,2000.0,1528.0,1471.0,1425.0,19.27466226,19.65137712,1.349881981,1.349881981,1.37624768,0.167102781,0.170366602,209.3809976,209.3809976,12.404468099999999,4.74e-05,-0.006694698000000001,0.0034574790000000003,0.021594752000000002,0.001840799,-0.127413998,2.0,-1.0,0.0,11,0,0,1,0,0.0,0,0,0,0,0,0.0,0.077121596,1.5634695580000002,1.572131256,0.7760587170000001,266.7044059,66.99623793,-0.006274318,-0.016648614,0.0,-0.0050795120000000004,10.66255759,0.641181033,-9.948098923,2.2000000000000002e-23,966.1644631000001,12.40449259,0.33747546100000003,-0.006647898,-0.002642797,12.24644333,0.6880126329999999,-10.18181762,0.342210505,-0.027388539,-0.114992115,2.2000000000000002e-23,0.6901884840000001,0.67818852,0.40059882,2.286781306,13.25438716,24.98064805,-0.23452520899999998,3.602008492,0.10999999,-57.87685574,399.6511893,12.404541,96615.86371,1.1479562859999999,0.792521975,-0.393781755,-3.11226543,0.247523398,-0.015705745,0.23531597399999998,0.0,0.094996317,1.6137167,0.690989489,-0.034286311,0.032845432,0.721302115,1.0,398714138.9,327365234.2,400137.3291,18.99094219,0.0073074609999999995,18.99047209,-0.08,1.570023656,0,0,0.0,39.871413700000005,32.7364368,-0.195405398,8.887271797999999,0.145891006,-0.66401396,20.0059355,0.299599849,-1.640327915,11.68501365,0.13848679,0.1,-0.272334497,-0.028603296,-0.0058768990000000005,1.0,12034355,1,0,0,0,0
12066988,-0.059808043,-0.143455818,-0.038052406000000004,1.0,0.0,1483.414883,1500.0,2000.0,1532.0,1467.0,1431.0,19.73491156,20.12052281,1.34231568,1.34231568,1.368533521,0.16951555,0.172826483,213.79394790000003,213.79394790000003,12.40433086,5.44e-05,-0.006698933000000001,0.003477577,0.020320822,0.002128145,-0.12732359199999999,2.0,-1.0,0.0,11,0,0,1,0,0.0,0,0,0,0,0,0.0,0.087401409,1.562146115,1.5717848369999998,0.862380758,265.8756327,66.91480854,-0.0064541780000000005,-0.016989675,0.0,-0.005593112,9.462786023,0.35262888600000003,-9.868227402999999,2.2000000000000002e-23,966.1639308,12.40447076,0.350833402,-0.018647078,-0.094594675,11.23613187,0.759138755,-10.08564396,0.333796195,-0.035835554,-0.171032818,2.2000000000000002e-23,0.7837121359999999,0.7717121659999999,0.40059882,2.417227572,13.25446462,24.85624115,-0.23203552600000002,3.366230613,0.10999999,-59.12165331,399.58867069999997,12.404510499999999,96616.62467,1.147965315,-0.317904913,-0.808101924,-1.744380667,0.302205544,0.002272065,0.14275217099999998,0.0,0.104975358,1.6137167,0.6908172929999999,-0.037884838,0.036292727999999996,0.7211223729999999,1.0,398714138.3,327365320.2,400138.5473,19.40166433,-0.039681936,19.39945389,-0.08,1.572332141,0,0,0.0,39.871413700000005,32.7364368,-0.203776237,9.576273963,0.150269585,-0.699763965,20.38128107,0.29587809800000003,-1.607426964,10.64001516,0.159058742,0.1,-0.274274058,-0.026070438999999997,-0.0058768990000000005,1.0,12066988,1,0,0,0,0
12099621,-0.058619193,-0.128199646,-0.029643878999999998,1.0,0.0,1488.0,1500.0,2000.0,1530.0,1469.0,1438.0,20.14756422,20.54120855,1.33474938,1.33474938,1.360819361,0.171928319,0.175286365,218.20689810000002,218.20689810000002,12.40419363,6.15e-05,-0.006703168000000001,0.003497675,0.019046892,0.00241549,-0.127233187,2.0,-1.0,0.0,11,0,0,1,0,0.0,0,0,0,0,0,0.0,0.097681222,1.5608226719999998,1.571438418,0.948702798,265.0468594,66.83337916,-0.006623987,-0.017301603999999998,0.0,-0.006109886,8.264489014,0.064434575,-9.788444672999999,2.2000000000000002e-23,966.1633982000001,12.40444897,0.34699213700000003,-0.038014747,-0.17368131,9.990063279,0.646404877,-10.00859657,0.325348019,-0.04421381,-0.226871166,2.2000000000000002e-23,0.8772357890000001,0.8652358109999999,0.40059882,2.547673838,13.25454207,24.73183426,-0.229545842,3.1304527330000003,0.10999999,-60.36645089,399.5845681,12.40448243,96616.65563,1.147965732,-0.76005214,-0.336696275,-1.8109196769999998,0.336000466,0.010243809,0.031822626,0.0,0.11500920199999999,1.6137167,0.690626104,-0.041502139,0.039758012999999995,0.7209228390000001,1.0,398714137.8,327365406.2,400139.7656,19.81238648,-0.086671334,19.80843569,-0.08,1.5746406259999999,0,0,0.0,39.871413700000005,32.7364368,-0.21208097199999998,10.26710298,0.154558307,-0.7347673640000001,20.75499988,0.292151923,-1.5683224740000001,9.597879687,0.18011111300000002,0.1,-0.276165169,-0.010181118000000001,-0.0058768990000000005,1.0,12099621,1,0,0,0,0
12132507,-0.06328113,-0.117082011,-0.02009217,1.0,0.0,1493.375875,1500.0,2000.0,1533.0,1466.0,1444.0,20.48341626,20.88355486,1.327183079,1.327183079,1.3531052019999998,0.174341088,0.17774624600000002,222.61984840000002,222.61984840000002,12.40405639,6.86e-05,-0.006707403000000001,0.003517772,0.017772962,0.002702835,-0.12714278199999998,2.0,-1.0,0.0,11,0,0,1,0,0.0,0,0,0,0,0,0.0,0.107961034,1.559499229,1.571092,1.035024838,264.21808619999996,66.75194978,-0.006794574,-0.017602283,0.0,-0.006651253,7.587890525,-0.09715740699999999,-9.740075759,2.2000000000000002e-23,966.1627451999999,12.40443832,0.330744411,-0.043046289,-0.213419828,8.851835826,0.189210818,-9.898854665,0.30491821,-0.028264767000000003,-0.211116463,2.2000000000000002e-23,0.9707594409999999,0.958759457,0.40059882,2.678120103,13.25461952,24.60742736,-0.22705615899999998,2.894674854,0.10999999,-61.61124847,399.5391396,12.40448,96617.18763,1.1479719320000001,-0.183767977,0.142220472,-0.41567218,0.35111841299999996,-0.001907738,-0.073888479,0.0,0.125095407,1.6137167,0.6904173640000001,-0.045137316,0.043240420999999994,0.7207049109999999,1.0,398714137.3,327365492.1,400140.9838,20.22310862,-0.133660732,20.21741748,-0.08,1.57694911,0,0,0.0,39.871413700000005,32.7364368,-0.21719256,11.04617885,0.15450637,-0.733705506,21.05013704,0.288212055,-1.229552557,8.694044112,0.22437041,0.1,-0.277935698,-0.008767470999999999,-0.0058768990000000005,1.0,12132507,1,0,0,0,0
12176887,-0.06712784,-0.110411276,-0.006472889,1.0,0.0,1499.0,1500.0,2000.0,1533.0,1466.0,1446.856371,20.80110052,21.207522100000002,1.3196167779999999,1.3196167779999999,1.345391043,0.176753857,0.18020612800000002,227.0327986,227.0327986,12.40391915,7.57e-05,-0.0067116369999999995,0.00353787,0.016499032,0.00299018,-0.127052377,2.0,-1.0,0.0,11,0,0,1,0,0.0,0,0,0,0,0,0.0,0.118240847,1.558175787,1.570745581,1.121346879,263.3893129,66.6705204,-0.006970233,-0.017898279,0.0,-0.007222679,6.911292035,-0.258749388,-9.691706845,2.2000000000000002e-23,966.1620922000001,12.40442768,0.31286216699999997,-0.052308885,-0.23528788899999997,7.924132165,-0.13307308199999998,-9.785120444,0.284488402,-0.012315725,-0.19536176,2.2000000000000002e-23,1.064283094,1.052283102,0.40059882,2.808566369,13.25469698,24.48302047,-0.224566475,2.658896974,0.10999999,-62.85604604,399.616491,12.40445263,96616.32357000001,1.1479617359999998,-1.364911309,1.159670529,0.166565426,0.349212772,-0.017025075,-0.145850205,0.0,0.135239765,1.6137167,0.69018855,-0.048792221,0.046741732,0.720466099,1.0,398714136.8,327365578.1,400142.20200000005,20.63383077,-0.18065013,20.62639928,-0.08,1.579257595,0,0,0.0,39.871413700000005,32.7364368,-0.222304148,11.82525472,0.154454434,-0.7326436479999999,21.3452742,0.284272187,-0.89078264,7.790208538,0.268629706,0.1,-0.280019869,0.003576624,-0.0058768990000000005,1.0,12176887,1,0,0,0,0
12209520,-0.06692174599999999,-0.099275599,0.003110458,1.0,0.0,1503.336867,1500.0,2000.0,1533.0,1466.0,1452.0,21.08501521,21.49693757,1.312050478,1.312050478,1.3376768829999999,0.17916662600000002,0.182666009,231.4457489,231.4457489,12.40378191,8.28e-05,-0.0067158719999999995,0.003557968,0.015225101999999999,0.003277526,-0.126961971,2.0,-1.0,0.0,11,0,0,1,0,0.0,0,0,0,0,0,0.0,0.12852066,1.5568523440000002,1.570399162,1.207668919,262.5605397,66.58909102,-0.007128389000000001,-0.018150374,0.0,-0.007733622,6.254734686,-0.399140829,-9.683912299,0.8138906309999999,966.1621367,12.40441697,0.28937450800000003,-0.029713412999999998,-0.232613231,7.095083239,-0.34359735700000005,-9.648067003,0.26470165100000004,0.002220119,-0.163651814,0.8138906309999999,1.1578067459999999,1.145806748,0.40059882,2.939012635,13.25477443,24.35861357,-0.222076792,2.423119094,0.10999999,-64.10084362,399.4853143,12.40443808,96617.79512000001,1.147979265,-0.370223079,1.276836123,1.650287552,0.33758521799999996,-0.025581721,-0.21614472699999998,0.0,0.145435484,1.6137167,0.6899420709999999,-0.052464464,0.05025965,0.720208787,1.0,398714136.2,327365664.1,400143.4203,21.04455291,-0.227639528,21.03538108,-0.08,1.58156608,0,0,0.0,39.871413700000005,32.7364368,-0.227543627,12.59698884,0.15448235800000001,-0.729240193,21.62141609,0.280174838,-0.61017233,6.945756605,0.293481842,0.1,-0.281708982,0.017617652,-0.0058768990000000005,1.0,12209520,1,0,0,0,0
12242152,-0.06807569599999999,-0.09528396800000001,0.01140398,1.0,0.0,1507.8173630000001,1500.0,2000.0,1534.0,1465.0,1454.0,21.26809625,21.68347221,1.304484177,1.304484177,1.329962724,0.181579395,0.18512589,235.85869920000002,235.85869920000002,12.40364468,8.98e-05,-0.0067201069999999995,0.003578065,0.013951172,0.003564871,-0.126871566,2.0,-1.0,0.0,11,0,0,1,0,0.0,0,0,0,0,0,0.0,0.13880047199999998,1.555528901,1.5700527430000002,1.293990959,261.73176639999997,66.50766163,-0.00729488,-0.018406026000000002,0.0,-0.008271988000000001,5.686529441,-0.44606891,-9.854991337000001,5.215847885,966.1652561000001,12.40440596,0.265073296,-0.0058061269999999995,-0.197769869,6.493941175,-0.44378259600000003,-9.676624685,0.24774984,0.010525824,-0.061602593,5.215847885,1.282097675,1.2700977420000001,0.40059892399999997,3.074513493,13.25486241,24.22523479,-0.21940745600000003,2.2235938369999997,0.10999999,-65.29431404,399.5854839,12.404419,96616.65461,1.147965661,-0.137506819,0.9783023740000001,1.458670556,0.31596195899999996,-0.035729968,-0.23997039,0.0,0.155692856,1.6137167,0.689674417,-0.056157415999999995,0.053797406,0.7199293659999999,1.0,398714135.5,327365752.1,400144.9122,21.35493499,-0.262770554,21.34493499,-0.074526905,1.583158127,0,0,0.0,39.871413700000005,32.7364368,-0.23328230600000002,13.34006584,0.154822001,-0.7166967409999999,21.82341351,0.275462794,-0.556577282,6.333097725,0.242581716,0.1,-0.283003561,0.019641501999999998,-0.0058768990000000005,1.0,12242152,1,0,0,0,0
12282785,-0.06951923,-0.087475491,0.019262951,1.0,0.0,1510.29786,1500.0,2000.0,1535.0,1464.0,1457.70214,21.55726471,21.9784706,1.296917876,1.296917876,1.322248565,0.18399216399999999,0.18758577199999998,240.2716494,240.2716494,12.40350744,9.690000000000001e-05,-0.0067243419999999995,0.0035981629999999997,0.012677242,0.003852216,-0.126781161,2.0,-1.0,0.0,11,0,0,1,0,0.0,0,0,0,0,0,0.0,0.149080285,1.5542054580000002,1.569706325,1.380312999,260.9029932,66.42623225,-0.007459519,-0.018643633,0.0,-0.008812184,5.118324197,-0.492996991,-10.02607038,9.617805139,966.1683754000001,12.40439496,0.253820468,-0.008777886,-0.10371762400000001,4.730200123,-1.774822102,-10.72271585,0.23079803,0.018831529,0.040446627,9.617805139,1.4160899969999998,1.404090151,0.40059906100000003,3.211608141,13.25495371,24.08902705,-0.21668147399999999,2.035499587,0.10999999,-66.47160021,399.6284647,12.404419,96616.17143,1.147959863,-0.572166159,0.63876337,2.148441722,0.295162017,-0.02188756,-0.237610756,0.0,0.165999402,1.6137167,0.6893890640000001,-0.059866740999999994,0.057350841,0.7196315409999999,1.0,398714134.4,327365841.9,400146.6525,21.57421884,-0.287135427,21.56421884,-0.064084817,1.584099725,0,0,0.0,39.871413700000005,32.7364368,-0.239020985,14.08314283,0.15516164400000002,-0.7041532890000001,22.02541092,0.270750749,-0.502982235,5.720438846,0.19168159,0.1,-0.284747453,0.031627308,-0.0058768990000000005,1.0,12282785,1,0,0,0,0
12319418,-0.071113215,-0.083804151,0.020692245,1.0,0.0,1510.0,1500.0,2000.0,1535.0,1464.0,1460.0,21.71115178,22.13537914,1.2893515759999998,1.2893515759999998,1.314534405,0.186404933,0.190045653,244.6845997,244.6845997,12.4033702,0.00010400700000000001,-0.0067285769999999995,0.003618261,0.011403311999999999,0.004139562,-0.126690756,2.0,-1.0,0.0,11,0,0,1,0,0.0,0,0,0,0,0,0.0,0.159360098,1.552882015,1.5693599059999999,1.46663504,260.0742199,66.34480287,-0.007648883,-0.018906812,0.0,-0.009445321,4.606847918,-0.44708068100000004,-10.39237193,10.78901361,966.1706365,12.40438006,0.234426162,-0.0034621120000000003,-0.015692872,5.362709375,-0.614917349,-9.840950157,0.21608201,0.044975327999999995,0.111345051,10.78901361,1.5500823190000002,1.538082561,0.400599197,3.34870279,13.25504501,23.9528193,-0.21395549100000003,1.847405336,0.10999999,-67.64888638,399.6290974,12.40439395,96616.11824,1.147959311,-0.35785132299999994,0.5915298179999999,2.859682222,0.27898691600000003,3.3799999999999995e-05,-0.216573655,0.0,0.176368083,1.6137167,0.68908141,-0.063596633,0.060923992,0.7193103909999999,1.0,398714133.4,327365931.7,400148.3929,21.7935027,-0.31150029999999995,21.7835027,-0.05364272900000001,1.5850413230000002,0,0,0.0,39.871413700000005,32.7364368,-0.24382390199999998,14.85910152,0.154875996,-0.698703188,22.2165754,0.259393101,-0.60521395,5.179492468,-0.011816341000000001,0.1,-0.28606078,0.045043106,-0.0058768990000000005,1.0,12319418,1,0,0,0,0
12352051,-0.072367617,-0.075302224,0.019003211000000002,1.0,0.0,1508.0,1500.0,2000.0,1536.258852,1462.741148,1464.0,21.9245576,22.35301428,1.281785275,1.281785275,1.306820246,0.188817702,0.192505535,249.09755,249.09755,12.40323296,0.00011108799999999999,-0.006732811,0.003638358,0.010129382,0.004426907,-0.12660035,2.0,-1.0,0.0,11,0,0,1,0,0.0,0,0,0,0,0,0.0,0.16963991,1.551558573,1.5690134869999999,1.55295708,259.24544669999995,66.26337349,-0.007786213,-0.019085941000000002,0.0,-0.009909253,4.193231283,-0.24100423199999998,-11.09543982,6.387056353999999,966.1714172000001,12.40435841,0.22099070399999998,0.018716863,0.103338301,4.8453070060000005,-0.470292049,-10.08841164,0.205222812,0.10189052400000001,0.128507154,6.387056353999999,1.684074641,1.672074971,0.400599334,3.485797438,13.255136300000002,23.81661155,-0.211229508,1.659311086,0.10999999,-68.82617255,399.701718,12.404388,96615.32067,1.147949873,-0.21971721600000002,1.1273051109999999,1.776786531,0.264021441,0.02281121,-0.166593494,0.0,0.18678609699999998,1.6137167,0.688755564,-0.067342733,0.064512661,0.7189702840000001,1.0,398714132.3,327366021.5,400150.1332,22.01278656,-0.33586517299999996,22.00278656,-0.04320064,1.585982921,0,0,0.0,39.871413700000005,32.7364368,-0.247148368,15.68701137,0.15360242400000002,-0.704460167,22.39062446,0.237535785,-0.953642888,4.751847673,-0.456409933,0.1,-0.287731648,0.048613932,-0.0058768990000000005,1.0,12352051,1,0,0,0,0
12392684,-0.074395583,-0.07159284099999999,0.01372654,1.0,0.0,1505.260652,1500.0,2000.0,1537.0,1462.0,1465.0,22.14020651,22.57278284,1.274218974,1.274218974,1.299106087,0.191230471,0.194965416,253.5105002,253.5105002,12.40309572,0.000118168,-0.006737046,0.0036584559999999996,0.008855453000000001,0.004714252,-0.126509945,2.0,-1.0,0.0,11,0,0,1,0,0.0,0,0,0,0,0,0.0,0.179919723,1.55023513,1.568667068,1.63927912,258.4166735,66.18194411,-0.007966056,-0.019308685,0.0,-0.010526009,3.7796146489999995,-0.034927782000000004,-11.79850771,1.9850991000000002,966.1721979,12.40433676,0.208635275,0.090363635,0.160927923,4.425954678,-0.064551025,-10.49961195,0.194363615,0.15880572099999998,0.145669257,1.9850991000000002,1.818066964,1.8060673809999999,0.40059947100000004,3.6228920860000002,13.255227599999998,23.6804038,-0.20850352600000002,1.471216836,0.10999999,-70.00345872,399.627255,12.404388,96616.15157,1.14795972,-0.36076256700000003,2.199923567,0.439510009,0.236965242,0.003044792,-0.041460802000000005,0.0,0.197261493,1.6137167,0.688407372,-0.071107452,0.068119165,0.71860676,1.0,398714131.3,327366111.3,400151.8736,22.23207041,-0.360230046,22.22207041,-0.032758552,1.586924519,0,0,0.0,39.871413700000005,32.7364368,-0.250472834,16.51492123,0.152328852,-0.710217146,22.56467353,0.21567846899999998,-1.302071827,4.324202877,-0.901003525,0.1,-0.28903561,0.061114821,-0.0058768990000000005,1.0,12392684,1,0,0,0,0
