,timestamp,control[0],control[1],control[2],control[3],control[4],output[2],output[3],output[4],output[5],output[6],output[7],indicated_airspeed_m_s,equivalent_airspeed_m_s,true_airspeed_m_s,equivalent_ground_minus_wind_m_s,true_ground_minus_wind_m_s,indicated_airspeed_m_s.1,true_airspeed_m_s.1,differential_pressure_raw_pa,differential_pressure_filtered_pa,temperature,gyro_bias[0],gyro_bias[1],gyro_bias[2],accel_bias[0],accel_bias[1],accel_bias[2],nav_roll,nav_pitch,nav_bearing,target_bearing,xtrack_error,wp_dist,acceptance_radius,rollspeed_integ,pitchspeed_integ,yawspeed_integ,additional_integ1,x,y,z,temperature.1,pressure,temperature.2,gyro_rad[0],gyro_rad[1],gyro_rad[2],accelerometer_m_s2[0],accelerometer_m_s2[1],accelerometer_m_s2[2],timestamp_sample,x.1,y.1,z.1,temperature.3,altitude_sp,altitude_filtered,height_rate_setpoint,height_rate,airspeed_sp,airspeed_filtered,airspeed_derivative_sp,airspeed_derivative,throttle_integ,pitch_integ,timestamp_sample.1,baro_alt_meter,baro_temp_celcius,baro_pressure_pa,rho,roll_body,pitch_body,yaw_body,q_d[0],q_d[1],q_d[2],q_d[3],thrust_body[0],xyz[0],xyz[1],xyz[2],xyz[0].1,xyz[1].1,xyz[2].1,lat,lon,alt,vel_m_s,vel_n_m_s,vel_e_m_s,vel_d_m_s,cog_rad,ref_lat,ref_lon,x.2,y.2,z.2,vx,vy,vz,ax,ay,az,dist_bottom,roll,pitch,yaw,thrust_body[0].1,isTakeoff,isClimbing,isDescending,isCruise,isLand
0,33000000,0.0,0.0,0.0,0.5,0.5,900.0,900.0,900.0,900.0,900.0,900.0,0.9738671,0.9738671,0.9928898000000002,0.049313057,0.050276298,0.59011465,0.60164046,0.21329413,0.21329413,12.404602,-0.0013838589999999999,-0.005725703,0.000483996,0.022825766,0.003978438,-0.09619322,0.008008662,0.0,2.3836906000000004,1.5981736,-0.20459056,,0.28647888,4.29e-06,5.85e-06,-3.82e-06,0.0,-0.14291546,0.21224007,-9.984456,6.87e+18,966.1686,12.404602,-0.004379106,-0.009954265,-0.0014547579999999998,-0.12093012,0.22376363,-9.851189,33012000.0,-0.0006910519999999999,-0.002595081,0.006827219,6.87e+18,-0.20406792,-0.21606793,0.40060034,0.04062916,13.253951,25.784863,-0.25061822,8.860341,0.10999999,-37.396408,1764000.0,399.51263,12.404602,96617.48,1.1479754,0.008008662,0.0,2.3836906000000004,0.36994314,0.001481383,0.003720227,0.92904574,0.15,-0.11872603,-0.09004967,0.031830013,-0.0036289029999999997,-0.007339460999999999,0.000880853,398714138.0,327364372.0,400119.0,0.0,0.0,0.0,0.02,3.9266417000000002,39.871413700000005,32.7364371,-1.89e-06,4.44e-07,-1.78e-06,-0.000347552,5.550000000000001e-05,-0.0008527000000000001,-0.038306314,9.459999999999999e-07,-0.2106158,0.1,0.03978659,0.023380762000000003,-0.007389004,0.15,1,0,0,0,0
1,33032067,0.0,0.0,0.0,0.5,0.5,900.0,900.0,900.0,900.0,900.0,900.0,1.6013992280000002,1.601635039,1.6329287469999998,0.707391159,0.721217324,0.019735286,0.020122002,0.237773653,0.237773653,12.404602,-0.00138434,-0.005724911,0.000482807,0.022853686,0.003998869,-0.09615667,0.007443137,0.0,2.326666836,1.596600974,-0.19072858399999998,,2.480635584,5.01e-06,5.51e-06,-3.04e-06,0.0,-0.16059398,0.222150773,-9.919409867,6.87e+18,966.1629239,12.404602,-0.00118587,-0.008305131,-0.008528064,-0.119099636,0.234740297,-9.915238039,33047587.12,-0.0033734790000000004,-0.006229496,0.0029086,6.87e+18,-0.175824788,-0.187824797,0.400600295,0.18490746800000002,13.25399451,25.78481775,-0.250616447,8.375771884,0.10999999,-39.17213474,1805873.975,399.6610924,12.404602,96615.7942,1.1479554440000002,0.008008662,0.0,2.3836906000000004,0.36994314,0.001481383,0.003720227,0.92904574,0.15,0.080697508,0.056566522,-0.069128355,-0.0037829509999999997,-0.0063247880000000005,0.000879989,398714137.8,327364372.0,400119.0,0.0,0.0,0.0020684139999999998,0.017931586,3.489354785,39.871413700000005,32.7364371,2.8100000000000002e-05,4.04e-05,-0.013026028,0.000202692,0.0007490919999999999,-0.007456167,-0.003614838,0.009237766,-0.184557566,0.1,0.039459232000000004,0.023439064,-0.007393172,0.15,1,0,0,0,0
2,33068134,0.0,0.0,0.0,0.5,0.5,900.0,900.0,900.0,900.0,900.0,900.0,2.228931357,2.229402979,2.272967694,1.3654692609999999,1.39215835,1.0628782140000002,1.0836484240000002,0.26225317600000003,0.26225317600000003,12.404602,-0.0013848220000000002,-0.005724118,0.000481617,0.022881606000000002,0.0040192990000000005,-0.096120121,0.006877613,0.0,2.269643072,1.595028348,-0.176866608,,4.674792289,4.26e-06,5.2e-06,-2.15e-06,0.0,-0.1782725,0.232061475,-9.854363734,6.87e+18,966.1572477,12.404602,-0.00042029400000000004,-0.007353814,0.002928772,-0.07748247700000001,0.17221871600000002,-9.808976101,33083174.23,-0.006055905,-0.009863911999999999,-0.0010100180000000001,6.87e+18,-0.147581656,-0.159581664,0.40060025,0.32918577600000004,13.25403802,25.7847725,-0.250614673,7.891202767999999,0.10999999,-40.94786147,1847747.95,399.6154268,12.404602,96616.29312,1.147961416,0.008008662,0.0,2.3836906000000004,0.36994314,0.001481383,0.003720227,0.92904574,0.15,0.005982938,0.004085639,0.019825447,-0.001848289,-0.003970539,0.001205947,398714137.6,327364372.0,400119.0,0.0,0.0,0.004136827,0.015863173,3.05206787,39.871413700000005,32.7364371,5.7999999999999994e-05,8.03e-05,-0.026050276,0.000752935,0.0014426379999999998,-0.014059635,0.031076637999999997,0.018474587,-0.15849933300000002,0.1,0.033478735,0.023508066,-0.007391521,0.071294259,1,0,0,0,0
3,33108202,0.0,0.0,0.0,0.5,0.5,900.0,900.0,900.0,900.0,900.0,900.0,2.856463485,2.857170918,2.9130066410000004,2.023547364,2.063099376,-0.074457362,-0.075914593,0.2867327,0.2867327,12.404602,-0.0013853029999999998,-0.005723326,0.00048042800000000003,0.022909526,0.00403973,-0.09608357099999999,0.006312088,0.0,2.2126193080000003,1.5934557219999999,-0.16300463199999998,,6.868948992999999,3.74e-06,5.58e-06,-3.21e-06,0.0,-0.185250852,0.245085605,-9.807330248,6.87e+18,966.1535823999999,12.404602,-0.007069727,-0.003652795,-0.002978759,-0.14583406,0.20437083600000003,-9.965852075,33118761.35,-0.007268015,-0.012520065,-0.0040695340000000005,6.87e+18,-0.119338525,-0.13133853,0.40060020399999996,0.473464083,13.25408153,25.78472725,-0.25061289999999997,7.406633652999999,0.10999999,-42.72358821,1889621.924,399.633851,12.404602,96616.07135,1.147958788,0.0,0.0,1.5981648000000002,0.6973647,0.0,0.0,0.71671647,0.423484697,0.047197876,-0.009478781,-0.048036129000000004,-0.002824995,-0.007311553,-0.000997202,398714137.4,327364372.0,400119.0,0.0,0.0,0.006205240999999999,0.013794758999999998,2.614780955,39.871413700000005,32.7364371,0.000152008,0.000175432,-0.037144445,0.001735191,0.00261002,-0.022223331000000002,0.022374400000000003,0.027741453,-0.13845364400000001,0.1,0.02820501,0.023623348,-0.007391521,1.0,1,0,0,0,0
4,33144269,0.0,0.0,0.0,0.5,0.5,900.0,900.0,900.0,900.0,900.0,900.0,3.4839956130000003,3.484938858,3.5530455869999997,2.681625466,2.7340404019999998,1.204654103,1.228198257,0.311212223,0.311212223,12.404602,-0.001385784,-0.0057225340000000005,0.00047923800000000005,0.022937447000000003,0.00406016,-0.096047021,0.0057465630000000005,0.0,2.155595544,1.5918830959999999,-0.14914265599999998,,9.063105698,4.64e-06,5.3e-06,-3.42e-06,0.0,-0.146611034,0.27138325399999996,-9.837090331,6.87e+18,966.1584899000001,12.404602,-0.005372488000000001,-0.007361851,0.002401475,-0.150881652,0.257325989,-9.948242003999999,33154348.47,-0.00221171,-0.011005581,-0.0034664270000000002,6.87e+18,-0.09109539300000001,-0.10309539699999999,0.400600159,0.6177423910000001,13.25412503,25.784682,-0.250611126,6.922064537000001,0.10999999,-44.49931494,1931495.899,399.54803030000005,12.404602,96617.08533,1.1479708999999998,0.0,0.0,1.5981648000000002,0.6973647,0.0,0.0,0.71671647,1.0,0.086200271,-0.049988295999999995,0.006231761999999999,-0.00030155,-0.009224859,-0.000257163,398714137.2,327364372.0,400119.0,0.0,0.0,0.008273655,0.011726345,2.17749404,39.871413700000005,32.7364371,0.000287494,0.000306213,-0.046988933,0.002997164,0.0040842,-0.03139724,-0.014424242,0.037027772,-0.122300935,0.1,0.028253712,0.023520988,-0.007391521,1.0,1,0,0,0,0
5,33180336,0.0,0.0,0.0,0.5,0.5,900.0,900.0,900.0,900.0,900.0,900.0,4.111527741000001,4.1127067969999995,4.193084534,3.339703568,3.404981428,-0.988850693,-1.008171297,0.335691746,0.335691746,12.404602,-0.001386265,-0.005721741999999999,0.00047804900000000003,0.022965367,0.004080591,-0.096010472,0.005181039,0.0,2.09857178,1.59031047,-0.13528068,,11.257262400000002,3.68e-06,5.85e-06,0.0,0.0,-0.107971216,0.29768090199999997,-9.866850414,6.87e+18,966.1633972999999,12.404602,0.002120957,-0.005825466999999999,-0.00206872,-0.13371134099999998,0.157879435,-9.885257848,33189935.59,0.0028445959999999996,-0.009491096,-0.00286332,6.87e+18,-0.06285226099999999,-0.074852264,0.400600114,0.762020699,13.25416854,25.78463675,-0.25060935300000003,6.437495421,0.10999999,-46.27504168,1970474.895,399.5929553,12.404602,96616.57922,1.147964854,0.0,0.0,1.5981648000000002,0.6973647,0.0,0.0,0.71671647,1.0,-0.045871485999999996,-0.010661262,0.050539266,0.000221925,-0.008881856,-0.0009779889999999999,398714137.0,327364372.0,400119.3421,0.0,0.0,0.009315863,0.01,1.9155823369999998,39.871413700000005,32.7364371,0.000438572,0.00047563699999999995,-0.05630319599999999,0.004272445,0.005707782,-0.040240826,-0.031772523999999996,0.040829915,-0.111804142,0.1,0.028194887999999998,0.023509225,-0.007391521,1.0,1,0,0,0,0
6,33220403,0.0,0.0,0.0,0.5,0.5,900.0,900.0,900.0,900.0,900.0,900.0,4.73905987,4.7404747369999995,4.833123481,3.99778167,4.075922454,-1.100538772,-1.122039416,0.36017126899999996,0.36017126899999996,12.404602,-0.0013867460000000001,-0.005720949,0.000476859,0.022993287,0.004101021,-0.09597392199999999,0.004615514,0.0,2.041548016,1.588737844,-0.121418704,,13.45141911,3.48e-06,5.06e-06,0.0,0.0,-0.09245056900000001,0.311948674,-9.891910681,6.87e+18,966.1665562999999,12.404602,0.000653452,-0.004091324,-0.00260686,-0.09655092900000001,0.20861539899999998,-9.92713897,33225522.7,0.004630431,-0.008974763,-0.00285396,6.87e+18,-0.029211789,-0.04121179,0.400600069,0.895349602,13.25420516,25.76309306,-0.25017774800000003,5.993120321,0.10999999,-47.97418782,2013117.824,399.65362200000004,12.404602,96615.85988999999,1.147956143,0.0,0.0,1.5981648000000002,0.6973647,0.0,0.0,0.71671647,1.0,-0.047333676,0.089915841,-0.032843048,-0.001536935,-0.006293236,0.00035265,398714137.2,327364372.0,400121.4105,0.0,0.0,0.005179036,0.01,2.538751385,39.871413700000005,32.7364371,0.000646921,0.000787012,-0.063669745,0.005596608,0.007880176,-0.047871012000000004,0.022327718,0.024486603,-0.122083669,0.1,0.028195255,0.023545284,-0.007391521,1.0,1,0,0,0,0
7,33256470,0.033019571,0.015879344,-0.005793899999999999,0.15,0.458823806,900.0,900.0,900.0,900.0,900.0,900.0,5.3665919980000005,5.368242676,5.473162427999999,4.6558597719999995,4.74686348,0.020353064,0.020750353,0.384650792,0.384650792,12.404602,-0.0013872270000000002,-0.005720156999999999,0.00047567,0.023021207000000002,0.004121452,-0.09593737199999999,0.00404999,0.0,1.984524252,1.5871652180000002,-0.107556728,,15.64557581,3.1e-06,4.95e-06,0.0,-5.22e-07,-0.114652473,0.306587817,-9.909302461000001,6.87e+18,966.1668622999999,12.404602,-0.000362609,-0.009942046,0.000586093,-0.143547481,0.15288928699999998,-9.967392576,33261109.82,0.001079982,-0.010087069,-0.0038133909999999997,6.87e+18,0.020278791,0.008278791,0.400600028,0.996523919,13.25422151,25.678415899999997,-0.248483875,5.666781041,0.10999999,-49.44844346,2053117.824,399.5598212,12.404602,96616.93462,1.147968962,0.0,0.0,1.5981648000000002,0.6973647,0.0,0.0,0.71671647,1.0,-0.048042535,-0.08256507,0.0551846,-0.003060637,-0.005681091,-0.001012215,398714137.4,327364372.0,400123.4789,0.0,0.0,0.001042208,0.01,3.161920432,39.871413700000005,32.7364371,0.00085527,0.001098386,-0.071036294,0.0069207719999999995,0.010052571,-0.055501198,0.07642796,0.008143291,-0.132363195,0.1,0.028196943,0.023589338999999997,-0.007391521,1.0,1,0,0,0,0
8,33288538,0.031870089,0.016495634,-0.00594867,0.15,0.37865583399999997,900.0,900.0,900.0,900.0,900.0,900.0,5.994124126,5.996010616,6.113201375,5.313937875,5.417804506,-1.038507102,-1.058800383,0.409130315,0.409130315,12.404602,-0.0013877079999999999,-0.005719365,0.00047448,0.023049127000000003,0.004141882,-0.09590082300000001,0.003484465,0.0,1.9275004880000002,1.5855925919999998,-0.09369475199999999,,17.83973252,3.42e-06,5.35e-06,0.0,-3.7e-06,-0.136854377,0.30122695899999996,-9.926694241,6.87e+18,966.1671684,12.404602,-0.000368579,-0.007758013,-0.0031557729999999997,-0.126320309,0.251079918,-9.923199013,33296696.94,-0.002470467,-0.011199376,-0.004772822,6.87e+18,0.069769371,0.057769373,0.400599986,1.0976982370000001,13.25423787,25.59373874,-0.246790003,5.340441761,0.10999999,-50.9226991,2094991.7980000002,399.6390051,12.404602,96616.05857000001,1.147958546,0.0,0.0,1.5981648000000002,0.6973647,0.0,0.0,0.71671647,1.0,0.009139498000000001,-0.000603846,0.020883011,-0.002675644,-0.006523067,-0.0019035179999999999,398714137.7,327364372.0,400125.5473,0.0,0.0,-0.0030946190000000003,0.01,3.78508948,39.871413700000005,32.7364371,0.001201134,0.001603561,-0.078058244,0.008343991,0.011650298,-0.063182737,0.058408124000000006,0.021462586000000002,-0.138484655,0.100176591,0.028133283,0.023430752000000003,-0.007391521,1.0,1,0,0,0,0
9,33320605,0.030515094,0.016472369,-0.005569964,0.15,0.29848789800000003,900.0,900.0,900.0,900.0,900.0,900.0,6.621656255,6.623778555,6.753240322000001,5.972015977000001,6.088745532999999,1.1103736640000001,1.132070607,0.433609839,0.433609839,12.404602,-0.001388189,-0.005718573,0.000473291,0.023077047000000003,0.004162313,-0.09586427300000001,0.00291894,0.0,1.870476724,1.5840199659999998,-0.079832776,,20.03388922,3.36e-06,5.73e-06,0.0,-1.05e-05,-0.143373682,0.288099864,-9.928364965,6.87e+18,966.1675027999999,12.404602,-0.001809495,-0.005028079,-0.000553454,-0.179875078,0.193259595,-9.930442794,33332284.06,-0.0035762909999999997,-0.011598973,-0.004372926,6.87e+18,0.11925995,0.107259955,0.400599944,1.198872554,13.25425423,25.50906158,-0.24509613100000002,5.014102481,0.10999999,-52.39695473,2140865.773,399.55196800000004,12.404602,96617.03202,1.147970154,0.0,0.0,1.5981648000000002,0.6973647,0.0,0.0,0.71671647,1.0,0.057638104,-0.041709438,0.079529223,-0.0020685260000000002,-0.006915492,0.00046491800000000004,398714137.9,327364372.0,400127.6157,0.0,0.0,-0.007231446,0.01,4.408258527,39.871413700000005,32.7364371,0.001576986,0.002151,-0.085005044,0.009788811,0.013122703999999999,-0.070875475,0.024660644,0.041250577000000004,-0.14369934,0.100391693,0.027929117000000003,0.023660369,-0.007391521,1.0,1,0,0,0,0
10,33356672,0.032100716,0.015515791000000001,-0.005305461,0.15,0.20831988199999998,900.0,900.0,900.0,900.0,900.0,900.0,7.249188383,7.251546493999999,7.393279269,6.630094079,6.7596865589999995,0.54323547,0.553848551,0.45808936200000006,0.45808936200000006,12.404602,-0.00138867,-0.00571778,0.000472101,0.023104967,0.004182743,-0.095827723,0.002353416,0.0,1.8134529590000001,1.582447341,-0.06597080000000001,,22.22804592,2.98e-06,5.15e-06,0.0,-1.1400000000000001e-05,-0.13806144,0.269113624,-9.918175127,6.87e+18,966.1678587000001,12.404602,0.000326499,-0.008582132,-0.004968681,-0.07561369400000001,0.207302405,-9.928330385,33367871.17,-0.002837797,-0.011460876000000002,-0.002947501,6.87e+18,0.16875053,0.156750537,0.400599902,1.300046871,13.25427059,25.42438443,-0.24340225899999998,4.687763201,0.10999999,-53.87121037,2182739.748,399.5703188,12.404602,96616.83208,1.147967809,0.0,0.0,1.5981648000000002,0.6973647,0.0,0.0,0.71671647,1.0,0.062342275999999995,-0.015578963000000001,0.017408352,-0.00057912,-0.006429537,0.001123351,398714137.9,327364371.9,400128.1106,0.0,0.0,-0.01,0.010684137,4.807818958,39.871413700000005,32.7364371,0.001975275,0.002724888,-0.090265261,0.01116911,0.01506935,-0.07745363400000001,0.006656926,0.047026759,-0.160092447,0.105081723,0.027859375,0.023730616,-0.007391521,1.0,1,0,0,0,0
11,33388739,0.031697817,0.015599701,-0.00506055,0.15,0.128151801,900.0,900.0,900.0,900.0,900.0,900.0,7.876720511,7.879314433999999,8.033318216,7.288172181,7.430627585,-0.959917797,-0.978673687,0.482568885,0.482568885,12.404602,-0.0013891510000000001,-0.005716988,0.000470912,0.023132887999999997,0.0042031740000000005,-0.095791174,0.001787891,0.0,1.756429195,1.580874715,-0.052108824000000005,,24.42220263,3e-06,4.91e-06,0.0,-1.3800000000000002e-05,-0.132749198,0.250127384,-9.90798529,6.87e+18,966.1682145999999,12.404602,-0.003946583,-0.005419436999999999,0.001719925,-0.071058265,0.22876075,-9.80374459,33403458.29,-0.0020993039999999998,-0.011322779,-0.001522076,6.87e+18,0.21824111,0.20624111899999997,0.400599861,1.401221188,13.25428695,25.33970727,-0.241708387,4.361423922,0.10999999,-55.34546601,2224613.723,399.4059026,12.404602,96618.74022,1.1479904429999999,0.0,0.0,1.5981648000000002,0.6973647,0.0,0.0,0.71671647,1.0,-0.075131999,0.003675765,0.008744247,-0.000185295,-0.0069866,0.000878845,398714137.7,327364371.7,400125.4217,0.0,0.0,-0.01,0.012752551,4.7549315430000005,39.871413700000005,32.7364371,0.002403555,0.0033341290000000003,-0.093271039,0.012463163000000001,0.017649908,-0.082541947,0.00969772,0.034073507999999995,-0.191427627,0.115753341,0.027866402999999998,0.023808326,-0.007391521,1.0,1,0,0,0,0
12,33421613,0.031487483999999996,0.015786965,-0.005745485,0.15,0.04596738400000001,900.0,900.0,900.0,900.0,900.0,900.0,8.504252639,8.507082373,8.673357162,7.9462502829999995,8.101568611,1.322072709,1.347895681,0.507048408,0.507048408,12.404602,-0.001389632,-0.005716196,0.000469723,0.023160807999999998,0.004223604000000001,-0.09575462400000001,0.0012223660000000001,0.0,1.699405431,1.579302089,-0.038246848,,26.61635933,3.14e-06,7.02e-06,0.0,-1.25e-05,-0.134998416,0.22530184600000003,-9.889915773,5.01e+18,966.1699497999999,12.404602,-0.0060964769999999995,-0.007922066,0.00030408599999999996,-0.166584547,0.202327653,-9.853468474,33439045.41,-0.0008835589999999999,-0.009506967,0.001615341,5.01e+18,0.277788005,0.265788017,0.40059975,1.505269645,13.25432153,25.24155313,-0.239744614,4.07436891,0.10999999,-56.73474244,2262739.748,399.5979596,12.404602,96616.49208,1.14796381,0.0,0.0,1.5981648000000002,0.6973647,0.0,0.0,0.71671647,1.0,-0.053139373,0.053276494,0.031662765,-0.002366468,-0.006621726,0.00010698600000000001,398714137.5,327364371.5,400122.7327,0.0,0.0,-0.01,0.014820963999999999,4.702044129,39.871413700000005,32.7364371,0.0028386320000000002,0.003954339,-0.09628500599999999,0.013770838,0.020229177,-0.08765038300000001,0.012663322,0.021939796,-0.21994668899999997,0.125954479,0.027761882,0.023765384,-0.007391521,1.0,1,0,0,0,0
13,33456874,0.032446201,0.015938535,-0.006094989,0.15,0.0,900.0,900.0,900.0,900.0,900.0,900.0,9.131784768,9.134850313,9.313396109,8.604328386,8.772509637,0.22798412,0.232438715,0.5315279310000001,0.5315279310000001,12.404602,-0.001390113,-0.005715404,0.00046853300000000004,0.023188728,0.004244035,-0.095718074,0.0006568419999999999,0.0,1.642381667,1.577729463,-0.024384872000000002,,28.81051604,3.26e-06,4.92e-06,0.0,-1.9399999999999997e-05,-0.139635759,0.19863209199999998,-9.869357629,2.57e+18,966.1721206,12.404602,-0.003382358,-0.0047563729999999995,-0.000405951,-0.190778112,0.187564328,-9.889090651,33474632.53,0.000482916,-0.007161284,0.005293455,2.57e+18,0.347072689,0.335072706,0.400599572,1.6121012069999998,13.25437374,25.13034889,-0.237519488,3.8253538689999997,0.10999999,-58.04173131,2305634.727,399.57516580000004,12.404602,96616.79817000001,1.147967318,0.0,0.0,1.5981648000000002,0.6973647,0.0,0.0,0.71671647,1.0,0.025135996,-0.07183112400000001,-0.083668354,-0.001188697,-0.006802473000000001,-0.001537022,398714137.3,327364371.3,400120.0438,0.0,0.0,-0.01,0.016889378,4.649156715,39.871413700000005,32.7364371,0.0034614109999999997,0.004877488,-0.09952512,0.015454674,0.022772857999999997,-0.09331453199999999,0.013552378,0.032438842,-0.17069462600000002,0.123162631,0.027798142999999997,0.023798291000000003,-0.007391521,1.0,1,0,0,0,0
14,33496941,0.031626921,0.015577235,-0.005739945,0.15,0.0,900.0,900.0,900.0,900.0,900.0,900.0,9.759316896,9.762618252000001,9.953435056,9.262406488,9.443450663,-0.43219817299999996,-0.440642339,0.556007454,0.556007454,12.404602,-0.001390595,-0.005714611,0.000467344,0.023216648,0.004264465,-0.095681525,9.13e-05,0.0,1.585357903,1.5761568369999999,-0.010522896,,31.00467274,2.78e-06,5.73e-06,0.0,-2.44e-05,-0.144273103,0.171962337,-9.848799485,1.22e+17,966.1742913999999,12.404602,-0.0022963610000000002,-0.009718895,0.003957738,-0.082558665,0.203092857,-9.87069845,33510219.64,0.0018493910000000001,-0.004815601,0.008971568000000001,1.22e+17,0.416357372,0.404357395,0.400599395,1.71893277,13.25442595,25.01914466,-0.235294363,3.5763388289999996,0.10999999,-59.34872018,2350235.647,399.66785110000006,12.404602,96615.70452999999,1.1479543970000001,0.0,0.0,1.5981648000000002,0.6973647,0.0,0.0,0.71671647,1.0,-0.031647099,-0.0053422059999999995,0.065478117,-0.0047457440000000005,-0.005263953,-0.0024790520000000003,398714137.1,327364371.1,400117.3549,0.0,0.0,-0.01,0.018957792,4.596269301,39.871413700000005,32.7364371,0.004084191,0.005800638,-0.102765235,0.017138511000000002,0.025316538,-0.098978681,0.014441433,0.042937888,-0.12144256199999999,0.120370782,0.027806091,0.02376426,-0.007391521,1.0,1,0,0,0,0
15,33533008,0.033150058999999996,0.016060493999999998,-0.005870357,0.15,0.0,900.0,900.0,900.0,900.0,900.0,900.0,10.38684902,10.39038619,10.593474,9.92048459,10.11439169,-0.821457975,-0.83750814,0.5804869779999999,0.5804869779999999,12.404602,-0.001391076,-0.005713819,0.00046615400000000004,0.023244567999999997,0.004284896,-0.095644975,0.0,-0.013619247,1.575760747,1.57580896,0.014280467,247.873364,32.99974792,3.18e-06,4.81e-06,0.0,-3.46e-05,-0.14644026300000001,0.187686059,-9.885107525,2.32e+18,966.1739808,12.404602,-0.002081599,-0.011317942,0.0025847310000000003,-0.09115373800000001,0.18461402699999999,-9.8911126,33545806.76,-0.00035748400000000004,-0.00391383,0.006583087,2.32e+18,0.485642056,0.47364208399999996,0.400599217,1.8257643319999999,13.25447816,24.90794042,-0.23306923699999998,3.327323788,0.10999999,-60.65570905,2388109.622,399.6048067,12.404602,96616.42192000001,1.147962956,0.0,0.0,1.5981648000000002,0.6973647,0.0,0.0,0.71671647,1.0,0.11707145599999999,-0.065692532,0.119349939,-0.0032196,-0.004985058,4.84e-05,398714137.1,327364371.0,400116.7183,0.0,-0.001026205,-0.008973795,0.018973795,4.381523243999999,39.871413700000005,32.7364371,0.004686425,0.006762144,-0.10685170199999999,0.018128991,0.027809973999999998,-0.10500696300000001,0.029803483,0.03309793,-0.10939078599999999,0.12102204400000001,0.027848021,0.023685157000000002,-0.007391521,1.0,1,0,0,0,0
16,33565075,0.031555306,0.016308866,-0.005785593,0.15,0.0,900.0,900.0,900.0,900.0,900.0,900.0,11.01438115,11.01815413,11.23351295,10.57856269,10.78533271,-0.023924768,-0.024390307000000003,0.604966501,0.604966501,12.404602,-0.001391557,-0.005713027,0.000464965,0.023272487999999997,0.004305327,-0.095608425,0.0,-0.02986112,1.575296416,1.575696931,0.041190786,247.2772043,34.95648644,2.55e-06,4.81e-06,0.0,-8.329999999999999e-05,-0.148477337,0.205642336,-9.924410294,4.77e+18,966.1735395,12.404602,-0.0007082560000000001,-0.006237800999999999,-0.0035291890000000003,-0.123254122,0.165565891,-9.87422648,33581393.88,-0.00275254,-0.0030880990000000004,0.003875122,4.77e+18,0.55492674,0.5429267729999999,0.40059904,1.932595894,13.25453037,24.79673618,-0.230844112,3.078308747,0.10999999,-61.96269792,2429983.597,399.5865854,12.404602,96616.61428,1.1479652679999999,0.0,0.0,1.5981648000000002,0.6973647,0.0,0.0,0.71671647,1.0,-0.072407519,-0.041183593,0.050771439,-0.0012093639999999999,-0.005906570999999999,0.00192823,398714137.3,327364371.0,400118.1662,0.0,-0.0030946190000000003,-0.0069053809999999995,0.016905381,4.002394434,39.871413700000005,32.7364371,0.0052772,0.007745045,-0.11141025800000001,0.018732722,0.030275384,-0.111238357,0.053238464000000006,0.011913024,-0.11808905800000001,0.12359384699999999,0.027306747000000003,-0.123660579,-0.007391521,1.0,1,0,0,0,0
17,33597143,0.030278917000000002,0.017058841,-0.005582939,0.15,0.0,900.0,900.0,900.0,900.0,900.0,900.0,11.64191328,11.64592207,11.8735519,11.23664079,11.45627374,-0.512725124,-0.522749173,0.6294460239999999,0.6294460239999999,12.404602,-0.001392038,-0.005712235,0.000463775,0.023300408999999998,0.004325757,-0.095571876,0.0,-0.046102992,1.574832086,1.575584902,0.068101105,246.6810446,36.91322497,2.76e-06,5.54e-06,0.0,-0.00022008900000000003,-0.141167251,0.22176476,-9.959044275,6.87e+18,966.1727087000002,12.404602,-0.0042722590000000005,-0.0013441829999999999,-0.0032018,-0.186382207,0.26770193800000003,-9.942215268,33616981.0,-0.004731305999999999,-0.0021722620000000003,0.001254947,6.87e+18,0.624211424,0.612211462,0.40059886200000006,2.039427456,13.25458258,24.68553194,-0.22861898600000002,2.829293706,0.10999999,-63.26968679,2471857.5719999997,399.5970665,12.404602,96616.50098,1.147963879,0.0,-0.371092446,1.5981648000000002,0.68539394,0.132222117,-0.128652035,0.7044135220000001,1.0,0.054856515,-0.019382528,-0.032685007,-0.002148643,-0.00584672,0.002022016,398714137.5,327364371.0,400119.6141,0.0,-0.005163033,-0.004836967,0.014836967,3.623265623,39.871413700000005,32.7364371,0.005877021,0.008761199,-0.11582533,0.019555231,0.032688012,-0.117228321,0.06775163,0.004577986,-0.123296369,0.126146441,0.024224605,-0.6924423279999999,-0.007391521,1.0,1,0,0,0,0
18,33629210,0.031522725,0.015584464,-0.005396466,0.15,0.0,900.0,900.0,900.0,900.0,900.0,900.0,12.26944541,12.27369001,12.51359084,11.894718899999999,12.12721477,1.479292702,1.508191645,0.653925547,0.653925547,12.404602,-0.001392519,-0.005711442,0.00046258599999999997,0.023328329,0.004346188,-0.09553532599999999,0.0,-0.062344865,1.574367756,1.575472872,0.095011425,246.08488480000003,38.869963500000004,1.42e-06,4.07e-06,0.0,-0.00046958,-0.076422804,0.226618928,-9.964990526000001,6.87e+18,966.1694845000001,12.404602,-0.0031356590000000003,-0.006003771,-0.001161889,-0.227753425,0.0946567,-9.919431626,33652568.11,-0.004152139,-0.00070276,-0.0008257960000000001,6.87e+18,0.7201888670000001,0.708188915,0.40059882,2.161897648,13.25462166,24.56399994,-0.226187563,2.615940824,0.10999999,-64.54286889,2516109.622,399.5458921,12.404602,96617.10642000001,1.1479710859999999,0.0,-0.351901964,1.5981648000000002,0.6865943720000001,0.125456669,-0.12206926300000001,0.705647293,1.0,-0.021658454,0.002412116,-0.062127434,-0.000705974,-0.0058476019999999995,-0.0007675189999999999,398714137.7,327364371.0,400121.06200000003,0.0,-0.007231446,-0.0027685540000000003,0.012768554,3.2441368130000003,39.871413700000005,32.7364371,0.006504136,0.009877686,-0.119807466,0.021037862,0.034941382,-0.122489816,0.055344937999999996,0.03903226,-0.11797038,0.128641072,0.018079812,-0.659924849,-0.007391521,1.0,1,0,0,0,0
19,33661277,0.030438017,0.015894063,-0.005632041,0.15,0.0,900.0,900.0,900.0,900.0,900.0,900.0,12.89697754,12.90145795,13.15362979,12.552797,12.79815579,-1.001329578,-1.0208919490000001,0.67840507,0.67840507,12.404602,-0.001393,-0.00571065,0.000461396,0.023356249,0.004366618,-0.095498776,0.0,-0.078586737,1.573903426,1.5753608430000001,0.121921744,245.4887251,40.82670203,-6e-06,-0.000768821,0.0,-0.000787692,-0.011678357,0.23147309600000002,-9.970936777999999,6.87e+18,966.1662603,12.404602,-0.004800336,-0.001972285,-0.004462433,-0.096611694,0.221562752,-9.836576745,33688155.23,-0.003572972,0.0007667419999999999,-0.002906539,6.87e+18,0.824500248,0.8125003059999999,0.40059882,2.28925049,13.25465664,24.43924344,-0.22369173,2.413722281,0.10999999,-65.80549594,2559605.5209999997,399.66121319999996,12.404602,96615.77037,1.147955169,0.0,-0.333988667,1.5981648000000002,0.6876633240000001,0.119132035,-0.11591540300000001,0.70674594,1.0,0.015307288,-0.00682698,-0.03306151,0.000514508,-0.007140191,-0.001114196,398714137.9,327364371.0,400122.5099,0.0,-0.00929986,-0.00070014,0.01070014,2.8650080019999997,39.871413700000005,32.7364371,0.007131251999999999,0.010994173999999999,-0.123789602,0.022520493,0.037194752000000005,-0.127751311,0.042938246,0.073486535,-0.112644392,0.13113570300000002,0.007350156,-0.597696473,-0.007391521,1.0,1,0,0,0,0
20,33705344,0.030738353,0.016262991,-0.0057699480000000004,0.15,0.0,900.0,900.0,900.0,900.0,900.0,900.0,13.52450967,13.52922589,13.79366874,13.210875099999999,13.46909682,-0.937189897,-0.955502312,0.702884593,0.702884593,12.404602,-0.001393481,-0.005709858000000001,0.00046020699999999997,0.023384169,0.0043870490000000005,-0.095462227,0.0,-0.09482861,1.573439095,1.575248814,0.14883206300000001,244.89256540000002,42.78344055,-6.07e-05,-0.001889945,0.0,-0.001189953,0.026009195,0.23782282600000001,-9.967122202,6.87e+18,966.1651450999999,12.404602,0.0015453589999999998,-0.0023828079999999997,-0.001525911,-0.12888359900000002,0.20217279300000002,-9.872609731,33723742.35,-0.0038726679999999997,0.00029742,-0.00521024,6.87e+18,0.92881163,0.916811698,0.40059882,2.416603331,13.25469162,24.31448693,-0.221195897,2.211503738,0.10999999,-67.06812299,2601479.496,399.62953849999997,12.404602,96616.14552,1.147959676,0.0,-0.317517024,1.5981648000000002,0.688592352,0.113307046,-0.110247687,0.70770068,1.0,0.026225879,-0.028631821000000002,0.041675266,0.000994691,-0.007288947,-6.95e-05,398714138.0,327364371.1,400123.821,0.0,-0.008631726,0.0,0.005895179,3.198245817,39.871413700000005,32.7364371,0.007714382,0.012061598,-0.127919497,0.023732822,0.039502721,-0.13160041,0.046135783,0.049526267,-0.107096886,0.132455695,-0.00612223,-0.536355276,-0.007391521,1.0,1,0,0,0,0
21,33742823,0.031276612999999995,0.016080711,-0.005458516,0.15,0.0,900.0,900.0,900.0,900.0,900.0,900.0,14.15204179,14.15699383,14.43370768,13.8689532,14.14003785,-0.196958596,-0.20080726,0.727364117,0.727364117,12.404602,-0.0013939620000000001,-0.005709066,0.000459017,0.023412089,0.004407479000000001,-0.09542567699999999,0.0,-0.111070482,1.572974765,1.575136785,0.175742382,244.29640559999999,44.74017908,-0.000172792,-0.002753634,0.0,-0.001699833,0.008753273,0.247209541,-9.943486662,6.87e+18,966.1683122999999,12.404602,-0.010103761,-0.006702176999999999,-0.006018592,-0.120912269,0.20961052600000002,-9.917934447,33759329.47,-0.005957036,-0.004109000000000001,-0.007966694,6.87e+18,1.033123011,1.02112309,0.40059882,2.543956173,13.2547266,24.18973043,-0.21870006399999997,2.009285195,0.10999999,-68.33075004,2643353.471,399.5974839,12.404602,96616.52517000001,1.147964124,0.0,-0.301995654,1.5981648000000002,0.6894294240000001,0.107811799,-0.104900817,0.708560977,1.0,-0.163831549,0.047282122,-0.044730854,-0.001211139,-0.006182592,-0.0013180870000000001,398714138.0,327364371.3,400125.06200000003,0.0,-0.006563313,0.0,-0.000310062,3.895998718,39.871413700000005,32.7364371,0.008290107,0.013120763,-0.132074267,0.024899647999999996,0.041819882,-0.135211738,0.051960205999999995,0.015732232,-0.101512089,0.133577942,-0.017850885,-0.504701658,-0.007391521,1.0,1,0,0,0,0
22,33777479,0.034801315,0.016514401,-0.005128631,0.15,0.0,900.0,900.0,900.0,900.0,900.0,900.0,14.77957392,14.78476177,15.07374663,14.52703131,14.81097887,-0.219121698,-0.22340022,0.75184364,0.75184364,12.404602,-0.001394443,-0.005708273000000001,0.000457828,0.023440008999999998,0.00442791,-0.09538912699999999,0.0,-0.127312355,1.572510435,1.575024755,0.20265270100000002,243.70024590000003,46.69691761,-0.000302364,-0.003334449,0.0,-0.002289967,-0.008502649000000001,0.256596255,-9.919851122,6.87e+18,966.1714796,12.404602,-0.003493935,-0.007465271,-0.001950501,-0.077943718,0.18076588600000001,-9.880747911,33794916.58,-0.008041405,-0.00851542,-0.010723146999999999,6.87e+18,1.137434392,1.125434482,0.40059882,2.671309015,13.25476158,24.06497393,-0.21620423,1.8070666519999998,0.10999999,-69.59337709,2685227.445,399.5559928,12.404602,96616.98825,1.1479696209999999,0.0,-0.287398265,1.5981648000000002,0.690175001,0.10263715699999999,-0.09986588800000001,0.709327267,1.0,0.07878149,-0.02345087,0.07295982,-0.0033710529999999997,-0.006820061,0.0007491980000000001,398714138.0,327364371.6,400126.3031,0.0,-0.004494899,0.0,-0.006515303,4.593751619,39.871413700000005,32.7364371,0.008933545,0.014295183000000001,-0.136076112,0.025795491,0.043487110999999995,-0.13936727599999998,0.047509170999999996,0.0066788540000000006,-0.091869869,0.135512672,-0.02883804,-0.46285926899999996,-0.007391521,1.0,1,0,0,0,0
23,33809546,0.031403397,0.016431185,-0.0051774329999999995,0.15,0.0,900.0,900.0,900.0,900.0,900.0,900.0,15.40710605,15.41252971,15.71378558,15.18510941,15.4819199,-1.396760796,-1.424053882,0.7763231629999999,0.7763231629999999,12.404602,-0.0013949239999999999,-0.0057074809999999995,0.00045663800000000004,0.023467929,0.00444834,-0.09535257800000001,0.0,-0.14355422699999998,1.572046105,1.574912726,0.22956302,243.10408619999998,48.65365614,-0.000455677,-0.003905806,0.0,-0.0029841570000000003,-0.063423791,0.248130323,-9.922905505,6.87e+18,966.1720193,12.404602,-0.0021030420000000003,-0.002673229,0.0027772170000000002,-0.085608647,0.186385083,-9.889882989,33830503.7,-0.008336584000000001,-0.008313946,-0.010554383999999998,6.87e+18,1.2419180909999998,1.2299181909999999,0.40059882,2.7982949739999996,13.25479776,23.94074482,-0.213718921,1.6060579959999999,0.10999999,-70.85107064,2723618.3239999996,399.6104776,12.404602,96616.39138,1.147962624,0.0,-0.273475603,1.5981648000000002,0.6908548409999999,0.097697033,-0.095059152,0.7100259659999999,1.0,0.005379337,0.036653455,-0.043821298,-0.0019672170000000003,-0.005858493,-0.00047228900000000003,398714138.0,327364371.8,400127.5441,0.0,-0.002426485,0.0,-0.012720543999999999,5.29150452,39.871413700000005,32.7364371,0.009655549,0.015603333,-0.13990052,0.026376917000000003,0.044400231,-0.144154254,0.031135631,0.026331804,-0.077519862,0.138390118,-0.037848445,-0.447460122,-0.007391521,1.0,1,0,0,0,0
24,33841613,0.032472848,0.0161457,-0.005849607,0.15,0.0,900.0,900.0,900.0,900.0,900.0,900.0,16.03463818,16.04029765,16.35382452,15.84318751,16.15286092,0.45600874,0.464918457,0.8008026859999999,0.8008026859999999,12.404602,-0.001395405,-0.005706689,0.000455449,0.02349585,0.004468771,-0.09531602800000001,0.0,-0.159796099,1.571581775,1.574800697,0.25647333899999997,242.5079264,50.61039466,-0.000606465,-0.004494678,0.0,-0.003704657,-0.153119093,0.22318205600000002,-9.950601179,6.87e+18,966.1701332,12.404602,0.0029154759999999997,-0.007733648,0.002663939,-0.178755952,0.18920256,-9.995854576000001,33866090.82,-0.006979904,-0.003858264,-0.007684934,6.87e+18,1.356937765,1.344937847,0.40059882,2.9028486989999998,13.25490714,23.84876203,-0.211877083,1.479025309,0.10999999,-71.80711588,2768975.395,399.6147206,12.404602,96616.30246,1.147961382,0.0,-0.260270011,1.5981648000000002,0.691466496,0.093006658,-0.09049541800000001,0.710654604,1.0,-0.043697932,-0.08345139900000001,0.080308065,-0.000666465,-0.004668869,0.000309598,398714138.0,327364372.0,400128.7852,0.0,-0.00035807199999999997,0.0,-0.018925785,5.9892574210000005,39.871413700000005,32.7364371,0.010369589,0.016897059,-0.14365449800000002,0.027007068999999998,0.045387675999999995,-0.148771004,0.016566833,0.044477069,-0.063362241,0.141373619,-0.04861212,-0.42014320899999996,-0.007391521,1.0,1,0,0,0,0
25,33881680,0.029370293,0.016429126000000002,-0.005441898000000001,0.15,0.0,900.0,900.0,900.0,900.0,900.0,900.0,16.66217031,16.66806559,16.99386347,16.50126561,16.82380195,1.053434119,1.074012041,0.825282209,0.825282209,12.404602,-0.001395886,-0.005705895999999999,0.00045426,0.02352377,0.004489201,-0.095279478,0.0,-0.176037972,1.571117444,1.574688667,0.283383658,241.9117667,52.56713319,-0.000729818,-0.005053546,0.0,-0.0043616620000000005,-0.242814395,0.19823379,-9.978296853,6.87e+18,966.1682471,12.404602,-0.001883012,-0.0015021470000000001,-0.001658175,-0.179953015,0.18120946100000002,-9.878687387000001,33901677.94,-0.0056232240000000005,0.0005974180000000001,-0.004815484,6.87e+18,1.4719574380000002,1.459957503,0.40059882,3.007402424,13.25501652,23.75677924,-0.210035245,1.3519926219999998,0.10999999,-72.76316113,2808374.475,399.5297925,12.404602,96617.30061,1.147973341,0.0,-0.24756906899999997,1.5981648000000002,0.6920280059999999,0.088491924,-0.086102586,0.711231685,1.0,-0.02638338,-0.000561139,0.006529126,-0.00166207,-0.007271286,0.004003835,398714138.0,327364372.0,400128.1448,0.0,0.0,0.0,-0.016579316,5.275023522,39.871413700000005,32.7364371,0.010977635,0.017998831,-0.146471188,0.028285681,0.047364252999999995,-0.151122335,0.026015932000000002,0.042557751,-0.051764936,0.145768517,-0.061166602,-0.412400537,-0.007391521,1.0,1,0,0,0,0
26,33913748,0.030574215,0.015924791,-0.005671611,0.15,0.0,900.0,900.0,900.0,900.0,900.0,900.0,17.28970244,17.29583353,17.63390242,17.15934371,17.49474298,-0.9470589229999999,-0.965565261,0.849761732,0.849761732,12.404602,-0.0013963679999999998,-0.005705104,0.00045307,0.02355169,0.004509632,-0.095242929,0.0,-0.19227984399999998,1.570653114,1.5745766380000001,0.310293977,241.31560699999997,54.52387172,-0.0008684989999999999,-0.005759141999999999,0.0,-0.005036164,-0.202659163,0.17535164600000003,-9.962312788,6.87e+18,966.1618764000001,12.404602,-0.005485966,-0.005591119,-0.001720921,-0.064732354,0.157207047,-9.954263564,33937265.05,-0.004903887,-0.0016531179999999999,-0.003200007,6.87e+18,1.5869771119999998,1.5749771590000001,0.40059882,3.1119561489999996,13.2551259,23.66479645,-0.208193407,1.2249599340000001,0.10999999,-73.71920637,2851269.454,399.6176619,12.404602,96616.28881,1.147961351,0.0,-0.235376865,1.5981648000000002,0.692539531,0.084154508,-0.081882283,0.7117574240000001,1.0,-0.023906586,0.028556165,-0.014129955,-0.0021283770000000003,-0.0069704269999999995,0.003100634,398714138.0,327364372.0,400127.1106,0.0,0.0,0.0,-0.012442488,4.265180691,39.871413700000005,32.7364371,0.011585681,0.019100604,-0.149287878,0.029564293,0.04934083,-0.153473665,0.035465031,0.040638432,-0.040167631,0.150163416,-0.075151916,-0.390653066,-0.007391521,1.0,1,0,0,0,0
27,33945815,0.03322990000000001,0.016212471000000003,-0.005577278000000001,0.15,0.0,900.0,900.0,900.0,900.0,900.0,900.0,17.91723456,17.92360147,18.27394137,17.81742182,18.165684,1.193142367,1.216452822,0.8742412559999999,0.8742412559999999,12.404602,-0.001396849,-0.005704312,0.000451881,0.02357961,0.0045300620000000005,-0.09520637900000001,0.0,-0.208521717,1.5701887840000002,1.574464609,0.337204296,240.71944720000002,56.48061025,-0.001018894,-0.006507185,0.0,-0.005587943000000001,-0.109453356,0.153313619,-9.928483318,6.87e+18,966.1536735999999,12.404602,-0.004825459,-0.011099551000000001,-0.00758917,-0.080637087,0.17943844,-9.908850218,33972852.17,-0.004444936,-0.006643486999999999,-0.002096841,6.87e+18,1.701996785,1.6899968159999998,0.40059882,3.2165098739999998,13.25523528,23.57281365,-0.206351568,1.097927247,0.10999999,-74.67525162,2894164.433,399.55156800000003,12.404602,96617.01367,1.1479700179999999,0.0,-0.22358076600000001,1.5981648000000002,0.693010872,0.079955137,-0.077796298,0.712241855,1.0,-0.080711455,0.013935288,-0.030720226,-0.001394232,-0.008509951,0.0027878240000000004,398714138.0,327364372.0,400126.0764,0.0,0.0,0.0,-0.008305660999999999,3.25533786,39.871413700000005,32.7364371,0.012245364,0.020298861,-0.15125915199999998,0.0305863,0.052091013,-0.154871192,0.036265547999999995,0.076772572,-0.066345233,0.152485767,-0.089889185,-0.375863505,-0.007391521,1.0,1,0,0,0,0
28,33977882,0.029744206000000002,0.01619334,-0.005401822,0.15,0.0,900.0,900.0,900.0,900.0,900.0,900.0,18.54476669,18.5513694,18.91398031,18.47549992,18.83662503,1.1076939940000001,1.129332928,0.898720779,0.898720779,12.404602,-0.00139733,-0.00570352,0.00045069099999999997,0.02360753,0.004550493,-0.095169829,0.0,-0.22476358899999999,1.5697244540000002,1.5743525790000001,0.364114615,240.1232875,58.43734878,-0.001187548,-0.0072205640000000005,0.0,-0.005966406,-0.016247549,0.131275591,-9.894653849,6.87e+18,966.1454707,12.404602,-0.002294275,-0.006820649,0.003013236,-0.038011003,0.148156232,-9.901383577999999,34008439.29,-0.0039859859999999995,-0.011633856000000001,-0.000993675,6.87e+18,1.817016459,1.805016472,0.40059882,3.3210635980000003,13.25534466,23.48083086,-0.20450973,0.97089456,0.10999999,-75.63129686,2932471.2939999998,399.5910861,12.404602,96616.62182999999,1.147965296,0.0,-0.212136933,1.5981648000000002,0.693444483,0.07587843400000001,-0.07382967,0.712687492,1.0,-0.027538269,0.061451650999999996,0.030569927,-0.0029009709999999996,-0.0057866490000000005,-0.00034004900000000004,398714138.0,327364372.0,400125.0422,0.0,0.0,0.0,-0.004168834000000001,2.245495028,39.871413700000005,32.7364371,0.012929699,0.021543177,-0.15282685099999999,0.031485811,0.055210490999999993,-0.15581340300000002,0.032937497999999996,0.13107226,-0.11055541099999999,0.153818749,-0.106318773,-0.34540781600000003,-0.007391521,1.0,1,0,0,0,0
29,34015898,0.030789139,0.015943131,-0.005588518000000001,0.15,0.0,900.0,900.0,900.0,900.0,900.0,900.0,18.82387553,18.83007504,19.19814305,18.7598253,19.12651724,-1.3951043,-1.422356771,8.061132905,8.061132905,12.40459902,-0.0013958870000000002,-0.005704179,0.000460289,0.023613939,0.004592628,-0.095149552,0.0,-0.222998699,1.569651172,1.5743248619999999,0.37003263299999994,239.3930478,59.44230602,-0.001376724,-0.007872552,0.0,-0.006148726,-0.052417118,0.18115852600000001,-9.875124009,4.67e+18,966.1497902000001,12.404602,-0.00043711199999999997,-0.00104342,0.005645683,-0.139467158,0.187428617,-9.911611772,34044026.41,-0.000805551,-0.012937836999999999,-0.00255801,4.67e+18,1.93749296,1.92549297,0.400598632,3.426844875,13.25544403,23.39517747,-0.202794678,0.85343488,0.10999999,-76.55491483,2978345.269,399.6127499,12.404602,96616.33824,1.147961931,0.0,-0.20101225600000003,1.5981648000000002,0.693844555,0.07191309,-0.069971391,0.7130986659999999,1.0,0.046911495,0.117475789,0.049817857,-0.002562186,-0.004140297,0.00293267,398714138.0,327364372.0,400124.008,0.0,0.0,0.0,-3.2e-05,1.235652197,39.871413700000005,32.7364371,0.01360172,0.022810047000000003,-0.154563372,0.032463752,0.058323701,-0.157265521,0.028383295,0.165350718,-0.14282435699999999,0.155079789,-0.12353858599999999,-0.324988008,-0.007391521,1.0,1,0,0,0,0
30,34050016,0.031343576,0.016074879,-0.006209015,0.15,0.0,900.0,900.0,900.0,900.0,900.0,900.0,18.99117689,18.99676814,19.36810671,18.9242151,19.29413259,0.454865406,0.463747986,15.88040999,15.88040999,12.40459576,-0.001393828,-0.0057053040000000005,0.000473348,0.023613446,0.004641727,-0.095134496,0.0,-0.21264481,1.569764416,1.574337361,0.36593758600000004,238.59885359999998,59.99327554,-0.0015983,-0.008453506999999999,0.0,-0.006117549,-0.10297070800000001,0.23903767,-9.857184009,2.22e+18,966.155502,12.404602,-0.004094689,-0.003137236,-0.004010958,-0.146782454,0.17918175600000003,-9.753140442000001,34079613.52,0.00267746,-0.013831965,-0.00441892,2.22e+18,2.0727145069999997,2.060714551,0.400597938,3.535943154,13.25551634,23.326626899999997,-0.201422217,0.7618426859999999,0.10999999,-77.39091017,3017589.1180000002,399.62885530000005,12.404602,96616.13521000001,1.14795949,0.0,-0.19015726,1.5981648000000002,0.694214223,0.068041719,-0.066204549,0.71347855,1.0,0.105932825,-0.019403727,-0.083683822,-0.001134502,-0.003519949,0.001315884,398714138.0,327364372.0,400122.9738,0.0,0.0,0.0,0.0,1.983597227,39.871413700000005,32.7364371,0.014242678,0.024133812999999997,-0.156725794,0.033639552999999996,0.061421095999999994,-0.160004016,0.020735798,0.149120308,-0.14496837099999998,0.15615933699999998,-0.136253353,-0.293956496,-0.007391521,1.0,1,0,0,0,0
31,34086084,0.03195683,0.015909718,-0.005673168,0.15,0.0,900.0,900.0,900.0,900.0,900.0,900.0,19.15847826,19.16346125,19.53807036,19.0886049,19.46174795,2.015522265,2.054890091,23.69968708,23.69968708,12.4045925,-0.0013917679999999998,-0.005706429,0.00048640699999999995,0.023612953,0.004690827,-0.095119441,0.0,-0.20229092,1.56987766,1.57434986,0.361842538,237.80465930000003,60.54424506,-0.001786375,-0.008839149000000001,0.0,-0.005949985,-0.145826709,0.29256189899999996,-9.841797512000001,2.2e+17,966.1618745999999,12.404602,0.005005433,-0.012007183999999999,-0.000763003,-0.11463982199999999,0.25941655,-9.856335654,34115200.64,0.005762344,-0.014333205,-0.006002168,2.2e+17,2.207936054,2.195936133,0.40059724399999996,3.6450414319999997,13.25558866,23.25807633,-0.20004975600000002,0.670250492,0.10999999,-78.22690551,3062093.2189999996,399.5012399,12.404602,96617.61627,1.1479771970000001,0.0,-0.179533627,1.5981648000000002,0.694555943,0.064250901,-0.062516088,0.7138297840000001,1.0,-0.026535211,0.058676571,0.029885432000000003,0.002960442,-0.006654623,-0.002422177,398714138.0,327364372.0,400121.9396,0.0,0.0,0.0,0.0,2.7452482039999997,39.871413700000005,32.7364371,0.014883637,0.02545758,-0.158888216,0.034815354,0.064518491,-0.162742512,0.013088301,0.132889898,-0.14711238599999998,0.157238885,-0.14837409099999999,-0.270042464,-0.007391521,1.0,1,0,0,0,0
32,34118151,0.028472065,0.016140773,-0.0056163409999999995,0.15,0.0,900.0,900.0,900.0,900.0,900.0,900.0,19.32577962,19.33015435,19.70803402,19.25299471,19.6293633,0.143069235,0.145863198,31.51896417,31.51896417,12.40458924,-0.001389709,-0.005707554,0.000499466,0.023612459,0.0047399270000000005,-0.095104385,0.0,-0.19193703,1.569990904,1.5743623580000001,0.35774749100000003,237.0104651,61.09521457,-0.002009451,-0.009208665,0.0,-0.005644624,-0.110792738,0.302019826,-9.85224927,2.66e+18,966.1749351,12.404602,0.000725175,0.000744211,0.000255322,-0.10726243099999999,0.146831329,-9.854088292,34150787.76,0.00481869,-0.010858921,-0.00477582,2.66e+18,2.343157601,2.331157715,0.40059654899999997,3.754139711,13.25566097,23.18952576,-0.19867729399999998,0.578658298,0.10999999,-79.06290085,3103967.193,399.6525814,12.404602,96615.89139,1.147956633,0.0,-0.169111332,1.5981648000000002,0.69487256,0.060530192999999996,-0.05889584,0.71415523,1.0,-0.033955375,-0.00413177,0.046071750999999994,0.002050969,-0.005241143,-0.00114529,398714138.0,327364372.0,400120.9054,0.0,0.0,0.0,0.0,3.5068991819999997,39.871413700000005,32.7364371,0.015525456000000002,0.026914502000000003,-0.16145800400000002,0.035008198,0.066954065,-0.16564522199999998,0.01914059,0.128208525,-0.12316284599999999,0.15637257599999999,-0.158175831,-0.253866491,-0.007391521,1.0,1,0,0,0,0
33,34154218,0.031191077999999997,0.015756177,-0.006112768,0.15,0.0,900.0,900.0,900.0,900.0,900.0,900.0,19.49308098,19.49684746,19.87799768,19.41738451,19.79697865,-0.81876501,-0.834760425,39.33824126,39.33824126,12.40458598,-0.001387649,-0.005708678000000001,0.000512526,0.023611966,0.004789027,-0.095089329,0.0,-0.181583141,1.5701041480000002,1.5743748569999998,0.353652444,236.21627090000004,61.64618409,-0.002198159,-0.009485258,0.0,-0.005339036,-0.075758768,0.311477754,-9.862701029,5.11e+18,966.1879956,12.404602,-0.001118979,-0.002147749,-0.000668458,-0.105984731,0.160592836,-9.85670685,34186374.87,0.003875035,-0.0073846369999999995,-0.003549473,5.11e+18,2.478379148,2.466379297,0.400595855,3.863237989,13.25573328,23.12097519,-0.197304833,0.487066105,0.10999999,-79.89889619,3143534.307,399.6139855,12.404602,96616.32919,1.147961816,0.0,-0.15886006,1.5981648000000002,0.695165021,0.05686889,-0.055333395,0.7144557690000001,1.0,0.031835478,-0.024580442999999997,-0.004298822,-0.000209763,-0.005819909,0.000510271,398714138.0,327364372.0,400119.8712,0.0,0.0,0.0,0.0,4.268550159,39.871413700000005,32.7364371,0.016167381,0.028387738,-0.164077699,0.035080613999999996,0.069308556,-0.16856805,0.026871305,0.124942079,-0.09601646,0.155267872,-0.166562689,-0.24509288699999998,-0.007391521,1.0,1,0,0,0,0
34,34186285,0.030705751,0.015829048000000002,-0.0056566690000000005,0.15,0.0,900.0,900.0,900.0,900.0,900.0,900.0,19.66038234,19.66354056,20.04796134,19.58177431,19.964594,-0.079590146,-0.081148472,47.15751835,47.15751835,12.40458273,-0.00138559,-0.005709803,0.000525585,0.023611472999999997,0.004838126,-0.095074274,0.0,-0.17122925100000003,1.570217392,1.574387356,0.34955739700000005,235.4220767,62.19715361,-0.002391672,-0.009803316,0.0,-0.004999206,-0.05601754,0.294384107,-9.885628938,6.87e+18,966.1951785,12.404602,0.008671588000000001,-0.007971593,0.00011854799999999999,-0.09429237,0.149651635,-9.90946882,34221961.99,0.002013503,-0.004873382,-0.002582361,6.87e+18,2.613600695,2.601600878,0.40059516,3.9723362669999998,13.25580559,23.05242462,-0.195932372,0.395473911,0.10999999,-80.73489153,3183715.143,399.5582494,12.404602,96616.97081,1.147969417,0.0,-0.148747595,1.5981648000000002,0.6954363790000001,0.05325575900000001,-0.05181782,0.7147346170000001,1.0,-0.038011123,0.07353417,-0.057362255,-0.0009895169999999999,-0.005338071999999999,-0.000641682,398714138.0,327364372.0,400119.2609,0.0,0.0,0.0,-0.000978196,4.776927149,39.871413700000005,32.7364371,0.016770403,0.029935302,-0.166466208,0.03543211,0.072507552,-0.170464465,0.024741428,0.134612227,-0.106981647,0.155053617,-0.174543965,-0.225638675,-0.007391521,1.0,1,0,0,0,0
35,34230352,0.027640997999999996,0.016204744,-0.00581017,0.15,0.0,900.0,900.0,900.0,900.0,900.0,900.0,19.82768371,19.83023367,20.21792499,19.74616412,20.13220936,0.8890774370000001,0.906433785,54.97679544,54.97679544,12.40457947,-0.00138353,-0.0057109280000000005,0.000538644,0.023610979,0.004887226,-0.095059218,0.0,-0.160875361,1.570330635,1.5743998540000002,0.34546235,234.62788250000003,62.74812313,-0.002579724,-0.01016998,0.0,-0.004690949,-0.075613668,0.208992132,-9.940649112000001,6.87e+18,966.1872425,12.404602,-0.008760248,-0.008203866,0.006127196,-0.137232354,0.232662321,-9.940970289,34257549.11,-0.002209076,-0.004839317,-0.002282077,6.87e+18,2.7708570580000003,2.758857248,0.40059483,4.090507131,13.25588433,22.99383325,-0.19475896899999998,0.313675944,0.10999999,-81.57157648,3229589.1180000002,399.5436714,12.404602,96617.13416,1.147971474,0.0,-0.138765889,1.5981648000000002,0.695685879,0.049687937,-0.048346333,0.71499103,1.0,0.003061077,0.030588151,0.01553306,-0.0015945170000000002,-0.0044454970000000005,0.000223168,398714138.0,327364372.0,400120.9156,0.0,0.0,0.0,-0.007183436999999999,3.931919824,39.871413700000005,32.7364371,0.017334185,0.031557839,-0.16862153100000002,0.036065101,0.07655836099999999,-0.171325585,0.012665626999999999,0.157330919,-0.156388219,0.155737517,-0.18452064199999998,-0.220352834,-0.007391521,1.0,1,0,0,0,0
36,34266420,0.033085326,0.016213004,-0.0063048240000000005,0.15,0.0,900.0,900.0,900.0,900.0,900.0,900.0,19.99498507,19.99692677,20.38788865,19.91055392,20.29982471,0.435750453,0.444268355,62.79607253,62.79607253,12.40457621,-0.001381471,-0.005712053000000001,0.0005517030000000001,0.023610486,0.0049363259999999996,-0.09504416199999999,0.0,-0.150521472,1.5704438790000002,1.574412353,0.34136730299999996,233.83368829999998,63.29909264,-0.0027689309999999996,-0.010587253000000001,0.0,-0.004439112,-0.095209796,0.12360015699999999,-9.995669287,6.87e+18,966.1793066,12.404602,-0.0069267190000000005,-0.007748232,0.001929184,-0.094192573,0.191400023,-9.888074909,34293136.23,-0.006431655,-0.004805252,-0.001981794,6.87e+18,2.9481187139999996,2.9361188869999997,0.40059483,4.216914946,13.25596891,22.9442838,-0.19376629,0.240770105,0.10999999,-82.40888752,3268219.244,399.63817810000006,12.404602,96616.05122000001,1.147958498,0.0,-0.12887515,1.5981648000000002,0.6959171120000001,0.046151498,-0.044905380999999994,0.715228697,1.0,0.030139022999999997,0.050346972999999996,0.031679134,-0.001145823,-0.003881742,-0.000916548,398714138.0,327364372.0,400122.5703,0.0,0.0,0.0,-0.013388678000000001,3.086912499,39.871413700000005,32.7364371,0.017895606,0.033195765,-0.17079393,0.036594907,0.080500125,-0.172227479,0.00070218,0.175099563,-0.199140663,0.15626314800000002,-0.192203643,-0.209514803,-0.007391521,1.0,1,0,0,0,0
37,34298487,0.023006171000000002,0.016040244,0.001491596,0.0,0.0,900.0,900.0,900.0,900.0,900.0,900.0,20.16228643,20.16361988,20.55785231,20.07494372,20.46744006,-0.8536230640000001,-0.87029744,70.61534962,70.61534962,12.40457295,-0.001379411,-0.005713178,0.000564763,0.023609993,0.004985425,-0.09502910699999999,0.0,-0.14016758199999999,1.5705571230000002,1.574424852,0.337272255,233.0394941,63.85006216,-0.002958875,-0.011042129,0.0,-0.004281303,8.752304319,0.091357155,-9.886557359,6.87e+18,966.1718557,12.404602,-0.005177247,-0.006913034,0.0004916769999999999,-0.06814705,0.186565328,-9.871031837,34328723.34,-0.008851835,-0.005448748000000001,-0.0012880860000000001,6.87e+18,3.1253803689999997,3.1133805260000003,0.40059483,4.3433227610000005,13.25605349,22.89473435,-0.19277361199999998,0.167864266,0.10999999,-83.24619856,3311559.912,399.62061560000006,12.404602,96616.23563,1.147960645,0.0,-0.11907973,1.5981648000000002,0.696128042,0.042647934000000005,-0.041496416,0.715445496,1.0,0.025082795,-0.058624567,-0.053480769000000004,-5.11e-05,-0.002898413,-0.000991784,398714138.0,327364372.0,400124.225,0.0,0.0,0.0,-0.019593918999999998,2.2419051740000002,39.871413700000005,32.7364371,0.018436853,0.034965089,-0.173112147,0.036243626,0.08351077400000001,-0.173477532,-0.010301898,0.15060067900000002,-0.185074761,0.155437356,-0.20032761,-0.199461781,-0.007391521,1.0,1,0,0,0,0
38,34334554,0.022045237999999998,0.015786911,0.001813411,1.0,0.0,1499.105221,1500.0,2000.0,1489.0,1510.0,1507.894779,20.3295878,20.33031298,20.72781596,20.23933353,20.63505542,0.09991890699999999,0.10186996400000001,78.43462671,78.43462671,12.40456969,-0.001377352,-0.0057143030000000004,0.000577822,0.023609499,0.005034525,-0.095014051,0.0,-0.12981369199999998,1.570670367,1.574437351,0.333177208,232.24529980000003,64.40103168,-0.0031538509999999996,-0.011515363,0.0,-0.004227334,27.60183393,0.11906568699999999,-9.59230599,6.87e+18,966.1649517999999,12.404602,0.000495795,-0.00558119,0.001020802,44.75351455,0.177773632,-9.303977663,34364310.46,-0.009238928,-0.006856526999999999,-0.0001506,6.87e+18,3.302642025,3.290642164,0.40059483,4.469730576,13.25613807,22.8451849,-0.19178093300000001,0.094958427,0.10999999,-84.08350959999999,3354009.202,399.598076,12.404602,96616.49216000001,1.147963772,0.0,-0.109347439,1.5981648000000002,0.6963225479999999,0.039166031000000004,-0.038108524,0.715645412,1.0,-0.012985746000000001,0.015469841000000002,0.019292117,-0.000368664,-0.005599118,-0.002080324,398714138.0,327364372.0,400125.8798,0.0,0.0,0.0,-0.02579916,1.3968978490000001,39.871413700000005,32.7364371,0.018978099999999998,0.036734413,-0.175430365,0.035892345,0.08652142300000001,-0.174727585,-0.021305977,0.12610179400000002,-0.171008858,0.154611564,-0.208451268,-0.185600022,-0.007391521,1.0,1,0,0,0,0
39,34370621,0.02163351,0.015817829,-0.002349302,1.0,0.0,1499.0,1500.0,2000.0,1489.0,1510.0,1507.313063,20.49688916,20.49700609,20.89777962,20.40372333,20.80267077,1.5772989080000002,1.6081276530000002,86.25390379999999,86.25390379999999,12.40456644,-0.0013752920000000002,-0.005715428000000001,0.000590881,0.023609006000000002,0.005083625,-0.094998995,0.0,-0.119459803,1.570783611,1.574449849,0.32908216100000004,231.45110559999998,64.9520012,-0.003350443,-0.012005657,0.0,-0.004281228,46.45136355,0.146774219,-9.298054622,6.87e+18,966.1580479,12.404602,-0.005686368000000001,-0.004162353,-0.0017389839999999998,52.73284789,0.215922461,-9.201237966,34399897.58,-0.009626021,-0.008264305,0.000986886,6.87e+18,3.479903681,3.467903803,0.40059483,4.596138391,13.25622266,22.79563545,-0.190788254,0.022052587999999998,0.10999999,-84.92082065,3393265.853,399.6407034,12.404602,96616.02825,1.147958252,0.0,-0.09967009199999999,1.5981648000000002,0.696497953,0.035702767999999996,-0.034738771,0.715825695,1.0,-0.020639634,-0.0095084,-0.055775378,-0.002410594,-0.004745393,-0.0009155,398714138.0,327364372.0,400126.4655,0.0,-0.0006681339999999999,-0.0006681339999999999,-0.027327465,1.027676317,39.871413700000005,32.7364371,0.019451398,0.038595147,-0.17760092100000002,0.035858749,0.08977927699999999,-0.17681879,-0.002735589,0.133260441,-0.160827755,0.155534601,-0.21627563600000002,-0.184682745,-0.007391521,1.0,1,0,0,0,0
40,34409377,0.022254532999999996,0.016334748,-0.000672683,1.0,0.0,1498.268654,1500.0,2000.0,1489.0,1510.0,1508.0,20.66419052,20.66369919,21.06774328,20.56811313,20.97028612,2.1084119880000003,2.149602372,94.07318088,94.07318088,12.40456318,-0.001373233,-0.005716553,0.00060394,0.023608512999999998,0.005132724,-0.09498394,0.0,-0.10910591300000001,1.570896855,1.5744623480000002,0.32498711399999997,230.6569114,65.50297072,-0.003544227,-0.012506973999999999,0.0,-0.004424476,50.27640114,0.166507963,-9.238036802,6.87e+18,966.1568907,12.404602,-0.0067809490000000005,-0.006835784,0.001127235,48.60416453,0.091077191,-9.305404864,34435484.7,-0.008298881999999999,-0.00715133,0.0019284279999999998,6.87e+18,3.657165337,3.645165441,0.40059483,4.722546207,13.25630724,22.746086,-0.189795575,-0.050853250999999995,0.10999999,-85.75813169,3438958.992,399.49108010000003,12.404602,96617.74287,1.1479786220000001,0.0,-0.090029913,1.5981648000000002,0.696658157,0.03225206,-0.031381236,0.7159903670000001,1.0,0.011674186000000001,-0.05718242,-0.0033727740000000003,-0.002570172,-0.006202508000000001,-0.000220552,398714138.0,327364372.0,400124.8108,0.0,-0.002736547,-0.002736547,-0.019053811,1.6556106380000002,39.871413700000005,32.7364371,0.019897189,0.040492888,-0.179711697,0.035953766,0.093137209,-0.17925053,0.027807783,0.153235385,-0.152219383,0.157165638,-0.221808268,-0.175661188,-0.007391521,1.0,1,0,0,0,0
41,34454756,0.02201023,0.016383843999999998,-0.00113759,1.0,0.0,1499.0,1500.0,2000.0,1488.0,1511.0,1507.0,20.83149189,20.8303923,21.23770693,20.73250294,21.13790148,4.045801947,4.124866155,101.89245799999999,101.89245799999999,12.40455992,-0.0013711729999999998,-0.005717678,0.000617,0.023608018999999997,0.005181824,-0.094968884,0.0,-0.09875202300000001,1.571010099,1.5744748469999998,0.320892067,229.8627172,66.05394023,-0.003736096,-0.013012583999999999,0.0,-0.004638598,46.35883425,0.182132042,-9.298727072,6.87e+18,966.1586948999999,12.404602,-0.004691825,-0.005067408,-0.00029543099999999997,44.95111898,0.259605146,-9.355267389,34471071.81,-0.006088343,-0.0047393290000000005,0.0027689940000000003,6.87e+18,3.83605438,3.824054466,0.40059591200000005,4.837450926,13.25641267,22.71135742,-0.189098895,-0.10184634099999999,0.10999999,-86.47241535,3480832.9669999997,399.5679125,12.404602,96616.83957000001,1.147967772,0.0,-0.080427598,1.5981648000000002,0.696799995,0.028814087000000002,-0.028036089,0.716136091,1.0,0.031789622000000003,0.027733582000000003,-0.054185523,-0.0015898379999999999,-0.0075158280000000004,-0.0013523329999999998,398714138.0,327364372.0,400123.156,0.0,-0.004804961,-0.004804961,-0.010780156,2.283544959,39.871413700000005,32.7364371,0.020318113,0.042493051,-0.18141986300000001,0.035890738,0.096843619,-0.18100459800000002,0.04219284,0.157160161,-0.14249047199999998,0.15894918800000002,-0.22808687600000002,-0.168809866,-0.007391521,1.0,1,0,0,0,0
42,34490823,0.022412396,0.016096206000000002,0.000615395,1.0,0.0,1499.432086,1500.0,2000.0,1489.567914,1509.432086,1507.432086,20.99879325,20.9970854,21.40767059,20.89689274,21.30551683,5.761337918,5.873871074,109.7117351,109.7117351,12.40455666,-0.0013691139999999998,-0.005718803000000001,0.000630059,0.023607526,0.0052309240000000005,-0.094953828,0.0,-0.088398134,1.571123342,1.574487345,0.31679702,229.068523,66.60490975,-0.003927349,-0.013514113000000001,0.0,-0.004904754,42.44126735,0.197756121,-9.359417342,6.87e+18,966.1604992,12.404602,-0.002671267,-0.008126323000000001,-0.001786864,41.49994689,0.226359153,-9.368100368,34506658.93,-0.003877805,-0.002327328,0.00360956,6.87e+18,4.01540736,4.003407429,0.40059730299999996,4.9490763289999995,13.25652406,22.680854,-0.18848659899999998,-0.146592518,0.10999999,-87.15162621,3522706.941,399.512928,12.404602,96617.47953,1.147975545,0.0,-0.07084312599999999,1.5981648000000002,0.696926968,0.025381897,-0.024696571,0.716266601,1.0,0.11220491699999999,-0.018446258,0.017052428999999997,-0.0017815029999999998,-0.006055849,0.0027895629999999997,398714138.0,327364372.0,400121.5013,0.0,-0.006873375,-0.006873375,-0.002506501,2.91147928,39.871413700000005,32.7364371,0.020685907,0.044712053,-0.18226779899999998,0.035490026,0.10129459699999999,-0.181310727,0.022053448,0.126791563,-0.130367379,0.161058602,-0.23248152,-0.165742891,-0.007391521,1.0,1,0,0,0,0
