timestamp,control[0],control[1],control[2],control[3],control[4],output[2],output[3],output[4],output[5],output[6],output[7],indicated_airspeed_m_s,true_airspeed_m_s,indicated_airspeed_m_s.1,equivalent_airspeed_m_s,true_airspeed_m_s.1,equivalent_ground_minus_wind_m_s,true_ground_minus_wind_m_s,differential_pressure_raw_pa,differential_pressure_filtered_pa,temperature,gyro_bias[0],gyro_bias[1],gyro_bias[2],accel_bias[0],accel_bias[1],accel_bias[2],instance_count,seq_reached,seq_current,seq_total,item_changed_index,item_do_jump_remaining,valid,warning,finished,failure,stay_in_failsafe,flight_termination,item_do_jump_changed,execution_mode,nav_roll,nav_pitch,nav_bearing,target_bearing,xtrack_error,wp_dist,acceptance_radius,rollspeed_integ,pitchspeed_integ,yawspeed_integ,additional_integ1,x,y,z,temperature.1,pressure,temperature.2,gyro_rad[0],gyro_rad[1],gyro_rad[2],accelerometer_m_s2[0],accelerometer_m_s2[1],accelerometer_m_s2[2],x.1,y.1,z.1,temperature.3,altitude_sp,altitude_filtered,height_rate_setpoint,height_rate,airspeed_sp,airspeed_filtered,airspeed_derivative_sp,airspeed_derivative,throttle_integ,pitch_integ,baro_alt_meter,baro_temp_celcius,baro_pressure_pa,rho,xyz[0],xyz[1],xyz[2],xyz[0].1,xyz[1].1,xyz[2].1,roll_body,pitch_body,yaw_body,q_d[0],q_d[1],q_d[2],q_d[3],thrust_body[0],lat,lon,alt,vel_m_s,vel_n_m_s,vel_e_m_s,vel_d_m_s,cog_rad,ground_contact,maybe_landed,landed,ref_timestamp,ref_lat,ref_lon,x.2,y.2,z.2,vx,vy,vz,ax,ay,az,dist_bottom,roll,pitch,yaw,thrust_body[0].1,timestamp.1,isTakeoff,isClimbing,isDescending,isCruise,isLand
7500000,0.023378626,0.027724772999999998,0.000216812,0.0,0.49,900.0,900.0,900.0,900.0,900.0,900.0,1.7725104,1.8071663,-1.0221818999999999,-1.0221818999999999,-1.0421511,0.08491505,0.08657395,-0.15905681,-0.15905681,12.404602,-0.000791968,-0.00399999,-0.0018678520000000001,0.036838576,-0.009466048000000001,-0.07652218,2.0,-1.0,0.0,11,0,0,1,0,0.0,0,0,0,0,0,0.002834744,0.0,1.7401497,1.6260537,-0.032562256,,0.28647888,4.23e-06,1.05e-05,-5.070000000000001e-07,0.0,-0.10107357,0.19310585,-9.919783,82382296.0,966.17255,12.404602,-0.0010386780000000001,-0.012786375,-0.0014757779999999999,-0.14188766,0.19667032,-9.858751,-0.000989452,-0.005441397,0.006467675,82382296.0,-0.054444425,-0.06644443,0.40060008,-0.2974219,13.253991000000001,22.280006,-0.1805203,16.200602,0.10999999,-21.483692,399.5314,12.404602,96617.26,1.1479728,0.09395741,-0.7344147,-0.40362144,0.003322635,0.000675667,0.004091677,0.002200921,0.0,1.6441618999999998,0.6806978,0.0007490810000000001,0.0008061580000000001,0.7325635,0.15,398714138.0,327364372.0,400121.0,0.0,0.01,-0.01,0.0,5.521349,0,0,1.0,756000,39.871413700000005,32.7364371,-1.89e-06,4.53e-07,-1.78e-06,-0.00034735,5.65e-05,-0.0008527039999999999,-0.038336597,-4.6500000000000005e-05,-0.21061672,0.1,0.034590375,0.037087853999999996,-0.0015121420000000002,0.15,7500000,1,0,0,0,0
7538466,0.02741219,0.027860275,-0.002449779,0.15,0.39383486700000003,900.0,900.0,900.0,900.0,900.0,900.0,-1.180060895,-1.203114708,-0.250946629,-0.251041572,-0.25593694899999997,0.81865514,0.834657315,8.734703961000001,8.734703961000001,12.40459736,-0.0007997760000000001,-0.004035451,-0.001840036,0.036762762000000004,-0.009420831999999999,-0.07726089400000001,2.0,-1.0,0.0,11,0,0,1,0,0.0,0,0,0,0,0,0.002698576,0.0,1.702895324,1.6259458169999998,-0.022111866,,0.28647888,3.91e-06,1.15e-05,-1.12e-06,0.0,-0.067596695,0.150532537,-9.931884556,82382296.0,966.1675204,12.404602,0.0005366430000000001,-0.00962503,0.002881565,-0.063447213,0.23815849100000003,-9.952514111000001,-0.0021066170000000003,-0.008393452,0.002451053,82382296.0,-0.054300939000000006,-0.066300943,0.40060008,-0.270119518,13.253997400000001,22.76199207,-0.19015989,15.56646042,0.10999999,-22.72369244,399.5644863,12.404602,96616.8736,1.1479683109999999,-0.304619586,0.5246460860000001,0.216183565,0.002815259,-0.000881818,0.0034475879999999997,0.0022037520000000002,0.0,1.615726613,0.690996327,0.000760809,0.00079695,0.72276184,0.15,398714138.0,327364372.0,400119.8742,0.0,0.008123625,-0.008123625,-0.001876375,4.745559691,0,0,0.961592318,756000,39.871413700000005,32.7364371,2.9299999999999997e-05,4.7499999999999996e-05,-0.013467834,0.00014869700000000002,0.000843863,-0.007643751,-0.019718306,0.015203616999999999,-0.190589559,0.1,0.034347123,0.036837135,-0.001239985,0.15,7538466,1,0,0,0,0
7580932,0.027289347000000002,0.027056016000000002,-0.0019481779999999998,0.15,0.287669734,900.0,900.0,900.0,900.0,900.0,900.0,-0.6180651629999999,-0.630142668,0.520288643,0.5200987570000001,0.530277201,1.55239523,1.582740679,17.62846473,17.62846473,12.40459273,-0.000807585,-0.004070912,-0.00181222,0.036686948,-0.009375617,-0.077999608,2.0,-1.0,0.0,11,0,0,1,0,0.0,0,0,0,0,0,0.002562408,0.0,1.665640948,1.625837934,-0.011661476,,0.28647888,4.15e-06,9.76e-06,-2.04e-06,0.0,-0.03411982,0.107959223,-9.943986113,82382296.0,966.1624909,12.404602,-0.002500184,-0.004283992,0.005595053000000001,-0.130825348,0.13894573699999999,-9.900938575,-0.003223782,-0.011345507,-0.0015655679999999998,82382296.0,-0.054157452,-0.06615745599999999,0.40060008,-0.24281713600000002,13.2540038,23.24397815,-0.19979947899999997,14.93231885,0.10999999,-23.96369289,399.7770124,12.404602,96614.45247,1.147939565,0.30216872699999997,-0.005070189,0.04689138599999999,0.00259283,0.0030255629999999998,0.001038185,0.002174113,0.0,1.5962844999999999,0.69803774,0.000758807,0.000778398,0.71606016,0.15,398714138.0,327364372.0,400118.7483,0.0,0.006247249,-0.006247249,-0.003752751,3.969770382,0,0,0.923184637,756000,39.871413700000005,32.7364371,6.04e-05,9.46e-05,-0.026933889,0.000644744,0.0016312260000000002,-0.014434798,-0.001100015,0.030453734,-0.17056239899999998,0.1,0.034589676,0.036576891,-0.0013523720000000001,0.15,7580932,1,0,0,0,0
7618797,0.029571446,0.027103855,-0.00176482,0.15,0.193008805,900.0,900.0,900.0,900.0,900.0,900.0,-1.6054723569999998,-1.636847606,1.291523914,1.291239085,1.3164913520000001,2.28613532,2.330824044,26.5222255,26.5222255,12.40458809,-0.000815393,-0.004106373,-0.0017844039999999999,0.036611134,-0.009330401,-0.078738321,2.0,-1.0,0.0,11,0,0,1,0,0.0,0,0,0,0,0,0.002426241,0.0,1.628386572,1.625730051,-0.001211086,,0.28647888,4.43e-06,1.04e-05,-3.17e-06,0.0,-0.027300521,0.09343082400000001,-9.933174031,82382296.0,966.1592821,12.404602,-0.004678468,-0.010603062,-0.001143334,-0.10604958800000001,0.218484447,-9.935198719,-0.003965922,-0.012024822,-0.0036472920000000003,82382296.0,-0.054013966,-0.066013969,0.40060008,-0.215514755,13.254010199999998,23.72596422,-0.20943906899999998,14.29817727,0.10999999,-25.20369333,399.4446763,12.404602,96618.24961,1.147984572,-0.141904607,-0.071861842,0.27075062699999997,-0.002389801,0.003470118,0.005986835,0.001890758,0.0,1.558801941,0.711299658,0.0006718560000000001,0.000665021,0.702818513,0.15,398714138.0,327364372.0,400117.6225,0.0,0.004370874,-0.004370874,-0.005629126,3.1939810730000002,0,0,0.884776955,756000,39.871413700000005,32.7364371,0.000132061,0.000177897,-0.037920694,0.001460063,0.0026701809999999998,-0.021787782999999998,-0.00045831199999999994,0.039712914,-0.150676729,0.1,0.033918145,0.036229646000000004,-0.0009706669999999999,0.15,7618797,1,0,0,0,0
7657864,0.02647989,0.026914645,-0.001540685,0.15,0.095339248,900.0,900.0,900.0,900.0,900.0,900.0,-0.603106,-0.6148851089999999,2.062759185,2.062379413,2.102705503,3.01987541,3.078907408,35.41598627,35.41598627,12.40458345,-0.000823202,-0.0041418340000000005,-0.001756588,0.03653532,-0.009285185999999999,-0.079477035,2.0,-1.0,0.0,11,0,0,1,0,0.0,0,0,0,0,0,0.0022900729999999997,0.0,1.591132195,1.625622168,0.009239304,,0.28647888,4.29e-06,1.05e-05,-3.32e-07,0.0,-0.062981426,0.123614465,-9.885830708,82382296.0,966.1589761,12.404602,0.00018403,-0.008503375,-0.002604406,-0.127962498,0.22144314399999998,-9.935663907,-0.004110158,-0.009080705,-0.0026442040000000003,82382296.0,-0.053870479000000006,-0.06587048200000001,0.40060008,-0.18821237300000002,13.2540166,24.20795029,-0.21907865899999998,13.6640357,0.10999999,-26.44369378,399.5585368,12.404602,96616.95245,1.147969247,0.260586653,-0.341386501,-0.245832949,0.0010565169999999999,0.0015606939999999998,-0.000883086,0.001417587,0.0,1.482025311,0.737734353,0.000522417,0.00047896099999999997,0.674988933,0.15,398714138.0,327364372.0,400116.4967,0.0,0.002494499,-0.002494499,-0.0075055009999999995,2.418191764,0,0,0.8463692740000001,756000,39.871413700000005,32.7364371,0.000251477,0.000303927,-0.045980226,0.00265235,0.004006193,-0.029804252000000003,-0.021041737999999997,0.041898537,-0.130958119,0.1,0.033513671,0.035927238,-0.0006942000000000001,0.15,7657864,1,0,0,0,0
7700330,0.026327746000000003,0.025169188999999998,-0.0013576970000000002,0.15,0.0,900.0,900.0,900.0,900.0,900.0,900.0,-0.662662721,-0.675604855,2.833994456,2.8335197410000004,2.8889196530000003,3.753615501,3.826990773,44.30974704,44.30974704,12.40457882,-0.00083101,-0.004177296,-0.0017287729999999999,0.036459506,-0.00923997,-0.080215749,2.0,-1.0,0.0,11,0,0,1,0,0.0,0,0,0,0,0,0.002153905,0.0,1.553877819,1.625514285,0.019689693,,0.28647888,3.95e-06,9.93e-06,-1.6e-06,0.0,-0.09866233099999999,0.153798107,-9.838487385,82382296.0,966.1586701,12.404602,0.001920035,0.003436271,0.0023058429999999997,-0.188323513,0.13375848,-9.908437929,-0.004254395,-0.0061365890000000005,-0.001641117,82382296.0,-0.053726993,-0.065726995,0.40060008,-0.160909991,13.254023000000002,24.68993637,-0.228718248,13.02989412,0.10999999,-27.68369422,399.6492631,12.404602,96615.90884,1.147956878,-0.38231789899999996,0.017176301,-0.141888042,5.3e-05,-0.002470017,-0.0008131910000000001,0.001075087,0.0,1.40444832,0.7634006409999999,0.000410316,0.00034725699999999996,0.645911411,0.15,398714138.0,327364372.0,400115.3709,0.0,0.0006181240000000001,-0.0006181240000000001,-0.009381875999999999,1.642402455,0,0,0.8079615920000001,756000,39.871413700000005,32.7364371,0.00037089400000000003,0.00042995699999999996,-0.054039758,0.003844637,0.005342205,-0.037820721,-0.041625163,0.044084161,-0.111239508,0.1,0.032939932000000005,0.035331418999999996,-0.00027109,0.15,7700330,1,0,0,0,0
7734797,0.028937257,0.025951729,-0.001195656,0.15,0.0,900.0,900.0,900.0,900.0,900.0,900.0,1.064187646,1.084975581,3.6052297280000003,3.60466007,3.6751338039999997,4.487355591,4.575074137,53.20350782,53.20350782,12.40457418,-0.000838819,-0.004212757,-0.0017009570000000001,0.036383692,-0.009194755,-0.080954463,2.0,-1.0,0.0,11,0,0,1,0,0.0,0,0,0,0,0,0.002017737,0.0,1.516623443,1.625406401,0.030140082999999998,,0.28647888,4.07e-06,8.47e-06,2.64e-07,0.0,-0.075430894,0.16524383199999998,-9.822474891,82382296.0,966.1622267999999,12.404602,-0.006265429,-0.005006985,-0.00090002,-0.074124244,0.169256015,-9.941974822999999,-0.003942804,-0.005722495,-0.001884122,82382296.0,-0.043194905,-0.055194905999999995,0.400600064,-0.062920667,13.2540096,24.99066511,-0.23473309399999998,12.40891801,0.10999999,-29.21169858,399.7084503,12.404602,96615.21719,1.147948687,-0.153215133,-0.313134393,-0.27915139899999997,0.001245886,0.010697606,0.001170344,0.0007903560000000001,0.0,1.3535913,0.779583472,0.000308075,0.00024749900000000004,0.6262981,0.15,398714138.0,327364372.0,400115.755,0.0,0.0,-0.001258252,-0.008741748,1.848033882,0,0,0.7695539109999999,756000,39.871413700000005,32.7364371,0.000559604,0.000716273,-0.061066922999999995,0.005090367,0.007323818,-0.045083868,0.003374863,0.030115485,-0.11848258199999999,0.1,0.032579387,0.035005456000000004,-7.37e-05,0.15,7734797,1,0,0,0,0
7769263,0.028572595,0.025756998,-0.001697445,0.15,0.0,900.0,900.0,900.0,900.0,900.0,900.0,1.116368013,1.138195945,4.3764649989999995,4.375800398,4.461347954,5.221095681,5.323157502,62.09726859,62.09726859,12.40456954,-0.000846627,-0.004248218,-0.001673141,0.036307877999999995,-0.009149539,-0.081693177,2.0,-1.0,0.0,11,0,0,1,0,0.0,0,0,0,0,0,0.00188157,0.0,1.479369067,1.6252985180000001,0.040590472999999995,,0.28647888,3.68e-06,9.39e-06,-4.85e-09,0.0,-0.034693617,0.171121574,-9.815772373,82382296.0,966.1669312000001,12.404602,-0.005809788000000001,-0.00611049,0.001396759,-0.061934959000000005,0.15416363800000002,-9.948748724,-0.003495763,-0.0060602,-0.002497405,82382296.0,-0.027942184,-0.039942185,0.40060004200000005,0.067189154,13.253987200000001,25.20902963,-0.239100838,11.79392434,0.10999999,-30.87057334,399.5923392,12.404602,96616.54961,1.147964332,-0.18169052300000002,0.070552201,0.09047811800000001,-0.00518362,0.0024171279999999997,0.0030824240000000003,0.00056906,0.0,1.3035322,0.79501367,0.000226205,0.000172594,0.6065914000000001,0.15,398714138.0,327364372.0,400116.8808,0.0,0.0,-0.003134627,-0.006865373,2.535794095,0,0,0.731146229,756000,39.871413700000005,32.7364371,0.000754575,0.001017072,-0.06800080900000001,0.006340925999999999,0.009363764,-0.05227895,0.054300666,0.014687191,-0.12816177199999998,0.1,0.032136077,0.034483035,0.000207016,0.15,7769263,1,0,0,0,0
7803729,0.02595904,0.025526569,-0.000631679,0.15,0.0,900.0,900.0,900.0,900.0,900.0,900.0,1.070458841,1.0913710909999998,5.14770027,5.146940726,5.247562105,5.954835771,6.071240867,70.99102936,70.99102936,12.4045649,-0.000854435,-0.004283679,-0.001645325,0.036232065,-0.009104323000000001,-0.08243189,2.0,-1.0,0.0,11,0,0,1,0,0.0,0,0,0,0,0,0.001745402,0.0,1.442114691,1.625190635,0.051040863,,0.28647888,3.74e-06,8.5e-06,-1.57e-06,0.0,-0.010499953000000001,0.178885335,-9.819816988,82382296.0,966.1707445000001,12.404602,0.001028575,-0.005271802,-0.001652745,-0.048041377,0.180385326,-9.921861395,-0.002861323,-0.006196671999999999,-0.002788922,82382296.0,-0.012689463,-0.024689463999999998,0.400600019,0.197298974,13.253964800000002,25.42739415,-0.243468582,11.17893068,0.10999999,-32.52944811,399.5096383,12.404602,96617.53321000001,1.147976173,-0.12286889699999999,-0.42386759999999996,-0.13514172300000002,-0.002455896,0.00037653800000000005,0.002121538,0.00082601,0.0,1.3035322,0.7950136170000001,0.000328345,0.000250526,0.6065914000000001,0.15,398714138.0,327364372.0,400118.0066,0.0,0.0,-0.0050110020000000005,-0.004988998,3.223554309,0,0,0.692738548,756000,39.871413700000005,32.7364371,0.001008988,0.00140106,-0.074783979,0.00764171,0.011134958,-0.05945748,0.07415779900000001,0.012063198999999998,-0.136049098,0.10006897199999999,0.032491268,0.034003309,-0.000135277,0.15,7803729,1,0,0,0,0
7838195,0.027084172000000004,0.025254669,-0.0008393939999999999,0.15,0.0,900.0,900.0,900.0,900.0,900.0,900.0,-1.1997166320000001,-1.223149512,5.918935541000001,5.918081054,6.033776256,6.688575861,6.819324231,79.88479013,79.88479013,12.40456027,-0.000862244,-0.00431914,-0.001617509,0.036156251,-0.009059108,-0.08317060400000001,2.0,-1.0,0.0,11,0,0,1,0,0.0,0,0,0,0,0,0.001609234,0.0,1.404860315,1.625082752,0.061491252999999996,,0.28647888,3.47e-06,9.2e-06,-1.9e-06,0.0,-0.075553262,0.19682351,-9.881838612000001,82382296.0,966.1697501,12.404602,-0.004814602,-0.00775003,-0.0010520969999999999,-0.08823726800000001,0.193476653,-9.926810163999999,-0.001215925,-0.005247568,-0.001344629,82382296.0,0.002563257,-0.009436743000000001,0.40059999700000004,0.327408795,13.2539424,25.64575866,-0.24783632600000002,10.56393701,0.10999999,-34.18832287,399.483738,12.404602,96617.84071,1.147979887,-0.703648715,-0.38060200299999997,0.406202581,0.000883705,0.0039931820000000005,0.003389325,0.001171192,0.0,1.3035322,0.7950136,0.00046555699999999996,0.000355218,0.60659134,0.15,398714138.0,327364372.0,400119.1324,0.0,0.0,-0.006887376999999999,-0.0031126229999999997,3.911314523,0,0,0.654330866,756000,39.871413700000005,32.7364371,0.001362176,0.001923284,-0.081316705,0.009025953,0.012459566000000002,-0.06660850900000001,0.042387968,0.030716177999999997,-0.140958874,0.100252555,0.032832171,0.033713942999999996,-0.00043490099999999996,0.15,7838195,1,0,0,0,0
7872661,0.027110263,0.024110859,-0.000119029,0.15,0.0,900.0,900.0,900.0,900.0,900.0,900.0,-1.509220575,-1.53869623,6.690170813,6.689221383,6.8199904060000005,7.422315951,7.567407596000001,88.77855090000001,88.77855090000001,12.40455563,-0.000870052,-0.004354601,-0.0015896929999999999,0.036080437,-0.009013891999999999,-0.08390931800000001,2.0,-1.0,0.0,11,0,0,1,0,0.0,0,0,0,0,0,0.001473066,0.0,1.367605938,1.624974869,0.071941643,,0.28647888,4.04e-06,8.37e-06,-1.15e-06,0.0,-0.14060657099999999,0.21476168399999998,-9.943860235,82382296.0,966.1687555999999,12.404602,-0.002560211,-0.0034965729999999998,-0.006602241,-0.039668800000000004,0.198845303,-9.856608459,0.00042947199999999997,-0.004298463,9.97e-05,82382296.0,0.017815978,0.005815978,0.40059997399999997,0.457518616,13.25392,25.86412318,-0.25220407,9.948943347,0.10999999,-35.84719763,399.55985319999996,12.404602,96616.96356,1.147969391,0.136558693,0.609593829,-0.034142925,-0.000958831,0.009750557,-0.000519599,0.000719343,0.0,1.255720307,0.8092713640000001,0.000290836,0.00021159,0.587403319,0.15,398714138.0,327364372.0,400120.2583,0.0,0.0,-0.008763753,-0.001236247,4.599074736,0,0,0.615923185,756000,39.871413700000005,32.7364371,0.001715364,0.002445508,-0.08784943099999999,0.010410196,0.013784174,-0.073759537,0.010618137,0.049369157999999996,-0.14586865,0.10043613800000001,0.032321935,0.033495418,-0.00011469799999999999,0.15,7872661,1,0,0,0,0
7915127,0.025555212,0.024526131,-0.000144354,0.15,0.0,900.0,900.0,900.0,900.0,900.0,900.0,-0.8012363490000001,-0.816889862,7.461406084,7.460361711,7.606204557000001,8.156056041,8.31549096,97.67231167,97.67231167,12.40455099,-0.0008778610000000001,-0.004390062,-0.0015618770000000001,0.036004623,-0.008968677,-0.084648032,2.0,-1.0,0.0,11,0,0,1,0,0.0,0,0,0,0,0,0.001336899,0.0,1.330351562,1.624866986,0.082392033,,0.28647888,3.74e-06,8.29e-06,-9.4e-07,0.0,-0.177462948,0.214110259,-9.972574428,82382296.0,966.1706356000001,12.404602,-0.002868733,-0.004714412,-0.000976978,-0.143185671,0.167306644,-9.861278853,0.00076795,-0.001346445,0.00178006,82382296.0,0.047434819,0.03543482,0.40059995200000004,0.607738523,13.25393248,26.00647908,-0.25505094,9.349527884,0.10999999,-37.63473274,399.581435,12.404602,96616.71435,1.147966323,0.123354016,0.069254059,-0.226960859,0.00137584,0.002955277,-0.000915373,0.0009642639999999999,0.0,1.2526245,0.8101944999999999,0.00039062099999999996,0.000282607,0.5861609,0.15,398714138.0,327364372.0,400121.7041,0.0,-0.000640128,-0.009359872,-0.002560512,4.9508379389999995,0,0,0.577515503,756000,39.871413700000005,32.7364371,0.002112518,0.003007702,-0.09128502699999999,0.01165903,0.016018304,-0.07894592,0.0077369280000000006,0.04228448,-0.17129782,0.108842881,0.032554917999999995,0.033452941,-0.00030476099999999996,0.15,7915127,1,0,0,0,0
7953593,0.025953999,0.02355333,-0.000466703,0.15,0.0,900.0,900.0,900.0,900.0,900.0,900.0,0.768175115,0.78318264,8.232641355,8.231502039,8.392418708,8.889796131,9.063574325,106.56607240000001,106.56607240000001,12.40454636,-0.000885669,-0.004425523,-0.001534061,0.035928809,-0.008923461,-0.085386746,2.0,-1.0,0.0,11,0,0,1,0,0.0,0,0,0,0,0,0.001200731,0.0,1.293097186,1.6247591030000001,0.09284242300000001,,0.28647888,3.86e-06,8.78e-06,-2.56e-06,0.0,-0.190477132,0.197740215,-9.973125194,82382296.0,966.1749461,12.404602,-0.002249321,-0.005452843000000001,-0.0026310709999999996,-0.10590864900000001,0.24257539,-9.962933527,1.35e-06,0.003299155,0.003660094,82382296.0,0.100983629,0.08898363,0.40059992899999997,0.7914562509999999,13.25400307,26.02222573,-0.255364455,8.776061383,0.10999999,-39.63658026,399.6557944,12.404602,96615.80741000001,1.147955654,-0.025335772000000003,0.215069578,0.08979962,-0.000740199,0.006777175,0.0035856390000000003,0.0011183410000000001,0.0,1.2526245,0.8101944999999999,0.000453037,0.00032776400000000003,0.586160848,0.15,398714138.0,327364372.0,400123.7682,0.0,-0.002516503,-0.0074834969999999995,-0.010066013,4.653706916,0,0,0.5391078220000001,756000,39.871413700000005,32.7364371,0.0025184070000000003,0.003577837,-0.094105348,0.012880963,0.018433118999999998,-0.083742009,0.010594715,0.030086775,-0.200803359,0.11888323199999999,0.032688761000000004,0.033279582,-0.000379051,0.15,7953593,1,0,0,0,0
7988118,0.025146331,0.023265015,-0.00080939,0.15,0.0,900.0,900.0,900.0,900.0,900.0,900.0,-0.641969633,-0.654512954,9.003876626,9.002642367,9.178632858,9.623536222,9.811657689,115.45983319999999,115.45983319999999,12.40454172,-0.0008934769999999999,-0.004460985,-0.001506245,0.035852995,-0.008878246,-0.086125459,2.0,-1.0,0.0,11,0,0,1,0,0.0,0,0,0,0,0,0.001064563,0.0,1.25584281,1.62465122,0.10329281300000001,,0.28647888,4.03e-06,9.62e-06,-9.13e-07,0.0,-0.203491315,0.181370172,-9.97367596,82382296.0,966.1792565999999,12.404602,-0.0017963270000000001,-0.0036338159999999998,-0.002332743,-0.103676999,0.133337031,-9.964239379,-0.000765253,0.007944755999999999,0.005540129,82382296.0,0.15453244,0.14253244,0.400599906,0.97517398,13.25407366,26.03797237,-0.255677971,8.202594881,0.10999999,-41.63842778,399.4969,12.404602,96617.69433,1.147978153,0.385764172,-0.7206094359999999,-0.163458721,0.005058702,0.0009004560000000001,0.0025238879999999997,0.000891328,0.0,1.215184354,0.8209693709999999,0.000365505,0.000254937,0.570853236,0.15,398714138.0,327364372.0,400125.8322,0.0,-0.004392879000000001,-0.005607121,-0.017571514,4.3565758919999995,0,0,0.50070014,756000,39.871413700000005,32.7364371,0.002978128,0.004233926,-0.096990252,0.014210221,0.020838092,-0.08869667699999999,0.012861441000000001,0.024355922000000002,-0.208088252,0.12521356,0.032162495,0.033135248,-8.72e-05,0.15,7988118,1,0,0,0,0
8030525,0.026697015,0.023721536,-0.0005699769999999999,0.15,0.0,900.0,900.0,900.0,900.0,900.0,900.0,0.35517510700000005,0.362111344,9.775111897999999,9.773782696,9.964847009,10.35727631,10.55974105,124.353594,124.353594,12.40453708,-0.0009012860000000001,-0.004496445999999999,-0.00147843,0.035777181,-0.00883303,-0.086864173,2.0,-1.0,0.0,11,0,0,1,0,0.0,0,0,0,0,0,0.0009793,0.0,1.011420714,1.355410231,0.012714198999999999,,2.740989186,3.86e-06,8.64e-06,-1.04e-06,0.0,-0.15223811,0.15853695,-9.930144676,82382296.0,966.1756082999999,12.404602,-0.0023802989999999998,-0.012729269,0.001371706,-0.067198075,0.131798685,-9.912168221,-0.0036715040000000003,0.0039002040000000004,0.002153449,82382296.0,0.20808125,0.19608125,0.40059988399999996,1.158891708,13.25414425,26.05371902,-0.255991486,7.62912838,0.10999999,-43.64027531,399.48648510000004,12.404602,96617.78071,1.147979104,-0.145521168,-0.256757692,0.108386081,-0.001848754,0.0032295740000000002,0.0023765839999999997,0.0009580210000000001,0.0,1.183947483,0.8297774179999999,0.000397017,0.000267952,0.5579575689999999,0.15,398714138.0,327364372.0,400127.8962,0.0,-0.006269254,-0.0037307459999999996,-0.025077015,4.059444868,0,0,0.46229245799999996,756000,39.871413700000005,32.7364371,0.0035678479999999998,0.0050975890000000005,-0.10003111599999999,0.015798658,0.023219297000000003,-0.094034306,0.013700796000000001,0.03424207,-0.16171183,0.12258443699999999,0.032486807,0.033049184,-0.000310488,0.15,8030525,1,0,0,0,0
8072991,0.02394548,0.024334174,-0.00056554,0.15,0.0,900.0,900.0,900.0,900.0,900.0,900.0,-1.237891209,-1.262075618,10.54634717,10.54492302,10.75106116,11.0910164,11.30782442,133.24735479999998,133.24735479999998,12.40453245,-0.0009090939999999999,-0.004531907,-0.001450614,0.035701367000000005,-0.008787814,-0.08760288699999999,2.0,-1.0,0.0,11,0,0,1,0,0.0,0,0,0,0,0,0.00089885,0.0,0.747409694,1.060721126,-0.0874173,,5.42758786,3.89e-06,9.86e-06,3.6e-07,0.0,-0.095946457,0.135197027,-9.883157438,82382296.0,966.1713361,12.404602,-0.00158055,-0.015335201000000001,0.00416003,-0.007860605,0.27142922,-9.865895964,-0.006745501,-0.000825641,-0.001646132,82382296.0,0.26163006,0.24963006,0.400599861,1.342609436,13.25421484,26.06946566,-0.256305002,7.0556618779999996,0.10999999,-45.64212283,399.5073327,12.404602,96617.57093,1.147976522,-0.677782262,0.530492898,-0.27725504,8.859999999999999e-05,0.006844149,-0.002271899,6.95e-05,0.0,1.580786225,0.701806239,2.9199999999999998e-05,1.89e-05,0.709069416,0.013682737,398714138.0,327364372.0,400129.9602,0.0,-0.008145629,-0.001854371,-0.032582517000000005,3.762313845,0,0,0.42388477700000005,756000,39.871413700000005,32.7364371,0.004157567,0.0059612530000000006,-0.103071981,0.017387095,0.025600501,-0.099371935,0.014540151000000001,0.044128217000000004,-0.11533540800000001,0.119955315,0.0307822,0.03291034,-3.5499999999999996e-05,0.0,8072991,1,0,0,0,0
8111457,0.025660387000000003,0.02377855,-0.0006556919999999999,0.15,0.0,900.0,900.0,900.0,900.0,900.0,900.0,-1.059470703,-1.080166297,11.31758244,11.31606335,11.53727531,11.82475649,12.05590778,142.1411155,142.1411155,12.40452781,-0.000916903,-0.004567368,-0.0014227979999999999,0.035625553,-0.008742599,-0.08834160099999999,2.0,-1.0,0.0,11,0,0,1,0,0.0,0,0,0,0,0,0.0008183999999999999,0.0,0.483398674,0.7660320209999999,-0.1875488,,8.114186533,3.55e-06,9.02e-06,-2.1399999999999998e-07,0.0,-0.06466295400000001,0.11802532199999999,-9.866730166,72527403.9,966.1681129000001,12.404602,-0.002470411,-0.01132296,0.000608791,-0.122013047,0.213357698,-9.923681882999999,-0.007312501,-0.0046791590000000004,-0.003719369,72527403.9,0.316552558,0.304552559,0.400599828,1.5225580319999998,13.25428334,26.07815246,-0.256477363,6.494062521,0.10999999,-47.62312091,399.6483374,12.404602,96615.93207000001,1.147957075,-0.32653714300000003,0.06429882,-0.462374167,-0.001510529,0.002322323,0.001110319,0.0,0.0,1.6242758999999998,0.68794835,0.0,0.0,0.7257596,1.0,398714138.0,327364372.0,400131.9934,0.0,-0.009955990999999999,0.0,-0.039911982,3.4740620389999997,0,0,0.385477095,756000,39.871413700000005,32.7364371,0.0046926170000000005,0.006807471,-0.106797509,0.018075714,0.027901646000000002,-0.104779582,-0.003263862,0.04574879900000001,-0.137318928,0.121079497,0.030651467999999998,0.032669738999999996,-3.5499999999999996e-05,1.0,8111457,1,0,0,0,0
8145924,0.027729122999999998,0.023584534,-0.00040462,0.15,0.0,900.0,900.0,900.0,900.0,900.0,900.0,0.513569089,0.523609545,12.08881771,12.08720368,12.32348946,12.55849658,12.80399115,151.0348763,151.0348763,12.40452317,-0.000924711,-0.004602829,-0.0013949820000000001,0.035549739,-0.008697383000000001,-0.089080315,2.0,-1.0,0.0,11,0,0,1,0,0.0,0,0,0,0,0,0.00073795,0.0,0.21938765300000002,0.471342916,-0.287680299,,10.80078521,3.52e-06,8.68e-06,0.0,0.0,-0.088330471,0.11440719,-9.917453051,41018116.8,966.1671949999999,12.404602,-0.005841378,-0.006424450999999999,-0.00048677599999999996,-0.077510087,0.190648953,-9.907019058,-0.002370819,-0.006615892,-0.001999268,41018116.8,0.392010526,0.38001053799999995,0.40059963600000004,1.6461612909999999,13.25432061,25.98130062,-0.254539582,6.1098669029999995,0.10999999,-49.2924376,399.490911,12.404602,96617.75647000001,1.14797874,-0.06375597,0.261418238,0.151944155,-0.0021132029999999997,0.001538777,0.001482042,0.0,0.0,1.6242758999999998,0.68794835,0.0,0.0,0.7257596,1.0,398714138.0,327364372.0,400131.4305,0.0,-0.006203241,0.0,-0.032406481,3.9340861539999996,0,0,0.34706941399999997,756000,39.871413700000005,32.7364371,0.005209578,0.007647919,-0.11074956,0.018466626,0.030176302000000002,-0.110210395,-0.027236079,0.04463469900000001,-0.181919506,0.123445468,0.030510031,0.032555765,-3.5499999999999996e-05,1.0,8145924,1,0,0,0,0
8180390,0.025760533,0.023224667,-0.000608249,0.15,0.0,900.0,900.0,900.0,900.0,900.0,900.0,-0.781492317,-0.7967564629999999,12.86005298,12.85834401,13.10970361,13.29223667,13.55207451,159.9286371,159.9286371,12.40451854,-0.00093252,-0.00463829,-0.001367166,0.035473925,-0.008652168,-0.08981902800000001,2.0,-1.0,0.0,11,0,0,1,0,0.0,0,0,0,0,0,0.0006575,0.0,-0.044623367000000004,0.17665381100000002,-0.387811798,,13.48738388,3.4e-06,8.8e-06,0.0,0.0,-0.111997988,0.11078905800000001,-9.968175937,9508829.695,966.1662769999999,12.404602,-0.000999062,-0.008682986,0.0019513920000000001,-0.085339656,0.142339681,-9.924462421,0.002570864,-0.008552625999999999,-0.00027916700000000003,9508829.695,0.467468493,0.455468517,0.40059944399999997,1.769764549,13.25435788,25.88444877,-0.252601802,5.725671286,0.10999999,-50.96175428,399.56404330000004,12.404602,96616.87785,1.147968412,-0.141502243,0.079239227,0.18937017,0.000133199,0.0036421120000000003,0.0030088309999999996,0.0,0.0,1.6242758999999998,0.68794835,0.0,0.0,0.7257596,1.0,398714138.0,327364372.0,400130.8676,0.0,-0.00245049,0.0,-0.02490098,4.394110269,0,0,0.30866173199999997,756000,39.871413700000005,32.7364371,0.005751866,0.008545621,-0.11472945300000001,0.019111651,0.032401281000000004,-0.11566994800000001,-0.038959213,0.04661024,-0.20845803100000002,0.125821256,0.030597852000000002,0.032220223,-3.5499999999999996e-05,1.0,8180390,1,0,0,0,0
8214856,0.027005998,0.023331924,-0.000258873,0.15,0.0,900.0,900.0,900.0,900.0,900.0,900.0,-0.518654115,-0.528787542,13.63128825,13.62948434,13.89591776,14.02597676,14.30015788,168.8223978,168.8223978,12.404513900000001,-0.000940328,-0.004673750999999999,-0.00133935,0.035398111,-0.008606952,-0.090557742,2.0,-1.0,0.0,11,0,0,1,0,0.0,0,0,0,0,0,0.00057705,0.0,-0.308634388,-0.118035294,-0.48794329799999997,,16.17398255,3.75e-06,7.69e-06,0.0,6.38e-06,-0.10012131199999999,0.123256393,-9.992403118,22000482.22,966.163917,12.404602,-0.006166016,-0.0039723779999999995,-0.002668733,-0.074684453,0.133683263,-9.901457762,0.003381605,-0.006245669000000001,-0.000409604,22000482.22,0.542926461,0.530926495,0.400599252,1.893367807,13.25439515,25.78759692,-0.250664021,5.341475668,0.10999999,-52.63107096,399.60349610000003,12.404602,96616.44662,1.147963162,-0.369539675,-0.20756917,0.042029947000000005,-0.002419144,0.002580526,0.000135439,0.0,0.0,1.6242758999999998,0.68794835,0.0,0.0,0.7257596,1.0,398714138.0,327364372.0,400130.3047,0.0,0.00130226,0.0,-0.017395479,4.854134384,0,0,0.270254051,756000,39.871413700000005,32.7364371,0.006389448000000001,0.009658756,-0.11881411199999999,0.020712833,0.034439335,-0.121237644,-0.004592575,0.060211213,-0.167034254,0.128233981,0.030616626,0.0319888,-3.5499999999999996e-05,1.0,8214856,1,0,0,0,0
8257322,0.02346053,0.023362712,-0.000316866,0.100430086,0.0,900.0,900.0,900.0,900.0,900.0,900.0,-1.557873012,-1.58831702,14.40252353,14.40062467,14.68213191,14.75971685,15.04824124,177.7161586,177.7161586,12.40450926,-0.000948136,-0.004709212,-0.0013115339999999998,0.035322297,-0.008561737,-0.091296456,2.0,-1.0,0.0,11,0,0,1,0,0.0,0,0,0,0,0,0.0004966,0.0,-0.572645408,-0.41272439899999996,-0.588074797,,18.86058123,3.88e-06,8.76e-06,0.0,1.25e-05,-0.07288209,0.142676023,-10.005178599999999,53509769.32,966.1609337000001,12.404602,0.002960194,-0.007088214,-0.000210377,-0.12679897199999998,0.126064141,-9.946504649,0.0024069129999999997,-0.002104547,-0.0013398610000000001,53509769.32,0.6183844279999999,0.606384474,0.40059906,2.016971065,13.25443242,25.69074508,-0.24872624100000001,4.957280051000001,0.10999999,-54.30038764,399.50431539999994,12.404602,96617.62800000001,1.1479772940000001,0.176469298,-0.287170175,0.193534901,0.004023107,0.002618891,0.00172168,0.0,0.0,1.6242758999999998,0.68794835,0.0,0.0,0.7257596,1.0,398714138.0,327364372.0,400129.7417,0.0,0.005055011,0.0,-0.009889978,5.3141584989999995,0,0,0.231846369,756000,39.871413700000005,32.7364371,0.0070270309999999996,0.010771891,-0.12289877099999999,0.022314015,0.03647739,-0.12680534,0.029774062999999996,0.073812186,-0.125610478,0.130646706,0.030462057999999997,0.031610836,-3.5499999999999996e-05,1.0,8257322,1,0,0,0,0
8295788,0.022314557000000002,0.022395538,-0.000716744,1.0,0.0,1499.0,1500.0,2000.0,1487.4748949999998,1511.5251050000002,1511.0,0.777527579,0.792717917,15.173758800000002,15.17176499,15.46834606,15.49345694,15.79632461,186.60991940000002,186.60991940000002,12.40450462,-0.000955945,-0.004744674,-0.001283718,0.035246482999999995,-0.008516520999999999,-0.09203517,2.0,-1.0,0.0,11,0,0,1,0,0.0,0,0,0,0,0,0.00041615,0.0,-0.836656428,-0.707413504,-0.688206297,,21.5471799,3.71e-06,9.6e-06,0.0,2.7399999999999995e-05,1.6012507440000001,0.158883091,-9.996775186,82382296.0,966.1587345,12.404602,0.001068776,-0.003689274,-0.002960762,-0.080805954,0.15606445300000002,-9.963547191,0.001297278,0.0015110020000000002,-0.0021420560000000003,82382296.0,0.693842395,0.681842453,0.400598868,2.140574324,13.25446969,25.59389323,-0.24678846,4.573084433,0.10999999,-55.96970432,399.6439188,12.404602,96615.96671000001,1.14795752,0.235926528,0.414819117,-0.229341711,0.006164365,0.009685829,0.003921645,0.0,0.0,1.6242758999999998,0.68794835,0.0,0.0,0.7257596,1.0,398714138.0,327364372.0,400129.1788,0.0,0.008807762,0.0,-0.0023844770000000003,5.774182614,0,0,0.193438688,756000,39.871413700000005,32.7364371,0.007603746999999999,0.011795766000000001,-0.126875118,0.023579607000000002,0.038606111,-0.130927225,0.044818537,0.057044286,-0.108363719,0.132163308,0.030488354,0.031167627000000003,-3.5499999999999996e-05,1.0,8295788,1,0,0,0,0
8338254,0.023856235,0.022699498999999998,-0.0010116510000000001,1.0,0.0,1501.0,1500.0,2000.0,1488.0,1511.0,1511.0,-0.7995616190000001,-0.815186625,15.94499407,15.94290532,16.25456021,16.22719703,16.54440797,195.5036802,195.5036802,12.40449999,-0.000963753,-0.004780135,-0.001255902,0.035170669,-0.008471305,-0.092773884,2.0,-1.0,0.0,11,0,0,1,0,0.0,0,0,0,0,0,0.0003357,0.0,-1.1006674490000001,-1.002102609,-0.788337796,,24.23377857,3.81e-06,6.3e-06,0.0,5.24e-05,21.30886862,0.139912601,-9.756462909,82382296.0,966.1651219,12.404602,0.002174088,-0.003425695,0.001461726,33.9194823,0.17414328399999998,-9.510388595,-0.0012899889999999998,-0.000628482,-0.0015419770000000001,82382296.0,0.785129566,0.773129618,0.40059882,2.265057674,13.25451572,25.46424296,-0.24419453600000002,4.260208953,0.10999999,-57.4886286,399.543244,12.404602,96617.14481,1.147971496,0.39193585200000003,0.454506181,-0.133660698,0.001088605,0.004421746,0.003553111,0.0,0.0,1.6242758999999998,0.68794835,0.0,0.0,0.7257596,1.0,398714137.9,327364373.9,400128.7439,0.45321064200000005,0.007439488,0.454490898,0.002560512,5.3638590530000005,0,0,0.155031006,756000,39.871413700000005,32.7364371,0.008150283000000001,0.012775383999999999,-0.130797763,0.024678806,0.040779786,-0.13433225199999999,0.050282744000000004,0.025218969,-0.103104349,0.13323559599999998,0.030450289,0.031118958999999998,-3.5499999999999996e-05,1.0,8338254,1,0,0,0,0
8372720,0.025957799,0.022225553,0.002988836,1.0,0.0,1500.0,1500.0,2000.0,1487.0,1512.0,1511.0,2.886984574,2.94339021,16.71622934,16.71404565,17.04077436,16.96093712,17.29249134,204.3974409,204.3974409,12.40449535,-0.0009715619999999999,-0.004815596,-0.0012280869999999999,0.035094856,-0.00842609,-0.09351259699999999,2.0,-1.0,0.0,11,0,0,1,0,0.0,0,0,0,0,0,0.00025525,0.0,-1.364678469,-1.296791714,-0.888469295,,26.92037725,3.73e-06,8.24e-06,0.0,6.659999999999999e-05,41.0164865,0.12094211099999999,-9.516150632,82382296.0,966.1715092000001,12.404602,-0.004144661,-0.0013956029999999998,-0.000766115,52.6162988,0.187315733,-9.309188366,-0.003877256,-0.002767965,-0.000941898,82382296.0,0.881685665,0.869685705,0.40059882,2.389833973,13.25456466,25.32367537,-0.241382207,3.971073178,0.10999999,-58.95749308,399.5410904,12.404602,96617.15663,1.14797173,-0.46545844200000003,0.08656501300000001,-0.10078698800000001,-0.002606128,0.00702532,0.001927175,0.0,0.0,1.6242758999999998,0.68794835,0.0,0.0,0.7257596,1.0,398714137.7,327364376.7,400128.3687,1.1174474890000001,0.0036867370000000003,1.120604121,0.006313263,4.548279855,0,0,0.116623325,756000,39.871413700000005,32.7364371,0.008714344,0.013784648,-0.134681141,0.025707855,0.042785553,-0.13787808599999998,0.053094735,-0.00020815900000000002,-0.096796147,0.134516205,0.030494641,0.030683256000000003,-3.5499999999999996e-05,1.0,8372720,1,0,0,0,0
8411186,0.02408227,0.022192378999999998,0.003589658,1.0,0.0,1501.0,1500.0,2000.0,1487.0,1512.0,1511.0,4.631296527,4.72177802,17.48746461,17.48518598,17.82698852,17.69467721,18.0405747,213.2912017,213.2912017,12.40449071,-0.00097937,-0.004851057,-0.0012002710000000002,0.035019042,-0.008380874,-0.09425131099999999,2.0,-1.0,0.0,11,0,0,1,0,0.0,0,0,0,0,0,0.00017480000000000002,0.0,-1.62868949,-1.591480819,-0.988600795,,29.60697592,3.41e-06,7.24e-06,0.0,8.859999999999999e-05,49.4694857,0.12250078800000001,-9.407122622000001,82382296.0,966.1743617000001,12.404602,-0.002104796,-0.0008560039999999999,-0.001358731,47.262316399999996,0.164079106,-9.408197655,-0.005000474,-0.004724140999999999,-0.001549744,82382296.0,0.978241763,0.966241792,0.40059882,2.514610272,13.254613599999999,25.18310777,-0.23856987899999998,3.681937403,0.10999999,-60.42635757,399.67868660000005,12.404602,96615.54915,1.147952555,0.14625032400000001,0.341247288,-0.546031324,-0.001537386,0.005149227,0.001018245,0.0,0.0,1.6242758999999998,0.68794835,0.0,0.0,0.7257596,1.0,398714137.5,327364379.5,400127.9934,1.781684337,-6.6e-05,1.786717343,0.010066013,3.732700658,0,0,0.078215643,756000,39.871413700000005,32.7364371,0.009398756,0.014997525,-0.138294846,0.026255109,0.043638126,-0.142390979,0.037691296,0.018307478999999998,-0.083284565,0.137227561,0.030799881,0.030267897000000002,-3.5499999999999996e-05,1.0,8411186,1,0,0,0,0
8449652,0.02162421,0.021917445,0.0046395659999999995,1.0,0.0,1501.374875,1500.0,2000.0,1488.374875,1510.625125,1510.0,6.090794012000001,6.209818796,18.25869988,18.25632631,18.61320267,18.4284173,18.78865806,222.1849625,222.1849625,12.40448608,-0.000987178,-0.004886518,-0.001172455,0.034943228,-0.008335659,-0.094990025,2.0,-1.0,0.0,11,0,0,1,0,0.0,0,0,0,0,0,9.429999999999999e-05,0.0,-1.89270051,-1.886169924,-1.0887322940000002,,32.29357459,3.66e-06,7.56e-06,0.0,0.000111582,45.18732552,0.147289235,-9.446649273,82382296.0,966.1732142999999,12.404602,-0.000347175,0.0038833540000000003,-0.00177283,43.32210101,0.16833027,-9.455997422000001,-0.004467049,-0.006472896,-0.003524418,82382296.0,1.074797862,1.0627978790000001,0.40059882,2.63938657,13.25466254,25.04254018,-0.23575755,3.392801628,0.10999999,-61.89522205,399.6196211,12.404602,96616.28828,1.1479613290000001,0.621777131,-0.482136492,-0.164585981,0.004578481,0.012667102,-0.001330037,0.0,0.0,1.6242758999999998,0.68794835,0.0,0.0,0.7257596,1.0,398714137.3,327364382.4,400127.6181,2.445921184,-0.003818764,2.452830566,0.013818763999999999,2.91712146,0,0,0.039807962,756000,39.871413700000005,32.7364371,0.010083168,0.016210401,-0.14190855,0.026802364,0.044490697999999995,-0.14690387300000002,0.022287857999999997,0.036823117,-0.069772982,0.139938916,0.030946694,0.029732959,-3.5499999999999996e-05,1.0,8449652,1,0,0,0,0
8484237,0.025232097000000002,0.021222005,0.002718634,1.0,0.0,1501.0,1500.0,2000.0,1487.0,1512.0,1510.0,7.673508247000001,7.823436271,19.02993515,19.02746663,19.39941682,19.16215739,19.53674143,231.07872319999998,231.07872319999998,12.40448144,-0.000994987,-0.004921979,-0.001144639,0.034867414,-0.008290443,-0.09572873900000001,2.0,-1.0,0.0,11,0,0,1,0,0.0,0,0,0,0,0,1.39e-05,0.0,-2.156711531,-2.180859028,-1.188863793,,34.98017327,3.22e-06,6.81e-06,0.0,0.000120554,40.90516534,0.17207768199999998,-9.486175924,82382296.0,966.1720667999999,12.404602,-0.0020098670000000003,0.0019702020000000003,-0.000644457,39.10114033,0.139386386,-9.443744843,-0.003933623,-0.008221651,-0.005499092,82382296.0,1.17135396,1.159353967,0.40059882,2.7641628689999997,13.25471149,24.90197259,-0.232945221,3.1036658530000003,0.10999999,-63.36408653,399.5650602,12.404602,96616.90592,1.147968694,-0.324413819,0.39617893200000004,0.292973869,-0.000480935,0.006463715,0.0029033109999999996,0.0,0.0,1.6242758999999998,0.68794835,0.0,0.0,0.7257596,1.0,398714137.1,327364385.2,400127.2428,3.1101580319999997,-0.0075715140000000005,3.118943789,0.017571514,2.1015422619999997,0,0,0.00140028,756000,39.871413700000005,32.7364371,0.010680175,0.017262965,-0.144862711,0.027728539,0.045830014,-0.150156171,0.020569506,0.053751417999999995,-0.095882759,0.142970389,0.031322033,0.02897323,-3.5499999999999996e-05,1.0,8484237,1,0,0,0,0
8522585,0.024662286000000002,0.021994198,0.002171214,1.0,0.0,1501.0,1500.0,2000.0,1488.0,1511.0,1510.0,9.258373741,9.439236346,19.37626311,19.37329087,19.75201939,19.48929117,19.87028822,236.46116260000002,236.46116260000002,12.40432806,-0.000926399,-0.00498269,-0.000972833,0.034789987,-0.008033141,-0.095961804,2.0,-1.0,0.0,11,0,0,1,0,0.0,0,0,0,0,0,0.0,-0.009355351,-2.197202261,-2.230435404,-1.5703560540000001,264.2312139,37.03910111,3.44e-06,6.4e-06,0.0,8.13e-05,37.48154092,0.17657346,-9.507596848,82382296.0,966.1670297000001,12.404602,0.00126101,-0.001772145,-0.003370962,35.284099100000006,0.25469695,-9.5619183,-0.0018988310000000001,-0.007826349,-0.002038545,82382296.0,1.28539134,1.27339134,0.40059882,2.895398461,13.25477131,24.75364318,-0.22997743699999998,2.83885954,0.10999999,-64.79750615,399.58984510000005,12.404602,96616.60003,1.1479650559999999,-0.048617682999999995,-0.17853593399999998,0.196254895,0.001565929,0.003342866,0.000633923,0.0,-0.010997821999999999,1.6242758999999998,0.687658445,0.003975219,-0.003768115,0.725453762,1.0,398714137.1,327364400.1,400127.3973,4.08758345,-0.009337868000000001,4.096259252,0.018675735,1.5735438240000001,0,0,0.0,756000,39.871413700000005,32.7364371,0.011215346999999999,0.018202114,-0.147350268,0.028922787000000002,0.047513684,-0.15251664199999998,0.028532877,0.069556732,-0.15002327099999999,0.14622833400000002,0.031584592,0.028257527999999997,-3.5499999999999996e-05,1.0,8522585,1,0,0,0,0
8557051,0.023370117000000003,0.021101664,0.003070281,1.0,0.0,1501.0,1500.0,2000.0,1487.0,1512.0,1510.0,10.44388869,10.64792751,19.53122059,19.52756053,19.90933126,19.63329692,20.01713534,240.2621671,240.2621671,12.40410769,-0.000841854,-0.005048674,-0.000770953,0.034712224,-0.007731541999999999,-0.09608925900000001,2.0,-1.0,0.0,11,0,0,1,0,0.0,0,0,0,0,0,0.0,-0.020664668,-2.191008375,-2.228817348,-2.0106135380000003,264.76113480000004,38.96693315,2.35e-06,5.22e-06,0.0,-7.140000000000001e-05,34.20398318,0.17761675300000002,-9.525937361,82382296.0,966.1613308,12.404602,0.000265901,-0.00407081,-2.26e-06,32.04944411,0.16788365100000002,-9.606621994,0.00039139400000000004,-0.007066269,0.0023467220000000003,82382296.0,1.421874345,1.409874345,0.40059882,3.03492766,13.2548451,24.59534774,-0.226810053,2.6052917819999997,0.10999999,-66.18541527,399.51843310000004,12.404602,96617.40868,1.147974731,0.083604046,-0.080189386,0.111105718,-0.000310983,0.006457168,-0.000429629,0.0,-0.29848648,1.6242758999999998,0.680297305,0.10791247400000001,-0.102290356,0.7176880459999999,1.0,398714137.3,327364437.3,400128.5231,5.639345615,-0.007461491999999999,5.644268854,0.014922985,1.57292158,0,0,0.0,756000,39.871413700000005,32.7364371,0.011757567,0.019153873000000002,-0.149801908,0.030103806,0.049256044000000006,-0.15480828300000002,0.036048678,0.086145129,-0.200732772,0.149437287,0.030584146,-0.586486454,-3.5499999999999996e-05,1.0,8557051,1,0,0,0,0
8591517,0.022434766000000002,0.020186075,0.002729686,1.0,0.0,1500.2748550000001,1500.0,2000.0,1489.0,1510.0,1509.0,11.64635312,11.87386676,19.68617808,19.6818302,20.06664312,19.77730267,20.16398246,244.06317169999997,244.06317169999997,12.40388733,-0.00075731,-0.005114658,-0.000569074,0.034634461,-0.007429944,-0.09621671400000001,2.0,-1.0,0.0,11,0,0,1,0,0.0,0,0,0,0,0,0.0,-0.031973984,-2.184814488,-2.227199293,-2.4508710209999998,265.2910556,40.8947652,1.03e-06,-0.000239275,0.0,-0.00034289199999999997,31.16029911,0.13105667099999999,-9.555850477,82382296.0,966.1574802000001,12.404602,0.000570926,-0.005690809000000001,0.010255078,29.69854959,-0.013465956999999999,-9.589410928,0.002072293,-0.006109806,0.013666573999999999,82382296.0,1.55835735,1.54635735,0.40059882,3.174456858,13.25491889,24.4370523,-0.22364266800000002,2.371724024,0.10999999,-67.57332439,399.5940316,12.404602,96616.54432,1.1479643999999998,-0.022263737000000002,-0.039515848,0.420753585,0.003908851,0.006904826,0.011658858999999999,0.0,-0.27767886399999997,1.6242758999999998,0.68132617,0.100440313,-0.09520748300000001,0.718773522,1.0,398714137.4,327364474.4,400129.6489,7.19110778,-0.005585117,7.192278456,0.011170234,1.5722993369999998,0,0,0.0,756000,39.871413700000005,32.7364371,0.012452096000000001,0.020378143,-0.151477427,0.030998948999999998,0.052266652000000004,-0.15561257,0.033892837,0.119655325,-0.177300868,0.151587589,0.026386454,-0.542173083,-3.5499999999999996e-05,1.0,8591517,1,0,0,0,0
8625983,0.020200664,0.01930019,0.001340939,1.0,0.0,1498.24985,1500.0,2000.0,1489.0,1510.0,1509.0,12.93963944,13.19232532,19.84113556,19.83609986,20.22395499,19.92130841,20.31082958,247.8641762,247.8641762,12.40366696,-0.000672765,-0.005180642,-0.000367194,0.034556697000000004,-0.007128345,-0.09634416900000001,2.0,-1.0,0.0,11,0,0,1,0,0.0,0,0,0,0,0,0.0,-0.043283300999999996,-2.178620601,-2.225581238,-2.891128505,265.82097650000003,42.82259724,-2.9299999999999997e-05,-0.001353214,0.0,-0.000702053,28.85696025,-0.06619557599999999,-9.622397563,82382296.0,966.1594805999999,12.404602,0.00078944,-0.004765015,0.026398575,27.927806800000003,-0.08975076800000001,-9.612204747,0.00182432,-0.00453168,0.04693839599999999,82382296.0,1.694840355,1.682840355,0.40059882,3.3139860569999997,13.25499267,24.27875686,-0.220475284,2.1381562659999997,0.10999999,-68.96123349999999,399.5496869,12.404602,96617.07856000001,1.147970753,-0.24991471699999998,0.049313039,0.505342751,0.00216134,0.003735873,0.03303661,0.0,-0.258753128,1.6242758999999998,0.68219712,0.093634324,-0.088756085,0.719692308,1.0,398714137.6,327364511.6,400130.7748,8.742869945,-0.003708742,8.740288057999999,0.007417483000000001,1.5716770930000001,0,0,0.0,756000,39.871413700000005,32.7364371,0.013146625,0.021602412999999997,-0.15315294599999998,0.031894092,0.055277260999999994,-0.156416856,0.031736995,0.153165521,-0.153868963,0.153737892,0.01619568,-0.498195105,-3.5499999999999996e-05,1.0,8625983,1,0,0,0,0
8664449,0.022640239,0.01912353,-0.003997235,1.0,0.0,1494.224845,1500.0,2000.0,1491.10062,1507.89938,1506.6745349999999,13.75064395,14.01930025,19.99609305,19.99036952,20.38126686,20.06531416,20.4576767,251.66518080000003,251.66518080000003,12.40344659,-0.000588221,-0.005246626,-0.000165314,0.034478933999999996,-0.006826746,-0.096471624,2.0,-1.0,0.0,11,0,0,1,0,0.0,0,0,0,0,0,0.0,-0.054592617999999996,-2.172426715,-2.223963182,-3.331385988,266.3508974,44.75042928,-0.000124173,-0.002139432,0.0,-0.0011604389999999999,26.553621399999997,-0.263447823,-9.688944648,82382296.0,966.1614809,12.404602,-0.004233222,-0.000351581,0.07510994900000001,25.89423514,-0.334763989,-9.67285231,0.001576347,-0.002953554,0.080210218,82382296.0,1.831323361,1.819323361,0.40059882,3.453515255,13.25506646,24.12046143,-0.217307899,1.904588508,0.10999999,-70.34914262,399.6130414,12.404602,96616.31623,1.1479616320000001,0.046740393,0.328175024,1.5398470180000001,0.0032910929999999997,0.004251525,0.103795951,0.0,-0.241300486,1.6242758999999998,0.6829450709999999,0.087350501,-0.082799636,0.720481347,1.0,398714137.8,327364548.7,400131.9006,10.29463211,-0.001832366,10.28829766,0.003664733,1.571054849,0,0,0.0,756000,39.871413700000005,32.7364371,0.013776653,0.022781997999999998,-0.154957058,0.032863262000000004,0.058082819,-0.157989351,0.035650148,0.166659295,-0.145597537,0.155446986,0.005237225,-0.445191386,-3.5499999999999996e-05,1.0,8664449,1,0,0,0,0
8702915,0.013644708,0.01351556,-0.012956408999999999,1.0,0.0,1490.0,1500.0,2000.0,1493.80016,1505.19984,1506.0,14.65970254,14.94615315,20.15105054,20.14463918,20.53857872,20.20931991,20.60452382,255.4661853,255.4661853,12.40322622,-0.000503676,-0.00531261,3.66e-05,0.034401171,-0.006525146999999999,-0.096599079,2.0,-1.0,0.0,11,0,0,1,0,0.0,0,0,0,0,0,0.0,-0.065901935,-2.166232828,-2.222345127,-3.771643472,266.88081830000004,46.67826132,-0.000277601,-0.00275415,0.0,-0.0016794310000000001,24.54956509,-0.276066396,-9.989104818,82382296.0,966.1660125,12.404602,0.013398074,-0.007159734,0.13393233,23.71795667,-0.067038867,-9.862624242999999,0.033235517,-0.019768542,0.113393526,82382296.0,1.9689478619999998,1.956947864,0.400598726,3.590047466,13.25514464,23.96735043,-0.214244116,1.6819367859999999,0.10999999,-71.69221729,399.6718232,12.404602,96615.66962,1.1479540000000001,0.854201621,0.178083523,0.922054534,0.032596404,0.0039804309999999996,0.132641179,0.0,-0.224979402,1.6242758999999998,0.6836002720000001,0.08146841,-0.07722399099999999,0.72117258,1.0,398714138.0,327364586.5,400132.9428,11.83217944,8.8e-05,11.82222444,-0.000132026,1.5704425919999998,0,0,0.0,756000,39.871413700000005,32.7364371,0.0143429,0.023917393999999998,-0.156888334,0.033905635,0.060685607,-0.160321511,0.045564794000000006,0.160359276,-0.152317968,0.156719779,-0.007085498000000001,-0.41644138700000005,-3.5499999999999996e-05,1.0,8702915,1,0,0,0,0
8741381,0.008083291999999999,-0.28381391899999997,-0.021072074,1.0,0.0,1487.174835,1500.0,2000.0,1500.6503300000002,1498.3496699999998,1363.776155,15.53221474,15.83580076,20.30600802,20.29890884,20.69589059,20.35332566,20.75137094,259.2671898,259.2671898,12.40300585,-0.00041913199999999996,-0.005378594,0.000238445,0.034323407,-0.006223549,-0.096726534,2.0,-1.0,0.0,11,0,0,1,0,0.0,0,0,0,0,0,0.0,-0.077211251,-2.160038942,-2.2207270709999998,-4.211900955,267.4107392,48.60609336,-0.000461934,-0.0032773240000000003,0.0,-0.002197251,22.72467794,-0.178151767,-10.42912031,82382296.0,966.1720595,12.404602,0.049311747999999996,-0.010100713,0.138817095,22.49948378,-0.057723395999999996,-10.45701727,0.083996288,-0.047594792999999996,0.146523842,82382296.0,2.114533814,2.102533835,0.400597975,3.705676959,13.25525344,23.85039876,-0.21190290399999998,1.5354197840000001,0.10999999,-72.72259064,399.6324704,12.404602,96616.09513,1.1479590640000001,2.602550508,-1.7080494019999999,1.9075459959999999,0.130419689,-0.064512815,0.17539895,0.0,-0.209788815,1.6242758999999998,0.684165347,0.07598839999999998,-0.072029487,0.7217686959999999,1.0,398714138.0,327364650.9,400130.5035,12.77787277,0.003840768,12.76979396,-0.005761151999999999,1.570246117,0,0,0.0,756000,39.871413700000005,32.7364371,0.014909146000000002,0.02505279,-0.15881961,0.034948009,0.063288395,-0.162653671,0.055479439000000005,0.154059257,-0.159038399,0.157992572,-0.023668729,-0.371250012,-3.5499999999999996e-05,1.0,8741381,1,0,0,0,0
8775847,-0.010563591,-0.268553259,-0.027952085,1.0,0.0,1483.0,1500.0,2000.0,1509.0,1490.0,1392.0,16.47623479,16.79810864,20.46096551,20.45317851,20.85320246,20.497331399999997,20.89821806,263.06819440000004,263.06819440000004,12.40278549,-0.00033458699999999996,-0.005444578,0.000440325,0.034245644,-0.00592195,-0.096853989,2.0,-1.0,0.0,11,0,0,1,0,0.0,0,0,0,0,0,0.0,-0.08852056800000001,-2.153845055,-2.219109016,-4.652158439,267.9406601,50.533925399999994,-0.000658123,-0.003752035,0.0,-0.0026603309999999997,20.89813694,-0.081258596,-10.86059044,82036221.19,966.1780249,12.40460174,0.139616884,-0.083354228,0.178570328,20.75368525,-0.17634530699999998,-10.78463699,0.134820521,-0.075401832,0.17913416899999998,82036221.19,2.260119766,2.248119806,0.400597224,3.821306452,13.25536225,23.73344709,-0.20956169300000002,1.388902783,0.10999999,-73.75296399,399.48917,12.40459457,96617.79386,1.147979251,2.2489192069999997,-2.269261212,1.157950836,0.216727948,-0.12271763,0.191876005,0.0,-0.19535560899999999,1.6242758999999998,0.684668093,0.070777832,-0.067090383,0.722299092,1.0,398714138.0,327364715.2,400128.0642,13.72356609,0.007593519,13.71736347,-0.011390278,1.570049641,0,0,0.0,756000,39.871413700000005,32.7364371,0.015558017,0.02650265,-0.16139767,0.035114344,0.06582814599999999,-0.165631116,0.046391515999999994,0.142224672,-0.130204698,0.156804743,-0.039091664,-0.34181347700000003,-3.5499999999999996e-05,1.0,8775847,1,0,0,0,0
8810313,-0.024310702000000003,-0.207240366,-0.034125826,1.0,0.0,1480.124825,1500.0,2000.0,1519.875175,1479.124825,1404.0,17.14640896,17.48130673,20.61592299,20.60744817,21.01051432,20.64133715,21.04506518,266.8691989,266.8691989,12.40256512,-0.000250043,-0.0055105630000000004,0.0006422040000000001,0.034167881000000004,-0.005620351,-0.096981444,2.0,-1.0,0.0,11,0,0,1,0,0.0,0,0,0,0,0,0.0,-0.099829885,-2.1476511680000003,-2.2174909609999998,-5.092415922,268.4705809,52.46175744,-0.0008693230000000001,-0.004259649,0.0,-0.00302987,18.92267147,-0.07634528,-10.5225711,50526934.09,966.176648,12.40457841,0.234888688,-0.134278746,0.189551439,18.37992937,-0.14545566,-10.33393208,0.191359367,-0.101478996,0.164920666,50526934.09,2.405705718,2.393705776,0.40059647299999995,3.9369359439999996,13.25547105,23.61649541,-0.207220481,1.2423857809999999,0.10999999,-74.78333734,399.67916119999995,12.404572,96615.57113,1.14795283,1.667371776,-0.530629063,-0.793904211,0.269033184,-0.129686604,0.158496171,0.0,-0.181653738,1.6242758999999998,0.685111622,0.065827779,-0.062398222,0.722767018,1.0,398714138.0,327364779.6,400125.6249,14.66925942,0.011346268999999999,14.66493299,-0.017019404,1.569853166,0,0,0.0,756000,39.871413700000005,32.7364371,0.01621021,0.027965148999999998,-0.16400172300000002,0.035245471,0.068365363,-0.16863449600000002,0.036539872,0.130167651,-0.099942062,0.155518021,-0.055888854,-0.31937856800000003,-3.5499999999999996e-05,1.0,8810313,1,0,0,0,0
8848779,-0.041518254,-0.18965804,-0.03868681,1.0,0.0,1479.90018,1500.0,2000.0,1524.90018,1474.09982,1410.0,17.8640719,18.21319832,20.77088048,20.76171783,21.16782619,20.785342899999996,21.191912300000002,270.6702035,270.6702035,12.40234475,-0.00016549799999999998,-0.005576546999999999,0.0008440839999999999,0.034090117,-0.005318753000000001,-0.097108899,2.0,-1.0,0.0,11,0,0,1,0,0.0,0,0,0,0,0,0.0,-0.11113920099999999,-2.1414572819999997,-2.215872905,-5.532673406000001,269.0005018,54.38958948,-0.001083865,-0.0047747829999999995,0.0,-0.00325396,16.947206,-0.071431964,-10.18455176,19017646.99,966.1752710000001,12.40455508,0.270539824,-0.14102009599999998,0.162665323,16.61025334,-0.222892592,-10.08502983,0.247898213,-0.127556159,0.150707162,19017646.99,2.5512916690000003,2.539291747,0.40059572200000004,4.052565437,13.25557985,23.49954374,-0.20487927,1.0958687790000001,0.10999999,-75.8137107,399.5884876,12.4045584,96616.61145,1.147965165,0.491151857,0.415436297,-0.964300809,0.296862965,-0.097893433,0.095110187,0.0,-0.16853367800000002,1.6242758999999998,0.6855059720000001,0.06108500099999999,-0.05790254,0.723182992,1.0,398714138.0,327364843.9,400123.1856,15.61495275,0.01509902,15.6125025,-0.02264853,1.569656691,0,0,0.0,756000,39.871413700000005,32.7364371,0.016812968,0.029449901,-0.166370271,0.035571053,0.071442172,-0.170717075,0.026056687000000002,0.13216143800000002,-0.10192346599999999,0.15504442300000001,-0.07383619999999999,-0.291144856,-3.5499999999999996e-05,1.0,8848779,1,0,0,0,0
8883245,-0.051708986,-0.17099001600000002,-0.040039966,1.0,0.0,1480.925185,1500.0,2000.0,1524.925185,1474.074815,1428.0,18.36861771,18.72742106,20.92583796,20.91598749,21.32513806,20.92934864,21.33875942,274.471208,274.471208,12.40212438,-8.1e-05,-0.005642531,0.001045964,0.034012354,-0.005017154,-0.097236354,2.0,-1.0,0.0,11,0,0,1,0,0.0,0,0,0,0,0,0.0,-0.122448518,-2.135263395,-2.21425485,-5.972930889,269.5304227,56.31742152,-0.0013027639999999999,-0.005277668,0.0,-0.003306227,15.16541885,-0.12076057,-9.958240457,12491664.93,966.170158,12.40453175,0.294605794,-0.122125895,0.109401552,15.02292632,-0.236615286,-9.765345892000001,0.28434235399999996,-0.124235074,0.11172634599999999,12491664.93,2.696877621,2.684877718,0.40059497,4.16819493,13.25568865,23.38259206,-0.202538059,0.9493517779999999,0.10999999,-76.84408405,399.6020008,12.40453996,96616.46726,1.147963469,0.202999287,1.961181192,-1.367054135,0.306164787,-0.036753132,0.02196846,0.0,-0.155883771,1.6242758999999998,0.68585965,0.056509804000000004,-0.053565707000000004,0.723556115,1.0,398714138.0,327364908.3,400120.7463,16.56064607,0.01885177,16.56007201,-0.028277656,1.569460216,0,0,0.0,756000,39.871413700000005,32.7364371,0.017347438,0.030965392999999997,-0.168413499,0.036165248,0.07526435,-0.1715277,0.014701116,0.15356439300000002,-0.148445366,0.155694041,-0.090568185,-0.264138049,-3.5499999999999996e-05,1.0,8883245,1,0,0,0,0
8923423,-0.050930788,-0.143955677,-0.037617819,1.0,0.0,1483.0,1500.0,2000.0,1528.0,1471.0,1434.0,18.95885587,19.32928616,21.08079545,21.07025715,21.48244992,21.07335439,21.48560654,278.2722126,278.2722126,12.40190401,3.59e-06,-0.005708515,0.001247843,0.033934591,-0.004715555,-0.09736380900000001,2.0,-1.0,0.0,11,0,0,1,0,0.0,0,0,0,0,0,0.0,-0.133757835,-2.1290695090000002,-2.2126367940000002,-6.413188373,270.0603436,58.24525357,-0.001531861,-0.005761158000000001,0.0,-0.003189597,13.6784929,-0.25266856600000004,-9.901996524,44000952.03,966.1593568,12.40450842,0.30546468600000004,-0.06418354,0.044372080999999994,13.41114687,-0.268720565,-9.724512892,0.290193767,-0.076157288,0.035039095,44000952.03,2.860005227,2.848005296,0.40059605299999995,4.286352565,13.25577618,23.29476365,-0.20077973899999998,0.836547833,0.10999999,-77.75597039,399.6508916,12.404510499999999,96615.88622,1.147956555,0.525531749,1.512871962,-1.9824388780000002,0.30612518899999996,0.0039712029999999995,-0.058849579000000006,0.0,-0.143708263,1.6242758999999998,0.68617199,0.05210387599999999,-0.04938932099999999,0.72388559,1.0,398714138.0,327364987.3,400122.2138,17.26802561,0.010884177,17.26932787,-0.03,1.5699228530000002,0,0,0.0,756000,39.871413700000005,32.7364371,0.017881908000000002,0.032480885,-0.170456728,0.036759442,0.079086527,-0.172338325,0.0033455459999999996,0.174967348,-0.194967265,0.156343658,-0.10421257,-0.251500068,-3.5499999999999996e-05,1.0,8923423,1,0,0,0,0
8964178,-0.057803519000000005,-0.131527551,-0.032142484,1.0,0.0,1488.975195,1500.0,2000.0,1527.975195,1471.024805,1442.925585,19.33018971,19.70798172,21.23575293,21.22452682,21.63976179,21.21736014,21.63245366,282.0732171,282.0732171,12.40168365,8.809999999999999e-05,-0.005774499000000001,0.001449723,0.033856827,-0.0044139570000000005,-0.09749126300000001,2.0,-1.0,0.0,11,0,0,1,0,0.0,0,0,0,0,0,0.0,-0.145067151,-2.122875622,-2.211018739,-6.8534458560000004,270.5902645,60.17308561,-0.001759572,-0.006186703000000001,0.0,-0.002927185,12.19156695,-0.384576563,-9.84575259,75510239.14,966.1485557,12.40448509,0.312495812,-0.007140005,-0.037931271,12.22777847,-0.38172111200000003,-9.780129932000001,0.296045179,-0.028079502000000003,-0.041648157000000005,75510239.14,3.0271685589999997,3.015168591,0.40059755700000005,4.405091837,13.25585882,23.21363548,-0.199155523,0.731500095,0.10999999,-78.64059698,399.719169,12.40448,96615.10652999999,1.147947289,-0.025682011,0.45170823600000004,-2.1539577530000003,0.306947375,0.028284858,-0.145015452,0.0,-0.131861186,1.6242758999999998,0.686453069,0.047815061,-0.045323949,0.72418217,1.0,398714138.0,327365072.6,400125.4037,17.87034207,-0.002250449,17.8735207,-0.03,1.570676068,0,0,0.0,756000,39.871413700000005,32.7364371,0.018396309,0.034121427999999995,-0.172631812,0.03653695,0.082050183,-0.173469475,-0.007157214,0.157309132,-0.188983121,0.155743561,-0.118975988,-0.22387291899999998,-3.5499999999999996e-05,1.0,8964178,1,0,0,0,0
9002644,-0.056386373,-0.11570573599999999,-0.022252034,1.0,0.0,1495.0,1500.0,2000.0,1530.0002,1468.9998,1444.0,19.78135661,20.16786011,21.39071042,21.37879648,21.79707365,21.36136589,21.77930078,285.8742216,285.8742216,12.40146328,0.00017268,-0.0058404830000000005,0.001651603,0.033779064,-0.004112358,-0.09761871800000001,2.0,-1.0,0.0,11,0,0,1,0,0.0,0,0,0,0,0,0.0,-0.13994778300000002,-2.115851281,-2.209223309,-7.365858716,271.2462361,61.02634621,-0.001989234,-0.006547143,0.0,-0.002571179,11.24882788,-0.16727404699999998,-9.897008097999999,82382296.0,966.1486223999999,12.40447073,0.313194971,0.020287833,-0.10308683800000001,11.21651836,-0.20435431,-9.821569044,0.300485089,-0.007030127,-0.109395696,82382296.0,3.194331891,3.182331886,0.40059906100000003,4.52383111,13.25594145,23.13250731,-0.197531307,0.626452357,0.10999999,-79.52522357,399.50431539999994,12.40448,96617.60897,1.147976967,0.197348125,0.47760551799999995,-1.513811688,0.313816284,0.038728159,-0.21398581100000003,0.0,-0.12034428300000001,1.6242758999999998,0.686702501,0.043644111,-0.041370300000000006,0.724445296,1.0,398714138.0,327365158.0,400128.5935,18.47265853,-0.015385075,18.47771354,-0.03,1.571429283,0,0,0.0,756000,39.871413700000005,32.7364371,0.018907933999999998,0.035779265,-0.174825133,0.036201502,0.08489509699999999,-0.17464495800000002,-0.017542021,0.134248359,-0.175736858,0.154970615,-0.135269255,-0.19952848399999998,-3.5499999999999996e-05,1.0,9002644,1,0,0,0,0
