timestamp,control[0],control[1],control[2],control[3],control[4],output[2],output[3],output[4],output[5],output[6],output[7],indicated_airspeed_m_s,true_airspeed_m_s,indicated_airspeed_m_s.1,equivalent_airspeed_m_s,true_airspeed_m_s.1,equivalent_ground_minus_wind_m_s,true_ground_minus_wind_m_s,differential_pressure_raw_pa,differential_pressure_filtered_pa,temperature,gyro_bias[0],gyro_bias[1],gyro_bias[2],accel_bias[0],accel_bias[1],accel_bias[2],instance_count,seq_reached,seq_current,seq_total,item_changed_index,item_do_jump_remaining,valid,warning,finished,failure,stay_in_failsafe,flight_termination,item_do_jump_changed,execution_mode,nav_roll,nav_pitch,nav_bearing,target_bearing,xtrack_error,wp_dist,acceptance_radius,rollspeed_integ,pitchspeed_integ,yawspeed_integ,additional_integ1,x,y,z,temperature.1,pressure,temperature.2,gyro_rad[0],gyro_rad[1],gyro_rad[2],accelerometer_m_s2[0],accelerometer_m_s2[1],accelerometer_m_s2[2],device_id,x.1,y.1,z.1,temperature.3,altitude_sp,altitude_filtered,height_rate_setpoint,height_rate,airspeed_sp,airspeed_filtered,airspeed_derivative_sp,airspeed_derivative,throttle_integ,pitch_integ,baro_alt_meter,baro_temp_celcius,baro_pressure_pa,rho,xyz[0],xyz[1],xyz[2],xyz[0].1,xyz[1].1,xyz[2].1,roll_body,pitch_body,yaw_body,q_d[0],q_d[1],q_d[2],q_d[3],thrust_body[0],lat,lon,alt,vel_m_s,vel_n_m_s,vel_e_m_s,vel_d_m_s,cog_rad,ground_contact,maybe_landed,landed,ref_lat,ref_lon,x.2,y.2,z.2,vx,vy,vz,ax,ay,az,yaw,dist_bottom,roll,pitch,yaw.1,thrust_body[0].1,timestamp.1,isTakeoff,isClimbing,isDescending,isCruise,isLand
10000000,0.029313337000000002,0.01986617,-0.003865493,0.15,0.0,900.0,900.0,900.0,900.0,900.0,900.0,1.1041944,1.1257612,0.5436802,0.5436802,0.5542991,0.033263892,0.033913594,0.7467876999999999,0.7467876999999999,12.404602,-0.001002324,-0.005376291,6.47e-05,0.028538529,-0.0016072979999999998,-0.12073175,2.0,-1.0,0.0,11,0,0,1.0,0.0,0.0,0,0,0,0,0,0.0,0.0,-1.5721774,-1.5722118999999999,-0.0018768779999999998,295.74872,31.152319,4.12e-06,6.68e-06,0.0,3.9500000000000005e-05,-0.07765491,0.3673004,-9.93148,-340.26352,966.1777300000001,12.404602,-0.001106507,-0.005416529000000001,0.002892632,-0.09925434,0.2728199,-9.904247,2294028,-0.006660895,-0.0007251,-0.008617217,-340.26352,-0.014588135,-0.026588136000000002,0.40060008,-0.2718205,10.195364,7.021975500000001,0.06346777,17.853576999999998,0.21430978,-20.950579,399.6441,12.404602,96615.945,1.1479572,0.08672951,-0.07725141,0.15486397,-0.0017304520000000002,0.004701139,0.001599361,0.0,0.0,1.6171399,0.69053346,0.0,0.0,0.72330046,1.0,398714137.0,327364372.0,400119.0,0.0,0.01,0.01,-0.01,0.8457865,0,0,1.0,39.8714138,32.7364372,0.00023254,-0.00707025,-0.023196924,0.005882574000000001,0.014544596000000002,-0.029910203,-0.006586415,0.04447028,0.019511206,1.6182383999999999,0.1,0.028565567000000004,0.026812814,-0.0031546559999999996,1.0,10000000,1,0,0,0,0
10044734,0.02771194,0.019339527,-0.0031884929999999997,0.15,0.0,900.0,900.0,900.0,900.0,900.0,900.0,1.4272644019999998,1.4551443069999999,1.3388089859999999,1.3389097490000001,1.365061099,0.8554499809999999,0.8721585999999999,10.38356862,10.38356862,12.40459683,-0.0009405269999999999,-0.005429375,0.000220913,0.028482794,-0.001403086,-0.120754767,2.0,-1.0,0.0,11,0,0,1.0,0.0,0.0,0,0,0,0,0,0.0,-0.012618896000000001,-1.571559248,-1.572090424,-0.038801527999999995,296.4608713,33.55109099,2.94e-06,6.83e-06,0.0,3.32e-05,-0.071743454,0.247514302,-9.928567385,-340.26352,966.1764619999999,12.404602,-0.0008236869999999999,-0.002769764,0.0022145520000000003,-0.066047178,0.2016166,-9.98414142,2294028,-0.004198894,-0.0030190990000000003,-0.010583123,-340.26352,-0.027771378,-0.039771379,0.40060008,-0.279697233,10.83779408,8.431375125,0.048128379000000006,18.36598813,0.192400342,-20.54557117,399.6136981,12.404602,96616.32011,1.147961762,0.102431879,0.275061292,-0.048125548,-0.000772228,0.006256065999999999,0.001792201,0.0,0.0,1.6171399,0.69053346,0.0,0.0,0.72330046,1.0,398714137.2,327364372.0,400119.8322,0.0,0.007919584,0.01,-0.0058391680000000005,0.907041668,0,0,0.957391478,39.8714138,32.7364372,0.000157842,-0.006993789,-0.023356431,0.004705147,0.014304975,-0.030133545,0.008763794,0.018733984,0.0006218619999999999,1.618081361,0.1,0.028841252,0.026358189,-0.0031546559999999996,1.0,10044734,1,0,0,0,0
10084734,0.027719993,0.019949336,-0.0027504879999999997,0.15,0.0,900.0,900.0,900.0,900.0,900.0,900.0,-0.786438979,-0.8018061959999999,2.133937772,2.134139297,2.175823097,1.67763607,1.7104036059999999,20.02034954,20.02034954,12.40459165,-0.00087873,-0.005482459,0.000377126,0.028427057999999998,-0.001198874,-0.12077778300000001,2.0,-1.0,0.0,11,0,0,1.0,0.0,0.0,0,0,0,0,0,0.0,-0.025237792999999998,-1.5709410959999999,-1.571968948,-0.07572617799999999,297.1730225,35.94986298,3.12e-06,4.96e-06,0.0,-3.75e-05,-0.065831998,0.127728203,-9.925654771,-340.26352,966.1751939999999,12.404602,-0.00055436,-0.002361126,-0.005711880999999999,-0.096896822,0.1319441,-9.888274018999999,2294028,-0.001736893,-0.005313099,-0.012549029,-340.26352,-0.040954621000000004,-0.052954623,0.40060008,-0.287573966,11.48022415,9.84077475,0.032788988,18.87839926,0.170490904,-20.14056334,399.52783210000007,12.404602,96617.29963,1.147973319,-0.022189292000000003,0.026076127999999997,0.428772851,0.00217396,0.000641675,0.00011651299999999999,0.0,-0.162031068,1.6171399,0.686242648,0.058368128,-0.05572393,0.718806064,1.0,398714137.4,327364372.0,400120.6643,0.0,0.0058391680000000005,0.01,-0.001678336,0.9682968359999999,0,0,0.914782957,39.8714138,32.7364372,8.31e-05,-0.006917328,-0.023515937999999997,0.00352772,0.014065353000000001,-0.030356886,0.024114003,-0.007002311999999999,-0.018267481999999998,1.6179243230000002,0.1,0.029102779,-0.589097956,-0.0031546559999999996,1.0,10084734,1,0,0,0,0
10131101,0.029747991,0.019695774,-0.002696291,0.15,0.0,900.0,900.0,900.0,900.0,900.0,900.0,0.45692079999999996,0.46584911,2.929066558,2.929368846,2.986585096,2.4998221590000003,2.548648613,29.65713045,29.65713045,12.40458648,-0.000816933,-0.005535543,0.000533339,0.028371322999999997,-0.0009946619999999999,-0.1208008,2.0,-1.0,0.0,11,0,0,1.0,0.0,0.0,0,0,0,0,0,0.0,-0.037856689,-1.5703229440000002,-1.571847472,-0.11265082800000001,297.88517379999996,38.34863497,4.2e-06,-0.000123062,0.0,-0.00023943,-0.06447195,0.128402195,-9.949097476,-340.26352,966.1723605000001,12.404602,-0.004888779,-0.005139508,0.002330838,-0.114974416,0.171458668,-10.00026081,2294028,-1.4000000000000001e-05,-0.00617556,-0.010830302,-340.26352,-0.054137863,-0.06613786599999999,0.40060008,-0.295450699,12.12265423,11.25017437,0.017449597,19.3908104,0.148581467,-19.73555551,399.666775,12.404602,96615.72359,1.147954614,0.025087044,-0.029031415,-0.7429144740000001,-0.001133493,0.005762878000000001,-0.0021383120000000003,0.0,-0.28883645,1.6171399,0.6833415279999999,0.104094533,-0.099378835,0.715767252,1.0,398714137.6,327364372.0,400121.4965,0.0,0.003758752,0.01,0.0024824960000000003,1.0295520040000001,0,0,0.872174435,39.8714138,32.7364372,1.84e-05,-0.0067837259999999995,-0.023009599999999998,0.0033568390000000004,0.014098313000000001,-0.029546529,0.036347204,-0.0016515479999999999,-0.008977804,1.6177413930000002,0.100462737,0.026292767,-0.53011218,-0.0031546559999999996,1.0,10131101,1,0,0,0,0
10181467,0.02957058,0.018468287,-0.003593765,0.15,0.0,900.0,900.0,900.0,900.0,900.0,900.0,0.455414234,0.464309559,3.724195344,3.724598395,3.7973470939999996,3.322008248,3.386893619,39.29391137,39.29391137,12.4045813,-0.000755137,-0.005588627,0.000689552,0.028315587000000003,-0.00079045,-0.120823816,2.0,-1.0,0.0,11,0,0,1.0,0.0,0.0,0,0,0,0,0,0.0,-0.050475585999999996,-1.5697047919999998,-1.5717259959999998,-0.149575478,298.597325,40.74740696,5.34e-08,-0.00128004,0.0,-0.0006029680000000001,-0.065650123,0.19625415,-9.987237967999999,-340.26352,966.168654,12.404602,-0.005019094,0.0035453570000000003,0.008485292,-0.012060261000000001,0.199770998,-10.01081961,2294028,0.001296705,-0.006239683,-0.0070567369999999996,-340.26352,-0.06732110599999999,-0.07932111,0.40060008,-0.30332743100000004,12.765084300000002,12.659574000000001,0.002110206,19.90322153,0.126672029,-19.33054767,399.62248470000003,12.404602,96616.22076,1.147960568,0.02311855,0.08956985099999999,0.09677822300000001,0.001215287,0.00344817,-0.001087661,0.0,-0.265410126,1.6171399,0.68446138,0.095704063,-0.091368473,0.71694019,1.0,398714137.8,327364372.0,400122.3287,0.0,0.001678336,0.01,0.006643329,1.090807171,0,0,0.8295659129999999,39.8714138,32.7364372,-4.09e-05,-0.006618257,-0.022131935,0.003747287,0.014283286000000001,-0.028159701000000002,0.046842117999999995,0.021035792,0.016026701,1.617544024,0.101183533,0.016615266,-0.470595039,-0.0031546559999999996,1.0,10181467,1,0,0,0,0
10219834,0.028787538999999997,0.019933918000000002,-0.0019479529999999999,0.15,0.0,900.0,900.0,900.0,900.0,900.0,900.0,0.836792282,0.853140748,4.51932413,4.519827943,4.608109093,4.144194337,4.225138625,48.93069229,48.93069229,12.40457613,-0.00069334,-0.00564171,0.000845765,0.028259852000000002,-0.000586238,-0.120846833,2.0,-1.0,0.0,11,0,0,1.0,0.0,0.0,0,0,0,0,0,0.0,-0.06309448200000001,-1.56908664,-1.57160452,-0.18650012800000002,299.30947630000003,43.14617896,-7.62e-05,-0.0023066239999999997,0.0,-0.0011655230000000001,-0.064671569,0.244041068,-10.00266467,-340.26352,966.1637601,12.404602,0.0016444089999999999,-0.010635953,0.001314453,-0.101059146,0.210323001,-9.919818797000001,2294028,0.001987941,-0.006476774,-0.004237844,-340.26352,-0.079249718,-0.091249723,0.400600093,-0.31008566,13.25394164,14.00962317,-0.015113631,20.20354082,0.10999999,-18.990717,399.63529950000003,12.404602,96616.04733,1.147958434,0.492114173,-0.49357795200000004,0.43075922,-0.001248039,0.008638026,-0.0045556979999999995,0.0,-0.244373153,1.6171399,0.68538347,0.08815764400000001,-0.084163919,0.71790612,1.0,398714138.0,327364372.0,400122.9598,0.025331066,0.0,0.034928986,0.00959792,1.157346609,0,0,0.786957391,39.8714138,32.7364372,-9.04e-05,-0.0063671859999999995,-0.021180885,0.0037871109999999997,0.014743651000000002,-0.026939677000000002,0.063965211,0.039633052,0.029776587,1.617371053,0.101561813,0.002887528,-0.423982042,-0.0031546559999999996,1.0,10219834,1,0,0,0,0
10262201,0.026501476,0.019138368,-0.002874759,0.15,0.0,900.0,900.0,900.0,900.0,900.0,900.0,0.8107955509999999,0.826640487,5.3144529160000005,5.315057492,5.418871091000001,4.966380426000001,5.063383631000001,58.56747321,58.56747321,12.40457096,-0.000631543,-0.005694794,0.001001978,0.028204116,-0.000382026,-0.12086985,2.0,-1.0,0.0,11,0,0,1.0,0.0,0.0,0,0,0,0,0,0.0,-0.075713378,-1.5684684880000002,-1.571483044,-0.22342477800000002,300.02162749999997,45.54495095,-0.000216787,-0.0029991270000000003,0.0,-0.0018582479999999998,-0.058254623,0.241232095,-9.960816406000001,-340.26352,966.1558721000001,12.404602,-0.002679405,-0.01048488,-0.000487255,-0.06618324,0.085899621,-9.936403797,2294028,0.001117125,-0.0071500240000000005,-0.0038262459999999997,-340.26352,-0.08718450800000001,-0.099184513,0.400600148,-0.313283392,13.25393597,15.17074401,-0.038336163,19.82871519,0.10999999,-18.85836259,399.63324819999997,12.404602,96616.06833,1.147958678,-0.250203997,0.327201485,-0.197885659,0.000492149,0.0038373390000000004,0.000308666,0.0,-0.225109377,1.6171399,0.686161723,0.081238796,-0.077558507,0.7187212820000001,1.0,398714138.0,327364372.2,400122.7518,0.156397279,0.0,0.163914783,0.007517504,1.24594327,0,0,0.74434887,39.8714138,32.7364372,-0.00011523100000000001,-0.005900259000000001,-0.02004479,0.002942807,0.01589844,-0.026140266000000002,0.097801881,0.04791679,0.015146884,1.6172596030000002,0.101076405,-0.011151521999999999,-0.39001568799999997,-0.0031546559999999996,1.0,10262201,1,0,0,0,0
10300568,0.021880666,0.019346582,-0.000735163,1.0,0.0,900.0,900.0,900.0,900.0,900.0,900.0,-0.138709681,-0.141413725,6.109581703,6.11028704,6.22963309,5.788566515,5.901628637999999,68.20425412,68.20425412,12.40456578,-0.000569746,-0.0057478780000000005,0.001158191,0.028148381,-0.00017781400000000002,-0.120892866,2.0,-1.0,0.0,11,0,0,1.0,0.0,0.0,0,0,0,0,0,0.0,-0.088332275,-1.567850336,-1.5713615680000002,-0.260349428,300.73377880000004,47.94372294,-0.000414301,-0.0036359870000000002,0.0,-0.002585485,-0.051837677,0.23842312300000001,-9.91896814,-340.26352,966.1479842,12.404602,0.0033308490000000003,-0.007838338,0.002154454,-0.09236284800000001,0.174275633,-9.884460339,2294028,0.000246309,-0.007823273,-0.003414649,-340.26352,-0.09511929699999999,-0.107119304,0.400600202,-0.316481124,13.253930300000002,16.33186484,-0.061558695,19.45388955,0.10999999,-18.72600819,399.6840565,12.404602,96615.53687000001,1.147952418,0.132347526,0.070640033,0.016728282,-0.0018953470000000001,0.0016176970000000002,-0.001467424,0.0,-0.207284353,1.6171399,0.6868262209999999,0.074830102,-0.071440142,0.7194173420000001,1.0,398714138.0,327364372.5,400122.5437,0.287463493,0.0,0.29290058,0.005437086999999999,1.334539932,0,0,0.701740348,39.8714138,32.7364372,-0.0001401,-0.005433333,-0.018908695,0.002098502,0.01705323,-0.025340855,0.131638551,0.056200528,0.0005171819999999999,1.6171481540000001,0.100590998,-0.026843152999999998,-0.34870182899999996,-0.0031546559999999996,1.0,10300568,1,0,0,0,0
10338935,0.023181884,0.019792706,0.00012493200000000002,1.0,0.0,1500.0,1500.0,2000.0,1488.0,1511.0,1509.0,1.577547309,1.6083672869999999,6.904710489,6.905516588999999,7.0403950879999995,6.610752604,6.739873643999999,77.84103504,77.84103504,12.40456061,-0.000507949,-0.005800962,0.001314404,0.028092645,2.64e-05,-0.120915883,2.0,-1.0,0.0,11,0,0,1.0,0.0,0.0,0,0,0,0,0,0.0,-0.10095117099999999,-1.567232184,-1.5712400919999998,-0.297274078,301.44593010000006,50.34249493,-0.000631246,-0.004203902,0.0,-0.00323958,20.60784424,0.21712719800000002,-9.652251726,-340.26352,966.1543897,12.404602,-0.003102637,-0.007965932,0.002438345,26.64145278,0.187299976,-9.659668827,2294028,0.002284876,-0.007513464,-0.00202779,-340.26352,-0.103054086,-0.11505409400000001,0.400600257,-0.319678856,13.25392463,17.49298567,-0.08478122800000001,19.07906392,0.10999999,-18.59365379,399.5825842,12.404602,96616.67296,1.14796594,0.435321355,-0.189120951,-0.37185779799999996,0.000123172,0.0017142820000000001,0.0021517420000000003,0.0,-0.190653477,1.6171399,0.687397646,0.068845428,-0.065726595,0.720015843,1.0,398714138.0,327364372.7,400122.3357,0.418529706,0.0,0.42188637700000003,0.003356671,1.423136594,0,0,0.659131826,39.8714138,32.7364372,-0.000654184,0.004786187,-0.017712307,-0.025901641,0.623766949,-0.009348326,-0.891003402,20.77551916,0.549725816,1.617130594,0.100337094,-0.043972669000000006,-0.33171386399999997,-0.0031546559999999996,1.0,10338935,1,0,0,0,0
10385302,0.019927353000000002,0.019187673,0.000499493,1.0,0.0,1499.0,1500.0,2000.0,1489.0,1510.0,1509.0,2.997685101,3.05626921,7.699839275,7.7007461379999995,7.851157087000001,7.432938693,7.57811865,87.47781596,87.47781596,12.40455544,-0.00044615199999999995,-0.005854046,0.001470617,0.02803691,0.00023061099999999998,-0.120938899,2.0,-1.0,0.0,11,0,0,1.0,0.0,0.0,0,0,0,0,0,0.0,-0.11357006800000001,-1.566614032,-1.571118616,-0.334198728,302.1580813,52.74126692,-0.000874115,-0.004794654000000001,0.0,-0.003729831,42.919366499999995,0.194352695,-9.367550442,-340.26352,966.1619383999999,12.404602,0.0024828479999999997,-0.0032617859999999996,0.00136506,53.11019279999999,0.166989269,-9.303610574,2294028,0.004556136,-0.00712503,-0.00056293,-340.26352,-0.110988876,-0.122988885,0.40060031100000004,-0.322876588,13.25391896,18.65410651,-0.10800376,18.70423828,0.10999999,-18.46129939,399.60438450000004,12.404602,96616.43716,1.147963117,0.10293415199999999,0.329562672,-0.162289463,0.0033561809999999997,0.001808797,0.004361399,0.0,-0.175005398,1.6171399,0.6878908359999999,0.063209933,-0.060346397999999996,0.72053241,1.0,398714138.0,327364372.9,400122.1276,0.5495959189999999,0.0,0.550872174,0.001276255,1.5117332559999999,0,0,0.616523305,39.8714138,32.7364372,-0.0012073960000000001,0.015785716,-0.016511097,-0.056073698,1.278913043,0.007859343000000001,-1.9981421169999998,43.15129856,1.1440300270000001,1.6171205430000002,0.100101706,-0.065282847,-0.299617435,-0.0031546559999999996,1.0,10385302,1,0,0,0,0
10427669,0.021861493,0.019805144,9.9e-06,1.0,0.0,1500.0,1500.0,2000.0,1490.0,1509.0,1509.0,4.968242453,5.065316062,8.494968061,8.495975686,8.661919086000001,8.255124782000001,8.416363656,97.11459688,97.11459688,12.40455026,-0.000384356,-0.00590713,0.00162683,0.027981173999999998,0.00043482300000000003,-0.120961916,2.0,-1.0,0.0,11,0,0,1.0,0.0,0.0,0,0,0,0,0,0.0,-0.12618896400000001,-1.56599588,-1.5709971390000002,-0.37112337799999995,302.8702326,55.14003891,-0.001127455,-0.0053567,0.0,-0.0040077870000000005,49.74562831,0.168739809,-9.29947908,-255.3240483,966.1616836000001,12.404602,-0.005425462,-0.011692831,-0.000776408,47.25303041,0.17463909,-9.26160976,2294028,0.004249946,-0.009116637,0.0015031320000000001,-255.3240483,-0.11779947699999999,-0.129799487,0.40060034,-0.32247350399999997,13.25391399,19.64820524,-0.127885835,18.19557954,0.10999999,-18.78467955,399.5258437,12.404602,96617.3288,1.147973707,-0.04804821099999999,-0.11677026900000001,0.286012709,0.004869651,0.005135514,-7.65e-05,0.0,-0.16018416800000002,1.6171399,0.6883184859999999,0.057868613,-0.055247041,0.72098042,1.0,398714138.0,327364383.5,400122.1608,1.3585697140000002,0.0008041610000000001,1.3577654730000002,0.0016083220000000001,1.566322503,0,0,0.573914783,39.8714138,32.7364372,-0.006313008,0.12576638199999998,-0.01314019,-0.125647296,2.785760343,0.046957535,-2.341478339,50.52241522,1.313308428,1.617077616,0.1,-0.08212194099999999,-0.269557571,-0.0031546559999999996,1.0,10427669,1,0,0,0,0
10474036,0.021341985,0.019650136000000002,0.001848485,1.0,0.0,1501.0,1500.0,2000.0,1489.0,1510.0,1509.0,6.811554018,6.944640757,9.290096847000001,9.291205235,9.472681084,9.077310871,9.254608662,106.7513778,106.7513778,12.40454509,-0.00032255900000000004,-0.005960214,0.0017830429999999998,0.027925439,0.000639035,-0.120984933,2.0,-1.0,0.0,11,0,0,1.0,0.0,0.0,0,0,0,0,0,0.0,-0.13880786,-1.565377728,-1.570875663,-0.40804802799999995,303.5823838,57.538810899999994,-0.001384999,-0.005869526999999999,0.0,-0.004050501,44.79074515,0.140967491,-9.396219188,-105.7628524,966.155492,12.404602,0.003454005,-0.0063036690000000005,-0.0029810509999999998,43.14596421,0.12188414800000001,-9.487522192,2294028,0.00198284,-0.012918971999999999,0.0040265859999999995,-105.7628524,-0.123382876,-0.135382886,0.40060034,-0.31813964899999997,13.25390979,20.45997707,-0.144121356,17.54082409,0.10999999,-19.60555481,399.71878910000004,12.404602,96615.11426,1.147947407,0.256351452,0.01446606,-0.159336029,0.002946704,0.0033129509999999997,0.000491498,0.0,-0.14599678,1.6171399,0.688693159,0.052752794000000006,-0.050362983,0.72137284,1.0,398714138.0,327364410.5,400122.5769,3.243426685,0.002884577,3.24054182,0.005769154,1.566939783,0,0,0.531306261,39.8714138,32.7364372,-0.014882076000000001,0.31105163199999997,-0.008118586,-0.225197482,4.940579657,0.102709979,-2.103715652,46.47802434,1.1592283209999998,1.617009678,0.1,-0.10080022599999999,-0.240416037,-0.0031546559999999996,1.0,10474036,1,0,0,0,0
10512402,0.022324518999999998,0.019437911999999998,-0.000155509,1.0,0.0,1500.0,1500.0,2000.0,1488.483897,1510.516103,1509.0,8.502989383,8.669179339,10.08522563,10.08643478,10.28344308,9.89949696,10.09285367,116.3881587,116.3881587,12.40453991,-0.000260762,-0.006013298,0.001939256,0.027869703,0.000843247,-0.121007949,2.0,-1.0,0.0,11,0,0,1.0,0.0,0.0,0,0,0,0,0,0.0,-0.147000805,-1.564880592,-1.570776291,-0.438489675,304.32991830000003,59.610078200000004,-0.001642722,-0.006311878000000001,0.0,-0.00389203,40.09571224,0.12419447199999999,-9.478619596,-18.98913961,966.1522200999999,12.404602,-0.004692424000000001,-0.006326719000000001,0.000701108,39.32113866,0.20730120300000002,-9.446896671000001,2294028,-0.000707333,-0.015101077,0.005057439,-18.98913961,-0.128966276,-0.140966286,0.40060034,-0.313805793,13.25390559,21.27174889,-0.160356876,16.88606865,0.10999999,-20.42643006,399.59655469999996,12.404602,96616.50199,1.147963839,0.328736008,0.14265145099999998,0.348437858,-0.001146347,0.005258513,0.0026482470000000003,0.0,-0.132378702,1.6171399,0.68902072,0.047839794000000005,-0.045672551,0.7217159209999999,1.0,398714138.0,327364437.5,400122.99299999996,5.128283657,0.004964993,5.123318167,0.009929986,1.5675570630000002,0,0,0.48869774,39.8714138,32.7364372,-0.024928432,0.530220088,-0.0023639670000000002,-0.31897905600000004,6.971062304,0.155150894,-1.889430691,42.47179085,1.025393025,1.6169467240000002,0.1,-0.1203001,-0.21254428600000003,-0.0031546559999999996,1.0,10512402,1,0,0,0,0
10561539,0.023087641000000002,0.019168181,0.0016624320000000001,1.0,0.0,1500.0,1500.0,2000.0,1488.440888,1510.559112,1509.0,9.912216208,10.10578416,10.88035442,10.88166433,11.09420508,10.72168305,10.93109867,126.0249396,126.0249396,12.40453474,-0.000198965,-0.006066381,0.002095469,0.027813967999999998,0.001047459,-0.12103096599999999,2.0,-1.0,0.0,11,0,0,1.0,0.0,0.0,0,0,0,0,0,0.0,-0.135305706,-1.564927241,-1.57077624,-0.439799903,305.2364473,60.20970105,-0.00189841,-0.0066870540000000004,0.0,-0.003580401,36.37876743,0.14882330800000002,-9.507044729,-168.55033559999998,966.1599385,12.404602,-0.001091855,-0.007188671,-0.001495505,35.0094748,0.22179788600000003,-9.481864787000001,2294028,-0.004989955,-0.01118456,0.000470075,-168.55033559999998,-0.134549676,-0.14654968599999998,0.40060034,-0.309471938,13.25390139,22.08352072,-0.17659239699999998,16.2313132,0.10999999,-21.24730532,399.5681258,12.404602,96616.85974,1.147968116,0.12256956699999999,0.292058864,-0.30158277699999997,-0.001913896,0.003884763,-0.001852001,0.0,-0.11922818199999999,1.6171399,0.689306478,0.043093344000000006,-0.041141128,0.722015231,1.0,398714138.0,327364464.6,400123.4091,7.0131406279999995,0.007045409,7.006094515,0.014090818,1.5681743430000001,0,0,0.44608921799999995,39.8714138,32.7364372,-0.040535374,0.876926448,0.006149748000000001,-0.391047317,8.533536146,0.19512706300000002,-1.76351694,38.60918351,0.96776011,1.616902535,0.1,-0.135598897,-0.18583462399999998,-0.0031546559999999996,1.0,10561539,1,0,0,0,0
10609136,0.020084455,0.017148266000000002,1.06e-05,1.0,0.0,1500.0,1500.0,2000.0,1487.0,1512.0,1509.0,11.26862354,11.48877187,11.67548321,11.67689388,11.90496708,11.54386914,11.76934368,135.6617205,135.6617205,12.40452957,-0.00013716799999999999,-0.006119465,0.002251682,0.027758232,0.001251671,-0.121053983,2.0,-1.0,0.0,11,0,0,1.0,0.0,0.0,0,0,0,0,0,0.0,-0.123610607,-1.56497389,-1.570776189,-0.441110131,306.14297630000004,60.80932391,-0.0021567039999999997,-0.0070198230000000006,0.0,-0.0031769209999999997,32.66182262,0.17345214399999997,-9.535469862000001,-318.1115315,966.1676568,12.404602,-0.004640913,-0.005249076,-0.001288025,31.97474025,0.135016024,-9.585960002,2294028,-0.009272576,-0.007268043,-0.00411729,-318.1115315,-0.140133076,-0.152133086,0.40060034,-0.305138082,13.25389719,22.89529254,-0.192827917,15.57655775,0.10999999,-22.06818057,399.6394577,12.404602,96616.03052,1.1479583340000001,-0.023007412,-0.002456159,-0.10496614300000001,-0.00595088,0.004980975,-0.00241131,0.0,-0.10648430199999999,1.6171399,0.689554032,0.038491827,-0.036748067999999995,0.7222745490000001,1.0,398714138.0,327364491.6,400123.8252,8.8979976,0.009125825,8.888870862000001,0.01825165,1.5687916240000002,0,0,0.403480696,39.8714138,32.7364372,-0.056142316,1.2236328090000002,0.014663462,-0.463115579,10.09600999,0.23510323100000002,-1.637603189,34.74657616,0.9101271959999999,1.616858345,0.1,-0.149835377,-0.175747159,-0.0031546559999999996,1.0,10609136,1,0,0,0,0
10651503,0.018511472,0.017347878,-0.002737111,1.0,0.0,1499.0,1500.0,2000.0,1490.0,1509.0,1508.0,12.56902994,12.81461949,12.47061199,12.47212343,12.71572908,12.36605523,12.60758869,145.2985015,145.2985015,12.40452439,-7.54e-05,-0.006172549,0.002407895,0.027702497000000003,0.0014558829999999998,-0.121076999,2.0,-1.0,0.0,11,0,0,1.0,0.0,0.0,0,0,0,0,0,0.0,-0.11191550800000001,-1.56502054,-1.570776138,-0.442420359,307.04950539999993,61.40894676,-0.002412328,-0.007341434,0.0,-0.002747062,29.87648948,0.010068049,-9.578182229,-340.26352,966.1665818,12.404602,-0.000196397,-0.005391969,0.018389253,28.67983035,-0.02828073,-9.593383929,2294028,-0.011760838999999999,-0.0076784209999999995,0.023266297000000002,-340.26352,-0.14132513300000002,-0.153325143,0.40060034,-0.250660915,13.25391649,23.47736321,-0.204468945,14.81264713,0.10999999,-23.57626842,399.5811614,12.404602,96616.7003,1.147966244,0.184995365,-0.060299157,0.178763946,0.001037819,0.002224189,0.006246523,0.0,-0.094051074,1.6171399,0.68976904,0.034001005,-0.03246069,0.722499785,1.0,398714138.0,327364541.1,400123.2763,10.40771342,0.014824965,10.39650642,0.017587518,1.568798353,0,0,0.360872174,39.8714138,32.7364372,-0.078367261,1.7225792469999999,0.026673457999999997,-0.521135071,11.47170687,0.268525358,-1.354166665,31.69285956,0.818564205,1.6171945030000001,0.1,-0.161846916,-0.153882283,-0.0031546559999999996,1.0,10651503,1,0,0,0,0
10689870,0.022255967,0.017062228999999998,-0.010555135,1.0,0.0,1496.0,1500.0,2000.0,1489.0,1510.0,1508.0,13.62993381,13.8962835,13.26574078,13.26735298,13.52649108,13.18824132,13.44583369,154.9352824,154.9352824,12.40451922,-1.36e-05,-0.006225633,0.002564108,0.027646761000000002,0.001660095,-0.12110001599999999,2.0,-1.0,0.0,11,0,0,1.0,0.0,0.0,0,0,0,0,0,0.0,-0.10022040900000001,-1.565067189,-1.5707760880000001,-0.44373058600000004,307.95603439999996,62.00856961,-0.0026664320000000003,-0.0076914390000000004,0.0,-0.0023590020000000002,27.25313092,-0.18600489399999998,-9.623378645,-340.26352,966.1639779,12.404602,-0.00198085,-0.0059396959999999995,0.091422537,25.60425257,-0.30942580399999997,-9.602126947,2294028,-0.013937126000000001,-0.008841094,0.05620851,-340.26352,-0.140785146,-0.152785156,0.40060034,-0.176406108,13.25394505,23.96883463,-0.21429780199999998,14.00568328,0.10999999,-25.35540825,399.7356401,12.404602,96614.91092000001,1.147944901,0.060533910999999996,0.18403589899999998,0.9332888770000001,-0.000552414,0.008265197,0.041081217,0.0,-0.081880355,1.6171399,0.689954162,0.029603748,-0.028262638,0.72269368,1.0,398714138.0,327364606.9,400122.028,11.64556078,0.023146628,11.63227378,0.013426685,1.56836261,0,0,0.318263653,39.8714138,32.7364372,-0.101742844,2.24799489,0.039291335,-0.576711976,12.81492979,0.30080796600000004,-1.04334246,28.77978067,0.721101966,1.61759679,0.1,-0.17444153199999998,-0.135765066,-0.0031546559999999996,1.0,10689870,1,0,0,0,0
10728237,0.011407542,-0.301923293,-0.018849768,1.0,0.0,1490.268854,1500.0,2000.0,1493.0,1506.0,1391.210042,14.80402591,15.09327929,14.06086956,14.06258253,14.33725308,14.010427400000001,14.284078699999998,164.57206330000002,164.57206330000002,12.40451404,4.8200000000000006e-05,-0.006278717,0.002720321,0.027591026,0.0018643070000000002,-0.12112303199999999,2.0,-1.0,0.0,11,0,0,1.0,0.0,0.0,0,0,0,0,0,0.0,-0.08852530900000001,-1.565113838,-1.570776037,-0.445040814,308.86256339999994,62.60819246,-0.00291803,-0.008076988,0.0,-0.002065772,24.91633367,-0.24910383,-9.833850262,-340.26352,966.1648466,12.404602,0.017476216,-0.010668075,0.132397359,23.58255028,-0.005466489000000001,-9.787823217,2294028,0.015864084,-0.025944707999999997,0.10540282,-340.26352,-0.14024516,-0.15224517,0.40060034,-0.102151301,13.25397362,24.46030604,-0.22412665899999998,13.19871942,0.10999999,-27.13454808,399.44995530000006,12.404602,96618.22054,1.147984233,0.8615214609999999,0.09602046300000001,0.760529425,-0.0032205370000000003,0.003229025,0.10366427199999999,0.0,-0.06993576,1.6171399,0.690111279,0.025287128,-0.024141568999999998,0.72285825,1.0,398714138.0,327364672.6,400120.7798,12.88340815,0.031468292,12.86804115,0.009265853000000001,1.5679268659999999,0,0,0.275655131,39.8714138,32.7364372,-0.12283275099999999,2.808251485,0.051784445,-0.6143755,13.99017341,0.321151116,-0.8884522290000001,26.36263943,0.42888508799999997,1.619815776,0.1,-0.18457893600000003,-0.133810619,-0.0031546559999999996,1.0,10728237,1,0,0,0,0
10769207,-0.008789082,-0.274614007,-0.031623073,1.0,0.0,1485.0,1500.0,2000.0,1501.54831,1497.45169,1357.0,15.79046413,16.09892567,14.85599835,14.85781208,15.14801507,14.83261349,15.12232371,174.2088442,174.2088442,12.40450887,0.00011001899999999999,-0.006331801,0.002876534,0.02753529,0.002068519,-0.121146049,2.0,-1.0,0.0,11,0,0,1.0,0.0,0.0,0,0,0,0,0,0.0,-0.07683021,-1.565160488,-1.570775986,-0.44635104200000003,309.7690924,63.20781531,-0.003166356,-0.00852409,0.0,-0.001890366,22.87321389,-0.175926633,-10.21370134,-340.26352,966.169274,12.404602,0.105841528,-0.08266341099999999,0.223161694,21.84517479,-0.17181307699999998,-10.69726032,2294028,0.078436885,-0.059385124000000004,0.171252815,-340.26352,-0.13970517300000002,-0.15170518300000002,0.40060034,-0.027896492999999998,13.25400218,24.95177746,-0.233955515,12.39175556,0.10999999,-28.913687899999996,399.6060251,12.404602,96616.44045,1.1479631829999999,1.8461737530000002,-2.179696921,2.053221476,0.049980467,-0.030963582000000003,0.173792895,0.0,-0.058170165,1.6171399,0.69024065,0.021034264,-0.020081368999999998,0.722993753,1.0,398714138.0,327364738.3,400119.5315,14.12125551,0.039789956,14.10380851,0.0051050209999999995,1.5674911230000002,0,0,0.233046609,39.8714138,32.7364372,-0.141580224,3.404214231,0.064149691,-0.6336808039999999,14.99326632,0.329258316,-0.893368259,24.453751399999998,-0.06292274099999999,1.623896574,0.1,-0.195970893,-0.123665347,-0.0031546559999999996,1.0,10769207,1,0,0,0,0
10813941,-0.026775621,-0.19820554199999998,-0.043567895,1.0,0.0,1478.1828369999998,1500.0,2000.0,1512.634327,1486.365673,1399.0,16.63556367,16.96055833,15.65112714,15.65304162,15.95877707,15.65479958,15.96056871,183.8456251,183.8456251,12.4045037,0.00017181599999999998,-0.006384885,0.003032747,0.027479555,0.002272731,-0.12116906599999999,2.0,-1.0,0.0,11,0,0,1.0,0.0,0.0,0,0,0,0,0,0.0,-0.065135111,-1.5652071369999998,-1.570775935,-0.44766127,310.6756215,63.80743816,-0.003409531,-0.009025977,0.0,-0.001833724,20.81811143,-0.11792141699999999,-10.50859512,-340.26352,966.1730960000001,12.40459849,0.178725532,-0.131829574,0.24367708100000002,19.94839066,-0.146686034,-10.37978608,2294028,0.141198728,-0.089335457,0.224559292,-340.26352,-0.139165187,-0.151165197,0.40060034,0.046358314000000005,13.25403075,25.44324887,-0.243784372,11.584791699999998,0.10999999,-30.69282773,399.5086448,12.40458381,96617.56708,1.147976532,2.469419419,-1.615526925,0.842723324,0.138689377,-0.095925601,0.229572589,0.0,-0.046543272000000004,1.6171399,0.690345526,0.016830843,-0.016068371,0.72310365,1.0,398714138.0,327364804.1,400118.2833,15.35910287,0.048111619,15.33957587,0.0009441889999999999,1.56705538,0,0,0.190438088,39.8714138,32.7364372,-0.160222961,4.020207921,0.076314219,-0.653407007,15.97847459,0.33474045,-0.907617865,22.49068312,-0.441753612,1.6286303069999999,0.1,-0.204605652,-0.112322039,-0.0031546559999999996,1.0,10813941,1,0,0,0,0
10863337,-0.04644823,-0.17884985399999997,-0.050451277999999995,1.0,0.0,1474.0,1500.0,2000.0,1522.8601720000001,1476.1398279999999,1410.0,17.35150746,17.6904507,16.44625592,16.44827117,16.76953907,16.47698567,16.79881372,193.4824061,193.4824061,12.40449852,0.000233613,-0.006437969,0.00318896,0.02742382,0.0024769429999999997,-0.12119208199999999,2.0,-1.0,0.0,11,0,0,1.0,0.0,0.0,0,0,0,0,0,0.0,-0.053440012,-1.565253786,-1.570775885,-0.44897149799999997,311.5821505,64.40706101,-0.003648572,-0.009561181,0.0,-0.001887218,18.68678582,-0.156426856,-10.26306612,-340.26352,966.1730662999998,12.40457262,0.246154073,-0.11763566,0.22328443899999997,17.80911927,-0.162851714,-10.09627148,2294028,0.205163089,-0.097084992,0.198075059,-340.26352,-0.10998800199999999,-0.12198801,0.40060027600000003,0.235083083,13.25404285,25.60395641,-0.246998279,10.91989143,0.10999999,-32.63491762,399.6094753,12.40456037,96616.36244,1.147962237,1.557554782,0.11599177699999999,-0.259571755,0.212764018,-0.117173191,0.237730529,0.0,-0.035025692000000004,1.6171399,0.6904268240000001,0.012666388999999998,-0.012092576,0.72318878,1.0,398714138.0,327364885.7,400121.5383,16.22381992,0.033916781,16.20864557,-0.008041608,1.5680231709999999,0,0,0.147829566,39.8714138,32.7364372,-0.178199462,4.763620675,0.087201956,-0.675810602,16.84991673,0.32352425,-0.981239392,20.18296834,-0.101925504,1.6375174280000002,0.1,-0.212568013,-0.114865815,-0.0031546559999999996,1.0,10863337,1,0,0,0,0
10901704,-0.047737075,-0.14416403,-0.050274743,1.0,0.0,1474.9031810000001,1500.0,2000.0,1523.9031810000001,1475.0968189999999,1427.0,18.13321765,18.48755075,17.24138471,17.24350072,17.58030107,17.29917176,17.63705872,203.119187,203.119187,12.40449335,0.00029541,-0.006491053,0.003345173,0.027368083999999997,0.002681155,-0.121215099,2.0,-1.0,0.0,11,0,0,1.0,0.0,0.0,0,0,0,0,0,0.0,-0.041744913,-1.565300436,-1.570775834,-0.450281726,312.4886795,65.00668386,-0.0038824429999999997,-0.010112294,0.0,-0.002020398,16.55546021,-0.19493229399999998,-10.01753713,-340.26352,966.1730366,12.40454675,0.282328713,-0.082786507,0.153320691,15.87379343,-0.14842532,-9.905235346,2294028,0.26912745,-0.104834527,0.171590827,-340.26352,-0.079498755,-0.091498761,0.400600209,0.429052492,13.25405419,25.74950943,-0.24990911100000002,10.26150006,0.10999999,-34.58447335,399.5084449,12.40453661,96617.56173,1.147976449,1.287868086,0.32274803,-1.8831695480000001,0.266713417,-0.09428751199999999,0.19787849300000002,0.0,-0.02358929,1.6171399,0.690485296,0.008530874,-0.008144406,0.723250031,1.0,398714138.0,327364972.1,400126.1152,16.97901117,0.013112621999999999,16.97007765,-0.018443688,1.569402945,0,0,0.105221044,39.8714138,32.7364372,-0.19617596399999998,5.507033429,0.098089693,-0.698214197,17.72135886,0.31230805100000003,-1.054860919,17.87525356,0.23790260300000002,1.64640455,0.1,-0.219968484,-0.104975838,-0.0031546559999999996,1.0,10901704,1,0,0,0,0
10940142,-0.055955977999999996,-0.131307103,-0.044234576,1.0,0.0,1477.946189,1500.0,2000.0,1528.892378,1470.107622,1434.0,18.62088054,18.98446166,18.03651349,18.03873027,18.39106307,18.12135785,18.47530373,212.7559679,212.7559679,12.40448818,0.000357206,-0.006544136,0.0035013859999999996,0.027312349,0.0028853670000000002,-0.121238115,2.0,-1.0,0.0,11,0,0,1.0,0.0,0.0,0,0,0,0,0,0.0,-0.030049813999999998,-1.565347085,-1.5707757830000002,-0.45159195399999996,313.3952085,65.60630671,-0.004110755,-0.010665868,0.0,-0.002195843,14.96653619,-0.10246376800000001,-9.937097644,-340.26352,966.1742406,12.40452088,0.30305117800000003,-0.040745775,0.051119872000000004,14.4472234,-0.13766514900000001,-9.783004209,2294028,0.29811026,-0.071034335,0.07897575400000001,-223.930347,-0.049009508,-0.061009512,0.400600141,0.623021901,13.25406553,25.89506245,-0.252819942,9.603108678,0.10999999,-36.53402909,399.4232058,12.404510499999999,96618.50595,1.147987664,0.622517738,0.766452927,-2.9999697610000005,0.29577354899999997,-0.068384859,0.11894260400000001,0.0,-0.012217335,1.6171399,0.6905199909999999,0.004418371,-0.0042182090000000005,0.723286346,1.0,398714138.0,327365058.4,400130.6921,17.73420242,-0.007691538,17.73150973,-0.028845767,1.570782718,0,0,0.062612523,39.8714138,32.7364372,-0.21019669300000002,6.261080864,0.106680976,-0.715944858,18.39390501,0.314585745,-1.180679432,16.08211155,0.339975642,1.65006379,0.1,-0.22744659399999997,-0.098285123,-0.0031546559999999996,1.0,10940142,1,0,0,0,0
10982438,-0.06409760099999999,-0.126691628,-0.033222589,1.0,0.0,1483.989198,1500.0,2000.0,1532.0,1467.0,1438.967594,19.21876264,19.59414372,18.83164228,18.83395982,19.20182507,18.94354394,19.31354874,222.3927488,222.3927488,12.404483,0.00041900300000000004,-0.00659722,0.003657599,0.027256613,0.0030895790000000003,-0.121261132,2.0,-1.0,0.0,11,0,0,1.0,0.0,0.0,0,0,0,0,0,0.0,-0.018354715,-1.5653937340000001,-1.570775732,-0.45290218200000004,314.3017375,66.20592956,-0.004331904,-0.011195763999999999,0.0,-0.002389142,13.53253706,0.027414544,-9.903812287000001,-340.26352,966.1757970000001,12.40449501,0.326283698,-0.004535007,-0.076321406,12.72260229,0.105868313,-9.877194065,2294028,0.317101372,-0.025366391000000002,-0.032528117,-74.36920274,-0.018520261,-0.030520263,0.400600074,0.816991309,13.25407687,26.04061547,-0.255730774,8.9447173,0.10999999,-38.48358482,399.5090317,12.40448972,96617.55528,1.14797643,0.967309847,1.1721713870000001,-2.827603181,0.314252672,-0.016123392,0.028351471,0.0,-0.000879067,1.6171399,0.6905325,0.00031791400000000003,-0.00030351200000000003,0.723299473,1.0,398714138.0,327365144.8,400135.2691,18.48939366,-0.028495697,18.4929418,-0.039247847,1.572162492,0,0,0.020004001,39.8714138,32.7364372,-0.223087544,7.0181658570000005,0.114616329,-0.7323408,19.00964097,0.320717668,-1.321406847,14.43594576,0.374139257,1.652229804,0.1,-0.23331689100000003,-0.101215396,-0.0031546559999999996,1.0,10982438,1,0,0,0,0
11032805,-0.062063225,-0.107282395,-0.016858996,1.0,0.0,1492.0,1500.0,2000.0,1531.0,1468.0,1448.0,19.79785959,20.18457489,19.36593787,19.367914600000002,19.74623177,19.48690305,19.86754323,229.89167400000002,229.89167400000002,12.40437024,0.000458959,-0.0066329909999999995,0.0037607990000000004,0.026553036000000002,0.0033623309999999997,-0.121198907,2.0,-1.0,0.0,11,0,0,1.0,0.0,0.0,0,0,0,0,0,0.0,-0.006705791,-1.5652228430000001,-1.570735658,-0.467322966,315.2429026,66.60478918,-0.004545677,-0.011686316,0.0,-0.002574095,12.21449341,0.146674573,-9.901058791,-277.476064,966.1734419,12.40447448,0.318311364,0.007778604000000001,-0.20102222600000003,11.21417743,0.260261864,-9.950051556,2294028,0.327448773,0.0008815380000000001,-0.125142356,-50.38298149,0.019087988,0.007087987,0.400600013,1.005502591,13.25409539,26.150454699999997,-0.25792718600000003,8.312222383,0.10999999,-40.43761885,399.4792974,12.40448,96617.88558999999,1.147980311,0.415612814,0.276701357,-2.481386692,0.326523207,0.009965999,-0.08125632599999999,0.0,0.010442163,1.6171399,0.6905232640000001,-0.0037763890000000002,0.003605311,0.723289768,1.0,398714138.0,327365231.1,400139.846,19.24458491,-0.049299857,19.25437388,-0.049649927,1.573542265,0,0,0.0,39.8714138,32.7364372,-0.234782922,7.826417982000001,0.122244854,-0.7506021190000001,19.58488611,0.323646369,-1.433296215,12.959511099999999,0.35952680299999995,1.64984852,0.1,-0.238269112,-0.08947162800000001,-0.0031546559999999996,1.0,11032805,1,0,0,0,0
11074344,-0.067635617,-0.098564023,-0.0027956609999999996,1.0,0.0,1498.075215,1500.0,2000.0,1533.075215,1465.924785,1450.0,20.32018594,20.71702668,19.53975611,19.5407818,19.92252947,19.64491701,20.02869711,234.4360346,234.4360346,12.40410879,0.000468731,-0.0066448340000000005,0.0037907329999999997,0.024954128,0.0037298059999999996,-0.121018876,2.0,-1.0,0.0,11,0,0,1.0,0.0,0.0,0,0,0,0,0,0.0,0.0048624770000000005,-1.564671961,-1.570625673,-0.504644656,316.24456810000004,66.65296498,-0.004757148,-0.012141197,0.0,-0.002740565,11.05670285,0.251259899,-9.940501011,-127.91493290000001,966.1656812000001,12.40446133,0.31693624,0.001733451,-0.242722103,10.32994013,0.318399689,-10.02748313,2294028,0.325850372,0.000290569,-0.1916507,-199.9441257,0.086040415,0.074040414,0.400599975,1.1715157409999999,13.25414349,26.11308339,-0.257178796,7.78647142,0.10999999,-42.41011222,399.5701571000001,12.404449000000001,96616.84682,1.14796803,0.22582686300000002,0.37901626899999996,-2.386857101,0.315402018,0.018097939,-0.194176436,0.0,0.021765488,1.6171399,0.6904922929999999,-0.007871335,0.007514748000000001,0.72325735,1.0,398714137.6,327365334.9,400142.2114,19.72435067,-0.09422883900000001,19.72831886,-0.047989595999999995,1.5755536669999999,0,0,0.0,39.8714138,32.7364372,-0.244826128,8.705384231,0.129449338,-0.771441431,20.10417203,0.322148145,-1.5053307530000002,11.71764869,0.277504724,1.641182771,0.1,-0.242348389,-0.084772186,-0.0031546559999999996,1.0,11074344,1,0,0,0,0
11113539,-0.066552988,-0.08526557,0.008782015,1.0,0.0,1504.118224,1500.0,2000.0,1533.0,1466.0,1457.0,20.61124961,21.01402297,19.71357436,19.71364899,20.09882717,19.80293097,20.18985099,238.9803952,238.9803952,12.40384734,0.000478503,-0.006656678,0.0038206670000000002,0.02335522,0.00409728,-0.120838846,2.0,-1.0,0.0,11,0,0,1.0,0.0,0.0,0,0,0,0,0,0.0,0.016430745,-1.56412108,-1.5705156880000002,-0.541966346,317.24623360000004,66.70114078,-0.004961762,-0.012554387,0.0,-0.002891188,9.90701979,0.33796256700000005,-9.973637189,3.1626998619999998,966.1589502999999,12.40444821,0.300867591,-0.01436688,-0.250950943,9.230357605,0.0957204,-9.99103194,2294028,0.323158348,-0.000553223,-0.25210599699999997,-340.26352,0.152992842,0.140992841,0.400599937,1.33752889,13.25419159,26.07571209,-0.256430405,7.260720457000001,0.10999999,-44.38260559,399.52371850000003,12.404449000000001,96617.35097,1.147973876,0.149015583,-0.140790111,-1.0800493,0.316053465,0.013642935,-0.250853479,0.0,0.033103676,1.6171399,0.6904384490000001,-0.011971397,0.011429068,0.7232009,1.0,398714137.2,327365439.4,400144.4999,20.1945245,-0.13999799,20.19225186,-0.04590918,1.577587066,0,0,0.0,39.8714138,32.7364372,-0.25474549,9.582877327,0.136553783,-0.7913453220000001,20.61431421,0.320386852,-1.553972268,10.48815835,0.201341803,1.6323280269999998,0.1,-0.246569763,-0.07729675400000001,-0.0031546559999999996,1.0,11113539,1,0,0,0,0
11155906,-0.070294122,-0.07625705599999999,0.018834153,1.0,0.0,1510.0,1500.0,2000.0,1535.0,1464.0,1461.0,21.06557002,21.47708443,19.887392600000002,19.88651618,20.27512487,19.96094493,20.35100488,243.5247558,243.5247558,12.4035859,0.000488275,-0.006668521,0.003850601,0.021756312000000003,0.004464755,-0.120658815,2.0,-1.0,0.0,11,0,0,1.0,0.0,0.0,0,0,0,0,0,0.0,0.027999013,-1.563570198,-1.570405703,-0.579288036,318.24789910000004,66.74931658,-0.005164242,-0.012941086000000001,0.0,-0.0030411170000000003,8.880434705,0.153149178,-9.911027427,-146.3984312,966.1678561000001,12.40443549,0.293151786,-0.022566294,-0.21806466100000002,8.145859729,-0.144002049,-9.85488008,2294028,0.303861615,-0.005235687,-0.220656639,-340.26352,0.219945269,0.20794526800000002,0.400599899,1.50354204,13.25423969,26.03834078,-0.255682015,6.734969494,0.10999999,-46.35509895,399.5442354,12.404419,96617.14127000001,1.14797144,-0.864714458,-0.239512051,0.560525058,0.301692291,-0.0023363760000000003,-0.257832705,0.0,0.044471465,1.6171399,0.690361905,-0.01608177,0.015353233,0.723120751,1.0,398714136.8,327365543.8,400146.7884,20.66469832,-0.18576714,20.65618485,-0.043828765,1.579620464,0,0,0.0,39.8714138,32.7364372,-0.262784492,10.43800322,0.142139298,-0.797046536,20.98562506,0.31463133,-1.247432693,9.446515706,0.21413968600000002,1.6206037359999999,0.1,-0.24983195,-0.06322915,-0.0031546559999999996,1.0,11155906,1,0,0,0,0
11198272,-0.072334185,-0.07295971799999999,0.025323291,1.0,0.0,1513.0,1500.0,2000.0,1536.0,1463.0,1465.0,21.34556284,21.762491,20.06121084,20.05938337,20.45142256,20.11895889,20.51215876,248.06911639999998,248.06911639999998,12.40332445,0.0004980469999999999,-0.006680364,0.003880535,0.020157404,0.00483223,-0.120478785,2.0,-1.0,0.0,11,0,0,1.0,0.0,0.0,0,0,0,0,0,0.0,0.03956728,-1.5630193159999999,-1.5702957180000001,-0.616609727,319.24956460000004,66.79749238,-0.005361741999999999,-0.013297077,0.0,-0.003201699,7.85384962,-0.031664212000000004,-9.848417665,-295.9595623,966.1767618999999,12.40442277,0.277430818,-0.0061219130000000005,-0.170412788,7.3959843329999995,-0.13662608699999998,-9.829993214,2294028,0.284564882,-0.009918151,-0.189207281,-340.26352,0.28689769600000004,0.274897696,0.400599861,1.66955519,13.25428779,26.00096948,-0.254933625,6.209218531,0.10999999,-48.32759232,399.57615269999997,12.40440272,96616.76114,1.147966932,-0.034686992,-0.052599217000000004,1.203042989,0.292932694,-0.009082296,-0.22861847,0.0,0.055876329,1.6171399,0.690263141,-0.020205032,0.019289703999999998,0.723017322,1.0,398714136.3,327365648.2,400149.0768,21.13487215,-0.23153629,21.12011785,-0.041748349,1.581653863,0,0,0.0,39.8714138,32.7364372,-0.270823495,11.29312912,0.147724813,-0.80274775,21.35693592,0.30887580800000003,-0.940893119,8.404873065,0.22693756899999998,1.608879445,0.1,-0.253769817,-0.052070332999999996,-0.0031546559999999996,1.0,11198272,1,0,0,0,0
11240639,-0.07420929700000001,-0.066093129,0.027340896,1.0,0.0,1513.0,1500.0,2000.0,1537.0,1462.0,1466.4944990000001,21.670827,22.09430157,20.23502909,20.23225056,20.62772026,20.27697285,20.67331265,252.6134769,252.6134769,12.403063000000001,0.0005078190000000001,-0.0066922069999999995,0.003910469000000001,0.018558496,0.005199704,-0.12029875400000001,2.0,-1.0,0.0,11,0,0,1.0,0.0,0.0,0,0,0,0,0,0.0,0.051135547999999996,-1.562468435,-1.5701857330000002,-0.653931417,320.25123019999995,66.84566818,-0.0055585009999999995,-0.013635068,0.0,-0.0033936979999999997,6.920608102,-0.195558562,-10.09506587,-340.26352,966.1732816,12.40440079,0.257217608,0.024205845,-0.096022613,6.613032673999999,-0.323756379,-10.00489125,2294028,0.265893843,0.013331102,-0.11393659199999999,-340.26352,0.37141928,0.35941928,0.40059993200000005,1.8304325609999998,13.25434328,25.91625791,-0.253238282,5.720180393,0.10999999,-50.3208985,399.6742278,12.404388,96615.62561,1.147953444,-0.322807157,0.091338239,1.5657179940000001,0.272648934,0.007818183000000001,-0.171641696,0.0,0.067325723,1.6171399,0.6901418009999999,-0.024343748999999998,0.023240927,0.722890206,1.0,398714135.8,327365753.4,400151.5313,21.57117524,-0.276309242,21.55184033,-0.044980995999999995,1.583623505,0,0,0.0,39.8714138,32.7364372,-0.277587806,12.22369608,0.15278643,-0.799791445,21.68194135,0.299754135,-0.876347916,7.456508331,0.068059023,1.600493306,0.1,-0.257525145,-0.040104556,-0.0031546559999999996,1.0,11240639,1,0,0,0,0
11279006,-0.075517604,-0.060274199,0.025501686000000003,1.0,0.0,1512.0,1500.0,2000.0,1538.0,1461.0,1469.0,21.94719083,22.37601085,20.40884733,20.40511776,20.80401796,20.43498681,20.83446653,257.1578375,257.1578375,12.40280155,0.000517592,-0.006704051,0.003940403,0.016959588,0.005567179,-0.12011872300000001,2.0,-1.0,0.0,11,0,0,1.0,0.0,0.0,0,0,0,0,0,0.0,0.062703816,-1.561917553,-1.570075748,-0.691253107,321.2528957,66.89384397,-0.00575362,-0.01396021,0.0,-0.003637858,6.026655967000001,-0.350647847,-10.47188431,-340.26352,966.1645877999998,12.40437492,0.237286855,0.06536669999999999,-0.00108535,5.727659191,-0.29114969399999996,-10.48070096,2294028,0.247486166,0.048337137,-0.020221001000000002,-340.26352,0.478827004,0.466827004,0.400600144,1.984619904,13.25440839,25.76987943,-0.250309408,5.278965541,0.10999999,-52.34131611,399.6267714,12.404358,96616.1759,1.147959975,-0.401951546,0.8725507140000001,2.148222402,0.25315212600000003,0.044193782,-0.080279756,0.0,0.078830901,1.6171399,0.689996825,-0.028501817999999998,0.027210627,0.722738398,1.0,398714134.3,327365862.2,400154.86,21.82914683,-0.315837147,21.81397255,-0.076187237,1.5852574640000001,0,0,0.0,39.8714138,32.7364372,-0.283815585,13.18601705,0.157627532,-0.793191091,21.98745629,0.28921561,-0.913660934,6.547405342,-0.163080112,1.593512234,0.1,-0.260317116,-0.037827141,-0.0031546559999999996,1.0,11279006,1,0,0,0,0
11318746,-0.077627788,-0.05867787,0.020933656999999998,1.0,0.0,1509.0,1500.0,2000.0,1539.0,1460.0,1471.0,22.11620491,22.54837465,20.58266558,20.57798495,20.98031566,20.59300077,20.99562042,261.70219810000003,261.70219810000003,12.4025401,0.000527364,-0.006715894,0.003970337,0.01536068,0.005934653000000001,-0.11993869300000001,2.0,-1.0,0.0,11,0,0,1.0,0.0,0.0,0,0,0,0,0,0.0,0.074272084,-1.561366672,-1.5699657630000001,-0.728574797,322.25456119999996,66.94201977,-0.005947114,-0.014275488999999999,0.0,-0.003940933,5.215436541,-0.421985294,-11.01470145,-340.26352,966.1589,12.40434011,0.229234351,0.10418421,0.066281637,5.222538066,-0.346528444,-11.03382223,2294028,0.229997372,0.08795202699999999,0.060383967000000004,-340.26352,0.586234728,0.574234728,0.400600356,2.138807248,13.254473499999998,25.62350094,-0.24738053399999999,4.837750689,0.10999999,-54.36173371,399.6214813,12.40433223,96616.2558,1.1479610059999998,-0.565003249,0.61016158,1.795123609,0.234521113,0.087268766,0.024637817000000003,0.0,0.090401356,1.6171399,0.689827348,-0.032682499,0.031201915,0.7225608590000001,1.0,398714132.9,327365971.0,400158.1886,22.08711842,-0.355365053,22.07610477,-0.107393479,1.5868914230000002,0,0,0.0,39.8714138,32.7364372,-0.290075276,14.13146626,0.161014916,-0.7917108070000001,22.25819046,0.260404347,-1.00655412,5.70989201,-0.5956153820000001,1.589833254,0.1,-0.26358259999999994,-0.025632928,-0.0031546559999999996,1.0,11318746,1,0,0,0,0
11359740,-0.078733691,-0.057151692999999996,0.014641273,1.0,0.0,1506.0,1500.0,2000.0,1539.0,1460.0,1470.752551,22.39351027,22.83109602,20.75648382,20.75085214,21.15661336,20.75101473,21.156774300000002,266.2465587,266.2465587,12.40227865,0.000537136,-0.006727736999999999,0.004000271,0.013761772,0.006302128000000001,-0.11975866199999999,2.0,-1.0,0.0,11,0,0,1.0,0.0,0.0,0,0,0,0,0,0.0,0.085840352,-1.56081579,-1.5698557780000002,-0.765896488,323.2562267,66.99019557,-0.00613961,-0.014582468999999999,0.0,-0.004305067,4.56076591,-0.334845525,-11.87162525,-340.26352,966.1589,12.40428837,0.203225462,0.158939468,0.140508989,4.391164563,-0.316020385,-12.1167136,2294028,0.214247312,0.13628790400000002,0.11618070400000001,-340.26352,0.6936424529999999,0.6816424529999999,0.40060056899999996,2.292994591,13.25453862,25.47712246,-0.24445166,4.396535837,0.10999999,-56.38215131,399.6901165,12.404309,96615.43394,1.147951199,0.087415425,0.847410687,1.9165614219999998,0.22152713,0.136026308,0.09552910199999999,0.0,0.10204064300000001,1.6171399,0.689633987,-0.036886965,0.035215909,0.722358308,1.0,398714131.4,327366079.8,400161.5173,22.34509002,-0.394892959,22.33823699,-0.13859972,1.588525381,0,0,0.0,39.8714138,32.7364372,-0.29639535300000003,15.04499033,0.161651539,-0.799918841,22.46311164,0.197016975,-1.204617421,5.007842327,-1.4092372,1.592402572,0.1,-0.2670478,-0.013241728000000001,-0.0031546559999999996,1.0,11359740,1,0,0,0,0
11402107,-0.080205575,-0.054907823,0.007264736999999999,1.0,0.0,1502.0,1500.0,2000.0,1539.0,1460.0,1471.0,22.49598944,22.935628899999998,20.93030207,20.92371933,21.33291106,20.90902869,21.31792818,270.7909193,270.7909193,12.40201721,0.000546908,-0.006739581,0.004030205,0.012162863999999999,0.0066696030000000005,-0.11957863199999999,2.0,-1.0,0.0,11,0,0,1.0,0.0,0.0,0,0,0,0,0,0.0,0.097408619,-1.560264909,-1.569745792,-0.803218178,324.2578923,67.03837137,-0.006334285,-0.014886644,0.0,-0.004733092,3.9060952789999996,-0.247705755,-12.72854906,-340.26352,966.1589,12.40423663,0.19248910600000002,0.197516582,0.177999928,3.9385971389999996,-0.29268189899999997,-13.10766544,2294028,0.198497251,0.184623782,0.17197744,-340.26352,0.801050177,0.789050177,0.400600781,2.447181934,13.25460373,25.33074397,-0.24152278600000002,3.955320985,0.10999999,-58.40256892,399.6591912,12.40422456,96615.78302999999,1.147955346,-0.755888178,0.8847680659999999,1.347545514,0.19806535600000003,0.18462289199999998,0.146854538,0.0,0.113750879,1.6171399,0.68941624,-0.041115817,0.039253185,0.722130273,1.0,398714129.9,327366188.6,400164.846,22.60306161,-0.43442086399999996,22.60036921,-0.169805961,1.59015934,0,0,0.0,39.8714138,32.7364372,-0.30271543,15.9585144,0.16228816199999999,-0.808126875,22.66803282,0.133629602,-1.402680722,4.305792643,-2.222859019,1.594971889,0.1,-0.270077113,-0.0005096380000000001,-0.0031546559999999996,1.0,11402107,1,0,0,0,0
11440474,-0.080282187,-0.05607584400000001,0.000759899,1.0,0.0,1499.0,1500.0,2000.0,1540.0,1459.0,1472.537708,22.65739567,23.10016213,21.10412031,21.09658652,21.50920876,21.06704265,21.47908207,275.3352799,275.3352799,12.40175576,0.00055668,-0.006751424000000001,0.004060139,0.010563956000000001,0.007037076999999999,-0.119398601,2.0,-1.0,0.0,11,0,0,1.0,0.0,0.0,0,0,0,0,0,0.0,0.108976887,-1.5597140269999998,-1.5696358069999998,-0.840539868,325.25955780000004,67.08654717,-0.006525559,-0.015173121000000001,0.0,-0.005216263,3.450355235,-0.15654158699999998,-13.45820445,-340.26352,966.1531362,12.40412081,0.16955662800000001,0.218211159,0.184658625,3.360634466,-0.068980321,-13.88560697,2294028,0.178708967,0.20696883800000002,0.167235968,-340.26352,0.918748879,0.906748879,0.40060056299999997,2.594032601,13.25467945,25.17561348,-0.238418665,3.617780972,0.10999999,-60.102276100000005,399.63420460000003,12.40413148,96616.10415,1.1479591009999999,-0.631520691,0.583415903,0.254422529,0.177990905,0.22043800600000002,0.17629821699999998,0.0,0.125533615,1.6171399,0.689173542,-0.045369452000000005,0.043314122999999996,0.7218760040000001,1.0,398714128.0,327366300.5,400175.5161,22.81478203,-0.49377073299999996,22.81331366,-0.251668334,1.5926261519999998,0,0,0.0,39.8714138,32.7364372,-0.312349442,16.96628984,0.149771663,-0.85111395,22.81840527,-0.028732337,-1.741706288,3.6258470380000003,-3.096819245,1.602738173,0.1,-0.272789851,0.01163311,-0.0031546559999999996,1.0,11440474,1,0,0,0,0
11478841,-0.080637251,-0.05396258599999999,-0.004431427,1.0,0.0,1496.0,1500.0,2000.0,1540.0,1459.0,1473.0,22.79055237,23.23597088,21.27793856,21.26945371,21.68550646,21.22505661,21.64023595,279.87964039999997,279.87964039999997,12.40149431,0.000566452,-0.006763267,0.004090073,0.008965048,0.007404551999999999,-0.11921857,2.0,-1.0,0.0,11,0,0,1.0,0.0,0.0,0,0,0,0,0,0.0,0.120545155,-1.559163146,-1.569525822,-0.877861558,326.2612233,67.13472297,-0.006716414,-0.015452763999999999,0.0,-0.005747628,2.997085198,-0.06532745,-14.18627963,-340.26352,966.1473007999999,12.40400418,0.152871908,0.22342173899999998,0.164418406,2.988386263,0.048124615,-14.44691051,2294028,0.158870542,0.22899118,0.161742827,-340.26352,1.041440234,1.029440234,0.400600137,2.737323889,13.25476032,25.01623696,-0.235229524,3.3305386539999997,0.10999999,-61.64639111,399.7660327,12.40396961,96614.56973999999,1.1479409459999999,0.00775102,-0.173034359,-0.215258052,0.165020848,0.23111434600000003,0.173408631,0.0,0.137397028,1.6171399,0.68890381,-0.049650535999999995,0.047401265,0.721593477,1.0,398714125.3,327366418.0,400199.6489,22.94168762,-0.589469868,22.93605821,-0.426423285,1.5966202390000002,0,0,0.0,39.8714138,32.7364372,-0.322024603,17.97523554,0.13709185,-0.894532856,22.96810043,-0.192323186,-2.0824821030000003,2.9461758860000002,-3.971528658,1.6105689840000001,0.1,-0.275526952,0.022344252000000002,-0.0031546559999999996,1.0,11478841,1,0,0,0,0
11517207,-0.082062418,-0.051302800999999995,-0.008265499,1.0,0.0,1494.45169,1500.0,2000.0,1540.0,1459.0,1472.45169,22.84420831,23.29072464,21.4517568,21.44232091,21.86180415,21.38307057,21.80138984,284.424001,284.424001,12.40123286,0.000576224,-0.00677511,0.004120007,0.00736614,0.007772027,-0.11903854,2.0,-1.0,0.0,11,0,0,1.0,0.0,0.0,0,0,0,0,0,0.0,0.132563849,-1.557996212,-1.569304099,-0.954384817,327.2584172,67.09703941,-0.006920016,-0.01574312,0.0,-0.006367151,2.641487035,-0.025963702999999998,-14.55562209,-246.0826213,966.1459384999999,12.40380611,0.149296441,0.220174478,0.128204431,2.626247233,0.022190123,-14.78856539,2294028,0.139490976,0.224502498,0.13406785599999999,-246.0826213,1.16413159,1.15213159,0.40059971,2.8806151769999997,13.25484118,24.85686045,-0.232040382,3.043296335,0.10999999,-63.19050611,399.7205151,12.40375663,96615.07642,1.1479469709999999,-0.108551406,0.921861096,-0.343381328,0.14189987699999998,0.23903781600000001,0.135136396,0.0,0.149341907,1.6171399,0.68860822,-0.053959281,0.051514816,0.7212838709999999,1.0,398714122.6,327366535.6,400223.7818,23.06859321,-0.685169004,23.05880276,-0.601178236,1.600614325,0,0,0.0,39.8714138,32.7364372,-0.33664791,18.94284271,0.113205112,-0.9550765790000001,23.07556189,-0.380482263,-2.272524747,2.402203038,-4.477483511,1.617084797,0.102389731,-0.27747558,0.037309313,-0.0031546559999999996,1.0,11517207,1,0,0,0,0
11559574,-0.08081260000000001,-0.053278415,-0.011128423,1.0,0.0,1494.0,1500.0,2000.0,1540.0,1459.0,1474.0,22.97706158,23.42611868,21.62557504,21.6151881,22.03810185,21.54108453,21.96254372,288.96836160000004,288.96836160000004,12.40097141,0.000585996,-0.006786954,0.004149942,0.005767232,0.008139501,-0.118858509,2.0,-1.0,0.0,11,0,0,1.0,0.0,0.0,0,0,0,0,0,0.0,0.14495692300000002,-1.556317234,-1.568989501,-1.063491198,328.2518943,66.98799223,-0.007095154,-0.015972433,0.0,-0.006928022,2.343321397,-0.017088761,-14.71402434,-96.52194309,966.1472064999999,12.40356014,0.118025235,0.21442444,0.07797309,2.301291913,0.035325073,-14.98612701,2294028,0.120381227,0.204424936,0.093349636,-96.52194309,1.286822945,1.274822945,0.400599284,3.023906466,13.25492205,24.69748393,-0.228851241,2.756054017,0.10999999,-64.73462111,399.73693619999995,12.40348277,96614.9101,1.147945012,-0.909422343,-0.480549195,-0.468814348,0.123034671,0.227853164,0.09344665699999999,0.0,0.161368803,1.6171399,0.688286216,-0.058295703,0.055654788,0.720946605,1.0,398714119.9,327366653.1,400247.9146,23.195498800000003,-0.78086814,23.18154731,-0.775933187,1.604608412,0,0,0.0,39.8714138,32.7364372,-0.354180802,19.8861422,0.082728535,-1.025689949,23.1581893,-0.583087826,-2.373934029,1.938022825,-4.766605159,1.622827372,0.10618466,-0.279600032,0.042260177999999995,-0.0031546559999999996,1.0,11559574,1,0,0,0,0
11601941,-0.080690042,-0.04997711,-0.012342528,1.0,0.0,1493.0,1500.0,2000.0,1540.0,1459.0,1475.365673,22.99736736,23.44686183,21.79939329,21.78805529,22.21439955,21.69909849,22.12369761,293.5127222,293.5127222,12.40070996,0.000595768,-0.006798797,0.004179876,0.004168324,0.008506976,-0.118678478,2.0,-1.0,0.0,11,0,0,1.0,0.0,0.0,0,0,0,0,0,0.0,0.157349997,-1.554638257,-1.568674904,-1.172597579,329.2453715,66.87894504,-0.007281883,-0.016202232,0.0,-0.007545232,2.082160584,-0.029910762,-14.73891126,12.40328606,966.1460294999999,12.40328606,0.103706509,0.186898802,0.042727493,2.028709615,0.050221879000000004,-14.75045039,2294028,0.103436766,0.18566652399999997,0.055406087,12.40328606,1.4095143,1.3975143,0.40059885700000003,3.1671977539999996,13.25500291,24.53810742,-0.2256621,2.468811698,0.10999999,-66.27873611,399.8081114,12.40315909,96614.10316,1.147935338,-0.057704147000000004,-1.17384877,-1.105676996,0.102339007,0.205384134,0.046683511,0.0,0.173477148,1.6171399,0.687937383,-0.062659409,0.059820806,0.720581192,1.0,398714117.2,327366770.7,400272.0474,23.32240439,-0.876567275,23.30429186,-0.950688138,1.608602499,0,0,0.0,39.8714138,32.7364372,-0.37498776799999994,20.85299271,0.045361215,-1.099749288,23.23232477,-0.788706923,-2.4322604230000002,1.518083975,-4.900056405,1.627570444,0.12411968599999999,-0.281415679,0.050371367,-0.0031546559999999996,1.0,11601941,1,0,0,0,0
11640308,-0.081566357,-0.046284045,-0.012359361000000001,1.0,0.0,1493.0,1500.0,2000.0,1540.0,1459.0,1476.354671,23.10594946,23.55759723,21.97321153,21.96092248,22.39069725,21.85711246,22.28485149,298.05708280000005,298.05708280000005,12.40044852,0.00060554,-0.00681064,0.00420981,0.002569416,0.00887445,-0.118498448,2.0,-1.0,0.0,11,0,0,1.0,0.0,0.0,0,0,0,0,0,0.0,0.16974307100000002,-1.552959279,-1.5683603069999998,-1.28170396,330.2388486,66.76989786,-0.007469179,-0.016416695,0.0,-0.008153475,1.920193263,-0.10089262199999999,-14.40590289,12.40293661,966.1382983999999,12.40293661,0.099119048,0.17173102,0.011941735,1.970658927,0.047294786,-14.45900982,2294028,0.092296482,0.170444165,0.024900196,12.40293661,1.556046192,1.5440461730000001,0.40059958700000003,3.301485088,13.25508781,24.38776378,-0.222653527,2.252810928,0.10999999,-67.60571186,399.9186544,12.40280547,96612.80828,1.147920035,-0.17679246899999998,-0.07271285599999999,-1.152538147,0.094960984,0.188212075,0.003267779,0.0,0.185671456,1.6171399,0.6875592070000001,-0.067051649,0.064014068,0.720185095,1.0,398714113.5,327366886.7,400316.8596,23.404997,-0.9802199970000001,23.38272366,-1.124306861,1.6128940619999999,0,0,0.0,39.8714138,32.7364372,-0.40457107200000003,21.88297301,-0.010477127,-1.183045738,23.28369714,-1.002403967,-2.375100745,1.2167365559999999,-4.616224495,1.6296342959999999,0.179958029,-0.283192031,0.063577705,-0.0031546559999999996,1.0,11640308,1,0,0,0,0
