,timestamp,control[0],control[1],control[2],control[3],control[4],output[2],output[3],output[4],output[5],output[6],output[7],indicated_airspeed_m_s,true_airspeed_m_s,air_temperature_celsius,indicated_airspeed_m_s.1,equivalent_airspeed_m_s,true_airspeed_m_s.1,equivalent_ground_minus_wind_m_s,true_ground_minus_wind_m_s,differential_pressure_raw_pa,differential_pressure_filtered_pa,temperature,gyro_bias[0],gyro_bias[1],gyro_bias[2],accel_bias[0],accel_bias[1],accel_bias[2],instance_count,seq_reached,seq_current,seq_total,item_changed_index,item_do_jump_remaining,valid,warning,finished,failure,stay_in_failsafe,flight_termination,item_do_jump_changed,execution_mode,nav_roll,nav_pitch,nav_bearing,target_bearing,xtrack_error,wp_dist,acceptance_radius,rollspeed_integ,pitchspeed_integ,yawspeed_integ,additional_integ1,x,y,z,temperature.1,pressure,temperature.2,gyro_rad[0],gyro_rad[1],gyro_rad[2],accelerometer_m_s2[0],accelerometer_m_s2[1],accelerometer_m_s2[2],x.1,y.1,z.1,temperature.3,altitude_sp,altitude_filtered,height_rate_setpoint,height_rate,airspeed_sp,airspeed_filtered,airspeed_derivative_sp,airspeed_derivative,throttle_integ,pitch_integ,baro_alt_meter,baro_temp_celcius,baro_pressure_pa,rho,xyz[0],xyz[1],xyz[2],xyz[0].1,xyz[1].1,xyz[2].1,roll_body,pitch_body,yaw_body,q_d[0],q_d[1],q_d[2],q_d[3],thrust_body[0],lat,lon,alt,vel_m_s,vel_n_m_s,vel_e_m_s,vel_d_m_s,cog_rad,ground_contact,maybe_landed,landed,ref_timestamp,ref_lat,ref_lon,x.2,y.2,z.2,vx,vy,vz,ax,ay,az,dist_bottom,roll,pitch,yaw,thrust_body[0].1,timestamp.1,isTakeoff,isClimbing,isDescending,isCruise,isLand
0,17004000,0.030550681,0.022802366,-0.0054211630000000005,0.15,0.0,900.0,900.0,900.0,900.0,900.0,900.0,-0.9104252,-0.92822003,12.404602,2.1199784,2.1199784,2.1614148999999996,0.017836163000000002,0.018184783,-0.50768536,-0.50768536,12.404602,-0.0013099189999999999,-0.005995154,0.001351315,0.0074481090000000005,0.002061199,-0.13097872,2.0,-1.0,0.0,11,0,0,1,0,0.0,0,0,0,0,0,0.0,-0.21463214,-2.1518862000000003,-2.2198447999999997,-4.628144,267.71826,54.35934399999999,-0.000595754,-0.005478074,0.0,-0.00315549,0.002074199,0.13180372,-9.8866625,-5.32e+20,966.1697,12.404602,-0.00105139,-0.00722827,-0.00456394,-0.18400937,0.1651815,-9.881439,-0.00044649800000000003,-0.007482907,0.005402242,-5.32e+20,-0.07487635,-0.086876355,0.40060008,-0.25882685,13.254067000000001,18.128925,-0.09749716,18.815306,0.10999999,-19.249914,399.5596,12.404602,96616.97,1.1479694,-0.21554455,-0.12937921,-0.2580495,-0.0014571679999999998,0.005326035,-0.0012477789999999999,0.0,-0.19640963,1.5995768,0.6935009,0.07032019,-0.06832491,0.71375304,1.0,398714138.0,327364368.0,400129.0,0.0,-0.01,-0.01,0.0,4.116708,0,0,1.0,764000,39.8714138,32.7364368,0.005086632,0.002754522,-0.040557987999999996,0.010028364,0.002099646,0.014033304,-0.028869266,0.030902022,-0.03529526,0.1,-0.0559025,-0.33916706,-0.007246491999999999,1.0,17004000,1,0,0,0,0
1,17040138,0.026689741,0.022724914,-0.005233747,0.15,0.0,900.0,900.0,900.0,900.0,900.0,900.0,0.341712205,0.34839144899999996,12.404602,2.7202877119999997,2.72025912,2.7734192460000004,0.699390787,0.713051498,7.714610186,7.714610186,12.40459874,-0.00129982,-0.006004303000000001,0.0013987079999999998,0.007408382,0.0021567170000000003,-0.130966317,2.0,-1.0,0.0,11,0,0,1,0,0.0,0,0,0,0,0,0.0,-0.20342794100000003,-2.14529583,-2.218094699,-5.121989296000001,268.32473799999997,55.14208495,-0.000790503,-0.005953303,0.0,-0.00358685,-0.034811121,0.154052732,-9.891754863,-5.32e+20,966.1659947999999,12.404602,0.006536819,-0.004094215,0.000632911,-0.086375374,0.198171353,-10.01405993,-0.002047565,-0.009133905,0.000474975,-5.32e+20,-0.08043027400000001,-0.092430279,0.40060008,-0.263708498,13.25405661,18.91731364,-0.113265139,18.22699933,0.10999999,-19.86165219,399.6558825,12.404602,96615.83177,1.1479558890000001,-0.077324895,-0.11643284599999999,0.135941935,0.003552386,0.0050911490000000005,-0.0014516529999999998,0.0,-0.18367859,1.5995768,0.693920179,0.065775239,-0.063908917,0.714184578,1.0,398714138.0,327364368.0,400126.902,0.0,-0.0065033009999999995,-0.01,0.005245049,4.337632664,0,0,0.9641928390000001,764000,39.8714138,32.7364368,0.00497735,0.0027179659999999996,-0.039336086,0.010137183000000001,0.001657662,0.014664211000000002,-0.046464507,0.033542192,-0.007829236,0.1,-0.071369634,-0.32025544899999997,-0.007246491999999999,1.0,17040138,1,0,0,0,0
2,17072277,0.032720083,0.023052965,-0.0051257740000000005,0.15,0.0,900.0,900.0,900.0,900.0,900.0,900.0,-1.211887489,-1.235569841,12.404602,3.3205970239999996,3.320539839,3.385423593,1.38094541,1.4079182140000002,15.93690573,15.93690573,12.40459548,-0.0012897219999999999,-0.0060134509999999995,0.001446102,0.0073686540000000005,0.002252234,-0.130953915,2.0,-1.0,0.0,11,0,0,1,0,0.0,0,0,0,0,0,0.0,-0.192223741,-2.138705461,-2.216344598,-5.615834592000001,268.931216,55.924825899999995,-0.001013927,-0.006409191999999999,0.0,-0.003934468,-0.071696441,0.176301743,-9.896847226,-5.32e+20,966.1622896,12.404602,-0.006593858,-0.00966117,-0.0033910809999999998,-0.15896575,0.181431553,-9.906264643,-0.003648632,-0.010784901999999999,-0.004452291,-5.32e+20,-0.08598419800000001,-0.097984203,0.40060008,-0.26859014600000003,13.25404623,19.70570228,-0.129033117,17.63869266,0.10999999,-20.47339038,399.584943,12.404602,96616.64261,1.147965547,-0.669546085,-0.09347067699999999,-0.27705800399999997,-0.003260433,0.00334642,-0.003183975,0.0,-0.171374749,1.5995768,0.694301515,0.061380534,-0.059638912,0.714577041,1.0,398714138.0,327364368.0,400124.804,0.0,-0.003006601,-0.01,0.010490098,4.558557328,0,0,0.9283856770000001,764000,39.8714138,32.7364368,0.004868068,0.002681411,-0.038114184,0.010246001999999999,0.001215678,0.015295116999999999,-0.064059748,0.036182362,0.019636788999999998,0.1,-0.087976555,-0.28496421899999996,-0.007246491999999999,1.0,17072277,1,0,0,0,0
3,17104415,0.031368584,0.022936077000000003,-0.005481545,0.15,0.0,900.0,900.0,900.0,900.0,900.0,900.0,-0.23080741300000002,-0.235319919,12.404602,3.9209063360000003,3.9208205589999996,3.9974279389999996,2.062500034,2.1027849290000002,24.15920128,24.15920128,12.40459223,-0.0012796230000000001,-0.0060226,0.001493495,0.007328927,0.0023477520000000003,-0.13094151199999998,2.0,-1.0,0.0,11,0,0,1,0,0.0,0,0,0,0,0,0.0,-0.181019542,-2.1321150909999997,-2.214594496,-6.109679888,269.537694,56.70756685,-0.001246886,-0.006805561999999999,0.0,-0.004131477,-0.106198493,0.19478415,-9.899714256000001,-4.95e+20,966.1593592,12.404602,-0.004173713,-0.005799251,0.000737134,-0.144436066,0.205027467,-9.953309037999999,-0.0051752529999999995,-0.011872558,-0.007819752,-4.95e+20,-0.09153812199999999,-0.103538127,0.40060008,-0.273471795,13.25403584,20.49409091,-0.144801096,17.05038599,0.10999999,-21.08512856,399.60343489999997,12.404602,96616.4453,1.147963173,0.116163915,0.465286408,0.199501554,-0.002597931,0.00573962,-0.001402708,0.0,-0.159562437,1.5995768,0.694640549,0.057158989,-0.055537152,0.714926018,1.0,398714138.0,327364368.0,400122.7059,0.0,0.000490098,-0.01,0.015735146999999998,4.779481991,0,0,0.8925785159999999,764000,39.8714138,32.7364368,0.00474215,0.002610359,-0.03703135,0.010294540999999999,0.0006971639999999999,0.015868313000000002,-0.07624693099999999,0.030976286000000002,0.046346320999999996,0.1,-0.10368765199999999,-0.267065836,-0.007246491999999999,1.0,17104415,1,0,0,0,0
4,17136554,0.030105165,0.022765953999999998,-0.00526999,0.15,0.0,900.0,900.0,900.0,900.0,900.0,900.0,-0.5458797879999999,-0.55654432,12.404602,4.521215648,4.521101278,4.6094322860000005,2.744054657,2.797651645,32.38149682,32.38149682,12.40458897,-0.001269524,-0.006031748000000001,0.001540889,0.0072891990000000005,0.002443269,-0.13092910900000002,2.0,-1.0,0.0,11,0,0,1,0,0.0,0,0,0,0,0,0.0,-0.169815343,-2.125524721,-2.212844395,-6.6035251829999995,270.14417189999995,57.4903078,-0.001474004,-0.007139981,0.0,-0.004192225999999999,-0.13074485800000002,0.19753222399999998,-9.893285341,-3.06e+20,966.1596655999999,12.404602,-0.00025502099999999997,-0.006077577,0.0058929690000000005,-0.154533926,0.18385717899999998,-9.871464412,-0.006390892,-0.010606952,-0.004671393,-3.06e+20,-0.097092046,-0.109092051,0.40060008,-0.27835344300000003,13.25402546,21.28247955,-0.160569075,16.46207932,0.10999999,-21.69686675,399.5590998,12.404602,96616.94585,1.147969069,-0.7533794779999999,0.17251463,0.166539045,0.000487876,0.006790199,-0.0032310359999999996,0.0,-0.14809904699999998,1.5995768,0.6949483759999999,0.053060406,-0.05155486,0.715242811,1.0,398714138.0,327364368.0,400120.6079,0.0,0.003986797,-0.01,0.020980196,5.000406655,0,0,0.856771354,764000,39.8714138,32.7364368,0.004546737,0.002395202,-0.036529451,0.010091275,-0.000141039,0.016200434,-0.065842892,-0.007006118,0.06989574,0.1,-0.118166631,-0.235979826,-0.007246491999999999,1.0,17136554,1,0,0,0,0
5,17173384,0.027603042999999997,0.023083179,-0.005841138,0.15,0.0,900.0,900.0,900.0,900.0,900.0,900.0,0.308001163,0.31402040800000003,12.404602,5.12152496,5.121381998,5.221436632,3.4256092810000003,3.49251836,40.60379237,40.60379237,12.40458571,-0.001259425,-0.006040897,0.001588282,0.007249472,0.0025387870000000002,-0.130916707,2.0,-1.0,0.0,11,0,0,1,0,0.0,0,0,0,0,0,0.0,-0.158611144,-2.1189343519999997,-2.211094294,-7.097370478999999,270.7506499,58.27304875,-0.001692677,-0.007439091,0.0,-0.0041250290000000005,-0.15529122199999998,0.200280297,-9.886856426,-1.16e+20,966.159972,12.404602,0.000807509,-0.0022230170000000003,0.002081837,-0.201752285,0.171873527,-9.975421475,-0.00760653,-0.009341346,-0.001523034,-1.16e+20,-0.10264597,-0.114645975,0.40060008,-0.283235091,13.25401507,22.07086819,-0.176337054,15.87377265,0.10999999,-22.30860494,399.64206260000003,12.404602,96616.00127000001,1.147957887,0.262578856,0.224177947,-0.123951029,0.004813426,0.0057780190000000006,0.000288293,0.0,-0.13696846599999998,1.5995768,0.695223797,0.049079022,-0.047686444,0.715526268,1.0,398714138.0,327364368.0,400118.5099,0.0,0.0074834969999999995,-0.01,0.026225245,5.221331319,0,0,0.820964193,764000,39.8714138,32.7364368,0.004351325,0.002180046,-0.036027552000000004,0.009888009,-0.000979242,0.016532553999999998,-0.055438852999999996,-0.044988522,0.09344515800000001,0.1,-0.13147221,-0.222597835,-0.007246491999999999,1.0,17173384,1,0,0,0,0
6,17208831,0.028387642999999997,0.022989363,-0.005680096999999999,0.15,0.0,900.0,900.0,900.0,900.0,900.0,900.0,-0.643609686,-0.656186418,12.404602,5.721834272000001,5.721662717,5.833440979,4.107163904,4.187385076,48.82608792,48.82608792,12.40458245,-0.001249327,-0.006050045,0.001635676,0.007209744000000001,0.002634304,-0.130904304,2.0,-1.0,0.0,11,0,0,1,0,0.0,0,0,0,0,0,0.0,-0.147406944,-2.112343982,-2.209344193,-7.591215775,271.35712789999997,59.0557897,-0.0019058089999999998,-0.007733409,0.0,-0.003966947,-0.158815972,0.191340596,-9.900079208,-7.32e+19,966.1629648,12.404602,-0.0058530330000000005,0.0016755160000000002,0.0041382120000000005,-0.149526775,0.193535135,-9.962377726,-0.008267277,-0.007141978,-0.000425934,-7.32e+19,-0.107512285,-0.11951229,0.400600095,-0.283864563,13.25400474,22.73267681,-0.18957343100000001,15.28475418,0.10999999,-23.10619261,399.5270731,12.404602,96617.30794,1.1479734590000001,-0.13266609,-0.301214837,-0.122469514,0.003055185,0.005458826999999999,-0.001374031,0.0,-0.126090141,1.5995768,0.695473509,0.045186488,-0.043904356,0.71578325,1.0,398714138.0,327364368.6,400117.2941,0.160262052,0.01,0.15026205199999998,0.028529706000000002,5.193433801,0,0,0.7851570309999999,764000,39.8714138,32.7364368,0.0039601540000000005,0.010813303,-0.035449344,-0.00014847,0.348802406,0.023360965,-0.247480979,7.0930942660000005,0.22306246300000002,0.1,-0.14369293800000002,-0.199902967,-0.007246491999999999,1.0,17208831,1,0,0,0,0
7,17240969,0.028893277000000002,0.023414335,-0.0037811579999999997,0.113662733,0.0,900.0,900.0,900.0,900.0,900.0,900.0,1.0407924929999999,1.061124486,12.404602,6.322143584,6.321943437000001,6.445445325,4.788718528,4.882251791,57.04838346,57.04838346,12.40457919,-0.001239228,-0.006059194,0.001683069,0.007170017,0.0027298220000000002,-0.130891901,2.0,-1.0,0.0,11,0,0,1,0,0.0,0,0,0,0,0,0.0,-0.136202745,-2.105753613,-2.207594091,-8.085061071,271.9636059,59.83853065,-0.002114823,-0.008034064,0.0,-0.0037469,-0.128944466,0.163832964,-9.944521909,-2.63e+20,966.1702257000001,12.404602,-0.001412158,-0.009937345,0.004373762,-0.16330292400000002,0.16118902599999999,-9.934733684,-0.008046491,-0.003459177,-0.002587595,-2.63e+20,-0.110912842,-0.122912848,0.40060014,-0.275429786,13.25399453,23.12465828,-0.197413265,14.69421838,0.10999999,-24.29995055,399.5851318,12.404602,96616.67945,1.14796595,-0.148134968,-0.6854469440000001,0.153543572,-0.000892639,-0.000877328,-0.002285062,0.0,-0.115466414,1.5995768,0.69569645,0.041383701,-0.040209472,0.716012718,1.0,398714138.0,327364370.9,400118.3431,0.731972394,0.01,0.721972394,0.023284657,4.526723418,0,0,0.74934987,764000,39.8714138,32.7364368,0.00325799,0.033503705,-0.034749907000000003,-0.025806608999999998,1.255600764,0.040509791,-0.761141796,25.63152481,0.5211858739999999,0.1,-0.153914901,-0.181430034,-0.007246491999999999,1.0,17240969,1,0,0,0,0
8,17273107,0.020853477,0.022876139,0.001502848,1.0,0.0,1070.59792,1070.314063,1212.242448,1067.191638,1073.1526310000002,1073.436487,1.708168067,1.741542937,12.404602,6.922452896,6.922224156,7.0574496710000005,5.470273151000001,5.577118507000001,65.27067901,65.27067901,12.40457594,-0.001229129,-0.006068341999999999,0.001730462,0.007130289000000001,0.00282534,-0.130879499,2.0,-1.0,0.0,11,0,0,1,0,0.0,0,0,0,0,0,0.0,-0.124998546,-2.099163243,-2.20584399,-8.578906367,272.5700839,60.6212716,-0.00232082,-0.008317556,0.0,-0.003549375,-0.09907296,0.136325332,-9.988964611,-4.52e+20,966.1774865,12.404602,-0.0019319810000000001,-0.006141537,-0.00149736,-0.212485645,0.152647335,-9.918724841,-0.007825705,0.000223623,-0.004749255,-4.52e+20,-0.1143134,-0.126313407,0.400600186,-0.26699501,13.25398432,23.51663975,-0.205253099,14.10368257,0.10999999,-25.49370848,399.47598839999995,12.404602,96617.88526,1.147980378,0.24339205100000003,0.038401248,-0.427256215,0.001555166,0.0049240759999999995,-0.005144436,0.0,-0.105029434,1.5995768,0.69589717,0.037646669,-0.036578476,0.7162193170000001,1.0,398714138.0,327364373.2,400119.3921,1.303682737,0.01,1.2936827370000001,0.018039608000000002,3.860013035,0,0,0.713542709,764000,39.8714138,32.7364368,0.002555826,0.056194105999999994,-0.034050471,-0.051464749000000004,2.162399122,0.057658617,-1.2748026140000002,44.16995535,0.819309284,0.1,-0.16457882,-0.167993069,-0.007246491999999999,1.0,17273107,1,0,0,0,0
9,17305246,0.020531116999999998,0.023041457,0.002241378,1.0,0.0,1500.0,1500.0,2000.0,1489.0,1510.0,1511.0,0.952107977,0.970710462,12.404602,7.522762208,7.522504876,7.669454018,6.151827775,6.2719852220000005,73.49297455,73.49297455,12.40457268,-0.001219031,-0.006077491,0.001777856,0.007090562,0.0029208570000000002,-0.130867096,2.0,-1.0,0.0,11,0,0,1,0,0.0,0,0,0,0,0,0.0,-0.11379434599999999,-2.092572873,-2.204093889,-9.072751663,273.17656189999997,61.40401255,-0.002525326,-0.00857097,0.0,-0.003439633,9.846916532,0.125474212,-9.989895269,-5.32e+20,966.1845099,12.404602,-0.0035875409999999996,-0.008708274,0.0035850920000000002,24.98464274,0.131053169,-9.930525943,-0.007104735,0.00017837400000000002,-0.005238601,-5.32e+20,-0.117713957,-0.129713965,0.40060023200000006,-0.258560234,13.25397411,23.90862121,-0.21309293199999998,13.51314677,0.10999999,-26.68746642,399.6407124,12.404602,96616.04211000001,1.1479583309999999,-0.21342076399999999,-0.23663800399999999,0.364141225,0.002826478,0.003462539,-0.003587165,0.0,-0.094771255,1.5995768,0.696075362,0.033972626,-0.033008678,0.716402674,1.0,398714138.0,327364375.5,400120.4411,1.875393079,0.01,1.865393079,0.012794558999999999,3.193302652,0,0,0.677735547,764000,39.8714138,32.7364368,-0.00079243,0.173534346,-0.03162051,-0.090501779,3.527834888,0.08292864400000001,-1.4287966069999998,49.57402356,0.925735282,0.1,-0.17366695899999998,-0.142331599,-0.007246491999999999,1.0,17305246,1,0,0,0,0
10,17337384,0.019385836,0.023365429,0.00348261,1.0,0.0,1501.0,1500.0,2000.0,1491.0,1508.0,1511.0,2.5486651019999997,2.598470002,12.404602,8.12307152,8.122785595,8.281458364,6.8333823979999995,6.966851938,81.71527009999998,81.71527009999998,12.40456942,-0.001208932,-0.0060866390000000005,0.001825249,0.007050834000000001,0.003016375,-0.130854693,2.0,-1.0,0.0,11,0,0,1,0,0.0,0,0,0,0,0,0.0,-0.10259014699999999,-2.085982504,-2.2023437880000003,-9.566596959,273.7830398,62.1867535,-0.002727428,-0.00881492,0.0,-0.0034330709999999998,26.98977848,0.126711977,-9.959245965,-5.32e+20,966.1913609999999,12.404602,0.0028313640000000003,-0.008558029,0.004664928,52.33493986,0.20993428,-9.846005776,-0.006020744000000001,-0.002572601,-0.004514222,-5.32e+20,-0.121114515,-0.133114524,0.400600278,-0.250125458,13.253963899999999,24.30060268,-0.220932766,12.92261097,0.10999999,-27.88122436,399.6215577,12.404602,96616.2228,1.147960608,0.079775105,0.22190706100000002,0.421456196,0.001537894,0.0033112790000000003,-5.8099999999999996e-05,0.0,-0.08465441300000001,1.5995768,0.696233625,0.030348346000000002,-0.029487236,0.716565627,1.0,398714138.0,327364377.7,400121.4901,2.447103421,0.01,2.4371034209999998,0.00754951,2.526592269,0,0,0.641928386,764000,39.8714138,32.7364368,-0.006061154,0.359569091,-0.027934577000000002,-0.139248876,5.2261383089999995,0.114092838,-1.321753341,45.4454974,0.8930320540000001,0.1,-0.18452777899999998,-0.136046924,-0.007246491999999999,1.0,17337384,1,0,0,0,0
11,17369523,0.021694637000000003,0.023264937000000003,0.004266945,1.0,0.0,1501.484697,1500.0,2000.0,1490.0,1509.0,1511.0,4.410177118,4.4963175689999995,12.404602,8.723380832,8.723066315,8.893462711,7.514937022000001,7.661718652999999,89.93756565,89.93756565,12.40456616,-0.001198833,-0.006095788,0.0018726429999999998,0.007011107,0.0031118920000000002,-0.130842291,2.0,-1.0,0.0,11,0,0,1,0,0.0,0,0,0,0,0,0.0,-0.09138594800000001,-2.079392134,-2.200593687,-10.06044225,274.3895178,62.96949445,-0.002931356,-0.009092888,0.0,-0.00352797,44.13264042,0.127949742,-9.928596662,-5.32e+20,966.1982121,12.404602,-0.002755467,-0.006700551,0.002579003,49.53002429,0.143952142,-9.813996112,-0.0049367529999999995,-0.005323575,-0.0037898429999999998,-5.32e+20,-0.12451507199999999,-0.13651508199999998,0.400600323,-0.24169068100000002,13.25395369,24.69258415,-0.228772599,12.33207517,0.10999999,-29.07498229,399.3946303,12.404602,96618.85886000001,1.147991837,0.013004626000000002,0.039639011,0.43807377799999997,0.001259344,0.006962866,-0.004710505,0.0,-0.074655675,1.5995768,0.6963722859999999,0.026765605,-0.026006151,0.716708265,1.0,398714138.0,327364380.0,400122.5391,3.0188137630000003,0.01,3.008813763,0.0023044610000000003,1.859881886,0,0,0.606121224,764000,39.8714138,32.7364368,-0.011329878,0.5456038360000001,-0.024248644,-0.18799597399999998,6.92444173,0.14525703199999998,-1.214710075,41.31697124,0.860328825,0.1,-0.194662282,-0.12320017,-0.007246491999999999,1.0,17369523,1,0,0,0,0
12,17401661,0.020873072,0.022965602,0.006073563000000001,1.0,0.0,1503.0,1500.0,2000.0,1489.0,1510.0,1511.0,5.771782599,5.88453173,12.404602,9.323690144,9.323347034,9.505467057,8.196491645,8.356585369,98.15986119,98.15986119,12.4045629,-0.0011887339999999999,-0.006104936,0.001920036,0.006971379000000001,0.00320741,-0.130829888,2.0,-1.0,0.0,11,0,0,1,0,0.0,0,0,0,0,0,0.0,-0.08018174900000001,-2.0728017640000003,-2.198843585,-10.55428755,274.9959958,63.752235399999996,-0.003134975,-0.009448640999999999,0.0,-0.003684058,45.1238755,0.159497263,-9.904832588,-5.32e+20,966.1896048000001,12.404602,-0.006571936,-0.009325584,0.002851308,45.31378881,0.23622672600000003,-9.886470686000001,-0.005368638,-0.005703903000000001,-0.0017611410000000001,-5.32e+20,-0.119902701,-0.13190271,0.40060031100000004,-0.15296073400000001,13.25395292,24.93865034,-0.23369393800000002,11.76778226,0.10999999,-30.47718815,399.5815695,12.404602,96616.68394,1.147966003,-0.217663633,-0.38773268899999996,0.317092302,0.0033860759999999996,0.007655573000000001,-0.000204031,0.0,-0.06476438400000001,1.5995768,0.6964923909999999,0.023220707,-0.022561837999999997,0.716831918,1.0,398714138.0,327364399.1,400123.196,4.060038008,0.009019804000000001,4.051018204,0.0,1.5672473340000002,0,0,0.570314063,764000,39.8714138,32.7364368,-0.018948791,0.827850285,-0.018837193000000002,-0.22574176699999998,8.257570991,0.17024547899999998,-1.11719626,38.06295212,0.782966665,0.1,-0.20301314199999998,-0.125811588,-0.007246491999999999,1.0,17401661,1,0,0,0,0
13,17433800,0.019874798,0.022899436000000002,0.0039779559999999995,1.0,0.0,1502.0,1500.0,2000.0,1489.336267,1509.663733,1511.0,7.349561882000001,7.493161722999999,12.404602,9.923999456,9.923627754,10.117471400000001,8.878046269,9.051452084,106.38215670000001,106.38215670000001,12.40455965,-0.001178636,-0.006114085,0.00196743,0.006931652,0.003302927,-0.130817485,2.0,-1.0,0.0,11,0,0,1,0,0.0,0,0,0,0,0,0.0,-0.068977549,-2.066211395,-2.1970934840000003,-11.04813285,275.6024738,64.53497635,-0.003337577,-0.009891325,0.0,-0.003870415,41.36117971,0.199965898,-9.883095054,-5.32e+20,966.1764477,12.404602,3.9500000000000005e-05,-0.006466263000000001,-0.0030768540000000004,41.65090041,0.18888876699999999,-9.89118745,-0.006246693,-0.0053864740000000005,0.000651464,-5.32e+20,-0.110756323,-0.12275633,0.400600265,-0.018796863,13.2539575,25.10215237,-0.23696388699999998,11.21833853,0.10999999,-31.99734141,399.5639753,12.404602,96616.88187000001,1.147968358,0.138576222,-0.19430846,-0.231377375,0.002240446,0.008849059,-0.0016907489999999999,0.0,-0.054957139,1.5995768,0.696594756,0.019705371,-0.019146246999999998,0.716937253,1.0,398714138.0,327364431.5,400123.5457,5.469207842,0.007271454,5.461936387000001,0.0,1.5677660869999999,0,0,0.534506901,764000,39.8714138,32.7364368,-0.027259437,1.138414859,-0.012917868,-0.26024953100000003,9.483218032,0.193416211,-1.022487261,35.06632788,0.6924599779999999,0.1,-0.210576453,-0.117553974,-0.007246491999999999,1.0,17433800,1,0,0,0,0
14,17469938,0.019200911,0.023104187,0.003151254,1.0,0.0,1502.0,1500.0,2000.0,1490.0,1509.0,1511.0,8.585297809,8.752971182000001,12.404602,10.52430877,10.52390847,10.72947575,9.559600892,9.746318800000001,114.6044523,114.6044523,12.40455639,-0.0011685369999999999,-0.006123234,0.002014823,0.006891924000000001,0.003398445,-0.13080508300000002,2.0,-1.0,0.0,11,0,0,1,0,0.0,0,0,0,0,0,0.0,-0.05777335,-2.059621025,-2.195343383,-11.54197814,276.2089518,65.3177173,-0.003535801,-0.010387032,0.0,-0.004072371,37.59848392,0.240434532,-9.86135752,-5.32e+20,966.1632906,12.404602,-0.000804018,0.0063511159999999995,-0.00043932,38.05361698,0.236979875,-9.802706692000001,-0.007124748,-0.005069046,0.0030640690000000004,-5.32e+20,-0.10160994599999999,-0.113609951,0.400600219,0.115367007,13.25396208,25.2656544,-0.240233836,10.6688948,0.10999999,-33.51749468,399.5809628,12.404602,96616.68786,1.147966124,0.046824977999999996,-0.34618968299999997,-0.43775926200000004,0.000372516,0.012475411,-0.00189814,0.0,-0.045216964000000005,1.5995768,0.6966795659999999,0.016213599999999998,-0.015753552,0.717024584,1.0,398714138.0,327364463.8,400123.8954,6.878377676,0.005523105,6.872854571,0.0,1.56828484,0,0,0.49869974,764000,39.8714138,32.7364368,-0.035570084,1.448979433,-0.006998542,-0.294757295,10.70886507,0.216586943,-0.927778263,32.06970364,0.601953292,0.1,-0.218404879,-0.125005723,-0.007246491999999999,1.0,17469938,1,0,0,0,0
15,17506076,0.019971345,0.022421952999999998,0.0029921440000000004,1.0,0.0,1501.0,1500.0,2000.0,1488.0,1511.0,1511.0,9.768507943,9.959356282,12.404602,11.12461808,11.12418919,11.3414801,10.24115552,10.44118552,122.82674779999999,122.82674779999999,12.40455313,-0.0011584380000000001,-0.006132382,0.0020622170000000003,0.006852196999999999,0.003493962,-0.13079268,2.0,-1.0,0.0,11,0,0,1,0,0.0,0,0,0,0,0,0.0,-0.048268976,-2.052235655,-2.193644489,-12.04834195,276.8338334,65.51018945,-0.0037292379999999997,-0.010909593,0.0,-0.004269463,34.75884149,0.251418248,-9.86446313,-5.32e+20,966.1691399,12.404602,-0.005056604,-0.000494083,-0.003826784,34.99071685,0.16347515,-9.802734258,-0.004433446,-0.004472288,0.0034915259999999996,-5.32e+20,-0.09246356800000001,-0.10446357199999999,0.40060017299999995,0.249530878,13.25396665,25.42915643,-0.243503785,10.11945107,0.10999999,-35.03764794,399.48116960000004,12.404602,96617.8722,1.147980232,-0.11659616,0.21736564,-0.175160603,0.0032189909999999996,0.0055466759999999995,-0.011303186000000002,0.0,-0.035528815,1.5995768,0.696747951,0.012740109,-0.012378618000000001,0.717094945,1.0,398714138.0,327364496.2,400124.245,8.28754751,0.003774755,8.283772755,0.0,1.5688035919999999,0,0,0.46289257899999997,764000,39.8714138,32.7364368,-0.046413178,1.897173183,0.001468575,-0.322280534,11.76392469,0.23483481,-0.823751888,29.62699923,0.508030732,0.1,-0.226567085,-0.121875093,-0.007246491999999999,1.0,17506076,1,0,0,0,0
16,17546215,0.021153400000000003,0.022803276,0.0037541809999999997,1.0,0.0,1501.0,1500.0,2000.0,1488.0,1511.0,1511.0,10.95659255,11.17057426,12.404602,11.72492739,11.72446991,11.95348444,10.92271014,11.13605223,131.04904340000002,131.04904340000002,12.40454987,-0.00114834,-0.0061415309999999996,0.00210961,0.006812469,0.00358948,-0.130780277,2.0,-1.0,0.0,11,0,0,1,0,0.0,0,0,0,0,0,0.0,-0.038999626,-2.044740365,-2.191952675,-12.55643661,277.4612597,65.62104888,-0.0039203879999999995,-0.011435456,0.0,-0.004460567,31.95193525,0.261356278,-9.868449805,-5.32e+20,966.1756632000001,12.404602,-0.0076071030000000005,-0.003844888,0.0007269910000000001,32.29273617,0.154386261,-9.919640275,-0.001615556,-0.0038656240000000002,0.0038485790000000004,-5.32e+20,-0.083317191,-0.09531719300000001,0.40060012799999994,0.383694749,13.25397123,25.59265845,-0.246773734,9.57000734,0.10999999,-36.55780120000001,399.50333989999996,12.404602,96617.62112000001,1.1479771090000002,0.110255029,0.319596221,0.154066331,0.001381732,0.008266869,0.0001656,0.0,-0.025877665,1.5995768,0.6967992890000001,0.009279573000000001,-0.009016271999999999,0.7171477759999999,1.0,398714138.0,327364528.5,400124.5947,9.696717343,0.002026405,9.694690937999999,0.0,1.569322345,0,0,0.427085417,764000,39.8714138,32.7364368,-0.057346086,2.350247969,0.01002605,-0.349556066,12.8129344,0.252908087,-0.7193950709999999,27.20393964,0.413987027,0.1,-0.231246895,-0.10964165599999999,-0.007246491999999999,1.0,17546215,1,0,0,0,0
17,17578353,0.019255803999999998,0.021153029,0.00249507,1.0,0.0,1501.0,1500.0,2000.0,1490.0,1509.0,1510.0,11.96772495,12.20148271,12.404602,12.3252367,12.32475063,12.56548879,11.60426476,11.83091895,139.2713389,139.2713389,12.40454661,-0.0011382410000000001,-0.006150679,0.002157003,0.006772741999999999,0.003684998,-0.130767875,2.0,-1.0,0.0,11,0,0,1,0,0.0,0,0,0,0,0,0.0,-0.029730276,-2.037245076,-2.190260861,-13.06453128,278.0886859,65.73190831,-0.004106969,-0.011930962,0.0,-0.0046397190000000005,29.24102569,0.259579908,-9.868921087,-5.32e+20,966.1802073999999,12.404602,-0.004265154,-0.007549659,0.004005661,29.31630984,0.219917272,-9.875693423,0.0007464310000000001,-0.003432249,0.004261737,-5.32e+20,-0.074170814,-0.086170814,0.400600082,0.517858619,13.25397581,25.75616048,-0.250043684,9.020563611,0.10999999,-38.07795447,399.47172620000003,12.404602,96617.95295,1.1479811009999998,0.457622785,-0.100574546,-0.180859783,0.001054019,0.00586715,-0.000257684,0.0,-0.016250036000000002,1.5995768,0.696835015,0.005827265999999999,-0.005661922,0.717184571,1.0,398714138.0,327364560.9,400124.9444,11.10588718,0.000278056,11.10560912,0.0,1.5698410980000002,0,0,0.391278256,764000,39.8714138,32.7364368,-0.068327027,2.811545979,0.018682893,-0.37353435700000004,13.81915801,0.269522083,-0.5855756999999999,24.95351747,0.30962835699999997,0.1,-0.235934802,-0.110439151,-0.007246491999999999,1.0,17578353,1,0,0,0,0
18,17614492,0.016839781,0.019894161,0.0026191079999999998,1.0,0.0,1501.0,1500.0,2000.0,1491.0,1508.0,1509.0,12.994375699999999,13.24818543,12.404602,12.92554602,12.92503135,13.17749314,12.28581939,12.52578566,147.49363449999998,147.49363449999998,12.40454336,-0.001128142,-0.006159828000000001,0.0022043970000000003,0.006733015,0.003780515,-0.13075547199999998,2.0,-1.0,0.0,11,0,0,1,0,0.0,0,0,0,0,0,0.0,-0.020460926,-2.029749786,-2.188569047,-13.57262594,278.71611210000003,65.84276775,-0.004289108,-0.012389345,0.0,-0.004806388,27.03825396,0.19579586899999998,-9.850784387000001,-5.32e+20,966.1742755000001,12.404602,-0.006352834,-0.0019507629999999999,0.001726254,26.70862998,0.149919475,-9.908675289,0.000695199,-0.0039161479999999995,0.004971875,-5.32e+20,-0.02823221,-0.04023221,0.400600124,0.6824113559999999,13.254001800000001,25.75422389,-0.250004432,8.512370947,0.10999999,-39.84852207,399.680461,12.404602,96615.55537999999,1.147952603,-0.729516388,0.630450658,-0.162744947,-0.004906962,0.012580655,-0.0049041779999999995,0.0,-0.006637004,1.5995768,0.69685376,0.002380051,-0.002312519,0.717203809,1.0,398714138.0,327364616.9,400125.4411,12.08279041,0.002940588,12.08426085,-0.00735147,1.5698209440000002,0,0,0.355471094,764000,39.8714138,32.7364368,-0.079562227,3.316371872,0.027865715,-0.380059408,14.59890254,0.278411681,-0.295802593,23.61691456,0.150669622,0.1,-0.24123641699999998,-0.099520581,-0.007246491999999999,1.0,17614492,1,0,0,0,0
19,17650630,0.018546642,0.019674651,0.002180802,1.0,0.0,1500.0,1500.0,2000.0,1491.0,1508.0,1509.0,13.90810688,14.17992786,12.404602,13.52585533,13.52531207,13.78949748,12.96737401,13.22065238,155.71593000000001,155.71593000000001,12.4045401,-0.001118043,-0.006168976,0.00225179,0.006693286999999999,0.003876033,-0.13074306900000002,2.0,-1.0,0.0,11,0,0,1,0,0.0,0,0,0,0,0,0.0,-0.011191576000000002,-2.022254496,-2.186877232,-14.080720600000001,279.34353839999994,65.95362718,-0.004467014,-0.012807636,0.0,-0.004963553,24.83548224,0.13201183,-9.832647686,-5.32e+20,966.1683436000001,12.404602,0.002346775,-0.0035293620000000003,0.006575236,24.86869969,0.122460734,-9.967047707,0.000643967,-0.0044000459999999995,0.0056820130000000005,-5.32e+20,0.019321236999999998,0.0073212369999999995,0.40060017,0.8482978870000001,13.25402873,25.74502605,-0.24981993600000002,8.005988827000001,0.10999999,-41.63008057,399.57709710000006,12.404602,96616.74986,1.147966813,0.266182995,0.069843136,-0.022687329,0.004433399,0.008581917,0.005307205,0.0,0.00297482,1.5995768,0.696857415,-0.001066782,0.001036513,0.717207556,1.0,398714138.0,327364677.4,400125.9656,12.97794527,0.006437287,12.98116423,-0.016093218,1.569698874,0,0,0.319663933,764000,39.8714138,32.7364368,-0.090797426,3.821197765,0.037048537,-0.386584459,15.37864707,0.28730127899999996,-0.006029486,22.28031165,-0.008289114,0.1,-0.24534473699999998,-0.097398265,-0.007246491999999999,1.0,17650630,1,0,0,0,0
20,17682769,0.011828718,0.015258691999999999,0.001450149,1.0,0.0,1500.0,1500.0,2000.0,1493.0,1506.0,1507.0,14.65030032,14.93653872,12.404602,14.12616464,14.12559279,14.40150183,13.64892863,13.91551909,163.9382256,163.9382256,12.40453684,-0.001107945,-0.006178125,0.002299184,0.00665356,0.00397155,-0.130730667,2.0,-1.0,0.0,11,0,0,1,0,0.0,0,0,0,0,0,0.0,-0.001922226,-2.014759207,-2.185185418,-14.58881527,279.9709646,66.06448661,-0.0046419,-0.013188878999999999,0.0,-0.005123067,22.92867659,0.015549733,-9.877706665,-4.65e+20,966.1636258,12.404602,0.001695615,-0.008316683,0.018086601,23.07410223,0.08738347099999999,-9.861284027,0.010049526999999999,-0.008967316999999999,0.037707815,-4.65e+20,0.066874684,0.05487468400000001,0.400600215,1.014184418,13.25405567,25.73582821,-0.249635441,7.499606708,0.10999999,-43.41163907,399.3882028,12.404602,96618.93675,1.147992851,0.341773606,-0.368344335,0.912738191,-0.001488199,0.001966814,0.016873829,0.0,0.012590185,1.5995768,0.696843758,-0.00451486,0.0043867540000000005,0.7171935629999999,1.0,398714138.0,327364737.9,400126.4901,13.87310012,0.009933987,13.87806761,-0.024834966,1.569576805,0,0,0.283856771,764000,39.8714138,32.7364368,-0.100590395,4.3671099060000005,0.046049388,-0.39107704,16.12975505,0.29065931899999997,0.041823186,20.865087399999997,-0.113826112,0.1,-0.249022044,-0.081747625,-0.007246491999999999,1.0,17682769,1,0,0,0,0
21,17718907,0.012956753,0.01554871,-0.000583514,1.0,0.0,1498.379876,1500.0,2000.0,1493.379876,1505.620124,1350.0,15.41462455,15.71557659,12.404602,14.72647395,14.72587351,15.01350618,14.33048326,14.61038581,172.16052109999998,172.16052109999998,12.40453358,-0.001097846,-0.006187273,0.0023465770000000003,0.006613831999999999,0.004067068,-0.130718264,2.0,-1.0,0.0,11,0,0,1,0,0.0,0,0,0,0,0,0.0,0.007347124,-2.007263917,-2.183493604,-15.09690993,280.5983908,66.17534604,-0.004816468,-0.013540217,0.0,-0.005301515,21.56659957,-0.197866875,-10.03907795,-2.76e+20,966.1611426000001,12.404602,0.009184403,-0.01223894,0.054545699,22.11417656,-0.736787868,-10.23179274,0.036860409,-0.021050078,0.12737042099999998,-2.76e+20,0.11442813,0.10242813,0.400600261,1.180070949,13.2540826,25.72663037,-0.249450945,6.9932245879999995,0.10999999,-45.19319758,399.5541925,12.404602,96617.03602999999,1.147970201,-0.24792936699999998,-0.094885897,0.842070422,0.013093153,0.0009966439999999999,0.071713043,0.0,0.022216722,1.5995768,0.696815317,-0.007966846999999999,0.0077407940000000005,0.717164227,1.0,398714138.0,327364798.4,400127.0146,14.76825498,0.013430686,14.77497099,-0.033576713,1.569454735,0,0,0.24804961,764000,39.8714138,32.7364368,-0.107728924,4.9886417110000005,0.054715318,-0.391828836,16.82815715,0.283836468,-0.35558121299999995,19.30515977,-0.12103985,0.1,-0.252159073,-0.077793524,-0.007246491999999999,1.0,17718907,1,0,0,0,0
22,17751045,0.008478253,-0.28620897,-0.008317096,1.0,0.0,1491.969394,1500.0,2000.0,1497.030606,1501.969394,1356.0,16.18832954,16.50462858,12.404602,15.32678326,15.32615423,15.62551052,15.01203788,15.30525252,180.38281669999998,180.38281669999998,12.40453032,-0.001087747,-0.006196421999999999,0.002393971,0.006574105,0.004162585,-0.130705861,2.0,-1.0,0.0,11,0,0,1,0,0.0,0,0,0,0,0,0.0,0.016616474,-1.9997686280000002,-2.18180179,-15.60500459,281.225817,66.28620547,-0.00498865,-0.013867215,0.0,-0.00550812,20.20452255,-0.41128348299999995,-10.20044923,-8.62e+19,966.1586594,12.404602,0.040651437,-0.033895036,0.188111353,20.58893861,-0.722403488,-10.37665718,0.063671292,-0.033132838,0.217033027,-8.62e+19,0.161981577,0.149981577,0.40060030700000004,1.34595748,13.25410953,25.71743253,-0.24926645,6.486842468,0.10999999,-46.97475608,399.6546258,12.404602,96615.84833,1.1479561409999999,1.489985324,-0.265928756,3.8892412889999997,0.051050383,-0.022596869,0.198485458,0.0,0.031866155,1.5995768,0.696769093,-0.011426843,0.011102615,0.7171166959999999,1.0,398714138.0,327364858.8,400127.5391,15.66340984,0.016927385,15.67187437,-0.042318460999999995,1.569332665,0,0,0.212242448,764000,39.8714138,32.7364368,-0.114867452,5.610173516000001,0.063381249,-0.39258063200000004,17.52655925,0.277013617,-0.752985612,17.74523214,-0.128253587,0.1,-0.25556985600000004,-0.062268042,-0.007246491999999999,1.0,17751045,1,0,0,0,0
23,17783184,-0.001310178,-0.23357120399999998,-0.023322673,1.0,0.0,1484.558912,1500.0,2000.0,1502.441088,1496.558912,1388.0,16.87034032,17.20000654,12.404602,15.92709258,15.92643495,16.23751487,15.6935925,16.00011924,188.6051122,188.6051122,12.40452706,-0.001077649,-0.00620557,0.002441364,0.006534376999999999,0.004258103,-0.130693459,2.0,-1.0,0.0,11,0,0,1,0,0.0,0,0,0,0,0,0.0,0.025885823999999998,-1.9922733380000002,-2.180109976,-16.11309926,281.85324330000003,66.3970649,-0.005158533,-0.014182291999999999,0.0,-0.005750909,18.87348062,-0.35863635899999996,-10.25520048,-1.03e+20,966.1620498999999,12.40459617,0.10203185099999999,-0.041821749,0.29468628199999997,18.95453411,-0.32071306,-10.18725561,0.109770231,-0.034144653999999997,0.25391887399999996,-1.03e+20,0.215447643,0.203447641,0.400600365,1.5008311619999999,13.25414242,25.68436857,-0.248604512,6.0259288820000005,0.10999999,-48.66867061,399.5800481,12.404602,96616.72912999999,1.147966588,0.977005365,-0.507859696,2.455869473,0.109936028,-0.02902821,0.294108084,0.0,0.041539552,1.5995768,0.6967081629999999,-0.014895192,0.014472553,0.717053965,1.0,398714138.0,327364921.3,400128.2757,16.52018506,0.017243448999999998,16.52997399,-0.051060209,1.569380836,0,0,0.176435287,764000,39.8714138,32.7364368,-0.12263163199999999,6.238126372000001,0.071120634,-0.41463349,18.12766032,0.270980734,-1.1391995670000001,16.37856206,-0.097040939,0.1,-0.258887101,-0.059753329,-0.007246491999999999,1.0,17783184,1,0,0,0,0
24,17815322,-0.012995058,-0.222844608,-0.038014702000000004,1.0,0.0,1476.14843,1500.0,2000.0,1510.0,1489.0,1393.0,17.513255899999997,17.85543272,12.40458158,16.52740189,16.52671567,16.84951921,16.37514713,16.69498595,196.82740769999998,196.82740769999998,12.40452381,-0.00106755,-0.0062147190000000005,0.0024887570000000003,0.00649465,0.004353620999999999,-0.130681056,2.0,-1.0,0.0,11,0,0,1,0,0.0,0,0,0,0,0,0.0,0.035155174,-1.9847780480000001,-2.178418162,-16.62119392,282.4806695,66.50792433,-0.005327523000000001,-0.014494403000000001,0.0,-0.006040042,17.56832791,-0.084041116,-10.2210102,-2.93e+20,966.1703403999999,12.40458548,0.16026619,-0.03244174,0.32191654,17.45092716,-0.082055802,-10.36457935,0.171959103,-0.025921182,0.246778795,-2.93e+20,0.28432529100000004,0.272325279,0.400600455,1.626999221,13.25419083,25.5890962,-0.246698095,5.683531638,0.10999999,-50.13413607,399.6608627,12.40458158,96615.78092,1.147955244,1.695850377,0.469635411,1.036085214,0.164046288,-0.01998675,0.318939647,0.0,0.0512481,1.5995768,0.696628768,-0.018375755,0.017854358,0.716972284,1.0,398714138.0,327364997.7,400130.5485,17.09888897,-0.0054850969999999995,17.10692939,-0.059801957,1.570662446,0,0,0.140628126,764000,39.8714138,32.7364368,-0.130917725,6.871435614,0.078087104,-0.454455514,18.64759368,0.26560683399999996,-1.516078548,15.173105800000002,-0.033773324,0.1,-0.262105378,-0.048566509,-0.007246491999999999,1.0,17815322,1,0,0,0,0
25,17851461,-0.02785395,-0.203966478,-0.050988927,1.0,0.0,1472.0,1500.0,2000.0,1517.262052,1481.737948,1402.0,17.97814804,18.32946556,12.404572,17.1277112,17.12699639,17.46152356,17.05670175,17.38985267,205.0497033,205.0497033,12.40452055,-0.001057451,-0.006223866999999999,0.002536151,0.006454921999999999,0.004449138,-0.130668653,2.0,-1.0,0.0,11,0,0,1,0,0.0,0,0,0,0,0,0.0,0.04442452400000001,-1.9772827590000002,-2.1767263480000003,-17.12928858,283.1080957,66.61878376,-0.00551389,-0.014834818,0.0,-0.006411261999999999,16.2631752,0.190554127,-10.18681991,-4.82e+20,966.1786308000001,12.4045748,0.21973123600000002,-0.020917337,0.295089216,16.59290122,0.11838714800000001,-10.24009903,0.234147975,-0.017697709,0.239638717,-4.82e+20,0.35320293799999997,0.34120291799999997,0.400600544,1.75316728,13.25423924,25.49382384,-0.244791678,5.341134394,0.10999999,-51.59960153,399.4940129,12.404572,96617.70427999999,1.147978146,2.190953107,0.165658386,-1.297257423,0.22841582100000002,-0.006291564,0.283020048,0.0,0.060990330999999995,1.5995768,0.6965343340000001,-0.021868005,0.021247517,0.7168750779999999,1.0,398714138.0,327365074.1,400132.8214,17.67759289,-0.028213642999999997,17.68388478,-0.068543705,1.571944056,0,0,0.104820964,764000,39.8714138,32.7364368,-0.139203818,7.504744857,0.08505357300000001,-0.49427753700000004,19.16752704,0.260232935,-1.892957529,13.96764954,0.029494291000000002,0.1,-0.265341439,-0.044230339,-0.007246491999999999,1.0,17851461,1,0,0,0,0
26,17887599,-0.036740716,-0.17454271,-0.057304622,1.0,0.0,1471.0,1500.0,2000.0,1520.672535,1478.327465,1416.0,18.52020543,18.88204902,12.40455172,17.72802051,17.72727711,18.07352791,17.73825637,18.08471939,213.27199879999998,213.27199879999998,12.40451729,-0.0010473519999999999,-0.006233016,0.002583544,0.006415195,0.004544655999999999,-0.130656251,2.0,-1.0,0.0,11,0,0,1,0,0.0,0,0,0,0,0,0.0,0.053693874,-1.9697874690000001,-2.175034534,-17.63738325,283.735522,66.72964319,-0.00566598,-0.015117202,0.0,-0.006759451,14.97504041,0.40356089799999995,-10.16355157,-5.32e+20,966.1760387,12.40455582,0.279463898,-0.003698705,0.20468376,15.38778707,0.279963772,-10.22206855,0.27666488300000003,-0.018969499,0.15923864199999999,-5.32e+20,0.42208058600000004,0.410080557,0.400600634,1.87933534,13.25428765,25.39855147,-0.24288526100000002,4.99873715,0.10999999,-53.06506699,399.45547450000004,12.40455172,96618.15097,1.147983473,1.925541841,0.864959329,-2.237905863,0.291560129,0.010641266000000002,0.18232606899999998,0.0,0.07077605099999999,1.5995768,0.696421237,-0.025375267000000003,0.024655265,0.716758674,1.0,398714138.0,327365150.5,400135.0942,18.25629681,-0.050942188,18.26084017,-0.077285452,1.573225666,0,0,0.069013803,764000,39.8714138,32.7364368,-0.14851703900000002,8.215919303,0.090754156,-0.5425249910000001,19.62737735,0.258123789,-1.89274449,12.75384084,0.113121049,0.1,-0.26837065,-0.031366668,-0.007246491999999999,1.0,17887599,1,0,0,0,0
27,17923738,-0.051135942000000004,-0.16081303800000002,-0.05744776,1.0,0.0,1472.0,1500.0,2000.0,1527.083017,1471.916983,1419.332066,19.03782588,19.40952877,12.4045367,18.32832982,18.32755783,18.68553225,18.419811,18.7795861,221.4942944,221.4942944,12.40451403,-0.001037254,-0.006242165,0.0026309379999999998,0.006375466999999999,0.004640173,-0.130643848,2.0,-1.0,0.0,11,0,0,1,0,0.0,0,0,0,0,0,0.0,0.062963224,-1.962292179,-2.17334272,-18.14547791,284.3629482,66.84050262,-0.005846703000000001,-0.015457155,0.0,-0.007219983,13.69293631,0.5947424020000001,-10.14415367,-5.32e+20,966.1695902,12.40453391,0.323447864,-0.00026958799999999997,0.090969607,14.18524759,0.8048237009999999,-10.21311406,0.312210586,-0.023606151000000002,0.052877231,-5.32e+20,0.49095823299999997,0.478958196,0.40060072399999996,2.005503399,13.25433606,25.30327911,-0.240978843,4.656339905,0.10999999,-54.53053245,399.51172280000003,12.4045367,96617.49432,1.147975706,1.128250415,-0.056400104000000006,-2.628852499,0.326464265,0.008685064000000001,0.085010665,0.0,0.080601253,1.5995768,0.6962923679999999,-0.028896124,0.028076221000000002,0.716626076,1.0,398714138.0,327365226.9,400137.3671,18.83500072,-0.073670734,18.83779556,-0.0860272,1.574507277,0,0,0.033206641,764000,39.8714138,32.7364368,-0.15819424599999998,8.954687045,0.096006143,-0.593758187,20.06593586,0.257171583,-1.7589003630000002,11.53707226,0.203962531,0.1,-0.271087118,-0.031769737,-0.007246491999999999,1.0,17923738,1,0,0,0,0
28,17963876,-0.064037172,-0.147254486,-0.051271584,1.0,0.0,1475.0,1500.0,2000.0,1532.493499,1466.506501,1426.0,19.501036300000003,19.88201985,12.404510499999999,18.92863914,18.92783855,19.2975366,19.10136562,19.47445282,229.71658990000003,229.71658990000003,12.40451077,-0.001027155,-0.0062513130000000005,0.002678331,0.00633574,0.004735690999999999,-0.130631445,2.0,-1.0,0.0,11,0,0,1,0,0.0,0,0,0,0,0,0.0,0.07223257400000001,-1.95479689,-2.171650906,-18.65357257,284.9903744,66.95136205,-0.006009136,-0.015765137,0.0,-0.00767988,12.41083221,0.785923906,-10.12475577,-5.32e+20,966.1631417000001,12.404511999999999,0.343587528,-0.031053705,-0.025515407,12.96028068,0.943722851,-10.19464336,0.347756289,-0.028242802,-0.053484181,-5.32e+20,0.559835881,0.547835834,0.40060081399999997,2.131671458,13.25438447,25.20800674,-0.239072426,4.3139426610000005,0.10999999,-55.99599791,399.5263417,12.404510499999999,96617.34307,1.147973839,0.311347608,-0.38644249700000005,-2.628784944,0.34477472200000003,-0.008764114,-0.004024506,0.0,0.09047735400000001,1.5995768,0.696144557,-0.032434463999999996,0.031514161,0.716473902,1.0,398714138.0,327365303.3,400139.6399,19.41370464,-0.09639928,19.41475095,-0.094768948,1.5757888869999999,0,0,0.0,764000,39.8714138,32.7364368,-0.167871453,9.693454787,0.101258129,-0.6449913829999999,20.50449437,0.25621937699999997,-1.625056235,10.32030367,0.294804012,0.1,-0.273230897,-0.018737507,-0.007246491999999999,1.0,17963876,1,0,0,0,0
29,18000014,-0.062494430999999996,-0.129500604,-0.04217886,1.0,0.0,1479.9039810000002,1500.0,2000.0,1531.0,1468.0,1435.0,19.94909903,20.33875855,12.40450702,19.11496237,19.11365616,19.48702231,19.2849218,19.66163286,233.6148171,233.6148171,12.404330400000001,-0.0010236989999999999,-0.006253759,0.002691926,0.00565811,0.004965046,-0.13058219,2.0,-1.0,0.0,11,0,0,1,0,0.0,0,0,0,0,0,0.0,0.08225344,-1.9455459130000001,-2.169842285,-19.2189949,285.63189439999996,66.91850014,-0.006167014,-0.016066543,0.0,-0.008160985,11.22907621,0.5421345000000001,-10.00706552,-5.32e+20,966.1633737,12.40449009,0.348407949,-0.038467317,-0.12258313400000001,11.63651925,0.7507942190000001,-10.10963379,0.34140159299999995,-0.039625624,-0.120762249,-5.32e+20,0.643797984,0.63179795,0.40060063700000004,2.264331065,13.25442647,25.09356489,-0.23678275,4.021556976,0.10999999,-57.35141722,399.7771792,12.40450702,96614.43229,1.1479392640000001,0.045011130999999996,-0.078952697,-2.082919812,0.35155495600000003,-0.026351989,-0.11227120199999999,0.0,0.100401542,1.5995768,0.6959801640000001,-0.035989289,0.034968122000000004,0.716304675,1.0,398714137.7,327365383.4,400142.3341,19.89340668,-0.124042809,19.89410882,-0.093680731,1.577180789,0,0,0.0,764000,39.8714138,32.7364368,-0.180529524,10.41177548,0.10656473699999999,-0.662138451,20.80897257,0.264919199,-1.244230798,9.292937534,0.324182288,0.1,-0.275125625,-0.014421257,-0.007246491999999999,1.0,18000014,1,0,0,0,0
30,18032153,-0.068084332,-0.12279412599999999,-0.032625296,1.0,0.0,1484.3144630000002,1500.0,2000.0,1534.0,1465.0,1441.0,20.24147177,20.63708195,12.40448,19.26318873,19.26133299,19.63762595,19.42264989,19.80209327,237.11512390000001,237.11512390000001,12.40413372,-0.0010208539999999999,-0.006255588,0.0027024109999999996,0.004921778,0.0052067170000000005,-0.130529543,2.0,-1.0,0.0,11,0,0,1,0,0.0,0,0,0,0,0,0.0,0.092515464,-1.935731545,-2.167996181,-19.80281341,286.2779369,66.8395187,-0.006331646,-0.016373856000000003,0.0,-0.008696094,10.05469963,0.266358082,-9.882147024,-5.32e+20,966.1640969,12.40446818,0.34958865299999997,-0.06083492,-0.186667855,10.60359818,0.580752839,-9.987876114,0.331965613,-0.051504547000000005,-0.185166196,-5.32e+20,0.737960052,0.725960045,0.400600279,2.401380195,13.25446415,24.96616082,-0.23423391899999998,3.76298863,0.10999999,-58.63242436,399.62717810000004,12.40448,96616.17131,1.1479599440000001,-0.258140865,-0.22101587399999997,-2.101995413,0.35118453,-0.041836202999999995,-0.178710603,0.0,0.110382823,1.5995768,0.6957964809999999,-0.039563614,0.038441027,0.716115665,1.0,398714137.0,327365469.1,400145.6559,20.22559312,-0.159009802,20.22804361,-0.077945585,1.57873703,0,0,0.0,764000,39.8714138,32.7364368,-0.193406802,11.12859253,0.11187536,-0.6767788840000001,21.10359072,0.274328814,-0.8452427809999999,8.279499725,0.349040666,0.1,-0.27729411,-0.010048267,-0.007246491999999999,1.0,18032153,1,0,0,0,0
31,18068291,-0.071868257,-0.110440944,-0.021409335,1.0,0.0,1490.724945,1500.0,2000.0,1532.825165,1466.174835,1446.174835,20.65898959,21.06264639,12.404449000000001,19.41141509,19.40900982,19.78822958,19.56037799,19.94255368,240.6154307,240.6154307,12.40393705,-0.0010180089999999998,-0.0062574169999999995,0.002712896,0.004185445,0.005448388,-0.130476896,2.0,-1.0,0.0,11,0,0,1,0,0.0,0,0,0,0,0,0.0,0.10277748699999999,-1.925917176,-2.1661500769999997,-20.38663192,286.9239795,66.76053725,-0.006495216,-0.016669755,0.0,-0.009230466,8.92008442,0.002383428,-9.767717015,-5.32e+20,966.1652838,12.40444767,0.315743576,-0.062132743,-0.227986584,9.236431787,0.191484705,-9.79642635,0.32132493,-0.058663590999999994,-0.23989403899999998,-5.32e+20,0.8321221209999999,0.8201221390000001,0.40059992200000005,2.538429325,13.25450182,24.83875674,-0.231685088,3.5044202839999996,0.10999999,-59.91343151,399.6059545,12.404449000000001,96616.43041,1.147962913,-1.2416150209999999,-0.5238397810000001,-0.82914526,0.330696873,-0.05472456,-0.22015065399999997,0.0,0.12041614199999999,1.5995768,0.69559525,-0.043155632,0.041931125,0.715908545,1.0,398714136.3,327365554.7,400148.9778,20.55777956,-0.193976795,20.561978399999997,-0.062210439000000006,1.580293271,0,0,0.0,764000,39.8714138,32.7364368,-0.205820118,11.85633044,0.117057946,-0.688163781,21.39107459,0.282645298,-0.49435757399999997,7.31604898,0.36254128700000005,0.1,-0.278936962,-0.0011715830000000001,-0.007246491999999999,1.0,18068291,1,0,0,0,0
32,18104430,-0.067254813,-0.098325654,-0.010188653,1.0,0.0,1496.0,1500.0,2000.0,1534.0,1465.0,1453.0,20.92842571,21.33736505,12.404449000000001,19.55964145,19.55668665,19.93883321,19.69810609,20.08301408,244.1157375,244.1157375,12.40374037,-0.001015164,-0.0062592459999999996,0.002723381,0.0034491129999999997,0.00569006,-0.130424249,2.0,-1.0,0.0,11,0,0,1,0,0.0,0,0,0,0,0,0.0,0.113039511,-1.9161028080000002,-2.164303973,-20.97045044,287.5700221,66.68155581,-0.006657741,-0.016957266999999998,0.0,-0.009757843,8.064694346,-0.178713084,-9.72694266,-5.32e+20,966.1697265,12.40443698,0.303695153,-0.056685924000000006,-0.242586475,8.324452244,-0.324825035,-9.756418282,0.302224188,-0.032677177,-0.226671227,-5.32e+20,0.9262841890000001,0.914284234,0.400599565,2.675478454,13.25453949,24.71135267,-0.229136256,3.2458519389999996,0.10999999,-61.19443865,399.6757583,12.404449000000001,96615.61306,1.147953239,-0.18442208699999998,0.676126201,-0.346683832,0.31303874600000003,-0.043180104000000004,-0.24612869699999998,0.0,0.13050595,1.5995768,0.695374534,-0.046766737,0.045439769000000005,0.7156814290000001,1.0,398714135.6,327365640.4,400152.2997,20.88996599,-0.22894378899999998,20.89591318,-0.046475293,1.5818495119999998,0,0,0.0,764000,39.8714138,32.7364368,-0.214975241,12.66076029,0.12134137699999999,-0.67668661,21.62845777,0.28328524,-0.48127544,6.703633514,0.296281802,0.1,-0.280438821,8.240000000000001e-05,-0.007246491999999999,1.0,18104430,1,0,0,0,0
33,18136568,-0.068662986,-0.089039131,-0.001781223,1.0,0.0,1500.545909,1500.0,2000.0,1534.0,1465.0,1455.0,21.19425081,21.60846244,12.404419,19.707867800000002,19.70436349,20.08943684,19.83583418,20.22347449,247.6160443,247.6160443,12.40354369,-0.001012319,-0.006261075,0.0027338659999999997,0.00271278,0.005931731,-0.130371602,2.0,-1.0,0.0,11,0,0,1,0,0.0,0,0,0,0,0,0.0,0.123301535,-1.9062884390000001,-2.1624578690000003,-21.55426895,288.21606460000004,66.60257436,-0.0068192999999999995,-0.017232924,0.0,-0.010274131,7.209304273,-0.359809596,-9.686168306,-5.32e+20,966.1741691999999,12.40442629,0.278274089,-0.024177081,-0.22942674,7.277986915,-0.523841908,-9.687661334,0.283123446,-0.006690764,-0.213448415,-5.32e+20,1.020446258,1.008446329,0.400599207,2.8125275839999997,13.25457716,24.5839486,-0.226587425,2.987283593,0.10999999,-62.475445799999996,399.6129055,12.404419,96616.32091000001,1.1479615859999999,-1.013013032,0.250924257,-0.11585019099999999,0.283030653,-0.02355096,-0.248783525,0.0,0.14064927900000002,1.5995768,0.695135319,-0.050395827000000004,0.048965887,0.7154352279999999,1.0,398714134.9,327365726.1,400155.6215,21.22215243,-0.263910782,21.22984797,-0.030740147000000002,1.583405753,0,0,0.0,764000,39.8714138,32.7364368,-0.224130365,13.46519014,0.125624809,-0.665209438,21.86584095,0.283925181,-0.468193305,6.091218049,0.230022317,0.1,-0.281945609,0.012402741,-0.007246491999999999,1.0,18136568,1,0,0,0,0
34,18168707,-0.069707299,-0.08499879,0.005507159,1.0,0.0,1504.0,1500.0,2000.0,1534.956391,1464.043609,1459.0,21.40986283,21.82810774,12.404419,19.85609416,19.85204032,20.24004047,19.97356228,20.3639349,251.1163511,251.1163511,12.40334702,-0.001009474,-0.0062629040000000006,0.002744351,0.001976448,0.006173402,-0.130318955,2.0,-1.0,0.0,11,0,0,1,0,0.0,0,0,0,0,0,0.0,0.133563559,-1.8964740709999999,-2.160611765,-22.13808747,288.86210719999997,66.52359292,-0.006979338000000001,-0.017490921,0.0,-0.010783388,6.445445049,-0.474789745,-9.683601442,-5.32e+20,966.1750940999999,12.40441549,0.259088989,0.008068083,-0.20311822399999999,6.705463097000001,-0.52011927,-9.625887922,0.262913645,0.010721497,-0.169188969,-5.32e+20,1.114608326,1.102608424,0.40059885,2.9495767139999995,13.25461483,24.45654452,-0.22403859399999998,2.728715247,0.10999999,-63.75645294,399.52729669999997,12.404419,96617.3366,1.147973809,-0.8136654520000001,0.6029088420000001,0.369660494,0.263040942,0.01427397,-0.214829193,0.0,0.15085158,1.5995768,0.694876312,-0.05404468900000001,0.052511215,0.715168712,1.0,398714134.2,327365811.8,400158.9434,21.55433887,-0.29887777600000004,21.56378276,-0.015005001,1.5849619940000002,0,0,0.0,764000,39.8714138,32.7364368,-0.23361590000000002,14.25610914,0.129564024,-0.66334137,22.0829223,0.280380649,-0.583610916,5.546386742999999,0.052741799000000006,0.1,-0.283348879,0.02668016,-0.007246491999999999,1.0,18168707,1,0,0,0,0
35,18204845,-0.070988839,-0.077468173,0.012185933000000001,1.0,0.0,1505.0,1500.0,2000.0,1535.0,1464.0,1461.0,21.64870864,22.07161736,12.404388,20.00432052,19.99971715,20.390644100000003,20.11129037,20.50439531,254.61665789999998,254.61665789999998,12.40315034,-0.001006629,-0.006264733000000001,0.0027548359999999997,0.001240115,0.006415074000000001,-0.130266308,2.0,-1.0,0.0,11,0,0,1,0,0.0,0,0,0,0,0,0.0,0.14382558199999998,-1.8866597019999998,-2.158765661,-22.72190598,289.5081498,66.44461148,-0.007152372,-0.017756472,0.0,-0.011337101,5.878069895,-0.447841658,-9.763052426,-5.32e+20,966.1684674,12.40440445,0.242337015,-0.013886312,-0.049701037999999996,5.980852199,-0.78642563,-9.830532868999999,0.24032309,0.009728113,-0.058304945999999996,-5.32e+20,1.247579665,1.235579765,0.40059882,3.089919915,13.2546891,24.3182102,-0.22127042,2.51721677,0.10999999,-64.97318518,399.4909464,12.404388,96617.73867,1.147978549,-0.648145776,-2.1975318130000003,5.630574835,0.239567883,-0.000438148,-0.040694467000000005,0.0,0.161112113,1.5995768,0.6945978359999999,-0.057712973,0.056075414000000004,0.714882059,1.0,398714133.0,327365902.7,400160.0,21.79114623,-0.335037007,21.79995399,-0.023114622999999997,1.586435005,0,0,0.0,764000,39.8714138,32.7364368,-0.243810709,15.01802514,0.13276433,-0.68210062,22.25642283,0.267853546,-0.97487162,5.146634506,-0.362861256,0.1,-0.284286676,0.029471717999999997,-0.007246491999999999,1.0,18204845,1,0,0,0,0
36,18240983,-0.07276394,-0.072460787,0.010120572,1.0,0.0,1504.0,1500.0,2000.0,1536.0,1463.0,1465.2226449999998,21.79731069,22.22307885,12.404388,20.15254688,20.14739399,20.54124773,20.24901847,20.64485572,258.1169647,258.1169647,12.40295367,-0.001003784,-0.006266562,0.00276532,0.000503783,0.006656745,-0.130213661,2.0,-1.0,0.0,11,0,0,1,0,0.0,0,0,0,0,0,0.0,0.154087606,-1.876845334,-2.1569195569999997,-23.30572449,290.1541923,66.36563003,-0.007295851,-0.01796765,0.0,-0.011801889,5.31069474,-0.420893571,-9.842503408999999,-5.32e+20,966.1618407999999,12.4043934,0.225012145,0.0009551999999999999,0.023725607000000003,5.501744395,-0.6985135309999999,-9.848497404,0.217732535,0.008734728,0.052579077,-5.32e+20,1.384114139,1.372114239,0.40059882,3.23056555,13.25476673,24.17887234,-0.21848210899999998,2.310039843,0.10999999,-66.18401624,399.5995128,12.404388,96616.47299,1.147963579,-0.52862947,0.7437078640000001,2.7020742939999995,0.21966286,0.014088871999999999,0.054170954,0.0,0.171430422,1.5995768,0.694299379,-0.061400376,0.059658193,0.7145748009999999,1.0,398714131.6,327365996.0,400160.0,21.98346469,-0.37175235,21.990524100000002,-0.042346469000000005,1.587869194,0,0,0.0,764000,39.8714138,32.7364368,-0.254005518,15.77994114,0.135964637,-0.7008598690000001,22.42992337,0.255326443,-1.366132324,4.746882268999999,-0.7784643109999999,0.1,-0.285114961,0.034156479,-0.007246491999999999,1.0,18240983,1,0,0,0,0
37,18274244,-0.073615055,-0.067352367,0.007111739000000001,1.0,0.0,1501.812162,1500.0,2000.0,1537.0,1462.0,1467.0,21.97772342,22.4071972,12.40438777,20.30077323,20.29507082,20.69185137,20.38674657,20.78531613,261.61727149999996,261.61727149999996,12.40275699,-0.001000939,-0.006268391,0.002775805,-0.00023255,0.006898416,-0.130161014,2.0,-1.0,0.0,11,0,0,1,0,0.0,0,0,0,0,0,0.0,0.16434963,-1.867030965,-2.155073453,-23.88954301,290.8002349,66.28664859,-0.0074533130000000005,-0.018184123,0.0,-0.012315108,4.813391953,-0.308591373,-10.30321672,-4.35e+20,966.1584908,12.4043769,0.210717395,0.011502077,0.11236306900000001,5.079069507,-0.432593911,-10.00039332,0.20358372100000002,0.04615806099999999,0.11261872099999999,-4.35e+20,1.5206486119999998,1.5086487119999998,0.40059882,3.371211185,13.25484437,24.03953449,-0.215693797,2.102862916,0.10999999,-67.3948473,399.4718351,12.40438777,96617.99304,1.147981599,-0.346206776,0.71450966,2.402013675,0.21438611600000002,0.056511795,0.146458926,0.0,0.18180500800000002,1.5995768,0.693980422,-0.065106232,0.063258895,0.7142465859999999,1.0,398714130.2,327366089.4,400160.0,22.17578316,-0.408467694,22.18109422,-0.061578315999999994,1.589303383,0,0,0.0,764000,39.8714138,32.7364368,-0.265427234,16.58339021,0.136197223,-0.737604934,22.58288729,0.195785583,-1.691190949,4.2350630680000005,-1.559945634,0.1,-0.286299539,0.049356252999999996,-0.007246491999999999,1.0,18274244,1,0,0,0,0
38,18309260,-0.07549691900000001,-0.060618028,0.00113364,1.0,0.0,1498.4016800000002,1500.0,2000.0,1538.0,1461.0,1471.0,22.20531953,22.63911633,12.404358,20.44899959,20.44274765,20.842454999999998,20.52447466,20.92577654,265.11757830000005,265.11757830000005,12.40256031,-0.000998094,-0.00627022,0.00278629,-0.000968882,0.007140087,-0.130108367,2.0,-1.0,0.0,11,0,0,1,0,0.0,0,0,0,0,0,0.0,0.17461165399999998,-1.857216596,-2.1532273490000002,-24.47336152,291.4462775,66.20766715,-0.007608389,-0.018382962,0.0,-0.012832594,4.38315843,-0.11459309599999999,-11.12885255,-2.46e+20,966.158277,12.40435516,0.207535739,0.072954676,0.163160203,4.792689302,-0.09454985699999999,-10.41106377,0.197514857,0.120351681,0.12399303,-2.46e+20,1.657183085,1.645183185,0.40059882,3.51185682,13.254922,23.90019664,-0.212905486,1.89568599,0.10999999,-68.60567836,399.65817000000004,12.404358,96615.836,1.147956,0.225083831,1.9314216030000002,0.383269221,0.203511821,0.12856598,0.158691301,0.0,0.19223252899999999,1.5995768,0.693641411,-0.068829263,0.066876286,0.713897638,1.0,398714128.9,327366182.8,400160.0,22.36810162,-0.445183037,22.37166433,-0.080810162,1.590737571,0,0,0.0,764000,39.8714138,32.7364368,-0.278023275,17.42659235,0.133589279,-0.791564994,22.71619473,0.09124584,-1.952884726,3.6159797730000003,-2.6916247280000003,0.1,-0.287305367,0.052761129000000004,-0.007246491999999999,1.0,18309260,1,0,0,0,0
39,18349399,-0.078157376,-0.055700495999999995,-0.005528838,1.0,0.0,1496.0,1500.0,2000.0,1539.0,1460.0,1470.0,22.31788042,22.75400278,12.40432758,20.59722595,20.59042449,20.99305863,20.66220276,21.06623695,268.6178851,268.6178851,12.40236364,-0.000995249,-0.006272049,0.002796775,-0.001705215,0.007381759,-0.13005572099999999,2.0,-1.0,0.0,11,0,0,1,0,0.0,0,0,0,0,0,0.0,0.184873678,-1.8474022280000002,-2.151381245,-25.05718003,292.09232000000003,66.1286857,-0.007764351,-0.018569352,0.0,-0.013358403999999999,3.952924907,0.07940518099999999,-11.95448838,-5.61e+19,966.1580633,12.40433343,0.19345762600000002,0.14757611,0.155364435,4.3793492380000005,0.075762571,-11.207130300000001,0.19144599399999998,0.1945453,0.135367339,-5.61e+19,1.7937175580000002,1.781717658,0.40059882,3.652502454,13.25499963,23.76085879,-0.210117175,1.6885090630000001,0.10999999,-69.81650943,399.65817000000004,12.40432758,96615.80558,1.147955509,-0.335927555,1.847259374,-0.432774536,0.188407253,0.21890748100000001,0.13331643699999998,0.0,0.202714077,1.5995768,0.693281028,-0.072569643,0.07051054,0.71352678,1.0,398714127.5,327366276.1,400160.0,22.56042008,-0.48189838,22.56223445,-0.100042008,1.59217176,0,0,0.0,764000,39.8714138,32.7364368,-0.290619316,18.26979449,0.130981334,-0.845525055,22.84950217,-0.013293903000000001,-2.2145785030000003,2.996896477,-3.8233038219999997,0.1,-0.288546067,0.068663402,-0.007246491999999999,1.0,18349399,1,0,0,0,0
