,timestamp,control[0],control[1],control[2],control[3],control[4],output[2],output[3],output[4],output[5],output[6],output[7],indicated_airspeed_m_s,true_airspeed_m_s,indicated_airspeed_m_s.1,equivalent_airspeed_m_s,true_airspeed_m_s.1,equivalent_ground_minus_wind_m_s,true_ground_minus_wind_m_s,Unnamed: 6,Unnamed: 7,differential_pressure_raw_pa,differential_pressure_filtered_pa,temperature,gyro_bias[0],gyro_bias[1],gyro_bias[2],accel_bias[0],accel_bias[1],accel_bias[2],instance_count,seq_reached,seq_current,seq_total,item_changed_index,item_do_jump_remaining,valid,warning,finished,failure,stay_in_failsafe,flight_termination,item_do_jump_changed,execution_mode,nav_roll,nav_pitch,nav_bearing,target_bearing,xtrack_error,wp_dist,acceptance_radius,rollspeed_integ,pitchspeed_integ,yawspeed_integ,additional_integ1,x,y,z,temperature.1,pressure,temperature.2,gyro_rad[0],gyro_rad[1],gyro_rad[2],accelerometer_m_s2[0],accelerometer_m_s2[1],accelerometer_m_s2[2],x.1,y.1,z.1,temperature.3,altitude_sp,altitude_filtered,height_rate_setpoint,height_rate,airspeed_sp,airspeed_filtered,airspeed_derivative_sp,airspeed_derivative,throttle_integ,pitch_integ,timestamp_sample,baro_device_id,baro_alt_meter,baro_temp_celcius,baro_pressure_pa,rho,xyz[0],xyz[1],xyz[2],xyz[0].1,xyz[1].1,xyz[2].1,roll_body,pitch_body,yaw_body,q_d[0],q_d[1],q_d[2],q_d[3],thrust_body[0],lat,lon,alt,vel_m_s,vel_n_m_s,vel_e_m_s,vel_d_m_s,cog_rad,ground_contact,maybe_landed,landed,ref_lat,ref_lon,x.2,y.2,z.2,vx,vy,vz,ax,ay,az,yaw,dist_bottom,roll,pitch,yaw.1,thrust_body[0].1,timestamp.1,isTakeoff,isClimbing,isDescending,isCruise,isLand
0,8000000,0.032622553,0.037613362000000004,-0.004780792,0.15,0.1900002,900.0,900.0,900.0,900.0,900.0,900.0,-0.55010766,-0.56085265,-1.3745495,-1.3745495,-1.4013966,0.08425379,0.085899405,,,-1.1572492,-1.1572492,12.404602,-0.0004974490000000001,-0.0046382509999999995,-0.0012747989999999999,0.030775222999999997,0.002218546,-0.09675976,2.0,-1.0,0.0,11,0,0,1,0,0.0,0,0,0,0,0,0.0,-0.18215673,1.5687871,1.5737354,0.378227,286.8845,60.171733999999994,-0.0014719429999999999,-0.007100955999999999,0.0,-0.0030049409999999997,-0.30141100000000004,0.21761239,-9.981898,-7.209999999999999e-21,966.17804,12.404602,-0.0028819790000000002,-0.004996156,-0.0016020479999999998,-0.13232364,0.11807266599999999,-9.834413,-0.0028493959999999997,-0.015153681,-0.000126335,-7.209999999999999e-21,-0.11698779999999999,-0.12898779999999999,0.40060008,-0.28896679999999997,13.254137,21.825756,-0.17143238,15.915196,0.10999999,-18.705496,1776000.0,6620172,399.60654,12.404602,96616.42,1.1479629,0.045718424,-0.1955162,0.026430383,-0.001446002,0.004852557,0.002846098,0.0,-0.16690682,1.6225462,0.6861794,0.06044722,-0.05739732,0.7226406999999999,1.0,398714138.0,327364368.0,400131.0,0.0,-0.01,0.0,-0.04,3.4686672999999995,0,0,1.0,39.8714138,32.7364368,0.008077262,0.018292708,-0.057482764000000006,0.024659677999999997,0.046222717,-0.06287782,0.10664077,0.008288043,-0.0027790659999999997,1.6229187,0.10777761,-0.11083593,-0.26536456,-0.005465881,1.0,8000000,1,0,0,0,0
1,8032381,0.032704946,0.038620471,-0.004474421,0.15,0.10904799,900.0,900.0,900.0,900.0,900.0,900.0,-0.308887557,-0.31492264600000003,-0.639997429,-0.639822057,-0.6523111220000001,0.7705122209999999,0.785569202,,,7.251468775,7.251468775,12.40459876,-0.000430389,-0.004690721,-0.001122353,0.030705787000000002,0.0023675379999999998,-0.096926082,2.0,-1.0,0.0,11,0,0,1,0,0.0,0,0,0,0,0,0.0,-0.17201340899999998,1.568879495,1.5737437840000001,0.37490332,286.0920545,60.62164312,-0.00166096,-0.0074041590000000004,0.0,-0.002804102,-0.284519968,0.18787422899999998,-9.910454857000001,4.384663279,966.1730418999999,12.404602,-0.00606749,-0.004091244,-0.0027158359999999997,-0.173330665,0.13312266,-9.902080862,-0.000269256,-0.009344992,0.0003587,4.384663279,-0.117383216,-0.129383216,0.40060008,-0.282941603,13.2541288,22.32117742,-0.18134097100000002,15.26989978,0.10999999,-19.94581073,1810546.1090000002,6620172,399.6051025,12.404602,96616.4238,1.147962911,-0.46355385,0.084493716,0.144186696,-0.001943651,-0.002750582,-0.000547325,0.0,-0.156078764,1.6225462,0.6864789570000001,0.056533865999999995,-0.053681415999999996,0.7229561529999999,1.0,398714138.0,327364368.0,400130.6527,0.0,-0.006527305,0.0,-0.033054611,3.894361257,0,0,0.964392879,39.8714138,32.7364368,0.008071459,0.017214613,-0.056814265,0.024286468999999998,0.044573293,-0.062433247000000004,0.085031304,0.029864611,-0.027502613999999998,1.6228653259999999,0.106799442,-0.122572032,-0.252235422,-0.005465881,1.0,8032381,1,0,0,0,0
2,8068762,0.031685582999999996,0.037634333,-0.004727847,0.15,0.018095812,900.0,900.0,900.0,900.0,900.0,900.0,-1.643336322,-1.675450376,0.09455464300000001,0.094905385,0.09677435599999999,1.456770651,1.4852389990000001,,,15.66018675,15.66018675,12.40459552,-0.00036333,-0.004743191,-0.000969908,0.03063635,0.00251653,-0.09709240300000001,2.0,-1.0,0.0,11,0,0,1,0,0.0,0,0,0,0,0,0.0,-0.161870088,1.568971889,1.5737521669999999,0.37157964,285.299609,61.07155224,-0.001870599,-0.007735471999999999,0.0,-0.00249966,-0.26762893600000004,0.15813606800000002,-9.839011714,8.769326559,966.1680438,12.404602,0.0019134010000000001,-0.008879215,-0.004066953,-0.23059252100000002,0.133382619,-9.945575293,0.002310884,-0.0035363029999999998,0.0008437360000000001,8.769326559,-0.117778632,-0.129778632,0.40060008,-0.276916405,13.2541206,22.81659884,-0.191249561,14.62460356,0.10999999,-21.18612546,1849310.6619999998,6620172,399.6828353,12.404602,96615.53338,1.1479523090000001,0.230549256,-0.324188194,0.24357689800000001,-0.001013788,0.0047463259999999995,0.0007533510000000001,0.0,-0.145478519,1.6225462,0.6867546659999999,0.052701399,-0.05004232,0.723246547,1.0,398714138.0,327364368.0,400130.3055,0.0,-0.0030546109999999996,0.0,-0.026109222,4.320055214,0,0,0.928785757,39.8714138,32.7364368,0.008065656,0.016136518,-0.056145765,0.02391326,0.042923869,-0.061988674,0.063421838,0.051441178,-0.052226162,1.622811952,0.105821274,-0.13590765900000001,-0.226860227,-0.005465881,1.0,8068762,1,0,0,0,0
3,8101143,0.031064368999999998,0.037955844,-0.0049039240000000005,0.15,0.0,900.0,900.0,900.0,900.0,900.0,900.0,0.778328887,0.793534228,0.829106714,0.8296328279999999,0.8458598340000001,2.143029082,2.1849087959999998,,,24.06890473,24.06890473,12.40459228,-0.00029627,-0.004795661,-0.0008174619999999999,0.030566914,0.002665522,-0.097258725,2.0,-1.0,0.0,11,0,0,1,0,0.0,0,0,0,0,0,0.0,-0.15172676599999999,1.569064284,1.573760551,0.36825596,284.50716339999997,61.52146135,-0.002075757,-0.00806693,0.0,-0.002140951,-0.084391547,0.137322439,-9.79335281,11.65521416,966.1638638000001,12.404602,-0.00344523,-0.011285498,4.21e-06,-0.28248844100000003,0.20228495100000002,-9.894550444,0.003609624,0.0015286120000000002,0.0013648389999999999,11.65521416,-0.118174048,-0.13017404800000001,0.40060008,-0.270891208,13.2541124,23.31202026,-0.20115815199999998,13.97930733,0.10999999,-22.42644019,1885965.993,6620172,399.59270689999994,12.404602,96616.56226,1.147964575,-0.409864681,-0.075266044,0.16054096,0.000354959,0.000676685,0.004594029,0.0,-0.135102204,1.6225462,0.687004328,0.048948335999999995,-0.046478617,0.7235094479999999,1.0,398714138.0,327364368.0,400129.9582,0.0,0.000418084,0.0,-0.019163833,4.745749171,0,0,0.8931786359999999,39.8714138,32.7364368,0.008065614,0.015010913999999998,-0.0554375,0.023585105,0.041150866,-0.061531712999999995,0.045451683,0.068502225,-0.071947186,1.622747009,0.105174665,-0.147058242,-0.213988679,-0.005465881,1.0,8101143,1,0,0,0,0
4,8133524,0.030071933,0.037057922,-0.0048859179999999995,0.15,0.0,900.0,900.0,900.0,900.0,900.0,900.0,-1.0199362090000001,-1.039866033,1.563658785,1.56436027,1.594945312,2.829287513,2.884578593,,,32.477622700000005,32.477622700000005,12.40458904,-0.000229211,-0.00484813,-0.000665016,0.030497477999999998,0.002814514,-0.097425046,2.0,-1.0,0.0,11,0,0,1,0,0.0,0,0,0,0,0,0.0,-0.141583445,1.569156679,1.573768934,0.36493228,283.7147178999999,61.97137047,-0.002278047,-0.008397522,0.0,-0.00177542,0.905790917,0.159801655,-9.872773079,7.270550882,966.1636517000001,12.404602,0.001075061,-0.004389207,0.00270869,-0.206383663,0.167255803,-9.909208128,-0.001307704,0.0029854829999999997,0.0020609070000000003,7.270550882,-0.118569464,-0.130569464,0.40060008,-0.264866011,13.25410421,23.80744167,-0.211066742,13.33401111,0.10999999,-23.66675491,1922621.324,6620172,399.63273419999996,12.404602,96616.12762999999,1.147959374,-0.624980985,-0.5421471,-0.18375439600000001,0.00430485,0.008386325,0.004415181,0.0,-0.124881061,1.6225462,0.687233436,0.045250202999999996,-0.042967077,0.723750731,1.0,398714138.0,327364368.0,400129.6109,0.0,0.0038907779999999997,0.0,-0.012218443999999998,5.171443128,0,0,0.8575715140000001,39.8714138,32.7364368,0.008093516,0.013654838999999998,-0.054536327999999995,0.023475507000000003,0.038778381,-0.061014658,0.045135804,0.063658511,-0.067401001,1.622625945,0.106136446,-0.158821417,-0.188260172,-0.005465881,1.0,8133524,1,0,0,0,0
5,8169904,0.031412034,0.037304176,-0.004937578,0.15,0.0,900.0,900.0,900.0,900.0,900.0,900.0,1.219600866,1.243426647,2.298210857,2.299087713,2.34403079,3.515545944,3.58424839,,,40.88634068,40.88634068,12.404585800000001,-0.000162151,-0.0049006,-0.000512571,0.030428041,0.002963507,-0.09759136800000001,2.0,-1.0,0.0,11,0,0,1,0,0.0,0,0,0,0,0,0.0,-0.131440124,1.5692490730000002,1.573777318,0.3616086,282.9222724,62.42127959,-0.002493955,-0.00871156,0.0,-0.001481058,1.895973381,0.182280871,-9.952193349,2.885887603,966.1634396,12.404602,-0.007876709,-0.00613423,-0.0033683890000000003,-0.18092484399999997,0.166800883,-9.944488512000001,-0.006225031999999999,0.004442355,0.002756975,2.885887603,-0.11896488,-0.13096488,0.40060008,-0.258840814,13.25409601,24.30286309,-0.220975333,12.68871489,0.10999999,-24.90706964,1956730.5459999999,6620172,399.5544557,12.404602,96617.00262,1.14796981,-0.51871053,-0.113102355,0.355452714,0.000124648,0.004505063,0.004328846,0.0,-0.114817501,1.6225462,0.6874405379999999,0.041607869,-0.039508518,0.723968811,1.0,398714138.0,327364368.0,400129.2637,0.0,0.007363473000000001,0.0,-0.005273055,5.597137086,0,0,0.821964393,39.8714138,32.7364368,0.008121419,0.012298763999999998,-0.053635155,0.02336591,0.036405897,-0.060497604,0.044819925,0.058814797,-0.062854815,1.622504881,0.10709822699999999,-0.167822405,-0.17811122199999999,-0.005465881,1.0,8169904,1,0,0,0,0
6,8202285,0.03327955,0.0367737,-0.004290851,0.15,0.0,900.0,900.0,900.0,900.0,900.0,900.0,1.3201105579999999,1.3458972669999998,3.032762928,3.033815156,3.093116268,4.201804374,4.283918187,,,49.29505865,49.29505865,12.40458256,-9.51e-05,-0.00495307,-0.000360125,0.030358605,0.0031124990000000003,-0.09775769,2.0,-1.0,0.0,11,0,0,1,0,0.0,0,0,0,0,0,0.0,-0.12129680300000001,1.5693414680000002,1.573785701,0.35828492,282.1298269,62.87118871,-0.002676224,-0.00897561,0.0,-0.001321503,7.88318467,0.201589275,-9.997208697,-7.209999999999999e-21,966.1640491,12.404602,-0.003399725,-0.004969666,0.0038814920000000003,-0.239485737,0.165837255,-9.953986142,-0.008708835,0.00442485,0.00179771,-7.209999999999999e-21,-0.117202764,-0.129202765,0.40060008,-0.229832514,13.25408916,24.71513204,-0.229220848,12.07443155,0.10999999,-26.21474146,1995276.655,6620172,399.59029960000004,12.404602,96616.58672,1.147964887,-0.053800395,-0.06890945,0.12389395800000001,-0.005014462,0.005897224,-0.0014747360000000001,0.0,-0.104874736,1.6225462,0.687628707,0.038008255,-0.036090525,0.724166965,1.0,398714138.0,327364368.0,400128.9164,0.0,0.009163833,0.0,0.000836167,5.7790404529999995,0,0,0.786357271,39.8714138,32.7364368,0.0077160580000000005,0.020182104,-0.052640969,0.0061479609999999995,0.367658725,-0.050855171,-0.278947472,6.287439148,0.103621735,1.622385533,0.106983211,-0.177445283,-0.159016615,-0.005465881,1.0,8202285,1,0,0,0,0
7,8238666,0.023773826,0.036767448,0.000983023,1.0,0.0,900.0,900.0,900.0,900.0,900.0,900.0,0.256111565,0.261117852,3.767314999,3.7685425980000002,3.842201746,4.888062805,4.983587984,,,57.70377663,57.70377663,12.40457932,-2.8000000000000003e-05,-0.00500554,-0.000207679,0.030289168999999998,0.0032614909999999996,-0.09792401099999999,2.0,-1.0,0.0,11,0,0,1,0,0.0,0,0,0,0,0,0.0,-0.111153481,1.5694338630000002,1.573794085,0.35496124,281.33738139999997,63.32109782,-0.0028821840000000003,-0.009298189,0.0,-0.001244852,23.49215841,0.214792289,-9.975977478999999,-7.209999999999999e-21,966.1662405999999,12.404602,-0.007937203,-0.006548081999999999,-0.0013136679999999998,-0.21596824,0.24606776,-9.95466,-0.006506896,0.001568438,-0.002348895,-7.209999999999999e-21,-0.10952364199999999,-0.121523643,0.40060008,-0.137793303,13.25408602,24.89935621,-0.232905394,11.54520073,0.10999999,-27.70713937,2028587.3169999998,6620172,399.4340601,12.404602,96618.41859,1.147986632,-0.245456228,-0.18583883899999998,0.072889229,-0.000868748,0.004737055,0.000144372,0.0,-0.095034126,1.6225462,0.687797855,0.034444682000000004,-0.032706754,0.724345151,1.0,398714137.8,327364368.0,400128.5691,0.0,0.005691138,0.0,0.004308862,5.192245262,0,0,0.75075015,39.8714138,32.7364368,0.0064764490000000004,0.045855905,-0.051467685,-0.044012061,1.341305989,-0.023641852999999997,-1.2255196940000002,24.51858562,0.5818946660000001,1.622269489,0.10479482400000001,-0.18556406,-0.15620063,-0.005465881,1.0,8238666,1,0,0,0,0
8,8271047,0.02329951,0.037286923,0.0013764139999999998,1.0,0.0,1500.0,1500.0,2000.0,1487.635927,1511.364073,1518.0,0.323490078,0.329810388,4.501867071,4.503270041,4.591287223,5.574321236,5.683257781,,,66.1124946,66.1124946,12.40457608,3.9e-05,-0.00505801,-5.520000000000001e-05,0.030219732000000003,0.0034104829999999997,-0.098090333,2.0,-1.0,0.0,11,0,0,1,0,0.0,0,0,0,0,0,0.0,-0.10101016,1.569526257,1.573802468,0.35163756,280.5449359,63.77100694,-0.0030764259999999997,-0.009658963000000001,0.0,-0.001242948,39.10113216,0.227995303,-9.954746262,-7.209999999999999e-21,966.1684321,12.404602,0.005554361999999999,0.000661818,-0.0023681329999999997,21.70095368,0.23035214399999998,-9.886855602,-0.004304957,-0.001287973,-0.0064954999999999995,-7.209999999999999e-21,-0.10184451900000001,-0.11384452099999999,0.40060008,-0.045754092,13.25408288,25.08358038,-0.23658994,11.0159699,0.10999999,-29.19953728,2069242.649,6620172,399.5001155,12.404602,96617.65612,1.147977606,0.11433300699999999,1.082411712,-0.047236269000000004,0.00463928,0.007756128,-0.001264835,0.0,-0.085285001,1.6225462,0.687949087,0.030913417000000002,-0.029353663,0.7245044409999999,1.0,398714137.6,327364368.0,400128.2218,0.0,0.002218444,0.0,0.007781555999999999,4.60545007,0,0,0.715143029,39.8714138,32.7364368,0.005236839,0.071529706,-0.0502944,-0.094172084,2.314953253,0.003571465,-2.172091916,42.74973209,1.060167597,1.622153445,0.10260643800000001,-0.19560967899999998,-0.148286287,-0.005465881,1.0,8271047,1,0,0,0,0
9,8307428,0.025155897000000003,0.035821547999999995,0.002469849,1.0,0.0,1501.0,1500.0,2000.0,1487.0,1512.0,1517.909582,2.173605873,2.216070039,5.236419142,5.237997483,5.340372701000001,6.260579666,6.382927577999999,,,74.52121258,74.52121258,12.40457284,0.000106087,-0.00511048,9.719999999999999e-05,0.030150296,0.003559475,-0.098256654,2.0,-1.0,0.0,11,0,0,1,0,0.0,0,0,0,0,0,0.0,-0.090866839,1.569618652,1.5738108519999998,0.34831388,279.7524903,64.22091606,-0.00329226,-0.010148345,0.0,-0.001291913,44.96315898,0.24510277800000002,-9.916959839,-7.209999999999999e-21,966.1692280999999,12.404602,-0.0041367140000000005,-0.005809142,0.001088387,52.17330072,0.166373763,-9.832221274,-0.002402822,-0.003975773,-0.007641291999999999,-7.209999999999999e-21,-0.094165397,-0.10616539900000001,0.40060008,0.046285119000000007,13.25407974,25.26780456,-0.240274486,10.48673908,0.10999999,-30.69193519,2102914.983,6620172,399.5855322,12.404602,96616.64355,1.147965508,0.16191919300000002,-0.325291927,0.335770215,-0.002128226,0.006871699,0.003322143,0.0,-0.075606025,1.6225462,0.688083274,0.027406847,-0.026024017000000003,0.724645729,1.0,398714137.4,327364368.0,400127.8746,0.0,-0.001254251,0.0,0.011254251000000002,4.018654879,0,0,0.679535907,39.8714138,32.7364368,-0.000571831,0.181852672,-0.046817563,-0.162813066,3.643567725,0.040198386,-2.511734662,49.53323904,1.255378324,1.622007279,0.101260986,-0.202963375,-0.151899683,-0.005465881,1.0,8307428,1,0,0,0,0
10,8343809,0.024330047,0.036395811,0.0019899379999999997,1.0,0.0,1500.0,1500.0,2000.0,1487.0,1512.0,1518.0,4.149720916000001,4.230795372,5.9709712129999994,5.972724926000001,6.089458179,6.9468380970000005,7.082597375,,,82.92993055,82.92993055,12.4045696,0.00017314700000000001,-0.00516295,0.000249657,0.03008086,0.003708467,-0.098422976,2.0,-1.0,0.0,11,0,0,1,0,0.0,0,0,0,0,0,0.0,-0.080723518,1.569711047,1.5738192359999998,0.3449902,278.96004480000005,64.67082518,-0.003471292,-0.010606683,0.0,-0.001351692,41.56235876,0.265920785,-9.863440487,-7.209999999999999e-21,966.1686979,12.404602,0.00283206,-0.002641169,-0.0048292890000000005,48.87402881,0.261157712,-9.889289602,-0.0007856,-0.006503337,-0.005935318,-7.209999999999999e-21,-0.086486274,-0.09848627800000001,0.40060008,0.13832433,13.254076600000001,25.45202873,-0.24395903300000002,9.957508254,0.10999999,-32.1843331,2139645.529,6620172,399.5775201,12.404602,96616.77539,1.147967072,-0.055692614,-0.186844654,-0.0029214640000000004,-0.0016862079999999998,0.001332874,0.0031977359999999996,0.0,-0.065983618,1.6225462,0.688200265,0.023920115,-0.022713212000000003,0.724768925,1.0,398714137.3,327364368.0,400127.5273,0.0,-0.004726945,0.0,0.014726945,3.4318596880000003,0,0,0.643928786,39.8714138,32.7364368,-0.010722621000000002,0.372620374,-0.041151589,-0.24901708,5.309518584,0.085771347,-2.274593435,45.43769782,1.1815862259999999,1.6218324869999998,0.10071660199999999,-0.209355845,-0.14186284,-0.005465881,1.0,8343809,1,0,0,0,0
11,8376190,0.022507535,0.035599527,0.004560019,1.0,0.0,1502.0,1500.0,2000.0,1488.0,1511.0,1517.0006,5.325829465,5.429869595,6.705523284,6.707452367999999,6.838543657000001,7.633096527999999,7.782267172,,,91.33864853,91.33864853,12.40456636,0.000240207,-0.005215419000000001,0.000402103,0.030011424,0.003857459,-0.09858929699999999,2.0,-1.0,0.0,11,0,0,1,0,0.0,0,0,0,0,0,0.0,-0.070580197,1.569803441,1.573827619,0.34166652,278.1675993,65.1207343,-0.0036615420000000003,-0.011132956000000001,0.0,-0.001425665,38.16155853,0.286738791,-9.809921136,-7.209999999999999e-21,966.1681677000001,12.404602,-0.002355185,-0.008364837,-0.006249271,45.13698802,0.267370084,-9.875961279,0.000831623,-0.009030901,-0.004229344,-7.209999999999999e-21,-0.07880715099999999,-0.090807156,0.40060008,0.230363541,13.25407346,25.6362529,-0.24764357899999997,9.42827743,0.10999999,-33.67673101,2179208.642,6620172,399.73805360000006,12.404602,96614.89322,1.147944751,-0.205332145,-0.12112791699999999,-0.117338345,0.0005472119999999999,0.007503332,-0.000444656,0.0,-0.05640454599999999,1.6225462,0.688301602,0.020448562,-0.019416817,0.724875651,1.0,398714137.1,327364368.0,400127.18,0.0,-0.00819964,0.0,0.01819964,2.845064497,0,0,0.608321664,39.8714138,32.7364368,-0.020873412,0.563388076,-0.035485615,-0.335221094,6.9754694420000005,0.13134430800000002,-2.037452209,41.3421566,1.107794129,1.621657696,0.100172219,-0.21509227399999997,-0.143919616,-0.005465881,1.0,8376190,1,0,0,0,0
12,8412571,0.023393787000000003,0.03573033,0.00536272,1.0,0.0,1502.546109,1500.0,2000.0,1488.0,1511.0,1517.0,6.959084057999999,7.095063027,7.440075356,7.442179811,7.587629135,8.319354959,8.481936969,,,99.7473665,99.7473665,12.40456312,0.000307266,-0.005267889,0.000554549,0.029941987000000003,0.004006450999999999,-0.098755619,2.0,-1.0,0.0,11,0,0,1,0,0.0,0,0,0,0,0,0.0,-0.060436875,1.569895836,1.573836003,0.33834284,277.3751538,65.57064341,-0.00384791,-0.011665403000000001,0.0,-0.00149988,35.10628135,0.260480093,-9.824795027999999,-7.209999999999999e-21,966.1679275,12.404602,-0.001143978,-0.006223368000000001,-0.00612723,40.94915175,0.154534995,-9.761749737999999,0.001780684,-0.008977764000000001,-0.00074239,-7.209999999999999e-21,-0.056931412,-0.068931416,0.40060008,0.356448589,13.25406902,25.73142502,-0.249547109,8.937973555,0.10999999,-35.22227044,2215863.973,6620172,399.5989296,12.404602,96616.48762,1.147963738,-0.12374915800000001,-0.46417279899999997,0.10683398599999999,-0.000121796,0.0032347179999999997,0.0014378429999999998,0.0,-0.046856567,1.6225462,0.688385947,0.016987781,-0.016130653000000002,0.72496448,1.0,398714137.1,327364372.7,400127.5017,0.55019804,-0.009163833,0.549361847,0.018327666,2.459708464,0,0,0.572714543,39.8714138,32.7364368,-0.035277203,0.83772049,-0.027733165,-0.403961455,8.324458402000001,0.168406415,-1.8638470459999998,37.98817055,1.014146803,1.621479304,0.1,-0.22062836600000002,-0.14401166099999999,-0.005465881,1.0,8412571,1,0,0,0,0
13,8452951,0.021273012999999997,0.035597459,0.004422992,1.0,0.0,1502.0,1500.0,2000.0,1488.908382,1510.091618,1517.0,8.447959832999999,8.612931706,8.174627427,8.176907254,8.336714613,9.005613389,9.181606766,,,108.15608449999999,108.15608449999999,12.40455988,0.00037432599999999997,-0.005320359,0.000706994,0.029872551,0.004155443,-0.098921941,2.0,-1.0,0.0,11,0,0,1,0,0.0,0,0,0,0,0,0.0,-0.050293554000000004,1.569988231,1.573844386,0.33501916,276.58270830000004,66.02055253,-0.004028573,-0.012175248999999999,0.0,-0.0015624179999999999,32.21089437,0.212436727,-9.871317781,-7.209999999999999e-21,966.1678215,12.404602,0.0011110710000000002,-0.004579294,-0.005749584,37.55648458,0.145964034,-9.872802045,0.002420554,-0.0077304140000000006,0.0035687109999999996,-7.209999999999999e-21,-0.022686946,-0.03468695,0.40060008,0.51219589,13.25406344,25.74901103,-0.249898939,8.481584576,0.10999999,-36.81410915,2252519.304,6620172,399.5857251,12.404602,96616.62465,1.14796539,0.30734007,0.37805855899999996,0.361969924,0.001618591,0.00421477,0.000607398,0.0,-0.037326202,1.6225462,0.6884556829999999,0.013533028,-0.01285021,0.725037898,1.0,398714137.3,327364382.4,400128.5435,1.6927145430000001,-0.007427485,1.690141951,0.014854971000000002,2.291212769,0,0,0.537107421,39.8714138,32.7364368,-0.051649062999999995,1.150722335,-0.019015202,-0.46462054,9.526773769,0.20153014,-1.719643091,34.97733793,0.911311503,1.621299246,0.1,-0.225997045,-0.133633849,-0.005465881,1.0,8452951,1,0,0,0,0
14,8493332,0.02355894,0.035642932999999995,0.0036319240000000004,1.0,0.0,1501.637127,1500.0,2000.0,1488.0,1511.0,1517.0,9.607941433999999,9.795663794,8.909179498,8.911634696,9.085800091,9.69187182,9.881276563,,,116.56480249999998,116.56480249999998,12.40455664,0.000441385,-0.005372829,0.00085944,0.029803115,0.004304436,-0.099088262,2.0,-1.0,0.0,11,0,0,1,0,0.0,0,0,0,0,0,0.0,-0.040150233,1.570080625,1.57385277,0.33169548,275.7902628,66.47046165,-0.004206832,-0.012655582,0.0,-0.001610007,29.315507399999998,0.164393362,-9.917840533,-7.209999999999999e-21,966.1677153999999,12.404602,-0.002924586,-0.00076106,-0.0033642190000000003,34.27128213,0.163258105,-9.903060007,0.0030604240000000004,-0.006483063000000001,0.007879811,-7.209999999999999e-21,0.011557518999999999,-0.000442483,0.40060008,0.667943191,13.25405785,25.76659703,-0.250250769,8.025195597,0.10999999,-38.40594785,2285174.635,6620172,399.5931486,12.404602,96616.54692000001,1.147964435,-0.25248938600000004,0.18524740399999998,0.477892376,0.0014287420000000002,0.00293304,0.001078696,0.0,-0.027806163,1.6225462,0.688508383,0.010081682,-0.009573004,0.72509339,1.0,398714137.4,327364392.1,400129.5853,2.835231046,-0.005691138,2.830922055,0.011382276,2.122717075,0,0,0.5015003,39.8714138,32.7364368,-0.068020923,1.46372418,-0.01029724,-0.525279625,10.72908914,0.234653865,-1.5754391369999998,31.96650531,0.8084762040000001,1.6211191880000002,0.1,-0.23067603,-0.13294065300000002,-0.005465881,1.0,8493332,1,0,0,0,0
15,8525713,0.022726304,0.035436506,0.003638316,1.0,0.0,1501.0,1500.0,2000.0,1488.0,1511.0,1517.0,10.72433617,10.93389208,9.64373157,9.646362138999999,9.834885568999999,10.37813025,10.58094636,,,124.97352040000001,124.97352040000001,12.4045534,0.000508445,-0.005425299000000001,0.001011886,0.029733678,0.004453428,-0.099254584,2.0,-1.0,0.0,11,0,0,1,0,0.0,0,0,0,0,0,0.0,-0.030671407,1.5698065419999998,1.573776517,0.350868137,274.9994673,66.60216772,-0.004398944,-0.013135595,0.0,-0.0016520520000000002,27.09940597,0.15366023199999998,-9.911394576000001,-7.209999999999999e-21,966.1654225,12.404602,9.84e-05,-0.008573522,0.003250469,31.29509402,0.16958957600000002,-9.900610506,0.0028468000000000005,-0.004145021,0.008152876,-7.209999999999999e-21,0.045801985,0.033801983,0.40060008,0.8236904909999999,13.25405227,25.78418303,-0.250602599,7.568806619,0.10999999,-39.99778656,2325468.294,6620172,399.5249712,12.404602,96617.35458,1.147974024,0.10877634300000001,-0.416892346,0.177635285,-0.000770014,0.008581856,0.001408554,0.0,-0.018284308,1.6225462,0.688546972,0.006629471999999999,-0.0062949780000000006,0.725134106,1.0,398714137.6,327364401.9,400130.6271,3.97774755,-0.003954791,3.971702159,0.007909582,1.95422138,0,0,0.465893179,39.8714138,32.7364368,-0.086099798,1.899048249,0.0010179969999999999,-0.569368847,11.78548395,0.26171438199999997,-1.420330771,29.52529127,0.746245707,1.6207501309999999,0.1,-0.23504376100000002,-0.118304853,-0.005465881,1.0,8525713,1,0,0,0,0
16,8562094,0.022396037,0.03520771,0.002556216,1.0,0.0,1501.0,1500.0,2000.0,1488.0,1511.0,1517.0,11.74251495,11.97202755,10.37828364,10.38108958,10.58397105,11.06438868,11.28061616,,,133.3822384,133.3822384,12.40455016,0.000575504,-0.005477769,0.001164331,0.029664242,0.00460242,-0.099420905,2.0,-1.0,0.0,11,0,0,1,0,0.0,0,0,0,0,0,0.0,-0.02140492,1.5694153519999998,1.5736732180000002,0.377229472,274.20919910000003,66.63219237,-0.0045567540000000005,-0.013505721000000002,0.0,-0.001686623,24.99891803,0.149277256,-9.895933414,-7.209999999999999e-21,966.1627572999998,12.404602,-0.000264754,-0.006955528000000001,0.001259813,29.26123676,0.151886136,-9.917735404,0.002487913,-0.001621345,0.007738674,-7.209999999999999e-21,0.08004645099999999,0.06804645,0.40060008,0.979437792,13.25404669,25.80176903,-0.250954429,7.11241764,0.10999999,-41.58962526,2362485.297,6620172,399.6287937,12.404602,96616.13816,1.147959564,0.114225355,-0.098083042,0.414318586,0.0014807370000000002,0.002455679,0.005501417,0.0,-0.008753688,1.6225462,0.6885683159999999,0.003173917,-0.0030137759999999997,0.725156507,1.0,398714137.8,327364411.6,400131.6689,5.1202640530000005,-0.002218444,5.112482263,0.0044368870000000005,1.785725685,0,0,0.43028605700000006,39.8714138,32.7364368,-0.104469205,2.355191399,0.012775286,-0.610637901,12.81704328,0.28774294899999997,-1.263366489,27.18102555,0.690926094,1.620348907,0.1,-0.239292084,-0.109749876,-0.005465881,1.0,8562094,1,0,0,0,0
17,8598475,0.01926065,0.031055389,0.00279719,1.0,0.0,1501.0,1500.0,2000.0,1489.452691,1509.547309,1515.547309,12.73545907,12.98426486,11.11283571,11.11581702,11.33305652,11.75064711,11.98028595,,,141.7909564,141.7909564,12.40454692,0.000642564,-0.005530239,0.001316777,0.029594806,0.004751412,-0.09958722699999999,2.0,-1.0,0.0,11,0,0,1,0,0.0,0,0,0,0,0,0.0,-0.012138432,1.569024161,1.573569919,0.40359080799999997,273.41893089999996,66.66221702,-0.0047416279999999995,-0.013912803,0.0,-0.001735183,22.91976141,0.13900979900000002,-9.887306284,-7.209999999999999e-21,966.1601379000001,12.404602,0.001433362,-0.001077246,-0.002463623,27.0014886,0.18828767,-9.919930061,0.0026103470000000003,0.000517067,0.008786705,0.11166375099999999,0.11429091699999999,0.102290916,0.40060008,1.135185093,13.25404111,25.81935503,-0.251306259,6.656028661000001,0.10999999,-43.18146396,2399140.628,6620172,399.55037589999995,12.404602,96617.07271000001,1.147970716,-0.182133883,0.008157883000000001,-0.136791695,0.000939675,0.003569251,0.005614873,0.0,0.000791366,1.6225462,0.688575432,-0.000286935,0.000272458,0.72516405,1.0,398714138.0,327364421.3,400132.7107,6.262780556,-0.000482096,6.2532623670000005,0.000964193,1.6172299909999999,0,0,0.39467893600000004,39.8714138,32.7364368,-0.122815589,2.812632406,0.024540282000000004,-0.651358054,13.84173937,0.313594433,-1.107703073,24.85593529,0.635719768,1.61995745,0.1,-0.24287342,-0.099888072,-0.005465881,1.0,8598475,1,0,0,0,0
18,8630856,0.020830431,0.030867033999999998,0.004320411,1.0,0.0,1502.0,1500.0,2000.0,1489.0,1510.0,1515.0,13.61929132,13.88529616,11.84738778,11.85054447,12.082142,12.43690554,12.67995575,,,150.1996744,150.1996744,12.40454368,0.000709624,-0.005582709,0.001469223,0.029525369,0.0049004040000000006,-0.099753549,2.0,-1.0,0.0,11,0,0,1,0,0.0,0,0,0,0,0,0.0,-0.002871945,1.568632971,1.57346662,0.429952144,272.62866280000003,66.69224167,-0.004895404,-0.014235525,0.0,-0.0017928710000000001,21.65688308,-0.096437101,-10.14019477,-7.209999999999999e-21,966.1592683,12.404602,-0.000165954,-0.010303329,0.001955246,24.61286382,0.10242653300000001,-9.851229407,0.021151324,-0.012087315,0.065789574,4.49632703,0.174405592,0.162405595,0.400600046,1.2727716999999998,13.25408447,25.74794795,-0.249877252,6.252436737000001,0.10999999,-44.84863275,2431795.9590000003,6620172,399.5863182,12.404602,96616.65666000001,1.1479657220000001,0.095569885,-0.392863681,-0.369134665,-0.002683739,0.005247572,0.000315205,0.0,0.010361605,1.6225462,0.688565689,-0.0037569120000000003,0.0035673540000000004,0.725153742,1.0,398714138.0,327364454.2,400131.1186,7.416585317000001,0.0,7.4078393060000005,0.002508502,1.5704909980000001,0,0,0.359071814,39.8714138,32.7364368,-0.140280954,3.319738077,0.03660023,-0.671073614,14.60380204,0.33266951100000003,-1.001819453,23.26462578,0.584848563,1.6199397759999998,0.1,-0.24660222399999998,-0.096676947,-0.005465881,1.0,8630856,1,0,0,0,0
19,8666473,0.018750805,0.031142367999999997,0.004727135,1.0,0.0,1502.0,1500.0,2000.0,1490.0,1509.0,1515.0,14.49043121,14.77364663,12.58193985,12.58527191,12.83122748,13.12316397,13.37962555,,,158.60839230000002,158.60839230000002,12.40454044,0.000776683,-0.005635178,0.001621668,0.029455932999999997,0.005049395999999999,-0.09991987,2.0,-1.0,0.0,11,0,0,1,0,0.0,0,0,0,0,0,0.0,0.006394542,1.56824178,1.573363321,0.45631348,271.8383946000001,66.72226631,-0.005067421,-0.014586998,0.0,-0.0018884639999999999,20.39400476,-0.33188400100000004,-10.39308326,-7.209999999999999e-21,966.1583988,12.404602,-0.003479472,-0.004524867,0.010892346,22.67529266,0.078573408,-9.941170762,0.039692301,-0.024691697000000002,0.122792443,8.88099031,0.24092305100000003,0.228923058,0.400600005,1.4058636,13.25413994,25.65451539,-0.248007495,5.8619118939999995,0.10999999,-46.53444545,2472376.075,6620172,399.6341705,12.404602,96616.09208999999,1.147958971,-0.119593865,-0.194023428,0.279322925,0.003790412,0.003909733,0.003954717,0.0,0.019957988,1.6225462,0.688541077,-0.007236286999999999,0.006871176,0.7251278090000001,1.0,398714138.0,327364496.1,400128.5141,8.574728946,0.0,8.567719334,0.005981195999999999,1.570551632,0,0,0.323464693,39.8714138,32.7364368,-0.157746319,3.826843748,0.048660177,-0.690789173,15.36586471,0.351744589,-0.895935832,21.67331627,0.533977358,1.6199221030000002,0.1,-0.250073387,-0.08070450400000001,-0.005465881,1.0,8666473,1,0,0,0,0
20,8699618,0.014236482,0.023295537,0.003898847,1.0,0.0,1502.0,1500.0,2000.0,1492.0,1507.0,1511.0,15.24614205,15.54400255,13.31649193,13.31999935,13.58031296,13.809422400000003,14.07929535,,,167.0171103,167.0171103,12.40453721,0.000843743,-0.005687648000000001,0.001774114,0.029386497,0.005198388,-0.10008619199999999,2.0,-1.0,0.0,11,0,0,1,0,0.0,0,0,0,0,0,0.0,0.01566103,1.56785059,1.573260022,0.482674815,271.0481264,66.75229096,-0.005229084,-0.014907696000000002,0.0,-0.002014358,19.08616164,-0.473905147,-10.57302039,-7.209999999999999e-21,966.1581304,12.40459992,0.001285029,-0.009402908,0.027133372000000003,21.09783601,0.04288905900000001,-9.888933139,0.06598689099999999,-0.03503979,0.176672539,11.54355041,0.307440511,0.295440521,0.40059996299999995,1.5389555,13.25419541,25.56108283,-0.246137738,5.471387052000001,0.10999999,-48.22025816,2507291.058,6620172,399.534743,12.404602,96617.23135,1.14797253,0.18115104,-0.342022509,0.58375919,-0.002937405,0.0030891240000000004,0.012675721000000001,0.0,0.029589914,1.6225462,0.688499622,-0.010728372,0.010187066,0.725084182,1.0,398714138.0,327364537.9,400125.9096,9.732872575,0.0,9.727599362000001,0.009453890999999999,1.570612265,0,0,0.287857572,39.8714138,32.7364368,-0.174383994,4.356406712,0.060491888,-0.7042886159999999,16.11205242,0.365215678,-0.8111343940000001,20.133123899999998,0.46664736100000004,1.621130542,0.1,-0.253251407,-0.076806341,-0.005465881,1.0,8699618,1,0,0,0,0
21,8731998,0.013516743999999999,0.023500347,0.002266613,1.0,0.0,1501.0,1500.0,2000.0,1492.5443089999999,1506.4556910000001,1511.0,15.98955465,16.3019564,14.051044000000001,14.05472679,14.32939844,14.49568084,14.77896514,,,175.4258283,175.4258283,12.40453397,0.0009108019999999999,-0.005740118000000001,0.00192656,0.02931706,0.00534738,-0.100252513,2.0,-1.0,0.0,11,0,0,1,0,0.0,0,0,0,0,0,0.0,0.024927517000000003,1.567459399,1.573156723,0.509036151,270.2578582,66.78231561,-0.005393849,-0.015232947,0.0,-0.002188743,17.59431277,-0.233607642,-10.45442461,-7.209999999999999e-21,966.1603219000001,12.40458931,0.014044143,-0.013140468,0.078993808,20.306238600000004,-0.652707205,-10.55423189,0.124010966,-0.036154652,0.217773563,7.158887131,0.37395797,0.361957984,0.400599921,1.6720473999999999,13.25425088,25.46765027,-0.24426798100000002,5.080862209,0.10999999,-49.90607087,2542055.611,6620172,399.6128368,12.404602,96616.36487,1.147962311,-0.034341749,0.16767941,0.743654994,0.000130166,0.000344987,0.027288056,0.0,0.039259649,1.6225462,0.6884425009999999,-0.014233923,0.013515743,0.725023988,1.0,398714138.0,327364579.8,400123.3051,10.8910162,0.0,10.88747939,0.012926585,1.5706728980000002,0,0,0.25225045,39.8714138,32.7364368,-0.187634582,4.977869837,0.07138961099999999,-0.6923503440000001,16.79327634,0.355754016,-0.81260586,18.8021141,0.33196438699999997,1.627356504,0.1,-0.256244622,-0.073592005,-0.005465881,1.0,8731998,1,0,0,0,0
22,8780379,0.006194599,-0.273280963,-0.009235775,1.0,0.0,1498.0012,1500.0,2000.0,1493.9988,1505.0012,1361.992799,16.61758114,16.94228834,14.78559607,14.78945424,15.07848391,15.18193927,15.47863494,,,183.83454630000003,183.83454630000003,12.40453073,0.000977862,-0.005792588,0.002079005,0.029247624,0.005496373000000001,-0.100418835,2.0,-1.0,0.0,11,0,0,1,0,0.0,0,0,0,0,0,0.0,0.034194004,1.567068209,1.573053424,0.535397487,269.46759,66.81234026,-0.0055686419999999995,-0.015579266000000001,0.0,-0.002424404,16.1024639,0.0066898619999999995,-10.33582883,-7.209999999999999e-21,966.1625134,12.40457871,0.065220293,-0.060340409000000005,0.198568788,18.65553798,-0.539419171,-10.56925313,0.182035041,-0.037269514,0.258874588,2.774223852,0.44047543,0.428475447,0.400599879,1.8051393,13.25430635,25.37421771,-0.242398224,4.690337367,0.10999999,-51.59188358,2580014.403,6620172,399.6018858,12.404602,96616.45959,1.147963295,1.4304922759999998,-1.555576927,4.266165485,0.01233669,-0.003816955,0.076627095,0.0,0.048970542,1.6225462,0.68836869,-0.017754055,0.016858263999999998,0.7249462809999999,1.0,398714138.0,327364621.6,400120.7005,12.04915983,0.0,12.04735942,0.01639928,1.570733531,0,0,0.216643329,39.8714138,32.7364368,-0.20088517,5.599332962999999,0.082287333,-0.680412073,17.47450026,0.346292355,-0.814077327,17.47110429,0.19728141300000002,1.633582466,0.1,-0.259088387,-0.057215260999999996,-0.005465881,1.0,8780379,1,0,0,0,0
23,8812760,-0.007369719,-0.216620365,-0.023007201,1.0,0.0,1490.0,1500.0,2000.0,1501.453291,1497.546709,1386.0,17.15111444,17.48636398,15.52014814,15.52418168,15.82756939,15.868197699999998,16.17830474,,,192.2432642,192.2432642,12.40452749,0.001044922,-0.005845058,0.002231451,0.029178187999999997,0.005645365,-0.100585156,2.0,-1.0,0.0,11,0,0,1,0,0.0,0,0,0,0,0,0.0,0.043460491,1.566677018,1.572950125,0.561758823,268.6773219,66.84236491,-0.005723206,-0.015894861,0.0,-0.002679822,14.76279444,0.21619708,-10.26727966,-7.209999999999999e-21,966.1629523,12.40456798,0.12630312400000002,-0.068313023,0.271576458,17.33211566,-0.292187798,-10.31266968,0.233905138,-0.03423841,0.24958369,-7.209999999999999e-21,0.508103518,0.49610353799999996,0.400599828,1.937998485,13.254361900000001,25.27916509,-0.24049606399999998,4.308752081000001,0.10999999,-53.25225782,2618560.512,6620172,399.4491659,12.404602,96618.22803,1.147984332,1.786420137,-0.18677236100000003,2.236487648,0.061821508,-0.042689772,0.186962635,0.0,0.05872437,1.6225462,0.688278217,-0.02128933,0.020215162,0.724851024,1.0,398714138.0,327364663.5,400118.096,13.20730346,0.0,13.20723945,0.019871974,1.570794165,0,0,0.181036207,39.8714138,32.7364368,-0.212056425,6.223308247,0.091806045,-0.676010055,18.08936364,0.337992405,-0.92064388,16.21203638,0.10809536,1.639967608,0.1,-0.26191326,-0.054894989000000005,-0.005465881,1.0,8812760,1,0,0,0,0
24,8849141,-0.019995494,-0.20731449899999999,-0.035160082999999995,1.0,0.0,1483.092218,1500.0,2000.0,1507.907782,1491.092218,1396.0,17.75495045,18.10176798,16.25470021,16.25890912,16.57665487,16.55445613,16.87797453,,,200.6519822,200.6519822,12.40452425,0.001111981,-0.005897528000000001,0.002383896,0.029108751000000002,0.005794356999999999,-0.100751478,2.0,-1.0,0.0,11,0,0,1,0,0.0,0,0,0,0,0,0.0,0.05272697900000001,1.566285828,1.572846826,0.588120158,267.8870537,66.87238956,-0.005886717,-0.016219855,0.0,-0.0029919509999999996,13.68527685,0.372663407,-10.2849433,-7.209999999999999e-21,966.1603719000001,12.40455702,0.185681077,-0.062467329,0.301443442,15.97335352,-0.011967151,-10.26660108,0.27517408600000004,-0.024065253999999998,0.153485135,-7.209999999999999e-21,0.590762115,0.57876214,0.40059965,2.067708267,13.25441859,25.16218766,-0.23815538100000003,4.0481487839999994,0.10999999,-54.56836486,2651727.946,6620172,399.64475510000005,12.404602,96615.9771,1.147957657,1.919536855,1.043604352,1.384568831,0.133057907,-0.054100652,0.27780516899999996,0.0,0.06852362599999999,1.6225462,0.688171125,-0.024840566,0.02358722,0.724738215,1.0,398714138.0,327364729.1,400118.1672,13.98917183,0.010034007,13.99084417,0.014982997,1.570212621,0,0,0.14542908599999999,39.8714138,32.7364368,-0.21964571600000002,6.8516111010000005,0.09894920300000001,-0.684590365,18.58991102,0.331693678,-1.208252507,15.07689918,0.097284588,1.646626961,0.1,-0.26508570800000003,-0.040991127999999995,-0.005465881,1.0,8849141,1,0,0,0,0
25,8885522,-0.034934344,-0.191248153,-0.043720489,1.0,0.0,1479.0,1500.0,2000.0,1514.362272,1484.637728,1400.0,18.36888271,18.72777209,16.98925228,16.99363656,17.32574035,17.24071456,17.57764433,,,209.06070019999999,209.06070019999999,12.40452101,0.001179041,-0.005949998000000001,0.002536342,0.029039315,0.0059433490000000005,-0.1009178,2.0,-1.0,0.0,11,0,0,1,0,0.0,0,0,0,0,0,0.0,0.061993466,1.565894637,1.5727435280000002,0.614481494,267.0967855,66.9024142,-0.006048866,-0.01654596,0.0,-0.003348458,12.60775926,0.529129734,-10.30260694,-7.209999999999999e-21,966.1577916000001,12.40454606,0.24878002300000002,-0.04002691,0.257647791,14.83895498,0.038403124,-10.20237123,0.316443034,-0.013892099,0.057386581,-7.209999999999999e-21,0.6734207109999999,0.661420742,0.400599472,2.197418049,13.25447528,25.04521023,-0.235814699,3.787545488,0.10999999,-55.8844719,2688383.277,6620172,399.5297446000001,12.404602,96617.2932,1.1479732679999999,1.984604042,1.055449268,-0.708328776,0.182701015,-0.050938603,0.296368691,0.0,0.078372589,1.6225462,0.68804631,-0.028409199,0.026975793999999997,0.724606792,1.0,398714138.0,327364795.6,400118.3409,14.75663733,0.02045209,14.76004601,0.009773955,1.5696064969999999,0,0,0.10982196400000001,39.8714138,32.7364368,-0.22723500800000002,7.479913955,0.106092362,-0.6931706759999999,19.09045839,0.32539495,-1.495861134,13.94176197,0.086473816,1.6532863130000002,0.1,-0.26789577,-0.03958768,-0.005465881,1.0,8885522,1,0,0,0,0
26,8921903,-0.041330318,-0.167456885,-0.045950402,1.0,0.0,1477.0,1500.0,2000.0,1517.816763,1481.183237,1415.45029,18.84786194,19.21613747,17.72380435,17.72836401,18.07482583,17.92697299,18.27731413,,,217.4694182,217.4694182,12.40451777,0.0012460999999999998,-0.006002466999999999,0.0026887879999999997,0.028969879,0.006092340999999999,-0.101084121,2.0,-1.0,0.0,11,0,0,1,0,0.0,0,0,0,0,0,0.0,0.071259953,1.5655034469999998,1.5726402290000001,0.64084283,266.3065173,66.93243885,-0.006212205,-0.016865252,0.0,-0.003737893,11.5497171,0.574350338,-10.27194174,-7.209999999999999e-21,966.1542791000002,12.404529400000001,0.296842485,-0.00290783,0.160773114,13.53189505,0.152678851,-10.12196909,0.335314826,-0.015204273999999999,-0.02985735,-7.209999999999999e-21,0.756079307,0.744079343,0.400599294,2.327127831,13.25453197,24.9282328,-0.233474017,3.5269421910000003,0.10999999,-57.20057893,2725038.608,6620172,399.4809441,12.404602,96617.86812,1.147980127,1.488959565,0.7477005999999999,-2.273083454,0.251646761,-0.023655371,0.24358961,0.0,0.088269338,1.6225462,0.687904918,-0.031994485,0.030380182999999998,0.724457853,1.0,398714138.0,327364862.1,400118.5145,15.52410282,0.030870174,15.52924785,0.004564913,1.5690003730000002,0,0,0.074214843,39.8714138,32.7364368,-0.23404951300000001,8.16363399,0.111996258,-0.7125968340000001,19.55232657,0.318000377,-1.682139073,12.81823424,0.11530532,1.654869278,0.1,-0.270444656,-0.025769105,-0.005465881,1.0,8921903,1,0,0,0,0
27,8954284,-0.051715385,-0.158156198,-0.04329397,1.0,0.0,1477.0,1500.0,2000.0,1524.271254,1474.728746,1419.0,19.31398486,19.69142324,18.45835643,18.46309145,18.823911300000002,18.61323142,18.97698392,,,225.8781361,225.8781361,12.40451453,0.00131316,-0.006054937,0.002841233,0.028900442999999998,0.006241333000000001,-0.10125044300000001,2.0,-1.0,0.0,11,0,0,1,0,0.0,0,0,0,0,0,0.0,0.08052644,1.565112256,1.57253693,0.667204166,265.5162491,66.9624635,-0.0063779169999999994,-0.017184758,0.0,-0.004169406,10.50838572,0.5241172000000001,-10.19980827,-7.209999999999999e-21,966.1499668,12.40450783,0.32629567800000003,-0.008892566999999999,0.069404143,12.69820266,0.566510759,-10.19992636,0.334968871,-0.026371369,-0.109503622,-7.209999999999999e-21,0.838737904,0.826737945,0.40059911600000003,2.4568376130000003,13.25458867,24.81125537,-0.231133334,3.266338895,0.10999999,-58.51668597,2761693.939,6620172,399.59254500000003,12.404602,96616.60029,1.147965055,0.895404911,-0.443299282,-2.927726797,0.293367084,0.007560495,0.164992086,0.0,0.09821999699999999,1.6225462,0.687744624,-0.035598462000000004,0.033802319,0.7242890740000001,1.0,398714138.0,327364928.6,400118.6881,16.29156831,0.041288258,16.29844969,-0.000644129,1.568394249,0,0,0.038607722000000004,39.8714138,32.7364368,-0.240199217,8.894904412,0.11683681300000001,-0.741329208,19.98100628,0.309665521,-1.781470806,11.70466794,0.178151648,1.652096477,0.1,-0.272855374,-0.023884381,-0.005465881,1.0,8954284,1,0,0,0,0
28,8986665,-0.05935323,-0.149624794,-0.037768196000000004,1.0,0.0,1479.725745,1500.0,2000.0,1528.725745,1470.274255,1424.1772349999999,19.74893642,20.13486406,19.192908499999998,19.19781889,19.57299678,19.29948985,19.67665372,,,234.28685409999997,234.28685409999997,12.40451129,0.00138022,-0.006107407,0.0029936790000000004,0.028831006,0.006390325,-0.101416764,2.0,-1.0,0.0,11,0,0,1,0,0.0,0,0,0,0,0,0.0,0.08979292800000001,1.564721065,1.572433631,0.6935655009999999,264.725981,66.99248815,-0.006534054,-0.017480566,0.0,-0.004604353,9.467054335,0.47388406299999997,-10.127674800000001,-7.209999999999999e-21,966.1456544,12.40448627,0.337070883,-0.011243566000000002,-0.038405031,11.636223699999999,0.7111509140000001,-10.11523876,0.334622915,-0.037538464,-0.18914989399999999,-7.209999999999999e-21,0.9213965000000001,0.909396547,0.40059893799999996,2.586547395,13.25464536,24.69427794,-0.22879265199999999,3.0057355980000002,0.10999999,-59.832793,2801407.481,6620172,399.6393832,12.404602,96616.02793,1.147958227,0.10878319800000001,-0.670082564,-3.729712665,0.32486747899999996,0.0038875259999999997,0.06669889400000001,0.0,0.10821564,1.6225462,0.687567945,-0.039217907999999996,0.037239149,0.724103012,1.0,398714138.0,327364995.1,400118.8618,17.05903381,0.051706340999999996,17.06765153,-0.005853171,1.567788125,0,0,0.0030006,39.8714138,32.7364368,-0.246348922,9.626174835,0.12167736800000001,-0.7700615820000001,20.409685999999997,0.30133066399999997,-1.88080254,10.59110164,0.240997975,1.6493236759999998,0.1,-0.274960522,-0.013880072,-0.005465881,1.0,8986665,1,0,0,0,0
29,9019045,-0.057157532000000004,-0.133386256,-0.028831102999999997,1.0,0.0,1484.180236,1500.0,2000.0,1528.0,1471.0,1433.0,20.15621689,20.5500595,19.47503629,19.47944067,19.86014152,19.56314267,19.94547844,,,238.86156969999996,238.86156969999996,12.40438533,0.0014205939999999998,-0.006141595,0.003078472,0.028213646000000002,0.006742061,-0.101273421,2.0,-1.0,0.0,11,0,0,1,0,0.0,0,0,0,0,0,0.0,0.099636219,1.563848463,1.572203943,0.750592557,263.9199188,66.95583332,-0.0066987209999999995,-0.017780926000000002,0.0,-0.005086426,8.52684424,0.24965795899999998,-10.00578201,-7.209999999999999e-21,966.1468187999999,12.40446471,0.352900685,-0.016673808999999998,-0.12988328400000002,10.611934,0.767416743,-10.12430003,0.32162559399999996,-0.038103568,-0.215430889,-7.209999999999999e-21,1.012350695,1.000350742,0.40059882,2.715076438,13.25469912,24.57592519,-0.22642452100000002,2.767681257,0.10999999,-61.08724918,2836172.034,6620172,399.6352711,12.404602,96616.06203,1.14795862,0.298690687,-0.012615987,-2.352244796,0.33750901200000005,-0.0013133320000000002,-0.048646002,0.0,0.118265525,1.6225462,0.6873712820000001,-0.042855925999999996,0.040693605,0.7238958809999999,1.0,398714138.0,327365064.0,400119.6373,17.76736947,0.052918584000000005,17.77736947,-0.011770353999999998,1.567682561,0,0,0.0,39.8714138,32.7364368,-0.251877417,10.3431196,0.124991755,-0.784186797,20.74630317,0.296792355,-1.6228340319999999,9.613394482999999,0.288224164,1.641980721,0.1,-0.27706156600000004,-0.008947090999999999,-0.005465881,1.0,9019045,1,0,0,0,0
30,9058853,-0.063792482,-0.122586859,-0.016143811,1.0,0.0,1489.0,1500.0,2000.0,1530.6347269999999,1468.3652730000001,1435.0,20.44024843,20.83960041,19.61198317,19.61566286,19.99905153,19.69118325,20.076046899999998,,,242.205971,242.205971,12.40422,0.001442925,-0.00616342,0.003117519,0.027225785,0.007230889,-0.100920685,2.0,-1.0,0.0,11,0,0,1,0,0.0,0,0,0,0,0,0.0,0.11002126,1.562523707,1.571855548,0.836421669,263.09902259999996,66.85655137,-0.00685248,-0.018047969,0.0,-0.005558456,7.628115662999999,-0.045942754,-9.863477185,-7.209999999999999e-21,966.1502298,12.40444315,0.344062123,-0.028812279,-0.197411607,9.534523252,0.547724978,-10.07502152,0.303438487,-0.034319571,-0.21982062,-7.209999999999999e-21,1.119697898,1.107697937,0.40059882,2.841272211,13.25474709,24.45485464,-0.22400214899999998,2.574186114,0.10999999,-62.21987653,2875659.932,6620172,399.5032066,12.404602,96617.58897000001,1.147976862,-0.474936676,-0.43207448299999995,-1.271111122,0.35002256,-0.004798206,-0.14208064199999998,0.0,0.12836255900000001,1.6225462,0.687157974,-0.046510029,0.044163335,0.7236712270000001,1.0,398714138.0,327365142.3,400122.7628,18.24486497,0.018191638,18.25486497,-0.02045209,1.569531164,0,0,0.0,39.8714138,32.7364368,-0.257151083,11.05418776,0.127680083,-0.792319927,21.04515487,0.29381144800000003,-1.218295433,8.691418844,0.32904273,1.6327630180000001,0.1,-0.278580129,-0.0014385429999999998,-0.005465881,1.0,9058853,1,0,0,0,0
31,9091807,-0.06284815,-0.113354014,-0.005740258000000001,1.0,0.0,1495.089218,1500.0,2000.0,1532.089218,1466.910782,1441.0,20.78769355,21.19402607,19.74893004,19.75188506,20.13796155,19.81922382,20.20661537,,,245.5503724,245.5503724,12.40405467,0.001465256,-0.006185245,0.003156566,0.026237924,0.007719716999999999,-0.100567948,2.0,-1.0,0.0,11,0,0,1,0,0.0,0,0,0,0,0,0.0,0.120406301,1.561198951,1.5715071530000002,0.9222507809999999,262.27812630000005,66.75726941,-0.007010316999999999,-0.018311041,0.0,-0.006060404,6.729387085,-0.341543466,-9.721172357999999,-7.209999999999999e-21,966.1536408,12.40442159,0.326955505,-0.051974547999999995,-0.249331644,8.24273276,0.058906731,-9.825076701,0.285251381,-0.030535574,-0.224210352,-7.209999999999999e-21,1.227045102,1.215045131,0.40059882,2.967467985,13.25479506,24.333784100000003,-0.221579777,2.380690971,0.10999999,-63.35250388,2908315.2630000003,6620172,399.6092751,12.404602,96616.3866,1.147962508,-0.461267249,-0.8534651259999999,-1.133219149,0.340272594,-0.017892963,-0.201819625,0.0,0.13852012,1.6225462,0.6869238959999999,-0.050184712,0.047652611,0.7234247509999999,1.0,398714138.0,327365220.6,400125.8882,18.72236047,-0.016535307,18.73236047,-0.029133827,1.571379766,0,0,0.0,39.8714138,32.7364368,-0.262424749,11.76525592,0.130368411,-0.800453058,21.34400656,0.290830541,-0.8137568340000001,7.769443206,0.369861296,1.623545316,0.1,-0.280329632,0.011096217,-0.005465881,1.0,9091807,1,0,0,0,0
32,9136188,-0.06579162599999999,-0.103190135,0.007736161,1.0,0.0,1502.0,1500.0,2000.0,1532.0,1467.0,1448.0,21.03207587,21.44301963,19.88587691,19.88810725,20.27687157,19.947264399999998,20.33718383,,,248.8947738,248.8947738,12.40388933,0.001487587,-0.00620707,0.003195612,0.025250063,0.008208545,-0.100215212,2.0,-1.0,0.0,11,0,0,1,0,0.0,0,0,0,0,0,0.0,0.130791342,1.559874194,1.5711587580000002,1.008079894,261.4572301,66.65798746,-0.007166555,-0.018561859,0.0,-0.006568184,6.119445865,-0.461476059,-9.741571109,-7.209999999999999e-21,966.1530266000001,12.40440936,0.309199681,-0.040693599,-0.253991629,7.302117076,-0.294398201,-9.785637312999999,0.26832685100000003,-0.022051702000000003,-0.147912383,-7.209999999999999e-21,1.334392305,1.322392326,0.40059882,3.0936637589999996,13.25484303,24.21271355,-0.219157405,2.187195828,0.10999999,-64.48513123,2944970.5939999996,6620172,399.7414127,12.404602,96614.85846,1.147944377,-0.73951335,0.529456493,0.14855957,0.32846991600000003,-0.035105227999999995,-0.24093628399999997,0.0,0.148726862,1.6225462,0.686672485,-0.05387600099999999,0.051157655,0.7231599390000001,1.0,398714138.0,327365298.9,400129.0136,19.19985597,-0.051262252,19.20985597,-0.037815562999999996,1.573228368,0,0,0.0,39.8714138,32.7364368,-0.2667857,12.55241518,0.131701551,-0.7827321909999999,21.586772500000002,0.287457765,-0.61188453,7.018650702,0.336091576,1.614802045,0.1,-0.28199115399999997,0.013309161000000002,-0.005465881,1.0,9136188,1,0,0,0,0
33,9172569,-0.06703937900000001,-0.094107789,0.016808166,1.0,0.0,1506.9982,1500.0,2000.0,1533.0,1466.0,1450.0,21.29317136,21.70913246,20.02282378,20.02432945,20.41578159,20.07530497,20.4677523,,,252.23917519999998,252.23917519999998,12.403724,0.0015099179999999999,-0.006228895,0.0032346590000000004,0.024262202000000004,0.008697374,-0.09986247599999999,2.0,-1.0,0.0,11,0,0,1,0,0.0,0,0,0,0,0,0.0,0.14117638300000002,1.558549438,1.570810363,1.0939090059999999,260.6363338,66.55870551,-0.007322736,-0.018798059,0.0,-0.007075988,5.548876298,-0.5574590429999999,-9.784151957,-7.209999999999999e-21,966.1518637,12.4043984,0.270520243,-0.012430683,-0.216420963,6.435772032999999,-0.5253663789999999,-9.628282013,0.251574454,-0.012927073999999998,-0.060613905999999995,-7.209999999999999e-21,1.4417395080000002,1.42973952,0.40059882,3.219859533,13.254891,24.091642999999998,-0.216735033,1.993700685,0.10999999,-65.61775859,2981625.925,6620172,399.51640019999996,12.404602,96617.45588,1.1479751790000001,-0.907104485,0.274653275,1.3549723999999999,0.304143453,-0.031806969,-0.257131334,0.0,0.158991794,1.6225462,0.6864002140000001,-0.057586813,0.054681234,0.7228731690000001,1.0,398714138.0,327365377.2,400132.13899999997,19.67735147,-0.085989198,19.68735147,-0.046497299000000006,1.57507697,0,0,0.0,39.8714138,32.7364368,-0.27102221600000004,13.34994828,0.132849931,-0.761486535,21.82189201,0.284031563,-0.437642615,6.291196349,0.292152907,1.606123456,0.1,-0.283579968,0.029257042999999996,-0.005465881,1.0,9172569,1,0,0,0,0
34,9204950,-0.068096082,-0.090653274,0.023323862,1.0,0.0,1510.452691,1500.0,2000.0,1533.0,1466.0,1454.0,21.56228438,21.98368436,20.15977065,20.16055164,20.55469161,20.20334555,20.59832076,,,255.58357650000002,255.58357650000002,12.40355867,0.0015322489999999999,-0.00625072,0.003273706,0.023274341,0.009186202,-0.09950974,2.0,-1.0,0.0,11,0,0,1,0,0.0,0,0,0,0,0,0.0,0.151561424,1.5572246809999999,1.570461968,1.179738118,259.8154376,66.45942355,-0.007485278000000001,-0.019031773999999998,0.0,-0.00761001,4.98887931,-0.638010471,-9.845221764,0.223323109,966.1507884,12.40438746,0.267578912,0.012543354,-0.16694789,5.882399369,-0.5492798839999999,-9.765845707,0.23524526899999998,-0.00198579,0.024969774,0.223323109,1.5490867119999998,1.537086715,0.40059882,3.3460553060000002,13.25493897,23.97057246,-0.21431266100000002,1.8002055419999998,0.10999999,-66.75038594,3018281.256,6620172,399.6266312,12.404602,96616.17939,1.14796001,-0.612196184,1.01986813,1.264589439,0.28390683,-0.016228273,-0.23967173600000002,0.0,0.169306791,1.6225462,0.686109478,-0.061314284000000004,0.058220635,0.722567044,1.0,398714138.0,327365455.5,400135.2645,20.15484697,-0.12071614300000001,20.16484697,-0.055179035999999994,1.576925572,0,0,0.0,39.8714138,32.7364368,-0.275111343,14.14529864,0.133887932,-0.74075677,22.05355439,0.280219597,-0.28817001,5.58136915,0.24075809899999998,1.597936386,0.1,-0.285093278,0.032983459,-0.005465881,1.0,9204950,1,0,0,0,0
35,9241331,-0.06980675,-0.086424603,0.027408915,1.0,0.0,1513.0,1500.0,2000.0,1534.907181,1464.092819,1456.0,21.77677935,22.20217696,20.29671753,20.29677384,20.69360162,20.33138612,20.72888922,,,258.92797790000003,258.92797790000003,12.40339333,0.00155458,-0.006272545,0.003312753,0.02228648,0.00967503,-0.099157004,2.0,-1.0,0.0,11,0,0,1,0,0.0,0,0,0,0,0,0.0,0.161946465,1.555899925,1.5701135730000002,1.265567231,258.99454130000004,66.36014159999999,-0.007631036,-0.019233206,0.0,-0.008094745,4.625884702,-0.43102057,-10.25080252,4.607900141,966.1513469,12.40437686,0.244318005,-0.008973324,-0.032399127,5.186242117,-0.7988057279999999,-9.768276417000001,0.226801928,0.042805864000000006,0.07860104799999999,4.607900141,1.680741896,1.668741896,0.4005984,3.476969055,13.25501535,23.85015955,-0.211902877,1.631460283,0.10999999,-67.84456931,3058936.587,6620172,399.5052689,12.404602,96617.57037,1.147976615,-0.197394605,1.364732059,1.567992094,0.268356143,0.001916051,-0.20842037,0.0,0.179676167,1.6225462,0.685798047,-0.065059695,0.061777068,0.7222390540000001,1.0,398714137.6,327365539.3,400138.3899,20.54817764,-0.15389878,20.55740548,-0.061544309000000005,1.578531594,0,0,0.0,39.8714138,32.7364368,-0.276454133,14.89997731,0.132869194,-0.729639788,22.22079869,0.26921956399999997,-0.600232213,5.199994596,0.050430588,1.598907971,0.1,-0.286651905,0.043005854,-0.005465881,1.0,9241331,1,0,0,0,0
36,9273712,-0.071007574,-0.078778847,0.025031125,1.0,0.0,1512.0,1500.0,2000.0,1535.0,1464.0,1458.7233449999999,21.92090935,22.34932349,20.433664399999998,20.43299604,20.83251164,20.459426699999998,20.85945769,,,262.2723793,262.2723793,12.403228,0.001576911,-0.00629437,0.0033518000000000003,0.021298618999999998,0.010163859,-0.098804268,2.0,-1.0,0.0,11,0,0,1,0,0.0,0,0,0,0,0,0.0,0.17233150600000002,1.5545751680000002,1.5697651780000001,1.3513963430000002,258.1736451,66.26085964,-0.007786696,-0.019433698,0.0,-0.008612911,4.262890093,-0.22403067,-10.65638328,8.992477174,966.1519053999999,12.40436625,0.23290291300000002,0.005298889,0.086171054,4.797213117,-0.612653575,-9.870349477000001,0.21835858800000002,0.08759751800000001,0.13223232199999999,8.992477174,1.828386742,1.816386742,0.400597704,3.610986262,13.25511041,23.73017922,-0.209501375,1.478995366,0.10999999,-68.91346443,3091659.932,6620172,399.677758,12.404602,96615.59963,1.147953131,-0.106046824,0.064045412,1.991437401,0.24308366899999997,0.011459812,-0.113583685,0.0,0.19009879600000001,1.6225462,0.6854669729999999,-0.068822628,0.06535014,0.721890368,1.0,398714136.7,327365629.9,400141.5153,20.83641128,-0.18515303100000002,20.84390278,-0.065017003,1.579834705,0,0,0.0,39.8714138,32.7364368,-0.277796922,15.65465597,0.131850456,-0.718522806,22.388043,0.258219531,-0.9122944159999999,4.818620041,-0.139896923,1.5998795559999999,0.1,-0.287885333,0.053278302,-0.005465881,1.0,9273712,1,0,0,0,0
37,9310092,-0.072798742,-0.075399615,0.020144577,1.0,0.0,1510.1838369999998,1500.0,2000.0,1535.0,1464.0,1462.0,22.12170681,22.55386058,20.57061127,20.56921823,20.97142166,20.58746727,20.99002615,,,265.61678059999997,265.61678059999997,12.40306267,0.001599242,-0.006316195,0.003390846,0.020310758,0.010652687,-0.098451531,2.0,-1.0,0.0,11,0,0,1,0,0.0,0,0,0,0,0,0.0,0.18271654699999998,1.553250412,1.569416783,1.437225455,257.3527489,66.16157769,-0.007940188,-0.019624733000000002,0.0,-0.009138678,3.885126793,-0.045568924000000004,-11.19885673,11.43166179,966.1524073999999,12.40434843,0.218488844,0.046362729000000005,0.15219634,4.332688495,-0.23297647300000002,-10.29243905,0.208494777,0.131167002,0.167843185,11.43166179,1.9760315880000001,1.964031588,0.400597008,3.745003469,13.25520548,23.61019889,-0.207099872,1.326530448,0.10999999,-69.98235955,3130288.458,6620172,399.62253460000005,12.404602,96616.21474,1.147960405,-0.372127272,0.45778619600000003,2.697268029,0.234156759,0.001541566,-0.010199330999999999,0.0,0.20057470100000002,1.6225462,0.685115217,-0.072602891,0.068939668,0.721519951,1.0,398714135.9,327365720.6,400144.6407,21.12464493,-0.216407281,21.13040008,-0.068489698,1.581137817,0,0,0.0,39.8714138,32.7364368,-0.279828645,16.42727395,0.130086875,-0.7165308420000001,22.54864981,0.234963242,-1.216241498,4.402815513,-0.49681755899999996,1.601911298,0.1,-0.289708798,0.057101833,-0.005465881,1.0,9310092,1,0,0,0,0
38,9346473,-0.074623288,-0.068906484,0.013738673,1.0,0.0,1507.0,1500.0,2000.0,1537.0,1462.0,1463.541308,22.21078825,22.644807800000002,20.70755814,20.70544043,21.11033168,20.71550785,21.12059461,,,268.961182,268.961182,12.40289733,0.0016215729999999999,-0.00633802,0.003429893,0.019322896000000003,0.011141515,-0.098098795,2.0,-1.0,0.0,11,0,0,1,0,0.0,0,0,0,0,0,0.0,0.19310158800000002,1.5519256559999999,1.569068388,1.523054567,256.5318526,66.06229573,-0.008093985,-0.019803257,0.0,-0.00966911,3.455560044,0.032825952,-12.22150223,7.047084761,966.1527114,12.40430531,0.210204207,0.11244017,0.170657595,4.086287132,0.026481123,-10.84156276,0.193648445,0.17044954,0.140244695,7.047084761,2.123676433,2.111676433,0.400596312,3.8790206769999998,13.25530055,23.49021856,-0.204698369,1.17406553,0.10999999,-71.05125467,3168752.15,6620172,399.6054806,12.404602,96616.40279,1.147962747,-0.529548519,1.009270839,1.516953154,0.227116433,0.023187773999999998,0.103205505,0.0,0.211101149,1.6225462,0.6847427490000001,-0.076399371,0.072544598,0.721127649,1.0,398714135.0,327365811.2,400147.7662,21.41287858,-0.247661532,21.41689738,-0.071962392,1.582440928,0,0,0.0,39.8714138,32.7364368,-0.284276911,17.26281682,0.125710645,-0.7465462759999999,22.68597459,0.16871626,-1.491723549,3.8662425810000003,-1.4380890780000002,1.6076617,0.1,-0.291533105,0.073470762,-0.005465881,1.0,9346473,1,0,0,0,0
39,9382854,-0.076420352,-0.068875915,0.00791344,1.0,0.0,1504.2748550000001,1500.0,2000.0,1537.0,1462.0,1466.0,22.44326064,22.88186815,20.84450501,20.84166262,21.24924169,20.84354842,21.25116308,,,272.3055834,272.3055834,12.402732,0.0016439039999999999,-0.006359845,0.00346894,0.018335035,0.011630343000000001,-0.09774605900000001,2.0,-1.0,0.0,11,0,0,1,0,0.0,0,0,0,0,0,0.0,0.20348662899999997,1.550600899,1.5687199930000002,1.60888368,255.71095640000001,65.96301378,-0.008249959,-0.019977375,0.0,-0.010204774,3.025993295,0.11122082800000001,-13.24414774,2.662507728,966.1530154,12.40426219,0.202996843,0.168556777,0.15850078199999998,3.5673148410000004,0.07707916,-11.71353238,0.17880211399999998,0.20973207800000002,0.112646205,2.662507728,2.271321279,2.259321279,0.400595616,4.013037884,13.25539561,23.37023824,-0.202296867,1.021600613,0.10999999,-72.12014980000001,3201557.912,6620172,399.6155017,12.404602,96616.31196,1.147961585,-0.1538826,1.910067355,-0.226382175,0.215181375,0.067164045,0.154327616,0.0,0.221670676,1.6225462,0.6843500770000001,-0.080209312,0.076162304,0.72071413,1.0,398714134.1,327365901.9,400150.8916,21.70111222,-0.27891578300000003,21.70339468,-0.075435087,1.5837440390000002,0,0,0.0,39.8714138,32.7364368,-0.288725177,18.09835968,0.121334414,-0.77656171,22.82329936,0.102469277,-1.7672056,3.329669649,-2.379360597,1.6134121030000002,0.1,-0.293505052,0.07433461200000001,-0.005465881,1.0,9382854,1,0,0,0,0
