timestamp,control[0],control[1],control[2],control[3],control[4],output[2],output[3],output[4],output[5],output[6],output[7],indicated_airspeed_m_s,equivalent_airspeed_m_s,true_airspeed_m_s,equivalent_ground_minus_wind_m_s,true_ground_minus_wind_m_s,indicated_airspeed_m_s.1,true_airspeed_m_s.1,differential_pressure_raw_pa,differential_pressure_filtered_pa,temperature,gyro_bias[0],gyro_bias[1],gyro_bias[2],accel_bias[0],accel_bias[1],accel_bias[2],nav_roll,nav_pitch,nav_bearing,target_bearing,xtrack_error,wp_dist,acceptance_radius,rollspeed_integ,pitchspeed_integ,yawspeed_integ,additional_integ1,x,y,z,temperature.1,pressure,temperature.2,gyro_rad[0],gyro_rad[1],gyro_rad[2],accelerometer_m_s2[0],accelerometer_m_s2[1],accelerometer_m_s2[2],timestamp_sample,x.1,y.1,z.1,temperature.3,altitude_sp,altitude_filtered,height_rate_setpoint,height_rate,airspeed_sp,airspeed_filtered,airspeed_derivative_sp,airspeed_derivative,throttle_integ,pitch_integ,timestamp_sample.1,baro_alt_meter,baro_temp_celcius,baro_pressure_pa,rho,roll_body,pitch_body,yaw_body,q_d[0],q_d[1],q_d[2],q_d[3],thrust_body[0],xyz[0],xyz[1],xyz[2],xyz[0].1,xyz[1].1,xyz[2].1,lat,lon,alt,vel_m_s,vel_n_m_s,vel_e_m_s,vel_d_m_s,cog_rad,ref_lat,ref_lon,x.2,y.2,z.2,vx,vy,vz,ax,ay,az,dist_bottom,roll,pitch,yaw,thrust_body[0].1,isTakeoff,isClimbing,isDescending,isCruise,isLand
33000000.0,0.0,0.0,0.0,0.5,0.5,900.0,900.0,900.0,900.0,900.0,900.0,0.9738671,0.9738671,0.9928898000000002,0.049313057,0.050276298,0.59011465,0.60164046,0.21329413,0.21329413,12.404602,-0.001383859,-0.005725703,0.000483996,0.022825766,0.003978438,-0.09619322,0.008008662,0.0,2.3836906000000004,1.5981736,-0.20459056,,0.28647888,4.29e-06,5.85e-06,-3.82e-06,0.0,-0.14291546,0.21224007,-9.984456,6.87e+18,966.1686,12.404602,-0.004379106,-0.009954265,-0.0014547579999999998,-0.12093012,0.22376363,-9.851189,33012000.0,-0.0006910519999999999,-0.002595081,0.006827219,6.87e+18,-0.20406792,-0.21606793,0.40060034,0.04062916,13.253951,25.784863,-0.25061822,8.860341,0.10999999,-37.396408,1764000.0,399.51263,12.404602,96617.48,1.1479754,0.008008662,0.0,2.3836906000000004,0.36994314,0.001481383,0.003720227,0.92904574,0.15,-0.11872603,-0.09004967,0.031830013,-0.003628903,-0.0073394609999999985,0.000880853,398714138.0,327364372.0,400119.0,0.0,0.0,0.0,0.02,3.9266417,39.87141370000001,32.7364371,-1.89e-06,4.44e-07,-1.78e-06,-0.000347552,5.5500000000000014e-05,-0.0008527000000000001,-0.038306314,9.46e-07,-0.2106158,0.1,0.03978659,0.023380762000000003,-0.007389004,0.15,1.0,0.0,0.0,0.0,0.0
33019472.0,0.0,0.0,0.0,0.5,0.5,900.0,900.0,900.0,900.0,900.0,900.0,1.3549136626933869,1.3550568505350702,1.3815306836492987,0.4489075758496995,0.4576813698997997,0.24377207025651298,0.2485340616553106,0.2281584495771543,0.2281584495771543,12.404602,-0.0013841510701402807,-0.005725222086172345,0.00048327402204408813,0.02284271942685371,0.003990843997995992,-0.09617102631262525,0.00766526706012024,0.0,2.349064947711423,1.5972186788016032,-0.19617336816032066,,1.6188024898436875,4.727194388777555e-06,5.643547094188377e-06,-3.3463727454909818e-06,0.0,-0.1536501124248497,0.21825799186172345,-9.944959049501001,6.87e+18,966.1651533901803,12.404602,-0.002440127026052104,-0.008952887040080161,-0.005749771462925852,-0.11981862370340682,0.23042882058316633,-9.890080500635271,33033609.012745492,-0.0023198603787575153,-0.004801950228456914,0.004447777002004008,6.87e+18,-0.18691828273346695,-0.1989182921262525,0.4006003126753507,0.12823703038877754,13.2539774198998,25.784835523547095,-0.25061714340881763,8.566103640985972,0.10999999,-38.47465489823647,1789426.4818136273,399.60277851142285,12.404602,96616.45635791583,1.1479632824288577,0.008008662,0.0,2.3836906000000004,0.36994314,0.001481383,0.003720227,0.92904574,0.15,0.0023668197274549357,-0.0010222027134268452,-0.029473364763527056,-0.0037224431683366734,-0.006723336913827655,0.0008803283667334669,398714137.87855715,327364372.0,400119.0,0.0,0.0,0.0012559708256513029,0.018744029174348698,3.6611147756613227,39.87141370000001,32.7364371,1.6320360721442885e-05,2.4705859719438884e-05,-0.007910291310621244,-1.3435903807615238e-05,0.00047665907014028056,-0.0048624204428857724,-0.017241149214428857,0.005609676380761523,-0.1947928643246493,0.1,0.039587813498997995,0.023416163815631264,-0.007391534869739479,0.15,1.0,0.0,0.0,0.0,0.0
33039801.0,0.0,0.0,0.0,0.5,0.5,900.0,900.0,900.0,900.0,900.0,900.0,1.7359602256012026,1.7362466012845692,1.7701715672985971,0.8485020946993989,0.8650864417995994,0.24341523248497007,0.24817275781963943,0.24302276915430862,0.24302276915430862,12.404602,-0.001384443354709419,-0.005724740957915832,0.00048255182965931863,0.022859672853707415,0.004003249781563126,-0.09614883283967936,0.007321872334669338,0.0,2.3144392954228454,1.5962637576032064,-0.1877561763206413,,2.9511260999018036,4.849178356713427e-06,5.443527054108217e-06,-2.8491583166332666e-06,0.0,-0.1643847648496994,0.22427591350901804,-9.905462099002005,6.87e+18,966.1617067589178,12.404602,-0.0010217084128256511,-0.00810114118236473,-0.006071387743486973,-0.11017571613426853,0.2213338658036072,-9.892452413016033,33055218.023346696,-0.003948668543086173,-0.007008819671342686,0.0020683352184368733,6.87e+18,-0.16976864546693388,-0.181768654252505,0.4006002853507014,0.21584490077755514,13.2540038397996,25.784808047094188,-0.25061606660320646,8.271866281971944,0.10999999,-39.552901794328655,1814852.9636272546,399.6513003775551,12.404602,96615.9011828457,1.1479567245691384,0.008008662,0.0,2.3836906000000004,0.36994314,0.001481383,0.003720227,0.92904574,0.15,0.06467654810020039,0.04531310620641282,-0.05005409284769538,-0.003368103637274549,-0.0058199690761523044,0.0009498838016032064,398714137.75711423,327364372.0,400119.0,0.0,0.0,0.002511941436873748,0.01748805856312625,3.3955878513226456,39.87141370000001,32.7364371,3.4511422845691386e-05,4.895571142284569e-05,-0.015818802621242488,0.00032067997795591193,0.0008978082765531062,-0.0088721411002004,0.0038240155711422876,0.011218406975951905,-0.17896992886372745,0.1,0.03817684085971944,0.02345386002004008,-0.007392817977955912,0.13312321786172343,1.0,0.0,0.0,0.0,0.0
33061701.0,0.0,0.0,0.0,0.5,0.5,900.0,900.0,900.0,900.0,900.0,900.0,2.117006788901804,2.117436352426854,2.158812450947896,1.2480966135490985,1.272491513699399,0.8768266697274552,0.8939613467294593,0.25788708873146293,0.25788708873146293,12.404602,-0.0013847360320641284,-0.005724259436873748,0.00048182924448897797,0.02287662628056112,0.00401565517234469,-0.09612663975951904,0.006978478002004008,0.0,2.2798136431342684,1.5953088364048096,-0.17933898448096192,,4.283449710352706,4.39376753507014e-06,5.2552905811623245e-06,-2.3087374749499e-06,0.0,-0.1751194172745491,0.23029383476352705,-9.865965148503006,6.87e+18,966.1582600883768,12.404602,-0.0005568396192384768,-0.007523487773547094,0.0008853683847695401,-0.0849051767014028,0.18336985970541084,-9.827928631024049,33076827.03002004,-0.00557747631462926,-0.009215689507014029,-0.00031110617234468953,6.87e+18,-0.1526190082004008,-0.16461901637875753,0.4006002580260521,0.30345277116633274,13.254030259699398,25.78478057064128,-0.25061498940480964,7.977628922957916,0.10999999,-40.631148686492985,1840279.4454408817,399.62357156633266,12.404602,96616.20413426854,1.1479603508537075,0.008008662,0.0,2.3836906000000004,0.36994314,0.001481383,0.003720227,0.92904574,0.15,0.019308783150300587,0.013445956809619235,0.00395993922845693,-0.002193348955911823,-0.004390435114228457,0.0011478102024048097,398714137.6356714,327364372.0,400119.0,0.0,0.0,0.0037679116553106214,0.01623208834468938,3.130060926983968,39.87141370000001,32.7364371,5.266713426853708e-05,7.318356713426855e-05,-0.023727313931863732,0.0006547954669338679,0.0013189394148296592,-0.012881862150300603,0.024889180356713433,0.016827137963927857,-0.1631469937955912,0.1,0.03454539678957916,0.023495759030060123,-0.007391815466933868,0.08533195629258515,1.0,0.0,0.0,0.0,0.0
33085317.0,0.0,0.0,0.0,0.5,0.5,900.0,900.0,900.0,900.0,900.0,900.0,2.4980533517735473,2.4986261031402806,2.547453334597195,1.6476911328276556,1.6798965855991985,0.5751230771983966,0.5863608776312623,0.272751408737475,0.272751408737475,12.404602,-0.0013850282805611222,-0.005723778344689379,0.0004811070881763527,0.02289357970741483,0.004028060991983968,-0.096104446250501,0.006635083240480962,0.0,2.2451879908456913,1.5943539152064128,-0.17092179264128257,,5.61577332037475,4.036993987975952e-06,5.3629659318637275e-06,-2.604589178356714e-06,0.0,-0.1812652200961924,0.23764697363727455,-9.83419306064529,6.87e+18,966.1556758078157,12.404602,-0.0032719546452905823,-0.005766603446893787,0.0003952817515030047,-0.10679558073146295,0.18600740072945895,-9.876253572815632,33098436.040981963,-0.0065757277254509024,-0.01100302370741483,-0.002322115042084169,6.87e+18,-0.13546937136272544,-0.14746937807615232,0.4006002302725451,0.39106064112625255,13.254056679599199,25.784753094188375,-0.25061391263527055,7.683391564372744,0.10999999,-41.709395582945895,1865705.9268256514,399.6233281603206,12.404602,96616.19801222444,1.1479602889619238,0.004574085511022043,0.0,2.0468118000000004,0.5103604022044088,0.0008460804709418834,0.002124778947895791,0.8379866943486973,0.2672860223607215,0.023658282152304616,-0.0017315671723446922,-0.009277513448897805,-0.0022671569038076153,-0.005403358631262526,0.000261109553106212,398714137.51422846,327364372.0,400119.0,0.0,0.0,0.00502388230260521,0.014976117697394788,2.8645340026452906,39.87141370000001,32.7364371,9.831605611222447e-05,0.00012109809218436877,-0.03080809597194389,0.0011741830641282566,0.0019432787775551102,-0.017560699016032064,0.027344616092184366,0.02244875398196393,-0.14990258461122244,0.1,0.03121705734468938,0.023557505575150302,-0.007391521,0.46957688139278575,1.0,0.0,0.0,0.0,0.0
33109503.0,0.0,0.0,0.0,0.5,0.5,900.0,900.0,900.0,900.0,900.0,900.0,2.879099914466934,2.879815853711423,2.9360942182104215,2.0472856522484975,2.087301657498998,-0.028317068673346366,-0.028872446106212084,0.2876157288857716,0.2876157288857716,12.404602,-0.0013853203507014026,-0.0057232974308617235,0.00048038507414829655,0.02291053317034068,0.004040466953907816,-0.09608225256312626,0.006291688300601203,0.0,2.2105623385571147,1.5933989940080162,-0.16250460080160317,,6.948096930254509,3.77246492985972e-06,5.569899799599198e-06,-3.2175751503006016e-06,0.0,-0.1838570309098196,0.24603421758917837,-9.808403758008016,6.87e+18,966.1537594240481,12.404602,-0.007008503949899799,-0.0037865886032064137,-0.00278468242284569,-0.14601613746693387,0.20628104191983976,-9.965216841977957,33120045.053727455,-0.007085623236472945,-0.01246543431462926,-0.004047778637274549,6.87e+18,-0.11831973466733467,-0.13031973963126253,0.40060020237675353,0.4786685109438878,13.254083099138278,25.78472561773547,-0.25061283600801604,7.3891542059298585,0.10999999,-42.787642480821646,1891132.4080681363,399.63075526332665,12.404602,96616.10792643286,1.1479592249058115,0.0,0.0,1.5981648000000002,0.6973647,0.0,0.0,0.71671647,0.44428084019438896,0.04860477602004009,-0.010940046070140291,-0.0460785698056112,-0.0027339689278557105,-0.007380570050100201,-0.0009705072064128254,398714137.39278555,327364372.0,400119.0,0.0,0.0,0.006279853128256513,0.013720146871743485,2.599007078306613,39.87141370000001,32.7364371,0.0001568952705410822,0.00018014955110220445,-0.03749955679158317,0.001780713072144289,0.002663196833667335,-0.022554253569138278,0.0210469940761523,0.028076430438877756,-0.13787098115030058,0.1,0.02820676678557114,0.02361965565531062,-0.007391521,1.0,1.0,0.0,0.0,0.0,0.0
33131403.0,0.0,0.0,0.0,0.5,0.5,900.0,900.0,900.0,900.0,900.0,900.0,3.260146477160321,3.2610056048537075,3.3247351012525055,2.4468801710981967,2.494706729398798,0.7483778689919843,0.7630036932725456,0.30248004846292587,0.30248004846292587,12.404602,-0.0013856124208416832,-0.005722816517034069,0.00047966248897795595,0.02292748720440882,0.0040528723446893785,-0.0960600588757515,0.0059482933607214435,0.0,2.175936686268537,1.5924440728096194,-0.15408740896192383,,8.28042054070541,4.318957915831663e-06,5.399879759519038e-06,-3.3450901803607216e-06,0.0,-0.16039437589178354,0.2620025295070141,-9.82647450980962,6.87e+18,966.1567393288577,12.404602,-0.005977915939879759,-0.006038780923847697,0.0004822732925851719,-0.14908110816032064,0.23843617490380764,-9.954523752773547,33141654.066472944,-0.004015361883767533,-0.01154581777755511,-0.003681563364729459,6.87e+18,-0.1011700974008016,-0.11317010175751503,0.4006001750521042,0.5662763813326654,13.254109512965933,25.784698141282565,-0.2506117588096193,7.094916846915831,0.10999999,-43.865889372985976,1916558.8898817636,399.578643695992,12.404602,96616.72362971943,1.1479665794869738,0.0,0.0,1.5981648000000002,0.6973647,0.0,0.0,0.71671647,0.7943492506332668,0.07228759302404811,-0.03553800808416835,-0.013126323366733444,-0.0012016967134268527,-0.00854235706012024,-0.0005211448476953905,398714137.2713427,327364372.0,400119.0,0.0,0.0,0.007535823953907816,0.012464176046092184,2.333480153967936,39.87141370000001,32.7364371,0.00023916432464929864,0.00025956166132264536,-0.0434772719498998,0.002547001286573147,0.003558340200400802,-0.028124783482965935,-0.001297672308617246,0.03371521732665331,-0.12806282318036072,0.1,0.028236339342685372,0.023557501186372745,-0.007391521,1.0,1.0,0.0,0.0,0.0,0.0
33153304.0,0.0,0.0,0.0,0.5,0.5,900.0,900.0,900.0,900.0,900.0,900.0,3.6411930398537082,3.6421953557454914,3.7133759845450904,2.846474689947896,2.902111801298598,0.655178953701402,0.6679854428717427,0.3173443680400802,0.3173443680400802,12.404602,-0.001385904490981964,-0.005722335603206413,0.0004789401543086173,0.022944440987975954,0.004065277985971944,-0.09603786543887775,0.005604898671342686,0.0,2.14131103397996,1.5914891516112224,-0.14567021712224448,,9.61274415040481,4.3995190380761514e-06,5.4377755511022045e-06,-2.563286573146291e-06,0.0,-0.13693172087374747,0.2779708411743487,-9.844545261611223,6.87e+18,966.1597192086172,12.404602,-0.003495372519038074,-0.0069769852685370734,0.001281686673346692,-0.14658047188977955,0.23241452757715425,-9.932464409811622,33163263.079218436,-0.0009451002805611205,-0.01062620098997996,-0.0033153480921843683,6.87e+18,-0.08402046013426852,-0.09602046388376753,0.40060014772745495,0.6538842517214429,13.254135929298599,25.784670664829658,-0.25061068186172347,6.800679487901804,0.10999999,-44.94413626765531,1941260.1765551101,399.5592840575151,12.404602,96616.95854893788,1.1479693854709416,0.0,0.0,1.5981648000000002,0.6973647,0.0,0.0,0.71671647,1.0,0.053116163535070086,-0.04013683457715429,0.017330836148296606,-0.00017041898797595168,-0.00913893640480962,-0.00043773063527054136,398714137.1498998,327364372.0,400119.0856963928,0.0,0.0,0.008534729148296593,0.01129389384769539,2.1118848959619236,39.87141370000001,32.7364371,0.00032533919038076157,0.00034865388176352714,-0.04932216521442886,0.003316623168336674,0.004490908917835671,-0.03361256715430862,-0.018770004024048104,0.03798021263126253,-0.11967147783567134,0.1,0.028238976529058116,0.023518041356713426,-0.007391521,1.0,1.0,0.0,0.0,0.0,0.0
33175204.0,0.0,0.0,0.0,0.5,0.5,900.0,900.0,900.0,900.0,900.0,900.0,4.022239602547096,4.0233851062805615,4.102016868194388,3.2460692087975955,3.3095168731983975,-0.6767488081983977,-0.6899704185751514,0.3322086876172345,0.3322086876172345,12.404602,-0.0013861965611222445,-0.005721854689378757,0.0004782181763527054,0.02296139441482966,0.004077683983967935,-0.09601567235871743,0.005261504338677355,0.0,2.1066853816913826,1.5905342304128256,-0.1372530252825651,,10.945067759034071,3.816593186372745e-06,5.771743486973948e-06,-4.866132264529043e-07,0.0,-0.1134690658557114,0.29393915248497,-9.862616013412826,6.87e+18,966.1626990527054,12.404602,0.0010547554068136306,-0.006044070735470941,-0.0014326802304609233,-0.1361544113026052,0.17202914508817632,-9.894219521498998,33184872.09196393,0.0021251616793587194,-0.009706583845691381,-0.0029491328196392785,6.87e+18,-0.06687082286773545,-0.07887082601002003,0.4006001204028056,0.7414921221102205,13.254162349198397,25.784643188376755,-0.2506096052705411,6.506442128887776,0.10999999,-46.02238316589178,1964928.7853486973,399.5865631657315,12.404602,96616.65123164329,1.147965714252505,0.0,0.0,1.5981648000000002,0.6973647,0.0,0.0,0.71671647,1.0,-0.027079712959919913,-0.016256892088176336,0.044234991883767553,0.0001474425851703409,-0.008930660034068137,-0.000875426583166333,398714137.0284569,327364372.0,400119.29342444893,0.0,0.0,0.009167572883767535,0.010245632254509017,1.952848330813627,39.87141370000001,32.7364371,0.0004170759318637275,0.0004515305791583167,-0.0549779201022044,0.0040909921923847695,0.005476771334669339,-0.03898252017635271,-0.02930413117034069,0.040288928721442886,-0.11329767366933867,0.1,0.028203257747494992,0.023510898693386774,-0.007391521,1.0,1.0,0.0,0.0,0.0,0.0
33198964.0,0.0,0.0,0.0,0.5,0.5,900.0,900.0,900.0,900.0,900.0,900.0,4.403286165705412,4.404574857280561,4.490657751843687,3.645663727647295,3.7169219450981967,-1.0407778159018035,-1.0611119855931865,0.3470730071943888,0.3470730071943888,12.404602,-0.001386488631262525,-0.005721373310621242,0.00047749573346693387,0.02297834784168337,0.004090089517034068,-0.09599347881362726,0.004918109541082164,0.0,2.0720597294028056,1.5895793092144288,-0.12883583344288577,,12.277391371382768,3.5870140280561123e-06,5.482705410821643e-06,0.0,0.0,-0.10075520376753506,0.30431441523446895,-9.878501680420841,6.87e+18,966.1648660134268,12.404602,0.0014386701062124242,-0.005019212138276552,-0.002318917354709419,-0.11643435586172342,0.18146809962525054,-9.904729632176352,33206481.10006012,0.003674884016032065,-0.009251037370741483,-0.002858968256513026,6.87e+18,-0.047211801072144274,-0.05921180314228455,0.4006000930781563,0.8240092871683368,13.254185565731463,25.77462044523046,-0.2504086869478958,6.230892168094188,0.10999999,-47.06502545651303,1990300.865997996,399.6211610603207,12.404602,96616.24478200401,1.147960803995992,0.0,0.0,1.5981648000000002,0.6973647,0.0,0.0,0.71671647,1.0,-0.04655130179158317,0.0361000363887776,0.01177233844889776,-0.0005958215330661331,-0.007678329266533065,-0.0003593351963927851,398714137.092986,327364372.0,400120.3037609219,0.0,0.0,0.007392528603206411,0.01,2.2053122350681367,39.87141370000001,32.7364371,0.0005354396713426854,0.0006204045350701404,-0.05972812459318637,0.004888087917835672,0.006717792837675351,-0.04378832730661323,-0.0066197060761522784,0.03323142124448897,-0.11658340104609219,0.1,0.02819505862925852,0.023525989905811624,-0.007391521,1.0,1.0,0.0,0.0,0.0,0.0
33223005.0,0.0023821734589178525,0.001145603975951912,-0.00041799679358717727,0.4747494989979958,0.4970293727775551,900.0,900.0,900.0,900.0,900.0,900.0,4.784332728933868,4.785764608350702,4.879298635492987,4.045258246496995,4.124327016997996,-1.019672827919839,-1.0395936611222438,0.3619373267715431,0.3619373267715431,12.404602,-0.0013867807014028056,-0.0057208918617234475,0.00047677322044088175,0.022995301268537074,0.00410249497995992,-0.09597128512625251,0.004574714673346693,0.0,2.0374340771142285,1.588624388016032,-0.12041864160320641,,13.609714984148297,3.4525851703406813e-06,5.052064128256513e-06,0.0,-3.765931863727482e-08,-0.09405230956913828,0.3115619187855711,-9.89316539859519,6.87e+18,966.1665783761523,12.404602,0.0005801490020040075,-0.004513420176352709,-0.0023765066773547075,-0.09994146180961926,0.20459507829458914,-9.930043037767534,33228090.10745491,0.004374286382765529,-0.009055009525050102,-0.002923177466933868,6.87e+18,-0.02564132631462923,-0.037641327242484944,0.40060006604208415,0.9026487511222445,13.254206339559119,25.756984086533066,-0.250055544737475,5.969576805809619,0.10999999,-48.08054694432865,2016003.5955430863,399.64685480801603,12.404602,96615.93742563127,1.1479570678176354,0.0,0.0,1.5981648000000002,0.6973647,0.0,0.0,0.71671647,1.0,-0.04738481612825651,0.07747232838276544,-0.026492355959919795,-0.001646861396793588,-0.006249073234468937,0.0002541827855711416,398714137.21442884,327364372.0,400121.5597232465,0.0,0.0,0.004880587486973945,0.01,2.5837094725591183,39.87141370000001,32.7364371,0.0006619521903807616,0.000809475855711423,-0.06420119943687375,0.00569213886973948,0.008036901891783568,-0.048421486340681365,0.026230741470941912,0.023307526382765523,-0.12282527809018037,0.1,0.028195376779559116,0.023548462316633267,-0.007391521,1.0,1.0,0.0,0.0,0.0,0.0
33244905.0,0.022432133404809637,0.010787770773547103,-0.003936136472945895,0.2622244488977954,0.4720265936553106,900.0,900.0,900.0,900.0,900.0,900.0,5.165379291627255,5.166954358885772,5.267939519142285,4.444852765346694,4.531732088897796,-0.339051131911823,-0.3456752242344683,0.37680164634869745,0.37680164634869745,12.404602,-0.0013870727715430862,-0.005720410947895791,0.00047605124248496994,0.023012254695390782,0.004114900977955912,-0.09594909143887777,0.004231320340681363,0.0,2.0028084248256515,1.5876694668176354,-0.11200144976352705,,14.942038591563128,3.2218436873747494e-06,4.985270541082164e-06,0.0,-3.5462525050100233e-07,-0.10753362602605213,0.30830672906412826,-9.903725938354711,6.87e+18,966.1667641837676,12.404602,-3.6817897795591746e-05,-0.00806606299398798,-0.00043769954509017845,-0.1284784462905812,0.17075737902404806,-9.954485608144289,33249699.1202004,0.0022184025210420823,-0.009730417777555112,-0.003505757813627255,6.87e+18,0.004410067953907842,-0.007589932366733436,0.4006000411462926,0.964083256234469,13.25421626751503,25.705566893186372,-0.24902700061122246,5.771418886290581,0.10999999,-48.97573624076152,2040292.1726973949,399.58989760881764,12.404602,96616.5900171944,1.1479648516993988,0.0,0.0,1.5981648000000002,0.6973647,0.0,0.0,0.71671647,1.0,-0.047815245541082164,-0.027260569478958024,0.026959302044088224,-0.0025720752364729467,-0.005877369957915831,-0.0005745829358717442,398714137.3358717,327364372.0,400122.8156855711,0.0,0.0,0.0023686458356713402,0.01,2.96210670951503,39.87141370000001,32.7364371,0.0007884647094188378,0.0009985466412825654,-0.06867427428056112,0.006496190356713428,0.009356011480961924,-0.05305464537474951,0.05908118901803611,0.013383631521042074,-0.1290671545991984,0.1,0.02819640175751503,0.023575213148296595,-0.007391521,1.0,1.0,0.0,0.0,0.0,0.0
33265660.0,0.032690160326653304,0.016055956164328658,-0.005838252925851703,0.15,0.4358498180320641,900.0,900.0,900.0,900.0,900.0,900.0,5.546425854320642,5.548144109707415,5.656580402791583,4.844447284482967,4.939137160797595,-0.2830878252545097,-0.28861989799799664,0.39166596592585173,0.39166596592585173,12.404602,-0.001387364841683367,-0.005719930034068135,0.0004753289779559118,0.023029208122244488,0.004127306689378758,-0.09592689803807615,0.0038879257214428854,0.0,1.968182772537074,1.5867145456192386,-0.10358425792384769,,16.27436220184369,3.1917034068136274e-06,5.064629258517035e-06,0.0,-1.432729458917838e-06,-0.12101494248296595,0.3050515390561122,-9.91428647811423,6.87e+18,966.1669500200401,12.404602,-0.00036431984168336677,-0.009316160791583164,-0.0004862253126252528,-0.13861063611823646,0.1810280850621243,-9.95472788760521,33271308.13294589,6.251865931863518e-05,-0.010405826316633268,-0.004088338160320642,6.87e+18,0.03446146222244492,0.022461462795591212,0.40060001596392786,1.0255177616332667,13.254226198336674,25.654149699839678,-0.24799845677154309,5.573260966771543,0.10999999,-49.87092553719439,2065117.7804769538,399.5825131793587,12.404602,96616.68356759519,1.1479659770541082,0.0,0.0,1.5981648000000002,0.6973647,0.0,0.0,0.71671647,1.0,-0.03165569989178353,-0.05907718416432861,0.045354685717434846,-0.0029503083446893786,-0.005922378711422846,-0.0012676385050100205,398714137.4859719,327364372.0,400124.0716478958,0.0,0.0,-0.0001432955290581188,0.01,3.3405039467575155,39.87141370000001,32.7364371,0.0009543853346693389,0.001243155589178357,-0.07304859630460922,0.007328628346693388,0.010510436653306613,-0.057702520799599206,0.0712639589018036,0.011960243274549106,-0.1341174410521042,0.10005060623847696,0.028178699753507012,0.0235438922244489,-0.007391521,1.0,1.0,0.0,0.0,0.0,0.0
33285132.0,0.03199217827054108,0.01643017634468938,-0.0059322315030060115,0.15,0.38717066870140276,900.0,900.0,900.0,900.0,900.0,900.0,5.9274724170140285,5.929333860849701,6.045221286440882,5.24404180393988,5.346542232697396,-0.9260429961923855,-0.944138681581163,0.4065302855030061,0.4065302855030061,12.404602,-0.0013876569118236473,-0.0057194491202404805,0.00047460639278557113,0.0230461615490982,0.004139712080160321,-0.09590470495791582,0.0035445307815631256,0.0,1.933557120248497,1.5857596244208416,-0.09516706608416833,,17.60668581533066,3.386012024048096e-06,5.30751503006012e-06,0.0,-3.362456913827658e-06,-0.13449625893987976,0.3017963487274549,-9.924847017873747,6.87e+18,966.1671358883768,12.404602,-0.00036794491182364733,-0.007989984440881762,-0.0027583403386773576,-0.12815004871142283,0.24065085298396802,-9.927892918488977,33292917.145691384,-0.0020933652024048115,-0.011081235176352707,-0.004670918507014029,6.87e+18,0.06451285649098198,0.052512858278557145,0.4005999904609219,1.0869522673527054,13.25423613236473,25.602732506492984,-0.246969913252505,5.375103047252505,0.10999999,-50.766114833627256,2090544.2616833667,399.63059478597194,12.404602,96616.15161739479,1.147959652308617,0.0,0.0,1.5981648000000002,0.6973647,0.0,0.0,0.71671647,1.0,0.0030660556172345046,-0.009309146344689323,0.02452626594388775,-0.00271653504008016,-0.006433638687374749,-0.001808850547094189,398714137.66813624,327364372.0,400125.3276102204,0.0,0.0,-0.0026552365731462952,0.01,3.7189011843206417,39.87141370000001,32.7364371,0.0011643989458917838,0.0015499051382765535,-0.07731242566332666,0.008192827458917838,0.011480599541082166,-0.06236686211623247,0.06032205447695391,0.02004791138076153,-0.13783447988977957,0.10015783484168336,0.02814004448296593,0.02344759590981964,-0.007391521,1.0,1.0,0.0,0.0,0.0,0.0
33304604.0,0.031191233789579154,0.01648397818837675,-0.00575893753507014,0.15,0.3384915374068136,900.0,900.0,900.0,900.0,900.0,900.0,6.308518980208418,6.310523611490983,6.4338621700901815,5.643636322895793,5.753947305098197,0.03808646814028194,0.03883037351302754,0.4213946055811624,0.4213946055811624,12.404602,-0.0013879489819639279,-0.005718968206412826,0.00047388430861723446,0.023063114975951905,0.004152117971943888,-0.09588251137675351,0.003201135841683366,0.0,1.8989314679599198,1.5848047032224446,-0.08674987424448896,,18.939009423807615,3.389939879759519e-06,5.5403807615230466e-06,0.0,-7.106813627254515e-06,-0.14012056186973948,0.2946502580981964,-9.927531277072145,6.87e+18,966.1673359350701,12.404602,-0.0010904808036072155,-0.006390310595190379,-0.001852005965931862,-0.1531513555931864,0.2221118203046092,-9.926828161797594,33314526.158436872,-0.003024487040080161,-0.011399574897795592,-0.0045724733026052105,6.87e+18,0.09456425025851707,0.08256425376152308,0.40059996495791583,1.1483867725711423,13.254246066392787,25.551315313146294,-0.24594136973346695,5.176945127733466,0.10999999,-51.6613041250501,2117974.7514068135,399.59539933847697,12.404602,96616.5462704008,1.1479643616312625,0.0,0.0,1.5981648000000002,0.6973647,0.0,0.0,0.71671647,1.0,0.03343739679759522,-0.021197829967935906,0.050264880739479,-0.0023714766653306608,-0.006719672711422845,-0.0007169268176352688,398714137.8002004,327364372.0,400126.5835725451,0.0,0.0,-0.005167177617234472,0.01,4.097298421382766,39.87141370000001,32.7364371,0.0013894366052104212,0.0018778290360721448,-0.08153860472144289,0.009067848715430862,0.012387976356713428,-0.06703681415430862,0.04150056888977954,0.0313764091462926,-0.14109722263527055,0.10028435753306614,0.0280309954248497,0.02354579057715431,-0.007391521,1.0,1.0,0.0,0.0,0.0,0.0
33324508.0,0.030686684356713425,0.016368851541082165,-0.0055413404288577155,0.15,0.28873023694989985,900.0,900.0,900.0,900.0,900.0,900.0,6.689565543400802,6.691713362026052,6.82250305373948,6.043230841745491,6.161352377496993,1.0489999917034067,1.0694974786953908,0.4362589256573146,0.4362589256573146,12.404602,-0.0013882410521042084,-0.005718487184368738,0.00047316222244488977,0.023080068402805614,0.004164523861723447,-0.09586031768937876,0.0028577410100200404,0.0,1.8643058155631262,1.5838497821322643,-0.07833268240480962,,20.271333031222444,3.318877755511022e-06,5.667234468937876e-06,0.0,-1.0597394789579158e-05,-0.14279881012024048,0.28604524083366734,-9.92726225708016,6.87e+18,966.1675413142284,12.404602,-0.001578345348697395,-0.005412685937875751,-0.0010312541162324643,-0.16859228293787576,0.19477925780561123,-9.930214196633266,33336135.1701002,-0.0034963738136272546,-0.01158402863527054,-0.004218671591182365,6.87e+18,0.12461564402805611,0.11261564924448897,0.4005999394549098,1.2098212776833668,13.254256000420842,25.499898120881763,-0.24491282621442886,4.978787208214429,0.10999999,-52.556493416492984,2145397.225204409,399.55395385811624,12.404602,96617.0103832064,1.147969900232465,0.0,0.0,1.5981648000000002,0.6973647,0.0,0.0,0.71671647,1.0,0.058147172713426856,-0.03888169120641283,0.07280672393386774,-0.0019073477955911823,-0.006862903683366733,0.000536171270541082,398714137.9,327364371.98917836,400127.66925631266,0.0,0.0,-0.007531049038076152,0.010074034865731463,4.451497531557115,39.87141370000001,32.7364371,0.0016200874148296592,0.002213104112224449,-0.08557428591983968,0.009938182034068136,0.013333363086172344,-0.0715873399018036,0.02271234585971944,0.041875654811623246,-0.14547334356312625,0.10089923131663327,0.027921569769539082,0.02366797087975952,-0.007391521,1.0,1.0,0.0,0.0,0.0,0.0
33346408.0,0.03164949691382766,0.01578800357715431,-0.005380730390781563,0.15,0.2339789166132264,900.0,900.0,900.0,900.0,900.0,900.0,7.070612106094189,7.0729031125611215,7.211143937388778,6.442825360595191,6.568757449396794,0.7046254971503001,0.7183927032084163,0.45112324523446906,0.45112324523446906,12.404602,-0.001388533122244489,-0.005718005663326654,0.0004724396372745491,0.02309702182965932,0.00417692925250501,-0.095838124002004,0.002514346677354709,0.0,1.8296801626673345,1.582894861541082,-0.06991549056513026,,21.603656638637275,3.08813627254509e-06,5.3150501002004e-06,0.0,-1.1143887775551103e-05,-0.1395731401282565,0.2745165219559118,-9.921074840418838,6.87e+18,966.1677574218437,12.404602,-0.00028133897194388595,-0.007570758200400804,-0.003712243657314633,-0.10528326620040072,0.20330625465931865,-9.928931511408818,33357744.176773548,-0.003047949601202404,-0.011500174144288578,-0.003353132963927854,6.87e+18,0.15466703829659323,0.14266704472745495,0.4005999139519038,1.2712557827955913,13.254265934448899,25.448480933607215,-0.24388428269539078,4.7806292886953905,0.10999999,-53.45168271292585,2170823.7070180364,399.5650967286573,12.404602,96616.8889767535,1.1479684763146294,0.0,0.0,1.5981648000000002,0.6973647,0.0,0.0,0.71671647,1.0,0.06100361382765532,-0.023014889753506993,0.03508603472945886,-0.0010029589819639266,-0.006567824795591181,0.000935981288577155,398714137.9,327364371.9284569,400127.96976673347,0.0,0.0,-0.009212154973947898,0.010489452723446894,4.694116390460922,39.87141370000001,32.7364371,0.0018619342424849702,0.002561577186372746,-0.08876836558116233,0.010776319503006013,0.014515394625250503,-0.07558169296192385,0.011780228517034053,0.04538303586573147,-0.1554274746673347,0.10374708520440883,0.027879221420841684,0.023710625871743485,-0.007391521,1.0,1.0,0.0,0.0,0.0,0.0
33367018.0,0.03197072253507014,0.015542864166332665,-0.0052264416192384765,0.15,0.18245402821042073,900.0,900.0,900.0,900.0,900.0,900.0,7.4516586687875765,7.454092863418837,7.599784821038077,6.842419879444891,6.976162521296595,0.0582501473807589,0.05938746819839408,0.46598756481162334,0.46598756481162334,12.404602,-0.0013888251923847696,-0.00571752446492986,0.000471717374749499,0.023113975579158317,0.004189334965931864,-0.09581593063727456,0.0021709520220440873,0.0,1.7950545100941881,1.5819399406272545,-0.06149829872545089,,22.93598024927856,2.986452905811623e-06,5.07256513026052e-06,0.0,-1.2174348697394795e-05,-0.13634747013627255,0.2629878030781563,-9.91488742408016,6.87e+18,966.1679735294589,12.404602,-0.0010521907835671419,-0.007561703352705404,-0.0028106337735470826,-0.07414390628657315,0.21422583895791586,-9.88813336496994,33379353.186673347,-0.0025995257114228443,-0.011416319653306615,-0.0024875943366733442,6.87e+18,0.18471843256513035,0.17271844021042093,0.40059988877154307,1.3326902879078157,13.254275868476954,25.397063743106212,-0.2428557391763527,4.582471369498998,0.10999999,-54.34687200935872,2196250.1888316637,399.5172706873747,12.404602,96617.44773238477,1.147975111753507,0.0,0.0,1.5981648000000002,0.6973647,0.0,0.0,0.71671647,1.0,0.01798684859519014,-0.009366515689378723,0.014612919324649282,-0.0004520542184368731,-0.006609270753507015,0.001044462290581162,398714137.8354709,327364371.8354709,400127.2430390782,0.0,0.0,-0.01,0.011351501036072149,4.790755082619238,39.87141370000001,32.7364371,0.0021134575250501006,0.002921456739478959,-0.09123506111623247,0.011586630106212427,0.01590195488577155,-0.07909535422645292,0.00763802386372746,0.04284745356713424,-0.17020259525651307,0.10852487029058118,0.027861642551102205,0.023755688765531063,-0.007391521,1.0,1.0,0.0,0.0,0.0,0.0
33386490.0,0.0317260764488978,0.015593815529058117,-0.005077728126252504,0.15,0.1337748126933867,900.0,900.0,900.0,900.0,900.0,900.0,7.832705231480963,7.835282614561121,7.988425704687375,7.2420143982945895,7.3835675931963936,-0.854486205126254,-0.8711821472605223,0.4808518843887776,0.4808518843887776,12.404602,-0.0013891172625250501,-0.0057170435511022044,0.0004709953967935872,0.023130929613226454,0.004201740963927857,-0.09579373755711423,0.0018275570821643281,0.0,1.760428857805611,1.5809850194288577,-0.053081106885771535,,24.268303862765535,2.9985971943887777e-06,4.926833667334669e-06,0.0,-1.3631663326653312e-05,-0.1331218001442886,0.2514590842004008,-9.90870000802605,6.87e+18,966.1681896370742,12.404602,-0.003646867829659323,-0.005641269314629255,0.0012507842985972004,-0.07137778406813626,0.22725565566132266,-9.812483072615231,33400962.199418835,-0.0021511021062124245,-0.011332465162324648,-0.0016220557094188365,6.87e+18,0.21476982683366735,0.20276983569338683,0.4005998638757515,1.3941247930200402,13.25428580250501,25.345646549759522,-0.24182719565731461,4.384313450587174,0.10999999,-55.24206130579159,2221676.670645291,399.4174347983968,12.404602,96618.60638252506,1.1479888554448898,0.0,0.0,1.5981648000000002,0.6973647,0.0,0.0,0.71671647,1.0,-0.06548951478156326,0.0023252329759519217,0.009351949755511013,-0.00021291799599198363,-0.00694752744488978,0.0008959947194388775,398714137.71402806,327364371.71402806,400125.6103002004,0.0,0.0,-0.01,0.01260747186172345,4.758641081126253,39.87141370000001,32.7364371,0.0023735153206412827,0.0032913966653306623,-0.09306021288777555,0.012372397759519038,0.017468906937875752,-0.0821850512985972,0.009484437855711425,0.03498205265931862,-0.18922976868336674,0.11500483071943889,0.02786591005410822,0.023802875398797597,-0.007391521,1.0,1.0,0.0,0.0,0.0,0.0
33406395.0,0.03158485258316634,0.015700275653306613,-0.005428410881763527,0.15,0.08401267523647295,900.0,900.0,900.0,900.0,900.0,900.0,8.21375179417435,8.216472365166332,8.377066587799598,7.641608917144288,7.790972665096192,0.26568031043086193,0.2708665747715432,0.49571620396593186,0.49571620396593186,12.404602,-0.0013894093326653307,-0.005716562637274549,0.0004702734188376754,0.02314788311022044,0.0042141464248497,-0.09577154393987976,0.001484162142284569,0.0,1.725803205517034,1.580030098230461,-0.044663915046092184,,25.600627470881765,3.075190380761523e-06,6.043226452905812e-06,0.0,-1.310180360721443e-05,-0.1339571948416834,0.23679422932264532,-9.898280619547094,5.871042084168336e+18,966.1691465310622,12.404602,-0.005101235488977956,-0.006763534338677355,0.0009595144749498997,-0.12236296154509019,0.21456421694188377,-9.830450002649298,33422571.212164328,-0.0014463587895791582,-0.010347553316633265,0.00016294956312625278,5.871042084168336e+18,0.25022220791583166,0.2382222185270541,0.4005998013847695,1.4571029244248497,13.254305522024048,25.286991218857715,-0.24065369528857716,4.2072540959158315,0.10999999,-56.09161046539078,2245090.2254048097,399.5090514496994,12.404602,96617.53280212425,1.1479761391042085,0.0,0.0,1.5981648000000002,0.6973647,0.0,0.0,0.71671647,1.0,-0.06332032812224449,0.03031503428256514,0.021053190535070144,-0.0013567466312625254,-0.006790635607214429,0.0004642994849699398,398714137.59258515,327364371.59258515,400123.97750761523,0.0,0.0,-0.01,0.013863442150300602,4.7265270801703405,39.87141370000001,32.7364371,0.0026372236092184367,0.00366722775751503,-0.09488976275951905,0.013165481436873747,0.019035166701402807,-0.08528555591382767,0.011290468168336672,0.027556804961923843,-0.20674447793386774,0.12123210850300602,0.027810267472945894,0.023785262961923848,-0.007391521,1.0,1.0,0.0,0.0,0.0,0.0
33426701.0,0.03162581591182365,0.015808834819639277,-0.00579591443486974,0.15,0.03933481556713423,900.0,900.0,900.0,900.0,900.0,900.0,8.594798357012024,8.597662115845692,8.765707470985973,8.041203436138277,8.198377736995992,1.1642082232124236,1.1869479824989968,0.5105805235430861,0.5105805235430861,12.404602,-0.0013897014028056113,-0.005716081723446894,0.0004695512965931864,0.02316483653707415,0.00422655195991984,-0.09574935025250501,0.001140767346693386,0.0,1.6911775532284568,1.5790751770320641,-0.03624672320641281,,26.93295107973948,3.1573146292585173e-06,6.716993987975949e-06,0.0,-1.3495591182364737e-05,-0.13566753162324652,0.2214537051422846,-9.886949467653308,4.657935871743485e+18,966.1702630216433,12.404602,-0.005704860631262522,-0.007465292661322643,0.00020163577154308547,-0.1700754020701403,0.20019747384168335,-9.858608347234469,33444180.22490982,-0.0006863922665330646,-0.009168511737474948,0.0021460508356713464,4.657935871743485e+18,0.28778499347294595,0.27578500619438884,0.40059972431663327,1.5206842190761525,13.254329063306614,25.225507628436873,-0.23942355373547095,4.038438884044088,0.10999999,-56.92332600440882,2268929.003486974,399.5946707150301,12.404602,96616.53624529058,1.1479643161643287,0.0,0.0,1.5981648000000002,0.6973647,0.0,0.0,0.71671647,1.0,-0.04184513138076144,0.0352248938076151,0.015021801937875633,-0.0021965290981963916,-0.00664780572745491,-0.00013022557515030234,398714137.4711423,327364371.4711423,400122.3447224449,0.0,0.0,-0.01,0.015119412513026054,4.694413079284569,39.87141370000001,32.7364371,0.002928491895791584,0.004087538855711424,-0.09675251743887776,0.014013796300601204,0.020596201112224453,-0.08846765500000002,0.012791602625250502,0.023454688408817648,-0.2128401789078156,0.1255516472244489,0.027767114048096193,0.02377013210420842,-0.007391521,1.0,1.0,0.0,0.0,0.0,0.0
33448112.0,0.032207962707414835,0.01590087031062124,-0.0060081383066132275,0.15,0.011422756745490897,900.0,900.0,900.0,900.0,900.0,900.0,8.975844920312626,8.978851866987977,9.154348354635271,8.440797955595192,8.605782808895793,0.4998618455230438,0.5096264179739457,0.5254448431202405,0.5254448431202405,12.404602,-0.0013899934729458916,-0.005715600809619238,0.0004688287114228457,0.023181789963927855,0.004238957957915832,-0.09572715656513026,0.0007973730140280549,0.0,1.6565519009398797,1.5781202558336673,-0.02782953136673344,,28.26527469322646,3.2301803607214433e-06,5.441843687374745e-06,0.0,-1.7685370741482982e-05,-0.13848339320440883,0.20525944569939877,-9.874466265985971,3.176332665330656e+18,966.1715811627255,12.404602,-0.0040568084128256455,-0.005543038194388772,-0.0002295089398797609,-0.18476608382364734,0.1912329698837675,-9.880238647096192,33465789.23765531,0.00014335107014028334,-0.007744179174348693,0.004379454727454917,3.176332665330656e+18,0.32985565329659333,0.31785566905410834,0.40059961623246493,1.58555388497996,13.254360765971944,25.157982809358717,-0.2380724251222445,3.8872333581462923,0.10999999,-57.716948504629265,2294975.4536613226,399.5808299907816,12.404602,96616.7221075551,1.1479664462725452,0.0,0.0,1.5981648000000002,0.6973647,0.0,0.0,0.71671647,1.0,0.005684802100200559,-0.040742257002004255,-0.0550089176152307,-0.0014813695531062103,-0.006757557913827656,-0.0011284909539078188,398714137.3496994,327364371.3496994,400120.7119835671,0.0,0.0,-0.01,0.016375383338677357,4.662299078398798,39.87141370000001,32.7364371,0.0033066522905811635,0.004648088248496996,-0.09871996141082165,0.015036245815631266,0.022140760917835678,-0.09190700800000001,0.013331450256513028,0.02982986062925854,-0.1829336156032063,0.12385639683567133,0.027789132250501003,0.02379011370941884,-0.007391521,1.0,1.0,0.0,0.0,0.0,0.0
33471247.0,0.03215231097995992,0.015808930390781562,-0.005967628527054108,0.15,0.0,900.0,900.0,900.0,900.0,900.0,900.0,9.35689148325451,9.360041617771543,9.54298923828457,8.840392474693388,9.013187880795593,-0.008834778691383521,-0.00900719415030135,0.5403091626973948,0.5403091626973948,12.404602,-0.001390285901803607,-0.0057151195370741485,0.0004681064849699399,0.02319874339078156,0.004251363597194389,-0.09570496323647294,0.0004539722244488971,0.0,1.6219262486513026,1.5771653346352705,-0.019412339527054092,,29.597598303126254,3.0878156312625247e-06,5.21056112224449e-06,0.0,-2.1193587174348702e-05,-0.1412992551442886,0.18906518589779556,-9.861983064318638,1.6918597194388751e+18,966.1728993038076,12.404602,-0.002992791941883766,-0.0065365161623246555,0.0011593803246493033,-0.15195790956913816,0.19313468209018037,-9.882493047835672,33487398.24681363,0.0009730944068136288,-0.006319846611222443,0.006612858260521047,1.6918597194388751e+18,0.3719263127615231,0.3599263319138277,0.40059950850701403,1.650423551242485,13.254392468637274,25.090457993867734,-0.23672129686773546,3.7360278326072143,0.10999999,-58.5105710048497,2321633.8546152306,399.60841363306616,12.404602,96616.40586226452,1.147962683012024,0.0,0.0,1.5981648000000002,0.6973647,0.0,0.0,0.71671647,1.0,0.004766909817635206,-0.04798038988777548,-0.03016691450300584,-0.0024646717755511067,-0.006250579052104207,-0.0018749445851703418,398714137.2282565,327364371.2282565,400119.0792446894,0.0,0.0,-0.01,0.01763135416432866,4.630185077513026,39.87141370000001,32.7364371,0.003684813044088177,0.0052086380000000015,-0.10068740574148297,0.01605869568937876,0.02368532036472946,-0.095346361,0.013871297529058118,0.03620503284969941,-0.15302705193987973,0.12216114608817634,0.027800994086172346,0.02378608348697395,-0.007391521,1.0,1.0,0.0,0.0,0.0,0.0
33495576.0,0.031654832342685374,0.015589543817635271,-0.005752040687374749,0.15,0.0,900.0,900.0,900.0,900.0,900.0,900.0,9.737938045947896,9.741231368306615,9.931630121933868,9.239986993543086,9.42059295269539,-0.409706992677355,-0.41771172192985984,0.5551734822745491,0.5551734822745491,12.404602,-0.0013905785791583165,-0.005714638016032064,0.0004673845070140281,0.02321569681763527,0.004263768987975952,-0.09568277015631263,0.00011056696192384753,0.0,1.5873005963627254,1.5762104134368737,-0.010995147687374746,,30.929921910541083,2.7963527054108214e-06,5.7024048096192385e-06,0.0,-2.4229659318637278e-05,-0.14411511733266535,0.17287092584769537,-9.849499862651303,2.0539879759518976e+17,966.1742174448898,12.404602,-0.0023333588937875746,-0.009549831124248499,0.003809075248496995,-0.08624549986773544,0.20256382895791583,-9.87132503801002,33509007.253486976,0.001802837743486974,-0.004895514048096192,0.008846261545090182,2.0539879759518976e+17,0.41399697197795593,0.4019969947735471,0.40059940103006014,1.7152932177535072,13.254424171302604,25.02293318086172,-0.23537016886172346,3.5848223073166334,0.10999999,-59.30419350507014,2348716.176779559,399.6646934845692,12.404602,96615.74178827656,1.1479548371943886,0.0,0.0,1.5981648000000002,0.6973647,0.0,0.0,0.71671647,1.0,-0.029712604781563144,-0.007607359519038057,0.060396974701402845,-0.004624562038076154,-0.005316367509018036,-0.002446958793587175,398714137.10681367,327364371.10681367,400117.4465058116,0.0,0.0,-0.01,0.018887324989979963,4.598071076627255,39.87141370000001,32.7364371,0.004062974046092184,0.005769188000000001,-0.10265485032064128,0.01708114581162325,0.025229879563126254,-0.098785714,0.014411144553106213,0.042580205070140285,-0.1231204880280561,0.12046589509218436,0.027805820226452907,0.02376541937274549,-0.007391521,1.0,1.0,0.0,0.0,0.0,0.0
33517613.0,0.03249990189779559,0.015854213104208415,-0.005814690154308617,0.15,0.0,900.0,900.0,900.0,900.0,900.0,900.0,10.118984606348699,10.122421118268537,10.320271003863729,9.639581512392786,9.827998025168338,-0.6553009853687379,-0.6681045014969944,0.5700378024248497,0.5700378024248497,12.404602,-0.0013908706833667334,-0.005714157068136273,0.00046666195591182365,0.023232650244488978,0.004276174951903807,-0.09566057650300601,3.897174348697383e-05,-0.00780582092585172,1.5798573286192383,1.5759574525871745,0.003693059547094219,,32.148142682845695,3.009258517034069e-06,5.202705410821642e-06,0.0,-3.024609218436875e-05,-0.14551520271943888,0.1809743299699399,-9.869609303517034,1.3817755511022072e+18,966.1741133807615,12.404602,-0.0021732709559118234,-0.01063538285971944,0.0031708041282565115,-0.08748489922444891,0.19250178409418836,-9.882398744388778,33530616.265891787,0.0005845287755510994,-0.004298754294589177,0.007602618969939877,1.3817755511022072e+18,0.4560676317675352,0.4440676576332666,0.40059929297995994,1.780162883691383,13.254455873967936,24.955408362124246,-0.23401904028256515,3.4336167814529057,0.10999999,-60.09781600529058,2371942.9753567134,399.63171743587174,12.404602,96616.11569941883,1.1479593025591182,0.0,0.0,1.5981648000000002,0.6973647,0.0,0.0,0.71671647,1.0,0.05359038943687394,-0.03993177160320649,0.09635455205410828,-0.003871040224448896,-0.005104105364729459,-0.001030452256513023,398714137.1,327364371.0426854,400116.9900350701,0.0,-0.0005881655911823661,-0.009411834408817633,0.01896696406012024,4.473188394583166,39.87141370000001,32.7364371,0.004429359184368738,0.006351721599198399,-0.10510737841082166,0.017706200939879763,0.0267456415991984,-0.10243376847895792,0.023246135004008035,0.0372981525531062,-0.11453513126653306,0.1207440504008016,0.0278301230240481,0.023718922408817632,-0.007391521,1.0,1.0,0.0,0.0,0.0,0.0
33538792.0,0.03286242819839679,0.01610529055310621,-0.005855068903807614,0.15,0.0,900.0,900.0,900.0,900.0,900.0,900.0,10.500031167695392,10.503610868557114,10.70891188677355,10.039176030881764,10.235403096412828,-0.6776143104108199,-0.6908536210220423,0.5849021224288578,0.5849021224288578,12.404602,-0.001391162753507014,-0.005713676154308617,0.0004659395511022044,0.023249603671342687,0.0042885809498998,-0.09563838281563125,0.0,-0.016548642931863762,1.5756769999258515,1.5757887543687374,0.019134031549098256,247.76584020641283,33.35266669114229,3.0663727454909806e-06,4.81e-06,0.0,-4.338356713426864e-05,-0.14680767113627255,0.19092466607414832,-9.892196200771544,2.7618837675350753e+18,966.1739012068136,12.404602,-0.0018339018657314598,-0.010401684104208405,0.0014820199779558986,-0.09694338641683374,0.18117849144889778,-9.88806700721443,33552225.278637275,-0.0007894580280561175,-0.0037649005611222427,0.00609467647895791,2.7618837675350753e+18,0.4981382915911825,0.4861383204929861,0.40059918507615233,1.8450325495951907,13.254487576633267,24.88788354304609,-0.2326679118496994,3.2824112555551097,0.10999999,-60.891438505511026,2395662.0423406814,399.60152029318635,12.404602,96616.45661418837,1.147963372993988,0.0,0.0,1.5981648000000002,0.6973647,0.0,0.0,0.71671647,1.0,0.08289689137074108,-0.061272082080160266,0.10698107126452891,-0.0028570323847695346,-0.0051512627494989995,0.000387447494989984,398714137.13607216,327364371.0,400116.9794442886,0.0,-0.0013992656412825698,-0.00860073435871743,0.01860073435871743,4.313143298308615,39.87141370000001,32.7364371,0.004792977605210422,0.0069394207334669365,-0.1076738864488978,0.018237880358717436,0.02825463712625251,-0.10613086171743488,0.03403023308016037,0.029277005070140232,-0.11095961261322647,0.12148589624448898,0.027750396430861725,-0.002890226246493311,-0.007391521,1.0,1.0,0.0,0.0,0.0,0.0
33558263.0,0.031894071166332666,0.016256105615230464,-0.00580359897995992,0.15,0.0,900.0,900.0,900.0,900.0,900.0,900.0,10.881077731603208,10.8848006196994,11.097552772244489,10.438770548517034,10.64280816466934,-0.19334063962725345,-0.1971167404629247,0.599766442006012,0.599766442006012,12.404602,-0.0013914548236472945,-0.0057131952404809614,0.0004652175731462926,0.023266557098196392,0.004300986947895792,-0.0956161891282565,0.0,-0.0264109425691383,1.5753950514428858,1.575720728743487,0.03547436553106216,247.40384343466934,34.540826553987976,2.6838276553106206e-06,4.81e-06,0.0,-7.295490981963934e-05,-0.14804461186172344,0.20182797655711426,-9.916061409202404,4.2495591182364764e+18,966.1736332430861,12.404602,-0.0009999881803607197,-0.007316949188376746,-0.0022304404629258606,-0.11643520275350705,0.1696121884268537,-9.877813511503007,33573834.29138277,-0.00224377058917836,-0.0032635047835671335,0.004450361058116229,4.2495591182364764e+18,0.5402089514148297,0.5282089833527055,0.40059907759919844,1.9099022154989982,13.254519279298597,24.820358723967935,-0.23131678384368737,3.131205729657314,0.10999999,-61.68506100573146,2421088.5241543087,399.5904560569138,12.404602,96616.57341795591,1.1479647768737475,0.0,0.0,1.5981648000000002,0.6973647,0.0,0.0,0.71671647,1.0,-0.03215747621442909,-0.046389900683366694,0.06533921655511013,-0.001636388080160318,-0.005710818739478958,0.0015289073947895816,398714137.2575151,327364371.0,400117.8586300601,0.0,-0.002655236466933871,-0.00734476353306613,0.017344763533066132,4.082930814480961,39.87141370000001,32.7364371,0.005151704709418839,0.007536252402805613,-0.11044190742685371,0.018604474533066132,0.029751669651302607,-0.10991465406613227,0.04826029168336677,0.016413224472945864,-0.11624132887775553,0.12304753213426854,0.027421727048096194,-0.0923606831763529,-0.007391521,1.0,1.0,0.0,0.0,0.0,0.0
33577735.0,0.031051400923847693,0.01660494831462926,-0.005705587312625251,0.15,0.0,900.0,900.0,900.0,900.0,900.0,900.0,11.262124295511022,11.265990370841683,11.48619365771543,10.838365066152305,11.050213236873748,-0.2168980548376756,-0.22113719397795617,0.6146307615831663,0.6146307615831663,12.404602,-0.0013917468937875751,-0.005712714326653307,0.00046449520040080163,0.02328351091983968,0.004313392551102205,-0.09559399583567134,0.0,-0.03627324181162326,1.5751131033547094,1.5756527031182364,0.051814699513026065,247.04184666292585,35.72898642078157,2.6329058116232467e-06,5.098196392785572e-06,0.0,-0.00013730287174348706,-0.1455913912244489,0.21200730098597195,-9.938083428783568,5.599058116232466e+18,966.1732115088178,12.404602,-0.0021152872444889803,-0.004305851609218434,-0.003399939234468938,-0.14817643211022047,0.2058881380120241,-9.901067745002004,33595443.30412826,-0.003533736196392786,-0.0027265360961923847,0.0028407042144288565,5.599058116232466e+18,0.5822796112384769,0.5702796462124249,0.40059896972745496,1.9747718814028057,13.254550981963927,24.75283390488978,-0.22996565544288577,2.980000203759519,0.10999999,-62.478683505951906,2446515.005967936,399.5907232290581,12.404602,96616.56955034068,1.1479647196372746,0.0,-0.14650343058517054,1.5981648000000002,0.6926387686973947,0.05219991392585177,-0.05079048275551109,0.7118593943366734,1.0,-0.022165004575150242,-0.03257675972344688,0.017823703805611178,-0.001580181561122245,-0.005882942448897795,0.001965255735470942,398714137.3789579,327364371.0,400118.7378158317,0.0,-0.003911207292585171,-0.006088792707414829,0.01608879270741483,3.852718330258517,39.87141370000001,32.7364371,0.005514003080160321,0.00814621201002004,-0.11315328241683367,0.01905743998196393,0.031227864392785572,-0.11360313236673347,0.0589681106973948,0.009017227434869735,-0.12014485011823647,0.12460158451102205,0.026089949456913827,-0.34820968632064153,-0.007391521,1.0,1.0,0.0,0.0,0.0,0.0
33597207.0,0.030281409601202406,0.017055886336673345,-0.005582565306613226,0.15,0.0,900.0,900.0,900.0,900.0,900.0,900.0,11.64317085941884,11.647180121983968,11.874834543166335,11.237959583807616,11.457618311202406,-0.5087331043086144,-0.5186791513206384,0.6294950811603206,0.6294950811603206,12.404602,-0.0013920389639278557,-0.005712233410821644,0.00046377261723446893,0.02330046495190381,0.004325797943887776,-0.09557180275350702,0.0,-0.0461355408436874,1.574831155478958,1.5755846774909819,0.06815503349699402,246.67984989098198,36.9171462896994,2.7573146292585147e-06,5.537054108216431e-06,0.0,-0.00022058898196392827,-0.14103750260921832,0.22177448779158318,-9.95905619133467,6.87e+18,966.1727022386776,12.404602,-0.004269981244488977,-0.0013535208517034137,-0.0031977120020040047,-0.18646511525250506,0.2673551539559116,-9.942169609398798,33617052.31685371,-0.004730145344689378,-0.002169317106212423,0.0012507771743486943,6.87e+18,0.6244037635651304,0.6124038015851705,0.40059886191583177,2.039672887246493,13.254582658316632,24.685288388897796,-0.22861411340881763,2.8288661451142283,0.10999999,-63.27223825713427,2471946.253462926,399.59696394609216,12.404602,96616.50219330662,1.1479638934428857,0.0,-0.3710539881202405,1.5981648000000002,0.6853963456753507,0.13220855898797595,-0.12863884307214427,0.704415994486974,1.0,0.054703178388777446,-0.019338851358717404,-0.03274400985971948,-0.002145751879759517,-0.00584672176753507,0.002016425749498994,398714137.5004008,327364371.0,400119.61700160324,0.0,-0.005167178116232468,-0.004832821883767532,0.014832821883767531,3.6225058458256507,39.87141370000001,32.7364371,0.005878277743486975,0.008763436448897799,-0.11583331023246494,0.01955820220440882,0.03269252777154309,-0.11723886507815631,0.06772676688977954,0.004647032641282615,-0.12328569567535069,0.12615144026052105,0.024212290785571133,-0.6923771627114227,-0.007391521,1.0,1.0,0.0,0.0,0.0,0.0
33616679.0,0.031036667765531066,0.016160623348697393,-0.005469336210420841,0.15,0.0,900.0,900.0,900.0,900.0,900.0,900.0,12.024217423326654,12.028369873126254,12.263475422565133,11.637554107515031,11.865023385531064,0.7008488621803656,0.714537417525055,0.644359400737475,0.644359400737475,12.404602,-0.0013923310340681362,-0.005711751889779559,0.0004630506392785571,0.023317418378757514,0.004338203941883768,-0.09554960906613226,0.0,-0.055997840480961965,1.5745492076032064,1.575516651258517,0.0844953680861724,246.31785305851704,38.10530615861724,1.943647294589175e-06,4.644448897795588e-06,0.0,-0.0003720835170340687,-0.10172374020240466,0.22472200864128258,-9.96266684073948,6.87e+18,966.1707444579159,12.404602,-0.003579821324649296,-0.004182889917835682,-0.0019590486092184315,-0.21158631576152315,0.162279588597194,-9.928335053234468,33638661.32352705,-0.00437846678557114,-0.0012770142885771508,-1.2679997995996856e-05,6.87e+18,0.6826826517995994,0.6706826958917838,0.40059883641282573,2.114038554933868,13.254606388256512,24.61149240492986,-0.22713771828056112,2.6993151967254505,0.10999999,-64.04533279881764,2498816.736729459,399.565890112024,12.404602,96616.86982521042,1.1479682696372746,0.0,-0.3594012505531062,1.5981648000000002,0.6861252653066132,0.12810048134468935,-0.12464168893186371,0.7051651580400802,1.0,0.00824218518837657,-0.006104829050100149,-0.050621876354709494,-0.001269742446893784,-0.005847257330661323,0.0003225798476953843,398714137.6218437,327364371.0,400120.49618737475,0.0,-0.0064231483346693435,-0.0035768516653306567,0.013576851665330656,3.392293361997995,39.87141370000001,32.7364371,0.006259071020040081,0.009441383464929863,-0.11825132066933869,0.020458477140280564,0.0340608065490982,-0.12043372075951905,0.060193244492985944,0.025568164949899882,-0.12005167830661322,0.1276662161983968,0.02048108381362724,-0.6726320802725451,-0.007391521,1.0,1.0,0.0,0.0,0.0,0.0
33636150.0,0.031287958539078155,0.015651471398797596,-0.005447452172344689,0.15,0.0,900.0,900.0,900.0,900.0,900.0,900.0,12.405263987234468,12.409559624268535,12.652116304128256,12.037148629058116,12.27242845769539,0.9424045131422851,0.9608148350761528,0.6592237203146293,0.6592237203146293,12.404602,-0.0013926231042084168,-0.00571127058517034,0.00046232844488977955,0.02333437180561122,0.004350609723446894,-0.09552741537875752,0.0,-0.0658601399018036,1.574267259727455,1.5754486252424849,0.10083570245891782,245.9558562476954,39.29346602753507,-1.8593186372745334e-07,-0.00016320901402805594,0.0,-0.000538429891783567,-0.062409977795591196,0.22766952949098196,-9.966277490360723,6.87e+18,966.1687866771542,12.404602,-0.003495949813627254,-0.005131224931863728,-0.0018762351963927848,-0.1993700443426854,0.12212334051302602,-9.90149910666533,33660270.33236473,-0.004026788226452906,-0.0003847114709418841,-0.001276137170340681,6.87e+18,0.7427652781182364,0.7307653282825651,0.40059882,2.1894609885531064,13.254629230821644,24.53699853318637,-0.22564738271142284,2.5721740852344688,0.10999999,-64.81614288078156,2525523.5640681363,399.5708513761523,12.404602,96616.81725486973,1.1479676410380761,0.0,-0.3480249377955912,1.5981648000000002,0.6868257283446895,0.12408781033867736,-0.12073736544488978,0.7058850763186373,1.0,-0.013657852525050109,0.00041247197595190585,-0.0558366127735471,-0.0004418215831663329,-0.006127360741482965,-0.0008425512965931862,398714137.74328655,327364371.0,400121.37537314626,0.0,-0.007679118769539078,-0.0023208812304609224,0.012320881230460922,3.1620808779539082,39.87141370000001,32.7364371,0.006639864513026052,0.010119330697394789,-0.12066933110621242,0.021358752076152305,0.03542908532665331,-0.12362857644088177,0.05265972209619239,0.04648929747494989,-0.11681766115430861,0.12918099213627254,0.01575756180360722,-0.646456583252505,-0.007391521,1.0,1.0,0.0,0.0,0.0,0.0
33655622.0,0.03062930819038076,0.015839464378757516,-0.0055904967114228455,0.15,0.0,900.0,900.0,900.0,900.0,900.0,900.0,12.786310551142284,12.79074937541082,13.0407571895992,12.436743146693388,12.679833525951903,-0.5638651278196409,-0.5748812149879778,0.6740880398917837,0.6740880398917837,12.404602,-0.0013929151743486974,-0.005710789671342685,0.0004616058597194389,0.02335132523246493,0.004363015114228457,-0.09550522169138276,0.0,-0.07572243893186374,1.5739853118517033,1.5753805996172343,0.11717603644088179,245.59385947595192,40.481625896452904,-4.6914629258517085e-06,-0.0006325195811623252,0.0,-0.0007315920881763529,-0.023096215388777507,0.23061705034068136,-9.969888140372744,6.87e+18,966.1668288963928,12.404602,-0.004506765707414831,-0.0026832484629258488,-0.0038803731362725474,-0.11973889305410812,0.19918252639679368,-9.851188427420842,33681879.345110215,-0.003675109667334669,0.0005075913466933877,-0.0025395943426853723,6.87e+18,0.8061046537555111,0.794104709991984,0.40059882,2.266791471771543,13.254650471182366,24.461244586292583,-0.2241318769018036,2.4493840681422845,0.10999999,-65.58282824380761,2551934.9015370742,399.6408760120241,12.404602,96616.00598603206,1.1479579760060121,0.0,-0.3371477253887776,1.5981648000000002,0.6874748114228457,0.12024740131663325,-0.11700065285971943,0.7065521906292586,1.0,0.00878827939078159,-0.005197640424849706,-0.03818736433266531,0.0002992726973947904,-0.006912239432865732,-0.001053058573146293,398714137.86472946,327364371.0,400122.25455891783,0.0,-0.008935089595190382,-0.001064910404809618,0.011064910404809617,2.931868393519038,39.87141370000001,32.7364371,0.007020658396793587,0.010797278320641285,-0.12308734154308618,0.02225902701202405,0.03679736410420842,-0.1268234321222445,0.04512619969939879,0.0674104303907816,-0.11358364439278557,0.13069576807414832,0.009242359863727448,-0.6086706154609217,-0.007391521,1.0,1.0,0.0,0.0,0.0,0.0
