timestamp,control[0],control[1],control[2],control[3],control[4],output[2],output[3],output[4],output[5],output[6],output[7],indicated_airspeed_m_s,true_airspeed_m_s,indicated_airspeed_m_s.1,equivalent_airspeed_m_s,true_airspeed_m_s.1,equivalent_ground_minus_wind_m_s,true_ground_minus_wind_m_s,differential_pressure_raw_pa,differential_pressure_filtered_pa,temperature,gyro_bias[0],gyro_bias[1],gyro_bias[2],accel_bias[0],accel_bias[1],accel_bias[2],instance_count,seq_reached,seq_current,seq_total,item_changed_index,item_do_jump_remaining,valid,warning,finished,failure,stay_in_failsafe,flight_termination,item_do_jump_changed,execution_mode,nav_roll,nav_pitch,nav_bearing,target_bearing,xtrack_error,wp_dist,acceptance_radius,rollspeed_integ,pitchspeed_integ,yawspeed_integ,additional_integ1,x,y,z,temperature.1,pressure,temperature.2,gyro_rad[0],gyro_rad[1],gyro_rad[2],accelerometer_m_s2[0],accelerometer_m_s2[1],accelerometer_m_s2[2],x.1,y.1,z.1,temperature.3,altitude_sp,altitude_filtered,height_rate_setpoint,height_rate,airspeed_sp,airspeed_filtered,airspeed_derivative_sp,airspeed_derivative,throttle_integ,pitch_integ,baro_alt_meter,baro_temp_celcius,baro_pressure_pa,rho,xyz[0],xyz[1],xyz[2],xyz[0].1,xyz[1].1,xyz[2].1,roll_body,pitch_body,yaw_body,q_d[0],q_d[1],q_d[2],q_d[3],thrust_body[0],lat,lon,alt,vel_m_s,vel_n_m_s,vel_e_m_s,vel_d_m_s,cog_rad,ground_contact,maybe_landed,landed,ref_lat,ref_lon,x.2,y.2,z.2,vx,vy,vz,ax,ay,az,yaw,dist_bottom,roll,pitch,yaw.1,thrust_body[0].1,timestamp.1,isTakeoff,isClimbing,isDescending,isCruise,isLand
12000000,0.026351975,0.015836097,-0.003152699,0.15,0.11000018,900.0,900.0,900.0,900.0,900.0,900.0,0.9110749,0.92887896,-1.0059286,-1.0059286,-1.0255864,0.021081269,0.021493236000000002,-0.6197842,-0.6197842,12.404602,-0.0011844289999999999,-0.005752765,0.000728276,0.020129848,-0.007450344,-0.1260645,2.0,-1.0,0.0,11,0,0,1.0,0.0,0.0,0,0,0,0,0,0.004590674,0.0,1.6673522,1.6131753,-0.015458106999999999,,0.28647888,4.12e-06,5.58e-06,-9.2e-07,0.0,-0.055849906,0.18947838,-9.951324000000001,-1.05e+21,966.1610000000001,12.404602,0.00321104,-0.003675312,-0.000695232,-0.06265762,0.16750672,-9.994848,-0.0036548740000000002,0.001131,-0.013134739,-1.05e+21,-0.04230026,-0.054300264,0.40060008,0.054432638,13.253934,25.722279999999998,-0.24936692,9.537422,0.10999999,-32.866276,399.60654,12.404602,96616.42,1.1479629,0.43301103,-0.3705545,0.47543517,0.002231673,0.006412523000000001,-0.000233739,0.004470215,0.0,1.6673522,0.6721568,0.001502345,0.0016548889999999999,0.74040544,0.15,398714138.0,327364372.0,400127.0,0.0,0.0,-0.01,0.02,4.4235370000000005,0,0,1.0,39.8714138,32.7364372,0.011685322,-0.004540123,-0.075399265,0.008174651,0.015365482,-0.012677649,0.04481739,0.09679451,0.004236586,1.6122715,0.1,0.033807933,0.022716586,-0.003680883,0.15,12000000,1,0,0,0,0
12043882,0.024882905,0.015763271000000002,-0.003585542,0.15,0.000294253,900.0,900.0,900.0,900.0,900.0,900.0,0.34037997,0.34703361299999996,-0.048748812999999995,-0.048738937,-0.049698604,0.93681279,0.955112572,10.28161842,10.28161842,12.40459609,-0.001143897,-0.005792959,0.000850582,0.020013482,-0.0073375,-0.126088865,2.0,-1.0,0.0,11,0,0,1.0,0.0,0.0,0,0,0,0,0,0.004146208,0.0,1.498955465,1.452150012,0.049008030999999994,,2.7700796289999996,3.84e-06,4.49e-06,-1.51e-06,0.0,-0.071355698,0.173807624,-9.898061732,-1.05e+21,966.1637594,12.404602,0.001348764,-0.006170426,0.003671368,-0.029829606,0.21697232100000002,-9.897087013,0.0011838089999999999,-0.001979603,-0.008069518000000001,-1.05e+21,-0.012976004,-0.024976006000000002,0.40060002299999997,0.22818486,13.25395769,25.78386718,-0.250598185,8.917977976,0.10999999,-35.08163859,399.6898434,12.404602,96615.41372000001,1.147950963,-0.712184768,-0.268403387,-0.8373774559999999,-0.001819492,0.005112368,-0.003546032,0.004181011,0.0,1.6673522,0.672157006,0.00140515,0.001547824,0.7404057059999999,0.15,398714138.0,327364372.0,400127.9498,0.0,0.002374475,-0.007625525,0.0105021,4.845047705,0,0,0.951390278,39.8714138,32.7364372,0.012031265,-0.004366852,-0.07557867900000001,0.0077939509999999995,0.016525386,-0.012499366999999999,0.006744735,0.052242127,-0.046115273,1.612148685,0.1,0.033241633,0.022298317999999998,-0.0032663540000000004,0.15,12043882,1,0,0,0,0
12087765,0.02663049,0.015284073,-0.0028921109999999997,0.15,0.0,900.0,900.0,900.0,900.0,900.0,900.0,1.423413905,1.451227935,0.908430975,0.908450726,0.926189192,1.852544311,1.888731907,21.18302104,21.18302104,12.40459019,-0.0011033660000000002,-0.005833154,0.000972888,0.019897116,-0.0072246559999999994,-0.126113229,2.0,-1.0,0.0,11,0,0,1.0,0.0,0.0,0,0,0,0,0,0.003701742,0.0,1.330558729,1.291124725,0.113474169,,5.253680377,4.07e-06,3.89e-06,-1.6399999999999999e-07,0.0,-0.086861491,0.158136868,-9.844799463,-1.05e+21,966.1665187000001,12.404602,-0.000605957,-0.0036746070000000003,0.001380929,-0.04550759099999999,0.242407183,-9.937904077,0.006022492,-0.005090206,-0.003004298,-1.05e+21,0.016348252,0.004348252,0.400599965,0.401937083,13.25398137,25.84545436,-0.25182945,8.298533952,0.10999999,-37.29700119,399.6890153,12.404602,96615.43376,1.147951178,-0.082909295,-0.03611362,0.24517968,0.0035621809999999998,0.006420828000000001,0.0030788729999999998,0.0036933020000000003,0.0,1.6673522,0.6721573390000001,0.001241242,0.0013672729999999998,0.7404060290000001,0.15,398714138.0,327364372.0,400128.8996,0.0,0.00474895,-0.00525105,0.0010042010000000001,5.266558409,0,0,0.902780556,39.8714138,32.7364372,0.012377208999999998,-0.004193581,-0.075758092,0.0074132519999999995,0.01768529,-0.012321085,-0.031327918999999996,0.007689745,-0.096467132,1.612025869,0.1,0.033561247999999995,0.022133875,-0.0035640479999999998,0.15,12087765,1,0,0,0,0
12131647,0.027006838,0.015160236,-0.002680512,0.15,0.0,900.0,900.0,900.0,900.0,900.0,900.0,1.034124322,1.054331945,1.865610762,1.865640389,1.9020769880000001,2.768275832,2.822351243,32.08442366,32.08442366,12.40458428,-0.001062834,-0.0058733480000000005,0.0010951939999999999,0.01978075,-0.007111811,-0.126137594,2.0,-1.0,0.0,11,0,0,1.0,0.0,0.0,0,0,0,0,0,0.003257276,0.0,1.162161994,1.130099437,0.177940307,,7.737281126,3.95e-06,5.27e-06,-1.5e-06,0.0,-0.110903581,0.149198789,-9.859266333999999,-1.05e+21,966.1723808,12.404602,-0.0054960569999999995,-0.003796945,0.00079647,0.053324027999999996,0.20750069699999998,-9.962382897000001,0.005880884,-0.007538832,-0.004212335,-1.05e+21,0.045672507,0.033672511,0.40059990799999995,0.575689305,13.25400506,25.90704154,-0.253060715,7.679089928,0.10999999,-39.51236378,399.56537569999995,12.404602,96616.89589,1.147968441,0.301413955,0.092677306,-0.443060977,0.003507614,0.009975117,-0.0057811880000000005,0.0044170270000000005,0.0,1.6673522,0.672156868,0.001484469,0.0016351979999999998,0.740405469,0.15,398714138.0,327364372.0,400129.8494,0.0,0.007123425,-0.002876575,-0.008493699,5.688069114,0,0,0.854170834,39.8714138,32.7364372,0.012775695,-0.003780407,-0.076742807,0.008865976,0.01682633,-0.012244076999999999,-0.046631810999999995,-0.04671359,-0.063644518,1.6118533919999998,0.1,0.034987028999999996,0.021885785,-0.004508289,0.15,12131647,1,0,0,0,0
12175530,0.025512967999999997,0.014841711,-0.0028680140000000003,0.15,0.0,900.0,900.0,900.0,900.0,900.0,900.0,1.300700159,1.3261124420000001,2.82279055,2.822830052,2.8779647839999996,3.684007353,3.755970579,42.98582628,42.98582628,12.40457838,-0.001022303,-0.005913543,0.0012175,0.019664384,-0.006998966999999999,-0.12616195800000002,2.0,-1.0,0.0,11,0,0,1.0,0.0,0.0,0,0,0,0,0,0.0028128090000000003,0.0,0.9937652579999999,0.9690741490000001,0.24240644600000003,,10.22088187,4.17e-06,4.53e-06,-9.02e-07,0.0,-0.13554596800000002,0.14073417300000002,-9.878496112,-1.05e+21,966.178461,12.404602,0.001473445,-0.000947743,-0.002118819,-0.10824726300000001,0.11582423300000001,-9.89314415,0.0053890480000000004,-0.009940906999999999,-0.005861526,-1.05e+21,0.074996763,0.06299676900000001,0.40059985,0.749441528,13.25402874,25.96862873,-0.254291981,7.059645904,0.10999999,-41.72772638,399.556172,12.404602,96617.00386,1.147969866,0.01266469,0.361949251,-0.34142902299999994,0.00131661,0.00849879,-0.002682142,0.0,0.0,1.611618,0.69252783,0.0,0.0,0.72139114,0.076015203,398714138.0,327364372.0,400130.7992,0.0,0.0094979,-0.0005021,-0.017991598,6.1095798189999995,0,0,0.805561112,39.8714138,32.7364372,0.013177876000000002,-0.003350363,-0.077784152,0.010447631,0.015825398,-0.012174192,-0.060334539000000006,-0.10180967199999999,-0.024972837,1.6116774230000002,0.1,0.02773872,0.021864262000000002,-0.0045091770000000005,1.0,12175530,1,0,0,0,0
12223412,0.023924484,0.014886917,-0.002982431,0.15,0.0,900.0,900.0,900.0,900.0,900.0,900.0,-0.650299035,-0.662998624,3.779970337,3.780019715,3.8538525810000004,4.599738873,4.689589914,53.8872289,53.8872289,12.40457247,-0.000981771,-0.005953737,0.001339806,0.019548018,-0.006886123,-0.12618632300000002,2.0,-1.0,0.0,11,0,0,1.0,0.0,0.0,0,0,0,0,0,0.0023683429999999998,0.0,0.825368523,0.808048862,0.306872584,,12.70448262,2.77e-06,6.38e-06,0.0,0.0,22.38695436,0.134271788,-9.632734289,-1.05e+21,966.1732639,12.404602,-0.002335656,-0.009099280999999999,-0.0030147359999999996,-0.12800109699999998,0.101786493,-9.88936702,0.003952915,-0.006599422,-0.004600458,-1.05e+21,0.136343471,0.12434347800000001,0.40059984,0.9120520190000001,13.2540695,25.89996328,-0.252917858,6.500786097000001,0.10999999,-44.09668681,399.6009186,12.404602,96616.48078,1.147963627,-0.117687426,-0.204241918,0.144467428,-0.000979356,0.0069867919999999995,-0.001690093,0.0,0.0,1.611618,0.69252783,0.0,0.0,0.72139114,1.0,398714138.0,327364372.0,400129.1276,0.0,0.01,-0.001872374,-0.016255251000000002,6.06721059,0,0,0.75695139,39.8714138,32.7364372,0.013458243,-0.0015112629999999999,-0.079176694,0.001001184,0.242457285,-0.0069827280000000005,-0.744261415,17.42332774,0.381911364,1.611549179,0.1,0.027813357,0.021536813,-0.0045091770000000005,1.0,12223412,1,0,0,0,0
12267294,0.028273417999999998,0.014802837,-0.0034294459999999996,0.15,0.0,900.0,900.0,900.0,900.0,900.0,900.0,0.426796584,0.43513353899999996,4.737150123999999,4.737209378,4.829740377,5.515470393999999,5.62320925,64.78863152,64.78863152,12.40456656,-0.00094124,-0.005993931,0.0014621120000000002,0.019431652,-0.006773279,-0.12621068800000002,2.0,-1.0,0.0,11,0,0,1.0,0.0,0.0,0,0,0,0,0,0.001923877,0.0,0.656971787,0.647023574,0.371338722,,15.18808337,3.49e-06,4.29e-06,0.0,0.0,48.32048769,0.128112309,-9.346883347,-1.05e+21,966.1663607,12.404602,0.0007345860000000001,-0.009787946,0.003384377,-0.129859216,0.17469060100000003,-9.907347462,0.002373925,-0.002389025,-0.002899113,-1.05e+21,0.20470835199999998,0.19270836,0.40059984,1.0722206429999999,13.254114000000001,25.80275114,-0.250972727,5.9552041760000005,0.10999999,-46.49931037,399.47175649999997,12.404602,96617.96952,1.147981282,0.27116757,-0.22719105899999997,0.35740412,0.004499266,0.0009415039999999999,0.002231311,0.0,0.0,1.611618,0.69252783,0.0,0.0,0.72139114,1.0,398714138.0,327364372.0,400126.7532,0.0,0.01,-0.0042468490000000005,-0.011506301000000002,5.900446207999999,0,0,0.708341668,39.8714138,32.7364372,0.013720182,0.000541006,-0.080622367,-0.010113643,0.503526488,-0.001016449,-1.529582812,37.60808183,0.844500409,1.611428155,0.1,0.027634473,0.021379372,-0.0045091770000000005,1.0,12267294,1,0,0,0,0
12311177,0.022387595,0.014386098,-7.859999999999999e-05,1.0,0.0,1501.433487,1500.0,2000.0,1488.0,1511.0,1507.0,-1.233465522,-1.2575521159999998,5.694329912000001,5.6943990410000005,5.805628173,6.431201915,6.556828586,75.69003414,75.69003414,12.40456066,-0.0009007080000000001,-0.006034126,0.001584418,0.019315286,-0.006660435,-0.126235052,2.0,-1.0,0.0,11,0,0,1.0,0.0,0.0,0,0,0,0,0,0.0014794110000000001,0.0,0.488575052,0.485998286,0.43580486,,17.67168412,3.04e-06,4.17e-06,0.0,3.74e-06,49.2844965,0.18289027800000002,-9.400337574,-1.05e+21,966.1639894,12.404602,0.001752831,-0.001187404,0.005080473,10.48780244,0.16929541,-9.815407087,0.000190502,-0.0008477469999999999,-0.00040721800000000004,-1.05e+21,0.273073233,0.261073241,0.40059984,1.232389267,13.254158499999999,25.705539,-0.249027597,5.4096222560000005,0.10999999,-48.90193393,399.5815907,12.404602,96616.67362999999,1.147965961,-0.085864894,-0.148115525,0.49349574799999996,0.002765988,0.010771526000000002,0.0027641640000000004,0.0,0.0,1.611618,0.69252783,0.0,0.0,0.72139114,1.0,398714138.0,327364372.0,400124.3787,0.0,0.01,-0.0066213240000000005,-0.006757351,5.733681826000001,0,0,0.6597319460000001,39.8714138,32.7364372,0.008783203,0.130074371,-0.078615398,-0.094523198,2.575842307,0.044692138,-1.754626047,43.06177462,0.9445661590000001,1.6113198009999998,0.1,0.027539214,0.021210352999999998,-0.0045091770000000005,1.0,12311177,1,0,0,0,0
12355059,0.023047352000000004,0.014549048,0.001391899,1.0,0.0,1500.923985,1500.0,2000.0,1489.0,1510.0,1507.0,2.7038447939999997,2.756674189,6.651509699,6.651588704,6.781515969,7.3469334360000005,7.490447921,86.59143676,86.59143676,12.40455475,-0.000860177,-0.00607432,0.001706724,0.01919892,-0.006547591,-0.12625941699999998,2.0,-1.0,0.0,11,0,0,1.0,0.0,0.0,0,0,0,0,0,0.001034945,0.0,0.320178316,0.324972999,0.500270998,,20.15528487,2.96e-06,4.56e-06,0.0,2.0600000000000003e-05,44.11857057,0.25262818600000003,-9.537090083999999,-1.05e+21,966.1627308,12.404602,0.005610699,-0.004757981,-0.002082646,53.4402426,0.14493226,-9.293619567999999,-0.0021413070000000003,3.8299999999999996e-05,0.0022787529999999997,-1.05e+21,0.341438113,0.329438123,0.40059984,1.392557891,13.254203,25.60832685,-0.24708246600000003,4.864040335,0.10999999,-51.30455749,399.5978771,12.404602,96616.49137,1.14796379,-0.024196696,-0.005683026999999999,0.062362878,0.0020994860000000002,0.008184855999999999,0.004209874000000001,0.0,0.0,1.611618,0.69252783,0.0,0.0,0.72139114,1.0,398714138.0,327364372.0,400122.0042,0.0,0.01,-0.008995799,-0.0020084020000000003,5.5669174439999995,0,0,0.6111222239999999,39.8714138,32.7364372,0.002569907,0.29090392,-0.07576081700000001,-0.19692636300000002,5.092813111,0.100157328,-1.8421228680000001,44.89904114,0.9556336529999999,1.611214559,0.1,0.02746796,0.021021652000000002,-0.0045091770000000005,1.0,12355059,1,0,0,0,0
12402941,0.02105839,0.014682613,0.001965422,1.0,0.0,1501.0,1500.0,2000.0,1488.0,1511.0,1507.0,4.956873783,5.053732854,7.608689487,7.608778367,7.757403765,8.262664957,8.424067257,97.49283938,97.49283938,12.40454885,-0.000819645,-0.006114515,0.00182903,0.019082553999999998,-0.006434746,-0.12628378099999998,2.0,-1.0,0.0,11,0,0,1.0,0.0,0.0,0,0,0,0,0,0.000590479,0.0,0.151781581,0.163947711,0.564737136,,22.63888562,3.1e-06,4.8e-06,0.0,5.59e-05,39.42930488,0.28980014,-9.535655217999999,-6.75e+20,966.1601517000001,12.404602,-0.001809458,-0.00843011,-0.001422968,48.98455432,0.114748982,-9.368267631,-0.003130713,-0.00262079,-0.000856445,-6.75e+20,0.42245948899999997,0.41045950299999995,0.400599684,1.5369203980000001,13.25425654,25.47843245,-0.24448350800000002,4.434294041,0.10999999,-53.39189352,399.6921538,12.404602,96615.39697,1.147950681,0.136174114,-0.424373024,-0.19371299,0.0035705159999999997,0.00729939,-0.0028204909999999996,0.0,0.0,1.611618,0.69252783,0.0,0.0,0.72139114,1.0,398714138.0,327364379.4,400120.86299999995,0.896159232,0.007259452,0.886159191,0.0027405479999999998,4.958763316000001,0,0,0.562512503,39.8714138,32.7364372,-0.009678159,0.598716291,-0.068943358,-0.279281546,7.1381859489999995,0.14519932900000002,-1.710912816,42.00473603,0.8974276309999999,1.61106303,0.1,0.027597997000000003,0.020672351000000002,-0.0045091770000000005,1.0,12402941,1,0,0,0,0
12458824,0.019512981000000002,0.014561365,0.004182195,1.0,0.0,1501.9049810000001,1500.0,2000.0,1489.0950189999999,1509.9049810000001,1507.0,7.216342624,7.3573136560000005,8.565869274,8.56596803,8.733291561,9.178396478,9.357686592,108.39424199999999,108.39424199999999,12.40454294,-0.0007791139999999999,-0.006154709,0.0019513360000000001,0.018966188000000002,-0.006321902,-0.126308146,2.0,-1.0,0.0,11,0,0,1.0,0.0,0.0,0,0,0,0,0,0.00014601299999999999,0.0,-0.016615155,0.002922423,0.629203274,,25.12248637,3.41e-06,3.12e-06,0.0,8.62e-05,34.90996965,0.315362257,-9.484956242,-1.67e+20,966.1571018999999,12.404602,0.001178028,-0.007187636,-0.001621148,43.68632412,0.177803958,-9.467094064,-0.0036415490000000004,-0.006543681,-0.006066902,-1.67e+20,0.510585685,0.49858570700000004,0.40059944,1.67241002,13.25431516,25.33019161,-0.24151751899999999,4.069572967,0.10999999,-55.30224047,399.6233963,12.404602,96616.20981,1.147960428,0.22903349899999997,-0.039857983,-0.078852585,0.001375044,0.005432211,-0.002673527,0.0,0.0,1.611618,0.69252783,0.0,0.0,0.72139114,1.0,398714138.0,327364392.2,400120.6255,2.4490658130000003,0.002510502,2.439065701,0.007489498000000001,4.027138162,0,0,0.513902781,39.8714138,32.7364372,-0.024077634,0.9589283670000001,-0.060713124,-0.354489579,9.015433053999999,0.18652544,-1.5017332730000001,37.42361504,0.814525446,1.610895,0.1,0.027720022999999996,0.020477319,-0.0045091770000000005,1.0,12458824,1,0,0,0,0
12506706,0.021182813999999998,0.014214053999999999,0.003213594,1.0,0.0,1501.0,1500.0,2000.0,1489.0,1510.0,1507.0,8.993765654,9.169509188,9.523049061,9.523157693,9.709179357,10.094128,10.29130593,119.2956446,119.2956446,12.40453703,-0.000738582,-0.006194904,0.002073642,0.018849822,-0.006209058000000001,-0.126332511,2.0,-1.0,0.0,11,0,0,1.0,0.0,0.0,0,0,0,0,0,0.0,-0.01598438,-0.080259605,-0.052492639,1.177629942,208.71218259999998,27.98630128,3.52e-06,3.49e-06,0.0,0.00011125600000000001,31.28573994,0.182676129,-9.523087132,-3.41e+20,966.1566526,12.404602,-0.0043505770000000004,0.000590035,-0.004159653,38.37655975,0.13591052,-9.480960035,-0.001592303,-0.007030678,0.014787901,-3.41e+20,0.598711882,0.586711911,0.400599196,1.807899642,13.25437377,25.18195078,-0.23855153,3.704851894,0.10999999,-57.21258742,399.60801749999996,12.404602,96616.41706,1.147962813,-0.095127512,0.303666432,-0.45385543100000003,-0.000490038,0.008594593000000001,-0.005017158,0.0,0.0,1.611618,0.69252783,0.0,0.0,0.72139114,1.0,398714138.0,327364405.0,400120.3881,4.001972394,-0.002238448,3.991972211,0.012238448,3.095513008,0,0,0.465293059,39.8714138,32.7364372,-0.04322243,1.459706201,-0.049788682,-0.41921369,10.70856496,0.223818226,-1.277332151,33.54045673,0.7146150790000001,1.61093849,0.1,0.027752296,0.02016489,-0.0045091770000000005,1.0,12506706,1,0,0,0,0
12554588,0.023259632000000002,0.013786733,0.002543773,1.0,0.0,1501.0,1500.0,2000.0,1487.114023,1511.885977,1506.0,10.65009886,10.85814557,10.48022885,10.48034736,10.68506715,11.00985952,11.22492526,130.19704720000001,130.19704720000001,12.40453113,-0.0006980510000000001,-0.0062350980000000005,0.002195949,0.018733456000000002,-0.006096214,-0.126356875,2.0,-1.0,0.0,11,0,0,1.0,0.0,0.0,0,0,0,0,0,0.0,-0.039788811,-0.09265601300000001,-0.056239929,1.962824991,208.781272,31.03612867,2.93e-06,3.61e-06,0.0,0.000123825,28.09942338,-0.02742991,-9.604676326,-8.5e+20,966.1574756000001,12.404602,-0.00043639199999999996,-0.008235791,0.001972285,33.48840031,0.22465742100000002,-9.522537834,0.001709413,-0.005836729000000001,0.048394630999999994,-8.5e+20,0.686838079,0.674838115,0.400598952,1.9433892640000001,13.25443239,25.03370994,-0.235585541,3.3401308210000002,0.10999999,-59.12293436,399.6490746,12.404602,96615.897,1.147956688,0.353112404,-0.267909059,-0.048868927,-0.00012004200000000001,0.0064275140000000005,0.00062852,0.0,0.0,1.611618,0.69252783,0.0,0.0,0.72139114,1.0,398714138.0,327364417.9,400120.1506,5.554878976,-0.006987396999999999,5.544878721,0.016987396999999998,2.163887854,0,0,0.41668333700000004,39.8714138,32.7364372,-0.064688784,2.029253129,-0.03754615,-0.478808743,12.31162205,0.259137785,-1.045484165,29.99876326,0.606383786,1.611085462,0.1,0.028419637,0.018375848,-0.0045091770000000005,1.0,12554588,1,0,0,0,0
12602471,0.021093131,0.012883991000000001,0.001512154,1.0,0.0,1500.0,1500.0,2000.0,1489.376475,1509.623525,1506.0,12.07380097,12.30972246,11.43740864,11.43753702,11.66095495,11.92559104,12.158544599999999,141.09844990000002,141.09844990000002,12.40452522,-0.000657519,-0.006275291999999999,0.002318255,0.01861709,-0.00598337,-0.12638124,2.0,-1.0,0.0,11,0,0,1.0,0.0,0.0,0,0,0,0,0,0.0,-0.06359324200000001,-0.10505242199999999,-0.059987217999999995,2.74802004,208.8503613,34.08595606,2.94e-06,2.76e-06,0.0,6.7e-05,25.29726892,-0.145047225,-10.04550737,-1.05e+21,966.1608352,12.404602,0.00350677,-0.0050252709999999996,0.006524823000000001,30.43973743,0.171824182,-9.582181128,0.031195731,-0.050845088,0.112308954,-1.05e+21,0.788029555,0.7760295909999999,0.40059882,2.088324849,13.25450126,24.88061845,-0.232522335,3.016225566,0.10999999,-60.9192662,399.7338625,12.404602,96614.93462999999,1.147945334,0.053931665,0.07287060299999999,-0.034516151,0.003317108,0.006491134,0.004063328,0.0,-0.09629533400000001,1.611618,0.689288913,0.03451384,-0.03313292,0.718017238,1.0,398714138.0,327364447.6,400119.8264,7.148589631,-0.007395479,7.140325703999999,0.018263653,1.5725723969999998,0,0,0.368073615,39.8714138,32.7364372,-0.085169576,2.685121473,-0.024830905,-0.516469648,13.71851344,0.277038489,-0.8158960829999999,27.02505812,0.13258944,1.6136646030000001,0.1,0.028390403999999998,-0.73221733,-0.0045091770000000005,1.0,12602471,1,0,0,0,0
12646353,0.021036555,0.013036681999999999,-0.000289682,1.0,0.0,1499.0,1500.0,2000.0,1490.0,1509.0,1506.0,13.56570876,13.83079892,12.39458842,12.39472668,12.63684275,12.84132256,13.09216394,151.9998525,151.9998525,12.40451932,-0.0006169869999999999,-0.006315487,0.002440561,0.018500724,-0.005870525,-0.126405604,2.0,-1.0,0.0,11,0,0,1.0,0.0,0.0,0,0,0,0,0,0.0,-0.08739767300000001,-0.11744883099999999,-0.063734508,3.5332150889999996,208.9194506,37.13578345,8.7e-06,-0.00052256,0.0,-0.000186153,22.74510807,-0.20247747300000002,-10.72011517,-1.05e+21,966.1658456,12.404602,-0.004905271,-0.001236335,0.03387375,27.75161221,-0.06267446900000001,-9.633704734,0.077721686,-0.125919613,0.195945953,-1.05e+21,0.904515235,0.8925152609999999,0.40059882,2.244317868,13.25458212,24.72184879,-0.229345327,2.7400992630000003,0.10999999,-62.58213206,399.619056,12.404602,96616.27676000001,1.147961228,-0.467839501,-0.37990419299999995,0.907572128,0.000194677,0.008309647,0.043108781,0.0,-0.371299321,1.611618,0.6806245809999999,0.13315739999999998,-0.127829684,0.7089918159999999,1.0,398714138.0,327364506.7,400119.3515,8.813096295,-0.00027205400000000003,8.809581389,0.013514703000000001,1.571702104,0,0,0.319463893,39.8714138,32.7364372,-0.10500901300000001,3.39716351,-0.01180804,-0.5398568979999999,14.99774993,0.283603868,-0.587778634,24.42097159,-0.5790951879999999,1.61782648,0.1,0.02353124,-0.69484641,-0.0045091770000000005,1.0,12646353,1,0,0,0,0
12702236,0.01421953,0.008848377,-0.009441638,1.0,0.0,1494.642529,1500.0,2000.0,1492.357471,1506.642529,1504.0,14.69363185,14.98064144,13.35176821,13.35191634,13.61273054,13.75705408,14.02578327,162.9012551,162.9012551,12.40451341,-0.000576456,-0.006355681,0.002562867,0.018384358,-0.005757681,-0.126429969,2.0,-1.0,0.0,11,0,0,1.0,0.0,0.0,0,0,0,0,0,0.0,-0.11120210400000001,-0.129845239,-0.067481798,4.318410139,208.9885399,40.18561084,-1.74e-05,-0.002370034,0.0,-0.000737483,20.08395377,-0.30859760199999997,-10.73005764,-1.05e+21,966.1698887,12.40458605,-0.004417372,-0.001087799,0.107937991,25.04088075,-0.334616056,-9.629378469,0.128732389,-0.166127351,0.244864418,-1.05e+21,1.021000915,1.0090009309999999,0.40059882,2.400310887,13.25466299,24.56307913,-0.22616831899999998,2.463972961,0.10999999,-64.24499792,399.573111,12.404602,96616.806,1.147967443,-0.33597098200000003,0.421504706,1.114247756,0.0023973320000000003,0.01101891,0.11562736,0.0,-0.344490571,1.611618,0.6822774770000001,0.12364224300000001,-0.118695244,0.710713574,1.0,398714138.0,327364565.9,400118.8766,10.47760296,0.00685137,10.47883707,0.008765753000000001,1.5708318119999998,0,0,0.27085417100000003,39.8714138,32.7364372,-0.12433141,4.138070402,-0.001082761,-0.5608419139999999,16.09390368,0.274383435,-0.5411274779999999,21.79497301,-0.600905261,1.6257837819999998,0.1,0.014041713,-0.6286461999999999,-0.0045091770000000005,1.0,12702236,1,0,0,0,0
12750118,0.01051805,-0.390794837,-0.020720278999999998,1.0,0.0,1489.0,1500.0,2000.0,1494.84797,1504.15203,1304.0,15.80477292,16.11362654,14.308948000000001,14.30910601,14.58861834,14.6727856,14.95940261,173.80265769999997,173.80265769999997,12.4045075,-0.000535924,-0.006395876,0.002685173,0.018267992,-0.005644837,-0.126454333,2.0,-1.0,0.0,11,0,0,1.0,0.0,0.0,0,0,0,0,0,0.0,-0.135006535,-0.142241648,-0.071229088,5.103605188,209.0576293,43.23543823,-0.000148448,-0.003519135,0.0,-0.0015942729999999998,17.32998409,-0.456180501,-10.17399209,-1.05e+21,966.1731079,12.40455652,0.029735792,-0.054489700999999995,0.163739807,23.45935487,-0.431830135,-11.06175145,0.183562163,-0.176643634,0.264217675,-1.05e+21,1.137486594,1.125486601,0.40059882,2.5563039069999998,13.25474385,24.40430947,-0.22299131100000003,2.187846658,0.10999999,-65.90786378,399.5704442,12.404602,96616.82784,1.147967737,2.094906907,-3.055016925,3.1662157810000005,0.083793869,-0.11745235,0.21494326,0.0,-0.32054157,1.611618,0.683650237,0.11512320699999999,-0.110517056,0.712143504,1.0,398714138.0,327364625.0,400118.4017,12.14210962,0.013974795,12.14809276,0.004016803,1.569961519,0,0,0.22224444899999998,39.8714138,32.7364372,-0.143213512,4.903557695,0.0076859680000000005,-0.579781263,17.03414992,0.251720302,-0.649007297,19.15031481,-0.035239909,1.636973148,0.1,-0.001539912,-0.541663938,-0.0045091770000000005,1.0,12750118,1,0,0,0,0
12794000,-0.013123982,-0.294580208,-0.037431072999999995,1.0,0.0,1480.0,1500.0,2000.0,1507.0,1492.0,1352.338468,16.75431806,17.08165717,15.26612779,15.26629567,15.56450613,15.58851712,15.89302194,184.7040603,184.7040603,12.4045016,-0.000495393,-0.00643607,0.0028074790000000003,0.018151626,-0.005531993000000001,-0.126478698,2.0,-1.0,0.0,11,0,0,1.0,0.0,0.0,0,0,0,0,0,0.0,-0.158810966,-0.154638056,-0.074976378,5.888800237000001,209.1267186,46.28526562,-0.00032853099999999996,-0.00445979,0.0,-0.002632365,15.00105538,-0.499195789,-9.859875968999999,-1.05e+21,966.1709419,12.40452699,0.1312146,-0.182967853,0.24808965100000002,20.7950472,-0.295430765,-10.42582205,0.215964181,-0.1290358,0.23000597399999997,-1.05e+21,1.267143093,1.255143093,0.40059882,2.71328665,13.25482048,24.245992899999997,-0.219823447,1.9277822580000001,0.10999999,-67.55140981,399.5736918,12.404572,96616.79657,1.1479673320000001,2.0358752890000003,-0.9316205879999999,0.929002291,0.165494723,-0.191785647,0.263527369,0.0,-0.298772889,1.611618,0.684812933,0.107365375,-0.103069621,0.7133547029999999,1.0,398714138.0,327364689.4,400118.5125,13.71509806,0.02,13.72509806,-0.003294659,1.5692381830000002,0,0,0.173634727,39.8714138,32.7364372,-0.15839015,5.741581067,0.015634921,-0.590304389,17.88609547,0.249999151,-0.770845793,16.71746892,0.35049008600000003,1.647642089,0.1,-0.016416998000000002,-0.495559727,-0.0045091770000000005,1.0,12794000,1,0,0,0,0
12837882,-0.030051621,-0.265209332,-0.051831756,1.0,0.0,1473.0,1500.0,2000.0,1515.0,1484.0,1367.0,17.60575018,17.94961534,16.22330757,16.22348533,16.54039393,16.50424864,16.82664128,195.605463,195.605463,12.40449569,-0.000454861,-0.006476264,0.002929785,0.01803526,-0.005419149,-0.126503063,2.0,-1.0,0.0,11,0,0,1.0,0.0,0.0,0,0,0,0,0,0.0,-0.18261539699999998,-0.167034465,-0.078723668,6.673995286,209.1958079,49.33509301,-0.000525607,-0.005411796,0.0,-0.003797025,13.14307799,-0.426348706,-9.813843202000001,-1.05e+21,966.1628091,12.40449746,0.20332446699999998,-0.209753888,0.28310765600000004,17.3759388,-0.473004708,-10.12895696,0.223515931,-0.017025636,0.136443556,-1.05e+21,1.4305106159999998,1.4185106159999998,0.40059882,2.872802618,13.25488628,24.08883601,-0.216678989,1.708828679,0.10999999,-69.14550627,399.4944068,12.404541,96617.69496000001,1.147978124,0.8436363929999999,0.006219336,0.089563843,0.209401748,-0.195288568,0.27614360600000004,0.0,-0.278778885,1.611618,0.6858092459999999,0.10022875099999999,-0.09621854,0.7143925879999999,1.0,398714138.0,327364782.4,400121.8368,14.78598647,0.02,14.79598647,-0.024664932,1.5693211,0,0,0.125025005,39.8714138,32.7364372,-0.169461081,6.659975424,0.022675551000000002,-0.591502224,18.64020262,0.271482008,-0.9081506970000001,14.51931403,0.5368491989999999,1.657734395,0.1,-0.029207555,-0.462706458,-0.0045091770000000005,1.0,12837882,1,0,0,0,0
12885765,-0.033093632000000005,-0.21336574100000003,-0.061894325,1.0,0.0,1468.0,1500.0,2000.0,1516.0,1483.0,1393.0,18.29364715,18.65107021,17.18048736,17.180675,17.51628173,17.41998017,17.76026061,206.5068656,206.5068656,12.40448979,-0.00041433,-0.0065164590000000005,0.003052091,0.017918893999999998,-0.005306305,-0.126527427,2.0,-1.0,0.0,11,0,0,1.0,0.0,0.0,0,0,0,0,0,0.0,-0.206419828,-0.179430874,-0.082470958,7.459190336,209.26489730000003,52.3849204,-0.0007371560000000001,-0.0065059919999999995,0.0,-0.004844849,11.66952227,-0.188307265,-9.904362669,-1.05e+21,966.1585539999999,12.40448,0.210664527,-0.146561839,0.25596552,14.88212695,-0.533731787,-9.604821632,0.239567845,0.045173792000000004,0.0035753240000000004,-1.05e+21,1.593878139,1.581878139,0.40059882,3.032318586,13.25495207,23.93167912,-0.21353453,1.4898751000000001,0.10999999,-70.73960273,399.7198617,12.404510499999999,96615.07429,1.1479468659999998,0.05060834,2.09966915,-0.625369343,0.211380293,-0.138900568,0.251497887,0.0,-0.26016253,1.611618,0.686675363,0.093574843,-0.08983085699999999,0.715294731,1.0,398714138.0,327364875.5,400125.161,15.85687489,0.02,15.86687489,-0.046035205,1.5694040169999999,0,0,0.076415283,39.8714138,32.7364372,-0.18088330800000002,7.607038317000001,0.03030855,-0.603411369,19.3265784,0.284889648,-1.138407548,12.74605167,0.49864400600000003,1.66246596,0.1,-0.045245194,-0.436691196,-0.0045091770000000005,1.0,12885765,1,0,0,0,0
12945647,-0.039712628,-0.196627715,-0.067400083,1.0,0.0,1466.0,1500.0,2000.0,1519.0,1480.0,1400.0,18.91611553,19.28574553,18.13766715,18.13786466,18.49216952,18.33571169,18.69387995,217.4082682,217.4082682,12.40448388,-0.00037379800000000006,-0.006556653000000001,0.0031743970000000002,0.017802528,-0.00519346,-0.126551792,2.0,-1.0,0.0,11,0,0,1.0,0.0,0.0,0,0,0,0,0,0.0,-0.230224259,-0.191827282,-0.08621824800000001,8.244385385,209.3339866,55.43474779,-0.000964259,-0.0075841780000000004,0.0,-0.0055680009999999995,10.75219244,0.288756547,-10.19246176,-1.05e+21,966.1599094000001,12.40448,0.22116620399999998,-0.009497678,0.170638755,13.03578131,-0.345645482,-9.642458163999999,0.26791878199999997,0.035301266,-0.18616512300000002,-1.05e+21,1.7572456619999999,1.7452456619999999,0.40059882,3.191834553,13.25501786,23.77452224,-0.21039007199999998,1.270921521,0.10999999,-72.33369919,399.5811038,12.40449854,96616.71992,1.147966443,-0.16063560699999999,2.3713267730000003,-1.713405197,0.217734223,-0.020221409,0.182399642,0.0,-0.242667738,1.611618,0.687435007,0.08731438400000001,-0.083820886,0.716086012,1.0,398714138.0,327364968.6,400128.4853,16.9277633,0.02,16.9377633,-0.067405478,1.569486933,0,0,0.027805561,39.8714138,32.7364372,-0.19281383100000002,8.595582175,0.038798655,-0.630818884,19.91495258,0.28661313,-1.503158066,11.58757313,0.135513111,1.659440984,0.1,-0.061441771,-0.42629868600000004,-0.0045091770000000005,1.0,12945647,1,0,0,0,0
12989530,-0.040460153,-0.176771453,-0.061716695999999995,1.0,0.0,1468.30046,1500.0,2000.0,1520.0,1479.0,1411.0,19.48222562,19.862913600000002,18.84396955,18.84391436,19.21202239,19.00904906,19.38038113,226.4152086,226.4152086,12.40442172,-0.000341671,-0.006586245,0.003266813,0.017278568,-0.004906758,-0.126538977,2.0,-1.0,0.0,11,0,0,1.0,0.0,0.0,0,0,0,0,0,0.0,-0.24087384899999997,-0.204795426,-0.090367136,9.116628164,209.4212742,57.73304779,-0.001230274,-0.008582646999999999,0.0,-0.0058538819999999995,9.635707242,0.31603197,-10.286404600000001,-1.05e+21,966.1612101,12.40446987,0.240817593,0.069509065,0.023097398999999998,11.68692867,-0.170081764,-9.947809762999999,0.282371215,0.010127918,-0.323946335,-1.05e+21,1.921524614,1.909524618,0.400598723,3.349492466,13.25508961,23.62277862,-0.20735376,1.060373683,0.10999999,-73.89015688,399.63386210000004,12.40448,96616.0842,1.1479589190000001,0.5100063220000001,1.558327157,-3.662845445,0.23968551300000002,0.081278244,0.019636048,0.0,-0.226086667,1.611618,0.6881063940000001,0.081374738,-0.078118877,0.716785424,1.0,398714138.0,327365061.7,400131.8096,17.99865172,0.02,18.00865172,-0.088775751,1.56956985,0,0,0.0,39.8714138,32.7364372,-0.202828697,9.575555317000001,0.045777030999999996,-0.654535891,20.45192537,0.281446358,-1.547820472,10.3927456,-0.075006007,1.6512823280000002,0.1,-0.07819267099999999,-0.39801679999999995,-0.0045091770000000005,1.0,12989530,1,0,0,0,0
13037412,-0.049373824000000004,-0.169382463,-0.050531327,1.0,0.0,1474.790958,1500.0,2000.0,1524.790958,1474.209042,1415.0,20.06748622,20.45961456,19.06967553,19.06886462,19.44139869,19.21804101,19.59348727,231.79299849999998,231.79299849999998,12.4042518,-0.000325644,-0.006595525,0.0033019720000000002,0.015973796000000002,-0.0042870009999999995,-0.126454941,2.0,-1.0,0.0,11,0,0,1.0,0.0,0.0,0,0,0,0,0,0.0,-0.226323202,-0.218858823,-0.09528535199999999,10.15562503,209.54342340000002,58.59167482,-0.001511561,-0.009374815,0.0,-0.005662975,8.13770754,-0.518335427,-10.00840958,-1.05e+21,966.1624058,12.40444034,0.268488427,0.081511031,-0.15852882699999998,10.92282075,0.158406363,-10.28400681,0.27019880399999996,-0.044356645,-0.362191184,-1.05e+21,2.0939009669999997,2.081901019,0.400597769,3.490642859,13.25521426,23.51912807,-0.205278254,0.924504949,0.10999999,-75.11222054,399.6026644,12.40448,96616.46931,1.14796345,1.0473964,0.05294857,-4.7705456989999995,0.26854638,0.092781032,-0.154520474,0.0,-0.21028146,1.611618,0.6887023259999999,0.075707787,-0.072678675,0.7174062090000001,1.0,398714138.0,327365171.5,400133.5669,18.6375195,-0.013576715,18.64528106,-0.069853968,1.571293571,0,0,0.0,39.8714138,32.7364372,-0.209173812,10.53910986,0.049859441,-0.6711831340000001,20.89043043,0.263080184,-0.9793020379999999,9.128285672,0.0068275540000000004,1.6332892719999998,0.1,-0.09500119800000001,-0.36632714,-0.0045091770000000005,1.0,13037412,1,0,0,0,0
13081294,-0.055953437,-0.156765605,-0.029800214,1.0,0.0,1485.2814560000002,1500.0,2000.0,1525.2814560000002,1473.7185439999998,1424.7185439999998,20.5627189,20.96459042,19.29538151,19.29381487,19.67077499,19.42703297,19.80659342,237.1707885,237.1707885,12.40408189,-0.000309617,-0.006604805,0.00333713,0.014669023,-0.0036672429999999997,-0.126370904,2.0,-1.0,0.0,11,0,0,1.0,0.0,0.0,0,0,0,0,0,0.0,-0.21177255399999997,-0.23292222,-0.100203567,11.19462189,209.66557269999998,59.45030186,-0.001801066,-0.009981316,0.0,-0.005090657,6.809568607999999,-1.21327493,-9.746625407,-1.05e+21,966.1628177000001,12.40441484,0.276261665,0.023075791000000002,-0.317531075,10.047593699999998,0.40180779299999997,-10.36778266,0.254607921,-0.07098171,-0.363543399,-1.05e+21,2.26627732,2.25427742,0.40059681399999997,3.631793253,13.25533891,23.41547753,-0.203202747,0.788636215,0.10999999,-76.33428420000001,399.65515289999996,12.404449000000001,96615.84879,1.147956052,-0.254656956,-1.089618978,-2.772097576,0.278609983,0.041231817999999996,-0.314900914,0.0,-0.195099424,1.611618,0.689234276,0.070259823,-0.067448689,0.717960313,1.0,398714138.0,327365282.4,400135.229,19.25013403,-0.049193839,19.2555211,-0.048483695,1.5731170019999998,0,0,0.0,39.8714138,32.7364372,-0.215518099,11.53641909,0.053752355999999994,-0.6663860620000001,21.30076115,0.251451628,-0.344046697,7.858875462,0.11990884800000001,1.6149089719999998,0.1,-0.11055095300000001,-0.333666656,-0.0045091770000000005,1.0,13081294,1,0,0,0,0
13125177,-0.057568457,-0.139693535,-0.008370383,1.0,0.0,1496.7719539999998,1500.0,2000.0,1528.7719539999998,1470.2280460000002,1430.0,20.99206778,21.40219028,19.52108749,19.51876513,19.9001513,19.63602492,20.01969957,242.5485784,242.5485784,12.40391197,-0.00029359,-0.006614086,0.003372289,0.01336425,-0.003047486,-0.126286867,2.0,-1.0,0.0,11,0,0,1.0,0.0,0.0,0,0,0,0,0,0.0,-0.197221907,-0.246985617,-0.10512178300000001,12.23361876,209.7877219,60.3089289,-0.002077877,-0.010514827,0.0,-0.004317147,5.924181521,-1.5447876269999998,-9.52709573,-1.05e+21,966.1611862,12.40439983,0.282448759,-0.028662213,-0.39129819899999996,8.591973415,-0.20851207100000002,-10.25445891,0.230106594,-0.024989395,-0.268732843,-1.05e+21,2.438653673,2.426653821,0.40059586,3.7729436460000003,13.25546356,23.31182699,-0.201127241,0.65276748,0.10999999,-77.55634786,399.6258735,12.40443489,96616.19762,1.1479603109999998,-0.05646978,-1.254325905,-1.116254654,0.282747301,-0.022453632999999997,-0.400138108,0.0,-0.180428907,1.611618,0.6897105309999999,0.064991564,-0.06239121,0.7184564040000001,1.0,398714138.0,327365393.3,400136.8912,19.86274855,-0.08481096199999999,19.86576115,-0.027113421000000002,1.5749404319999998,0,0,0.0,39.8714138,32.7364372,-0.221860227,12.62171188,0.05715134,-0.605693154,21.6376538,0.257385058,0.46516221700000004,6.5765620479999995,0.31443915100000003,1.5955192969999998,0.1,-0.12455310800000001,-0.305583944,-0.0045091770000000005,1.0,13125177,1,0,0,0,0
13169059,-0.061874939000000004,-0.12846451,0.011157449,1.0,0.0,1507.0,1500.0,2000.0,1531.0,1468.0,1435.0,21.32363369,21.7402867,19.74679347,19.74371538,20.129527600000003,19.84501688,20.23280572,247.9263683,247.9263683,12.40374205,-0.000277564,-0.0066233659999999995,0.003407447,0.012059478,-0.002427729,-0.12620283,2.0,-1.0,0.0,11,0,0,1.0,0.0,0.0,0,0,0,0,0,0.0,-0.18267126,-0.26104901399999997,-0.11003999800000001,13.27261562,209.9098711,61.16755594,-0.002350301,-0.011106029,0.0,-0.003470625,5.196093412,-1.659409128,-9.463023754,-1.05e+21,966.1595312999999,12.40438493,0.264360666,-0.08079336200000001,-0.389905586,7.186924573,-0.985443793,-9.786220968,0.20942206,0.019746639,-0.16471909099999998,-1.05e+21,2.611030026,2.5990302219999997,0.400594905,3.91409404,13.255588199999998,23.20817645,-0.199051735,0.516898746,0.10999999,-78.77841152,399.6023928,12.404419,96616.44797000001,1.1479632659999999,-0.420404891,-0.523909353,1.024579628,0.265614652,-0.06640530900000001,-0.39578744,0.0,-0.166146994,1.611618,0.690138557,0.059859485999999996,-0.05746447,0.7189022740000001,1.0,398714138.0,327365504.2,400138.5533,20.47536307,-0.12042808599999999,20.4760012,-0.005743148000000001,1.576763863,0,0,0.0,39.8714138,32.7364372,-0.22566490600000003,13.71425931,0.060498137,-0.5429939189999999,21.95910504,0.263436498,0.94539621,5.53434816,0.425039603,1.578707576,0.1,-0.14059785,-0.279759055,-0.0045091770000000005,1.0,13169059,1,0,0,0,0
13212941,-0.063001189,-0.117871146,0.027092647999999997,1.0,0.0,1514.752951,1500.0,2000.0,1531.0,1468.0,1441.0,21.58180903,22.00357236,19.97249945,19.96866564,20.35890391,20.05400883,20.44591187,253.3041583,253.3041583,12.40357213,-0.000261537,-0.006632646,0.003442605,0.010754705,-0.0018079720000000001,-0.126118794,2.0,-1.0,0.0,11,0,0,1.0,0.0,0.0,0,0,0,0,0,0.0,-0.168120613,-0.275112411,-0.114958214,14.31161249,210.0320204,62.02618297,-0.002575816,-0.011658883,0.0,-0.002817395,5.054189772,-0.965772031,-9.978274625,-1.05e+21,966.1577884999999,12.4043704,0.238641265,-0.061831644000000005,-0.315374782,6.027562842000001,-1.63705317,-9.43732336,0.20296103699999998,0.059801059000000004,-0.026409055,-1.05e+21,2.8099118489999997,2.797911982,0.400596591,4.064503151,13.25570161,23.12953441,-0.19747663,0.41404133200000004,0.10999999,-79.87488598,399.77087,12.404388,96614.52,1.1479404,-0.966107997,0.918912347,1.260432188,0.23683233399999998,-0.053022087,-0.33792329600000004,0.0,-0.152187254,1.611618,0.6905228370000001,0.054840226,-0.05264603599999999,0.719302587,1.0,398714137.3,327365621.7,400141.9518,20.90045209,-0.128263653,20.89697922,0.0,1.577132686,0,0,0.0,39.8714138,32.7364372,-0.220013617,14.83384164,0.06365045400000001,-0.472817981,22.22301284,0.269927714,0.19968460100000002,5.386880166,0.22287021899999998,1.571502763,0.1,-0.152407415,-0.25946249899999996,-0.0045091770000000005,1.0,13212941,1,0,0,0,0
13256823,-0.063813468,-0.112986695,0.03765281,1.0,0.0,1520.0,1500.0,2000.0,1532.0,1467.0,1444.756551,21.76671913,22.19213541,20.19820543,20.19361589,20.58828021,20.26300079,20.65901802,258.68194819999997,258.68194819999997,12.40340221,-0.00024551,-0.006641927,0.0034777640000000004,0.009449932,-0.001188215,-0.126034757,2.0,-1.0,0.0,11,0,0,1.0,0.0,0.0,0,0,0,0,0,0.0,-0.153569966,-0.28917580800000003,-0.119876429,15.35060935,210.1541696,62.88481001,-0.002851969,-0.012355807,0.0,-0.002217608,4.830913235,-0.351228489,-10.56490267,-1.05e+21,966.1568579,12.40435369,0.20001438100000002,0.010743535,-0.174845373,5.0083410939999995,-1.990326517,-9.570235644,0.19619393699999998,0.09728331400000001,0.102586909,-1.05e+21,3.0110545739999997,2.9990546360000003,0.400598503,4.215702026000001,13.25581406,23.05302557,-0.19594421,0.313999766,0.10999999,-80.96064775,399.62919469999997,12.404388,96616.1435,1.147959653,-1.298039398,1.064106215,2.40105228,0.20884717,0.004341578,-0.22749635,0.0,-0.138475005,1.611618,0.69086757,0.049907350999999996,-0.047910527,0.7196616779999999,1.0,398714136.4,327365741.6,400145.9884,21.25662332,-0.12588917800000002,21.24840127,0.0,1.5769669240000002,0,0,0.0,39.8714138,32.7364372,-0.21464629,15.94412177,0.066570563,-0.414916044,22.47892006,0.267798507,-0.49755401899999996,5.157331602,-0.085512355,1.5662480369999998,0.1,-0.16602493699999998,-0.24221447899999998,-0.0045091770000000005,1.0,13256823,1,0,0,0,0
13313413,-0.06498794,-0.103998967,0.043620912000000005,1.0,0.0,1521.0,1500.0,2000.0,1532.0,1467.0,1447.0,22.08669311,22.51832715,20.42391141,20.41856615,20.81765651,20.47199275,20.87212417,264.05973819999997,264.05973819999997,12.4032323,-0.000229483,-0.006651206999999999,0.003512922,0.008145159,-0.000568458,-0.12595072,2.0,-1.0,0.0,11,0,0,1.0,0.0,0.0,0,0,0,0,0,0.0,-0.139019318,-0.303239205,-0.124794645,16.38960622,210.27631890000004,63.74343705,-0.003098288,-0.012957061,0.0,-0.00191351,4.131155736,-0.199819157,-11.56948151,-1.05e+21,966.1606822000001,12.40432416,0.19195717,0.06095938,-0.062106543,5.008043503000001,-1.267149626,-9.704587469,0.18763459300000002,0.119704195,0.177044095,-1.05e+21,3.212197298,3.2001972889999997,0.400600415,4.366900902,13.255926500000001,22.97651674,-0.19441178899999997,0.21395820000000004,0.10999999,-82.04640951,399.7393683,12.404388,96614.88532999999,1.147944624,-0.483160175,0.888536635,2.736433496,0.19487332100000002,0.05083626,-0.124418938,0.0,-0.124969347,1.611618,0.691175373,0.045046502,-0.043244160999999996,0.719982337,1.0,398714135.4,327365861.5,400150.025,21.61279456,-0.123514703,21.59982332,0.0,1.576801161,0,0,0.0,39.8714138,32.7364372,-0.21094169999999998,16.99993257,0.068130966,-0.42888481700000003,22.68797969,0.215192214,-0.910957879,4.447158276000001,-1.015828822,1.57241209,0.1,-0.177346439,-0.224369221,-0.0045091770000000005,1.0,13313413,1,0,0,0,0
13360589,-0.069018789,-0.09956746699999999,0.041818573,1.0,0.0,1520.0,1500.0,2000.0,1534.2244449999998,1464.7755550000002,1449.0,22.288593,22.72421192,20.64961739,20.6435164,21.04703282,20.680984699999996,21.08523032,269.43752810000007,269.43752810000007,12.40306238,-0.000213456,-0.006660487,0.00354808,0.006840387,5.13e-05,-0.125866683,2.0,-1.0,0.0,11,0,0,1.0,0.0,0.0,0,0,0,0,0,0.0,-0.124468671,-0.317302602,-0.12971286,17.42860308,210.39846809999997,64.60206408,-0.003367635,-0.013614785,0.0,-0.0017869070000000001,3.448272085,-0.053696323,-12.5385379,-1.05e+21,966.1644289999999,12.4042899,0.200908229,0.09791408,0.091874784,4.832124178,-0.398703655,-10.47162738,0.178554555,0.141413006,0.243107717,-1.05e+21,3.413340023,3.401339942,0.400602326,4.518099777,13.25603895,22.90000791,-0.192879368,0.113916634,0.10999999,-83.13217128,399.62688560000004,12.404358,96616.15872,1.147959811,-0.166000575,0.740834872,2.613501892,0.198052194,0.10276198,0.007834006999999999,0.0,-0.111616618,1.611618,0.69144875,0.040238671000000004,-0.038628696000000004,0.720267047,1.0,398714134.5,327365981.4,400154.0616,21.96896579,-0.121140228,21.95124536,0.0,1.5766353990000002,0,0,0.0,39.8714138,32.7364372,-0.207422608,18.0570765,0.068767799,-0.445994815,22.89198714,0.156114021,-1.325993076,3.747807069,-1.9276920919999998,1.578980419,0.1,-0.190093845,-0.20940052399999998,-0.0045091770000000005,1.0,13360589,1,0,0,0,0
13412471,-0.073126975,-0.095128743,0.03360599,1.0,0.0,1515.0,1500.0,2000.0,1537.0,1462.0,1452.429886,22.52581709,22.96593759,20.87532336,20.86846666,21.27640912,20.88997666,21.29833646,274.815318,274.815318,12.40289246,-0.00019742900000000002,-0.006669766999999999,0.003583239,0.005535614,0.000671057,-0.125782646,2.0,-1.0,0.0,11,0,0,1.0,0.0,0.0,0,0,0,0,0,0.0,-0.109918024,-0.33136599899999997,-0.134631076,18.46759995,210.52061740000002,65.46069112,-0.0036349729999999997,-0.014282873,0.0,-0.001837876,2.9590027880000003,0.031768031,-13.10000162,-1.05e+21,966.1672851,12.40420131,0.192316735,0.121905515,0.207579868,3.9694267169999997,-0.312242594,-11.54532645,0.163499977,0.154951354,0.212861677,-1.05e+21,3.6583683110000003,3.646368317,0.40059999,4.682328804,13.25617091,22.83872056,-0.191650985,0.029182571,0.10999999,-84.22911504,399.5626457,12.40433977,96616.90281,1.1479686040000001,-0.032220868,1.1142039259999998,2.030484725,0.199761566,0.120636836,0.137061105,0.0,-0.09838553900000001,1.611618,0.6916891820000001,0.03547287,-0.03405358,0.720517504,1.0,398714133.8,327366106.1,400158.0982,22.258487699999996,-0.13234246800000002,22.24095531,-0.018513702,1.577029726,0,0,0.0,39.8714138,32.7364372,-0.206031963,19.129517,0.058807367,-0.499147929,23.03802462,0.022775775,-1.759746585,3.172631305,-2.627819199,1.5901875030000001,0.1,-0.200042128,-0.194356063,-0.0045091770000000005,1.0,13412471,1,0,0,0,0
13456354,-0.075868197,-0.090715541,0.02339765,1.0,0.0,1509.0,1500.0,2000.0,1538.0,1461.0,1454.205441,22.70844019,23.15207852,21.10102934,21.09341691,21.50578543,21.09896861,21.51144261,280.193108,280.193108,12.40272254,-0.000181402,-0.006679048000000001,0.003618397,0.004230841,0.001290814,-0.12569861,2.0,-1.0,0.0,11,0,0,1.0,0.0,0.0,0,0,0,0,0,0.0,-0.095395396,-0.34547038799999996,-0.139552503,19.50750753,210.64404810000002,66.30896819,-0.0038987320000000002,-0.014956368000000001,0.0,-0.001997078,2.4722509919999998,0.117149805,-13.65434184,-1.04e+21,966.1699940999999,12.40411101,0.184286943,0.143499325,0.252842484,3.3657860489999996,-0.065724416,-12.48902354,0.148379622,0.168356212,0.182033568,-1.04e+21,3.918684805,3.906684955,0.40059617399999997,4.851097084,13.25630968,22.78273585,-0.190528518,-0.050218889,0.10999999,-85.3299542,399.5608758,12.40427816,96616.93656,1.147969099,-0.19864982399999997,-0.154332005,0.901188063,0.191929099,0.137112764,0.220984318,0.0,-0.085235658,1.611618,0.691898115,0.030734779,-0.029505062000000002,0.720735206,1.0,398714133.3,327366235.3,400162.1348,22.48643729,-0.156087217,22.47365409,-0.054130823,1.577941477,0,0,0.0,39.8714138,32.7364372,-0.204825631,20.2034285,0.048604049,-0.552920296,23.18336323,-0.111391584,-2.189038901,2.598067773,-3.3207733760000004,1.6013499269999998,0.1,-0.210001543,-0.184852613,-0.0045091770000000005,1.0,13456354,1,0,0,0,0
13504236,-0.078131899,-0.086811242,0.012307225,1.0,0.0,1504.0,1500.0,2000.0,1538.304061,1461.0,1455.304061,22.85671326,23.30330044,21.32673532,21.31836717,21.73516173,21.30796057,21.72454876,285.5708979,285.5708979,12.40255262,-0.000165375,-0.006688328,0.003653555,0.0029260690000000003,0.001910571,-0.125614573,2.0,-1.0,0.0,11,0,0,1.0,0.0,0.0,0,0,0,0,0,0.0,-0.08278204900000001,-0.362368101,-0.144692773,20.60947357,210.8548006,66.45196845,-0.004158023,-0.015628169,0.0,-0.00219022,2.157048921,0.19690434399999998,-13.72326609,-5.34e+20,966.1626697,12.4039043,0.170166862,0.15408011900000002,0.243728114,2.938836352,0.12988017300000002,-13.01287526,0.128777051,0.172664674,0.11154156900000001,-5.34e+20,4.179001298,4.167001592,0.400592358,5.019865364,13.25644844,22.72675113,-0.18940605,-0.129620349,0.10999999,-86.43079337,399.636378,12.40419773,96616.08488,1.147958876,-0.382025619,0.492821064,-0.411130868,0.18005363300000002,0.161799785,0.239742966,0.0,-0.072143609,1.611618,0.692076453,0.026016203999999998,-0.02497528,0.7209209670000001,1.0,398714132.8,327366364.5,400166.1714,22.71438688,-0.179831966,22.70635287,-0.08974794400000001,1.578853228,0,0,0.0,39.8714138,32.7364372,-0.21617895,21.37757774,0.021849842999999997,-0.648890337,23.28107768,-0.302057123,-2.314332743,2.065223421,-3.5249436789999997,1.60946915,0.1,-0.218052682,-0.18236783899999998,-0.0045091770000000005,1.0,13504236,1,0,0,0,0
13548118,-0.079727513,-0.083006167,0.0032868959999999997,1.0,0.0,1499.8135630000002,1500.0,2000.0,1539.0,1460.0,1457.0,22.982879699999998,23.43187472,21.5524413,21.54331742,21.96453803,21.51695252,21.93765491,290.9486878,290.9486878,12.40238271,-0.000149348,-0.006697608000000001,0.003688714,0.0016212960000000002,0.002530328,-0.125530536,2.0,-1.0,0.0,11,0,0,1.0,0.0,0.0,0,0,0,0,0,0.0,-0.070168702,-0.37926581299999995,-0.149833044,21.71143962,211.0655531,66.59496871,-0.004403143,-0.016265298,0.0,-0.002352134,1.84184685,0.276658884,-13.79219034,-2.6e+19,966.1553453,12.40369759,0.15545744,0.16907955800000002,0.192684031,2.492768847,0.23371254100000002,-13.58489533,0.109174479,0.176973136,0.041049571,-2.6e+19,4.439317792,4.427318229,0.40058854200000005,5.188633643999999,13.2565872,22.67076642,-0.188283583,-0.20902180899999998,0.10999999,-87.53163254,399.63993239999996,12.40405448,96616.01372999999,1.147958026,-0.9092313409999999,0.204733351,-0.747201481,0.16420975,0.17712943899999997,0.227007245,0.0,-0.059078887999999996,1.611618,0.692224895,0.021306368,-0.020453887,0.721075573,1.0,398714132.3,327366493.7,400170.208,22.94233647,-0.203576715,22.93905165,-0.125365065,1.5797649790000001,0,0,0.0,39.8714138,32.7364372,-0.22753227,22.55172698,-0.004904362,-0.7448603770000001,23.37879214,-0.492722661,-2.439626585,1.532379068,-3.7291139810000002,1.617588374,0.1,-0.226849558,-0.162114228,-0.0045091770000000005,1.0,13548118,1,0,0,0,0
13596001,-0.080492936,-0.0800098,-0.003878585,1.0,0.0,1497.0,1500.0,2000.0,1539.0,1460.0,1459.0,23.09323383,23.54445429,21.77814728,21.76826768,22.19391434,21.72594448,22.15076106,296.3264778,296.3264778,12.40221279,-0.000133322,-0.006706889000000001,0.003723872,0.000316523,0.003150085,-0.12544649900000002,2.0,-1.0,0.0,11,0,0,1.0,0.0,0.0,0,0,0,0,0,0.0,-0.057555355999999995,-0.396163525,-0.154973315,22.81340567,211.2763056,66.73796898,-0.004661602,-0.016920565,0.0,-0.002472613,1.66434847,0.131528697,-13.62645274,-4.82e+20,966.1430284,12.40339259,0.128792892,0.17019233399999997,0.11809827699999999,2.119095309,0.250635705,-13.84194337,0.09476063800000001,0.16032637,0.0013151179999999999,-4.82e+20,4.700033735,4.688034222,0.40058687,5.340922466,13.25673444,22.63222763,-0.187509865,-0.268800768,0.10999999,-88.52295224,399.6440858,12.40384968,96615.96276000001,1.147957434,-0.6648428270000001,-0.060398257000000004,-1.064646404,0.144672299,0.188020833,0.167332065,0.0,-0.046024536,1.611618,0.6923436540000001,0.016599361,-0.01593521,0.7211992970000001,1.0,398714131.3,327366624.9,400180.4679,23.13587518,-0.259535907,23.13441088,-0.204178826,1.5820567890000001,0,0,0.0,39.8714138,32.7364372,-0.247581642,23.65008112,-0.046023429000000005,-0.837986597,23.43822371,-0.6704356570000001,-2.367068701,1.223760818,-3.615939927,1.619050345,0.13489765199999998,-0.23339659100000001,-0.152824608,-0.0045091770000000005,1.0,13596001,1,0,0,0,0
13639883,-0.080008827,-0.080872063,-0.007065691999999999,1.0,0.0,1496.0,1500.0,2000.0,1540.0,1459.0,1460.0,23.1888083,23.64195147,22.00385326,21.99321793,22.42329064,21.93493643,22.36386721,301.70426769999995,301.70426769999995,12.40204287,-0.000117295,-0.006716169,0.00375903,-0.0009882489999999999,0.0037698429999999997,-0.12536246199999998,2.0,-1.0,0.0,11,0,0,1.0,0.0,0.0,0,0,0,0,0,0.0,-0.044942009000000005,-0.413061237,-0.160113586,23.91537172,211.48705809999998,66.88096924,-0.004874188,-0.017432136,0.0,-0.002522536,1.4942870480000001,-0.025746832,-13.44804176,-9.91e+20,966.1304418999999,12.40308229,0.108310849,0.161749118,0.03255445,1.814669099,0.22409101899999997,-13.854298000000002,0.080627025,0.142547875,-0.036758213,-9.91e+20,4.961061153999999,4.949061617,0.40058687,5.480361232000001,13.25688827,22.6072925,-0.18700808800000002,-0.313278848,0.10999999,-89.42887284,399.7668925,12.40360261,96614.55999,1.147940816,-0.558042833,-0.09250173699999999,-1.909772037,0.124681808,0.186942639,0.07949342599999999,0.0,-0.032957009,1.611618,0.692432981,0.011886895,-0.011411293000000001,0.7212923520000001,1.0,398714129.2,327366760.7,400204.6875,23.25222444,-0.387757552,23.246011199999998,-0.379889971,1.5874443059999999,0,0,0.0,39.8714138,32.7364372,-0.268100662,24.7443418,-0.087918299,-0.93095923,23.49558773,-0.847449125,-2.283825445,0.927252339,-3.485627066,1.620152779,0.17168002100000002,-0.238452948,-0.141493972,-0.0045091770000000005,1.0,13639883,1,0,0,0,0
13683766,-0.080395686,-0.07765797099999999,-0.008126344,1.0,0.0,1495.657932,1500.0,2000.0,1539.342068,1459.657932,1462.0,23.16234877,23.61525754,22.22955924,22.21816819,22.65266695,22.14392839,22.57697336,307.08205760000004,307.08205760000004,12.40187295,-0.000101268,-0.0067254490000000005,0.0037941890000000003,-0.002293022,0.0043896000000000004,-0.125278426,2.0,-1.0,0.0,11,0,0,1.0,0.0,0.0,0,0,0,0,0,0.0,-0.032328662,-0.429958949,-0.165253856,25.01733777,211.6978107,67.02396951,-0.005102451,-0.017950586,0.0,-0.002546945,1.34766192,-0.14489519,-13.10366788,-1.05e+21,966.1272301000001,12.40269375,0.092087457,0.15120107,-0.020733792,1.586223425,0.143829342,-13.69011373,0.070601912,0.132568193,-0.026536293,-1.05e+21,5.222088573,5.210089011,0.40058687,5.619799999,13.25704211,22.58235737,-0.186506311,-0.357756927,0.10999999,-90.33479343,399.74023950000003,12.40328285,96614.85546,1.1479442659999999,-0.509693494,-0.62018532,-1.635579464,0.103099897,0.175748706,0.013452945,0.0,-0.019859592,1.611618,0.69249288,0.007163141,-0.006876539,0.721354734,1.0,398714127.1,327366896.5,400228.9072,23.36857371,-0.515979196,23.35761152,-0.5556011160000001,1.5928318240000001,0,0,0.0,39.8714138,32.7364372,-0.302845065,25.92222335,-0.147100023,-1.0218001859999999,23.53479558,-1.0121286870000001,-2.111727063,0.734620335,-3.18957718,1.619197768,0.230263885,-0.242958659,-0.12917959199999998,-0.0045091770000000005,1.0,13683766,1,0,0,0,0
13731648,-0.079396644,-0.07463344200000001,-0.007181573,1.0,0.0,1496.0,1500.0,2000.0,1539.0,1460.0,1463.0,23.30946242,23.76516741,22.45526522,22.44311844,22.88204325,22.35292034,22.79007951,312.45984760000005,312.45984760000005,12.40170303,-8.52e-05,-0.006734729,0.0038293470000000003,-0.003597795,0.005009357,-0.12519438900000002,2.0,-1.0,0.0,11,0,0,1.0,0.0,0.0,0,0,0,0,0,0.0,-0.019715316,-0.446856662,-0.170394127,26.11930382,211.90856319999997,67.16696977,-0.005325769,-0.018420963000000002,0.0,-0.002579925,1.204140429,-0.258994419,-12.73731575,-1.05e+21,966.1252599,12.40229486,0.077038373,0.138311212,-0.046537135,1.4801791919999998,0.003485675,-13.38072979,0.061120880999999995,0.12362129699999999,-0.009918699,-1.05e+21,5.483115991,5.471116406,0.40058687,5.759238765,13.25719595,22.55742224,-0.18600453399999997,-0.40223500700000003,0.10999999,-91.24071403,399.8844633,12.40291326,96613.18288,1.1479244370000001,-0.016084549,-0.334416865,-0.9467067690000001,0.08962905300000001,0.161842494,-0.031967127000000005,0.0,-0.0067140540000000005,1.611618,0.692523153,0.0024217220000000003,-0.0023248270000000002,0.721386264,1.0,398714124.9,327367032.3,400253.1268,23.48492298,-0.64420084,23.46921184,-0.73131226,1.5982193409999998,0,0,0.0,39.8714138,32.7364372,-0.33947331700000005,27.11117869,-0.208571022,-1.112358847,23.57159905,-1.175174887,-1.9278617180000002,0.555744551,-2.8715789660000004,1.6179702919999999,0.291734891,-0.246505649,-0.127045363,-0.0045091770000000005,1.0,13731648,1,0,0,0,0
13779530,-0.07986882099999999,-0.071154812,-0.005393604000000001,1.0,0.0,1497.0,1500.0,2000.0,1540.0,1459.0,1465.0,23.28743322,23.74281916,22.68097119,22.6680687,23.11141955,22.561912300000003,23.00318566,317.8376375,317.8376375,12.40153312,-6.92e-05,-0.00674401,0.003864505,-0.0049025679999999995,0.005629114,-0.12511035199999998,2.0,-1.0,0.0,11,0,0,1.0,0.0,0.0,0,0,0,0,0,0.0,-0.0071019690000000005,-0.46375437399999997,-0.175534398,27.22126987,212.11931569999996,67.30997003,-0.005557721999999999,-0.018883587,0.0,-0.00266522,1.127612085,-0.310403041,-12.71860137,-1.05e+21,966.1122777999999,12.40172661,0.06899602,0.12711391800000002,-0.039712636,1.261173723,-0.186888721,-13.07318452,0.053151168,0.126564195,0.02724724,-1.05e+21,5.753158487,5.741158905,0.40058687,5.882286242999999,13.25737501,22.53746548,-0.185601817,-0.435572595,0.10999999,-92.13027697,399.95745889999995,12.40252033,96612.3328,1.1479143059999999,-0.077895254,0.160914669,-0.013071588,0.077245021,0.150778579,-0.055060946,0.0,0.006490136,1.611618,0.692523462,-0.0023409570000000003,0.002247294,0.721386567,1.0,398714122.6,327367168.0,400280.9122,23.59437085,-0.7705821159999999,23.57391078,-0.9061032179999999,1.603526556,0,0,0.0,39.8714138,32.7364372,-0.382962866,28.23030735,-0.278124494,-1.19158322,23.59334652,-1.310755559,-1.853240177,0.36618036200000004,-2.776799693,1.619023985,0.36128836,-0.250463864,-0.10453321800000001,-0.0045091770000000005,1.0,13779530,1,0,0,0,0
13827413,-0.08006062900000001,-0.067644864,-0.0041263179999999995,1.0,0.0,1498.0,1500.0,2000.0,1540.0,1459.0,1467.0,23.34639491,23.80287946,22.90667717,22.89301895,23.34079586,22.77090425,23.2162918,323.21542739999995,323.21542739999995,12.4013632,-5.3200000000000006e-05,-0.00675329,0.003899664,-0.00620734,0.006248871,-0.125026315,2.0,-1.0,0.0,11,0,0,1.0,0.0,0.0,0,0,0,0,0,0.0,0.005511377,-0.48065208600000003,-0.18067466899999998,28.32323592,212.3300682,67.4529703,-0.005764201,-0.019293905,0.0,-0.002819103,1.066053898,-0.347802943,-12.77756945,-1.05e+21,966.0968351,12.40112052,0.057904736,0.11462867199999999,-0.012708846000000001,1.248283936,-0.302346954,-12.77847207,0.04551917,0.132163964,0.069004873,-1.05e+21,6.037778972999999,6.02577944,0.40058687,5.978827894,13.25759488,22.52555907,-0.18535928399999999,-0.450895252,0.10999999,-92.99338846,399.9050985,12.40205839,96612.97026,1.1479219109999999,-0.09344663,-0.714519858,0.16000704400000001,0.068514952,0.13998896,-0.046869744000000005,0.0,0.019762578,1.611618,0.6924932840000001,-0.007128152,0.006842949,0.721355147,1.0,398714118.3,327367302.7,400341.9362,23.63948564,-0.879807962,23.61427686,-1.072316437,1.6080852159999999,0,0,0.0,39.8714138,32.7364372,-0.42798562700000004,29.33383268,-0.349484058,-1.268274854,23.61172961,-1.440198836,-1.8030300419999998,0.174227763,-2.731900488,1.620587424,0.43264792,-0.253881081,-0.09376871,-0.0045091770000000005,1.0,13827413,1,0,0,0,0
13871295,-0.079513661,-0.062925621,-0.004509268,1.0,0.0,1497.0,1500.0,2000.0,1540.0,1459.0,1469.0,23.42190254,23.88002917,23.13238315,23.11796921,23.57017216,22.97989621,23.42939795,328.59321739999996,328.59321739999996,12.40119328,-3.72e-05,-0.00676257,0.003934822,-0.007512113000000001,0.006868628000000001,-0.124942279,2.0,-1.0,0.0,11,0,0,1.0,0.0,0.0,0,0,0,0,0,0.0,0.018124724,-0.497549798,-0.18581493899999998,29.42520197,212.54082069999998,67.59597056,-0.005982574,-0.01970455,0.0,-0.003083072,0.981421228,-0.330380197,-12.91436536,-1.05e+21,966.0855224,12.40053699,0.052414337000000005,0.12331378300000001,0.019962821999999998,1.119593998,-0.343281755,-12.64723701,0.04210611,0.14051106800000002,0.090406203,-1.05e+21,6.32239946,6.310399974,0.40058687,6.075369545,13.25781475,22.51365266,-0.18511675100000002,-0.466217909,0.10999999,-93.85649996,400.0512828,12.40154836,96611.28719,1.1479019990000001,0.045164472000000004,0.25356374,0.687524763,0.060198340999999995,0.132354273,-0.01234059,0.0,0.033110207,1.611618,0.692432235,-0.011942148,0.011464335,0.721291549,1.0,398714114.0,327367437.3,400402.9602,23.68460042,-0.989033807,23.65464293,-1.2385296559999999,1.612643875,0,0,0.0,39.8714138,32.7364372,-0.484901742,30.50568203,-0.435519547,-1.355655106,23.6161389,-1.579134536,-1.867647857,0.013005424,-2.7732723519999998,1.62526878,0.5186834,-0.257588834,-0.072061565,-0.0045091770000000005,1.0,13871295,1,0,0,0,0
