timestamp,control[0],control[1],control[2],control[3],control[4]
10000000,0.029313337,0.01986617,-0.003865493,0.15,0
10004000,0.028130114,0.019827668,-0.003474856,0.15,0
10008000,0.028395586,0.019791171,-0.00331107,0.15,0
10012000,0.029439338,0.019784736,-0.003021386,0.15,0
10016000,0.029163543,0.019776616,-0.002928457,0.15,0
10020000,0.027654903,0.019799495,-0.00305187,0.15,0
10024000,0.026519537,0.019787325,-0.00319054,0.15,0
10028000,0.026194511,0.019681107,-0.00309188,0.15,0
10036000,0.02791167,0.019608445,-0.003234703,0.15,0
10040000,0.027969835,0.019525627,-0.003259463,0.15,0
10048000,0.027533995,0.019211119,-0.003139524,0.15,0
10052000,0.027560454,0.019327141,-0.002785993,0.15,0
10056000,0.027804326,0.019579295,-0.002580649,0.15,0
10060000,0.028181646,0.01984915,-0.002455117,0.15,0
10064000,0.028178005,0.020016948,-0.002460026,0.15,0
10068000,0.027281016,0.020124055,-0.002599427,0.15,0
10072000,0.02610198,0.020204518,-0.002880215,0.15,0
10076000,0.02589503,0.020222424,-0.003174286,0.15,0
10080000,0.026832031,0.020174416,-0.003179023,0.15,0
10084000,0.027713794,0.02000255,-0.002828701,0.15,0
10088000,0.027747585,0.019712457,-0.002402324,0.15,0
10092000,0.027252862,0.01943648,-0.002254544,0.15,0
10100000,0.026935536,0.019463586,-0.002520619,0.15,0
10104000,0.026323099,0.019823693,-0.002817644,0.15,0
10108000,0.026649652,0.019743137,-0.002813124,0.15,0
10112000,0.0277916,0.019601967,-0.002837659,0.15,0
10120000,0.028490974,0.019514244,-0.002309366,0.15,0
10124000,0.028263876,0.019633513,-0.002143011,0.15,0
10128000,0.028964864,0.019702427,-0.002351469,0.15,0
10132000,0.029975148,0.019693844,-0.002796312,0.15,0
10136000,0.029927488,0.019629654,-0.003128884,0.15,0
10140000,0.028929703,0.019675119,-0.003211255,0.15,0
10148000,0.027542511,0.01981064,-0.00296968,0.15,0
10156000,0.026877739,0.019737868,-0.003008096,0.15,0
10164000,0.02707701,0.019647349,-0.003058346,0.15,0
10168000,0.027580712,0.019318132,-0.003264394,0.15,0
10172000,0.027657187,0.019255761,-0.003310906,0.15,0
10176000,0.028706636,0.018497994,-0.004073391,0.15,0
10180000,0.029426627,0.018405214,-0.003859399,0.15,0
10184000,0.029819004,0.018577134,-0.003135352,0.15,0
10188000,0.02895467,0.018879995,-0.002617376,0.15,0
10192000,0.027391495,0.019125903,-0.002608784,0.15,0
10196000,0.025635244,0.019364558,-0.002357975,0.15,0
10200000,0.025278272,0.019552208,-0.002523519,0.15,0
10204000,0.02545536,0.019549245,-0.002628038,0.15,0
10208000,0.026253847,0.01959954,-0.002626637,0.15,0
10212000,0.027873643,0.019673768,-0.002348399,0.15,0
10216000,0.029259536,0.019765647,-0.001979723,0.15,0
10220000,0.02876715,0.019941187,-0.001946581,0.15,0
10224000,0.027476057,0.019996366,-0.002240973,0.15,0
10228000,0.02692132,0.01978233,-0.002496059,0.15,0
10232000,0.026940558,0.01948494,-0.002724594,0.15,0
10236000,0.027491534,0.01930463,-0.002820878,0.15,0
10240000,0.028130844,0.019170595,-0.002643972,0.15,0
10244000,0.0285968,0.019150889,-0.002314012,0.15,0
10252000,0.028710663,0.01913349,-0.002550558,0.15,0
10256000,0.027507506,0.018884942,-0.002743125,0.15,0
10260000,0.026624704,0.018919464,-0.002904376,0.15,0
10264000,0.02640078,0.019317247,-0.002850557,0.15,0
10268000,0.022697862,0.019645639,-0.000317492,0,0
10272000,0.02364522,0.01975444,0.000916443,0,0
10276000,0.0240308,0.019747932,0.001343643,0,0
10280000,0.023321085,0.019685883,0.000838595,0,0
10284000,0.022139521,0.019640751,0.000285347,0,0
10288000,0.021726089,0.019590216,0.000191706,0,0
10292000,0.022144435,0.019407442,-0.000213967,1,0
10296000,0.022104438,0.019276842,-0.00077926,1,0
10300000,0.022083202,0.019301368,-0.000765908,1,0
10304000,0.020657178,0.019619716,-0.000549435,1,0
10308000,0.020461591,0.019870788,-4.91E-05,1,0
10312000,0.020911658,0.019997548,-0.000115268,1,0
10316000,0.022146678,0.019861089,-0.000723904,1,0
10320000,0.023516547,0.01975707,-0.001097061,1,0
10324000,0.023716778,0.01985712,-0.000730403,1,0
10328000,0.023701072,0.019873431,-0.000651129,1,0
10332000,0.022270791,0.019953648,0.00029697,1,0
10336000,0.02317228,0.019817466,0.000120646,1,0
10340000,0.023185369,0.019783722,0.000126487,1,0
10344000,0.024206256,0.019306459,1.25E-05,1,0
10348000,0.023545701,0.019333383,0.000512036,1,0
10352000,0.022557165,0.019404221,0.000794348,1,0
10356000,0.021716416,0.019575093,-0.000119241,1,0
10364000,0.021098431,0.019896321,-0.002109927,1,0
10368000,0.021069346,0.0198078,-0.001698833,1,0
10376000,0.020718848,0.019165305,-0.001066174,1,0
10380000,0.020494238,0.01908107,-0.00062834,1,0
10384000,0.01995511,0.01917362,0.000240184,1,0
10388000,0.019869825,0.019216798,0.001036919,1,0
10392000,0.020994967,0.019185957,0.001212794,1,0
10400000,0.021868946,0.019487923,-0.000610969,1,0
10404000,0.021148192,0.01953406,-0.001352848,1,0
10408000,0.020846564,0.019408498,-0.000583221,1,0
10412000,0.020820221,0.019415764,-0.000484384,1,0
10416000,0.019720241,0.01937241,0.000883148,1,0
10420000,0.019420674,0.019387979,0.000192591,1,0
10424000,0.020408886,0.019553738,-0.000164026,1,0
10428000,0.021992655,0.019827845,2.56E-05,1,0
10432000,0.023065982,0.020037849,0.000629117,1,0
10436000,0.022495866,0.020049997,0.001082161,1,0
10440000,0.021627551,0.019736905,0.001896506,1,0
10444000,0.021066457,0.019336479,0.003540176,1,0
10448000,0.02041384,0.019178115,0.004787441,1,0
10452000,0.020519031,0.019253261,0.004745349,1,0
10460000,0.021120071,0.019514203,0.002927688,1,0
10468000,0.020509653,0.019679543,0.001226438,1,0
10472000,0.020776663,0.01973112,0.001595402,1,0
10476000,0.02188753,0.019571986,0.002092715,1,0
10480000,0.022320153,0.019317288,0.002480418,1,0
10484000,0.02166222,0.01938716,0.002691333,1,0
10488000,0.021120345,0.019742047,0.001709371,1,0
10492000,0.02107936,0.019897921,0.000665116,1,0
10496000,0.021690797,0.01977154,0.000315422,1,0
10500000,0.022838142,0.019645026,0.000519717,1,0
10504000,0.023658419,0.019584415,0.000692165,1,0
10508000,0.02365905,0.019519325,0.000453913,1,0
10512000,0.022485709,0.019440636,-0.000158389,1,0
10516000,0.020883746,0.01941356,-0.000129762,1,0
10520000,0.020363282,0.019484133,0.000391332,1,0
10524000,0.020381616,0.019436873,0.000322836,1,0
10532000,0.022377508,0.019082954,0.000182034,1,0
10536000,0.021762324,0.019198572,0.000253482,1,0
10540000,0.022191813,0.019233584,0.000419354,1,0
10548000,0.023697793,0.0195331,0.000813056,1,0
10552000,0.023486046,0.01935692,0.001011932,1,0
10556000,0.02348995,0.019340632,0.001135165,1,0
10564000,0.022908863,0.019091547,0.001896739,1,0
10568000,0.022905301,0.019239537,0.001652006,1,0
10572000,0.022918109,0.019189714,0.001730079,1,0
10576000,0.023077725,0.018939756,0.001560224,1,0
10580000,0.023543306,0.018893853,0.001368184,1,0
10584000,0.024669874,0.01896736,0.001223981,1,0
10588000,0.025736442,0.019026628,0.001353636,1,0
10596000,0.025568478,0.01890744,0.001369234,1,0
10604000,0.019910092,0.016972236,0.000316219,1,0
10608000,0.020104235,0.017082969,3.07E-05,1,0
10612000,0.020034602,0.017312843,-3.99E-05,1,0
10616000,0.019921305,0.017513297,-6.58E-05,1,0
10620000,0.019991087,0.01753605,-0.000189749,1,0
10628000,0.019877871,0.017629482,-0.000233098,1,0
10632000,0.019410249,0.017561978,-0.000534163,1,0
10636000,0.019192055,0.017444544,-0.000954152,1,0
10640000,0.019344851,0.017320886,-0.001347685,1,0
10644000,0.018914327,0.017183252,-0.001763686,1,0
10648000,0.018283112,0.017229142,-0.002175091,1,0
10652000,0.018543864,0.01736472,-0.002816831,1,0
10656000,0.018978901,0.01733125,-0.003491817,1,0
10660000,0.019199183,0.017171383,-0.004327746,1,0
10664000,0.019995054,0.016981898,-0.004883016,1,0
10668000,0.020661913,0.016773304,-0.005484493,1,0
10672000,0.020441435,0.016629094,-0.006000871,1,0
10676000,0.020855723,0.016679162,-0.00685956,1,0
10680000,0.021920314,0.016861798,-0.007811629,1,0
10684000,0.022538092,0.016999474,-0.009101785,1,0
10688000,0.022616627,0.017076995,-0.010019086,1,0
10692000,0.02184515,0.01704541,-0.01116573,1,0
10696000,0.014772753,0.013230147,-0.012143944,1,0
10700000,0.014805078,0.01320317,-0.012814093,1,0
10704000,0.015659805,0.013100841,-0.014252829,1,0
10708000,0.01580957,0.013147271,-0.015298823,1,0
10712000,0.01534237,0.013252947,-0.016066626,1,0
10716000,0.014489128,0.013223738,-0.017004369,1,0
10720000,0.013372139,0.013078251,-0.017368343,1,0
10724000,0.012324296,-0.30157018,-0.018219545,1,0
10728000,0.011454245,-0.30191338,-0.01879085,1,0
10732000,0.010665496,-0.3020808,-0.01978588,1,0
10736000,0.009781431,-0.30202267,-0.020446364,1,0
10740000,0.00861157,-0.30188617,-0.021786604,1,0
10744000,0.00709181,-0.30172417,-0.022883896,1,0
10748000,0.005342744,-0.28647718,-0.024472905,1,0
10752000,0.003257442,-0.2859565,-0.025491657,1,0
10756000,0.00100055,-0.28541884,-0.026992435,1,0
10760000,-0.001261918,-0.28492856,-0.02803651,1,0
10764000,-0.004102259,-0.28446758,-0.029745193,1,0
10772000,-0.011302452,-0.2693299,-0.03263011,1,0
10776000,-0.014447637,-0.2687138,-0.03370376,1,0
10780000,-0.016754884,-0.26806158,-0.03515303,1,0
10788000,-0.01895055,-0.2673247,-0.03694241,1,0
10792000,-0.024221005,-0.2663987,-0.03784077,1,0
10796000,-0.017753953,-0.20274849,-0.039215654,1,0
10800000,-0.020411795,-0.20211346,-0.03986554,1,0
10804000,-0.020743491,-0.20183714,-0.04104092,1,0
10808000,-0.023112046,-0.20132852,-0.04169635,1,0
10812000,-0.0260187,-0.20077898,-0.043170646,1,0
10820000,-0.029138112,-0.19017336,-0.044807784,1,0
10828000,-0.032781668,-0.18971483,-0.046444423,1,0
10832000,-0.03422535,-0.1894295,-0.046766706,1,0
10836000,-0.03523309,-0.18914975,-0.047643587,1,0
10840000,-0.03615515,-0.18889326,-0.04782366,1,0
10844000,-0.03738255,-0.17924471,-0.048580512,1,0
10848000,-0.039050933,-0.17913665,-0.04867568,1,0
10852000,-0.041214816,-0.17900862,-0.049522907,1,0
10860000,-0.045193855,-0.17887123,-0.050520785,1,0
10864000,-0.04669724,-0.17884561,-0.05043748,1,0
10868000,-0.04827342,-0.1696776,-0.050848603,1,0
10872000,-0.04954307,-0.16942286,-0.050592586,1,0
10876000,-0.05027291,-0.16919763,-0.051002897,1,0
10880000,-0.051076833,-0.16911095,-0.05079713,1,0
10884000,-0.052342534,-0.16906358,-0.05102273,1,0
10888000,-0.053591955,-0.16901511,-0.050648727,1,0
10892000,-0.054631375,-0.16042653,-0.05085525,1,0
10896000,-0.045954347,-0.14427195,-0.05048734,1,0
10900000,-0.047260743,-0.14419556,-0.05053649,1,0
10904000,-0.04837867,-0.14412156,-0.049922183,1,0
10908000,-0.049251694,-0.1441189,-0.0496478,1,0
10912000,-0.05000625,-0.14418983,-0.04876833,1,0
10916000,-0.050776765,-0.13691543,-0.048508942,1,0
10920000,-0.051534675,-0.13709728,-0.047933236,1,0
10924000,-0.052270863,-0.13736741,-0.047584288,1,0
10928000,-0.05297169,-0.13758273,-0.04659346,1,0
10932000,-0.05356218,-0.13782728,-0.045914426,1,0
10936000,-0.05450667,-0.13811405,-0.044889465,1,0
10940000,-0.055915248,-0.1312985,-0.044268005,1,0
10948000,-0.058203008,-0.13178173,-0.04239037,1,0
10952000,-0.059033163,-0.13197757,-0.041337736,1,0
10956000,-0.059774864,-0.13217895,-0.040662915,1,0
10960000,-0.060354106,-0.13244495,-0.039567754,1,0
10964000,-0.060921676,-0.12575582,-0.03916962,1,0
10968000,-0.06138736,-0.12614772,-0.037329346,1,0
10972000,-0.06186897,-0.12631582,-0.036390923,1,0
10976000,-0.062646225,-0.12647873,-0.035113942,1,0
10980000,-0.06357791,-0.12661467,-0.03403443,1,0
10984000,-0.06443053,-0.12674093,-0.0327025,1,0
10988000,-0.065280624,-0.120316766,-0.031603325,1,0
10992000,-0.06604219,-0.120574564,-0.030345444,1,0
10996000,-0.059095543,-0.113016635,-0.02928476,1,0
11004000,-0.05991672,-0.113351636,-0.027243862,1,0
11012000,-0.060391534,-0.10763054,-0.024646603,1,0
11016000,-0.060532656,-0.107835285,-0.022767048,1,0
11020000,-0.060841825,-0.107947715,-0.021459606,1,0
11028000,-0.06161629,-0.108208574,-0.019021682,1,0
11032000,-0.06192215,-0.10840092,-0.017157685,1,0
11036000,-0.06262318,-0.10284276,-0.015673444,1,0
11040000,-0.06367656,-0.10302307,-0.014170338,1,0
11044000,-0.0646889,-0.103204496,-0.012917802,1,0
11048000,-0.06527651,-0.103434026,-0.011736131,1,0
11052000,-0.06571526,-0.103614695,-0.010571553,1,0
11056000,-0.06608227,-0.10369236,-0.009211511,1,0
11060000,-0.066169396,-0.098110296,-0.00779739,1,0
11064000,-0.06627906,-0.09821209,-0.006340006,1,0
11068000,-0.06667532,-0.09835147,-0.004917127,1,0
11076000,-0.06788635,-0.09861952,-0.002241746,1,0
11080000,-0.06839662,-0.09874871,-0.000985304,1,0
11084000,-0.06894594,-0.0933491,0.00025063,1,0
11088000,-0.06967441,-0.09343907,0.001483369,1,0
11092000,-0.07033278,-0.09352312,0.002772237,1,0
11096000,-0.0663247,-0.09023181,0.003997078,1,0
11100000,-0.066374965,-0.09025507,0.005202175,1,0
11104000,-0.066422574,-0.09026467,0.006308591,1,0
11108000,-0.06689947,-0.08522474,0.007457716,1,0
11112000,-0.06651439,-0.08523488,0.00839343,1,0
11116000,-0.06661473,-0.08531466,0.009403589,1,0
11124000,-0.067270964,-0.08553116,0.01153772,1,0
11128000,-0.06749734,-0.08561975,0.012468716,1,0
11132000,-0.06797168,-0.08065393,0.013489348,1,0
11136000,-0.06833541,-0.080719694,0.014422859,1,0
11140000,-0.06859283,-0.08076492,0.015480804,1,0
11144000,-0.06905739,-0.08079416,0.01642246,1,0
11148000,-0.0695835,-0.080859795,0.017336167,1,0
11152000,-0.06997464,-0.08094949,0.018058976,1,0
11156000,-0.070301846,-0.076143615,0.018852893,1,0
11160000,-0.07060012,-0.07633814,0.019589573,1,0
11164000,-0.07092203,-0.07655696,0.020409804,1,0
11172000,-0.07139716,-0.0767986,0.021909487,1,0
11176000,-0.071467355,-0.07697035,0.022528691,1,0
11180000,-0.07153942,-0.072304145,0.02314521,1,0
11184000,-0.07167773,-0.07240234,0.023627762,1,0
11188000,-0.071947925,-0.07250775,0.024214294,1,0
11192000,-0.0722241,-0.072678596,0.0246487,1,0
11196000,-0.07229882,-0.0728639,0.025130376,1,0
11200000,-0.07236107,-0.07303256,0.025469948,1,0
11204000,-0.07262192,-0.06840927,0.025866471,1,0
11208000,-0.07288732,-0.0685101,0.026127677,1,0
11212000,-0.07311881,-0.06868495,0.026443213,1,0
11220000,-0.07331824,-0.06922961,0.02691093,1,0
11224000,-0.07324235,-0.06953538,0.026996769,1,0
11228000,-0.07338923,-0.06519879,0.0271721,1,0
11232000,-0.07361637,-0.065494664,0.027236238,1,0
11236000,-0.073814586,-0.06576813,0.027323794,1,0
11240000,-0.074126415,-0.066052034,0.027328292,1,0
11244000,-0.074644975,-0.06630915,0.02740715,1,0
11248000,-0.07519247,-0.06659379,0.027312942,1,0
11252000,-0.07560058,-0.06237134,0.027219914,1,0
11256000,-0.075904764,-0.0628563,0.026935745,1,0
11260000,-0.075963914,-0.06329941,0.026690226,1,0
11264000,-0.07576549,-0.06362959,0.02639008,1,0
11268000,-0.07557532,-0.0639484,0.026194323,1,0
11272000,-0.07541889,-0.06425269,0.0259327,1,0
11276000,-0.07537021,-0.060007576,0.025731254,1,0
11280000,-0.07556633,-0.06036234,0.025425795,1,0
11284000,-0.07592664,-0.060707066,0.0251053,1,0
11288000,-0.07642519,-0.06103237,0.024573252,1,0
11292000,-0.076949395,-0.06139408,0.024049975,1,0
11296000,-0.07731585,-0.061823234,0.023566471,1,0
11300000,-0.07759382,-0.057841115,0.023247313,1,0
11304000,-0.07770946,-0.05839407,0.02283369,1,0
11308000,-0.077577874,-0.058924105,0.022364143,1,0
11312000,-0.07741389,-0.05943417,0.021769796,1,0
11316000,-0.07741631,-0.059922922,0.021241408,1,0
11324000,-0.07803238,-0.056295875,0.020344876,1,0
11328000,-0.07840046,-0.05691586,0.019350935,1,0
11332000,-0.07841287,-0.057560343,0.01876396,1,0
11336000,-0.07820225,-0.05823228,0.018224379,1,0
11340000,-0.07811346,-0.058834646,0.017673155,1,0
11344000,-0.07826455,-0.059376523,0.017010693,1,0
11348000,-0.078364566,-0.05552964,0.01638227,1,0
11352000,-0.07831737,-0.056068107,0.01577287,1,0
11356000,-0.07842277,-0.056609616,0.015207014,1,0
11360000,-0.07875531,-0.057189386,0.014601935,1,0
11364000,-0.07895528,-0.057765186,0.013945458,1,0
11368000,-0.07881734,-0.05835311,0.013197769,1,0
11372000,-0.07911715,-0.0545033,0.012652914,1,0
11380000,-0.07893066,-0.05588703,0.010981567,1,0
11384000,-0.07930893,-0.056485083,0.01029201,1,0
11388000,-0.079569615,-0.057067752,0.009618197,1,0
11392000,-0.07962499,-0.05766912,0.00889005,1,0
11396000,-0.07979273,-0.05398071,0.00821445,1,0
11400000,-0.080054924,-0.054625425,0.007592863,1,0
11404000,-0.08034095,-0.055161584,0.006969884,1,0
11408000,-0.07995075,-0.0558055,0.00628518,1,0
11412000,-0.0798749,-0.05643665,0.00557677,1,0
11416000,-0.07974584,-0.05710105,0.004843571,1,0
11420000,-0.07978001,-0.053445652,0.004100025,1,0
11424000,-0.079999685,-0.054033924,0.003377185,1,0
11428000,-0.080269806,-0.05459951,0.002720004,1,0
11432000,-0.08006978,-0.055225804,0.002046917,1,0
11436000,-0.080142535,-0.055870675,0.001416453,1,0
11440000,-0.0802546,-0.05651121,0.000827447,1,0
11444000,-0.08048755,-0.05283487,0.000257051,1,0
11448000,-0.08077447,-0.053384755,-0.000365746,1,0
11452000,-0.08091032,-0.053947672,-0.001031162,1,0
11456000,-0.08091766,-0.054573547,-0.001629385,1,0
11460000,-0.080893345,-0.055254553,-0.002183573,1,0
11464000,-0.08078298,-0.055924572,-0.002688048,1,0
11468000,-0.0806461,-0.05231533,-0.003110592,1,0
11472000,-0.080621205,-0.052909628,-0.003546042,1,0
11476000,-0.08064154,-0.053503968,-0.004059105,1,0
11480000,-0.0806355,-0.05414978,-0.004583397,1,0
11484000,-0.08073946,-0.054865707,-0.005163366,1,0
11488000,-0.08097163,-0.055607475,-0.005671729,1,0
11492000,-0.081193894,-0.052016117,-0.006100852,1,0
11496000,-0.08115541,-0.05252105,-0.006477111,1,0
11500000,-0.08088035,-0.05304717,-0.006804681,1,0
11504000,-0.08111733,-0.053650483,-0.007314156,1,0
11508000,-0.08113455,-0.054161362,-0.007468444,1,0
11512000,-0.08169867,-0.054722056,-0.007759837,1,0
11516000,-0.0820711,-0.051114123,-0.008139807,1,0
11520000,-0.08204234,-0.051739175,-0.008556198,1,0
11524000,-0.08163764,-0.052379616,-0.008940673,1,0
11528000,-0.081032254,-0.052977026,-0.009296431,1,0
11532000,-0.080644056,-0.0535198,-0.009688144,1,0
11536000,-0.08069312,-0.054055944,-0.010031845,1,0
11540000,-0.08084036,-0.050382547,-0.010288157,1,0
11548000,-0.08101128,-0.051506452,-0.010670539,1,0
11552000,-0.08091097,-0.05213235,-0.010915972,1,0
11556000,-0.080804,-0.05274758,-0.011079883,1,0
11560000,-0.080813624,-0.053341635,-0.011134204,1,0
11564000,-0.0809079,-0.04969115,-0.011216336,1,0
11568000,-0.0810749,-0.050113533,-0.011357009,1,0
11572000,-0.08122011,-0.050499585,-0.011508336,1,0
11576000,-0.0812226,-0.050901078,-0.011609529,1,0
11580000,-0.08097973,-0.051358398,-0.011732794,1,0
11588000,-0.08050339,-0.04824542,-0.012061462,1,0
11592000,-0.080435485,-0.048764497,-0.012134397,1,0
11596000,-0.080422916,-0.04926178,-0.012229471,1,0
11600000,-0.08054991,-0.04975832,-0.012310884,1,0
11604000,-0.080838665,-0.050209157,-0.01237609,1,0
11608000,-0.081099644,-0.050665878,-0.012417113,1,0
11612000,-0.08118601,-0.04702056,-0.012432596,1,0
11616000,-0.081263475,-0.047551256,-0.012401409,1,0
11620000,-0.08138936,-0.04807028,-0.01238481,1,0
11624000,-0.08162476,-0.048577037,-0.012382857,1,0
11628000,-0.08177976,-0.049066123,-0.012353318,1,0
11632000,-0.081562236,-0.049540777,-0.012310975,1,0
11636000,-0.08172532,-0.045890033,-0.012403898,1,0
11640000,-0.08154195,-0.0462474,-0.012354578,1,0
11644000,-0.081858866,-0.046723217,-0.012416685,1,0
11648000,-0.08198876,-0.047219977,-0.012404467,1,0
11652000,-0.081711054,-0.04766666,-0.01239112,1,0
11656000,-0.08129058,-0.04806374,-0.012406472,1,0
11660000,-0.08105662,-0.044315133,-0.012368677,1,0
11664000,-0.08093961,-0.044718526,-0.012294333,1,0
11668000,-0.080881916,-0.04509936,-0.012270148,1,0
11672000,-0.080856614,-0.045476057,-0.012317266,1,0
11676000,-0.08088453,-0.045922656,-0.012395501,1,0
11680000,-0.08091438,-0.046455555,-0.012412642,1,0
11684000,-0.08081232,-0.04282283,-0.01240604,1,0
11688000,-0.08077258,-0.043277174,-0.012363897,1,0
11692000,-0.080911726,-0.04371579,-0.012319204,1,0
11696000,-0.08103802,-0.04415567,-0.012355704,1,0
11700000,-0.081113055,-0.044581123,-0.012460833,1,0
11708000,-0.081788786,-0.04135072,-0.01260736,1,0
11712000,-0.08201758,-0.04178056,-0.012630838,1,0
11716000,-0.08201547,-0.042143133,-0.012611116,1,0
11720000,-0.08192279,-0.04250485,-0.012619233,1,0
11724000,-0.08172656,-0.042941593,-0.012696881,1,0
11728000,-0.081426196,-0.04342779,-0.012810998,1,0
11732000,-0.08154692,-0.039704107,-0.012867261,1,0
11736000,-0.081320375,-0.040062115,-0.012995238,1,0
11740000,-0.0814875,-0.040371746,-0.01300752,1,0
11744000,-0.08151339,-0.040725693,-0.01306231,1,0
11748000,-0.08151033,-0.041191574,-0.013190793,1,0
11752000,-0.08159932,-0.0416969,-0.013281846,1,0
11756000,-0.08160408,-0.03797907,-0.013286292,1,0
11760000,-0.08139201,-0.03836619,-0.013252674,1,0
11768000,-0.080700524,-0.039086897,-0.013411373,1,0
11772000,-0.080734335,-0.039471887,-0.013631264,1,0
11776000,-0.08119522,-0.03987333,-0.01382189,1,0
11780000,-0.081730835,-0.036175754,-0.013995864,1,0
11784000,-0.08204631,-0.036659975,-0.014149394,1,0
11788000,-0.08207761,-0.03711371,-0.01427299,1,0
11796000,-0.08182332,-0.03794217,-0.014672596,1,0
11800000,-0.08183038,-0.03833887,-0.014966631,1,0
11804000,-0.08198895,-0.03453735,-0.015245656,1,0
11808000,-0.08208073,-0.034898102,-0.015471939,1,0
11812000,-0.082179286,-0.035317596,-0.015629746,1,0
11816000,-0.08184749,-0.035757124,-0.015896302,1,0
11820000,-0.0819568,-0.03614821,-0.016103292,1,0
11824000,-0.08216497,-0.036528803,-0.01662536,1,0
11832000,-0.08216039,-0.03321934,-0.01720143,1,0
11836000,-0.08202393,-0.033687945,-0.017382095,1,0
11844000,-0.082353786,-0.03451162,-0.017848982,1,0
11848000,-0.08266485,-0.034762856,-0.018203905,1,0
11852000,-0.082741395,-0.030883051,-0.018552579,1,0
11860000,-0.082709976,-0.031788856,-0.01917022,1,0
11864000,-0.08270708,-0.032266047,-0.019537803,1,0
11868000,-0.08252852,-0.032683276,-0.019953229,1,0
11872000,-0.08226998,-0.033119988,-0.020419529,1,0
11876000,-0.08233664,-0.029394936,-0.020849824,1,0
11880000,-0.082579345,-0.029872002,-0.021162333,1,0
11884000,-0.08266168,-0.030290112,-0.021375868,1,0
11888000,-0.08271827,-0.030663721,-0.021577608,1,0
11892000,-0.08269732,-0.031036839,-0.02191044,1,0
11896000,-0.082559966,-0.03140655,-0.022390578,1,0
11900000,-0.08253943,-0.027599018,-0.022872943,1,0
11908000,-0.082886584,-0.028425306,-0.023629852,1,0
11912000,-0.083175614,-0.028882556,-0.023984313,1,0
11916000,-0.08330244,-0.029371575,-0.024353802,1,0
11920000,-0.0832566,-0.029818717,-0.024734471,1,0
11928000,-0.082758024,-0.026322788,-0.02552016,1,0
11932000,-0.0828393,-0.026752103,-0.025994234,1,0
11936000,-0.08324058,-0.027219938,-0.026439691,1,0
11940000,-0.08333548,-0.027631268,-0.026806504,1,0
11944000,-0.08360826,-0.028106553,-0.027240988,1,0
11952000,-0.08415759,-0.024778184,-0.028307166,1,0
11956000,-0.08424561,-0.025244053,-0.028728846,1,0
11964000,-0.08442306,-0.026087295,-0.02948647,1,0
11968000,-0.084464096,-0.02645352,-0.029869804,1,0
11972000,-0.08456113,-0.022619829,-0.030269958,1,0
11976000,-0.084327,-0.02308073,-0.030596683,1,0
11980000,-0.08450591,-0.023535192,-0.030884456,1,0
11984000,-0.08448074,-0.023980428,-0.031269155,1,0
11988000,-0.08417533,-0.024423232,-0.031727254,1,0
11992000,-0.08389413,-0.02484734,-0.032231025,1,0
11996000,-0.08375333,-0.020962544,-0.032742824,1,0
12000000,-0.08373397,-0.021335207,-0.033145107,1,0
12004000,-0.08382293,-0.021696951,-0.033478137,1,0
12008000,-0.08388497,-0.022071468,-0.03387862,1,0
12012000,-0.0839095,-0.022480112,-0.034318775,1,0
12020000,-0.08425404,-0.018986162,-0.035101645,1,0
12028000,-0.08478753,-0.019851351,-0.035840195,1,0
12032000,-0.08499693,-0.02035163,-0.036206,1,0
12036000,-0.084998555,-0.020840213,-0.036589094,1,0
12040000,-0.08495134,-0.021341003,-0.036963597,1,0
12044000,-0.08503697,-0.017483655,-0.037343696,1,0
12052000,-0.08469662,-0.018428776,-0.037986048,1,0
12056000,-0.084655955,-0.018828724,-0.038366497,1,0
12060000,-0.08446461,-0.019256385,-0.038761854,1,0
12068000,-0.08429259,-0.01590798,-0.03962254,1,0
12072000,-0.08437044,-0.016333701,-0.040017717,1,0
12076000,-0.084511854,-0.016683586,-0.04034639,1,0
12080000,-0.08473861,-0.017074874,-0.040659085,1,0
12084000,-0.08487482,-0.017552126,-0.040929683,1,0
12092000,-0.08448089,-0.014233314,-0.04146591,1,0
12096000,-0.08452056,-0.014731944,-0.041749,1,0
12100000,-0.08466247,-0.015185227,-0.042114362,1,0
12108000,-0.08507413,-0.015964618,-0.042942487,1,0
12116000,-0.08563931,-0.012493424,-0.04344231,1,0
12120000,-0.08568703,-0.012953689,-0.043741286,1,0
12124000,-0.085566975,-0.013372341,-0.044137627,1,0
12128000,-0.08569066,-0.013764067,-0.04453794,1,0
12132000,-0.085797295,-0.014161245,-0.04481894,1,0
12136000,-0.08572972,-0.014556862,-0.04502988,1,0
12140000,-0.08569042,-0.010623447,-0.045282133,1,0
12144000,-0.08570824,-0.011106107,-0.045651414,1,0
12148000,-0.08579804,-0.011556311,-0.046021946,1,0
12152000,-0.08581562,-0.011971272,-0.04633554,1,0
12156000,-0.08561969,-0.012359208,-0.046371378,1,0
12160000,-0.08529558,-0.01274203,-0.046231356,1,0
12164000,-0.085053295,-0.00881501,-0.04611937,1,0
12168000,-0.08497511,-0.009269578,-0.046113558,1,0
12172000,-0.085037775,-0.009670211,-0.046138667,1,0
12176000,-0.085251294,-0.010084341,-0.046156865,1,0
12180000,-0.08556859,-0.010540693,-0.04614538,1,0
12184000,-0.0858414,-0.011005499,-0.04617007,1,0
12188000,-0.08590801,-0.007059992,-0.04617393,1,0
12192000,-0.08578878,-0.007565472,-0.04603488,1,0
12196000,-0.08575352,-0.007989156,-0.04598274,1,0
12204000,-0.08592292,-0.008822784,-0.04596374,1,0
12212000,-0.08622408,-0.005246849,-0.046029337,1,0
12220000,-0.086230196,-0.0060675,-0.04607671,1,0
12224000,-0.08614607,-0.006497219,-0.045992766,1,0
12228000,-0.08621577,-0.006938392,-0.04590618,1,0
12232000,-0.08617429,-0.007409355,-0.045853354,1,0
12236000,-0.085937105,-0.003442774,-0.04584714,1,0
12240000,-0.08574946,-0.003847681,-0.045937397,1,0
12244000,-0.08564911,-0.004254988,-0.04598872,1,0
12248000,-0.08549594,-0.004673659,-0.046026915,1,0
12252000,-0.08534944,-0.005084232,-0.04603398,1,0
12256000,-0.08549062,-0.005528292,-0.045996632,1,0
12260000,-0.08555086,-0.001522869,-0.04600044,1,0
12264000,-0.08617893,-0.001977393,-0.045833375,1,0
12268000,-0.086508274,-0.002367611,-0.045834094,1,0
12272000,-0.08654036,-0.002741339,-0.045938972,1,0
12276000,-0.08634046,-0.003152759,-0.046069097,1,0
12284000,-0.08632435,0.000452993,-0.046176042,1,0
12288000,-0.08648019,0.000100031,-0.046065018,1,0
12292000,-0.08660689,-0.000248285,-0.046027645,1,0
12296000,-0.0864176,-0.00057264,-0.046123397,1,0
12300000,-0.08646891,-0.000976937,-0.04612722,1,0
12304000,-0.08605766,-0.001361346,-0.046164967,1,0
12308000,-0.0862204,0.002626944,-0.04609388,1,0
12312000,-0.08627169,0.002169011,-0.046065792,1,0
12316000,-0.08615528,0.001805665,-0.046051987,1,0
12320000,-0.086252734,0.001468387,-0.046119153,1,0
12324000,-0.086314775,0.001053443,-0.04612297,1,0
12332000,-0.08684124,0.004685221,-0.04627971,1,0
12340000,-0.0866916,0.003855323,-0.04624655,1,0
12344000,-0.08609143,0.003365958,-0.046115953,1,0
12348000,-0.08614615,0.002970289,-0.04611976,1,0
12352000,-0.086046614,0.002610546,-0.046224263,1,0
12356000,-0.08610101,0.006709496,-0.046339035,1,0
12360000,-0.08608514,0.006321617,-0.046427235,1,0
12364000,-0.085955456,0.005964685,-0.04643652,1,0
12368000,-0.085933566,0.005568419,-0.04647454,1,0
12372000,-0.08620472,0.005109076,-0.046512216,1,0
12380000,-0.08674818,0.008764302,-0.046633422,1,0
12384000,-0.0867399,0.008447045,-0.046683572,1,0
12388000,-0.08675667,0.008140661,-0.046672866,1,0
12392000,-0.086964116,0.007810997,-0.046686277,1,0
12396000,-0.08719614,0.0074683,-0.0467434,1,0
12400000,-0.087316334,0.007095318,-0.04687103,1,0
12404000,-0.08731538,0.011217931,-0.046942327,1,0
12408000,-0.08704822,0.010773458,-0.046985403,1,0
12412000,-0.08669415,0.010289881,-0.047011234,1,0
12416000,-0.086665496,0.009788049,-0.047056295,1,0
12420000,-0.08681992,0.009336071,-0.047037654,1,0
12424000,-0.08686495,0.008927411,-0.04699138,1,0
12428000,-0.08688642,0.013102446,-0.046875738,1,0
12432000,-0.086934306,0.012806615,-0.04684962,1,0
12436000,-0.08694893,0.012491457,-0.04690876,1,0
12440000,-0.086933196,0.012057044,-0.047040805,1,0
12444000,-0.08705481,0.011581456,-0.047166884,1,0
12448000,-0.08738904,0.011127561,-0.047292117,1,0
12452000,-0.08761039,0.015252486,-0.04734226,1,0
12460000,-0.08711811,0.014494358,-0.047320753,1,0
12464000,-0.08717527,0.014110558,-0.047349244,1,0
12468000,-0.087309845,0.013861075,-0.047349595,1,0
12472000,-0.08759564,0.013470236,-0.047373123,1,0
12476000,-0.08795508,0.01756998,-0.04736165,1,0
12480000,-0.08823137,0.017100105,-0.047403615,1,0
12484000,-0.08840062,0.016697759,-0.04742392,1,0
12488000,-0.08857428,0.016294962,-0.047445722,1,0
12492000,-0.08853982,0.015875628,-0.047491692,1,0
12500000,-0.08804368,0.019593446,-0.047745556,1,0
12504000,-0.08810432,0.019152215,-0.04776801,1,0
12508000,-0.088159524,0.018791737,-0.047720894,1,0
12512000,-0.088008456,0.01846053,-0.047670666,1,0
12516000,-0.087831594,0.018074164,-0.047623713,1,0
12524000,-0.08770986,0.021723155,-0.047725968,1,0
12528000,-0.08782335,0.021281656,-0.047873408,1,0
12532000,-0.08805338,0.020933002,-0.04793158,1,0
12540000,-0.08813298,0.02010642,-0.04786341,1,0
12544000,-0.08813019,0.01962564,-0.04789969,1,0
12548000,-0.08813325,0.023810051,-0.04791635,1,0
12552000,-0.08843503,0.02343037,-0.047912925,1,0
12556000,-0.08888847,0.023049224,-0.04784839,1,0
12564000,-0.08918404,0.022258641,-0.047846965,1,0
12568000,-0.08881494,0.021878887,-0.047988802,1,0
12572000,-0.08862254,0.026085125,-0.04798331,1,0
12576000,-0.08856553,0.025687579,-0.047940068,1,0
12580000,-0.0886151,0.025302926,-0.047902122,1,0
12584000,-0.088793054,0.024895573,-0.047920823,1,0
12588000,-0.08890602,0.024453714,-0.04793832,1,0
12592000,-0.08878374,0.024024034,-0.047992934,1,0
12600000,-0.088733934,0.027865542,-0.047992527,1,0
12604000,-0.08878115,0.02743236,-0.047966186,1,0
12608000,-0.088751376,0.026997179,-0.04800172,1,0
12612000,-0.08879646,0.026539933,-0.048065998,1,0
12616000,-0.08881956,0.026082678,-0.048158765,1,0
12620000,-0.08876335,0.030282445,-0.048157707,1,0
12624000,-0.08865538,0.029834177,-0.048149414,1,0
12628000,-0.08873591,0.029421434,-0.048139364,1,0
12632000,-0.08888437,0.028988363,-0.04815029,1,0
12640000,-0.088762134,0.027987216,-0.04802437,1,0
12644000,-0.088780224,0.03225466,-0.047998395,1,0
12648000,-0.08891781,0.031914134,-0.048058156,1,0
12652000,-0.08907719,0.031539686,-0.04813176,1,0
12656000,-0.08897427,0.031063648,-0.048214503,1,0
12660000,-0.08866636,0.030548165,-0.048224542,1,0
12664000,-0.08846332,0.030099774,-0.04827746,1,0
12668000,-0.088511996,0.034358546,-0.048281617,1,0
12672000,-0.08876577,0.034006737,-0.04837046,1,0
12676000,-0.08890042,0.03358715,-0.048320424,1,0
12680000,-0.08894982,0.033168353,-0.04828687,1,0
12684000,-0.08917997,0.03278157,-0.048279822,1,0
12688000,-0.08947438,0.032391943,-0.04834079,1,0
12692000,-0.089518934,0.036627825,-0.04834123,1,0
12696000,-0.08933969,0.036122106,-0.04837785,1,0
12700000,-0.08912866,0.035605483,-0.048383348,1,0
12704000,-0.08905687,0.035096385,-0.048422243,1,0
12708000,-0.08919326,0.03466601,-0.04843636,1,0
12712000,-0.08939156,0.034326617,-0.048462566,1,0
12716000,-0.08957617,0.03867812,-0.048434094,1,0
12720000,-0.08972951,0.038269706,-0.04843325,1,0
12724000,-0.08977453,0.0378459,-0.048437424,1,0
12728000,-0.08977469,0.037443917,-0.04833754,1,0
12736000,-0.08992156,0.036594182,-0.048259966,1,0
12740000,-0.0901832,0.04081432,-0.048263397,1,0
12744000,-0.09007281,0.040342525,-0.048323646,1,0
12748000,-0.08970731,0.039941713,-0.048351366,1,0
12752000,-0.08959711,0.039525226,-0.04838245,1,0
12756000,-0.08987742,0.039034657,-0.04834246,1,0
12760000,-0.090147495,0.03852947,-0.048318543,1,0
12768000,-0.09028309,0.042282008,-0.048202857,1,0
12772000,-0.09010354,0.041893728,-0.048150618,1,0
12776000,-0.089909725,0.041498534,-0.048168797,1,0
12780000,-0.08980251,0.041024514,-0.048195556,1,0
12784000,-0.08980861,0.04054405,-0.04827124,1,0
12788000,-0.08998607,0.04485266,-0.048308946,1,0
12796000,-0.090656504,0.044049438,-0.048449896,1,0
12800000,-0.09071903,0.043590352,-0.048553817,1,0
12804000,-0.09059751,0.04311022,-0.048597943,1,0
12808000,-0.09045336,0.04264376,-0.04865828,1,0
12812000,-0.090517394,0.04697664,-0.048699036,1,0
12816000,-0.09073857,0.046616912,-0.048749253,1,0
12819999,-0.09076036,0.04618247,-0.04868146,1,0
12824000,-0.0905751,0.045693062,-0.04865942,1,0
12828000,-0.09047354,0.045242343,-0.048664015,1,0
12831999,-0.09052174,0.044788845,-0.048695408,1,0
12836000,-0.09055932,0.04670372,-0.04868743,1,0
12844000,-0.09055858,0.045780603,-0.04877297,1,0
12848000,-0.09058984,0.0453669,-0.048884176,1,0
12851999,-0.090423845,0.04500651,-0.04886209,1,0
12856000,-0.09015289,0.044663303,-0.04877509,1,0
12860000,-0.09006922,0.04433003,-0.048684612,1,0
12868000,-0.09001609,0.04360105,-0.04867924,1,0
12876000,-0.089921944,0.042557754,-0.048849296,1,0
12880000,-0.08992748,0.04207109,-0.048935708,1,0
12883999,-0.090111375,0.04176084,-0.04891227,1,0
12888000,-0.090391286,0.041518964,-0.048888348,1,0
12892000,-0.09072826,0.041226503,-0.048864245,1,0
12895999,-0.09094909,0.040868785,-0.04888665,1,0
12900000,-0.09112089,0.04049808,-0.048868738,1,0
12904000,-0.09128753,0.040127166,-0.04893155,1,0
12908000,-0.091258354,0.039712366,-0.048936583,1,0
12912000,-0.09112272,0.039293263,-0.04895211,1,0
12915999,-0.09115671,0.038890332,-0.048927,1,0
12920000,-0.09146954,0.038519852,-0.048962865,1,0
12924000,-0.09174078,0.038229104,-0.049027063,1,0
12927999,-0.0917517,0.03799101,-0.04911714,1,0
12932000,-0.09179249,0.03762335,-0.04912138,1,0
12936000,-0.09140979,0.037400503,-0.04919422,1,0
12940000,-0.09091626,0.03703495,-0.049302593,1,0
12944000,-0.09061591,0.036636602,-0.04940381,1,0
12947999,-0.09048016,0.03625464,-0.04944811,1,0
12952000,-0.09032222,0.03593049,-0.049548756,1,0
12956000,-0.0902854,0.035617545,-0.04956203,1,0
12959999,-0.09036888,0.03536234,-0.04957228,1,0
12964000,-0.09050745,0.03517618,-0.04957076,1,0
12968000,-0.090892985,0.034994707,-0.049603745,1,0
12972000,-0.09149356,0.03481511,-0.049565405,1,0
12976000,-0.09187342,0.034605436,-0.049566135,1,0
12979999,0.07229899,0.040596053,0.008208569,1,0
12984000,0.07262526,0.04040081,0.008309815,1,0
12988000,0.07289467,0.040172152,0.008401372,1,0
12991999,0.07256151,0.039876893,0.008417835,1,0
12996000,0.0707002,0.03957018,0.008443868,1,0
13000000,0.06729926,0.039222404,0.008478281,1,0
13004000,0.063003704,0.038916856,0.008522902,1,0
13008000,0.058212005,0.038781866,0.008571092,1,0
13011999,0.053329173,0.038721584,0.008617528,1,0
13016000,0.04859899,0.038624115,0.008623187,1,0
13020000,0.0481396,0.038427223,0.008703144,1,0
13023999,0.039625302,0.03833947,0.008746306,1,0
13028000,0.03576769,0.038145036,0.00884185,1,0
13032000,0.032276627,0.037952483,0.008879411,1,0
13036000,0.028837923,0.037736557,0.00890718,1,0
13040000,0.025373846,0.037557587,0.008954028,1,0
13043999,0.02469119,0.037404407,0.009055542,1,0
13052000,0.01870042,0.037183054,0.009177573,1,0
13055999,0.01387105,0.037005883,0.009219749,1,0
13060000,0.010950199,0.036862656,0.009281285,1,0
13064000,0.008162068,0.036724128,0.009308239,1,0
13068000,0.005523159,0.036595725,0.009337125,1,0
13072000,0.002839016,0.036493875,0.009371109,1,0
13075999,0.000308561,0.036367055,0.00939581,1,0
13080000,-0.00158723,0.036230344,0.009426626,1,0
13084000,-0.002985872,0.036148883,0.009476179,1,0
13087999,-0.004521971,0.036103785,0.009549717,1,0
13092000,-0.006384913,0.036019724,0.009648357,1,0
13100000,-0.01029474,0.0358731,0.009972346,1,0
13104000,-0.011990051,0.035741404,0.01008783,1,0
13107999,-0.01375583,0.03558088,0.010216059,1,0
13112000,-0.015583349,0.03546053,0.010310817,1,0
13116000,-0.017206017,0.035414774,0.01032834,1,0
13124000,-0.019693654,0.0354327,0.010369363,1,0
13128000,-0.020897055,0.035462014,0.010497761,1,0
13132000,-0.022116108,0.035504,0.010607804,1,0
13136000,-0.02325495,0.035503402,0.010677352,1,0
13139999,-0.024307203,0.035452552,0.010771973,1,0
13144000,-0.025500987,0.035412114,0.010937397,1,0
13148000,-0.026845612,0.035401247,0.01108091,1,0
13151999,-0.028122677,0.03535995,0.011152368,1,0
13156000,-0.029239781,0.035268962,0.011182349,1,0
13160000,-0.030241726,0.03517947,0.011217089,1,0
13164000,-0.031124067,0.035170242,0.011316489,1,0
13168000,-0.03190999,0.035219066,0.011466463,1,0
13171999,-0.03285203,0.035248823,0.011645877,1,0
13180000,-0.03491896,0.0352569,0.01194239,1,0
13188000,-0.036125086,0.035259098,0.012132822,1,0
13192000,-0.036657862,0.035206165,0.012175383,1,0
13196000,-0.037309192,0.0351677,0.012264954,1,0
13200000,-0.03807599,0.03513627,0.012389487,1,0
13203999,-0.03870794,0.03512359,0.012504249,1,0
13208000,-0.03923548,0.035126027,0.012578446,1,0
13215999,-0.04057409,0.035039127,0.012723405,1,0
13220000,-0.04127313,0.0350743,0.012831707,1,0
13224000,-0.04204607,0.035145953,0.012956206,1,0
13228000,-0.04281959,0.035119656,0.013117139,1,0
13232000,-0.04352592,0.03500875,0.013271775,1,0
13235999,-0.04420718,0.034944147,0.013411688,1,0
13240000,-0.0448339,0.03495776,0.013542129,1,0
13244000,-0.04543976,0.034938395,0.013652472,1,0
13247999,-0.046056017,0.034840506,0.013750543,1,0
13252000,-0.04653271,0.03474262,0.013855146,1,0
13260000,-0.04765569,0.034797326,0.014058691,1,0
13264000,-0.04826451,0.034884606,0.014140637,1,0
13267999,-0.048954524,0.035016254,0.01424299,1,0
13272000,-0.04967844,0.035102524,0.014348279,1,0
13276000,-0.050616704,0.035102807,0.014480132,1,0
13280000,-0.050871123,0.03503033,0.014757469,1,0
13284000,-0.05178812,0.03505731,0.014883503,1,0
13288000,-0.05162634,0.035120223,0.01508262,1,0
13292000,-0.05254123,0.0351457,0.015210463,1,0
13296000,-0.052647606,0.035251357,0.015321869,1,0
13299999,-0.05290444,0.03531103,0.015464396,1,0
13304000,-0.05309557,0.03531658,0.015599642,1,0
13308000,-0.053316478,0.035291076,0.015689254,1,0
13312000,-0.053642515,0.035261385,0.015779361,1,0
13316000,-0.05423124,0.03523635,0.01591101,1,0
13319999,-0.054935858,0.03527887,0.016070886,1,0
13324000,-0.055482663,0.03535959,0.016237805,1,0
13328000,-0.055966232,0.035355046,0.016408797,1,0
13331999,-0.05639039,0.035271764,0.0165927,1,0
13336000,-0.056624107,0.035225026,0.01677822,1,0
13340000,-0.05684886,0.03526497,0.016925432,1,0
13344000,-0.05736969,0.035343103,0.0170262,1,0
13348000,-0.058200676,0.03537079,0.01714988,1,0
13356000,-0.0594628,0.035473302,0.017362231,1,0
13363999,-0.059187073,0.035460036,0.0175503,1,0
13368000,-0.059554383,0.0354544,0.01769053,1,0
13372000,-0.06022592,0.035413556,0.017850328,1,0
13376000,-0.06085723,0.035354495,0.018015163,1,0
13380000,-0.06114484,0.03532932,0.018173736,1,0
13383999,-0.06108589,0.035375662,0.018301468,1,0
13388000,-0.061055303,0.035457395,0.018398367,1,0
13392000,-0.061375797,0.035527423,0.01847702,1,0
13395999,-0.061991256,0.035639815,0.018659241,1,0
13400000,-0.06257934,0.035671,0.01877545,1,0
13404000,-0.062916875,0.03571132,0.018902306,1,0
13408000,-0.062952526,0.035746366,0.019064086,1,0
13412000,-0.06305456,0.03576847,0.019206632,1,0
13415999,-0.06337442,0.035813987,0.019303182,1,0
13420000,-0.063578755,0.035912782,0.019407779,1,0
13427999,-0.06409503,0.036084365,0.019619443,1,0
13432000,-0.064533755,0.036096897,0.019759662,1,0
13436000,-0.06493816,0.036148004,0.019893145,1,0
13444000,-0.065643236,0.036352985,0.020163927,1,0
13452000,-0.0659965,0.03639756,0.02040807,1,0
13456000,-0.06642198,0.03638915,0.020507192,1,0
13459999,-0.06700724,0.036331937,0.020628441,1,0
13464000,-0.06747368,0.036203384,0.020607863,1,0
13468000,-0.067804575,0.036138177,0.020546455,1,0
13472000,-0.067939416,0.036049485,0.020533647,1,0
13476000,-0.06797269,0.03592132,0.020614507,1,0
13479999,-0.068147264,0.03581446,0.02068121,1,0
13484000,-0.068347424,0.035771057,0.020663923,1,0
13488000,-0.06847455,0.035752695,0.020594165,1,0
13491999,-0.06867735,0.03568867,0.020518837,1,0
13496000,-0.068961985,0.03563703,0.020468421,1,0
13500000,-0.06923489,0.035594992,0.02039646,1,0
13508000,-0.069832,0.03557684,0.0203938,1,0
13516000,-0.070080556,0.035699226,0.02034007,1,0
13520000,-0.07024489,0.035694804,0.020335,1,0
13523999,-0.07044468,0.035567045,0.020348638,1,0
13528000,-0.070755504,0.03543469,0.020336313,1,0
13532000,-0.07098068,0.03536357,0.020258166,1,0
13536000,-0.07149623,0.035327293,0.02024135,1,0
13540000,-0.071107574,0.03534229,0.020106629,1,0
13543999,-0.071381085,0.035304256,0.020056553,1,0
13548000,-0.071633704,0.035284586,0.020012438,1,0
13552000,-0.07178561,0.03526046,0.02000236,1,0
13555999,-0.07189219,0.035226043,0.019976104,1,0
13560000,-0.07217808,0.035194222,0.019901253,1,0
13564000,-0.072572075,0.03514927,0.019858176,1,0
13568000,-0.07280503,0.0351421,0.019872323,1,0
13572000,-0.07296967,0.03523009,0.01988038,1,0
13575999,-0.07322615,0.035344176,0.019871365,1,0
13580000,-0.07356991,0.0353819,0.019842014,1,0
13584000,-0.07393024,0.03533387,0.01977914,1,0
13588000,-0.07422009,0.035290428,0.019741407,1,0
13592000,-0.07433679,0.035314187,0.019751057,1,0
13596000,-0.07433051,0.035411403,0.019833121,1,0
13600000,-0.07427525,0.035403088,0.019770429,1,0
13604000,-0.07438776,0.03540383,0.01966257,1,0
13608000,-0.0747931,0.035345465,0.01956268,1,0
13612000,-0.07535063,0.035241827,0.019545106,1,0
13620000,-0.0755624,0.035215244,0.019593319,1,0
13624000,-0.075343736,0.035271183,0.019574393,1,0
13628000,-0.075053126,0.035314724,0.019500293,1,0
13632000,-0.07514607,0.035346642,0.019408468,1,0
13636000,-0.0757575,0.03535799,0.019342253,1,0
13640000,-0.07639367,0.035333,0.01928747,1,0
13644000,-0.076781794,0.03533098,0.019224748,1,0
13648000,-0.07715845,0.03534954,0.019154891,1,0
13652000,-0.07760046,0.035354406,0.019128025,1,0
13656000,-0.07789101,0.035318956,0.018979903,1,0
13660000,-0.07810251,0.03532727,0.018895883,1,0
13664000,-0.07821818,0.035348833,0.018819036,1,0
13668000,-0.07795543,0.035384856,0.018770296,1,0
13672000,-0.07759562,0.035462953,0.018739749,1,0
13676000,-0.07764474,0.035546005,0.018715378,1,0
13680000,-0.0779549,0.035582937,0.018707331,1,0
13684000,-0.07836337,0.03559272,0.018679285,1,0
13688000,-0.07861578,0.035511874,0.01865616,1,0
13692000,-0.078945756,0.035531618,0.018598262,1,0
13700000,-0.07973801,0.03564221,0.018540673,1,0
13708000,-0.07992246,0.035602253,0.018412441,1,0
13712000,-0.07999977,0.03563055,0.01830493,1,0
13716000,-0.08005515,0.03569109,0.01821748,1,0
13724000,-0.08041257,0.035967715,0.018205138,1,0
13728000,-0.0806019,0.036045164,0.018198188,1,0
13732000,-0.08070061,0.03605403,0.01819688,1,0
13740000,-0.08071424,0.03609649,0.018141553,1,0
13744000,-0.080895215,0.03607449,0.018109396,1,0
13748000,0.0858752,0.03841708,0.02654551,0.40978044,0
13752000,0.08552631,0.03847184,0.026561659,0.40978044,0
13756000,0.0852523,0.038514085,0.026632044,0.40978044,0
13764000,0.08419588,0.038724683,0.02680441,0.40978044,0
13768000,0.07981086,0.03884717,0.026846219,0.40978044,0
13772000,0.07588967,0.034704536,0.028313437,0.4334424,0
13776000,0.07170574,0.034773923,0.028291821,0.4334424,0
13780000,0.06779042,0.034798123,0.028325606,0.4334424,0
13784000,0.06423836,0.03491637,0.02839655,0.4334424,0
13788000,0.0609008,0.035117477,0.028452376,0.4334424,0
13796000,0.055824667,0.030944414,0.0299599,0.45594496,0
13800000,0.053544924,0.031173596,0.03020199,0.45594496,0
13804000,0.051321026,0.031272963,0.030164026,0.45594496,0
13808000,0.04926462,0.031418398,0.030174684,0.45594496,0
13812000,0.04755006,0.031509824,0.030247461,0.45594496,0
13816000,0.045911074,0.031613857,0.030347556,0.45594496,0
13820000,0.044187747,0.02755968,0.031978533,0.47784987,0
13824000,0.04249534,0.027727207,0.03204778,0.47784987,0
13828000,0.041027486,0.027795067,0.032069173,0.47784987,0
13832000,0.039879393,0.027821904,0.03204039,0.47784987,0
13836000,0.038841113,0.027909717,0.031996854,0.47784987,0
13840000,0.037715405,0.028075712,0.03199006,0.47784987,0
13844000,0.03649588,0.024070408,0.033607136,0.49853876,0
13848000,0.035148516,0.024216501,0.03367552,0.49853876,0
13852000,0.033696525,0.024352437,0.033722155,0.49853876,0
13856000,0.03243383,0.02452401,0.033784647,0.49853876,0
13860000,0.031425826,0.024710355,0.03388565,0.49853876,0
13868000,0.029456899,0.0210417,0.03571801,0.5180035,0
13872000,0.028387938,0.021164209,0.035582975,0.5180035,0
13876000,0.027332965,0.021390794,0.035660785,0.5180035,0
13880000,0.026247691,0.021711085,0.0357756,0.5180035,0
13884000,0.025287306,0.022021282,0.03593041,0.5180035,0
13888000,0.024362702,0.022384193,0.035964534,0.5180035,0
13892000,0.023561258,0.018521175,0.037742585,0.53619504,0
13896000,0.02238963,0.01946755,0.038515173,0.53619504,0
13900000,0.021373797,0.019767752,0.03859418,0.53619504,0
13904000,0.020200782,0.020100705,0.03865999,0.53619504,0
13908000,0.018977677,0.02047332,0.038779482,0.53619504,0
13912000,0.017908823,0.020874502,0.03889848,0.53619504,0
13916000,0.017233891,0.017210718,0.040652305,0.5541157,0
13920000,0.016766973,0.017679332,0.040761385,0.5541157,0
13924000,0.016118668,0.018089965,0.04091223,0.5541157,0
13932000,0.01447425,0.018804999,0.041152027,0.5541157,0
13940000,0.012613113,0.015508939,0.04312131,0.57070756,0
13944000,0.011998573,0.016044572,0.04325334,0.57070756,0
13948000,0.011199645,0.01658115,0.043419667,0.57070756,0
13956000,0.009376954,0.01767642,0.04378239,0.57070756,0
13960000,0.008534908,0.018241543,0.04389306,0.57070756,0
13964000,0.007619486,0.014664365,0.04576046,0.5860151,0
13968000,0.007578366,0.015320925,0.045824107,0.5860151,0
13976000,0.006938979,0.016327422,0.04598117,0.5860151,0
13980000,0.006373694,0.016931016,0.04606329,0.5860151,0
13984000,0.005702673,0.017537566,0.046211787,0.5860151,0
13988000,0.004814682,0.01405081,0.048195742,0.6000591,0
13992000,0.003754645,0.014548672,0.048426937,0.6000591,0
13996000,0.00241277,0.015798602,0.04922837,0.6000591,0
14000000,0.001691613,0.016337186,0.049397517,0.6000591,0
14004000,0.001338678,0.016879536,0.049520947,0.6000591,0
14012000,0.000312562,0.014069902,0.051537067,0.61380416,0
14016000,3.13E-05,0.014974533,0.051653326,0.61380416,0
14020000,-0.000790233,0.015582671,0.051794317,0.61380416,0
14024000,-0.001469385,0.01613849,0.05199443,0.61380416,0
14032000,-0.002877547,0.017193554,0.052341912,0.61380416,0
14036000,-0.002938079,0.013710594,0.05450014,0.6263701,0
14040000,-0.003467635,0.014275687,0.0547122,0.6263701,0
14044000,-0.00401977,0.01488789,0.054843396,0.6263701,0
14048000,-0.004511482,0.015491754,0.05491644,0.6263701,0
14052000,-0.005005986,0.016071523,0.05500769,0.6263701,0
14056000,-0.005487199,0.016697757,0.05512287,0.6263701,0
14060000,-0.005867209,0.01342096,0.057100087,0.6378129,0
14064000,-0.006240008,0.014063148,0.057225317,0.6378129,0
14068000,-0.006731461,0.01467141,0.057355024,0.6378129,0
14072000,-0.007291895,0.015247699,0.0575063,0.6378129,0
14076000,-0.007771128,0.015851816,0.057673953,0.6378129,0
14080000,-0.008292233,0.016534902,0.05782989,0.6378129,0
14084000,-0.009061138,0.013197551,0.059825405,0.64820063,0
14088000,-0.009878454,0.013944795,0.060073156,0.64820063,0
14092000,-0.010410102,0.014522221,0.0602901,0.64820063,0
14100000,-0.011284649,0.016311182,0.061173845,0.64820063,0
14104000,-0.011677455,0.016942339,0.06131313,0.64820063,0
14108000,-0.012211193,0.013769724,0.06334639,0.65829647,0
14112000,-0.012589484,0.014482437,0.063450195,0.65829647,0
14116000,-0.012717899,0.015126932,0.06356488,0.65829647,0
14120000,-0.012950031,0.015753498,0.06369139,0.65829647,0
14124000,-0.013334679,0.016340759,0.063808925,0.65829647,0
14128000,-0.013766704,0.016876487,0.06390996,0.65829647,0
14132000,-0.014471418,0.013578784,0.06596163,0.667419,0
14140000,-0.01587199,0.014653547,0.06634571,0.667419,0
14144000,-0.016464725,0.015250789,0.06666334,0.667419,0
14148000,-0.017173663,0.01587011,0.06675403,0.667419,0
14152000,-0.017656889,0.016532646,0.066818826,0.667419,0
14156000,-0.017896026,0.013334487,0.06887404,0.67564243,0
14160000,-0.018101647,0.013936153,0.068998665,0.67564243,0
14164000,-0.018428354,0.014512306,0.069088824,0.67564243,0
14168000,-0.018847004,0.015130818,0.06916254,0.67564243,0
14172000,-0.019500434,0.015717972,0.069258586,0.67564243,0
14180000,-0.020027507,0.013149668,0.071585104,0.68302757,0
14184000,-0.020269776,0.013677657,0.07177518,0.68302757,0
14188000,-0.02056427,0.014208181,0.071944155,0.68302757,0
14192000,-0.020834677,0.014810316,0.07208133,0.68302757,0
14196000,-0.021461297,0.016165506,0.0726769,0.68302757,0
14200000,-0.021913636,0.016811257,0.07278684,0.68302757,0
14204000,-0.02253779,0.015704293,0.07378343,0.6902349,0
14208000,-0.023079187,0.016300675,0.073821045,0.6902349,0
14212000,-0.023678217,0.016856482,0.073890015,0.6902349,0
14216000,-0.024328582,0.017363409,0.07401897,0.6902349,0
14220000,-0.024778862,0.01783125,0.074174196,0.6902349,0
14224000,-0.024987439,0.018402204,0.07433352,0.6902349,0
14228000,-0.025266841,0.019850692,0.074020445,0.6967163,0
14232000,-0.025516018,0.020460747,0.07405738,0.6967163,0
14236000,-0.025602994,0.021062557,0.07410537,0.6967163,0
14240000,-0.025749132,0.021696271,0.07417477,0.6967163,0
14244000,-0.026159544,0.022281896,0.07423112,0.6967163,0
14248000,-0.026695553,0.022821635,0.074279055,0.6967163,0
14252000,-0.027077327,0.024065316,0.073956884,0.7025181,0
14256000,-0.027336322,0.024639929,0.0740532,0.7025181,0
14260000,-0.027685441,0.025248481,0.074127324,0.7025181,0
14264000,-0.028102087,0.025800353,0.074166596,0.7025181,0
14268000,-0.028293109,0.026287599,0.07422274,0.7025181,0
14276000,-0.028632145,0.027918525,0.073990524,0.7077094,0
14280000,-0.029083412,0.02850439,0.07401352,0.7077094,0
14288000,-0.029753443,0.029584209,0.07413496,0.7077094,0
14292000,-0.030319527,0.030010566,0.07425535,0.7077094,0
14296000,-0.03127502,0.031155962,0.07483613,0.7077094,0
14300000,-0.031684488,0.032187223,0.07462439,0.71290576,0
14304000,-0.031721268,0.032723807,0.07466203,0.71290576,0
14308000,-0.031600386,0.03329313,0.07466799,0.71290576,0
14312000,-0.031556156,0.033846796,0.07467396,0.71290576,0
14316000,-0.031789895,0.034341577,0.07469039,0.71290576,0
14320000,-0.0323091,0.034798525,0.07472871,0.71290576,0
14324000,-0.03283051,0.035834163,0.07451266,0.7175377,0
14328000,-0.032996487,0.036238298,0.074538566,0.7175377,0
14332000,-0.033087052,0.03671231,0.07455829,0.7175377,0
14336000,-0.033612847,0.037257463,0.074624866,0.7175377,0
14340000,-0.034219112,0.037783362,0.07470258,0.7175377,0
14348000,-0.03498652,0.03911531,0.074574105,0.72166663,0
14356000,-0.03550599,0.040073566,0.074626565,0.72166663,0
14360000,-0.035673864,0.040395685,0.074477315,0.72166663,0
14364000,-0.036128093,0.04085826,0.074439734,0.72166663,0
14368000,-0.036196075,0.041304342,0.07438214,0.72166663,0
14372000,-0.036696326,0.042234555,0.07419873,0.725362,0
14376000,-0.036560588,0.042602375,0.07421628,0.725362,0
14380000,-0.037174314,0.04303951,0.074289195,0.725362,0
14384000,-0.037602037,0.04351704,0.07435037,0.725362,0
14388000,-0.037847463,0.04400567,0.07436173,0.725362,0
14396000,-0.038459156,0.045203887,0.0741568,0.7286528,0
14400000,-0.038946055,0.045818936,0.07424988,0.7286528,0
14404000,-0.039283585,0.046349727,0.07419055,0.7286528,0
14408000,-0.039438486,0.046856754,0.074151866,0.7286528,0
14412000,-0.03964358,0.047326516,0.07421701,0.7286528,0
14420000,-0.040448714,0.048634134,0.07415263,0.73166114,0
14424000,-0.040342953,0.048952036,0.07419227,0.73166114,0
14428000,-0.0408193,0.04946057,0.07424088,0.73166114,0
14436000,-0.041263692,0.050405197,0.074233085,0.73166114,0
14444000,-0.042322397,0.05165296,0.07394171,0.7343358,0
14448000,-0.04229953,0.051994964,0.07389565,0.7343358,0
14452000,-0.042586774,0.05245398,0.07399482,0.7343358,0
14456000,-0.04278212,0.052938662,0.074053764,0.7343358,0
14460000,-0.04324115,0.053437587,0.07409528,0.7343358,0
14468000,-0.043465998,0.05471149,0.0738841,0.73670024,0
14472000,-0.04384219,0.05511599,0.07383752,0.73670024,0
14476000,-0.044158448,0.055478394,0.07385649,0.73670024,0
14480000,-0.04457543,0.055834442,0.073888674,0.73670024,0
14484000,-0.045104932,0.05628723,0.07386699,0.73670024,0
14492000,-0.045371547,0.057586126,0.073637016,0.73879355,0
14496000,-0.045569234,0.058141362,0.073734574,0.73879355,0
14500000,-0.045745976,0.05858013,0.07379593,0.73879355,0
14508000,-0.046060815,0.059324548,0.07384926,0.73879355,0
14516000,-0.046716973,0.060396962,0.07366833,0.74068993,0
14524000,-0.047190133,0.06129667,0.073563084,0.74068993,0
14532000,-0.048073806,0.062310033,0.07355571,0.74068993,0
14536000,-0.04794871,0.06274728,0.07352069,0.74068993,0
14540000,-0.04817084,0.06341041,0.07338074,0.7423604,0
14548000,-0.048892267,0.064219706,0.0734669,0.7423604,0
14552000,-0.049228966,0.064610995,0.073547944,0.7423604,0
14556000,-0.049590856,0.06500645,0.073660225,0.7423604,0
14560000,-0.04985103,0.065412596,0.073693775,0.7423604,0
14564000,-0.05000317,0.06607889,0.07350371,0.74380136,0
14568000,-0.050071955,0.06655342,0.07352329,0.74380136,0
14572000,-0.050160684,0.0670287,0.07355018,0.74380136,0
14576000,-0.050303806,0.067415655,0.073491834,0.74380136,0
14580000,-0.05069828,0.06776941,0.07338755,0.74380136,0
14584000,-0.051364288,0.068165414,0.07334704,0.74380136,0
14588000,-0.051769532,0.06884865,0.073220894,0.74505156,0
14592000,-0.0518932,0.06928618,0.073321715,0.74505156,0
14596000,-0.051924482,0.06966648,0.07334849,0.74505156,0
14600000,-0.052127533,0.070089966,0.07341583,0.74505156,0
14604000,-0.052423246,0.070503324,0.073505044,0.74505156,0
14612000,-0.053099323,0.07154952,0.073425755,0.7461021,0
14616000,-0.053100273,0.07187764,0.073414996,0.7461021,0
14620000,-0.053095818,0.07221128,0.07342244,0.7461021,0
14624000,-0.0531616,0.07262011,0.07346247,0.7461021,0
14628000,-0.053326204,0.07305487,0.073511735,0.7461021,0
14632000,-0.05371355,0.07347921,0.07354173,0.7461021,0
14636000,-0.053797945,0.07405241,0.0734283,0.74699837,0
14640000,-0.053963795,0.07445784,0.07345539,0.74699837,0
14644000,-0.05424351,0.07481783,0.07346398,0.74699837,0
14648000,-0.054615214,0.075134166,0.07345098,0.74699837,0
14652000,-0.054979533,0.07548278,0.07343817,0.74699837,0
14656000,-0.05527135,0.07586354,0.073469475,0.74699837,0
14660000,-0.055471983,0.07641343,0.07343058,0.7477508,0
14664000,-0.055455275,0.07675671,0.07353529,0.7477508,0
14668000,-0.05529216,0.07715911,0.07357553,0.7477508,0
14676000,-0.05552542,0.077924214,0.073620245,0.7477508,0
14680000,-0.05558516,0.07824582,0.07363722,0.7477508,0
14684000,-0.05600936,0.07869997,0.07353301,0.74836004,0
14688000,-0.056453764,0.07903424,0.07357703,0.74836004,0
14692000,-0.05681188,0.07942639,0.07360615,0.74836004,0
14696000,-0.056985334,0.07970622,0.07354099,0.74836004,0
14700000,-0.0570764,0.080018,0.07355559,0.74836004,0
14704000,-0.057064697,0.08037491,0.073609516,0.74836004,0
14708000,-0.057169624,0.08097414,0.07357911,0.74888694,0
14712000,-0.05742328,0.08130592,0.0737468,0.74888694,0
14720000,-0.057801932,0.081871465,0.073938996,0.74888694,0
14724000,-0.05782699,0.08226942,0.07390721,0.74888694,0
14728000,-0.057702158,0.08269012,0.07386735,0.74888694,0
14732000,-0.0576448,0.08323133,0.07369813,0.749277,0
14740000,-0.05820965,0.083870545,0.073682316,0.749277,0
14748000,-0.058972448,0.084449105,0.073883876,0.749277,0
14752000,-0.059294634,0.0847777,0.073923275,0.749277,0
14756000,-0.059236173,0.08513831,0.07394053,0.7495832,0
14760000,-0.05934079,0.08543886,0.073947094,0.7495832,0
14764000,-0.059419796,0.085779056,0.07390926,0.7495832,0
14768000,-0.05951353,0.086094394,0.07388964,0.7495832,0
14772000,-0.059671346,0.08641489,0.07390316,0.7495832,0
14780000,-0.060140662,0.087236896,0.073814124,0.74980205,0
14784000,-0.06002222,0.08751483,0.07390829,0.74980205,0
14788000,-0.060174607,0.087804526,0.07400592,0.74980205,0
14792000,-0.06041675,0.088072374,0.07405849,0.74980205,0
14796000,-0.060864627,0.08851529,0.07415284,0.74980205,0
14800000,-0.061117724,0.08859857,0.07407462,0.74980205,0
14804000,-0.0611168,0.08881282,0.07389657,0.7501342,0
14808000,-0.06095387,0.088842236,0.07383613,0.7501342,0
14812000,-0.06080411,0.088922426,0.07375835,0.7501342,0
14816000,-0.06101623,0.08902449,0.07366354,0.7501342,0
14820000,-0.06151559,0.089116424,0.07356562,0.7501342,0
14824000,-0.061909065,0.089213595,0.07351385,0.7501342,0
14828000,-0.062134795,0.08949318,0.073410615,0.750394,0
14832000,-0.062161125,0.08961951,0.07346037,0.750394,0
14836000,-0.06204156,0.08976011,0.07344731,0.750394,0
14840000,-0.062021043,0.089896925,0.073364705,0.750394,0
14844000,-0.062111147,0.08999483,0.073273234,0.750394,0
14848000,-0.062293008,0.09005249,0.073189616,0.750394,0
14852000,-0.06253454,0.09028363,0.07300009,0.75058544,0
14856000,-0.06265808,0.09035766,0.072988346,0.75058544,0
14860000,-0.06275072,0.090500206,0.07300935,0.75058544,0
14864000,-0.0629164,0.09066829,0.072986275,0.75058544,0
14868000,-0.063030675,0.09072622,0.072911516,0.75058544,0
14872000,-0.06297585,0.09072,0.07281086,0.75058544,0
14876000,-0.062750995,0.09091841,0.07259786,0.7507151,0
14884000,-0.062809214,0.09112714,0.072520435,0.7507151,0
14888000,-0.06279271,0.09128263,0.072568424,0.7507151,0
14892000,-0.06314602,0.091303095,0.072564974,0.7507151,0
14896000,-0.06353472,0.09124854,0.07250405,0.7507151,0
14900000,-0.063812725,0.09144003,0.07229556,0.7507653,0
14904000,-0.06391304,0.09148447,0.072226375,0.7507653,0
14908000,-0.06391984,0.0915628,0.07217005,0.7507653,0
14912000,-0.06385313,0.091685556,0.07207793,0.7507653,0
14916000,-0.063702926,0.09183735,0.07197716,0.7507653,0
14920000,-0.06356063,0.09201331,0.07189222,0.7507653,0
14924000,-0.063760296,0.09229784,0.071719766,0.75077534,0
14928000,-0.06317417,0.092366464,0.07155275,0.75077534,0
14932000,-0.0630665,0.092353046,0.07151474,0.75077534,0
14940000,-0.06350376,0.0924746,0.07149953,0.75077534,0
14944000,-0.06455375,0.09252091,0.07158831,0.75077534,0
14948000,-0.06494111,0.09280759,0.07139711,0.75074404,0
14952000,-0.06518576,0.092925355,0.071318075,0.75074404,0
14956000,-0.0654698,0.093041226,0.07125268,0.75074404,0
14960000,-0.06560249,0.0931388,0.07117253,0.75074404,0
14964000,-0.06547778,0.093193434,0.07107712,0.75074404,0
14972000,-0.06562592,0.09348724,0.07083665,0.7507058,0
14976000,-0.06535369,0.09349534,0.07074547,0.7507058,0
14980000,-0.0655591,0.09360425,0.07069698,0.7507058,0
14988000,-0.06583197,0.09379928,0.070532195,0.7507058,0
14992000,-0.0659981,0.09382375,0.07045763,0.7507058,0
14996000,-0.066489875,0.09483747,0.07064429,0.75065386,0
15000000,-0.06669946,0.09492088,0.07059632,0.75065386,0
15004000,-0.06669114,0.095010035,0.070537955,0.75065386,0
15012000,-0.06707676,0.095283836,0.07045141,0.75065386,0
15020000,-0.067659326,0.0956437,0.0702188,0.7509948,0
15024000,-0.06752639,0.09564907,0.0701555,0.7509948,0
15028000,-0.06720932,0.09563223,0.07013376,0.7509948,0
15032000,-0.06707984,0.09562789,0.070100985,0.7509948,0
15036000,-0.06728163,0.095724754,0.07005572,0.7509948,0
15040000,-0.06752296,0.09575127,0.06995434,0.7509948,0
15044000,-0.06754346,0.09604087,0.06973219,0.751279,0
15048000,-0.06748392,0.09619013,0.06961803,0.751279,0
15056000,-0.06777628,0.09633094,0.06949169,0.751279,0
15060000,-0.068074025,0.09634413,0.069468044,0.751279,0
15064000,-0.068319425,0.096354194,0.069397345,0.751279,0
15068000,-0.06850999,0.09659967,0.06923376,0.75154954,0
15072000,-0.06851557,0.09659813,0.069151595,0.75154954,0
15076000,-0.0684157,0.096671335,0.06913466,0.75154954,0
15080000,-0.06832771,0.096781515,0.069069244,0.75154954,0
15084000,-0.068275094,0.09688982,0.06894575,0.75154954,0
15088000,-0.068295434,0.096988246,0.06885201,0.75154954,0
15092000,-0.068342164,0.097224034,0.06869049,0.75179106,0
15096000,-0.06812285,0.09687977,0.068435535,0.75179106,0
15100000,-0.06797935,0.096865,0.068351254,0.75179106,0
15104000,-0.068024576,0.09685406,0.06830125,0.75179106,0
15112000,-0.06841967,0.097060576,0.06813939,0.75179106,0
15116000,-0.06857063,0.09735045,0.067903265,0.7518019,0
15124000,-0.06910898,0.09748209,0.06767611,0.7518019,0
15128000,-0.069523536,0.097535685,0.067557454,0.7518019,0
15132000,-0.06983903,0.09763225,0.06746867,0.7518019,0
15140000,-0.07001385,0.09800961,0.06725657,0.75182915,0
15144000,-0.06928611,0.0980186,0.06725086,0.75182915,0
15148000,-0.069302365,0.09801559,0.06723505,0.75182915,0
15152000,-0.069689274,0.097998105,0.06722641,0.75182915,0
15156000,-0.07011567,0.09803858,0.0671586,0.75182915,0
15164000,-0.07031044,0.098427236,0.06681001,0.7518388,0
15168000,-0.069469616,0.09847815,0.06666273,0.7518388,0
15172000,-0.06963561,0.09855913,0.06661254,0.7518388,0
15176000,-0.06972925,0.0985039,0.066688016,0.7518388,0
15180000,-0.0698914,0.09858142,0.06664035,0.7518388,0
15184000,-0.07015144,0.09857913,0.06662583,0.7518388,0
