timestamp,control[0],control[1],control[2],control[3],control[4],output[2],output[3],output[4],output[5],output[6],output[7],indicated_airspeed_m_s,true_airspeed_m_s,indicated_airspeed_m_s.1,equivalent_airspeed_m_s,true_airspeed_m_s.1,equivalent_ground_minus_wind_m_s,true_ground_minus_wind_m_s,differential_pressure_raw_pa,differential_pressure_filtered_pa,temperature,gyro_bias[0],gyro_bias[1],gyro_bias[2],accel_bias[0],accel_bias[1],accel_bias[2],instance_count,seq_reached,seq_current,seq_total,item_changed_index,item_do_jump_remaining,valid,warning,finished,failure,stay_in_failsafe,flight_termination,item_do_jump_changed,execution_mode,nav_roll,nav_pitch,nav_bearing,target_bearing,xtrack_error,wp_dist,acceptance_radius,rollspeed_integ,pitchspeed_integ,yawspeed_integ,additional_integ1,x,y,z,temperature.1,pressure,temperature.2,gyro_rad[0],gyro_rad[1],gyro_rad[2],accelerometer_m_s2[0],accelerometer_m_s2[1],accelerometer_m_s2[2],x.1,y.1,z.1,temperature.3,altitude_sp,altitude_filtered,height_rate_setpoint,height_rate,airspeed_sp,airspeed_filtered,airspeed_derivative_sp,airspeed_derivative,throttle_integ,pitch_integ,baro_alt_meter,baro_temp_celcius,baro_pressure_pa,rho,xyz[0],xyz[1],xyz[2],xyz[0].1,xyz[1].1,xyz[2].1,roll_body,pitch_body,yaw_body,q_d[0],q_d[1],q_d[2],q_d[3],thrust_body[0],lat,lon,alt,vel_m_s,vel_n_m_s,vel_e_m_s,vel_d_m_s,cog_rad,ground_contact,maybe_landed,landed,ref_lat,ref_lon,x.2,y.2,z.2,vx,vy,vz,ax,ay,az,dist_bottom,roll,pitch,yaw,thrust_body[0].1,timestamp.1,isTakeoff,isClimbing,isDescending,isCruise,isLand
152512314.0,-0.006431353000000001,0.4691443420000001,0.026412984,0.09799158,1.0,1513.335467,2000.0,1078.0,1501.335467,1497.664533,1729.0,10.21222349,10.43659629,11.01697592,11.07109072,11.31433429,11.14181552,11.38661317,69.78912431,69.78912431,12.08395702,-0.000648922,-0.005887341999999999,2.92e-06,-0.253282529,0.17985425300000002,-0.017691174,2.0,8.355271054,9.355271054,11.0,0.0,0.0,1.0,0.0,0.0,0.0,0.0,0.0,0.0,0.0,-0.006048991,0.09759336,-1.578256242,-1.5744900819999998,0.113462584,345.8640374,30.15281117,-0.008308023000000001,0.381962491,0.013925064,0.0,-0.102152506,0.228880448,-8.361183238999999,2.2e-23,960.5002928,12.0854034,-0.00460156,-0.040533051,-0.01028518,0.126383495,0.241765099,-9.011358983,-0.007749110999999999,-0.07140416599999999,0.001155079,2.2e-23,49.998405,49.40475294,0.029682623,0.080135498,10.21990859,11.04216495,-0.016445122,-0.043062964,-0.397677538,183.7318005,448.7228956,12.08540682,96050.10295,1.141234122,-0.673820115,1.226319488,0.235045412,-0.017387644,-0.190275976,0.001341246,-0.006109633000000001,0.102875496,-1.57844735,0.703573117,0.034345631,0.038381888,-0.708753856,0.120720135,398688593.0,327345187.4,449395.0758,10.53933987,-0.01019804,-10.53927385,0.452838568,4.71045287,0.0,0.0,0.0,39.87141370000001,32.7364368,-284.0103660000001,-166.55348830000003,-49.14139265,-0.001254675,-10.5024246,0.97257635,-0.038603353,0.046353373,1.411798495,49.29706265,0.001663229,0.164087374,-0.004693849,0.12131497,152512314.0,0.0,0.0,0.0,0.0,1.0
152582823.0,-0.0036095949919839687,0.4780643753827656,0.02580341268537074,0.10934314553106211,1.0,1512.7148290180362,2000.0,1096.7715430861724,1501.7148290180362,1497.2851709819638,1734.9619238476953,10.137958261282565,10.36064277284569,11.01375178543086,11.068063147494989,11.311237331382765,11.136793873787575,11.381478349038076,69.47184459138276,69.47184459138276,12.08424504250501,-0.0006488944769539078,-0.00588856246492986,2.237054108216433e-06,-0.2532897697935872,0.1798760666272545,-0.017781211703406814,2.0,8.360571111833668,9.360571111833668,11.0,0.0,0.0,1.0,0.0,0.0,0.0,0.0,0.0,0.0,0.0,-0.005953836300601203,0.09834530412024049,-1.5783439740641283,-1.5744922403226451,0.11623456833667335,345.1024835468938,30.183421300681363,-0.008296430478957915,0.3832073867254509,0.01396129012024048,0.0,0.0797168069258517,0.25101448433667334,-8.594962587975951,2.2e-23,960.5055501595191,12.085977092144288,-0.010492589807615232,-0.05229568246292585,-0.007176777781563126,0.14484189113426854,0.2140915294689379,-9.131763156148297,-0.003092768198396794,-0.05517472733667335,-0.0032275907755511023,2.2e-23,49.975835621963924,49.407472289499,-0.20596513028456911,0.0791510648236473,10.219897525571142,11.044316418436873,-0.016488371118236474,-0.06920969581563126,-0.3685161645991984,183.8378401272545,448.671511656513,12.085868601022044,96050.68871797597,1.1412410460020042,0.07745445779759516,0.6318281208056113,0.6087165970240481,-0.015718383951903808,-0.13597910434268537,0.0020320125310621245,-0.006030250783567135,0.10233602414428858,-1.5785361376653306,0.7035489341583167,0.034183993070140285,0.03816249486973948,-0.7087965823887776,0.11963959611222445,398688593.0,327345100.16653305,449345.4183783567,10.503870252444889,-0.020838925266533068,-10.500256910140282,0.6053579296012025,4.709586169963928,0.0,0.0,0.0,39.87141370000001,32.7364368,-284.0113630276554,-167.29042116993992,-49.06807692168337,-0.0019086222164328656,-10.504922235931863,1.0576321391523047,-0.021110667196392787,-0.17651268298597195,1.1410763298036073,49.22374692168337,0.002412613118236473,0.17312593811022045,-0.004422356563126253,0.12520236723446893,152582822.501002,0.0,0.0,0.0,0.0,1.0
152653939.0,-0.004375440579158316,0.4815555511823648,0.027175678893787577,0.10692199751302604,1.0,1512.3139978176353,2000.0,1109.0,1502.0561964408816,1496.9438035591184,1739.3139978176357,10.20264777074148,10.426749483527054,11.010527651623248,11.065035565751502,11.308140372004008,11.131772227575151,11.376343528076154,69.15159618352706,69.15159618352706,12.08457756501002,-0.0006488129539078156,-0.00588976392985972,1.5341082164328658e-06,-0.2532965575871744,0.17989756425450903,-0.017858649482965932,2.0,8.365871170591182,9.365871170591182,11.0,0.0,0.0,1.0,0.0,0.0,0.0,0.0,0.0,0.0,0.0,-0.005858682601202405,0.09909724724048095,-1.5784317060521043,-1.574494398721443,0.1190065526733467,344.3409296937876,30.214031431362724,-0.00828808123246493,0.38441747986973945,0.013980047054108217,0.0,0.15328643995591182,0.2653404541783567,-8.861927151635271,2.2e-23,960.5151362909822,12.08650172735471,-0.0012173026673346697,-0.06315235369939881,-0.007667002915831663,0.19799533833867733,0.15285330269539077,-9.23027674148497,-0.0011026407034068137,-0.0452512532745491,-0.009270961344689379,2.2e-23,49.91950784392785,49.410627638998,-0.7939041405691382,0.0761870346472946,10.219831451903806,11.054195696873746,-0.01668728016032064,-0.13452281763126253,-0.2956766772745491,183.9349007468938,448.5946979246493,12.086375423366734,96051.59516318637,1.141251843014028,-0.4450264550581163,0.21053708059519036,0.5805288819138277,-0.013410315386773548,-0.10161392332064129,-0.0014915135951903812,-0.005778833122244489,0.10138684604609219,-1.5786334898436873,0.7035265104348697,0.033937788074148295,0.03773795646492986,-0.7088539635551102,0.11627588079358718,398688593.0,327345012.8406814,449295.76086432865,10.468400634128256,-0.03147981060921844,-10.46123997951904,0.7578772912024047,4.708719468927856,0.0,0.0,0.0,39.87141370000001,32.7364368,-284.01288631402804,-168.0471315603206,-48.98766569210421,-0.003174867266533066,-10.513131984989979,1.1304740006372747,0.02274793264328657,-0.2927419186693387,0.9131310969418838,49.14333569210421,0.0029766650681362725,0.1728136968256513,-0.004172619288577154,0.1131589507014028,152653939.2965932,0.0,0.0,0.0,0.0,1.0
152727839.0,-0.003843215607214428,0.4902517355771543,0.027204048561122244,0.1180659748496994,1.0,1513.0,2000.0,1105.987332985972,1502.193491478958,1496.806508521042,1740.5367526653306,10.191511018777556,10.415329554068135,11.007303526292585,11.06200799248497,11.305043404148297,11.12675059022044,11.371208707114228,68.83134778414829,68.83134778414829,12.08491008751503,-0.0006487315450901804,-0.005890965394789579,8.357054108216434e-07,-0.2533033443807615,0.17991906188176351,-0.017936087224448897,2.0,8.371171228386775,9.371171228386775,11.0,0.0,0.0,1.0,0.0,0.0,0.0,0.0,0.0,0.0,0.0,-0.0057635279018036075,0.09984919136072144,-1.5785194380781562,-1.574496557967936,0.12177853701002005,343.57937584068134,30.244641562044087,-0.008281183226452906,0.38562082834468936,0.013991101583166332,0.0,0.17544821150501003,0.239406552246493,-9.062158012186373,2.2e-23,960.5273307164331,12.087025309078156,-0.0017797064128256494,-0.06117756772144289,-0.012942930917835674,0.21428833200200403,0.22409468633066132,-9.237477897931864,-0.0003027357815631263,-0.041982770018036075,-0.013383071631262526,2.2e-23,49.862789688998,49.413761170861726,-1.3794517204509016,0.07305972594388778,10.219765919018036,11.063809493807614,-0.016880869164328658,-0.20015079885170342,-0.22299609103406814,184.03184858116234,448.55369482444894,12.086928638176353,96052.05206637274,1.1412572331643287,0.34829529067935866,0.13917842968937846,-0.3500100602084169,-0.013346381933867738,-0.06682925664328658,0.0006293125190380779,-0.005579940432865731,0.10289693896993989,-1.5787041226092187,0.7034725878777555,0.03454447717434869,0.03819728029058116,-0.7088538582985972,0.11966585054909819,398688593.0,327344925.21963924,449241.7913743487,10.44070689749499,-0.0378793032004008,-10.432119770761522,0.8983793711583167,4.708235223122244,0.0,0.0,0.0,39.87141370000001,32.7364368,-284.01497856593187,-168.8364613082164,-48.89928405162325,-0.005143318989979959,-10.52586011517034,1.194412181503006,0.07010093431863729,-0.28789077580761524,0.7423618570420842,49.05495405162324,0.0033626324368737476,0.18444025533066133,-0.0038508486693386774,0.11918359298997995,152727838.61723447,0.0,0.0,0.0,0.0,1.0
152798347.0,-0.0063900523346693385,0.4910301506392785,0.027639302511022045,0.11131101576152304,1.0,1513.0,2000.0,1117.0861723446894,1502.1523046092184,1496.8476953907816,1744.8476953907816,10.220293401422845,10.444683874388778,11.004079391723447,11.05898041997996,11.301946445531062,11.121728943627254,11.366073877675351,68.51109937705411,68.51109937705411,12.085242618496993,-0.0006486509078156312,-0.00589216770741483,1.346072144288578e-07,-0.2533101311743487,0.17994055950901805,-0.01801352596593186,2.0,8.376471286182365,9.376471286182365,11.0,0.0,0.0,1.0,0.0,0.0,0.0,0.0,0.0,0.0,0.0,-0.005668374202404809,0.10060113548096192,-1.5786071692565131,-1.574498716290581,0.12455052219438877,342.81782198757514,30.27525169272545,-0.008278927152304608,0.3868215518777555,0.014012691947895792,0.0,0.17740891995791583,0.16306932919238476,-9.124262351016032,0.5340303995511012,960.5408190589178,12.087578184168338,-0.0032527544448897787,-0.062097075531062126,-0.0021641675430861705,0.1534451039218437,0.20755859218036074,-9.222201504835672,8.684977955911876e-06,-0.04644985851102204,-0.013396126002004008,0.5340303995511012,49.74867779288577,49.41368697827655,-1.6134072180981962,0.045926778625250506,10.219778687715431,11.034393159178356,-0.016292288551102204,-0.3120697996032064,-0.17367726978356715,184.11221371242485,448.411406744489,12.087495535611223,96053.68151911822,1.1412766159639278,0.46386027478356734,-0.2498217748356714,-0.2453589822725452,-0.0038201077074148304,-0.04588750682164329,-0.009450748721442885,-0.005398663368737474,0.10227871233466934,-1.5787929511202405,0.7034479736973948,0.03439071776553106,0.0379140818016032,-0.7088999720060121,0.11624550136673346,398688593.0,327344836.24428856,449170.49743246497,10.444253863326653,-0.027238417933867737,-10.442761005871743,0.9906003808777555,4.7092875358296595,0.0,0.0,0.0,39.87141370000001,32.7364368,-284.0170071058116,-169.62629371903805,-48.80538959352705,-0.00892569554308617,-10.544988676893787,1.247113997036072,0.001219706745490991,-0.3791140023627254,0.6981434632264529,48.961059607234475,0.003980483100200401,0.19470391927855712,-0.003589143859719439,0.12049873223847696,152798347.1563126,0.0,0.0,0.0,0.0,1.0
152865617.0,-0.0031561071122244476,0.4999510088777555,0.02755978479759519,0.11852938234468936,1.0,1513.0,2000.0,1119.3807615230462,1501.8863067895793,1497.1136932104207,1747.4944547334671,10.239530706753508,10.464286572785571,11.000855257154308,11.05595283747495,11.298849476913828,11.116707298937875,11.360939057094189,68.19085097691382,68.19085097691382,12.085575140621243,-0.000648569384769539,-0.005893369134268537,-5.663006012024045e-07,-0.2533169179679359,0.17996205813627256,-0.01809096370741483,2.0,8.381771343977956,9.381771343977956,11.0,0.0,0.0,1.0,0.0,0.0,0.0,0.0,0.0,0.0,0.0,-0.005573220312625251,0.10135307941082164,-1.5786949013206413,-1.5745008756132266,0.12732250668336673,342.05626811543084,30.305861823406815,-0.008268025813627254,0.38797453717234465,0.014015261440881763,0.0,0.21706611232464926,0.285766515523046,-9.13939333570541,8.612844222509011,960.5462311513025,12.088150713587174,-0.0009764300200400782,-0.04658192817034069,-0.009312121124248498,0.20307969850701404,0.2008487241603206,-9.284092206152303,-0.00045835763927855674,-0.05245502738476954,-0.01659792960521042,8.612844222509011,49.595501573607216,49.41142948284569,-1.6080559393727456,0.002454693591182392,10.21984476214429,10.978411446472947,-0.015171334438877757,-0.4554962080040079,-0.14025934272945895,184.18129224649297,448.3181624717435,12.0880835050501,96054.77221348697,1.141289581753507,0.6311003074348703,0.4921402139779564,0.10404603878557186,-0.00558304306012025,-0.03554123805811624,-0.0075835301623246535,-0.005111056791583166,0.10170383971543087,-1.5788823267494991,0.7034214476132264,0.03428973951102205,0.03760848734068136,-0.7089479790781563,0.11359439075150302,398688593.0,327344747.18036073,449099.2034905812,10.447800819158317,-0.016597531667334676,-10.453402249839678,1.0828213895971943,4.710339847727455,0.0,0.0,0.0,39.87141370000001,32.7364368,-284.019117956513,-170.37654159358718,-48.71339205470943,-0.01244478469539078,-10.566303205631263,1.2932147514869738,-0.06476084276152301,-0.3735020682164329,0.6157240458937876,48.869062563246494,0.004352698436873748,0.19729333355911824,-0.003278578344689379,0.11237538429859718,152865617.21843687,0.0,0.0,0.0,0.0,1.0
152936278.0,-0.0062847058336673355,0.5082197644068136,0.027608271072144287,0.1235953993787575,1.0,1513.0,2000.0,1112.6553106212425,1502.0,1497.0,1748.9138276553106,10.299381934649299,10.525411989398798,10.997631122585169,11.05292526496994,11.295752518296593,11.111685652725452,11.355804234228458,67.8706025782966,67.8706025782966,12.08590766503006,-0.000648488861723447,-0.005894570561122244,-1.2676753507014027e-06,-0.25332370476152305,0.17998355576352706,-0.018168402448897794,2.0,8.387071402002004,9.387071402002004,11.0,0.0,0.0,1.0,0.0,0.0,0.0,0.0,0.0,0.0,0.0,-0.005460700358717435,0.10195180929458918,-1.5787796037995991,-1.574503038763527,0.1300944910200401,341.29074869659325,30.35305174711423,-0.008258389420841684,0.38907999448697395,0.014010041142284569,0.0,0.18906813086372748,0.2935259595971944,-9.174570487226452,6.820944469589181,960.5565839002004,12.088738053086173,0.003997413204408823,-0.03989278954308617,-0.008236631983967936,0.11773712289178354,0.2398633059759519,-9.352288105046092,-0.0031473227635270534,-0.0601407929258517,-0.011688118488977958,6.820944469589181,49.442845404509015,49.408380877675356,-1.5992528419398797,-0.04529681224649297,10.219906154629259,10.921361739679357,-0.014029113501002003,-0.5954995067915831,-0.10821429245891784,184.24880430380762,448.1729028466934,12.08869785264529,96056.42752963927,1.1413092508396794,-0.3116142816873749,-0.5450367912304611,-0.0806204017254509,-0.001305826312625248,-0.0318565879018036,-0.012089481410821643,-0.0049740570501002005,0.10308990590781564,-1.5789498526132264,0.703371668775551,0.03483066980360722,0.03804611467334669,-0.7089481891623247,0.11684177239078157,398688592.8543086,327344657.65651304,449020.2271561122,10.45539113767535,-0.01,-10.466738922665332,1.1642601089398799,4.710992299999999,0.0,0.0,0.0,39.87141370000001,32.7364368,-284.02129304048094,-171.12909308076152,-48.618219216472944,-0.016094542224448897,-10.589328929418837,1.336893759498998,-0.10659597076753508,-0.364904426,0.550348779769539,48.773889986513026,0.004155063476953907,0.20514708741482968,-0.0031297500661322647,0.11540899094188378,152936278.06212425,0.0,0.0,0.0,0.0,1.0
153006354.0,-0.0048922639318637285,0.5074760355831663,0.02764758464729459,0.10924407988977956,1.0,1513.0,2000.0,1118.8677354709419,1502.2665330661323,1496.7334669338677,1753.0,10.233713189398797,10.45821032486974,10.994406998016032,11.04989768513026,11.292655557014028,11.106664006513027,11.350669413266532,67.55035416967935,67.55035416967935,12.08624018753507,-0.0006484073386773548,-0.005895772254509018,-1.97062124248497e-06,-0.2533304915551102,0.18000505339078154,-0.018245840190380763,2.0,8.392371460569139,9.392371460569139,11.0,0.0,0.0,1.0,0.0,0.0,0.0,0.0,0.0,0.0,0.0,-0.0053144795851703406,0.10225319084368738,-1.5788584271663328,-1.5745052121242484,0.13286647535671342,340.5175332527054,30.432418926633265,-0.008251815731462926,0.3901654057154309,0.01401053046292585,0.0,0.1421224246953908,0.22747166848496994,-9.240597411044089,2.2e-23,960.5687672296593,12.08934371737475,-0.004222178835671345,-0.02716581726252505,-0.00024924827655310863,0.14441388628657315,0.2755810009078156,-9.42538037637475,-0.006612156122244489,-0.06229695548096192,-0.0042577975811623255,2.2e-23,49.2993179438477,49.391445529118236,-1.5298581956613229,-0.16816715714629263,10.219885537815632,10.845564825470941,-0.012513586593186372,-0.6754152359158316,-0.10026806621242484,184.2888206793587,448.15140203426853,12.089342773747495,96056.68154711422,1.1413122780300602,0.24714936996593184,0.11380214940080138,0.011828698977955894,-0.00583105679759519,-0.04228796888977956,-0.007593086016032064,-0.004964864809619239,0.10252674996593186,-1.5790371029418837,0.703349703737475,0.03463585323246493,0.037843303795591185,-0.7089892992104209,0.11245291616833668,398688592.5466934,327344567.1659319,448928.71552545094,10.469578983286572,-0.01,-10.484473731442886,1.2281053879298596,4.710992299999999,0.0,0.0,0.0,39.87141370000001,32.7364368,-284.0235434697394,-171.92027580521042,-48.51487390957916,-0.02015452963727455,-10.614039420821644,1.3812741244168338,-0.09665067374348697,-0.4295509905791583,0.5529797730240481,48.67054401226453,0.004288042140280561,0.21229471811222445,-0.002935821274549098,0.11845052923847696,153006354.3987976,0.0,0.0,0.0,0.0,1.0
153086535.0,-0.004503846919839679,0.5195576429819639,0.027896137498997994,0.11788383937875752,1.0,1513.0162756212424,2000.0,1109.7969941923848,1501.8465071102205,1497.1534928897795,1753.8927571002005,10.362352391563126,10.589664071923849,10.991182863446893,11.04687010995992,11.289558591062125,11.10164236725451,11.34553459230461,67.23010577106213,67.23010577106213,12.08657271004008,-0.0006483261202404809,-0.005896973719438878,-2.6666132264529055e-06,-0.2533372783486974,0.18002655101803608,-0.01832327862725451,2.0,8.39767151836473,9.39767151836473,11.0,0.0,0.0,1.0,0.0,0.0,0.0,0.0,0.0,0.0,0.0,-0.005168258116232465,0.10255457239278556,-1.578937250761523,-1.574507385018036,0.13563846038877755,339.74431783166335,30.511786106152304,-0.008239828551102205,0.3911969065631262,0.013998645214428859,0.0,0.19002131585971943,0.21196339426853708,-9.34934648751503,2.2e-23,960.5751829478958,12.08999338466934,-0.005121468308617235,-0.01781496348697395,0.0019018601122244502,0.12159524444288577,0.2530340010761523,-9.541215281466934,-0.007603883132264529,-0.041768593915831674,-0.0071029396172344675,2.2e-23,49.1588420603006,49.36986806042084,-1.4402087104889778,-0.3161485944529058,10.219837500360722,10.763501009298597,-0.010873268535070141,-0.7352445969038076,-0.10037771167134268,184.31964566212426,447.94181816052105,12.090001837995992,96059.07488617236,1.1413406679138276,-0.0012113899358717102,-0.15676393233667327,-0.07459107678156336,-0.0016732215450901815,-0.04672927001803607,-0.00921562808016032,-0.004956400767535071,0.10261714433466934,-1.579122223957916,0.7033181852244489,0.03467249693787575,0.03787063567134269,-0.7090178777134268,0.10902873567735472,398688592.13907814,327344476.7753507,448837.203941483,10.483766833567135,-0.01,-10.50220854022044,1.2919506666152305,4.710992299999999,0.0,0.0,0.0,39.87141370000001,32.7364368,-284.02600314629257,-172.66631593807614,-48.41429347799599,-0.02307143680761523,-10.64113822488978,1.4191257606693386,-0.04489508941082166,-0.3517345171122245,0.5106615983547094,48.56996347799599,0.00450023845490982,0.20714132592785572,-0.0029099579018036074,0.10389548933867737,153086535.11823648,0.0,0.0,0.0,0.0,1.0
153170808.0,-0.003739801801603204,0.5262962450761524,0.02821972413426854,0.11634595738877757,1.0,1513.3426853707415,2000.0,1112.8693884088177,1502.0,1497.0,1758.882994963928,10.382046780701403,10.609693205891784,10.987958728877755,11.043842530881763,11.28646163244489,11.096620720661322,11.340399764769538,66.90985736587174,66.90985736587174,12.08690523254509,-0.0006482452925851704,-0.0058981751843687385,-3.3665130260521034e-06,-0.2533440651422846,0.18004804898797594,-0.018400716673346692,2.0,8.40297157616032,9.40297157616032,11.0,0.0,0.0,1.0,0.0,0.0,0.0,0.0,0.0,0.0,0.0,-0.0050220370380761525,0.10285595394188377,-1.5790160736993988,-1.5745095583026052,0.13841044503006014,338.9711023448898,30.591153285671343,-0.008229844440881763,0.39225649990781564,0.013995546987975952,0.0,0.18291500596392787,0.2277897527054108,-9.322202008492985,2.2e-23,960.5945972971942,12.090771616893788,0.00271965724849699,-0.01341294117034069,-0.005528255937875744,0.06853193238076154,0.2438347360360722,-9.618183783785572,-0.006127570454909821,-0.02871181891983969,-0.004171271863727458,2.2e-23,49.021592981503005,49.345379667975955,-1.3589534248316635,-0.46333096689378744,10.219793263286572,10.681496204308617,-0.009234055951903809,-0.7842923811623247,-0.10048570058917836,184.34630239418837,447.9739459260521,12.09067715991984,96058.70226066132,1.1413363168116233,0.2113238707735471,-0.07242818462525029,0.2298223983887778,-0.0014182932725450767,-0.048217533655310625,-0.010566606963927867,-0.004703971981963928,0.10428135512224448,-1.5791879717875752,0.7032617787274549,0.03535265970741483,0.038365066759519034,-0.7090141313306613,0.11067241763326653,398688592.0,327344387.695992,448743.5047472946,10.50392049228457,-0.015966010741482958,-10.519943150741483,1.3498299543366732,4.710332876440882,0.0,0.0,0.0,39.87141370000001,32.7364368,-284.02832536152306,-173.405818907014,-48.31226345667335,-0.025088602613226454,-10.668375879358717,1.4514096362905813,-0.0081581827715431,-0.3310095134208417,0.4405676771342686,48.46793345667335,0.004749697152304609,0.21296892828456915,-0.0026495159939879764,0.10821009381362727,153170808.48296595,0.0,0.0,0.0,0.0,1.0
153250920.0,-0.007091794124248505,0.5310364027374749,0.028420608723446896,0.11687155197394788,1.0,1514.0,2000.0,1112.5270541082164,1501.966182767535,1497.033817232465,1762.2384769539078,10.45957290731463,10.688845777835672,10.984734594308616,11.0408149549499,11.283364663827655,11.09159907787575,11.335264940380762,66.58960896382766,66.58960896382766,12.087237761242486,-0.0006481637695390782,-0.005899376649298598,-4.0694589178356705e-06,-0.25335085193587176,0.1800695472725451,-0.018478155034068137,2.0,8.408271633955911,9.408271633955911,11.0,0.0,0.0,1.0,0.0,0.0,0.0,0.0,0.0,0.0,0.0,-0.004875815645290581,0.10315733549098197,-1.5790948969519039,-1.5745117318917836,0.14118242936673345,338.1978868895792,30.670520471382765,-0.008217054208416834,0.39324958875951904,0.014004111835671343,0.0,0.159566020745491,0.23224482120040083,-9.374664554294588,2.2e-23,960.6102259591182,12.09151814034068,0.0008892663687374633,-0.005446065444889759,-0.001952387999999991,0.15075525978557114,0.25689575271943904,-9.717591357292585,-0.009334508903807603,-0.026385079689378747,-0.002496641749498996,2.2e-23,48.9070454351503,49.30041202723447,-1.3367539366472947,-0.6048916643406812,10.21977573985972,10.59990658791583,-0.007602613484969942,-0.7574884207935872,-0.1005820347995992,184.34363470921843,447.7961625963928,12.091376476372744,96060.77658340681,1.1413609116452905,-0.23898403548496744,0.16969566899399013,0.13005570163126196,-0.0009978501262525158,-0.039538982689378756,-0.0072066752084168195,-0.00456741221242485,0.10151415657314629,-1.5792843193727455,0.7032729046733467,0.0344212053006012,0.037342155599198394,-0.7091032047074148,0.098680465503006,398688592.0,327344299.7511022,448648.091496994,10.528748869679358,-0.02660689666533065,-10.537677609238477,1.4030343827074148,4.7091567393787575,0.0,0.0,0.0,39.87141370000001,32.7364368,-284.0307022755511,-174.15807908056115,-48.20650575513026,-0.026856133993987973,-10.69622425985972,1.479041150268537,0.004248089258517055,-0.3666061868196393,0.3505860119058118,48.36217575513026,0.005139915749498997,0.20791769751102201,-0.002533110294589179,0.09679682059318634,153250920.43687373,0.0,0.0,0.0,0.0,1.0
153325581.0,-0.004378827192384769,0.5277825989659318,0.02665917812224449,0.11166876161723446,1.0,1514.0,2000.0,1115.3246492985973,1503.1623246492986,1495.8376753507014,1765.0,10.442070369358717,10.670998648256512,10.979741626092185,11.036035933126252,11.278479188757515,11.085751278537074,11.329287246292585,66.2693605593988,66.2693605593988,12.087570283366734,-0.000648083246492986,-0.0059005786953907815,-4.772404809619238e-06,-0.25335763872945893,0.1800910448997996,-0.018555593156312625,2.0,8.413571692170342,9.413571692170342,11.0,0.0,0.0,1.0,0.0,0.0,0.0,0.0,0.0,0.0,0.0,-0.0047295944909819644,0.10345871704008015,-1.5791737205470942,-1.574513904480962,0.1439544137034068,337.42467146853704,30.749887650521043,-0.008204822625250501,0.39425013149499,0.014009221923847695,0.0,0.13322811598997997,0.2231600497294589,-9.554149948605211,2.2e-23,960.6181664166332,12.092183893366734,-0.0011297916753507014,-0.008851214539078157,-0.006684102831663327,0.07929933693787575,0.21271494908016034,-9.739017391957915,-0.015347488490981965,-0.03035269427054108,-0.0039550687755511025,2.2e-23,48.795705226853705,49.25255102476954,-1.322898027012024,-0.7456581153747495,10.21976199284569,10.518375627895791,-0.005972268733466934,-0.7199679004729459,-0.10067672277955911,184.33682407014027,447.6536479222445,12.09206675745491,96062.40769226453,1.1413803002144287,0.01559011676152311,0.4000785463507014,0.06027226527855711,-0.000402832,-0.034040033044088175,-0.006210366052104208,-0.00435435718236473,0.103591388749499,-1.5793607025370742,0.7032063514929859,0.03523420940280561,0.037995527458917835,-0.7090947281683367,0.10270801953306613,398688592.0,327344211.70621246,448552.55221843685,10.55361663276553,-0.037247781931863726,-10.555372690420842,1.4557268896613227,4.707984725773547,0.0,0.0,0.0,39.87141370000001,32.7364368,-284.03391993847697,-174.95965499679357,-48.09124104935872,-0.029925731675350703,-10.727560879098196,1.501086233236473,-0.011586567871743489,-0.3653466054188377,0.24320560044288578,48.24691104935872,0.0054641698857715425,0.2083966953266533,-0.002326348587174349,0.09510382296593187,153325581.28056112,0.0,0.0,0.0,0.0,1.0
153396242.0,-0.003767213557114228,0.5305431219078156,0.026664882937875754,0.11092284341082165,1.0,1513.0,2000.0,1111.8537074148296,1501.3841395591185,1497.6158604408815,1763.8276553106211,10.479770086553104,10.709461029038076,10.959576613046092,11.016234069418838,11.258252948937876,11.072817271082164,11.316079894188377,65.94911215659319,65.94911215659319,12.08790281006012,-0.0006480017234468938,-0.005901780122244489,-5.469919839679358e-06,-0.2533644255230461,0.1801125425270541,-0.018633031440881763,2.0,8.418871750547094,9.418871750547094,11.0,0.0,0.0,1.0,0.0,0.0,0.0,0.0,0.0,0.0,0.0,-0.004583373174348697,0.10376009858917835,-1.5792525435991984,-1.5745160780701402,0.14672639858316633,336.65145599318635,30.829254834228458,-0.00819143421242485,0.39524446818637277,0.014038714440881764,0.0,0.0904999805951904,0.27253065752304606,-9.645245598617235,2.2e-23,960.6338761354712,12.092866400541082,-0.00496776712625251,-0.000147846244488973,-0.00047367885170340767,0.049610346082164414,0.1886669594809619,-9.812871155134268,-0.0022599685470941953,-0.01412183743286574,-0.0031322713587174354,2.2e-23,48.68588242643286,49.200094509338676,-1.3075054581462926,-0.8753791676352705,10.21975208761523,10.44605169244489,-0.004525987975951904,-0.6727417345090181,-0.1007706275230461,184.32586496472948,447.65495018757514,12.092788776533066,96062.40398224449,1.1413802723366733,-0.0857815913707421,0.09189348934869712,0.09346652310621226,0.006628040801603207,-0.026348713254509024,-0.004695021659318636,-0.004238692519038076,0.1015102635751503,-1.5794484091723446,0.7032087416773547,0.03453845599198396,0.03722138516032064,-0.7091667470480962,0.09310557458316633,398688591.70861727,327344120.8931864,448448.8503975952,10.58103544527054,-0.04788866819839679,-10.570517225350702,1.4752590383567135,4.70707980657515,0.0,0.0,0.0,39.87141370000001,32.7364368,-284.0370425727455,-175.71879871162324,-47.981092396052105,-0.032801860891783566,-10.754949936192384,1.516380595246493,0.007487494831663313,-0.344485455476954,0.17366819702605213,48.136762396052106,0.005860502234468937,0.21183054104408816,-0.002108550503006012,0.09934990228456914,153396242.1242485,0.0,0.0,0.0,0.0,1.0
153472883.0,-0.005366070064128256,0.5329419129358718,0.027004818202404808,0.10926773258517035,1.0,1513.0,2000.0,1105.5851703406813,1501.6478735751502,1497.3521264248498,1763.9333631903808,10.516649408857717,10.747035508577154,10.936087316633266,10.993140618537074,11.234665453066132,11.058330631222445,11.30128848537074,65.62886375797595,65.62886375797595,12.08823533256513,-0.0006479206953907815,-0.0059029815490981965,-6.173246492985972e-06,-0.2533712123166333,0.18013404064929858,-0.018710469639278558,2.0,8.424171808342686,9.424171808342686,11.0,0.0,0.0,1.0,0.0,0.0,0.0,0.0,0.0,0.0,0.0,-0.004430282565130261,0.10397104036873747,-1.5793321056032064,-1.5745182566192384,0.1494983833767535,335.88834658657316,30.8979964147495,-0.008179031334669337,0.3962018413667335,0.01406025037274549,0.0,0.03374950084769545,0.2280374596332666,-9.702445165336673,6.0291542923005945,960.6386859202404,12.09356555977956,0.0031802840160320587,0.0036307386232464858,-0.00040236764929860733,0.057019357392785665,0.21885295313627268,-9.861493832775551,-0.002661096585170334,-0.009447185128256512,-0.00642900092384769,6.0291542923005945,48.58156067154308,49.13097788935872,-1.2865420381022044,-0.9650573379298596,10.219756144428857,10.407105997014028,-0.0037469978356713435,-0.590329695743487,-0.10086169625250502,184.29986691903807,447.44878021222445,12.093510549178356,96064.7635352505,1.1414083337935872,-0.2319158225771539,0.012805266088176032,-0.14907148360120331,0.0023761334829659354,-0.018453625396793582,-0.0036549978657314662,-0.004054835408817636,0.10199655260721444,-1.579533812238477,0.7031672516593186,0.03477716345891784,0.03732567957114229,-0.7091913507234469,0.0927108984448898,398688591.401002,327344029.0254509,448342.0867973948,10.609411141543086,-0.05852955346492986,-10.584705068296593,1.4823529975531062,4.706275071711423,0.0,0.0,0.0,39.87141370000001,32.7364368,-284.04093763627253,-176.49069878657318,-47.86866968701403,-0.03588916168336673,-10.780276979298597,1.5268695575611224,0.028083710503006006,-0.34668030699999997,0.10488114471142293,48.02433968701403,0.006113679583166332,0.20880413949498997,-0.001978227675350702,0.09419451339078155,153472882.9278557,0.0,0.0,0.0,0.0,1.0
153549564.0,-0.0032421288276553123,0.533070319470942,0.026874691276553106,0.1025035065731463,1.0,1513.0,2000.0,1108.3346693386773,1502.0,1497.0,1766.0,10.50783660246493,10.73797724490982,10.912598025551102,10.97004716765531,11.211077957094188,11.043843985931863,11.286497081222445,65.37617546330662,65.37617546330662,12.088614775551102,-0.0006478087595190381,-0.005904251741482965,-6.8072745490981965e-06,-0.253377804008016,0.18015691729058114,-0.018791899513026053,2.0,8.429471866138277,9.429471866138277,11.0,0.0,0.0,1.0,0.0,0.0,0.0,0.0,0.0,0.0,0.0,-0.004266519070140281,0.10404146916633267,-1.579412813951904,-1.5745204439799598,0.15227036971342686,335.14093830861725,30.950229636653308,-0.008163359643286574,0.39716157133266533,0.014079130865731463,0.0,0.014268673466933893,0.17761909922645291,-9.753216596496994,9.411881210917832,960.6422266577155,12.094264800300602,-0.0012337817715430822,-0.0015609638496994033,-0.00604719998396794,0.009953915190380802,0.2766921381603207,-9.8610305856493,-0.006019110026052103,-0.007713231561122242,-0.006599950456913823,9.411881210917832,48.47732973781563,49.0615862009018,-1.2654866387254509,-1.0540743594629258,10.219760429438878,10.368711403707415,-0.002979025284569138,-0.5073367014929859,-0.10095271726653306,184.27362047434872,447.39378663927846,12.094231189438878,96065.39334967936,1.141415741725451,0.546942811368738,0.12530121977154396,-0.20433803806613232,-6.136446693386435e-05,-0.007707603701402803,-0.0022816054308617186,-0.003888850254509018,0.10397337264729459,-1.5796045662725453,0.7031050092765532,0.03553797609018036,0.037960422,-0.7091820240521042,0.09702546273346693,398688590.99338675,327343937.2653307,448234.9231310621,10.637786837815632,-0.06831309727655312,-10.600893411823648,1.4903042955390782,4.705525184012024,0.0,0.0,0.0,39.87141370000001,32.7364368,-284.0458577687375,-177.29189848436872,-47.75194406024048,-0.039343797394789576,-10.804205093086173,1.5328558650941884,0.027272074843687367,-0.3759095049478958,0.035039524168336666,47.90761406024048,0.006394249248496994,0.21068329919639278,-0.0018160052044088177,0.09697379507014028,153549563.81162325,0.0,0.0,0.0,0.0,1.0
153625939.0,-0.004681063140280561,0.5322029250541082,0.02658631734468938,0.09955793298597194,1.0,1513.0,2000.0,1095.8374098296592,1501.571142284569,1497.428857715431,1764.824396022044,10.472662154028056,10.702004027575152,10.889108733807614,10.946953716773548,11.187490466172344,11.029357350641282,11.271705672024048,65.51111737973947,65.51111737973947,12.089263436032065,-0.0006475210440881763,-0.005905914615230461,-7.051402805611223e-06,-0.25338327511222447,0.18018770336472945,-0.01889623671543086,2.0,8.434771923933868,9.434771923933868,11.0,0.0,0.0,1.0,0.0,0.0,0.0,0.0,0.0,0.0,0.0,-0.0041027555751503,0.10411189896392786,-1.5794935228056113,-1.5745226318356713,0.1550423556212425,334.3935300306614,31.002462858557113,-0.008144043699398798,0.398117729256513,0.01409875838476954,0.0,0.07994515043086171,0.21141554726052103,-9.817683893440881,1.3363428466773555,960.6561005833668,12.09495071731463,-0.00043004372344689355,0.00563469458717435,-0.006244219739478956,0.014057909326653304,0.24746148011823654,-9.874245481977955,-0.0005382253647294593,0.00047980307014027987,0.0033425292024048085,1.3363428466773555,48.36848678675351,48.98237691795591,-1.251303496260521,-1.1311652013887774,10.219738675671342,10.345081696773548,-0.0025068684509018035,-0.4210437698957916,-0.10104918087775551,184.24193089519036,447.26834500981965,12.094953813667335,96066.83160266533,1.1414328745611222,-0.43147134696993983,0.041434608460921854,-0.07299973824649306,0.00267737614228457,0.0015021223867735457,0.0002742273466933877,-0.003746140615230461,0.10143539256112225,-1.579703328034068,0.7031114290420841,0.03468981335270541,0.037016014813627256,-0.7092671973226453,0.08643494461523045,398688590.3286573,327343846.2841683,448123.9811088176,10.666162534088176,-0.07,-10.635974187895792,1.506352208234469,4.705293265561123,0.0,0.0,0.0,39.87141370000001,32.7364368,-284.05018903186374,-178.04827891402806,-47.642114460621244,-0.04267546901803607,-10.82642255741483,1.5344331017875752,-0.013570043657314627,-0.32775507328657316,0.04780824972344689,47.797784460621244,0.006755155585170341,0.20581955599599197,-0.0016388487895791584,0.08927258328657314,153625939.08617234,0.0,0.0,0.0,0.0,1.0
153700448.0,-0.003701486280561122,0.533375514238477,0.027457090701402804,0.09670771873747494,1.0,1512.7220206613226,2000.0,1098.689378757515,1501.726089683367,1497.273910316633,1765.7815631262524,10.499582226953908,10.729450399378758,10.865619437394791,10.9238602597996,11.1639029652505,11.014870705350702,11.256914262825651,65.70457296438877,65.70457296438877,12.089952723767535,-0.0006472071803607214,-0.005907635789579159,-7.234829659318637e-06,-0.2533885765771543,0.18021968324649298,-0.019004030563126252,2.0,8.440071982729458,9.440071982729458,11.0,0.0,0.0,1.0,0.0,0.0,0.0,0.0,0.0,0.0,0.0,-0.00393899108016032,0.10418232876152304,-1.5795742310501002,-1.5745248193006012,0.15781434138677355,333.64612179178357,31.054696080460925,-0.00812848126252505,0.3990007610460922,0.014124463693386774,0.0,0.027890661615230503,0.20454794387975953,-9.909558650883767,2.2e-23,960.6829859146293,12.095653912124249,-0.00071041933867735,0.0050294903687374765,-0.003005628909819643,-0.017580055629258767,0.2003633036513026,-9.964876813717435,0.0031318011563126235,0.0012516944829659322,-0.000637586140280557,2.2e-23,48.25274480462926,48.88848168981964,-1.2474004306112225,-1.190415906290581,10.219677961382764,10.343538485891782,-0.002477215871743487,-0.32981452614629264,-0.10115378613627254,184.20209879579158,447.12782497875753,12.095691238797595,96068.46785498998,1.1414523171603206,-0.4128790368557114,-0.10393867414428863,0.2421254591342683,-0.0009994586593186359,0.005502111545090181,-0.0014142614068136286,-0.0035427957094188375,0.10395735284368737,-1.5797801786072143,0.7030368648857716,0.03565726629058116,0.037828954735470946,-0.7092506392985972,0.09282068011022045,398688589.61723447,327343755.4897796,448012.251796994,10.694538230360722,-0.07,-10.67499111775551,1.5240870174408818,4.705169263322645,0.0,0.0,0.0,39.87141370000001,32.7364368,-284.0555210817636,-178.83997286072145,-47.527183198637275,-0.045392797192384766,-10.846455019138276,1.5332199353086173,-0.01473916551903809,-0.2863995486452906,0.017618522859719474,47.682853198637275,0.007149181603206412,0.20274935551703407,-0.0015130768977955913,0.08517855109018037,153700447.6252505,0.0,0.0,0.0,0.0,1.0
153774956.0,-0.00361888740280561,0.5303355984689379,0.027479327763527052,0.08693769941883765,1.0,1513.0,2000.0,1096.004008016032,1501.0,1498.0,1766.2364729458918,10.604190027815632,10.836334350581163,10.842130150981964,10.900766808537075,11.140315474328657,11.000384066533067,11.242122853627254,65.89802854903807,65.89802854903807,12.090642021503006,-0.0006468923166332665,-0.005909357963927856,-7.424729458917836e-06,-0.2533938786132265,0.1802516636993988,-0.019111824410821644,2.0,8.445372040525049,9.445372040525049,11.0,0.0,0.0,1.0,0.0,0.0,0.0,0.0,0.0,0.0,0.0,-0.0037752275851703405,0.10425275791182365,-1.5796549398657314,-1.574527006547094,0.1605863277234469,332.89871351002006,31.10692930236473,-0.008116280551102204,0.39983902000200405,0.01415667492184369,0.0,-0.03298906995390785,0.21041837611222447,-9.946261521124248,2.2e-23,960.7017466152305,12.096443932505009,-0.003308614507014027,0.008986664096192396,-0.003943766665330668,-0.01426140294388776,0.22126695844488975,-9.937681379835672,0.0016683960340681326,0.0026049047935871763,-0.001086767044088173,2.2e-23,48.13700281679359,48.794586461683366,-1.2434973646092184,-1.2496666116212425,10.219617247094188,10.341995275010019,-0.002447563511022044,-0.23858528261523038,-0.10125839139478958,184.16226667454913,447.1405946795591,12.096398984028056,96068.28623891783,1.1414501565651303,-0.18081623773346697,0.16297309177555117,0.7358359943086163,0.00019011622244489068,0.00829323390380762,-0.0025281746052104263,-0.0033841243206412823,0.10306985101803608,-1.5798635360641282,0.7030197545991984,0.035399804224448904,0.03745926680360722,-0.7092994509799598,0.08875955715430864,398688589.00581163,327343664.8895792,447900.9024252505,10.721647624228456,-0.06873363804408818,-10.711475271563126,1.5361232003587175,4.7051889875931865,0.0,0.0,0.0,39.87141370000001,32.7364368,-284.0611887242485,-179.63667693747496,-47.41182964408818,-0.04823458844288578,-10.864630535370742,1.530080361527054,0.0035279325070140333,-0.24035683947895786,-0.04027879663527058,47.56749964408818,0.007644213609218437,0.20689946001402806,-0.0012939760821643286,0.09453707617234469,153774956.16432866,0.0,0.0,0.0,0.0,1.0
153845465.0,-0.002876717362725448,0.5333832510841683,0.02762719237074148,0.09577781885771544,1.0,1513.0,2000.0,1086.7194388777555,1501.199263204409,1497.800736795591,1764.943887775551,10.619302735771543,10.851681232945893,10.81864085456914,10.87767335727455,11.116727976553106,10.985897424769538,11.227331444428858,66.09148413368737,66.09148413368737,12.091331319238478,-0.0006465784529058116,-0.0059110801382765525,-7.6116833667334665e-06,-0.25339918064929856,0.18028364383767534,-0.01921961825851703,2.0,8.450672098320641,9.450672098320641,11.0,0.0,0.0,1.0,0.0,0.0,0.0,0.0,0.0,0.0,0.0,-0.003611464090180361,0.10432318735671343,-1.579735648681363,-1.5745291944028057,0.16335831374549098,332.1513052282565,31.159162524268538,-0.008098125024048096,0.4,0.01417663812024048,0.0,-0.04437170251302615,0.2344183456813627,-9.930812236094187,2.2e-23,960.7129964338678,12.097266735330662,-0.0021134213226453057,0.0059778258857715386,-0.00815002213026049,-0.05356373105410819,0.2030627667835673,-9.907408979621243,-0.0032578779278557056,0.004668368763527054,0.002039727282565131,2.2e-23,48.029503977675354,48.70136954062124,-1.235779062701403,-1.2981810261482964,10.219565537134269,10.358493824188377,-0.002778564559118236,-0.16272598775751512,-0.10136368551703408,184.12600418677354,446.90176753567135,12.0971347204008,96071.03589725451,1.1414828997995992,-0.27457128258918007,-0.40440363851703215,-0.17460339309418949,0.0016920497915831846,0.012111466108216425,-0.0015749456753506948,-0.0031950190761523053,0.1025256663226453,-1.579958890486974,0.7029923771082164,0.03527502938476954,0.03719928458517034,-0.7093469456733467,0.0859563575170341,398688588.63146293,327343575.4122245,447791.1399547094,10.743467356332665,-0.06217734411623248,-10.737379291082163,1.5243546906032064,4.705809092216433,0.0,0.0,0.0,39.87141370000001,32.7364368,-284.06628581523046,-180.39318891543087,-47.3031504097996,-0.05213275002404809,-10.88081740747495,1.5250028247414829,0.00995405905010019,-0.16142393409619252,-0.09493983131462917,47.4588204097996,0.008022983885771544,0.1977823962264529,-0.0011176124609218437,0.08177215876152305,153845464.7034068,0.0,0.0,0.0,0.0,1.0
153917761.0,-0.004195513332665331,0.5326775122004007,0.02727546319238477,0.09293931267535069,1.0,1513.0,2000.0,1094.8296593186374,1500.835639234469,1498.164360765531,1766.2765531062125,10.59830756735471,10.830112316673347,10.795151558156313,10.854579906012024,11.09314048248497,10.971410779478958,11.212540035230461,66.28493971833667,66.28493971833667,12.092020609739478,-0.0006462635891783567,-0.00591280231262525,-7.795110220440882e-06,-0.25340448240881763,0.1803156243286573,-0.019327412106212423,2.0,8.455972156116232,9.455972156116232,11.0,0.0,0.0,1.0,0.0,0.0,0.0,0.0,0.0,0.0,0.0,-0.003447700595190381,0.10439361715430862,-1.579816357220441,-1.574531381981964,0.16613029939679358,331.4038970188377,31.211395746172343,-0.008083175368737474,0.4,0.014210710959919841,0.0,0.07070367125250498,0.2601396369138277,-9.912624190462926,2.2e-23,960.7295438036072,12.097960791122246,0.002798466943887772,0.010738296675350702,-0.002975276056112225,-0.06651507559919838,0.20778456889378757,-9.993516906541082,-0.006205415388777554,0.0032335007595190386,-0.0007995254468937868,2.2e-23,47.927485538657315,48.60860359733467,-1.2255242196292586,-1.3395574703787576,10.219519823086173,10.386987351643286,-0.0033493450901803607,-0.09708533079959922,-0.10146943721242485,184.0921149527054,446.76622454088175,12.097842923466933,96072.60548204409,1.141501458256513,0.21077795652705422,0.10897522997194403,0.23644630019438856,-0.0004882825230460925,0.011568912891783566,-0.005123832667334668,-0.0029647468036072145,0.10462065397995991,-1.5800335564188377,0.7029246617975953,0.03610051729458918,0.03785249508416834,-0.7093378692144289,0.09071937923847695,398688588.2553106,327343486.04068136,447681.5388410822,10.764749480561123,-0.055083419290581165,-10.762208028376753,1.5101668428577155,4.706490215228457,0.0,0.0,0.0,39.87141370000001,32.7364368,-284.0720651829659,-181.20165665771546,-47.18863206258517,-0.0553889284468938,-10.896896428517035,1.5177607057995992,0.013303035835671342,-0.12791584340881765,-0.16426430080561125,47.34430206258517,0.008193454981963928,0.20146893377354713,-0.00089981449498998,0.08998549419238477,153917760.81763527,0.0,0.0,0.0,0.0,1.0
153992574.0,-0.0032908814088176376,0.532482850482966,0.027759429591182362,0.08813346361523051,1.0,1513.0,2000.0,1092.3306613226453,1501.7615230460922,1497.2384769539078,1765.7615230460922,10.500958924529058,10.73066054503006,10.771662271743486,10.831486454749498,11.069552991563127,10.956924144188378,11.197748626032064,66.47839530298597,66.47839530298597,12.092709904709418,-0.0006459497254509018,-0.005914523725450902,-7.986152304609218e-06,-0.25340978372144285,0.18034760405811623,-0.019435205953907818,2.0,8.461272213911824,9.461272213911824,11.0,0.0,0.0,1.0,0.0,0.0,0.0,0.0,0.0,0.0,0.0,-0.0032355692565130267,0.10449509963727455,-1.579900841240481,-1.5745336458436874,0.16897905671543084,330.63669444488977,31.25214387549098,-0.008069632593186373,0.4,0.014246378004008017,0.0,0.044954276943887955,0.23379072388977964,-9.99544239052505,2.2e-23,960.7381671921844,12.098644990901803,-0.00075386595791584,0.012057713517034038,-0.006134421452905831,0.004924620132263857,0.12507276300601253,-9.974769952949899,-0.004038666811623255,0.013849121330661289,-0.0007475928917835696,2.2e-23,47.82546710963928,48.515837649579154,-1.215269376557114,-1.3809339136092182,10.219474109038076,10.415480889098196,-0.003920125621242484,-0.031444673841683535,-0.10157518890781564,184.0582257186373,446.6864596068136,12.098572169238476,96073.54305322646,1.1415125819138277,0.4466431461122209,-0.04133857072945797,-0.11859352850100086,-0.0007482476713426873,0.009357790332665369,-0.0062731091703406485,-0.002639573511022045,0.1010261152204409,-1.5801380415591182,0.7029450887134269,0.03494159128056113,0.036472132607214436,-0.709448005242485,0.07723072707615236,398688587.9238477,327343395.29839677,447570.63986372744,10.784949919078157,-0.054478968767535045,-10.783792023346694,1.5035500485450901,4.706605001927856,0.0,0.0,0.0,39.87141370000001,32.7364368,-284.07767388817643,-181.98828623967935,-47.077896885290585,-0.05868408386372745,-10.91151665258517,1.5093662234008016,-0.013890845691382627,-0.18543887354108185,-0.18807823916833674,47.233566885290585,0.008830767645290581,0.19718309820240476,-0.0006150817114228464,0.08587097176352698,153992573.96593186,0.0,0.0,0.0,0.0,1.0
154063812.0,-0.0012213011643286613,0.5337218793987976,0.027902318627254508,0.09157913105410817,1.0,1513.0,2000.0,1087.2044088176353,1501.0,1498.0,1765.4008016032064,10.680390976933868,10.913902980761522,10.748172975330663,10.808393003486975,11.04596549264529,10.942437498897796,11.182957216833668,66.67185088763527,66.67185088763527,12.09339920244489,-0.0006456348617234469,-0.005916245661322646,-8.17196392785571e-06,-0.25341508575751504,0.18037958451102204,-0.01954299980160321,2.0,8.466572272707415,9.466572272707415,11.0,0.0,0.0,1.0,0.0,0.0,0.0,0.0,0.0,0.0,0.0,-0.0029626606693386776,0.10463560356913827,-1.579990070252505,-1.5745360059358717,0.17192428440080157,329.8446186671343,31.27845995276553,-0.008054007298597196,0.4,0.014284593943887775,0.0,-0.019824300302605142,0.19543239413226457,-10.089727959639278,2.2e-23,960.7423269865732,12.099329185450902,-0.0013961176272545106,0.008948693931863722,-0.005020829122244484,-0.12077979409819631,0.19707240234468953,-9.979947977196392,0.0021189268336673233,0.015132908825651326,-0.0009102702585170319,2.2e-23,47.72345496907816,48.41663446817635,-1.2079647048617235,-1.41459276304008,10.219413816573146,10.455540973567135,-0.004722537258517033,0.022319584605210364,-0.10169040087975952,184.02814816833668,446.52419461703414,12.099279405751503,96075.40611671342,1.1415347278877757,0.17120201058316534,-0.14035094171743495,0.007084623314629278,-0.0013697645230460918,0.01610057491182365,-0.005105286965931868,-0.0023418437394789582,0.10454684570140281,-1.5802119700260522,0.7028516687314629,0.03629662540480962,0.03760240945891784,-0.7094138943947896,0.08829416125851704,398688587.54008013,327343301.33847696,447456.8739308617,10.802761064328656,-0.06820884846292584,-10.798208851863727,1.5136566393967936,4.7054688316953905,0.0,0.0,0.0,39.87141370000001,32.7364368,-284.0832932056112,-182.75609797515028,-46.970411210040076,-0.062450452014028046,-10.924457807294589,1.4997991736653307,-0.06709679603006007,-0.28110090408016025,-0.17338950311623247,47.12608121004008,0.009334060551102204,0.18958835087575152,-0.00031239769739478993,0.07766579202004012,154063812.10621244,0.0,0.0,0.0,0.0,1.0
154135498.0,-0.003498344635270541,0.5254736563346694,0.026985361859719437,0.07863390368737475,1.0,1513.0,2000.0,1093.3177853446894,1500.0848479058116,1498.9151520941884,1766.660608701403,10.666326865551104,10.89950701755511,10.724683678917836,10.785299552224448,11.022377999719438,10.927950861983968,11.168165816012024,66.86530647228457,66.86530647228457,12.094088491803607,-0.000645320997995992,-0.0059179678356713426,-8.355390781563125e-06,-0.2534203876312625,0.1804115648016032,-0.019650794649298597,2.0,8.471872330503006,9.471872330503006,11.0,0.0,0.0,1.0,0.0,0.0,0.0,0.0,0.0,0.0,0.0,-0.002689752082164329,0.10477610750100201,-1.580079298264529,-1.574538366028056,0.1748695123246493,329.05254297314633,31.304776038416833,-0.008033916815631263,0.4,0.014312620839679359,0.0,-0.07981393623246494,0.16470915953507015,-10.150150664729459,2.2e-23,960.7444909304609,12.100011744148297,0.0013522500641282565,0.014484120216432866,-0.005773810711422847,-0.07169198272945893,0.1969825614488978,-10.070448079198398,0.010764539246492988,-0.0010366200380761536,-0.0026200716913827656,2.2e-23,47.62144439503006,48.315828531422845,-1.2013945709979958,-1.446330077232465,10.219349890501002,10.49848091468938,-0.0055826206993987975,0.07312684411022044,-0.1018079683026052,183.99901966012024,446.59424320941883,12.099986735931864,96074.60226108217,1.1415251572965932,0.18766297486172348,-0.13793752122244496,0.14256109977354703,-0.0004902841122244503,0.016584747228456913,-0.0034698788537074147,-0.001993697741482966,0.10400196749699399,-1.5802923376733466,0.7028264386012023,0.036227167486973945,0.03728598636472946,-0.70945876848497,0.086185446252505,398688587.2162325,327343207.3831663,447343.016498998,10.820495873106212,-0.0823966963226453,-10.812396703186373,1.5242975248637276,4.704292694633266,0.0,0.0,0.0,39.87141370000001,32.7364368,-284.0901805789579,-183.5728829214429,-46.85667512905812,-0.06760964342084169,-10.936259439519038,1.4885079939539079,-0.10573412760921844,-0.19027560643687375,-0.19511046202404808,47.01234512905811,0.009525537014028057,0.19509563834068136,-2.4897124248496978e-05,0.09068186901803607,154135497.85971943,0.0,0.0,0.0,0.0,1.0
154202006.0,-0.002862876266533073,0.5313961187915831,0.027899961557114227,0.09285850882164329,1.0,1513.0,2000.0,1077.8637274549098,1501.0,1498.0,1762.372745490982,10.623495079899799,10.855672115871744,10.701194392505009,10.762206099719439,10.998790508797596,10.913464218316633,11.153374407194388,67.05876205693387,67.05876205693387,12.094777787915833,-0.0006450061342685371,-0.00591969001002004,-8.54881763527054e-06,-0.2534256888296593,0.1804435444168337,-0.019758588496993988,2.0,8.477172388298596,9.477172388298596,11.0,0.0,0.0,1.0,0.0,0.0,0.0,0.0,0.0,0.0,0.0,-0.0024168434949899805,0.10491661130861724,-1.580168527276553,-1.574540726995992,0.17781473924849703,328.26046719919844,31.331092116072142,-0.008016705559118237,0.4,0.014330004983967937,0.0,-0.16238108815030042,0.16720552157515028,-10.13664666973948,2.2e-23,960.7600413821643,12.100675651783567,0.003612405420841707,0.011576811206412838,-0.0020745857474950076,-0.07136131381763532,0.2401144894228454,-9.97441860772946,0.0028840846432865927,0.010164160729458891,-0.001232966945891787,2.2e-23,47.51869911126252,48.214003815430864,-1.1957364736492986,-1.4773021229799597,10.219286553186373,10.54302646737475,-0.0064748039358717415,0.12326074091182354,-0.10192783807615231,183.97058038837673,446.36319650080173,12.1006941446493,96077.2484288978,1.1415566454448898,-0.31461002027454676,0.2330503773246475,0.11260075602003766,-0.002227981260521037,0.017753536002004005,-0.0038893625931863724,-0.0017232620480961925,0.10289585270340683,-1.5803963068757516,0.7028045326132265,0.03593170091583167,0.03679952409619239,-0.7095210754168337,0.08217158234669342,398688586.6496994,327343114.2160321,447230.9697933868,10.83493841238477,-0.0916461323767535,-10.828230681883769,1.526707726246493,4.703490033052105,0.0,0.0,0.0,39.87141370000001,32.7364368,-284.09674854448895,-184.3473378761523,-46.74950510943888,-0.07224969102204408,-10.944993448797595,1.4756880722905812,-0.10738820888376756,-0.1445078821362726,-0.18451252405811627,46.90517510943888,0.00967705271543086,0.18301692147294593,-7.421042084168214e-06,0.07366361839679363,154202006.3987976,0.0,0.0,0.0,0.0,1.0
154275826.0,-0.0008930240801603235,0.5236958592324649,0.027824541851703407,0.07487365519038078,1.0,1513.0,2000.0,1088.8078371142285,1500.2822087054108,1498.7177912945892,1765.0,10.633353799278558,10.865635376833666,10.677705096092184,10.739112648837676,10.975203007875752,10.898977573026052,11.138582998376753,67.2522176324449,67.2522176324449,12.095467085651302,-0.0006446922705410821,-0.005921412184368737,-8.732244488977956e-06,-0.25343099086573145,0.18047552486973947,-0.01986638234468938,2.0,8.482472446094187,9.482472446094187,11.0,0.0,0.0,1.0,0.0,0.0,0.0,0.0,0.0,0.0,0.0,-0.0021439349078156314,0.10505711527855711,-1.5802577552885773,-1.5745430872124249,0.1807599671723447,327.4683914252505,31.357408193727455,-0.008006449320641283,0.4,0.01435243232264529,0.0,-0.17062722931262528,0.21196928937875745,-10.076623621663327,2.2e-23,960.7665634356713,12.101337698977957,-0.0074754614669338545,0.006536563771543096,-0.0033494733907815663,-0.05914794861523058,0.20877686459519043,-10.01579633993988,0.003715098396793581,0.014530566480961925,-0.0019434777735470921,2.2e-23,47.4037980001002,48.095323006953905,-1.2051682468296594,-1.4956126298276555,10.219233105310622,10.61413720985972,-0.007898082132264528,0.16225368982765528,-0.10208578856112224,183.9535458468938,446.1427935893788,12.101376296593186,96079.77093707415,1.1415867000841684,0.0037082766492986946,0.20610115462525014,0.10003397862324606,0.000512065122244484,0.024209106092184376,-0.0048042847294589115,-0.001490766226452906,0.10498545035470941,-1.5804718569218434,0.7027359042264529,0.0367561716252505,0.03744986456513026,-0.7095128524609218,0.08896389616232463,398688585.9344689,327343021.99499,447121.0139669338,10.845579299879759,-0.09519309413226452,-10.845965490661323,1.519613802735471,4.703118630358717,0.0,0.0,0.0,39.87141370000001,32.7364368,-284.1039465088176,-185.12967680240482,-46.642412163887776,-0.07717966883767534,-10.95254993038076,1.4619829756773548,-0.0938108058196393,-0.11871757255711425,-0.19344077452304606,46.79808216388778,0.010151755304609218,0.18869765170941882,0.00031507110020040065,0.08659713731863727,154275825.55911824,0.0,0.0,0.0,0.0,1.0
154355586.0,-0.0016750250360721424,0.5254277147034069,0.028503564084168338,0.08151169078156312,1.0,1513.0,2000.0,1088.6152304609218,1500.0,1499.0,1763.9519038076153,10.694678591863727,10.928415861462925,10.651232653186373,10.71278849781563,10.94828294254509,10.874580805691382,11.113632324368737,67.44567321671343,67.44567321671343,12.096156383386774,-0.0006443774549098197,-0.005923133358717435,-8.91567134268537e-06,-0.2534362929018036,0.1805075052745491,-0.01997417619238477,2.0,8.487772504841683,9.487772504841683,11.0,0.0,0.0,1.0,0.0,0.0,0.0,0.0,0.0,0.0,0.0,-0.0018710263206412826,0.10519761924849699,-1.580346984300601,-1.5745454473046094,0.18370519409619238,326.6763156513026,31.383724271863727,-0.007990916032064128,0.4,0.014376992222444889,0.0,-0.11982143584969937,0.28201703722645294,-10.032874538216433,2.2e-23,960.7777214092184,12.102039129478957,-0.001820805038076153,0.013560536667334673,-0.002052082743486975,-0.07897256634268536,0.21573318594388777,-10.000927341931865,0.008632709146292586,0.012613657068136271,-0.003923005244488979,2.2e-23,47.28817101052104,47.97563567016032,-1.2155010900661323,-1.5131670699038078,10.219180247615231,10.686834255270542,-0.009353073887775553,0.20058137385571143,-0.10224601386973949,183.93719232384768,446.3008263274549,12.102078840821644,96077.99146933868,1.1415654629458918,0.05252989242084169,-0.4407270880140287,0.020183346274549263,0.0034370410360721453,0.025658154046092188,-0.007999119765531063,-0.0012166595811623246,0.10062399346492985,-1.5805832518176355,0.7027691867815631,0.03530701738076152,0.03581820538677355,-0.7096375469619238,0.07447716088777553,398688585.21923846,327342929.7739479,447011.0581280561,10.856220177855711,-0.09874005488777556,-10.863700299438877,1.512519878272545,4.702747228617234,0.0,0.0,0.0,39.87141370000001,32.7364368,-284.11245342424854,-185.95230074108215,-46.53133357519038,-0.08296144713226453,-10.959867511162324,1.4476105085290583,-0.0756111233026052,-0.09255068681362724,-0.25586309378156313,46.68700357519038,0.010506189673346693,0.1869506210320642,0.0005880603266533068,0.08698867378757516,154355586.03206414,0.0,0.0,0.0,0.0,1.0
154433492.0,-0.0005610339178356758,0.526831456002004,0.028475806993987975,0.09084504794589172,1.0,1514.0,2000.0,1080.0973441182366,1501.0035818737474,1497.9964181262526,1762.0268410420842,10.596724805370743,10.828145923967936,10.623690876913827,10.685306294028056,10.920168303346694,10.846631699519039,11.085040011843686,67.63912880098196,67.63912880098196,12.096845671122244,-0.0006440635430861722,-0.005924855533066133,-9.109098196392785e-06,-0.25344159492785573,0.18053948576553105,-0.02008197004008016,2.0,8.49307256268537,9.49307256268537,11.0,0.0,0.0,1.0,0.0,0.0,0.0,0.0,0.0,0.0,0.0,-0.0015981167334669342,0.10533812222845691,-1.5804362123126254,-1.5745478073967936,0.18665042202004006,325.88423987735473,31.410040349138278,-0.007971582793587175,0.4,0.01441326651503006,0.0,-0.02881423714428874,0.35707370394388765,-10.105045653687375,2.2e-23,960.8191578172346,12.102854035470942,0.0008400432244488757,0.006606451430861744,0.0008242512244488621,-0.16198633557314607,0.1783452700501004,-10.010215178496994,0.008370449488977956,0.007798395941883776,-0.005584020513026049,2.2e-23,47.17500479432866,47.85843919224449,-1.2263067468276552,-1.5277178296132266,10.219133428797596,10.753584916753507,-0.01068901957314629,0.23357632796993982,-0.10240659762725451,183.92372043446895,445.97392270280557,12.102756003346693,96081.71763553107,1.1416097911663325,0.24005295013426575,0.16259107676953705,0.13998535316833516,-0.004302788370741462,0.018111822118236497,-0.0032505137655310717,-0.000932495557114229,0.10434446846492985,-1.580659604232465,0.7026707911623247,0.03672839288376753,0.0370231597755511,-0.7096012801042083,0.08710817801002005,398688584.504008,327342838.4468938,446906.819892986,10.866860836673347,-0.10228701763326653,-10.872287021623247,1.4985648639639277,4.702375780312625,0.0,0.0,0.0,39.87141370000001,32.7364368,-284.1199888701403,-186.7145753511022,-46.42959901621243,-0.08633405572144288,-10.96561429226453,1.4356996091523044,-0.065116940496994,-0.0665565013346694,-0.18733612555310633,46.58526901621243,0.010406329509018037,0.18102434375751505,0.0007247850200400799,0.08010743823647298,154433491.93587175,0.0,0.0,0.0,0.0,1.0
