timestamp,control[0],control[1],control[2],control[3],control[4],output[2],output[3],output[4],output[5],output[6],output[7],indicated_airspeed_m_s,true_airspeed_m_s,indicated_airspeed_m_s.1,equivalent_airspeed_m_s,true_airspeed_m_s.1,equivalent_ground_minus_wind_m_s,true_ground_minus_wind_m_s,differential_pressure_raw_pa,differential_pressure_filtered_pa,temperature,gyro_bias[0],gyro_bias[1],gyro_bias[2],accel_bias[0],accel_bias[1],accel_bias[2],instance_count,seq_reached,seq_current,seq_total,item_changed_index,item_do_jump_remaining,valid,warning,finished,failure,stay_in_failsafe,flight_termination,item_do_jump_changed,execution_mode,nav_roll,nav_pitch,nav_bearing,target_bearing,xtrack_error,wp_dist,acceptance_radius,rollspeed_integ,pitchspeed_integ,yawspeed_integ,additional_integ1,x,y,z,temperature.1,pressure,temperature.2,gyro_rad[0],gyro_rad[1],gyro_rad[2],accelerometer_m_s2[0],accelerometer_m_s2[1],accelerometer_m_s2[2],x.1,y.1,z.1,temperature.3,altitude_sp,altitude_filtered,height_rate_setpoint,height_rate,airspeed_sp,airspeed_filtered,airspeed_derivative_sp,airspeed_derivative,throttle_integ,pitch_integ,baro_alt_meter,baro_temp_celcius,baro_pressure_pa,rho,xyz[0],xyz[1],xyz[2],xyz[0].1,xyz[1].1,xyz[2].1,roll_body,pitch_body,yaw_body,q_d[0],q_d[1],q_d[2],q_d[3],thrust_body[0],lat,lon,alt,vel_m_s,vel_n_m_s,vel_e_m_s,vel_d_m_s,cog_rad,ground_contact,maybe_landed,landed,ref_lat,ref_lon,x.2,y.2,z.2,vx,vy,vz,ax,ay,az,dist_bottom,roll,pitch,yaw,thrust_body[0].1,timestamp.1,isTakeoff,isClimbing,isDescending,isCruise,isLand
11000000.0,0.0,0.0,0.0,0.499,0.5,900.0,900.0,900.0,900.0,900.0,900.0,0.5082251,0.5181503,-0.56263644,-0.56263644,-0.57362753,0.00632658,0.006450169,-1.5566508999999995,-1.5566508999999995,12.404602,-0.001098333,-0.005625865,0.000305705,0.022832666,-0.003108851,-0.12788434,2.0,-1.0,0.0,11.0,0.0,0.0,1.0,0.0,0.0,0.0,0.0,0.0,0.0,0.0,0.0,-0.21367326,1.5681937,1.5737086999999998,0.38801226,289.4084,56.442413,-0.000694591,-0.005342311,0.0,-0.002712255,-0.20456378,0.26723784,-9.9781,2.2e-23,966.16614,12.404602,-0.001135136,-0.004566953,0.000300673,-0.23818748,0.23783849,-9.947128,-0.008985428,-0.003993453,-0.003362001,2.2e-23,-0.13363013,-0.14563012,0.40059984,-0.29808116,13.254077,19.374346,-0.12240537,17.872906,0.10999999,-17.95601,399.6394,12.404602,96616.05,1.1479585,0.07420397,-0.28579944,-0.29865086,0.002070154,0.008815868000000001,-0.002720823,0.0,-0.1965777,1.6137167,0.6884316999999999,0.07086186,-0.0678839,0.71863216,1.0,398714138.0,327364367.0,400122.0,0.0,0.0,-0.01,0.01,4.9258422999999985,0.0,0.0,1.0,39.87141370000001,32.7364368,0.017624693,-0.003111071,-0.016309861000000002,0.011475187,0.015912983999999998,-0.018895628,0.06507177,0.027758213,-0.061704773,0.10959534,-0.06477046,-0.33195165,-0.0058768990000000005,1.0,11000000.0,1.0,0.0,0.0,0.0,0.0
11027259.0,0.0,0.0,0.0,0.499,0.5,900.0,900.0,900.0,900.0,900.0,900.0,0.05652223635270548,0.05762403753507017,-0.5101482879458918,-0.5101482879458918,-0.5201141353707415,0.010562791943887775,0.010769122567134269,3.8198910953607212,3.8198910953607212,12.404601224649298,-0.0010687994529058116,-0.005653463827655311,0.00038693834669338675,0.02282558324448898,-0.0029862943867735472,-0.12787393128256513,2.0,-1.0,0.0,11.0,0.0,0.0,1.0,0.0,0.0,0.0,0.0,0.0,0.0,0.0,0.0,-0.20611568410821646,1.5682786206513026,1.573714382004008,0.38571359898797597,288.8721101082165,56.91931270310621,-0.0008532987054108217,-0.005730337452905811,0.0,-0.0029354045891783567,-0.17640510890781563,0.2511861867234469,-9.987051701803608,3.219924081242485,966.1640167094189,12.404602,-0.002119279867735471,-0.005205504773547094,-0.0016773344148296593,-0.18277484992985973,0.19667586223446895,-9.900070804368738,-0.008024699723446894,-0.002798093360721443,-0.0036719957194388778,3.219924081242485,-0.1347537784769539,-0.14675376847695393,0.40059984,-0.29597541940881766,13.254068792985972,19.84222291042084,-0.13176307468937876,17.480082913126253,0.10999999,-18.460761397494988,399.62860243687373,12.404602,96616.13590300601,1.1479595357515031,-0.33263870689378755,0.05452347468937874,0.10319993060120236,-7.706858517034058e-05,0.004673183100200401,-0.0023036170280561125,0.0,-0.18780087196392783,1.6137167,0.6887195291983967,0.06770720084168337,-0.06486181118236474,0.7189326113226453,1.0,398714138.0,327364367.14629257,400121.8727254509,0.0,0.0,-0.008726999959919839,0.008726999959919839,4.433846006713426,0.0,0.0,0.9739547110921843,39.87141370000001,32.7364368,0.01784971513426854,-0.0031470297174348697,-0.014651018655310622,0.011342052701402806,0.016206993328657316,-0.017874039813627257,0.04691219344689379,0.010239112699398801,-0.058820302348697395,0.10907452596192385,-0.07834166032064128,-0.3093179071042084,-0.0058768990000000005,1.0,11027258.69739479,1.0,0.0,0.0,0.0,0.0
11055783.0,0.0029401929979959913,0.004494038801603205,0.00012458954909819636,0.42589697941282567,0.4985350095731463,900.0,900.0,900.0,900.0,900.0,900.0,0.39005823099398784,0.39767781461723434,-0.4576601363547094,-0.4576601363547094,-0.46660074027855714,0.01479900388777555,0.015088075671342686,9.196433091647293,9.196433091647293,12.404600449298597,-0.0010392659058116233,-0.005681062192384769,0.0004681721563126252,0.022818500488977957,-0.0028637373106212426,-0.12786352256513026,2.0,-1.0,0.0,11.0,0.0,0.0,1.0,0.0,0.0,0.0,0.0,0.0,0.0,0.0,0.0,-0.19855810775350702,1.5683635408396792,1.5737200635450903,0.3834149379759519,288.3358201701403,57.39621240621242,-0.0010125924749498998,-0.006080865060120241,0.0,-0.003091153100200401,-0.14824643781563127,0.23513453298396794,-9.996003403607215,6.439848162484971,966.1618933725451,12.404602,0.0001584689358717431,-0.0001751526713426859,-0.00037730832264529094,-0.15744668447494992,0.18244106093787577,-9.922483264118236,-0.007063971909819639,-0.001602733258517034,-0.003981990438877756,6.439848162484971,-0.13587742741683367,-0.1478774174168337,0.40059984,-0.29386967881763526,13.254060590601203,20.310099820841685,-0.1411207793787575,17.087259826252506,0.10999999,-18.96551279498998,399.6074082997996,12.404602,96616.37850178358,1.1479623829318637,-0.21533232302004013,-0.07555874884569136,0.1644855361683367,0.001487680234468938,0.0035711687915831666,-0.00399059422244489,0.0,-0.17918140584969938,1.6137167,0.6889923285831663,0.06460814370741483,-0.06189299077955913,0.7192173902905812,1.0,398714138.0,327364367.2462926,400121.74540460925,0.0,0.0,-0.0074539999198396795,0.0074539999198396795,3.9418497138897797,0.0,0.0,0.9479094217214429,39.87141370000001,32.7364368,0.018074737268537075,-0.0031829884348697395,-0.012992175847695391,0.011208918402805612,0.01650100312024048,-0.01685245162725451,0.028752616893787577,-0.00727998713827655,-0.05593583169739479,0.10855371192384769,-0.09052069446893787,-0.2930831702024048,-0.0058768990000000005,1.0,11055783.034068136,1.0,0.0,0.0,0.0,0.0
11083609.0,0.010896586018036069,0.014071208096192382,-0.000682955573146292,0.30394007301402814,0.4809766976232465,900.0,900.0,900.0,900.0,900.0,900.0,0.5764385845190383,0.5877002118777558,-0.40517198483767536,-0.40517198483767536,-0.41308734511222445,0.019035216026052106,0.019407028701402804,14.572975088276552,14.572975088276552,12.404599672004007,-0.0010097323587174348,-0.005708660482965931,0.0005494060400801603,0.022811417927855713,-0.0027411801603206415,-0.1278531138476954,2.0,-1.0,0.0,11.0,0.0,0.0,1.0,0.0,0.0,0.0,0.0,0.0,0.0,0.0,0.0,-0.1910005313246493,1.5684484609539078,1.5737257450120241,0.38111627696392786,287.7995302246493,57.87311210931863,-0.0011769028176352705,-0.006407190014028057,0.0,-0.0031804061903807617,-0.12318938060120241,0.21992386839278558,-10.00333982991984,9.3481679706493,966.1599046619239,12.404602,0.003219091130260521,0.002628027663326656,0.0023962989599198396,-0.15340145867334667,0.17593812104208417,-9.956174133158317,-0.006112253507014029,-0.0005788745250501002,-0.004328324196392785,9.3481679706493,-0.1370010764308617,-0.14900106643086172,0.40059984,-0.2917639382264529,13.254052388957914,20.777976733206412,-0.15047848426252503,16.694436739378755,0.10999999,-19.47026419248497,399.5893153234469,12.404602,96616.60516549098,1.1479650455571142,0.1462768013326653,-0.3448626001883768,0.012612709210420868,0.0026062551943887794,0.0042790210380761525,-0.005622550911823648,0.0,-0.17072922909218438,1.6137167,0.6892493493687375,0.06156824649498999,-0.058980845260521046,0.719485691745491,1.0,398714138.0,327364367.33887774,400121.6180763527,0.0,0.0,-0.006180999879759519,0.006180999879759519,3.449853421140281,0.0,0.0,0.9218641322765531,39.87141370000001,32.7364368,0.018292115841683367,-0.003229663611222445,-0.011334499492985973,0.011107412713426853,0.016802387901803606,-0.0158828239498998,0.01146640093186373,-0.023017078713426852,-0.05262210397194389,0.10797293439078155,-0.10137601178757515,-0.281061022749499,-0.0058768990000000005,1.0,11083609.488977956,1.0,0.0,0.0,0.0,0.0
11107479.0,0.027999884024048093,0.03048983412825651,-0.0042655644308617225,0.16416861368537078,0.4213023231643287,900.0,900.0,900.0,900.0,900.0,900.0,-0.9022682806412824,-0.919897466829659,-0.3526838327835672,-0.3526838327835672,-0.359573950482966,0.023271428701402808,0.023725982268537074,19.949517084368736,19.949517084368736,12.404598889338677,-0.0009801988116232465,-0.005736259310621242,0.0006306393867735471,0.022804335903807618,-0.002618623547094188,-0.12784270513026053,2.0,-1.0,0.0,11.0,0.0,0.0,1.0,0.0,0.0,0.0,0.0,0.0,0.0,0.0,0.0,-0.18344295543286573,1.5685333816052103,1.5737314270160323,0.37881761595190383,287.26324033286573,58.35001181242485,-0.0013541340901803605,-0.006726745685370741,0.0,-0.0031939645871743487,-0.10670173080160322,0.20703676219038078,-10.006213433226453,11.395560508865731,966.1582879825652,12.404602,0.0032148245070140282,-0.009807843448897794,0.003987495613226453,-0.15994180589779552,0.14763984805611222,-9.909686017877755,-0.005185426342685371,-2.88553667334671e-05,-0.00477505859519038,11.395560508865731,-0.13812472490781563,-0.15012471490781562,0.40059984,-0.28965819763527056,13.254044181943888,21.245853650941882,-0.15983618968336674,16.301613652505008,0.10999999,-19.975015589979957,399.5964532312625,12.404602,96616.53666398798,1.1479642950761522,0.34280595011022036,-0.2448953849178357,-0.18236429571943885,-0.003457124074148295,0.00511400571743487,-0.003730089549098197,0.0,-0.16248704778957918,1.6137167,0.6894868641583166,0.058602687326653316,-0.05613991201402806,0.719733585993988,1.0,398714138.0,327364367.48517036,400121.4908018036,0.0,0.0,-0.004907999839679359,0.004907999839679359,2.957857127853708,0.0,0.0,0.8958188433687374,39.87141370000001,32.7364368,0.01848837612224449,-0.003305947148296593,-0.009680046657314631,0.011093293284569138,0.01712414820240481,-0.015056757266533067,-0.003406818757515029,-0.03383068428456913,-0.048122387629258516,0.10722648452104208,-0.1108052930501002,-0.27042200933266536,-0.0058768990000000005,1.0,11107479.318637274,1.0,0.0,0.0,0.0,0.0
11138271.0,0.029355701549098195,0.03135034150701403,-0.004738171941883767,0.15,0.34432134355911825,900.0,900.0,900.0,900.0,900.0,900.0,-0.3176188569679361,-0.32382493739278584,-0.30019568138677355,-0.30019568138677355,-0.30606055585370745,0.027507640719438876,0.02804493517835671,25.326059080460922,25.326059080460922,12.404598113246493,-0.0009506659218436875,-0.005763858138276554,0.0007118733907815632,0.022797253222444892,-0.0024960669338677357,-0.12783229641282565,2.0,-1.0,0.0,11.0,0.0,0.0,1.0,0.0,0.0,0.0,0.0,0.0,0.0,0.0,0.0,-0.17588537888376754,1.568618302256513,1.5737371083627254,0.37651895493987975,286.7269504410822,58.826911515531066,-0.0015046054268537073,-0.006974575841683366,0.0,-0.0031286715210420844,-0.13732859455711421,0.2069245539759519,-9.984550470681363,8.70958359244489,966.1587166034068,12.404602,0.0002527649699398805,-0.0031798661763527084,0.004017992018036072,-0.20656871847695385,0.1961957480561122,-9.943435870821643,-0.004395452741482966,-0.0020841888496993984,-0.005773793330661322,8.70958359244489,-0.13924837404208418,-0.15124836404208417,0.40059984,-0.2875524570440882,13.254035981503005,21.713730562104207,-0.16919389444689378,15.908790559058117,0.10999999,-20.47976698747495,399.6131235815631,12.404602,96616.33666012024,1.1479619361462927,-0.09129879170941868,0.06967801499398785,0.1870089715591181,0.0003606879358717414,0.006896623150300601,-0.001961766655310622,0.0,-0.15443086417835672,1.6137167,0.6897061963106211,0.055702970050100206,-0.05336205599398798,0.7199625771883768,1.0,398714138.0,327364367.63146293,400121.3635272545,0.0,0.0,-0.003634999799599199,0.003634999799599199,2.4658608345671347,0.0,0.0,0.8697735538036072,39.87141370000001,32.7364368,0.01856975818236473,-0.003543299062124248,-0.008043129661322646,0.01155454511022044,0.017556748839679358,-0.015011647408817635,-0.005153612539078156,-0.017861085703406818,-0.037171024344689385,0.10557879253507013,-0.12163982293787574,-0.2515839693987976,-0.0058768990000000005,1.0,11138271.328657314,1.0,0.0,0.0,0.0,0.0
11166321.0,0.029343024094188378,0.03104052465531062,-0.004560235072144289,0.15,0.27419719748496996,900.0,900.0,900.0,900.0,900.0,900.0,0.2539680196432864,0.2589299313607213,-0.2477075296753507,-0.2477075296753507,-0.2525471612244489,0.031743852663326654,0.03236388840280561,30.702601076553105,30.702601076553105,12.404597337895792,-0.0009211327174348697,-0.005791456965931864,0.0007931070801603206,0.02279017046693387,-0.0023735103206412827,-0.12782188730661323,2.0,-1.0,0.0,11.0,0.0,0.0,1.0,0.0,0.0,0.0,0.0,0.0,0.0,0.0,0.0,-0.16832780264929859,1.568703222519038,1.573742790024048,0.37422029392785566,286.19066051042086,59.30381121863728,-0.0016573034989979959,-0.007213149843687375,0.0,-0.003010523769539078,-0.1732702052685371,0.20825341695991983,-9.960119664206413,5.489659511545091,966.1593759440882,12.404602,-0.0022915113907815625,-0.0014183955831663314,0.0031411661783567143,-0.1997709085190381,0.20254972077755512,-9.984698090891785,-0.0036209165010020043,-0.004433401324649298,-0.0068347963967935865,5.489659511545091,-0.14037202286172346,-0.15237201286172344,0.40059984,-0.2854467164529058,13.254027777915832,22.18160747252505,-0.17855159913627255,15.515967468757516,0.10999999,-20.98451838496994,399.6253307905812,12.404602,96616.18581104207,1.1479601286212424,-0.07457562570140297,-0.00014080388977941172,0.35747889518436876,0.0016520930961923855,0.009447909503006011,-0.0002458440240480969,0.0,-0.14650092431462927,1.6137167,0.6899123633887775,0.05284791561923848,-0.05062698573346694,0.7201778139098197,1.0,398714138.0,327364367.7777555,400121.2362138277,0.0,0.0,-0.0023619997595190384,0.0023619997595190384,1.9738645412805615,0.0,0.0,0.8437282645531062,39.87141370000001,32.7364368,0.018638181807615232,-0.003798819885771543,-0.006408190404809619,0.01206942113226453,0.018001853196392786,-0.015054632901803608,-0.005419681835671343,0.0011297893446893716,-0.025491884202404815,0.10382943604208417,-0.1317048795290581,-0.2345607197194389,-0.0058768990000000005,1.0,11166321.092184369,1.0,0.0,0.0,0.0,0.0
11192026.0,0.029461794975951906,0.031202970136272545,-0.004192697456913828,0.15,0.2099351817635271,900.0,900.0,900.0,900.0,900.0,900.0,0.3373045693326659,0.34389496453707474,-0.19521937774148299,-0.19521937774148299,-0.19903376647494994,0.035980064607214424,0.036682841849699395,36.079143071442886,36.079143071442886,12.40459656254509,-0.0008915991703406813,-0.005819055673346694,0.0008743404268537074,0.022783087711422848,-0.0022509535871743486,-0.12781147797795592,2.0,-1.0,0.0,11.0,0.0,0.0,1.0,0.0,0.0,0.0,0.0,0.0,0.0,0.0,0.0,-0.16077022675751504,1.5687881425591184,1.5737484719078156,0.37192163291583163,285.65437055751505,59.780710921743484,-0.0018154036392785571,-0.007453038981963929,0.0,-0.0028426712244488976,0.5195380523166313,0.20850626950501003,-9.93656959314429,2.4624803413647305,966.1601201144289,12.404602,-0.003917522002004008,-0.0050532754629258525,0.001704989334669339,-0.1458256740200401,0.1703615345250501,-10.014511463266533,-0.002889426611222445,-0.006664136975951904,-0.007704304352705411,2.4624803413647305,-0.14140953334268536,-0.15340952346292586,0.4005998431262525,-0.2826149619138276,13.25401962741483,22.640452760901805,-0.18772867015831662,15.119409813547094,0.10999999,-21.515935480260524,399.62926973146295,12.404602,96616.13568519038,1.1479595014068136,0.3308820749799599,-0.28183360481162345,0.2629290323687376,0.0002084602404809615,0.011426993320641284,0.0010685590220440885,0.0,-0.13869020255110223,1.6137167,0.6901058787695391,0.05003504126052104,-0.04793232246693387,0.7203798221462926,1.0,398714138.0,327364367.912024,400121.10356352705,0.00324257230460921,0.00010631386773547066,0.002100415711422836,0.0011421565931863734,1.5048786322825654,0.0,0.0,0.8176829755250501,39.87141370000001,32.7364368,0.01870912709819639,-0.004039731629258517,-0.0048196880400801605,0.012516424288577153,0.018382212004008018,-0.015048817010020041,-0.005667409871743486,0.01759227964529058,-0.013965210775551108,0.10217230784569138,-0.14066372914829658,-0.22005242793587176,-0.0058768990000000005,1.0,11192026.32264529,1.0,0.0,0.0,0.0,0.0
11221599.0,0.02842110682965932,0.031146201298597194,-0.004204307236472946,0.15,0.13600164415831667,900.0,900.0,900.0,900.0,900.0,900.0,-0.9598632954769533,-0.9786175135290575,-0.1427312264188377,-0.1427312264188377,-0.1455203711142285,0.0402162765511022,0.04100179468537074,41.45568506022043,41.45568506022043,12.404595787194388,-0.000862065623246493,-0.0058466537695390786,0.0009555737735470941,0.022776004955911824,-0.00212839624248497,-0.12780106926052107,2.0,-1.0,0.0,11.0,0.0,0.0,1.0,0.0,0.0,0.0,0.0,0.0,0.0,0.0,0.0,-0.15321265086573146,1.5688730632104209,1.5737541531803607,0.3696229719038076,285.1180806657315,60.2576106248497,-0.0019774614448897798,-0.00770483412224449,0.0,-0.002619122256513026,4.91682480707615,0.2032894005771543,-9.917496592022045,0.4150878024168345,966.1612955022044,12.404602,-0.004242621430861723,-0.004678733529058117,0.000702013953907816,-0.11185433330861724,0.17018890488577157,-9.993021682304608,-0.0023767574128256514,-0.008292693829659317,-0.007600378831663327,0.4150878024168345,-0.14200917567735472,-0.15400916652905813,0.4005998621442886,-0.2760926364729459,13.254011764188377,23.053387303887774,-0.19598752003807615,14.70386810262525,0.10999999,-22.18290320601202,399.61599426452904,12.404602,96616.31085593186,1.1479615904649298,0.37364736069138277,0.19025310150100172,-0.00233846272144278,0.0011760767034068131,0.007532201937875754,0.0005139477394789583,0.0,-0.13101386048697394,1.6137167,0.6902848794509019,0.04726974201202404,-0.045283234390781565,0.7205666604529057,1.0,398714138.0,327364367.98517036,400120.94395831664,0.022968220490981954,0.0007530565631262522,0.02277569295591181,0.00019252753507014082,1.1528621767515033,0.0,0.0,0.7916376858857715,39.87141370000001,32.7364368,0.01879288911222445,-0.004206382290581162,-0.0034672416172344695,0.012618407044088177,0.018433445861723446,-0.014794929154308618,-0.0058219014248497,0.021202145737474948,-0.003213574743486979,0.1009840068236473,-0.14815738688376753,-0.20605290121242487,-0.0058768990000000005,1.0,11221599.368737474,1.0,0.0,0.0,0.0,0.0
11246995.0,0.029368661312625253,0.03118196754509018,-0.004526632120240481,0.15,0.07251357487975957,900.0,900.0,900.0,900.0,900.0,900.0,-0.8520714141503009,-0.8687192427374753,-0.09024307451302609,-0.09024307451302609,-0.09200697633667337,0.04445248907815631,0.045320748104208414,46.83222705482966,46.83222705482966,12.404595006012023,-0.0008325320761523046,-0.005874252448897796,0.0010368077034068135,0.022768922783567135,-0.002005839480961924,-0.1277906605430862,2.0,-1.0,0.0,11.0,0.0,0.0,1.0,0.0,0.0,0.0,0.0,0.0,0.0,0.0,0.0,-0.14565507439078157,1.5689579838617234,1.5737598350360722,0.3673243108917836,284.5817907739479,60.73451032795591,-0.002125594404809619,-0.007938672404809619,0.0,-0.0023979870140280564,15.485697911126245,0.18896008650300603,-9.90588229762525,2.2e-23,966.1631894092185,12.404602,-0.0014763415511022063,-0.008161439166332662,0.0038698336873747474,-0.17173967979959914,0.19041902353507012,-9.926414083346693,-0.0022286389018036073,-0.00891803080761523,-0.005874733637274551,2.2e-23,-0.14160259308016032,-0.15360258641282565,0.40059991673547096,-0.2610893644609219,13.254004548276553,23.360818793827658,-0.20213629334468936,14.244700960501001,0.10999999,-23.16136673823647,399.5957020236473,12.404602,96616.54254715431,1.1479643064268537,0.02747797792384793,0.35104102525250497,0.2932246167855709,0.0013220940300601202,0.005009171725450903,-0.0020357426312625233,0.0,-0.12345174496192385,1.6137167,0.6904500462605211,0.04454483636272545,-0.04267284348296593,0.7207390636432865,1.0,398714138.0,327364368.11663324,400120.7085997996,0.08887704991983963,0.0029140017214428844,0.08887704991983963,0.0,1.1285771064128256,0.0,0.0,0.7655923968296593,39.87141370000001,32.7364368,0.01889771567735471,-0.0042509960661322645,-0.0025027127735470947,0.012153406332665331,0.01794381860521042,-0.014133377124248498,-0.005823175354709419,0.0036908830961923968,0.00626441785370741,0.10056614375551103,-0.15673641746893788,-0.19304491121042086,-0.0058768990000000005,1.0,11246994.611222444,1.0,0.0,0.0,0.0,0.0
11272251.0,0.027756743454909825,0.03121014286773547,-0.0030092527014028087,0.10280561122244496,0.02593974939078158,900.0,900.0,900.0,900.0,900.0,900.0,-0.27645320663527095,-0.2818538484348702,-0.03775492245891787,-0.03775492245891787,-0.03849358170741486,0.048688701438877754,0.04963970167134268,52.208769050921845,52.208769050921845,12.404594226492986,-0.0008029985290581162,-0.005901851276553106,0.0011180414669338676,0.02276184044488978,-0.001883282867735471,-0.1277802518256513,2.0,-1.0,0.0,11.0,0.0,0.0,1.0,0.0,0.0,0.0,0.0,0.0,0.0,0.0,0.0,-0.13809749808216432,1.5690429041983966,1.573765516725451,0.3650256498797595,284.0455008507014,61.21141003106212,-0.0022726778877755513,-0.008163213258517033,0.0,-0.002189842142284569,27.62397784967935,0.17231351833667335,-9.896164719342686,2.2e-23,966.165266001002,12.404602,0.0008358572945891779,-0.006478414905811629,0.004582443651302608,-0.21768001533066134,0.21095896078957915,-9.88742139967535,-0.0021732240020040077,-0.00928825376753507,-0.0037366923747495003,2.2e-23,-0.14094013229258517,-0.15294012823647293,0.40059998068737473,-0.24392942593787578,13.253997500120242,23.641421325551107,-0.2077484836052104,13.774440066112225,0.10999999,-24.21904226563126,399.60962271683366,12.404602,96616.37422252505,1.14796229152505,-0.20378798322645295,0.4150842765811623,0.24308357196392832,0.0013248530440881764,0.0038343094549098196,-0.0024795750320641304,0.0,-0.1159652931503006,1.6137167,0.6906052006012023,0.041846658050100204,-0.040088055703406816,0.720901015787575,1.0,398714138.0,327364368.26292586,400120.4539775551,0.16653005570741478,0.005460001801603205,0.16653005570741478,0.0,1.1876326629218437,0.0,0.0,0.7395471079218437,39.87141370000001,32.7364368,0.019007898863727453,-0.004264576406813627,-0.0016368299519038082,0.011544224258517035,0.017316652783567133,-0.013368157601202406,-0.0057854864128256515,-0.019191388226452895,0.015418528615230454,0.10034419993186372,-0.16461842541282565,-0.17999287415631263,-0.0058768990000000005,1.0,11272251.208416834,1.0,0.0,0.0,0.0,0.0
11298751.0,0.022265787006012026,0.03119872561523046,0.0009378568777555095,0.046092184368736966,0.0,900.0,900.0,900.0,900.0,900.0,900.0,0.30969966264128357,0.31575182684168435,0.01473322954909816,0.01473322954909816,0.01501981292184365,0.05292491338276553,0.05395865519238476,57.585311047014024,57.585311047014024,12.404593451142285,-0.0007734649819639279,-0.005929450104208416,0.0011992748597194388,0.02275475768937876,-0.0017607262545090178,-0.12776984310821643,2.0,-1.0,0.0,11.0,0.0,0.0,1.0,0.0,0.0,0.0,0.0,0.0,0.0,0.0,0.0,-0.13053992214428858,1.569127824164329,1.573771198044088,0.36272698886773547,283.50921089038076,61.688309734168335,-0.0024230787314629258,-0.00838084444288577,0.0,-0.0020021445611222446,39.32357513314629,0.15633235206212426,-9.885450981332665,2.2e-23,966.1671915623247,12.404602,0.0016592122805611199,0.0023692093366733504,0.0008862337735470942,-0.21125227442284572,0.2217620750180361,-9.901435940649298,-0.0021182435671342685,-0.009714411116232464,-0.0017104273326653309,2.2e-23,-0.14027767187575152,-0.15227767006012022,0.40060004505611224,-0.22676948783166334,13.253990455671344,23.922023853567133,-0.21336067386573146,13.304179171723447,0.10999999,-25.276717796733465,399.6646960158316,12.404602,96615.73391835671,1.147954712016032,-0.16667196517034055,0.44857625858116235,-0.3686673918537079,0.0013457085851703414,0.004000508276553106,0.0002714042865731472,0.0,-0.10854689423046093,1.6137167,0.6907508125010019,0.039172502935871746,-0.03752628005611223,0.7210530069979959,1.0,398714138.0,327364368.40921843,400120.1993599198,0.24418306107815627,0.008006001881763525,0.24418306107815627,0.0,1.246688219014028,0.0,0.0,0.713501818967936,39.87141370000001,32.7364368,0.019046835885771544,-0.0027279365591182537,-0.0007484631803607223,0.009356278488977974,0.05417100226653265,-0.011752684308617244,-0.024982932953907605,0.3962149095971896,0.034764093370741364,0.10012996230861723,-0.17119120971943888,-0.16709748691182363,-0.0058768990000000005,1.0,11298751.49498998,1.0,0.0,0.0,0.0,0.0
11325547.0,0.019476568188376755,0.031211684943887777,0.0032156295030060108,0.7775551102204403,0.0,900.0,900.0,900.0,900.0,900.0,900.0,-1.1253415795731452,-1.1473332826272535,0.06722138087174344,0.06722138087174344,0.06853320755110216,0.0571611253266533,0.05827760802805611,62.9618530431062,62.9618530431062,12.404592675791584,-0.0007439314348697395,-0.005957048931863727,0.0012805089378757513,0.022747674933867736,-0.0016381696412825651,-0.12775943439078158,2.0,-1.0,0.0,11.0,0.0,0.0,1.0,0.0,0.0,0.0,0.0,0.0,0.0,0.0,0.0,-0.12298234552104209,1.5692127448156312,1.5737768800480962,0.36042832785571144,282.97292099859726,62.16520943727455,-0.00257372425250501,-0.00858893321042084,0.0,-0.0018746732484969941,44.500152135250495,0.15024542261322646,-9.859924775090182,2.2e-23,966.1668719861724,12.404602,0.004775904124248494,-0.0033357194509017994,0.0008938475711422846,-0.17102991591583172,0.18388854856513032,-9.93361539834469,-0.0020697234368737476,-0.010972282308617234,-0.001346226090180361,2.2e-23,-0.1396152107735471,-0.15161521188376753,0.40060010942484975,-0.2096095497254509,13.253983404368737,24.202626388436872,-0.2189728641262525,12.83391827733467,0.10999999,-26.334393320981963,399.6225514627254,12.404602,96616.2388618437,1.1479607268356713,-0.3508042320040079,0.3741615595430863,0.28851209525050053,0.0003419520020040087,0.0044209926653306615,-0.0009516426873747484,0.0,-0.10122207788777556,1.6137167,0.6908824743647295,0.036531393657314636,-0.03499616442484971,0.7211904532705411,1.0,398714138.0,327364368.55551106,400119.9448108216,0.32183606644889773,0.010552001961923846,0.32183606644889773,0.0,1.3057437751062124,0.0,0.0,0.6874565293286573,39.87141370000001,32.7364368,0.018026373420841686,0.021859803480961903,0.00047423634869739393,-0.01630719701202403,0.6483591880180356,0.0025056866633266436,-0.33019848722244466,7.328781670378752,0.2056521479498997,0.10003030633667336,-0.1774648728757515,-0.16236630790380763,-0.0058768990000000005,1.0,11325547.176352706,1.0,0.0,0.0,0.0,0.0
11352343.0,0.02044116090581162,0.03088937343486974,0.002253151615230463,1.0,0.0,1205.4108216432862,1205.4108216432862,1459.9198396793581,1199.7123448777552,1210.6002803727451,1213.0460921843683,-0.3084347255470956,-0.3144648925691398,0.11970953270340676,0.11970953270340676,0.12204660268937872,0.06139733727054108,0.06259656137274548,68.33839503919839,68.33839503919839,12.404591900440881,-0.0007143978877755511,-0.005984647250501001,0.001361742507014028,0.022740592178356715,-0.0015156125190380764,-0.1277490256733467,2.0,-1.0,0.0,11.0,0.0,0.0,1.0,0.0,0.0,0.0,0.0,0.0,0.0,0.0,0.0,-0.11542476940681363,1.5692976654669337,1.5737825620521042,0.3581296668436874,282.43663110681365,62.64210914038076,-0.0027203078096192383,-0.008799400619238477,0.0,-0.0018001174148296593,45.6520761246493,0.1502631607234469,-9.825259390266535,2.2e-23,966.1651671683367,12.404602,-0.0003012750380761457,-0.00251036219438878,0.0026984737014028037,9.26662497808616,0.18089175905811622,-9.899586245851703,-0.0020251894268537075,-0.012743314434869738,-0.0020075047995991974,2.2e-23,-0.1389527501803607,-0.15095275370741482,0.40060017328456915,-0.19244961111022044,13.253976353066133,24.483228918216433,-0.22458505438677356,12.363657382945892,0.10999999,-27.39206884523046,399.58987978617233,12.404602,96616.6167696994,1.147965222236473,-0.12241782462925888,0.34073607792785576,0.042062936939880335,0.003749508096192381,0.0038749276472945906,-0.0033596419098196363,0.0,-0.09395505188977955,1.6137167,0.6910044195831663,0.03391067309619239,-0.032485579815631264,0.7213177431062124,1.0,398714138.0,327364368.6509018,400119.69021082163,0.3994890718196392,0.013098002042084167,0.3994890718196392,0.0,1.3647993311983968,0.0,0.0,0.6614112401983968,39.87141370000001,32.7364368,0.016364720278557118,0.06039897352505006,0.0018992863266533053,-0.056178984068136234,1.579867681961923,0.024416036184368717,-0.8085234224729454,18.205789678787568,0.4682596641202402,0.1,-0.184488314,-0.1540831862785571,-0.0058768990000000005,1.0,11352342.857715432,1.0,0.0,0.0,0.0,0.0
11378889.0,0.022576708801603205,0.030714035388777552,0.0012463655130260506,1.0,0.0,1500.4123149498998,1500.0,2000.0,1488.6113832044089,1510.3886167955911,1515.0,1.0403215984509013,1.0606456915490978,0.17219768451703402,0.17219768451703402,0.1755599978096192,0.06563354921442885,0.06691551469939878,73.71493703529057,73.71493703529057,12.40459112509018,-0.0006848645811623247,-0.0060122455871743485,0.0014429758537074146,0.02273350942284569,-0.0013930554148296596,-0.12773861695591182,2.0,-1.0,0.0,11.0,0.0,0.0,1.0,0.0,0.0,0.0,0.0,0.0,0.0,0.0,0.0,-0.10786719351503007,1.5693825858777555,1.5737882438156312,0.3558310058316633,281.900341190982,63.119008843486974,-0.0028658441923847693,-0.009026171320641282,0.0,-0.0017665280661322644,45.04519505731463,0.15294868686573146,-9.786600112440883,2.2e-23,966.1628569649298,12.404602,-0.00636828860521042,-0.0020177066933867683,0.0033097877695390807,26.566335839699377,0.19152003977955911,-9.860502553987976,-0.001982397382765531,-0.014738601689378756,-0.0031169263226452893,2.2e-23,-0.13829028956913827,-0.15029029553106213,0.4006002371623247,-0.17528967251302605,13.253969301763528,24.76383144817635,-0.2301972446472946,11.893396490961925,0.10999999,-28.449744371883767,399.5703759675351,12.404602,96616.8377704008,1.1479678476272546,0.2366259835771541,0.2797873230681364,-0.2316148234208421,0.0056871981563126305,0.0037057587795591173,-0.0035751064989980002,0.0,-0.08673426485571142,1.6137167,0.6911178228396793,0.0313062467735471,-0.029990603923847697,0.7214361143386774,1.0,398714138.0,327364368.74809617,400119.4355885771,0.4771420774308617,0.015644002362725448,0.4771420774308617,0.0,1.4238548875310622,0.0,0.0,0.6353659510501003,39.87141370000001,32.7364368,0.01442286200200401,0.1050350283346693,0.003412765044088175,-0.10225991515030056,2.6587878066513015,0.04967036034268535,-1.3624985202785567,30.8065495683567,0.7709493074468935,0.1,-0.1914710681082164,-0.1479304523507014,-0.0058768990000000005,1.0,11378888.91983968,1.0,0.0,0.0,0.0,0.0
11404925.0,0.023753714573146293,0.03113790498797595,0.003040147406813626,1.0,0.0,1501.6664395891785,1500.0,2000.0,1488.0225840761523,1510.9774159238477,1515.0,1.4656941966973944,1.4943283333026047,0.22468583583967933,0.22468583583967933,0.2290733924388777,0.06986976115831663,0.07123446753507014,79.09147903138276,79.09147903138276,12.404590349739479,-0.0006553317655310623,-0.006039844414829659,0.0015242092004008015,0.02272642666733467,-0.0012704988016032067,-0.12772820823847694,2.0,-1.0,0.0,11.0,0.0,0.0,1.0,0.0,0.0,0.0,0.0,0.0,0.0,0.0,0.0,-0.1003096176232465,1.5694675057975953,1.5737939250881765,0.3535323448196393,281.3640512260521,63.595908546593186,-0.00301286677755511,-0.009284105629258518,0.0,-0.0017693661422845692,44.43831398997996,0.155634213498998,-9.74794083461523,2.2e-23,966.1605467124249,12.404602,-0.00714544236272545,-0.008030797885771537,-0.000118581889779556,51.53312560753505,0.19884829619238475,-9.870172115701402,-0.0019396053386773547,-0.01673388845290581,-0.004226347845691382,2.2e-23,-0.13762782846693386,-0.14962783735470944,0.40060030153106213,-0.15812973440681363,13.253962250460921,25.04443398304609,-0.23580943490781564,11.423135603887776,0.10999999,-29.50741990344689,399.56930459378754,12.404602,96616.85176328657,1.1479680107434869,0.4943694213326651,0.12607363835871757,0.24535522154909772,0.000688030881763532,0.005168465192384768,0.0017430971082164279,0.0,-0.07955632041683368,1.6137167,0.6912224556853708,0.028716896543086175,-0.027510069775551108,0.7215453385771543,1.0,398714138.0,327364368.89438874,400119.1809663327,0.5547950835330661,0.01819000317434869,0.5547950835330661,0.0,1.4829104443547094,0.0,0.0,0.6093206614108216,39.87141370000001,32.7364368,0.012481004216432867,0.14967108314428854,0.0049262437615230446,-0.1483408462324649,3.7377079313406805,0.07492468401002002,-1.9164736180841677,43.40730945252504,1.0736389512645288,0.1,-0.19770178268737473,-0.1492963898757515,-0.0058768990000000005,1.0,11404925.342685372,1.0,0.0,0.0,0.0,0.0
11432137.0,0.021130056470941887,0.03077542274549098,0.003943637144288577,1.0,0.0,1501.2119285851704,1500.0,2000.0,1488.7034068136272,1510.2965931863728,1515.0,2.85648171992585,2.912290094683365,0.27717398786573144,0.27717398786573144,0.2825867870681362,0.07410597380561121,0.07555342107414828,84.46802102747495,84.46802102747495,12.40458956735471,-0.000625798246492986,-0.00606744324248497,0.001605443250501002,0.022719344615230463,-0.0011479421883767538,-0.1277177995210421,2.0,-1.0,0.0,11.0,0.0,0.0,1.0,0.0,0.0,0.0,0.0,0.0,0.0,0.0,0.0,-0.09275204102805612,1.5695524264208418,1.5737996070641285,0.3512336838076152,280.8277613314629,64.07280824969939,-0.0031586619178356713,-0.009590653086172345,0.0,-0.0018063321102204408,42.474128724649304,0.15477867839078158,-9.752849312913828,2.2e-23,966.1605635406814,12.404602,-0.0011351381923847765,-0.006999178396793589,-0.003184161747494987,50.06468333298597,0.2634373533186372,-9.85836709295591,-0.0031519386492985958,-0.015215144695390783,-0.002745278933867737,2.2e-23,-0.13064857019038076,-0.14264857919038076,0.4006003103306613,-0.0917617923366734,13.253967572084168,25.212011261142283,-0.2391608721523046,11.00360786993988,0.10999999,-30.612712481883765,399.55995876432866,12.404602,96616.94831503007,1.1479691206452907,0.1503249973226457,-0.015734841012023923,0.32794194225450896,0.0005310204488977956,0.0019129501202404843,-0.001873073683366729,0.0,-0.07243428064128257,1.6137167,0.6913143793767536,0.026147218490981967,-0.02504838200601203,0.7216412888256513,1.0,398714138.0,327364376.91883767,400119.29957174347,1.1474111058056107,0.020114067156312622,1.1486549464048088,-0.0006219361262525043,1.5157515844669338,0.0,0.0,0.58327537247495,39.87141370000001,32.7364368,0.007250535284569143,0.2736169490460921,0.007975900356713424,-0.19394036991182362,4.8072558179238465,0.10039352002605208,-1.9933823748697395,45.22240060609218,1.1046744501462926,0.1,-0.20289949512224448,-0.14176506122845692,-0.0058768990000000005,1.0,11432137.158316633,1.0,0.0,0.0,0.0,0.0
11461135.0,0.021169528897795588,0.030952935737474947,0.005466287823647293,1.0,0.0,1501.5420429519038,1500.0,2000.0,1488.8928267875751,1510.1071732124249,1515.0,4.285675469078154,4.369405865166331,0.3296621394849699,0.3296621394849699,0.3361001821322645,0.07834218604609218,0.07987237420641281,89.84456302356713,89.84456302356713,12.404588789038076,-0.0005962646993987976,-0.006095042070140281,0.0016866768937875752,0.022712262156312626,-0.0010253851402805612,-0.1277073908036072,2.0,-1.0,0.0,11.0,0.0,0.0,1.0,0.0,0.0,0.0,0.0,0.0,0.0,0.0,0.0,-0.08519446483967937,1.5696373470721443,1.5738052886332667,0.3489350227955912,280.2914714396793,64.5497079528056,-0.003303549667334669,-0.009923525719438877,0.0,-0.0018598793106212423,40.142755525210426,0.15296518941082163,-9.769544061973948,2.2e-23,966.1612098597195,12.404602,-0.0008695144549098158,-0.009208149316633262,-0.0018311402464929903,46.783928799739485,0.21752591947094202,-9.843345578627254,-0.004703817593186371,-0.012745759527054111,-0.0005634119939879787,2.2e-23,-0.12066696534068137,-0.1326669734709419,0.40060029343086173,-0.002005498046092298,13.253978766553105,25.325868114348697,-0.24143778316432865,10.608193393426854,0.10999999,-31.740637243727456,399.58804016032065,12.404602,96616.61736036072,1.147965202513026,0.32114075866332603,0.10636268930661288,0.3079461948276554,0.0005145613326653307,0.0014967469919839663,-0.0009390173326653353,0.0,-0.0653386829238477,1.6137167,0.6913987016853708,0.02358681461122245,-0.022595579312625253,0.7217293237995992,1.0,398714138.0,327364389.9975952,400119.6564128256,2.0688503756933856,0.021641001681362723,2.0721322962224438,-0.001641001681362724,1.531853834032064,0.0,0.0,0.5572300831322645,39.87141370000001,32.7364368,0.001154537366733474,0.4184363441803606,0.011429862951903803,-0.2394131914869739,5.874337028066131,0.12591881386172343,-1.9447321612965933,44.19881433406814,1.0642133633366735,0.1,-0.2077765687695391,-0.13943914949699399,-0.0058768990000000005,1.0,11461135.334669339,1.0,0.0,0.0,0.0,0.0
11490511.0,0.022569455913827658,0.03130388939478958,0.006699135204408819,1.0,0.0,1502.2508744468937,1500.0,2000.0,1488.6282108537075,1510.3717891462925,1515.0,5.616205404372744,5.72593051777555,0.38215029097394787,0.38215029097394787,0.38961357732665325,0.08257839798997996,0.08419132720841684,95.22110502464929,95.22110502464929,12.404588013687375,-0.0005667311523046091,-0.006122640731462926,0.0017679104068136272,0.022705179400801603,-0.0009028279619238478,-0.12769698208617236,2.0,-1.0,0.0,11.0,0.0,0.0,1.0,0.0,0.0,0.0,0.0,0.0,0.0,0.0,0.0,-0.07763688878156313,1.5697222677234468,1.5738109700721443,0.34663636178356716,279.75518153126245,65.02660765591182,-0.003448910150300601,-0.010283610995991984,0.0,-0.0019273834609218436,37.59787326503007,0.15059467825851702,-9.793092183432865,2.2e-23,966.1622222044089,12.404602,-0.002401138955911831,-0.011234703833667342,0.0014854285170340683,43.244060712004014,0.14108223093987968,-9.833774762547094,-0.006453132392785569,-0.00972360414629259,0.002025948476953905,2.2e-23,-0.10880951519438879,-0.12080952219438879,0.4006002603486974,0.10236367517635259,13.253993631543086,25.406160823326655,-0.2430433377034068,10.227844711697395,0.10999999,-32.88270243571142,399.6174788198397,12.404602,96616.27642034068,1.1479611826332665,0.6100957082304616,0.35469322982965923,0.23292754891583173,0.0008896637755511002,0.003189091266533064,0.0013371230581162377,0.0,-0.05826714646893789,1.6137167,0.6914752963406813,0.02103483703006012,-0.020150849230460927,0.7218092921843687,1.0,398714138.0,327364406.30921847,400120.16558416834,3.2005474565090166,0.022914001721442884,3.2063753136472934,-0.0029140017214428844,1.5372528182104208,0.0,0.0,0.5311847936593187,39.87141370000001,32.7364368,-0.005442313905811616,0.5753345684749498,0.015117784350701399,-0.28481269479959914,6.939990853246491,0.15147677786372743,-1.8234250763627255,41.53257823607215,0.9823795398757516,0.1,-0.21238335742685371,-0.1408965830240481,-0.0058768990000000005,1.0,11490511.340681363,1.0,0.0,0.0,0.0,0.0
11517140.0,0.022069229631262524,0.030920139805611223,0.005430312549098198,1.0,0.0,1502.270335749499,1500.0,2000.0,1488.0770162344688,1510.9229837655312,1515.0,6.61174865806012,6.740931039318636,0.43463844302805604,0.43463844302805604,0.4431269719559118,0.08681460993386773,0.08851028077555109,100.59764704268537,100.59764704268537,12.404587238336672,-0.0005371976052104208,-0.00615023882765531,0.0018491444849699397,0.022698096645290582,-0.0007802713486973949,-0.12768657336873748,2.0,-1.0,0.0,11.0,0.0,0.0,1.0,0.0,0.0,0.0,0.0,0.0,0.0,0.0,0.0,-0.07007931215831664,1.5698071883747495,1.5738166520761523,0.3443377007715431,279.2188915663326,65.50350735901803,-0.0035978659919839676,-0.010679644773547093,0.0,-0.0020070390420841686,35.0529909991984,0.14822416710621242,-9.816640305456914,2.2e-23,966.1632345490982,12.404602,0.003900124490981956,-0.004481108102204418,0.0012678512124248498,40.58011112322646,0.22225215760320632,-9.848191794410821,-0.008202447192384766,-0.006701448765531066,0.004615308947895788,2.2e-23,-0.09695206448296595,-0.10895207148296594,0.40060022670140283,0.20673284896392774,13.254008502184368,25.48645353795591,-0.24464889224248496,9.847496029402805,0.10999999,-34.02476762769539,399.5640358709419,12.404602,96616.8998242485,1.1479685557795591,0.051758353521042744,0.4214758278757514,0.17222166324448906,0.0027169803186372727,0.005029932559118235,-0.003196669216432861,0.0,-0.05122125449498999,1.6137167,0.691542075248497,0.018491816198396797,-0.01771469952104209,0.7218789684168337,1.0,398714138.0,327364422.6208417,400120.674755511,4.332244536759518,0.024187001761523042,4.340618331072143,-0.004187001761523044,1.5426518023887774,0.0,0.0,0.505139504751503,39.87141370000001,32.7364368,-0.012039165178356705,0.7322327933346693,0.01880570631462925,-0.33021219867735463,8.005644678426851,0.17703474130060118,-1.702117991993988,38.866342138076156,0.90054571697996,0.1,-0.21671935261723446,-0.14232368035871742,-0.0058768990000000005,1.0,11517140.248496994,1.0,0.0,0.0,0.0,0.0
11541396.0,0.021979872034068135,0.03065614440480962,0.003826100138276555,1.0,0.0,1501.4719742985972,1500.0,2000.0,1488.130534016032,1510.869465983968,1515.0,7.675700061867734,7.825657765939878,0.48712659445290574,0.48712659445290574,0.49664036658517025,0.09105082187775551,0.09282923434268536,105.97418899779558,105.97418899779558,12.404586462985971,-0.0005076640581162325,-0.006177837553106212,0.0019303779338677356,0.022691013889779562,-0.0006577147354709421,-0.1276761640220441,2.0,-1.0,0.0,11.0,0.0,0.0,1.0,0.0,0.0,0.0,0.0,0.0,0.0,0.0,0.0,-0.06284968493787577,1.5696269583647295,1.5737641006092182,0.357636193747495,278.63128745711424,65.6876566062525,-0.0037331216172344687,-0.011054128963927856,0.0,-0.002081844298597194,33.0573640398998,0.16232642379759518,-9.852254976795592,2.2e-23,966.1614332901804,12.404602,0.0011160439779559174,-0.0074467273126252445,0.0012725701763527054,38.23220513328658,0.24111036181763526,-9.863112298531062,-0.0090298001002004,-0.005389696691382767,0.005851160777555108,2.2e-23,-0.08509461440080163,-0.09709462014228458,0.4006001936833668,0.3111020227515029,13.254023372825651,25.56674625258517,-0.2462544461523046,9.46714734647896,0.10999999,-35.16683281967936,399.5901644234469,12.404602,96616.59200735472,1.1479649370380762,0.5625138567515021,0.2364815569519041,0.21838859670340674,0.0005009673146292625,0.002060317134268542,-0.0037690311983967937,0.0,-0.044196308649298605,1.6137167,0.691599229018036,0.01595610860921844,-0.015285554717434873,0.7219386425851704,1.0,398714138.0,327364438.8695391,400121.18398977956,5.463941617639277,0.025460001801603203,5.474861348496992,-0.005460001801603205,1.5480507865671342,0.0,0.0,0.4790942158436874,39.87141370000001,32.7364368,-0.02209727683567133,0.9811321844268533,0.024679696907815622,-0.36893776281162327,8.94433949587575,0.20012791485771542,-1.5779406128597198,36.5718142185972,0.8634336033386775,0.1,-0.2215023535511022,-0.13717280553707414,-0.0058768990000000005,1.0,11541395.593186373,1.0,0.0,0.0,0.0,0.0
11565265.0,0.0228454180260521,0.030760780046092184,0.00362934870541082,1.0,0.0,1501.3607214428857,1500.0,2000.0,1487.7718911402806,1511.2281088597194,1515.0,8.699530434062122,8.869503277132264,0.5396147461362725,0.5396147461362725,0.5501537612144287,0.09528703382164329,0.0971481875490982,111.35073097875751,111.35073097875751,12.404585684028056,-0.00047813051102204413,-0.006205436380761523,0.0020116112805611225,0.02268393149498998,-0.0005351581222444892,-0.12766575493386775,2.0,-1.0,0.0,11.0,0.0,0.0,1.0,0.0,0.0,0.0,0.0,0.0,0.0,0.0,0.0,-0.05570952502805612,1.5693743928236472,1.573695662783567,0.37518973726452903,278.02968433186373,65.79194077008016,-0.0038681666773547094,-0.011428705126252506,0.0,-0.0021558945891783565,31.181945912945892,0.1800338749799599,-9.890510506975952,2.2e-23,966.1590162911824,12.404602,-0.00012956858717435107,-0.00763431278356714,0.00015229069739479276,35.760537483086175,0.20642486921242495,-9.856031995364729,-0.009655374258517034,-0.0044522794769539095,0.006790787040080159,2.2e-23,-0.07323716406012026,-0.08523716869939882,0.40060016040681373,0.41547119653907805,13.254038243466935,25.647038967214428,-0.2478600003206413,9.08679866381363,0.10999999,-36.30889800805611,399.6170087170341,12.404602,96616.27608270542,1.1479612128697396,0.643079311060121,-0.0514709077675346,0.19560099196392802,-0.0004208075851703421,0.0020660201202404756,-0.002915747741482968,0.0,-0.037182764601202414,1.6137167,0.6916485963026052,0.013424345112224453,-0.01286018813426854,0.7219902053607214,1.0,398714138.0,327364455.1440882,400121.69319819636,6.595638698621241,0.026733001841683365,6.609104365921842,-0.006733001841683365,1.553449770745491,0.0,0.0,0.4530489265751504,39.87141370000001,32.7364368,-0.03289407269739478,1.249665992563126,0.031020226957915824,-0.4062390092745491,9.855939371627253,0.22269506543887774,-1.4531506704949904,34.35661435126253,0.8358657678476955,0.1,-0.22577123416232464,-0.1344131426212425,-0.0058768990000000005,1.0,11565265.422845691,1.0,0.0,0.0,0.0,0.0
11589504.0,0.024134397907815634,0.031159563711422845,0.004622587823647296,1.0,0.0,1501.9078156312626,1500.0,2000.0,1487.168841755511,1511.831158244489,1515.0,9.65479942981563,9.843467869284568,0.5921028981903806,0.5921028981903806,0.6036671559358717,0.09952324585771542,0.1014671404769539,116.72727299679357,116.72727299679357,12.40458490228457,-0.0004485969639278558,-0.006233035208416833,0.002092844719438878,0.022676849378757517,-0.0004126014168336675,-0.12765534621643287,2.0,-1.0,0.0,11.0,0.0,0.0,1.0,0.0,0.0,0.0,0.0,0.0,0.0,0.0,0.0,-0.04860657236272546,1.5690917446693387,1.5736206183446892,0.3945128621342685,277.42225929559123,65.86301081154308,-0.00400490077755511,-0.01180436864729459,0.0,-0.0022293998837675352,29.343147255891786,0.19815515975951903,-9.928942412887775,0.03751464420040039,966.1565404078156,12.404602,0.0013951543406813638,-0.004447004593186366,-0.0010965034468937962,33.203344363547096,0.13724097400601204,-9.832063770713427,-0.010201872681362726,-0.0036119813967935887,0.007695288883767534,0.03751464420040039,-0.06137971344088178,-0.07337971725651304,0.40060012675951906,0.5198403703266532,13.254053113186373,25.727331680921846,-0.24946555485971944,8.706449981426855,0.10999999,-37.4509631936473,399.62612917915834,12.404602,96616.1689922044,1.1479599391683366,0.15839114131462942,-0.2842594530320649,0.026050572320642076,0.0006592721382765517,0.005250382400801606,-0.001189655256513029,0.0,-0.030178377328657323,1.6137167,0.6916902345691384,0.010895730274549102,-0.010437838020040084,0.722033700258517,1.0,398714138.0,327364471.4557114,400122.20237875753,7.727335779603205,0.028006001881763526,7.743347383346692,-0.008006001881763525,1.558848755016032,0.0,0.0,0.42700363702805627,39.87141370000001,32.7364368,-0.043899757250500986,1.5237099398016027,0.03749062572545089,-0.4430496050380761,10.757781031122242,0.24505277941683365,-1.3285892465410825,32.16939590140281,0.810287449743487,0.1,-0.22943329380961922,-0.13388879086773547,-0.0058768990000000005,1.0,11589503.98997996,1.0,0.0,0.0,0.0,0.0
11616300.0,0.022029442176352703,0.031109445334669344,0.003448333815631262,1.0,0.0,1501.1763527054109,1500.0,2000.0,1488.5085643807615,1510.4914356192385,1515.0,10.499761288352707,10.70491855893387,0.6445910502444889,0.6445910502444889,0.6571805512965933,0.10375945853306613,0.10578609404408819,122.10381501482966,122.10381501482966,12.404584126933868,-0.0004190634168336673,-0.006260634036072145,0.0021740787975951907,0.022669766623246494,-0.0002900440721442884,-0.127644937498998,2.0,-1.0,0.0,11.0,0.0,0.0,1.0,0.0,0.0,0.0,0.0,0.0,0.0,0.0,0.0,-0.041503619697394786,1.5688090971543085,1.5735455739058115,0.41383598700400803,276.8148341953908,65.93408084661323,-0.004138988903807615,-0.012161970631262526,0.0,-0.0022988917875751505,27.5373569352505,0.21252006611222451,-9.96374363851904,0.3351851905731466,966.1547876763526,12.404602,0.0006487161743486966,-0.00890707125651303,0.005039150941883772,31.301015412344686,0.1383119395971944,-9.848373214200402,-0.010570861348697396,-0.0027571704148296582,0.008900660787575152,0.3351851905731466,-0.04952226346092183,-0.06152226581362724,0.40060009311222444,0.6242095441142285,13.254067976513026,25.807624388236473,-0.2510711093987976,8.3261012984008,0.10999999,-38.593028385631264,399.5993522963928,12.404602,96616.4898923046,1.147963685721443,0.057557203919839595,0.30786125714829726,-0.5460804344829666,0.001716495735470943,0.003702960146292584,0.0010139111863727477,0.0,-0.023180472979959916,1.6137167,0.6917226288677355,0.008369305605210419,-0.008017586657314628,0.7220674806793587,1.0,398714138.0,327364487.76733464,400122.7116232465,8.859032860585172,0.029279001921843694,8.877590400771545,-0.009279001921843688,1.5642477399258516,0.0,0.0,0.40095834812024045,39.87141370000001,32.7364368,-0.05509601521643287,1.8025268602925855,0.044067090394789586,-0.4788833454488978,11.63809597480962,0.26685394707214427,-1.2066557797474948,30.041121856012023,0.7822514961863727,0.1,-0.23306900175551107,-0.12420776786172344,-0.0058768990000000005,1.0,11616299.671342686,1.0,0.0,0.0,0.0,0.0
11643095.0,0.022134585623246494,0.030882852977955916,0.0031368554268537074,1.0,0.0,1501.0,1500.0,2000.0,1488.9250654348698,1510.0749345651302,1515.0,11.239623166292583,11.45924175288577,0.6970792017434869,0.6970792017434869,0.7106939461022044,0.1079956706533066,0.11010504705611222,127.4803569773547,127.4803569773547,12.404583351583167,-0.000389529869739479,-0.006288232308617235,0.0022553123206412824,0.022662683867735473,-0.00016746174749499016,-0.12763452878156312,2.0,-1.0,0.0,11.0,0.0,0.0,1.0,0.0,0.0,0.0,0.0,0.0,0.0,0.0,0.0,-0.03440066703206414,1.5685264490841682,1.5734705289118236,0.4331591118737475,276.20740915070144,66.00515088168338,-0.004269278410821643,-0.012500356364729459,0.0,-0.002362330769539078,26.01294755002004,0.19486356540881772,-9.967594969699398,2.8505659538196344,966.1591992773547,12.404602,-7.006806613226352e-05,-0.009525668058116233,0.0027541524348697467,29.5596476750501,0.15156488113226452,-9.860655570625251,-0.00942665341683367,-0.0017786414629258531,0.012670820655310614,2.8505659538196344,-0.02381143674549103,-0.03581143763527059,0.40060006168537077,0.7259477075090178,13.254071798697394,25.820409919599197,-0.251326745238477,7.993580174781562,0.10999999,-39.74243070809619,399.561708909018,12.404602,96616.93606967936,1.1479689899138277,-0.1676453131322641,0.3664997331382767,0.03255685966933719,-0.0013803647354709348,0.002416520741482968,-0.0009415868877755459,0.0,-0.016184135152304623,1.6137167,0.6917453320521042,0.005843338901803611,-0.00559777272144289,0.7220911530981964,1.0,398714138.0,327364517.4571142,400123.22081222443,9.76029194292986,0.027607108380761528,9.776978227679358,-0.007607108380761527,1.566768429492986,0.0,0.0,0.37491305865731467,39.87141370000001,32.7364368,-0.06774961292585169,2.117843361907815,0.0514546560280561,-0.5072469420881762,12.353793154709418,0.28439913351703405,-1.1048186651743488,28.363603671182368,0.7354216716092185,0.1,-0.23609526140681364,-0.1203207721743487,-0.0058768990000000005,1.0,11643095.352705412,1.0,0.0,0.0,0.0,0.0
11668745.0,0.02264154011222445,0.03076394744689379,0.002842814903807618,1.0,0.0,1501.0,1500.0,2000.0,1489.8597194388778,1509.1402805611222,1513.8537074148296,11.947532698296591,12.180964396913826,0.7495673533527053,0.7495673533527053,0.7642073407314628,0.11223188259719437,0.1144240001783567,132.85689895090178,132.85689895090178,12.404582576232464,-0.000359996609218437,-0.006315830691382766,0.0023365459539078154,0.02265560111222445,-4.489899799599247e-05,-0.12762412006412827,2.0,-1.0,0.0,11.0,0.0,0.0,1.0,0.0,0.0,0.0,0.0,0.0,0.0,0.0,0.0,-0.027297714366733495,1.5682438011242483,1.5733954840280562,0.45248223703006013,275.59998412364735,66.07622091675351,-0.0043981462064128255,-0.01282198308016032,0.0,-0.002423298014028056,24.577929944969945,0.16703419892585183,-9.961613843436874,6.070490035348684,966.1655692222445,12.404602,-0.0008325700100200367,-0.007429643901803625,-0.0016430656533065991,27.97189382342686,0.16226963988777554,-9.869614097523048,-0.0078017187675350754,-0.0007608083206412867,0.017255786807615213,6.070490035348684,0.007274435436873617,-0.0047255639899800896,0.4006000309639279,0.8266650515050096,13.254071339478958,25.807002983707413,-0.2510586190320641,7.679615921366734,0.10999999,-40.894679803226445,399.5814930320641,12.404602,96616.71824561122,1.1479664195831663,-0.1522167759519056,0.1828817512705423,0.4022945883406835,-0.0022904415410821824,0.0022471800320641227,-0.0018300042585170455,0.0,-0.009186179509018065,1.6137167,0.6917608991683366,0.0033167281803607312,-0.0031773420581162424,0.7221073902224449,1.0,398714138.0,327364553.5749499,400123.72998356714,10.551201126472943,0.02452499299398799,10.56390089068136,-0.004524992993987992,1.567910789234469,0.0,0.0,0.34886776930460933,39.87141370000001,32.7364368,-0.08086619221442881,2.444755398034067,0.05909989994589175,-0.5332373522585169,13.017192994488976,0.30059223900200394,-1.0093659513066136,26.829285907014036,0.6826212306813628,0.1,-0.23883388536472944,-0.11669158522845695,-0.0058768990000000005,1.0,11668744.741482966,1.0,0.0,0.0,0.0,0.0
11692615.0,0.02255301605210422,0.030772571302605217,0.002171608128256513,1.0,0.0,1501.0,1500.0,2000.0,1492.0,1507.0,1511.0070354749498,12.65570664789579,12.902910664008015,0.8020555053887775,0.8020555053887775,0.8177207353787574,0.11646809454108216,0.1187429537274549,138.23344096893786,138.23344096893786,12.404581800881765,-0.00033046377555110226,-0.006343429519038076,0.002417780014028056,0.0226485183747495,7.762201603206392e-05,-0.1276137113466934,2.0,-1.0,0.0,11.0,0.0,0.0,1.0,0.0,0.0,0.0,0.0,0.0,0.0,0.0,0.0,-0.02019476170140282,1.5679611535911826,1.5733204395891782,0.47180536261322653,274.9925590965932,66.14729095200401,-0.004526648735470941,-0.013126483420841684,0.0,-0.00248354695991984,23.146300207875754,0.13866653769939888,-9.956614877795593,9.246822737334666,966.1718884947895,12.404602,-0.0017421025551102147,-0.0032493648877755426,-0.005003153386773552,26.53473226697395,0.1633149929378757,-9.87515821228457,-0.005997433795591197,0.00015622582565130765,0.022213066366733435,9.246822737334666,0.03987234917434864,0.02787235121042079,0.40060000024248493,0.9270952315871741,13.254069678877755,25.786227907675354,-0.2506431546733467,7.370871858683367,0.10999999,-42.04772971757515,399.692333561523,12.404602,96615.44699607215,1.147951322226453,0.288586545783567,-0.10087691671342722,-0.10158182588376789,0.002108708993987978,0.003731606084168331,0.0008495328336673393,0.0,-0.0021846629799599313,1.6137167,0.6917698515791584,0.0007887914889779601,-0.0007556421422845732,0.7221167396292584,1.0,398714138.0,327364593.0721443,400124.2391567134,11.284449055751502,0.020705992873747504,11.292057004488978,-0.0007059928737475012,1.5683329289058117,0.0,0.0,0.3228224803967937,39.87141370000001,32.7364368,-0.09395451193587173,2.7722814292444884,0.06674300539879757,-0.5590522516252505,13.67999128490982,0.3167019585911824,-0.9131778228917837,25.29827538162325,0.6288867718697396,0.1,-0.24142998692184367,-0.11056035423847696,-0.0058768990000000005,1.0,11692614.571142284,1.0,0.0,0.0,0.0,0.0
11716484.0,0.017351687054108212,0.025770096352705406,0.002342149440881764,1.0,0.0,1501.0,1500.0,2000.0,1492.0,1507.0,1511.2923630701403,13.286107795891784,13.545721248777555,0.8545436567114228,0.8545436567114228,0.871234130739479,0.12070430648496994,0.12306190656312625,143.60998298697396,143.60998298697396,12.404581025531062,-0.0003009302284569138,-0.006371028346693387,0.002499013360721443,0.022641436350701403,0.00020018155511022053,-0.12760330262925854,2.0,-1.0,0.0,11.0,0.0,0.0,1.0,0.0,0.0,0.0,0.0,0.0,0.0,0.0,0.0,-0.01309180903607214,1.5676785053446896,1.5732453951503005,0.491128487482966,274.3851340695391,66.21836099438877,-0.004653901340681363,-0.013407793821643286,0.0,-0.002549083112224449,21.848679293947892,0.08900632884168333,-9.990465821172345,10.698874186462927,966.1762033945892,12.404602,-0.005243407845691385,-0.00838255811422846,-0.0019075635170340659,24.761359366472945,0.1764097709739479,-9.871189781603206,0.0029011528276553173,-0.00291391791182365,0.041897409573146305,10.698874186462927,0.07247026291182368,0.06047026641082166,0.4005999695210421,1.027525410955912,13.254068011142285,25.76545282450902,-0.25022769031462927,7.062127795286573,0.10999999,-43.20077962478958,399.66646566773545,12.404602,96615.72585899799,1.1479546569659318,0.3524082470060121,0.12318957879759534,0.11627970327454927,0.0011908554168336668,0.00712440616432866,-0.0020034761342685396,0.0,0.00482779894388778,1.6137167,0.6917663061783568,-0.0017431125691382784,0.0016698581983967955,0.7221130340380761,1.0,398714138.0,327364632.497996,400124.7484012024,12.017696977895792,0.01688699275350701,12.020213125430862,0.003113007246492989,1.5687550678637274,0.0,0.0,0.29677719148897796,39.87141370000001,32.7364368,-0.10592500877955913,3.124094394715431,0.07430152268336673,-0.5779247236492986,14.318994956252507,0.3295133203446894,-0.787899963503006,23.89808434745491,0.5382067343647294,0.1,-0.2441621304188377,-0.10266156113226453,-0.0058768990000000005,1.0,11716484.400801603,1.0,0.0,0.0,0.0,0.0
11740354.0,0.01526974723446894,0.02406231879759519,0.0021074033787575157,1.0,0.0,1500.5190380761524,1500.0,2000.0,1492.0434876152306,1506.9565123847694,1511.2024653346693,13.937509953907815,14.209872114108215,0.90703180851503,0.90703180851503,0.9247475256192383,0.12494051890981962,0.1273808598797595,148.98652495691383,148.98652495691383,12.404580245370742,-0.0002713966813627255,-0.006398627174348697,0.0025802467074148294,0.022634353845691384,0.000322739651302605,-0.12759289391182366,2.0,-1.0,0.0,11.0,0.0,0.0,1.0,0.0,0.0,0.0,0.0,0.0,0.0,0.0,0.0,-0.005988856370741495,1.5673958570981965,1.5731703507114227,0.5104516123527054,273.777709042485,66.28943103196393,-0.004778945368737475,-0.013677512078156312,0.0,-0.002623231368737475,20.789808840941884,0.0014112616272547035,-10.093531858897796,9.078941722805617,966.1769472002005,12.404602,-0.001930568206412838,-0.006056938995991995,0.006448000060120221,23.311496789018037,0.1504896247615231,-9.894936253206414,0.02443896478156308,-0.013087628783567111,0.08781952624649289,9.078941722805617,0.10506817664929854,0.09306818161122238,0.4005999387995992,1.1279555903246492,13.254066343406814,25.744677746152306,-0.24981222595591182,6.753383732370742,0.10999999,-44.35382953681363,399.5602204753507,12.404602,96616.95816641283,1.147969302486974,0.13167327007214497,-0.025672359198396166,0.22157792678156302,0.0008545930220440882,0.009847330172344685,0.0006860484448897699,0.0,0.011849751689378744,1.6137167,0.6917557680721442,-0.0042784160661322596,0.004098615613226449,0.7221020462024048,1.0,398714138.0,327364671.9719439,400125.25759759516,12.750944904849698,0.01306799263326654,12.748369241563125,0.00693200736673346,1.5691772073026053,0.0,0.0,0.2707319021002005,39.87141370000001,32.7364368,-0.11601079139478956,3.5168565435130255,0.0817174184048096,-0.5850918598817635,14.917879520581161,0.3367634593326653,-0.6135751269599202,22.718462576613227,0.3852343024709422,0.1,-0.24663545050901803,-0.09798975463927856,-0.0058768990000000005,1.0,11740353.749498999,1.0,0.0,0.0,0.0,0.0
