timestamp,gyro_rad[0],gyro_rad[1],gyro_rad[2],accelerometer_m_s2[0],accelerometer_m_s2[1],accelerometer_m_s2[2]
10000000,-0.001106507,-0.005416529,0.002892632,-0.09925434,0.2728199,-9.904247
10004000,-0.000744017,-0.005086506,0.000474023,-0.09519497,0.22003998,-9.901845
10008000,-0.009179697,-0.005556016,-0.005182465,-0.13677199,0.24586457,-10.004619
10012000,-0.007302242,-0.006052963,-0.005263908,-0.17364584,0.2843592,-10.012365
10016000,0.003775996,-0.005261161,0.001277736,-0.12591371,0.24789333,-9.987004
10020000,0.002530967,-0.007038184,0.000292677,-0.043252643,0.18275163,-9.932867
10024000,0.000986153,-0.004366558,0.000597368,-0.04743435,0.13663784,-9.904896
10032000,-0.005374225,-0.005252902,0.000788752,-0.0491558,0.23115508,-9.931992
10036000,-0.001628507,-0.005417702,0.00334834,-0.041061733,0.1969605,-9.95153
10044000,6.48E-05,0.000153443,0.0009629,-0.093630016,0.20675673,-10.020143
10048000,-0.004700347,-0.004091342,-0.000554169,-0.08674891,0.19689395,-9.961265
10052000,-0.002943084,-0.007057857,-0.003899946,-0.080119714,0.17961419,-9.916833
10056000,-0.003601297,-0.008667416,-0.004299095,-0.124981746,0.21452573,-9.928391
10060000,-0.005549817,-0.009810202,-0.002811176,-0.13343522,0.1877103,-9.920479
10068000,0.00278262,-0.01066202,0.001581796,-0.04929171,0.17078525,-9.906805
10076000,-0.003521742,-0.009287584,0.003218693,-0.06613022,0.16902225,-9.873479
10080000,-0.005864001,-0.008228141,-0.002001258,-0.092700675,0.20201705,-9.841649
10088000,-0.000278375,-0.00205617,-0.005904752,-0.09711493,0.12830184,-9.8906975
10092000,0.000184627,-0.002096707,-0.002369215,-0.11027032,0.17501229,-9.901809
10096000,-0.000175277,-0.009179916,0.000246703,-0.06499646,0.1780861,-9.918418
10100000,0.000532125,-0.009831872,-0.000307763,-0.041736636,0.19147086,-9.905992
10104000,0.000642351,-0.004180803,-0.004517,-0.07628362,0.1866735,-9.933118
10112000,-0.007324923,-0.003665279,-0.001861142,-0.12833041,0.16608085,-9.920446
10120000,-0.000550339,-0.007919716,-0.010528022,-0.056871727,0.19652516,-9.939721
10128000,-0.010317249,-0.006243724,0.002807448,-0.12211053,0.19883537,-9.986627
10132000,-0.007305377,-0.005318678,0.003133401,-0.113395385,0.16926487,-10.004693
10136000,-0.001631083,-0.004897978,0.001248942,-0.11710303,0.17441602,-9.994286
10140000,-0.000618229,-0.009359035,-0.001157206,-0.093950905,0.2276407,-9.905217
10148000,-0.000872426,-0.006220711,0.0001977,-0.052495223,0.13613069,-9.962882
10156000,-0.00199237,-0.004736194,0.001019574,-0.119538344,0.23057872,-9.913009
10160000,-0.000117187,-0.008350317,-0.001233714,-0.07474663,0.13680872,-9.892221
10164000,-0.001791959,-0.00297133,0.000806838,-0.030208342,0.16217206,-9.938174
10168000,-0.004484675,0.003084666,0.008655779,-0.009244432,0.19717693,-9.981357
10172000,-0.003291218,0.00407818,0.011864815,0.059552584,0.15713134,-10.019671
10176000,-0.005208566,0.00348693,0.008114707,-0.019913035,0.20444669,-10.009849
10180000,-0.008131635,-0.000774432,-0.007254034,-0.14917532,0.25107676,-9.969167
10184000,-0.003706341,-0.003446475,-0.011061197,-0.1002087,0.24760608,-9.986221
10188000,0.002727943,-0.005704987,-0.001514142,0.012296327,0.25774258,-10.0180025
10192000,0.002722723,-0.004491024,0.00095564,0.03322025,0.28870314,-10.004731
10200000,0.000696815,-0.006942457,-0.000738519,-0.15042028,0.21930547,-9.847222
10204000,-0.000373082,-0.005016002,0.000488581,-0.14065905,0.16005547,-9.86288
10212000,-0.010036893,-0.007274413,-0.011143743,-0.077260844,0.18582292,-9.963739
10220000,0.003269171,-0.012337569,0.002099588,-0.101973094,0.23309769,-9.902167
10224000,-0.00104655,-0.007817709,1.41E-05,-0.09954545,0.17260318,-9.949054
10228000,-0.002947763,-0.003044882,0.000586193,-0.11567051,0.16845898,-9.898369
10232000,-0.002349807,-0.004131274,0.003877855,-0.09972841,0.2080166,-9.862052
10236000,-0.006462214,-0.004941885,-0.001314588,-0.07940768,0.2004122,-9.902267
10240000,-0.003625406,-0.002188243,-0.005426732,-0.04991765,0.27280742,-9.930661
10244000,-0.008809349,-0.006461551,-4.34E-05,-0.049270283,0.2836159,-9.937038
10252000,0.001237648,0.000462679,0.002174135,-0.02934677,0.19972456,-9.953135
10256000,-0.000676194,0.000818393,0.005474394,-0.11562942,0.24312007,-9.978408
10264000,-0.003028014,-0.012451936,-0.001524733,-0.05757835,0.058539275,-9.929094
10268000,-0.005659085,-0.007846163,-0.003462564,-0.1300823,0.13650544,-9.936101
10272000,-0.006062954,-0.008119706,-0.002402209,-0.0894598,0.2054419,-9.9601755
10276000,-0.002054057,-0.007813423,0.000160189,-0.051760036,0.20112018,-9.988954
10280000,0.002208325,-0.007243554,0.002726885,-0.051308155,0.21987604,-9.964846
10284000,0.001850972,-0.008067917,0.000141976,-0.031132923,0.22185133,-9.928175
10288000,-0.003136112,-0.006289125,-0.000205685,-0.018201675,0.12888248,-10.019969
10292000,-0.002786724,-0.001900569,0.004467208,-0.06474697,0.13347669,-10.000437
10296000,0.003177571,-0.006539588,0.002708372,-0.08678305,0.18005377,-9.889957
10300000,0.003646218,-0.010510507,0.001014772,-0.10384324,0.16238716,-9.873151
10304000,0.002518789,-0.009101956,0.000469695,-0.13625114,0.16761008,-9.930816
10308000,0.001307272,-0.013144854,-0.000423822,-0.09073255,0.15955916,-10.004623
10312000,-0.001884696,-0.008076604,0.004129847,-0.08766864,0.19168925,-10.0443125
10316000,-0.006530436,-0.004952882,0.00387362,-0.087741144,0.21454546,-10.047997
10320000,-0.005389472,-0.010114783,0.002130309,1.5597435,0.17278509,-9.983051
10324000,0.001154877,-0.012053479,-0.001249183,8.6879425,0.13403787,-9.80369
10328000,0.002163386,-0.009396222,-0.001896415,19.265978,0.13749954,-9.697866
10332000,-0.004399777,-0.007613619,0.003506095,28.458199,0.19956695,-9.65026
10340000,-0.00411091,-0.000593175,0.0007065,41.52828,0.1991761,-9.38089
10344000,-0.001910905,-0.006025221,0.001177387,45.833115,0.21429795,-9.376526
10348000,-0.000466376,-0.007134125,-0.003928599,48.86255,0.24392453,-9.350691
10352000,0.001664675,-0.005224643,0.001993911,50.758556,0.15596111,-9.330276
10356000,0.000667027,-0.010888451,0.006348998,51.96428,0.15656532,-9.331342
10364000,0.001132307,-0.00804372,0.002152126,53.308468,0.19627424,-9.241962
10368000,0.001066574,-0.004749146,0.000435995,53.552036,0.15703498,-9.3016
10376000,0.002163333,-0.002520939,0.002319099,53.21118,0.15830341,-9.306303
10380000,0.003314093,-0.005189161,-0.001116955,52.847466,0.18958627,-9.296606
10388000,-0.000480533,-0.002483565,-0.002107039,52.22676,0.11256883,-9.299653
10392000,-0.004893648,-0.00360495,0.000260651,51.708153,0.08743418,-9.367739
10400000,0.003316895,-0.008153259,0.005049861,50.4732,0.23475306,-9.335692
10404000,0.003048911,-0.004118974,0.001831872,50.122623,0.2697654,-9.375093
10412000,0.004527527,-0.007483999,-0.002735525,49.225197,0.13910007,-9.403581
10416000,0.008290852,-0.00520422,0.003899765,48.64377,0.143141,-9.336863
10424000,-0.00245834,-0.011425385,0.000119327,47.55175,0.08881599,-9.292102
10428000,-0.006399,-0.011780582,-0.001070306,47.155018,0.20279837,-9.251605
10432000,-0.00115897,-0.011023719,-0.002527353,46.74809,0.20317475,-9.352981
10436000,0.005247644,-0.007422991,-0.000580692,46.204994,0.23595287,-9.40317
10440000,-0.001546774,-0.000261929,-0.006600428,45.74335,0.30081692,-9.451797
10444000,0.003825255,-0.002412234,-0.010214667,45.353954,0.20197198,-9.526394
10448000,0.002958806,-0.005992858,-0.006070934,44.949936,0.20584491,-9.486182
10456000,-0.000318215,-0.011330728,0.003933436,44.036,0.18999486,-9.424496
10460000,0.001236541,-0.005799933,0.001970048,43.562447,0.13761052,-9.495185
10464000,0.003733453,-0.005211727,-0.003431795,43.2257,0.10112089,-9.496925
10468000,0.002509123,-0.009995791,-0.001456976,42.876358,0.1920898,-9.455729
10472000,-0.003536004,-0.007162749,-0.003031883,42.519764,0.23127194,-9.428197
10476000,-0.004808293,-0.001328859,-0.003263995,41.99808,0.19116223,-9.418953
10480000,0.002400596,-0.002764985,-0.005952364,41.494762,0.18390365,-9.437663
10484000,0.002931454,-0.012086763,-0.001367359,41.095497,0.16398053,-9.478201
10488000,-0.000317952,-0.012553007,0.006294816,40.812023,0.12303253,-9.492506
10496000,-0.005201657,-0.004546037,-0.000484355,40.039265,0.19217259,-9.437393
10500000,-0.005927277,-0.00715915,-0.000203899,39.573536,0.22248995,-9.4467535
10504000,-0.00417208,-0.005975947,0.001082462,39.214783,0.20090094,-9.446957
10512000,0.005366481,-0.00440864,0.007443858,38.54665,0.20494984,-9.558797
10516000,0.003643421,-0.007099828,-0.003091647,38.209404,0.19553092,-9.497533
10520000,-0.001558896,-0.008047286,-0.000933765,37.7376,0.22864272,-9.475014
10524000,-0.004292157,-0.002337599,0.005681943,37.286877,0.23872864,-9.485176
10532000,0.002449332,-0.007834422,0.001723141,36.74008,0.103860825,-9.5599
10536000,0.001395282,-0.007438471,0.00044353,36.328327,0.2553112,-9.464882
10544000,-0.005135343,-0.012636572,-0.002408852,35.4229,0.17260343,-9.474679
10548000,-0.00104301,-0.007142526,0.000251808,35.108337,0.23141672,-9.481912
10556000,-0.001316136,-0.007400558,-0.009518683,34.555527,0.17763087,-9.481648
10560000,-0.003010382,-0.005212311,-0.00419678,34.114464,0.22907266,-9.495836
10564000,-0.002904063,-0.008730846,-0.002592278,33.848747,0.2016328,-9.572935
10568000,-0.002746299,-0.007531662,-0.003727094,33.628273,0.22398813,-9.592928
10572000,-0.003202579,-0.001560661,-0.005608228,33.337414,0.15759088,-9.632256
10576000,-0.002827219,-0.004354623,-0.001043009,33.061127,0.132074,-9.66999
10580000,-0.007511759,-0.006943293,-1.54E-06,32.644432,0.14620821,-9.630827
10584000,-0.010354164,-0.007318439,-0.002570481,32.244076,0.12015531,-9.57535
10592000,-0.001620054,-0.004154908,-0.000609931,31.83233,0.14287357,-9.59157
10596000,0.003814709,0.001537721,0.002331846,31.628925,0.12993656,-9.558446
10604000,-0.004423544,-0.005374692,0.007804646,30.931263,0.072163984,-9.542267
10608000,-0.00064453,-0.006073306,0.005195166,30.744783,0.115379326,-9.516787
10616000,-0.000899575,-0.007935021,0.006654034,30.426117,0.15677798,-9.540486
10624000,-0.000761387,-0.010614871,0.003382857,29.738245,0.06530425,-9.5840845
10628000,0.001015756,-0.009677392,0.008916358,29.487398,0.06623039,-9.512027
10632000,0.002174777,-0.004818895,0.014118404,29.258844,0.06691854,-9.509856
10640000,-0.000486926,-0.004549526,0.017534837,28.756718,-0.02291364,-9.582822
10648000,0.001757827,-0.0110586,0.02413642,28.162651,-0.06438208,-9.664428
10656000,0.002028735,-0.003988749,0.035281546,27.771673,-0.1387461,-9.654671
10660000,-0.000577305,-0.004241553,0.03980239,27.425787,-0.19984871,-9.686915
10668000,-0.000401715,-0.00113224,0.04371199,26.980402,-0.23804966,-9.584419
10672000,0.000727826,-0.002865701,0.049567237,26.832472,-0.16859789,-9.633999
10680000,-0.006839444,-0.008251405,0.06937328,26.318064,-0.1745032,-9.6541395
10688000,-0.004795762,-0.008515422,0.0765343,25.824335,-0.35518295,-9.604236
10692000,0.000975542,-0.005150695,0.08529551,25.704092,-0.36196578,-9.571955
10696000,-0.003913311,-0.006455431,0.0954275,25.538992,-0.27508277,-9.621849
10700000,-0.010258303,-0.005366219,0.09869249,25.232962,-0.28363782,-9.663095
10704000,-0.008471956,-0.005491119,0.10017531,24.962715,-0.29166347,-9.6502905
10708000,-0.002359397,-0.011426128,0.10500534,24.719095,-0.18185958,-9.633071
10712000,-0.000674389,-0.010152423,0.11418052,24.555946,-0.10647204,-9.640386
10720000,0.0090908,-0.004781116,0.11431604,24.151878,-0.13913913,-9.731579
10724000,0.011290005,-0.001932098,0.126175,23.940155,-0.13559896,-9.749948
10728000,0.013635493,-0.003093313,0.12796241,23.690714,-0.061991088,-9.785264
10732000,0.017117346,-0.010162876,0.13169956,23.580143,0.013657748,-9.760136
10736000,0.02160232,-0.0164766,0.1404203,23.610228,-0.22534741,-10.106157
10740000,0.028141897,-0.017374365,0.15303726,23.605886,-0.4318561,-10.620225
10744000,0.03455903,-0.023433715,0.16349319,23.368635,-0.40633985,-10.639078
10748000,0.04067668,-0.037236217,0.16825604,23.091934,-0.38450783,-10.628398
10756000,0.056060456,-0.050026372,0.18327767,22.901304,-0.31278476,-10.753102
10760000,0.065312944,-0.056055922,0.19546227,22.709372,-0.18697082,-10.720446
10764000,0.082042426,-0.062355716,0.20462595,22.466524,-0.1917598,-10.613903
10772000,0.102334924,-0.07868795,0.22151503,21.924702,-0.21320969,-10.67149
10776000,0.10864959,-0.08584693,0.22448033,21.78149,-0.13866298,-10.717897
10780000,0.109967455,-0.0936086,0.22211102,21.574259,-0.09275274,-10.703241
10784000,0.119542785,-0.09133062,0.22490212,21.220325,-0.09351455,-10.609022
10788000,0.13669491,-0.09654092,0.23193695,21.020065,-0.13614915,-10.531792
10792000,0.14238076,-0.11862943,0.23585477,20.807896,-0.1808623,-10.55553
10796000,0.1583861,-0.12831922,0.23555794,20.670984,-0.1577542,-10.561563
10800000,0.17108189,-0.12195922,0.23709752,20.53517,-0.10478763,-10.575703
10804000,0.17146873,-0.12910944,0.2412138,20.268053,-0.07722894,-10.638343
10808000,0.17830347,-0.13180546,0.24379937,19.959187,-0.14606763,-10.381305
10816000,0.1920936,-0.13259333,0.2398038,19.606436,-0.16627288,-10.331677
10820000,0.20201877,-0.12759925,0.24270034,19.453346,-0.07877547,-10.245869
10828000,0.21359648,-0.13028519,0.24055788,18.858318,-0.21739124,-10.201872
10832000,0.21423171,-0.12955013,0.23570311,18.62227,-0.20003456,-10.214177
10836000,0.21520786,-0.12806655,0.2328438,18.541666,-0.13437602,-10.124111
10840000,0.22204398,-0.12676318,0.23033553,18.50013,-0.12742026,-10.104967
10844000,0.229956,-0.12046651,0.22282064,18.210554,-0.15293035,-10.118441
10848000,0.23981027,-0.11689838,0.22236677,17.887838,-0.17887105,-10.106261
10852000,0.25234988,-0.11835574,0.2241807,17.732237,-0.1472061,-10.086515
10860000,0.25613418,-0.10317847,0.21056913,17.366909,-0.18172672,-10.009604
10864000,0.26491478,-0.10508277,0.2020636,17.202265,-0.25175348,-10.006389
10872000,0.26658738,-0.10882504,0.18796465,16.861176,-0.22072284,-9.985555
10876000,0.26608124,-0.10371027,0.18704289,16.67704,-0.1766883,-10.017511
10880000,0.27575195,-0.095224485,0.17520915,16.455118,-0.12120234,-10.054829
10884000,0.2814472,-0.09754107,0.16385731,16.247515,-0.16049917,-9.977798
10888000,0.27830836,-0.09238866,0.16060728,16.032028,-0.15864234,-9.947833
10892000,0.28240576,-0.08260249,0.15318105,15.870761,-0.14822952,-9.904419
10900000,0.29448703,-0.08566537,0.13174087,15.608779,-0.068647236,-9.888121
10904000,0.2944213,-0.08058478,0.12059719,15.472823,-0.0834101,-9.863339
10908000,0.29572412,-0.07335081,0.103429414,15.228986,-0.20347199,-9.898874
10912000,0.29768676,-0.0678348,0.09269515,15.047036,-0.2170267,-9.887838
10916000,0.3005769,-0.06364832,0.09231382,14.916809,-0.1663845,-9.8725395
10920000,0.30019337,-0.050831325,0.08464313,14.807891,-0.12593833,-9.7709255
10924000,0.30397335,-0.04695875,0.069662236,14.650225,-0.09295752,-9.720618
10928000,0.30288318,-0.046863906,0.055713136,14.523992,-0.13625811,-9.787775
10932000,0.3032512,-0.033461392,0.04565103,14.355821,-0.1393404,-9.777324
10936000,0.31708235,-0.029605273,0.041253503,14.081967,-0.0505325,-9.812313
10940000,0.3208463,-0.026748054,0.026918352,13.98873,0.053848803,-9.857016
10948000,0.32070202,-0.018564375,0.007056127,13.884811,0.10626723,-9.875304
10952000,0.32243058,-0.017494159,-0.001209935,13.640811,-0.030824598,-9.84237
10960000,0.32018995,-0.00456549,-0.024443205,13.326026,0.050501086,-9.89197
10968000,0.31957465,-0.004894034,-0.04473139,13.071758,0.11168312,-9.928477
10972000,0.3218501,-0.004080019,-0.053326134,12.909541,0.036887474,-9.887071
10980000,0.32660827,-0.004568315,-0.07800483,12.708917,0.11091822,-9.876471
10984000,0.3286636,-0.002524555,-0.08780815,12.595777,0.081248716,-9.914765
10992000,0.32914522,0.007473534,-0.101376355,12.37002,0.22466366,-9.910722
11000000,0.32598922,0.002637809,-0.120500214,12.085867,0.2513561,-9.943548
11004000,0.32190457,-0.000828276,-0.12895298,11.938392,0.29887465,-9.925564
11012000,0.3215076,0.008885832,-0.14985342,11.807607,0.23321566,-9.915695
11020000,0.31468236,0.000402298,-0.16838819,11.559427,0.29134426,-9.947627
11028000,0.31560183,0.005674024,-0.1836117,11.378625,0.29732326,-9.953334
11032000,0.3153851,0.007317467,-0.19530907,11.26282,0.28469196,-9.93812
11036000,0.3225735,0.008450256,-0.2093435,11.143329,0.22467916,-9.96743
11040000,0.3288301,0.005166598,-0.2073816,10.98643,0.16313995,-10.004503
11044000,0.32401702,0.009650677,-0.20743626,10.886335,0.27874383,-9.994698
11048000,0.31936136,0.013413954,-0.20904277,10.887086,0.41742507,-10.001437
11052000,0.32442948,0.005541899,-0.21786898,10.757032,0.36723426,-10.001404
11056000,0.31768426,0.000255057,-0.22839749,10.658737,0.2998125,-10.010539
11060000,0.31180996,-0.000247459,-0.23283325,10.577378,0.30829948,-9.998785
11064000,0.31579778,0.004849946,-0.23919415,10.438607,0.36572784,-10.000403
11068000,0.317088,0.001318013,-0.24319239,10.3154545,0.3120907,-10.031093
11076000,0.31628653,0.003777453,-0.24831249,10.116471,0.29834315,-10.021979
11080000,0.31473947,-0.003312992,-0.24902919,10.000532,0.29626712,-10.0190525
11084000,0.3189148,-0.00397587,-0.25058004,9.900532,0.31737185,-9.960371
11088000,0.3217807,-0.003461056,-0.25520968,9.765032,0.23912792,-10.029973
11092000,0.31678072,-0.006714259,-0.25719342,9.69021,0.32762,-10.030798
11100000,0.30839974,-0.014604441,-0.2555342,9.459883,0.18936095,-9.986066
11104000,0.30649745,-0.015097234,-0.2549336,9.3372345,0.18345173,-9.99436
11108000,0.3016954,-0.013673137,-0.25281698,9.270106,0.08586724,-9.988946
11112000,0.29938096,-0.015612745,-0.2475998,9.158975,0.11341531,-9.994778
11116000,0.2974147,-0.015196878,-0.24803632,9.030957,0.10400442,-9.955421
11124000,0.29670417,-0.016222624,-0.24332193,8.802897,-0.004925109,-9.903259
11128000,0.29711813,-0.019156085,-0.24079093,8.659923,-0.039633885,-9.964832
11132000,0.2982748,-0.019790085,-0.23581588,8.563713,-0.014408843,-9.993631
11136000,0.29159275,-0.019539323,-0.23627317,8.514012,-0.05167692,-9.932238
11140000,0.29353824,-0.024082419,-0.23697276,8.312596,-0.13996415,-9.968881
11148000,0.2935744,-0.021209214,-0.22304057,8.194834,-0.16597031,-9.880802
11152000,0.29306704,-0.022838427,-0.21706685,8.136039,-0.13959679,-9.849682
11160000,0.29080343,-0.011350486,-0.2130915,7.9577446,-0.23669927,-9.869115
11164000,0.29081288,-0.011712633,-0.20628896,7.892724,-0.19074367,-9.80547
11168000,0.28773236,-0.0180207,-0.20362979,7.805279,-0.1149136,-9.725295
11172000,0.28320107,-0.013123511,-0.20001726,7.737716,-0.08825872,-9.802756
11176000,0.2809792,-0.005412638,-0.19079767,7.618924,-0.07284921,-9.826845
11180000,0.2789916,-0.01038771,-0.18241966,7.5084376,-0.113536656,-9.825139
11184000,0.27806848,-0.013784187,-0.17893346,7.5069757,-0.12868997,-9.847089
11188000,0.27894327,-0.007505314,-0.17334054,7.4484353,-0.11252387,-9.81934
11192000,0.27403688,-0.003017565,-0.16384292,7.2782845,-0.1907114,-9.853899
11196000,0.2678003,-0.003965976,-0.15697166,7.2009854,-0.27495927,-9.880235
11200000,0.27072653,-0.00297665,-0.14961828,7.215624,-0.24162902,-9.951285
11204000,0.27100503,-0.005576608,-0.14088231,7.150403,-0.16310212,-10.01069
11208000,0.26566374,-0.004310716,-0.13402243,6.910117,-0.17539872,-9.952774
11212000,0.2668204,0.005629664,-0.124561645,6.8160663,-0.22913988,-9.909286
11220000,0.25429446,0.012490571,-0.11054673,6.766313,-0.2743199,-9.926703
11224000,0.25660348,0.019792708,-0.097450554,6.6539884,-0.3222231,-9.900726
11228000,0.25738725,0.025424894,-0.09562817,6.6017194,-0.32417992,-10.033665
11232000,0.25297138,0.023830056,-0.08433622,6.5548854,-0.30418006,-10.1179285
11240000,0.25508738,0.033161636,-0.07181544,6.3761225,-0.35591534,-10.190448
11244000,0.25798732,0.032449227,-0.060598385,6.3492813,-0.30642092,-10.0803995
11248000,0.2553388,0.041196078,-0.050042126,6.3492813,-0.30642092,-10.0803995
11252000,0.25381514,0.052028608,-0.039159123,6.0770025,-0.3837411,-10.299152
11260000,0.24371499,0.057907872,-0.017175093,6.0183105,-0.29195133,-10.321297
11264000,0.2403274,0.0574459,-0.010736126,5.846059,-0.28075865,-10.358849
11268000,0.2387898,0.066158764,-0.002923823,5.7166758,-0.28385508,-10.473735
11272000,0.2329836,0.06309885,0.004178593,5.759107,-0.31203574,-10.500646
11276000,0.23438872,0.06840536,0.011733777,5.769675,-0.3122721,-10.554537
11280000,0.23544036,0.07479231,0.019378843,5.7018957,-0.329172,-10.663265
11284000,0.23514391,0.07217443,0.032357216,5.5381217,-0.42283335,-10.7135315
11288000,0.23868316,0.07600193,0.0472797,5.4805274,-0.42842498,-10.7291765
11292000,0.23640355,0.08261029,0.053918485,5.429023,-0.3697146,-10.7489195
11296000,0.23393281,0.08981944,0.05330857,5.3133807,-0.37597924,-10.881705
11300000,0.23477669,0.09940128,0.05778134,5.254726,-0.3958083,-10.99836
11304000,0.22722733,0.10591623,0.06935981,5.210882,-0.32868296,-11.046664
11308000,0.22258045,0.10801774,0.07945829,5.156259,-0.29710504,-11.120743
11316000,0.22210547,0.11689019,0.08952186,4.9990125,-0.39147618,-11.284212
11324000,0.22334218,0.12522294,0.11025437,4.8690515,-0.3235427,-11.419555
11328000,0.2193429,0.1353092,0.11775781,4.733314,-0.28720966,-11.561011
11336000,0.20926215,0.14898925,0.11991193,4.6206455,-0.32052648,-11.757282
11340000,0.21245892,0.14789991,0.13073218,4.6324654,-0.29395586,-11.764674
11344000,0.21145299,0.15184431,0.13648069,4.6581993,-0.30269116,-11.880409
11352000,0.20223863,0.15788506,0.13960029,4.395813,-0.33048826,-12.104194
11356000,0.20695035,0.16291943,0.14393896,4.3736186,-0.26141003,-12.16397
11360000,0.20661646,0.16864905,0.14725971,4.3183136,-0.2480524,-12.240624
11364000,0.19833103,0.16860773,0.15672834,4.2852535,-0.28207332,-12.349489
11368000,0.19221662,0.17518894,0.16119063,4.2646155,-0.2303263,-12.480576
11372000,0.19321641,0.18226534,0.1645221,4.1811457,-0.23592596,-12.606203
11380000,0.19597377,0.18636549,0.1707101,4.039378,-0.270051,-12.754105
11388000,0.19078575,0.18996781,0.17624584,3.8995802,-0.2135536,-12.847997
11392000,0.18808837,0.19483998,0.18136893,3.9366846,-0.2752226,-13.013308
11396000,0.19451527,0.19874893,0.17644879,3.9394777,-0.30072042,-13.151109
11404000,0.1816806,0.19845988,0.18145019,3.7642775,-0.21850207,-13.25197
11412000,0.1790359,0.20955563,0.18586805,3.6392684,-0.14713572,-13.410863
11416000,0.17408633,0.21072862,0.18655263,3.6775212,-0.133596,-13.570107
11420000,0.17998353,0.20959492,0.18977831,3.6002636,-0.13358161,-13.610991
11424000,0.17613839,0.20913619,0.18840976,3.4981477,-0.043087836,-13.701966
11428000,0.16970378,0.21204862,0.18711558,3.3775914,-0.080148704,-13.842318
11432000,0.17211366,0.21519856,0.18818116,3.313402,-0.113523975,-13.845137
11436000,0.16956109,0.21837069,0.1850122,3.3599663,-0.0666101,-13.858169
11440000,0.16953321,0.21737382,0.1828028,3.3641415,-0.08142102,-14.029622
11444000,0.17156282,0.21385929,0.18092932,3.260703,-0.08231867,-14.066757
11448000,0.16956568,0.2148159,0.18576396,3.1760294,-0.0656049,-13.986483
11456000,0.164037,0.22228739,0.17713495,3.0101836,-0.002965037,-14.219817
11460000,0.1611273,0.22517307,0.1761299,3.0434659,0.008974318,-14.286779
11464000,0.15638351,0.22327127,0.17105372,3.0504477,0.032232177,-14.32824
11468000,0.1553402,0.2227125,0.16170937,2.942056,0.027115563,-14.355157
11472000,0.15542734,0.22235897,0.16563521,2.9707506,0.036405556,-14.428615
11476000,0.15140511,0.22403176,0.16371997,2.998509,0.054851267,-14.457412
11480000,0.14992538,0.22945398,0.16076505,2.9110155,0.008343441,-14.457615
11484000,0.15239261,0.23505476,0.16384001,2.7573783,-0.009473977,-14.547242
11488000,0.15168525,0.23575294,0.15301228,2.776463,0.07583451,-14.602664
11492000,0.14981183,0.22475773,0.15003364,2.7962584,0.10003442,-14.62044
11496000,0.14053208,0.2210774,0.14537255,2.7356038,0.04114493,-14.767774
11500000,0.13887937,0.22683468,0.1367644,2.6939156,0.034430202,-14.792462
11504000,0.14400084,0.22355114,0.1380909,2.6507273,0.057589233,-14.722035
11508000,0.14932892,0.22001314,0.1286256,2.6262019,0.022934087,-14.781238
11512000,0.14903532,0.2214716,0.12481832,2.6266117,0.016208818,-14.847476
11520000,0.13672167,0.22416367,0.12454816,2.613524,0.09433798,-14.805825
11528000,0.12376822,0.21962492,0.11863635,2.4269986,0.10345754,-14.897046
11532000,0.12824327,0.21673124,0.11968559,2.4025607,0.07971605,-14.838862
11540000,0.1238492,0.21111314,0.10440377,2.4517825,0.08085603,-14.968196
11548000,0.12173226,0.21833289,0.099508256,2.3013694,0.039418682,-15.007635
11552000,0.116734505,0.21564709,0.095593974,2.2715576,0.07708198,-14.88058
11556000,0.11904803,0.21530986,0.08155162,2.2945466,0.06611163,-14.944156
11560000,0.1173024,0.21379869,0.07544405,2.306059,0.013567417,-15.015789
11564000,0.117936045,0.20644459,0.07493099,2.2885675,0.029870968,-14.880872
11568000,0.11765612,0.197917,0.073578924,2.2536988,0.021129606,-14.854345
11576000,0.11121674,0.1925865,0.061164383,2.253385,0.015552917,-14.957882
11584000,0.10479135,0.19376302,0.06150969,2.1443608,0.010741578,-14.869594
11588000,0.10457562,0.19281384,0.053430434,2.126683,-0.004670709,-14.833832
11592000,0.101261504,0.18900728,0.047778774,2.119978,0.031057248,-14.824912
11596000,0.10168391,0.18845686,0.049649626,2.07195,0.060337096,-14.812378
11600000,0.103567064,0.18733577,0.042900097,2.0254195,0.055268697,-14.752908
11604000,0.105845116,0.1801972,0.040080342,2.0791688,-0.02717915,-14.712759
11608000,0.10201799,0.18353735,0.035818454,2.0562549,-0.053492825,-14.732304
11612000,0.10006438,0.1853238,0.030026289,1.9593796,0.024595357,-14.7506275
11616000,0.102801405,0.18277894,0.024894552,1.991632,0.006078359,-14.711564
11624000,0.10586242,0.18077081,0.020470584,2.0156248,0.03173241,-14.634622
11628000,0.09745553,0.17842044,0.01269422,2.0516484,0.08659984,-14.574514
11632000,0.09076974,0.17713352,0.012551465,1.9740064,0.03665669,-14.478599
11636000,0.0980343,0.17116486,0.0117948,2.0009012,0.06400297,-14.44439
11640000,0.10005617,0.17222013,0.012068673,1.9445324,0.03286046,-14.47164
11644000,0.09950769,0.17438503,0.009569657,1.7742461,-0.009165418,-14.472966
11648000,0.09237798,0.17161086,0.002231033,1.7849776,-0.0766807,-14.400601
11652000,0.08431835,0.16552609,0.005290816,1.8296303,-0.088439964,-14.315271
11656000,0.08531197,0.16252741,0.004407762,1.831871,-0.017784392,-14.290116
11660000,0.0856742,0.16297814,-0.004763256,1.8161131,-0.05421035,-14.327132
11664000,0.08179628,0.15855443,-0.003778112,1.8478798,-0.1173066,-14.332664
11672000,0.07936739,0.15359975,0.000722368,1.7614509,-0.16093047,-14.146077
11680000,0.07722367,0.1626647,-0.006382876,1.7122091,-0.09821549,-14.145083
11688000,0.0780036,0.15444808,-0.009697303,1.7320083,-0.15640354,-13.995953
11696000,0.074998595,0.15531512,-0.002778512,1.6769199,-0.1405822,-13.968263
11700000,0.07596364,0.15310189,-0.002959481,1.6644735,-0.082862295,-13.938676
11708000,0.081322305,0.15573068,-0.00269135,1.7096529,-0.16008987,-13.845428
11712000,0.07770325,0.14997871,-0.00756733,1.7450017,-0.10675602,-13.89875
11716000,0.07543589,0.14545864,-0.008636536,1.59179,-0.14456522,-13.862923
11720000,0.07508409,0.14752147,-0.004927705,1.5590079,-0.19751078,-13.745879
11728000,0.06696268,0.15198044,-0.000728285,1.6054211,-0.16747098,-13.686015
11732000,0.069076054,0.14605072,-0.000609436,1.610309,-0.17063259,-13.731691
11736000,0.07130601,0.13971189,-0.00292367,1.5584855,-0.15554948,-13.706838
11740000,0.069009185,0.13870513,-0.004956545,1.5470486,-0.16240837,-13.646052
11744000,0.064732604,0.14225912,0.002066998,1.5896037,-0.24297294,-13.635079
11752000,0.06748444,0.14644049,-0.000690361,1.5636313,-0.30196714,-13.519422
11756000,0.06298059,0.14202176,-0.005268651,1.4893626,-0.2867665,-13.4794
11760000,0.05777225,0.140619,-0.004523124,1.4383605,-0.31721193,-13.543834
11768000,0.054797273,0.14135803,0.005901113,1.4138246,-0.32431376,-13.456981
11772000,0.061968006,0.1381429,0.010180634,1.5124459,-0.31097168,-13.434844
11776000,0.06689085,0.14015028,0.00699578,1.5140262,-0.30759138,-13.44955
11780000,0.06450938,0.1475476,0.011387203,1.4685539,-0.3399004,-13.373877
11784000,0.0628953,0.14358209,0.011367328,1.4113022,-0.37172753,-13.3525095
11792000,0.058361944,0.14477712,0.017168624,1.4123942,-0.2929857,-13.326374
11796000,0.058723718,0.1410355,0.023028724,1.4722733,-0.3392125,-13.34941
11800000,0.059640784,0.14480583,0.02662357,1.4492233,-0.3367161,-13.399765
11808000,0.05559242,0.14012708,0.026973335,1.4109309,-0.373047,-13.2236
11812000,0.053108744,0.14748979,0.02732491,1.3598492,-0.3112156,-13.2274065
11820000,0.058662582,0.13917507,0.043413956,1.4708215,-0.39636767,-13.210838
11824000,0.05740835,0.14503087,0.044497047,1.4530064,-0.3180213,-13.152344
11832000,0.051121134,0.14489825,0.040526252,1.2807164,-0.4432306,-13.197086
11836000,0.05116853,0.15055616,0.04049941,1.3077784,-0.41196418,-13.182001
11840000,0.05539216,0.14927383,0.04391438,1.318269,-0.37650165,-13.257324
11844000,0.0585053,0.13649826,0.04920027,1.3127886,-0.3634851,-13.248283
11848000,0.055505328,0.13524587,0.054611452,1.3138533,-0.36522403,-13.171866
11852000,0.05133719,0.14268987,0.05162277,1.2935654,-0.41088384,-13.212399
11860000,0.053107467,0.14955683,0.058400765,1.2799902,-0.36507207,-13.110808
11864000,0.050491843,0.14649598,0.061842494,1.2845706,-0.38738278,-13.1368475
11868000,0.044195868,0.14485267,0.06693464,1.2444851,-0.3612168,-13.264971
11872000,0.04504169,0.15239765,0.07247255,1.2796539,-0.4029101,-13.297528
11880000,0.047787406,0.1536683,0.06484434,1.264039,-0.44537032,-13.208043
11884000,0.04606522,0.1492724,0.061935946,1.2323947,-0.41005307,-13.20157
11888000,0.048667,0.14934236,0.0632518,1.1854846,-0.42309916,-13.204762
11896000,0.042731535,0.14816451,0.079945,1.2456579,-0.42295098,-13.182379
11904000,0.045181196,0.15037915,0.075198285,1.240343,-0.37365723,-13.28619
11908000,0.048802026,0.15043972,0.07777505,1.1270225,-0.43594548,-13.3005
11912000,0.048165426,0.15818045,0.07743099,1.0644877,-0.4722177,-13.289504
11920000,0.04346555,0.15438704,0.08028296,1.1526694,-0.35495996,-13.213568
11928000,0.038024634,0.15301354,0.08728962,1.1683152,-0.37964812,-13.244934
11932000,0.04771221,0.15971413,0.08837125,1.1682712,-0.37953573,-13.291871
11936000,0.046546627,0.15817052,0.08667829,1.1214341,-0.35354006,-13.289983
11940000,0.041110553,0.1579836,0.084921926,1.1150877,-0.41359577,-13.20734
11944000,0.045203075,0.15917572,0.09213381,1.1088431,-0.40357983,-13.213473
11952000,0.04532705,0.16411775,0.09637695,1.0967133,-0.3937411,-13.311313
11956000,0.04502899,0.16356212,0.09108556,1.0583389,-0.33471674,-13.364624
11964000,0.0468985,0.15856324,0.09438664,1.1864115,-0.37013498,-13.291894
11968000,0.042637624,0.16274282,0.09548675,1.1346831,-0.32148185,-13.377221
11972000,0.0402499,0.1643117,0.09292791,1.0575881,-0.3442479,-13.473494
11976000,0.046263985,0.16369253,0.08511804,1.0611861,-0.41316614,-13.471817
11980000,0.0450469,0.16542964,0.08706634,1.0602126,-0.43496346,-13.462344
11984000,0.036095947,0.16466385,0.09360351,1.0848843,-0.42546284,-13.392421
11988000,0.033843067,0.16615134,0.09400774,1.1125015,-0.38931215,-13.305736
11992000,0.03496835,0.16399755,0.09776994,1.1405296,-0.40194708,-13.342
11996000,0.033781484,0.1613303,0.098796286,1.0866873,-0.45597708,-13.287005
12000000,0.034466002,0.1611012,0.08919679,1.0464007,-0.37156662,-13.36332
12004000,0.034883454,0.1587873,0.09206864,1.100351,-0.29583818,-13.46164
12008000,0.03177882,0.1603457,0.09720994,1.1284372,-0.35313663,-13.468142
12012000,0.033087593,0.16157126,0.09617814,1.1052777,-0.3344008,-13.468218
12020000,0.035997413,0.15785745,0.09079098,0.99283725,-0.40534684,-13.40248
12028000,0.039706144,0.16627373,0.09136471,1.1269561,-0.41702867,-13.523567
12032000,0.036835328,0.16634755,0.08913178,1.0405595,-0.4227563,-13.533325
12040000,0.036230013,0.17126173,0.08680774,1.0062487,-0.38582557,-13.504674
12044000,0.03133902,0.1711512,0.08437599,1.0405779,-0.3121532,-13.481498
12052000,0.032811224,0.16783011,0.08660594,0.9796908,-0.33618802,-13.485562
12056000,0.028037751,0.16732107,0.084762916,1.0364698,-0.30005214,-13.511728
12060000,0.024275035,0.17095019,0.08743789,1.009433,-0.35732487,-13.609738
12068000,0.030041754,0.1715801,0.08739276,1.0994898,-0.3071968,-13.535257
12072000,0.025857972,0.1659653,0.08634851,0.9646404,-0.2716072,-13.561975
12076000,0.026944311,0.16499785,0.08147682,0.9212189,-0.32254517,-13.5817375
12080000,0.03265359,0.16853516,0.08169822,1.0135494,-0.36678126,-13.532074
12088000,0.020441813,0.17372696,0.075925596,1.0088842,-0.27922025,-13.525798
12092000,0.024055954,0.17167096,0.072962776,1.0139214,-0.29068446,-13.527636
12096000,0.02659958,0.17714638,0.07160423,0.9880699,-0.31570068,-13.525422
12100000,0.024440005,0.17017871,0.07974362,0.95936936,-0.30610976,-13.624374
12108000,0.029149944,0.17187609,0.073853575,0.9970239,-0.36276644,-13.625719
12112000,0.029619347,0.16910768,0.06872433,0.9472279,-0.35030228,-13.610867
12116000,0.032069,0.17191418,0.06544951,0.86900723,-0.37248015,-13.561588
12120000,0.022783756,0.17135997,0.07341668,0.9554793,-0.35983923,-13.55348
12128000,0.032679312,0.166654,0.07105369,1.0092385,-0.34752402,-13.609344
12132000,0.024169851,0.16629733,0.06478897,0.9721492,-0.3114167,-13.504741
12136000,0.0254782,0.16419499,0.061596915,1.0030569,-0.317829,-13.537254
12140000,0.025728641,0.16846941,0.06779025,0.99936813,-0.3470869,-13.582921
12144000,0.025688073,0.17145734,0.07048178,0.97251445,-0.35098237,-13.563842
12152000,0.02163879,0.1663594,0.06274177,1.0406651,-0.3624189,-13.523347
12156000,0.017285623,0.16276613,0.05520427,0.95142275,-0.38018176,-13.548756
12164000,0.016384434,0.17032932,0.055990964,1.053107,-0.44620785,-13.551799
12168000,0.016055087,0.16455013,0.058324985,1.0139939,-0.42262748,-13.480756
12172000,0.01763502,0.16166525,0.05661649,1.0121076,-0.38033262,-13.51729
12176000,0.020305948,0.16636682,0.05340725,0.9806734,-0.44755718,-13.565541
12180000,0.022066366,0.1678971,0.055386312,0.94791055,-0.4376867,-13.553404
12184000,0.020743327,0.16717272,0.05652879,0.91331583,-0.3596791,-13.549721
12188000,0.01617406,0.17052005,0.045341916,0.92832106,-0.36111823,-13.562827
12192000,0.01746867,0.16786984,0.047145568,0.9889677,-0.27942944,-13.573661
12196000,0.018287903,0.16564462,0.050760765,0.99946153,-0.3286786,-13.560553
12204000,0.020452864,0.16428949,0.051479116,0.98403406,-0.4523319,-13.476614
12208000,0.021882944,0.16444279,0.05088084,0.99795216,-0.4553476,-13.5329275
12212000,0.020350192,0.1678771,0.050645106,1.037528,-0.3903707,-13.53571
12220000,0.015276412,0.16349864,0.041986987,1.0250441,-0.4448032,-13.444598
12224000,0.018011285,0.16578618,0.041944157,1.0053693,-0.42558935,-13.443317
12228000,0.018756786,0.16464376,0.041706156,0.9975523,-0.39211747,-13.455263
12232000,0.011270432,0.16876227,0.038329344,1.0024272,-0.47245285,-13.478599
12236000,0.010016397,0.16561192,0.04692754,1.0178454,-0.5217714,-13.427647
12240000,0.011594654,0.16182068,0.047012694,0.9799452,-0.44019455,-13.41082
12248000,0.005553312,0.16387345,0.046114743,1.1293352,-0.42181978,-13.456988
12252000,0.006988363,0.1625583,0.043519244,1.1566046,-0.43397656,-13.448427
12256000,0.014519138,0.16686532,0.037013147,1.0552607,-0.43900928,-13.51832
12260000,0.012983766,0.1653508,0.035075374,0.9880754,-0.42140636,-13.52476
12264000,0.015918473,0.16301976,0.038014967,1.0207039,-0.43743947,-13.432372
12272000,0.007831095,0.16047911,0.04761505,1.0761447,-0.44980302,-13.368635
12276000,0.01022579,0.16393694,0.048634984,1.0103525,-0.49376824,-13.430551
12284000,0.011645769,0.15872374,0.03836343,0.9697198,-0.5428005,-13.393545
12288000,0.015694695,0.15603295,0.03630675,0.9469953,-0.5234634,-13.339662
12292000,0.00991956,0.15594244,0.04746513,1.0433571,-0.52748185,-13.316428
12296000,0.003783903,0.15072493,0.04866104,1.0323408,-0.5224975,-13.359422
12300000,0.005893488,0.15454054,0.041729312,1.025798,-0.5716729,-13.320768
12304000,0.010000195,0.15984067,0.038483553,0.9881656,-0.60654444,-13.298642
12308000,0.010360673,0.16035505,0.038331818,0.9916746,-0.5666614,-13.268868
12316000,0.00451673,0.15011467,0.03973056,0.9733191,-0.50358605,-13.281007
12320000,0.012513265,0.15401235,0.046293847,0.976186,-0.53175515,-13.225234
12324000,0.01202011,0.15956843,0.04528391,1.027312,-0.5951861,-13.217878
12332000,0.007387474,0.15473591,0.042658992,0.9935817,-0.5729432,-13.305263
12340000,0.000170824,0.16297351,0.03651214,1.0153604,-0.6266291,-13.334207
12344000,0.002439719,0.1603623,0.03926403,1.0107253,-0.6269436,-13.307177
12348000,0.002623745,0.1522091,0.040307775,0.98815,-0.6242177,-13.192039
12352000,0.001317237,0.1576398,0.04697794,0.9903263,-0.61184496,-13.217437
12356000,0.001868813,0.159202,0.047471184,1.01212,-0.6080164,-13.27183
12360000,-0.001954459,0.15356243,0.043488767,0.98019755,-0.5494519,-13.288152
12364000,-0.003149473,0.15330979,0.04457435,0.9323968,-0.4846314,-13.263191
12368000,0.0013324,0.15835428,0.047964644,0.9191366,-0.5315923,-13.17526
12372000,0.006668066,0.16144398,0.048680954,0.93855536,-0.49877486,-13.131641
12380000,0.001900495,0.15379168,0.050901033,1.0721858,-0.5371361,-13.13507
12384000,0.001336666,0.15070261,0.049696125,1.008022,-0.5903213,-13.182677
12388000,0.004623812,0.15119733,0.047184415,0.9814203,-0.6305402,-13.163929
12392000,0.008452406,0.15091102,0.05129218,1.0540327,-0.6435369,-13.13866
12396000,0.005324565,0.14940098,0.057164956,1.0587755,-0.55428416,-13.114779
12400000,0.00575215,0.1518606,0.058427643,0.9614156,-0.4800309,-13.130298
12408000,-0.0046969,0.15612097,0.055813443,1.0430045,-0.625674,-13.239044
12416000,0.00414501,0.16223858,0.05588517,1.0240701,-0.5525252,-13.260095
12420000,-0.000246739,0.15865724,0.054890297,1.0367869,-0.55431384,-13.114601
12424000,-0.001814608,0.15918152,0.048412874,1.0722511,-0.5215127,-13.108593
12428000,0.000162885,0.1568778,0.045941032,1.0988348,-0.5688917,-13.169836
12432000,-0.000762528,0.1485275,0.054796524,1.1629338,-0.61779827,-13.245523
12436000,-0.001739141,0.15547961,0.05658761,1.1497388,-0.5852255,-13.254329
12440000,-0.002230489,0.16278934,0.060115993,1.1410235,-0.6038691,-13.201178
12444000,0.003313888,0.15991826,0.062754534,1.1242924,-0.61905956,-13.162116
12452000,-0.000112816,0.16194683,0.061591182,1.1321024,-0.5651108,-13.145009
12460000,-0.002490892,0.15528353,0.059066262,1.1307538,-0.61055434,-13.177447
12464000,0.001069894,0.15324543,0.062085547,1.1402266,-0.6501134,-13.17283
12468000,0.000867754,0.15299049,0.061631445,1.1711243,-0.6423914,-13.169711
12476000,0.006229555,0.1639648,0.060659204,1.1344702,-0.56336033,-13.111378
12480000,0.004222535,0.15929608,0.062415197,1.1306846,-0.5550003,-13.137835
12484000,0.006086382,0.15676813,0.060390927,1.0789438,-0.60587364,-13.208412
12488000,0.007671149,0.16169435,0.058929835,1.0386341,-0.6681677,-13.1778
12496000,-0.002697613,0.16231693,0.07350814,1.1733888,-0.59458995,-13.226623
12500000,0.002227214,0.16624016,0.06428924,1.1718729,-0.61515677,-13.248221
12504000,0.002610447,0.16334718,0.06629453,1.1396364,-0.5914857,-13.250028
12512000,-0.006188925,0.15871964,0.060478978,1.0641956,-0.6340256,-13.207843
12520000,-0.004272858,0.1661653,0.06424709,1.2003247,-0.59282494,-13.22089
12524000,-0.006408363,0.17008922,0.071472675,1.1789023,-0.5439115,-13.200183
12528000,0.001021265,0.16157004,0.07267261,1.1041085,-0.52385354,-13.169161
12536000,-0.00539196,0.16546404,0.06246015,1.1911999,-0.7151447,-13.243203
12540000,-0.001742871,0.16966161,0.067711405,1.2048376,-0.67763376,-13.22146
12548000,-0.002237327,0.16510011,0.06596256,1.2330548,-0.67598665,-13.257236
12552000,0.005858324,0.16280046,0.062043834,1.2219236,-0.6040264,-13.266217
12556000,0.003373848,0.16607241,0.060901392,1.2154838,-0.63177323,-13.309722
12564000,-0.003634831,0.16194497,0.06985147,1.2237711,-0.6037826,-13.279895
12568000,-0.005743711,0.16665843,0.06771771,1.2648758,-0.639044,-13.301556
12572000,-0.003428437,0.16549672,0.059840463,1.266904,-0.6283693,-13.277728
12576000,-0.004570693,0.16229726,0.06144952,1.3150395,-0.60624063,-13.247491
12580000,-0.002821719,0.16372938,0.06397715,1.3448349,-0.64207584,-13.305399
12584000,-0.000798443,0.16547833,0.06241018,1.3271977,-0.65760016,-13.337451
12588000,-0.005500704,0.16821793,0.06538094,1.2304811,-0.6264839,-13.377686
12592000,-0.009125989,0.16470197,0.06327809,1.1925225,-0.65212834,-13.356402
12600000,-0.002616606,0.16891804,0.06121224,1.2443844,-0.6534426,-13.263156
12604000,-0.0094211,0.16658618,0.060490634,1.2793264,-0.6563698,-13.30302
12608000,-0.005990679,0.16873372,0.06487839,1.2081124,-0.6942268,-13.336862
12612000,-0.006233657,0.17145564,0.06796083,1.2436279,-0.68476444,-13.30756
12620000,-0.009768532,0.1727575,0.060981285,1.2191757,-0.71221757,-13.251193
12624000,-0.010911831,0.17211021,0.062616184,1.2137976,-0.7229905,-13.296941
12628000,-0.003687932,0.16951028,0.06510944,1.1999115,-0.68799907,-13.349554
12632000,-0.009793036,0.17465962,0.05855841,1.1898988,-0.6709155,-13.302077
12640000,-0.009228187,0.17572139,0.057258822,1.2899154,-0.64400995,-13.374763
12648000,-0.006078749,0.16876128,0.061679482,1.3124561,-0.6264839,-13.329934
12656000,-0.015818926,0.17960964,0.0598068,1.246693,-0.648085,-13.316596
12660000,-0.016424166,0.17797644,0.060888298,1.2320328,-0.65369207,-13.328361
12664000,-0.013843919,0.17219602,0.06412732,1.254899,-0.6297751,-13.317271
12672000,-0.010098384,0.17268495,0.06035213,1.2943457,-0.6798166,-13.383725
12676000,-0.013976614,0.17485027,0.057146356,1.3308843,-0.73506224,-13.378102
12680000,-0.011118045,0.17155062,0.05849482,1.3752404,-0.66090256,-13.397431
12684000,-0.005005619,0.16934699,0.063124456,1.2830483,-0.65462583,-13.397933
12692000,-0.012833618,0.17674924,0.058350947,1.272274,-0.54197055,-13.42356
12696000,-0.013977595,0.17864153,0.061661445,1.2961059,-0.6497137,-13.450384
12700000,-0.014306002,0.17950734,0.05859698,1.2683756,-0.6575436,-13.36331
12708000,-0.009178901,0.17327335,0.060223103,1.3053482,-0.6821907,-13.2976885
12712000,-0.010524435,0.16960293,0.05803025,1.3493158,-0.68957055,-13.29183
12716000,-0.008452267,0.17326035,0.05739222,1.3385824,-0.64366657,-13.341342
12720000,-0.009382363,0.17500561,0.056148063,1.2565804,-0.62171805,-13.3734
12724000,-0.009952895,0.1718436,0.053558048,1.254026,-0.6793694,-13.311898
12732000,-0.010595121,0.17179011,0.05073181,1.3728584,-0.6580397,-13.373582
12736000,-0.002923437,0.17440744,0.051339913,1.3644859,-0.6762993,-13.416154
12740000,-0.008219741,0.17805342,0.05113618,1.3450027,-0.69198394,-13.369601
12744000,-0.01659336,0.1741242,0.052848607,1.3224254,-0.7308661,-13.304613
12748000,-0.016278414,0.16969928,0.051611885,1.316148,-0.73591423,-13.342824
12756000,-0.006188603,0.18096566,0.04705451,1.3118907,-0.77188414,-13.325894
12760000,-0.011169884,0.17896912,0.046712637,1.4159259,-0.6872424,-13.330903
12764000,-0.009022263,0.18164945,0.042434305,1.4423038,-0.66865325,-13.475741
12768000,-0.013249256,0.17826523,0.042158738,1.4423038,-0.66865325,-13.475741
12772000,-0.015684333,0.17278199,0.042040523,1.4507526,-0.6725857,-13.410935
12776000,-0.014848193,0.17845827,0.043571834,1.4102341,-0.70043945,-13.437984
12780000,-0.01544141,0.18312871,0.045320075,1.3699565,-0.64512676,-13.447518
12784000,-0.013729992,0.17869185,0.044944867,1.3737828,-0.6633783,-13.396711
12788000,-0.010447432,0.17487627,0.046069488,1.4533175,-0.6705836,-13.3725605
12792000,-0.006683206,0.17553177,0.04815186,1.461122,-0.6585709,-13.420077
12796000,-0.00991485,0.17774178,0.050985884,1.4576468,-0.71844673,-13.485848
12800000,-0.012891296,0.18030594,0.051372737,1.3718184,-0.7452282,-13.4194
12804000,-0.013944569,0.18028952,0.050490946,1.3640468,-0.7027674,-13.374537
12812000,-0.007926388,0.17392728,0.055204242,1.4609329,-0.74290603,-13.381179
12816000,-0.00966963,0.17273171,0.0492782,1.4669824,-0.73513937,-13.396126
12819999,-0.016030664,0.18197814,0.044203077,1.4433314,-0.7336277,-13.400911
12824000,-0.01635882,0.18045741,0.051271174,1.4391755,-0.75531894,-13.371751
12828000,-0.013001707,0.17575946,0.049859934,1.482493,-0.69901067,-13.382216
12831999,-0.01332851,0.18128091,0.04662239,1.5026119,-0.5990882,-13.429556
12836000,-0.015649455,0.1819052,0.04918572,1.551126,-0.6459701,-13.420957
12844000,-0.015121274,0.18161307,0.054300856,1.493859,-0.741648,-13.396292
12848000,-0.01520633,0.17660338,0.05358402,1.5014285,-0.70018506,-13.397554
12851999,-0.02363688,0.17278425,0.041546386,1.5630146,-0.72298974,-13.422571
12856000,-0.020449053,0.17215914,0.04171347,1.5432489,-0.73205566,-13.41321
12863999,-0.02293017,0.16690873,0.042423885,1.5662838,-0.801587,-13.464336
12868000,-0.019721407,0.17217314,0.045506027,1.583331,-0.7986493,-13.434397
12876000,-0.024930103,0.18125796,0.049148064,1.5260974,-0.79120415,-13.454408
12880000,-0.019282548,0.1722936,0.046942405,1.5938864,-0.7432936,-13.503642
12883999,-0.018907754,0.16002794,0.042089596,1.5828836,-0.79485,-13.479959
12888000,-0.01564503,0.16206253,0.043322165,1.5462697,-0.7857786,-13.479286
12892000,-0.014039483,0.16329026,0.046274774,1.5381945,-0.66858435,-13.46615
12895999,-0.016589357,0.16320099,0.040750436,1.4705365,-0.7093384,-13.469455
12900000,-0.011913212,0.16008943,0.04459184,1.4396697,-0.77331126,-13.436054
12904000,-0.013787581,0.16015907,0.045829676,1.5568987,-0.77833,-13.319395
12908000,-0.018147891,0.16427173,0.040706355,1.5536462,-0.78918296,-13.266984
12912000,-0.016757477,0.16109955,0.042420577,1.5198972,-0.7516704,-13.313439
12920000,-0.007463301,0.1580468,0.04439514,1.6295611,-0.77420676,-13.292606
12927999,-0.014582712,0.14710768,0.042282116,1.6163117,-0.7561414,-13.380939
12932000,-0.013419687,0.14860362,0.043190457,1.6172638,-0.7123473,-13.396214
12936000,-0.023907287,0.15093601,0.05325752,1.6927644,-0.70114654,-13.378331
12944000,-0.020689718,0.1526295,0.048765007,1.6223799,-0.7756528,-13.27692
12947999,-0.025470123,0.14889044,0.055004817,1.5505065,-0.7698516,-13.268692
12952000,-0.02677499,0.14491957,0.054320995,1.5689614,-0.7891334,-13.163141
12959999,-0.024180466,0.13670692,0.05162254,1.6873915,-0.8362652,-13.133164
12964000,-0.022223385,0.1329274,0.05415576,1.7379546,-0.8395889,-13.131988
12972000,-0.011185014,0.12565956,0.04819466,1.6706219,-0.7592207,-13.064464
12976000,-0.017076729,0.1270842,0.051036604,1.6894387,-0.79071313,-13.027382
12979999,-0.022339653,0.122911505,0.04602741,1.6636724,-0.8117492,-13.025935
12984000,-0.02176778,0.116841264,0.042011704,1.661545,-0.8379751,-12.949709
12988000,-0.021914523,0.12256598,0.046160925,1.6773103,-0.7531838,-12.96908
12991999,-0.002090995,0.12451021,0.052847892,1.6847703,-0.7454286,-12.96884
12996000,0.038124032,0.124093235,0.04863988,1.7149086,-0.80641234,-12.855473
13004000,0.10426872,0.1231199,0.05140168,1.7781006,-0.75779134,-12.726255
13008000,0.14195298,0.10852657,0.04943385,1.7259159,-0.8452151,-12.686978
13011999,0.17192963,0.11134934,0.054090977,1.7243098,-0.83532804,-12.6884365
13020000,0.23819643,0.10678904,0.053326633,1.837657,-0.83235013,-12.716394
13023999,0.26077825,0.111295916,0.050786994,1.8043424,-0.8982939,-12.617472
13028000,0.28184846,0.1093506,0.058533333,1.7611704,-0.87285227,-12.596214
13032000,0.30447233,0.10960013,0.061893497,1.8459152,-0.8699146,-12.54184
13036000,0.33076325,0.113340795,0.061306503,1.8466684,-0.8846082,-12.441665
13040000,0.3509576,0.10710052,0.06251367,1.8007275,-0.9024275,-12.428218
13043999,0.36163,0.103051096,0.065256685,1.8320196,-0.91328037,-12.49951
13048000,0.37767574,0.108329415,0.06590302,1.8424461,-0.8175355,-12.484644
13052000,0.39751983,0.10964362,0.06717308,1.848435,-0.81582457,-12.364338
13055999,0.41532817,0.1084068,0.06800285,1.8517596,-0.83724976,-12.334034
13060000,0.4310554,0.10670592,0.07404864,1.7963974,-0.7907744,-12.320158
13068000,0.45725963,0.106959224,0.077996135,1.9420089,-0.79239744,-12.30821
13072000,0.4740884,0.10600212,0.08355478,1.8764465,-0.8421126,-12.214435
13075999,0.47875044,0.11044453,0.08664321,1.8088325,-0.83969164,-12.174701
13084000,0.48206168,0.10321049,0.08992645,1.9256849,-0.8394812,-12.109217
13087999,0.49579063,0.10343603,0.09068581,1.8975306,-0.8490789,-12.139906
13092000,0.5038235,0.107916586,0.090775214,1.8747591,-0.8495206,-12.095839
13100000,0.5128478,0.105596125,0.0943575,1.8443679,-0.80723166,-12.040932
13104000,0.5194181,0.11139906,0.09214478,1.8899426,-0.78737915,-12.00285
13107999,0.52955735,0.112272725,0.09434625,1.8513864,-0.7712174,-11.940746
13112000,0.53332824,0.10882684,0.09988186,1.8738945,-0.769365,-11.967836
13119999,0.5325088,0.10322464,0.10977377,1.8873804,-0.81826526,-11.853674
13124000,0.53655,0.1022716,0.10310189,1.8936441,-0.69918984,-11.732077
13128000,0.5381011,0.09865288,0.10665667,1.8433805,-0.7532543,-11.729618
13136000,0.5375649,0.100896865,0.11505988,1.9933505,-0.82955533,-11.786172
13139999,0.5389899,0.10109743,0.10860399,1.9634492,-0.7858098,-11.787239
13144000,0.5451927,0.09821398,0.10589627,2.0166812,-0.7307359,-11.770245
13148000,0.54600817,0.09810798,0.11541958,1.9804432,-0.76276964,-11.707247
13151999,0.544882,0.103193946,0.11810592,1.907622,-0.7841549,-11.699005
13156000,0.543757,0.10665214,0.12321469,1.949822,-0.80416375,-11.71907
13160000,0.54356086,0.10494507,0.12172673,1.971266,-0.7254045,-11.708423
13164000,0.5394285,0.098480284,0.117959075,1.9601474,-0.7312746,-11.733623
13168000,0.53828907,0.09855406,0.11918841,1.9573036,-0.7761844,-11.696973
13171999,0.54323155,0.1009268,0.115204096,1.9608271,-0.72092235,-11.682895
13180000,0.536177,0.098035485,0.12289286,1.9997483,-0.77695006,-11.642732
13183999,0.5300023,0.098215535,0.11941499,1.9911882,-0.79329103,-11.57255
13188000,0.5278218,0.10451807,0.12635903,2.0075774,-0.8038595,-11.516824
13196000,0.5247638,0.10403347,0.12417582,1.9950974,-0.6394814,-11.658291
13200000,0.52252996,0.1049956,0.12693325,1.986596,-0.6883792,-11.597858
13203999,0.5134647,0.10425655,0.1299374,2.0247207,-0.79636145,-11.539164
13208000,0.5135906,0.10508905,0.13554792,2.0816417,-0.68469363,-11.470736
13215999,0.508176,0.10954644,0.1326845,1.9513971,-0.66192657,-11.589107
13220000,0.5074571,0.100254275,0.13655826,2.0474942,-0.57798356,-11.493533
13224000,0.50656635,0.10395496,0.13288419,2.0929148,-0.63528526,-11.428738
13228000,0.5029121,0.113819,0.13169548,2.083631,-0.6487999,-11.454136
13232000,0.500126,0.11620404,0.13458763,2.0093243,-0.64670914,-11.490279
13235999,0.4985155,0.109312125,0.13217802,2.0020247,-0.62612045,-11.550165
13240000,0.49344414,0.10882873,0.13491084,2.0173466,-0.61261034,-11.521446
13244000,0.49263453,0.11717242,0.13630956,2.0350888,-0.66946924,-11.49264
13252000,0.481082,0.1191837,0.13637404,2.1051774,-0.6408352,-11.532921
13260000,0.47834113,0.11379782,0.1430112,2.053578,-0.57659096,-11.44939
13264000,0.47658998,0.109668925,0.14047162,2.0531764,-0.59543496,-11.487671
13267999,0.4765032,0.10463932,0.14150654,2.076447,-0.5817327,-11.434568
13272000,0.47276145,0.11125351,0.14356394,2.0068512,-0.5743851,-11.415419
13276000,0.47016776,0.11705836,0.13265939,2.0831254,-0.53548926,-11.44063
13280000,0.4635524,0.1098932,0.1282763,2.1111696,-0.6041797,-11.440839
13284000,0.45849246,0.10700036,0.13626543,2.068776,-0.6325616,-11.4212
13288000,0.45869422,0.11129515,0.13967614,2.1032457,-0.5930509,-11.4516945
13292000,0.4557645,0.11043,0.13939229,2.0894184,-0.6518267,-11.451034
13296000,0.44740525,0.10572354,0.13527556,2.0452921,-0.7024039,-11.403678
13299999,0.44144782,0.10789644,0.133955,2.0497227,-0.6834538,-11.415707
13304000,0.43725333,0.11335509,0.13908614,2.0648913,-0.59362847,-11.40416
13312000,0.43089047,0.11421448,0.1386444,2.1558487,-0.6121179,-11.361783
13316000,0.43377182,0.11480973,0.13597426,2.0799382,-0.6595208,-11.361666
13319999,0.4279382,0.107444376,0.13470413,2.0629754,-0.6182744,-11.4186
13324000,0.4225901,0.10930553,0.134245,2.0644302,-0.53820264,-11.452808
13328000,0.42233992,0.11888499,0.13233043,2.1049416,-0.56967956,-11.415278
13336000,0.40840712,0.11472694,0.12835707,2.0348597,-0.5722994,-11.470396
13340000,0.40818128,0.11120065,0.13181977,2.0864372,-0.62084657,-11.450556
13344000,0.41152617,0.111762226,0.13342634,2.201447,-0.55775857,-11.359269
13352000,0.39951128,0.114155814,0.13036127,2.0939908,-0.54651004,-11.417834
13356000,0.39355475,0.11503964,0.13380682,2.1519659,-0.58852404,-11.420583
13363999,0.3855205,0.11462666,0.13206287,2.145533,-0.5727065,-11.329833
13368000,0.38853395,0.11604731,0.13043626,2.1187263,-0.5854988,-11.312752
13372000,0.38807774,0.12099715,0.13025665,2.106939,-0.6135235,-11.362648
13376000,0.38032264,0.12064493,0.1283082,2.1188514,-0.58011657,-11.427327
13380000,0.37121096,0.11858336,0.12876853,2.0751607,-0.5619909,-11.368842
13388000,0.36413595,0.11432208,0.13246462,2.1478071,-0.5162322,-11.375975
13392000,0.36497104,0.11448664,0.13372374,2.114378,-0.5530726,-11.393296
13395999,0.36304304,0.11402606,0.13085802,2.1460986,-0.5831066,-11.301933
13400000,0.35873854,0.11497619,0.13247888,2.1319604,-0.60578346,-11.303041
13404000,0.34975716,0.11123607,0.12978762,2.1438682,-0.6602533,-11.38701
13408000,0.34300277,0.11355334,0.1260401,2.184708,-0.6664424,-11.345223
13412000,0.34566006,0.11443998,0.13268572,2.2516086,-0.63617235,-11.2945595
13420000,0.33142626,0.10517072,0.12867384,2.1364954,-0.5357828,-11.257332
13427999,0.33347666,0.110523514,0.1284216,2.156797,-0.6414686,-11.224304
13432000,0.32680568,0.10935983,0.12712368,2.1246371,-0.6875939,-11.172941
13436000,0.32666475,0.10435608,0.12936759,2.0964668,-0.7178357,-11.17808
13440000,0.32403582,0.101298384,0.1259569,2.1783626,-0.7161663,-11.200874
13444000,0.31575516,0.1026063,0.12468995,2.239307,-0.6356775,-11.218433
13447999,0.31372774,0.10794646,0.12592788,2.2024932,-0.58301777,-11.189385
13452000,0.31266502,0.106475696,0.12815483,2.1941519,-0.5475747,-11.199324
13459999,0.31255928,0.11552792,0.12477264,2.1619868,-0.5985517,-11.2248745
13464000,0.30805957,0.11022928,0.12914401,2.1373892,-0.6380715,-11.1931095
13468000,0.3053185,0.10921185,0.13164513,2.1661582,-0.66754925,-11.117072
13472000,0.29759967,0.114667386,0.121579565,2.1918433,-0.6274905,-11.125901
13479999,0.29637802,0.11352477,0.12367894,2.1980684,-0.65396583,-11.180878
13488000,0.2866395,0.11036727,0.12871598,2.1851144,-0.536927,-11.16468
13491999,0.28648746,0.11434558,0.12846774,2.1948223,-0.6542732,-11.12504
13496000,0.28286308,0.110741355,0.13203545,2.2889514,-0.6618802,-11.097481
13500000,0.28074318,0.10897501,0.13233584,2.2947934,-0.6276284,-11.119537
13508000,0.27532908,0.10409794,0.13063978,2.2091832,-0.5541784,-11.01164
13516000,0.26940715,0.09552216,0.12927596,2.2410965,-0.5981174,-11.071068
13520000,0.266252,0.104919754,0.12892914,2.2376325,-0.632402,-11.052667
13523999,0.2641347,0.109708756,0.12692744,2.2730937,-0.6531678,-11.039797
13532000,0.2556436,0.10399214,0.13776249,2.237581,-0.7274415,-11.038988
13536000,0.2523255,0.10075882,0.13534337,2.198546,-0.7373173,-10.966404
13543999,0.2515587,0.10494701,0.13886942,2.2463126,-0.67847484,-10.90694
13548000,0.24785346,0.10021619,0.13710588,2.221703,-0.65963304,-10.904148
13552000,0.24344815,0.10372319,0.13518342,2.1960635,-0.68161535,-10.908378
13560000,0.2453944,0.10282207,0.14394107,2.2665658,-0.6920789,-10.805951
13564000,0.2407041,0.10363472,0.13673392,2.2375505,-0.6653724,-10.871417
13568000,0.23526599,0.09787501,0.13623554,2.2217638,-0.6707793,-10.922875
13572000,0.23551525,0.08989185,0.13858916,2.2464647,-0.67495036,-10.825823
13580000,0.23394555,0.09648056,0.14086398,2.2522693,-0.67812026,-10.829147
13588000,0.22888158,0.092944235,0.13650325,2.3313313,-0.71835923,-10.750176
13592000,0.22269483,0.08929323,0.13675882,2.3408685,-0.71126145,-10.661551
13596000,0.21829419,0.09546202,0.14236988,2.341587,-0.6537247,-10.786475
13600000,0.21688166,0.09304362,0.14371821,2.2807975,-0.6229244,-10.808237
13604000,0.21720909,0.09334277,0.15025303,2.2766123,-0.6734628,-10.731942
13608000,0.22122805,0.1009128,0.14599697,2.335575,-0.7054765,-10.745751
13612000,0.21871075,0.10105467,0.14049214,2.3107045,-0.6378704,-10.733252
13620000,0.20588742,0.09352934,0.14180183,2.254971,-0.68028146,-10.7484255
13624000,0.1982526,0.09257238,0.14585128,2.2870982,-0.65281624,-10.677606
13628000,0.1946834,0.09393034,0.14964332,2.3927836,-0.6772385,-10.654666
13632000,0.204031,0.091797784,0.14870328,2.3868756,-0.73209554,-10.672842
13636000,0.20609765,0.09403093,0.14847036,2.3196063,-0.7216511,-10.6738
13640000,0.20018002,0.09650114,0.1512616,2.3159752,-0.72643787,-10.676176
13648000,0.20227349,0.09384626,0.1547576,2.2813134,-0.65576476,-10.5309105
13652000,0.20008726,0.097309604,0.15781142,2.366071,-0.71308804,-10.567353
13656000,0.19517615,0.095245235,0.15863319,2.4063594,-0.6776485,-10.531423
13660000,0.1962347,0.09430173,0.16027364,2.3525949,-0.6603801,-10.532079
13664000,0.18907556,0.09460894,0.1616331,2.3634884,-0.6048565,-10.607734
13668000,0.17677455,0.09198542,0.15874168,2.36475,-0.63215,-10.632634
13672000,0.17938125,0.088069744,0.1606394,2.294917,-0.67284364,-10.613099
13676000,0.18375997,0.088903874,0.15892908,2.357271,-0.64935553,-10.577034
13680000,0.17915727,0.0918613,0.15780243,2.3406906,-0.6310416,-10.514472
13684000,0.17951673,0.0964508,0.16001818,2.2333596,-0.6699128,-10.506346
13692000,0.17898111,0.089720905,0.16265015,2.3705075,-0.650431,-10.483512
13696000,0.18043579,0.09100445,0.15984634,2.3806744,-0.7434557,-10.515156
13700000,0.17286158,0.09278551,0.16136967,2.3029454,-0.8227662,-10.522467
13708000,0.17026775,0.094444,0.1670464,2.335484,-0.75693536,-10.424959
13716000,0.16442826,0.09079955,0.1666643,2.2922196,-0.73378325,-10.335853
13724000,0.16364285,0.08313918,0.1655612,2.3909829,-0.75727224,-10.434261
13728000,0.15976426,0.08868375,0.16330412,2.3420167,-0.762831,-10.473148
13732000,0.15738733,0.0886085,0.161608,2.3335872,-0.67597735,-10.518145
13740000,0.15211824,0.088168725,0.16262509,2.3616083,-0.7627017,-10.38662
13744000,0.15562026,0.09348029,0.16359644,2.3262022,-0.7715255,-10.422497
13748000,0.15447637,0.0924716,0.16761507,2.2625103,-0.7641875,-10.452969
13752000,0.15208125,0.095266014,0.16639353,2.3606777,-0.6815206,-10.379294
13760000,0.16542321,0.09553471,0.16254853,2.305125,-0.82799894,-10.329368
13764000,0.19766462,0.09596502,0.16571201,1.8817004,-0.72683716,-10.381325
13772000,0.25411782,0.10092693,0.1761118,0.64728504,-0.6645892,-10.474622
13780000,0.29516688,0.11356904,0.17338651,-0.000976198,-0.64433587,-10.645586
13784000,0.31829587,0.10684161,0.17698808,-0.32336566,-0.60201544,-10.726126
13788000,0.33659992,0.11010918,0.18186325,-0.5129489,-0.57136583,-10.716008
13792000,0.34090522,0.12488116,0.18820916,-0.6025718,-0.52023315,-10.643169
13796000,0.35206783,0.14069708,0.194176,-0.74317163,-0.46882865,-10.64341
13800000,0.3677117,0.13718565,0.1999217,-0.8447919,-0.5525865,-10.695397
13804000,0.3789793,0.13300745,0.20383714,-0.8971264,-0.530818,-10.750701
13808000,0.38160133,0.14310582,0.2033457,-0.92490196,-0.44731346,-10.795581
13816000,0.39700937,0.14914814,0.20642504,-0.99797803,-0.4838516,-10.76051
13824000,0.40767,0.15806325,0.21577096,-1.0659455,-0.5605715,-10.878492
13828000,0.40674126,0.17061104,0.22337738,-1.0032951,-0.49853966,-10.907545
13832000,0.40624964,0.17277308,0.23076074,-1.0844733,-0.45589897,-10.921447
13836000,0.41053727,0.1723575,0.23521829,-1.133667,-0.3709869,-11.008958
13844000,0.4165376,0.17810918,0.23856759,-1.0916234,-0.350415,-11.084095
13852000,0.42574993,0.18683977,0.2495287,-1.111643,-0.3809075,-11.082828
13856000,0.4208818,0.18751292,0.24826092,-1.1678529,-0.34134537,-11.080572
13860000,0.4222653,0.1923802,0.25030595,-1.1056843,-0.4092088,-11.155476
13868000,0.4238084,0.19691208,0.26782888,-1.0534003,-0.41935313,-11.218228
13872000,0.4251736,0.20285584,0.26548964,-1.0369551,-0.3548198,-11.29867
13880000,0.4271591,0.19350918,0.26807487,-0.9068151,-0.41818225,-11.293076
13884000,0.4253785,0.1955654,0.27330542,-0.9288692,-0.3402074,-11.356733
13888000,0.42390385,0.1974901,0.27328977,-0.92785674,-0.44267187,-11.381951
13892000,0.42245966,0.20086583,0.26744282,-0.8704125,-0.42807892,-11.387181
