timestamp,roll,pitch,yaw,thrust_body[0]
10660000,0.028565567,0.026812814,-0.003154656,1
10664000,0.028606879,0.026746036,-0.003154656,1
10668000,0.028611135,0.026665732,-0.003154656,1
10672000,0.02860935,0.02659833,-0.003154656,1
10676000,0.02867367,0.026567083,-0.003154656,1
10680000,0.028716581,0.026539616,-0.003154656,1
10684000,0.028760327,0.02650135,-0.003154656,1
10688000,0.028792106,0.026474869,-0.003154656,1
10692000,0.02879155,0.026420921,-0.003154656,1
10696000,0.028819665,0.026375828,-0.003154656,1
10700000,0.028884206,0.026323091,-0.003154656,1
10704000,0.028938629,0.026271034,-0.003154656,1
10708000,0.028958317,0.02626649,-0.003154656,1
10712000,0.02896907,0.026250241,-0.003154656,1
10716000,0.02903435,0.026127739,-0.003154656,1
10720000,0.029076472,0.025994545,-0.003154656,1
10724000,0.029106908,-0.5888301,-0.003154656,1
10728000,0.029124003,-0.5889781,-0.003154656,1
10732000,0.029121343,-0.5890695,-0.003154656,1
10736000,0.029093591,-0.58911204,-0.003154656,1
10740000,0.029029498,-0.58914906,-0.003154656,1
10744000,0.028929401,-0.5891396,-0.003154656,1
10748000,0.028794536,-0.5598843,-0.003154656,1
10752000,0.028599434,-0.5597051,-0.003154656,1
10756000,0.028377725,-0.55948526,-0.003154656,1
10760000,0.02810409,-0.55921936,-0.003154656,1
10764000,0.027735543,-0.5589044,-0.003154656,1
10772000,0.02681328,-0.53061485,-0.003154656,1
10776000,0.026294557,-0.5301141,-0.003154656,1
10780000,0.025768291,-0.5295496,-0.003154656,1
10788000,0.024510287,-0.5284158,-0.003154656,1
10792000,0.02380064,-0.52765155,-0.003154656,1
10796000,0.02299984,-0.50076365,-0.003154656,1
10800000,0.022127202,-0.49997085,-0.003154656,1
10804000,0.021253107,-0.49911943,-0.003154656,1
10808000,0.020340692,-0.4982457,-0.003154656,1
10812000,0.01939477,-0.49737084,-0.003154656,1
10820000,0.017357694,-0.4711758,-0.003154656,1
10828000,0.015160302,-0.4694569,-0.003154656,1
10832000,0.014044774,-0.46859023,-0.003154656,1
10836000,0.012923606,-0.4677329,-0.003154656,1
10840000,0.011763599,-0.46688437,-0.003154656,1
10844000,0.010557996,-0.44293433,-0.003154656,1
10848000,0.009296505,-0.44216162,-0.003154656,1
10852000,0.00796393,-0.4413751,-0.003154656,1
10860000,0.005263351,-0.43997318,-0.003154656,1
10864000,0.003857167,-0.43928617,-0.003154656,1
10868000,0.002414969,-0.4165235,-0.003154656,1
10872000,0.000997918,-0.41580236,-0.003154656,1
10876000,-0.000416058,-0.41511986,-0.003154656,1
10880000,-0.0018865,-0.41450372,-0.003154656,1
10884000,-0.003390801,-0.41386694,-0.003154656,1
10888000,-0.004877321,-0.4132698,-0.003154656,1
10892000,-0.006390062,-0.39164504,-0.003154656,1
10896000,-0.007966291,-0.39108405,-0.003154656,1
10900000,-0.009552956,-0.39053148,-0.003154656,1
10904000,-0.011140646,-0.3900188,-0.003154656,1
10908000,-0.012739767,-0.38956124,-0.003154656,1
10912000,-0.014351541,-0.3891474,-0.003154656,1
10916000,-0.015981855,-0.3686174,-0.003154656,1
10920000,-0.017610868,-0.36833578,-0.003154656,1
10924000,-0.019188138,-0.36818758,-0.003154656,1
10928000,-0.02076407,-0.36803746,-0.003154656,1
10932000,-0.022345677,-0.36799297,-0.003154656,1
10936000,-0.024006916,-0.36797935,-0.003154656,1
10940000,-0.025693826,-0.34865615,-0.003154656,1
10948000,-0.029061636,-0.34879,-0.003154656,1
10952000,-0.030763686,-0.34887445,-0.003154656,1
10956000,-0.032471437,-0.34900373,-0.003154656,1
10960000,-0.03416518,-0.34919342,-0.003154656,1
10964000,-0.03588067,-0.33076578,-0.003154656,1
10968000,-0.037575796,-0.3309552,-0.003154656,1
10972000,-0.03928706,-0.33115074,-0.003154656,1
10976000,-0.041041344,-0.33137274,-0.003154656,1
10980000,-0.042785358,-0.3315685,-0.003154656,1
10984000,-0.044542424,-0.33178362,-0.003154656,1
10988000,-0.046315685,-0.31400344,-0.003154656,1
10992000,-0.048078965,-0.3143013,-0.003154656,1
10996000,-0.04981526,-0.31462142,-0.003154656,1
11004000,-0.053294636,-0.31512272,-0.003154656,1
11012000,-0.056739625,-0.29831055,-0.003154656,1
11016000,-0.05845754,-0.2986003,-0.003154656,1
11020000,-0.06015457,-0.29886103,-0.003154656,1
11028000,-0.06355932,-0.299459,-0.003154656,1
11032000,-0.06526499,-0.2997865,-0.003154656,1
11036000,-0.06701531,-0.28321478,-0.003154656,1
11040000,-0.06880094,-0.28353176,-0.003154656,1
11044000,-0.07056063,-0.28388384,-0.003154656,1
11048000,-0.07229355,-0.28426877,-0.003154656,1
11052000,-0.07405815,-0.28459334,-0.003154656,1
11056000,-0.07578547,-0.28488252,-0.003154656,1
11060000,-0.07748147,-0.2687066,-0.003154656,1
11064000,-0.0792007,-0.2690393,-0.003154656,1
11068000,-0.08092948,-0.269345,-0.003154656,1
11076000,-0.08438921,-0.26996174,-0.003154656,1
11080000,-0.086106434,-0.27023745,-0.003154656,1
11084000,-0.087849215,-0.25443625,-0.003154656,1
11088000,-0.089608654,-0.25471476,-0.003154656,1
11092000,-0.09134177,-0.25496826,-0.003154656,1
11096000,-0.09303593,-0.25520733,-0.003154656,1
11100000,-0.09472419,-0.25539693,-0.003154656,1
11108000,-0.09805401,-0.2401148,-0.003154656,1
11112000,-0.099692695,-0.24029401,-0.003154656,1
11116000,-0.10132349,-0.24047369,-0.003154656,1
11124000,-0.104532495,-0.24090111,-0.003154656,1
11128000,-0.10611753,-0.24110986,-0.003154656,1
11132000,-0.10771171,-0.22599706,-0.003154656,1
11136000,-0.10926759,-0.22620028,-0.003154656,1
11140000,-0.11083794,-0.2263643,-0.003154656,1
11144000,-0.112438105,-0.22652195,-0.003154656,1
11152000,-0.115578,-0.22686131,-0.003154656,1
11156000,-0.11714174,-0.2120484,-0.003154656,1
11164000,-0.12025848,-0.21253867,-0.003154656,1
11172000,-0.123318136,-0.2129515,-0.003154656,1
11176000,-0.12482212,-0.2132313,-0.003154656,1
11180000,-0.12631674,-0.1987305,-0.003154656,1
11184000,-0.12780564,-0.19893473,-0.003154656,1
11188000,-0.12930202,-0.19918111,-0.003154656,1
11192000,-0.1307691,-0.19945803,-0.003154656,1
11196000,-0.13220248,-0.19971895,-0.003154656,1
11200000,-0.13365164,-0.1999835,-0.003154656,1
11204000,-0.13510422,-0.18575099,-0.003154656,1
11208000,-0.13652542,-0.18599127,-0.003154656,1
11212000,-0.1379544,-0.18629901,-0.003154656,1
11220000,-0.14071758,-0.18698764,-0.003154656,1
11224000,-0.14208743,-0.18738496,-0.003154656,1
11228000,-0.14346388,-0.17358881,-0.003154656,1
11232000,-0.14481395,-0.1740058,-0.003154656,1
11236000,-0.1461603,-0.1744585,-0.003154656,1
11240000,-0.14752321,-0.17493545,-0.003154656,1
11244000,-0.14890409,-0.1753931,-0.003154656,1
11248000,-0.15026854,-0.17591184,-0.003154656,1
11252000,-0.15162548,-0.16247438,-0.003154656,1
11256000,-0.15297686,-0.16313958,-0.003154656,1
11260000,-0.15427686,-0.16375753,-0.003154656,1
11264000,-0.15555686,-0.16436656,-0.003154656,1
11268000,-0.15682964,-0.16503327,-0.003154656,1
11272000,-0.15806866,-0.16566992,-0.003154656,1
11276000,-0.15931734,-0.15248296,-0.003154656,1
11280000,-0.16057128,-0.15319505,-0.003154656,1
11284000,-0.16182527,-0.15387052,-0.003154656,1
11288000,-0.16309832,-0.1545623,-0.003154656,1
11292000,-0.16436005,-0.15529585,-0.003154656,1
11296000,-0.16560759,-0.15608655,-0.003154656,1
11300000,-0.1668628,-0.14326973,-0.003154656,1
11304000,-0.16807413,-0.14416812,-0.003154656,1
11308000,-0.16926084,-0.14506789,-0.003154656,1
11312000,-0.17044276,-0.14601213,-0.003154656,1
11316000,-0.1716295,-0.14696585,-0.003154656,1
11324000,-0.17402925,-0.13539043,-0.003154656,1
11328000,-0.17520227,-0.13645634,-0.003154656,1
11332000,-0.17630309,-0.13763638,-0.003154656,1
11336000,-0.1773876,-0.1388417,-0.003154656,1
11340000,-0.17849325,-0.14002188,-0.003154656,1
11344000,-0.1795933,-0.14122643,-0.003154656,1
11348000,-0.18065476,-0.12908958,-0.003154656,1
11352000,-0.18170565,-0.13033307,-0.003154656,1
11356000,-0.18278772,-0.13160613,-0.003154656,1
11360000,-0.18386814,-0.13291982,-0.003154656,1
11364000,-0.18490438,-0.13421848,-0.003154656,1
11368000,-0.18590601,-0.13556351,-0.003154656,1
11372000,-0.18691655,-0.12369061,-0.003154656,1
11380000,-0.1889723,-0.12649214,-0.003154656,1
11384000,-0.19000265,-0.12791131,-0.003154656,1
11388000,-0.1910071,-0.1293412,-0.003154656,1
11396000,-0.19302647,-0.11912857,-0.003154656,1
11400000,-0.19402456,-0.120640606,-0.003154656,1
11404000,-0.1949851,-0.122122526,-0.003154656,1
11408000,-0.19595152,-0.12363355,-0.003154656,1
11412000,-0.196901,-0.12519191,-0.003154656,1
11416000,-0.19782314,-0.12675774,-0.003154656,1
11420000,-0.19878235,-0.11523984,-0.003154656,1
11424000,-0.19972041,-0.11678707,-0.003154656,1
11428000,-0.2006247,-0.11835442,-0.003154656,1
11432000,-0.20154378,-0.119943924,-0.003154656,1
11436000,-0.2024512,-0.12155768,-0.003154656,1
11440000,-0.20335923,-0.12316479,-0.003154656,1
11444000,-0.20428185,-0.11176119,-0.003154656,1
11448000,-0.2051943,-0.11334162,-0.003154656,1
11452000,-0.20608126,-0.11493383,-0.003154656,1
11456000,-0.20696554,-0.11657773,-0.003154656,1
11460000,-0.20783621,-0.11824167,-0.003154656,1
11464000,-0.20868014,-0.11989561,-0.003154656,1
11468000,-0.20952019,-0.10864223,-0.003154656,1
11472000,-0.21036199,-0.11029298,-0.003154656,1
11476000,-0.21118274,-0.11195573,-0.003154656,1
11480000,-0.21199569,-0.11366332,-0.003154656,1
11484000,-0.21282594,-0.11540774,-0.003154656,1
11488000,-0.21365175,-0.11716923,-0.003154656,1
11492000,-0.21446915,-0.1059921,-0.003154656,1
11496000,-0.21523367,-0.10764636,-0.003154656,1
11500000,-0.21599025,-0.10935311,-0.003154656,1
11504000,-0.216777,-0.11103138,-0.003154656,1
11508000,-0.21759619,-0.11268933,-0.003154656,1
11512000,-0.21841383,-0.1143623,-0.003154656,1
11516000,-0.21920045,-0.10324211,-0.003154656,1
11520000,-0.21995164,-0.10493534,-0.003154656,1
11524000,-0.22065923,-0.10663659,-0.003154656,1
11528000,-0.22133927,-0.108298086,-0.003154656,1
11532000,-0.22202338,-0.10994834,-0.003154656,1
11540000,-0.22337975,-0.10048154,-0.003154656,1
11548000,-0.22470224,-0.10381566,-0.003154656,1
11552000,-0.22532591,-0.105481535,-0.003154656,1
11556000,-0.22596273,-0.10715945,-0.003154656,1
11560000,-0.22658873,-0.10883271,-0.003154656,1
11564000,-0.22722074,-0.097729646,-0.003154656,1
11568000,-0.22785114,-0.09928008,-0.003154656,1
11572000,-0.22847024,-0.100821406,-0.003154656,1
11576000,-0.2290637,-0.10234331,-0.003154656,1
11580000,-0.22962011,-0.10387658,-0.003154656,1
11588000,-0.23073852,-0.094241254,-0.003154656,1
11592000,-0.23127721,-0.095749535,-0.003154656,1
11596000,-0.23182048,-0.09724901,-0.003154656,1
11600000,-0.23237304,-0.09874793,-0.003154656,1
11604000,-0.23293993,-0.10019281,-0.003154656,1
11608000,-0.23348409,-0.10166896,-0.003154656,1
11612000,-0.2340177,-0.09049251,-0.003154656,1
11616000,-0.23456573,-0.09197606,-0.003154656,1
11620000,-0.23510464,-0.09345368,-0.003154656,1
11624000,-0.23567064,-0.09492506,-0.003154656,1
11628000,-0.23618816,-0.09638699,-0.003154656,1
11632000,-0.23666756,-0.09783922,-0.003154656,1
11636000,-0.23718987,-0.086585216,-0.003154656,1
11640000,-0.23772395,-0.08799981,-0.003154656,1
11644000,-0.23825581,-0.08943296,-0.003154656,1
11648000,-0.23874477,-0.09085429,-0.003154656,1
11652000,-0.23919004,-0.09222318,-0.003154656,1
11656000,-0.23964065,-0.093569666,-0.003154656,1
11660000,-0.24009213,-0.08227668,-0.003154656,1
11664000,-0.24052165,-0.08360433,-0.003154656,1
11668000,-0.24095495,-0.08490028,-0.003154656,1
11672000,-0.24137278,-0.08618204,-0.003154656,1
11676000,-0.2418028,-0.08751146,-0.003154656,1
11680000,-0.24220802,-0.0888718,-0.003154656,1
11684000,-0.24259613,-0.07753664,-0.003154656,1
11688000,-0.24300574,-0.07883831,-0.003154656,1
11692000,-0.24341828,-0.080159016,-0.003154656,1
11696000,-0.24381486,-0.08145698,-0.003154656,1
11700000,-0.24421807,-0.08273685,-0.003154656,1
11708000,-0.24509709,-0.07268573,-0.003154656,1
11712000,-0.24551038,-0.073947385,-0.003154656,1
11716000,-0.24591178,-0.07517409,-0.003154656,1
11720000,-0.2463127,-0.076411664,-0.003154656,1
11724000,-0.24668197,-0.07768309,-0.003154656,1
11728000,-0.24704,-0.07894842,-0.003154656,1
11732000,-0.24741146,-0.06749453,-0.003154656,1
11736000,-0.24779451,-0.06866763,-0.003154656,1
11740000,-0.24815038,-0.06983419,-0.003154656,1
11744000,-0.24848527,-0.07101877,-0.003154656,1
11748000,-0.2488429,-0.07225646,-0.003154656,1
11752000,-0.24919426,-0.07347584,-0.003154656,1
11756000,-0.24951921,-0.061978396,-0.003154656,1
11760000,-0.2498147,-0.06315811,-0.003154656,1
11768000,-0.2503783,-0.06547922,-0.003154656,1
11772000,-0.2507068,-0.06661702,-0.003154656,1
11776000,-0.25106233,-0.06777446,-0.003154656,1
11780000,-0.2514079,-0.05627365,-0.003154656,1
11784000,-0.2517441,-0.05745217,-0.003154656,1
11788000,-0.25205785,-0.058637008,-0.003154656,1
11796000,-0.25269133,-0.06095606,-0.003154656,1
11800000,-0.25301814,-0.062120527,-0.003154656,1
11808000,-0.2536633,-0.05163832,-0.003154656,1
11812000,-0.25395507,-0.05282168,-0.003154656,1
11816000,-0.25426534,-0.05394262,-0.003154656,1
11820000,-0.25459704,-0.05503774,-0.003154656,1
11824000,-0.2549227,-0.05617655,-0.003154656,1
11832000,-0.25551578,-0.04570948,-0.003154656,1
11836000,-0.25580698,-0.046896737,-0.003154656,1
11844000,-0.25646165,-0.049133822,-0.003154656,1
11848000,-0.25678486,-0.050181177,-0.003154656,1
11852000,-0.25708568,-0.038508173,-0.003154656,1
11860000,-0.2577139,-0.04079022,-0.003154656,1
11864000,-0.25801677,-0.041913766,-0.003154656,1
11868000,-0.25828713,-0.04301652,-0.003154656,1
11872000,-0.25856596,-0.04416957,-0.003154656,1
11876000,-0.25889316,-0.03252567,-0.003154656,1
11880000,-0.25918537,-0.033699386,-0.003154656,1
11884000,-0.25946695,-0.034842297,-0.003154656,1
11888000,-0.2597644,-0.03598364,-0.003154656,1
11892000,-0.26003417,-0.037117556,-0.003154656,1
11896000,-0.26030725,-0.03822489,-0.003154656,1
11900000,-0.26059738,-0.02652873,-0.003154656,1
11908000,-0.26119265,-0.028788283,-0.003154656,1
11912000,-0.261499,-0.029976074,-0.003154656,1
11916000,-0.2617839,-0.03115452,-0.003154656,1
11920000,-0.26206583,-0.032307822,-0.003154656,1
11928000,-0.2625689,-0.02168255,-0.003154656,1
11932000,-0.26288277,-0.022866152,-0.003154656,1
11936000,-0.26318935,-0.024039976,-0.003154656,1
11940000,-0.26346925,-0.025204333,-0.003154656,1
11944000,-0.26377687,-0.026367497,-0.003154656,1
11952000,-0.26443204,-0.01581093,-0.003154656,1
11956000,-0.2647413,-0.017009193,-0.003154656,1
11964000,-0.26538545,-0.019349206,-0.003154656,1
11968000,-0.26568586,-0.02053333,-0.003154656,1
11972000,-0.26597238,-0.008765539,-0.003154656,1
11976000,-0.26628911,-0.009972549,-0.003154656,1
11980000,-0.2666024,-0.011189335,-0.003154656,1
11984000,-0.26686862,-0.01239035,-0.003154656,1
11988000,-0.26712352,-0.013601517,-0.003154656,1
11992000,-0.26738733,-0.014790282,-0.003154656,1
11996000,-0.26764578,-0.0029461,-0.003154656,1
12000000,-0.2679028,-0.004126184,-0.003154656,1
12004000,-0.26816556,-0.005283537,-0.003154656,1
12008000,-0.2684143,-0.006445057,-0.003154656,1
12012000,-0.26867104,-0.007616949,-0.003154656,1
12020000,-0.26921275,0.003134444,-0.003154656,1
12028000,-0.2697898,0.000753398,-0.003154656,1
12032000,-0.2700673,-0.000464105,-0.003154656,1
12036000,-0.27032962,-0.001681333,-0.003154656,1
12040000,-0.27060407,-0.002939196,-0.003154656,1
12044000,-0.27084997,0.008895355,-0.003154656,1
12052000,-0.27135247,0.006415489,-0.003154656,1
12056000,-0.27158064,0.005184327,-0.003154656,1
12060000,-0.2717904,0.003929847,-0.003154656,1
12068000,-0.27225196,0.014532851,-0.003154656,1
12072000,-0.27247122,0.013314077,-0.003154656,1
12076000,-0.27269435,0.012096075,-0.003154656,1
12080000,-0.27295116,0.010851124,-0.003154656,1
12084000,-0.2731548,0.009555723,-0.003154656,1
12092000,-0.2735438,0.020167666,-0.003154656,1
12096000,-0.27376255,0.018840758,-0.003154656,1
12100000,-0.2739738,0.017580405,-0.003154656,1
12108000,-0.27443397,0.015061872,-0.003154656,1
12116000,-0.27491578,0.025736704,-0.003154656,1
12120000,-0.275116,0.024459068,-0.003154656,1
12124000,-0.27534562,0.023223478,-0.003154656,1
12128000,-0.27560234,0.021978717,-0.003154656,1
12132000,-0.2758063,0.020727929,-0.003154656,1
12136000,-0.27601555,0.019488648,-0.003154656,1
12140000,-0.27623186,0.031512387,-0.003154656,1
12144000,-0.2764506,0.030230308,-0.003154656,1
12148000,-0.27670163,0.029005587,-0.003154656,1
12152000,-0.27692044,0.027764166,-0.003154656,1
12156000,-0.27710876,0.026539564,-0.003154656,1
12160000,-0.27728248,0.025304938,-0.003154656,1
12164000,-0.27746803,0.03735969,-0.003154656,1
12168000,-0.27765304,0.036125217,-0.003154656,1
12172000,-0.2778455,0.034910634,-0.003154656,1
12176000,-0.2780517,0.033655025,-0.003154656,1
12180000,-0.27827018,0.032390922,-0.003154656,1
12184000,-0.27848217,0.031134428,-0.003154656,1
12188000,-0.27866027,0.043221418,-0.003154656,1
12192000,-0.27884713,0.041943863,-0.003154656,1
12196000,-0.2790421,0.040688988,-0.003154656,1
12204000,-0.2794406,0.038162168,-0.003154656,1
12212000,-0.27986544,0.049082186,-0.003154656,1
12220000,-0.28022513,0.046596657,-0.003154656,1
12224000,-0.280414,0.045326985,-0.003154656,1
12228000,-0.28060699,0.044066116,-0.003154656,1
12232000,-0.28075534,0.04276887,-0.003154656,1
12236000,-0.2809034,0.054996528,-0.003154656,1
12240000,-0.28106028,0.05376548,-0.003154656,1
12244000,-0.28120187,0.05249968,-0.003154656,1
12248000,-0.28132442,0.051252216,-0.003154656,1
12252000,-0.281453,0.050011132,-0.003154656,1
12256000,-0.28162014,0.0487266,-0.003154656,1
12260000,-0.28177693,0.06098701,-0.003154656,1
12264000,-0.28195286,0.059731893,-0.003154656,1
12268000,-0.28213617,0.058501888,-0.003154656,1
12276000,-0.28242815,0.056037188,-0.003154656,1
12284000,-0.28274515,0.06716365,-0.003154656,1
12288000,-0.28291902,0.06595933,-0.003154656,1
12292000,-0.2830701,0.06477341,-0.003154656,1
12296000,-0.28318658,0.063630015,-0.003154656,1
12300000,-0.28330988,0.062446766,-0.003154656,1
12304000,-0.28345492,0.061217614,-0.003154656,1
12308000,-0.28360215,0.07361784,-0.003154656,1
12312000,-0.2837126,0.07240768,-0.003154656,1
12316000,-0.2838267,0.07125328,-0.003154656,1
12320000,-0.2839932,0.0700786,-0.003154656,1
12324000,-0.28415638,0.0688597,-0.003154656,1
12332000,-0.2844314,0.08014131,-0.003154656,1
12340000,-0.28462663,0.07768866,-0.003154656,1
12348000,-0.28486642,0.075291514,-0.003154656,1
12352000,-0.2850024,0.07409876,-0.003154656,1
12356000,-0.28514183,0.08662603,-0.003154656,1
12360000,-0.28525499,0.08545807,-0.003154656,1
12364000,-0.2853618,0.08429379,-0.003154656,1
12368000,-0.28549853,0.083095685,-0.003154656,1
12372000,-0.28566656,0.081874594,-0.003154656,1
12380000,-0.2859662,0.09328274,-0.003154656,1
12384000,-0.2861029,0.09214438,-0.003154656,1
12388000,-0.28625554,0.09099818,-0.003154656,1
12392000,-0.28643417,0.08986033,-0.003154656,1
12396000,-0.2865998,0.08874355,-0.003154656,1
12400000,-0.28676987,0.0876099,-0.003154656,1
12404000,-0.2869201,0.1002797,-0.003154656,1
12408000,-0.28702855,0.099108696,-0.003154656,1
12412000,-0.28715488,0.097905256,-0.003154656,1
12416000,-0.28731495,0.096686706,-0.003154656,1
12420000,-0.28744778,0.095494665,-0.003154656,1
12424000,-0.2875657,0.09428873,-0.003154656,1
12428000,-0.28769162,0.10696615,-0.003154656,1
12432000,-0.28781965,0.10585094,-0.003154656,1
12436000,-0.28794473,0.10468529,-0.003154656,1
12440000,-0.2880722,0.10346912,-0.003154656,1
12444000,-0.28823307,0.1022787,-0.003154656,1
12452000,-0.28854954,0.11379057,-0.003154656,1
12460000,-0.28876632,0.11144359,-0.003154656,1
12464000,-0.28891248,0.11030278,-0.003154656,1
12468000,-0.28905642,0.10916347,-0.003154656,1
12472000,-0.28921694,0.10797051,-0.003154656,1
12476000,-0.28939256,0.12069991,-0.003154656,1
12480000,-0.28955805,0.11951216,-0.003154656,1
12484000,-0.2897311,0.11834072,-0.003154656,1
12488000,-0.28991297,0.11712907,-0.003154656,1
12492000,-0.2900563,0.115935266,-0.003154656,1
12500000,-0.29035097,0.12750472,-0.003154656,1
12504000,-0.29051185,0.12629266,-0.003154656,1
12508000,-0.29064292,0.12512846,-0.003154656,1
12512000,-0.29074636,0.12394416,-0.003154656,1
12516000,-0.29087222,0.12273204,-0.003154656,1
12524000,-0.2911071,0.13428195,-0.003154656,1
12528000,-0.2912645,0.13309284,-0.003154656,1
12532000,-0.2913924,0.13191575,-0.003154656,1
12540000,-0.29163834,0.1294234,-0.003154656,1
12548000,-0.2918814,0.14102854,-0.003154656,1
12552000,-0.292053,0.13981174,-0.003154656,1
12556000,-0.29224914,0.13857801,-0.003154656,1
12564000,-0.2925925,0.13617511,-0.003154656,1
12568000,-0.29274276,0.13494918,-0.003154656,1
12572000,-0.29289633,0.14783765,-0.003154656,1
12576000,-0.29304478,0.14663489,-0.003154656,1
12580000,-0.29320538,0.14542489,-0.003154656,1
12584000,-0.29337654,0.14419897,-0.003154656,1
12588000,-0.2935238,0.14295746,-0.003154656,1
12592000,-0.29364756,0.14174026,-0.003154656,1
12600000,-0.2939477,0.15343323,-0.003154656,1
12604000,-0.29406554,0.15219727,-0.003154656,1
12608000,-0.29420882,0.15095146,-0.003154656,1
12612000,-0.2943539,0.14968984,-0.003154656,1
12616000,-0.29448533,0.14843169,-0.003154656,1
12620000,-0.294602,0.16133866,-0.003154656,1
12624000,-0.29471433,0.1600634,-0.003154656,1
12628000,-0.2948694,0.15881108,-0.003154656,1
12632000,-0.29498345,0.15750994,-0.003154656,1
12640000,-0.2951965,0.15485023,-0.003154656,1
12644000,-0.29530808,0.16781442,-0.003154656,1
12648000,-0.2954448,0.16656198,-0.003154656,1
12652000,-0.2955672,0.16528343,-0.003154656,1
12656000,-0.29564822,0.16394667,-0.003154656,1
12660000,-0.29572576,0.16262431,-0.003154656,1
12664000,-0.29582095,0.16135111,-0.003154656,1
12668000,-0.29593718,0.17433736,-0.003154656,1
12672000,-0.2960491,0.17305276,-0.003154656,1
12676000,-0.29613456,0.17174736,-0.003154656,1
12680000,-0.29623768,0.170469,-0.003154656,1
12684000,-0.29638,0.16921404,-0.003154656,1
12692000,-0.2965964,0.18091093,-0.003154656,1
12696000,-0.29668805,0.17958285,-0.003154656,1
12700000,-0.2967736,0.1782435,-0.003154656,1
12704000,-0.29687858,0.17689417,-0.003154656,1
12708000,-0.29699364,0.17560463,-0.003154656,1
12716000,-0.2972132,0.18736325,-0.003154656,1
12720000,-0.29732257,0.18605202,-0.003154656,1
12724000,-0.29742402,0.18476132,-0.003154656,1
12732000,-0.29760247,0.18218046,-0.003154656,1
12736000,-0.29774112,0.18086548,-0.003154656,1
12740000,-0.29784873,0.19387269,-0.003154656,1
12744000,-0.29791006,0.19256389,-0.003154656,1
12748000,-0.297969,0.19128695,-0.003154656,1
12752000,-0.29807237,0.18995374,-0.003154656,1
12756000,-0.29823196,0.1885919,-0.003154656,1
12760000,-0.2983612,0.18724589,-0.003154656,1
12768000,-0.29860702,0.1989013,-0.003154656,1
12772000,-0.29870048,0.1975949,-0.003154656,1
12776000,-0.29880258,0.19624731,-0.003154656,1
12780000,-0.29890352,0.1948669,-0.003154656,1
12784000,-0.29901296,0.19351956,-0.003154656,1
12788000,-0.29914036,0.2066073,-0.003154656,1
12796000,-0.29942945,0.20395416,-0.003154656,1
12800000,-0.29955092,0.20260327,-0.003154656,1
12804000,-0.29966393,0.20125145,-0.003154656,1
12808000,-0.2997796,0.19990844,-0.003154656,1
12812000,-0.29993096,0.21304454,-0.003154656,1
12816000,-0.30006436,0.2117465,-0.003154656,1
12819999,-0.300156,0.21037132,-0.003154656,1
12824000,-0.30025518,0.20901844,-0.003154656,1
12828000,-0.30036938,0.20769902,-0.003154656,1
12831999,-0.30047914,0.2063327,-0.003154656,1
12836000,-0.30057824,0.21225666,-0.003154656,1
12844000,-0.30078635,0.20954165,-0.003154656,1
12848000,-0.3008923,0.20822208,-0.003154656,1
12851999,-0.30093127,0.20691456,-0.003154656,1
12856000,-0.30098885,0.2056109,-0.003154656,1
12860000,-0.30105853,0.20434047,-0.003154656,1
12868000,-0.301166,0.20177828,-0.003154656,1
12876000,-0.3012612,0.19908278,-0.003154656,1
12880000,-0.30133078,0.19778526,-0.003154656,1
12883999,-0.30139115,0.19657324,-0.003154656,1
12888000,-0.30147278,0.19534644,-0.003154656,1
12892000,-0.30156717,0.1941151,-0.003154656,1
12895999,-0.30163944,0.19287644,-0.003154656,1
12900000,-0.30174208,0.19166638,-0.003154656,1
12904000,-0.30183607,0.19045849,-0.003154656,1
12908000,-0.30189812,0.18920973,-0.003154656,1
12912000,-0.30196992,0.18798772,-0.003154656,1
12915999,-0.30206507,0.18676049,-0.003154656,1
12920000,-0.30219138,0.18556327,-0.003154656,1
12924000,-0.3022872,0.18443456,-0.003154656,1
12927999,-0.30236593,0.18331969,-0.003154656,1
12932000,-0.3024512,0.18219256,-0.003154656,1
12936000,-0.30249226,0.18106589,-0.003154656,1
12940000,-0.30252448,0.17994915,-0.003154656,1
12944000,-0.30257633,0.1788016,-0.003154656,1
12947999,-0.30260724,0.17769371,-0.003154656,1
12952000,-0.3026286,0.17661472,-0.003154656,1
12956000,-0.30266482,0.175514,-0.003154656,1
12959999,-0.30269307,0.17449205,-0.003154656,1
12964000,-0.30277246,0.17351693,-0.003154656,1
12968000,-0.30289665,0.1725508,-0.003154656,1
12972000,-0.30302572,0.17162012,-0.003154656,1
12979999,0.29610798,0.18872602,0.047302548,1
12984000,0.296011,0.18785658,0.047479395,1
12988000,0.2959065,0.18695079,0.047664203,1
12991999,0.29566795,0.18605313,0.047868982,1
12996000,0.29514298,0.18520926,0.048279006,1
13000000,0.29446605,0.18430582,0.048556253,1
13004000,0.2935774,0.18347433,0.048855096,1
13008000,0.29246867,0.18277249,0.049166407,1
13011999,0.2911675,0.18207489,0.04950931,1
13016000,0.28965095,0.1814075,0.049883053,1
13020000,0.28794545,0.18078272,0.050281193,1
13028000,0.28411612,0.17952526,0.05115294,1
13032000,0.28198543,0.17893675,0.05161972,1
13036000,0.27969164,0.17833622,0.05211803,1
13040000,0.2772746,0.17779987,0.05262672,1
13043999,0.27479154,0.1773088,0.053139858,1
13052000,0.26948884,0.1762808,0.05423891,1
13060000,0.26373348,0.17534888,0.05540585,1
13064000,0.26072693,0.17490263,0.056011394,1
13068000,0.25762764,0.17448659,0.056629483,1
13072000,0.25441486,0.17410421,0.057263035,1
13075999,0.25116605,0.17370164,0.05790996,1
13080000,0.24793611,0.17332177,0.058551814,1
13084000,0.24466527,0.17299315,0.059192818,1
13087999,0.24130769,0.17267878,0.059848815,1
13092000,0.23789532,0.17234161,0.06052231,1
13100000,0.23079675,0.17189108,0.062458884,1
13104000,0.22727919,0.17156059,0.06316404,1
13107999,0.22369544,0.17124161,0.063881844,1
13112000,0.22007915,0.17096941,0.064598314,1
13116000,0.21645422,0.1707498,0.06530757,1
13124000,0.20919505,0.17035994,0.06672551,1
13128000,0.20554507,0.17020851,0.0674325,1
13132000,0.20187879,0.17008904,0.068137854,1
13136000,0.19821557,0.16995347,0.068849236,1
13139999,0.19455536,0.16980891,0.0695651,1
13144000,0.19086027,0.16969103,0.07028394,1
13148000,0.1871469,0.1696032,0.07100177,1
13151999,0.18343142,0.16949058,0.07172889,1
13156000,0.17971045,0.16937059,0.07246186,1
13160000,0.17599428,0.16926697,0.073192805,1
13164000,0.17227814,0.16921328,0.073914066,1
13171999,0.16483,0.16910696,0.07536771,1
13180000,0.15739268,0.1690421,0.07681975,1
13188000,0.15006718,0.16897732,0.078261085,1
13192000,0.14641353,0.16895178,0.07898226,1
13196000,0.1427435,0.16894522,0.079798535,1
13200000,0.1391083,0.16891494,0.080523565,1
13203999,0.13552703,0.16889736,0.081237204,1
13208000,0.1319324,0.16889575,0.08195176,1
13215999,0.1247793,0.1688315,0.08339859,1
13220000,0.121225625,0.16888174,0.084098406,1
13224000,0.117679246,0.16890197,0.08480771,1
13228000,0.11414752,0.16885163,0.08553667,1
13232000,0.11062478,0.16879696,0.08626792,1
13235999,0.10712436,0.16879043,0.08698356,1
13240000,0.103648715,0.1687973,0.08769292,1
13244000,0.100168094,0.16875422,0.08842048,1
13247999,0.09670552,0.16868393,0.089155145,1
13252000,0.09329258,0.16862991,0.08987763,1
13260000,0.0864656,0.16864844,0.09129325,1
13264000,0.08308342,0.16869,0.09198862,1
13267999,0.07970691,0.1687758,0.09267184,1
13272000,0.076340325,0.16882402,0.0933667,1
13276000,0.073001295,0.16880369,0.09407927,1
13280000,0.06971714,0.16882102,0.09477117,1
13284000,0.066456035,0.1688834,0.0954466,1
13288000,0.06318222,0.1689325,0.0961312,1
13292000,0.059928335,0.1689896,0.09681139,1
13296000,0.056609005,0.16922024,0.097880155,1
13299999,0.05345504,0.16927823,0.09854546,1
13304000,0.05031025,0.16931552,0.09921756,1
13308000,0.04719163,0.16936663,0.099881776,1
13312000,0.0440862,0.16940202,0.100550406,1
13316000,0.040966082,0.16943318,0.10122589,1
13319999,0.03789309,0.16951127,0.10187798,1
13324000,0.034850735,0.16957532,0.10253,1
13328000,0.03180068,0.16957279,0.10320778,1
13331999,0.028798833,0.16955113,0.10388353,1
13336000,0.025845334,0.1695613,0.10454022,1
13340000,0.022894032,0.16961098,0.105185434,1
13344000,0.019917563,0.16967149,0.10583475,1
13348000,0.016968213,0.1697368,0.10647842,1
13356000,0.011200849,0.16980395,0.10776372,1
13363999,0.005543467,0.16989416,0.10902425,1
13368000,0.002709094,0.16992125,0.10966504,1
13372000,-0.000160113,0.16992897,0.11032267,1
13376000,-0.00297755,0.16992924,0.11097308,1
13380000,-0.005734917,0.16993964,0.11160819,1
13383999,-0.008436251,0.16998565,0.112219796,1
13388000,-0.01115033,0.17003721,0.11283427,1
13392000,-0.013872206,0.17009789,0.113449246,1
13395999,-0.016721316,0.1703474,0.1145045,1
13400000,-0.019404434,0.17040482,0.11511725,1
13404000,-0.022020558,0.17047215,0.11571246,1
13408000,-0.024592718,0.17050779,0.11631033,1
13412000,-0.02719191,0.17056762,0.116907686,1
13415999,-0.02975901,0.17065471,0.11748923,1
13420000,-0.03225077,0.17075434,0.11804979,1
13427999,-0.037266813,0.17094171,0.11918771,1
13432000,-0.039733797,0.17101528,0.11975648,1
13436000,-0.042194948,0.17113316,0.120309055,1
13444000,-0.047014363,0.17136815,0.1213938,1
13452000,-0.05176899,0.17154458,0.12249022,1
13459999,-0.056535747,0.17165801,0.123619266,1
13464000,-0.058675665,0.17144527,0.12353778,1
13468000,-0.060796477,0.1712432,0.12344115,1
13472000,-0.06286754,0.17096932,0.12337913,1
13476000,-0.06492658,0.17067364,0.12332818,1
13479999,-0.066990584,0.1704176,0.12326154,1
13484000,-0.06901117,0.17020085,0.123183176,1
13488000,-0.07102154,0.16998065,0.12310796,1
13491999,-0.07303451,0.16973497,0.1230441,1
13496000,-0.07506931,0.16958368,0.12308921,1
13500000,-0.07704684,0.1693875,0.12300917,1
13508000,-0.0809457,0.16901112,0.12284925,1
13516000,-0.08473638,0.16876009,0.12264743,1
13523999,-0.08849341,0.16836254,0.12251369,1
13528000,-0.09037553,0.16819176,0.12243553,1
13532000,-0.092206724,0.1680462,0.1223512,1
13536000,-0.0940116,0.16791365,0.12226388,1
13540000,-0.0958355,0.16776086,0.122184396,1
13543999,-0.097645044,0.16761598,0.12210321,1
13548000,-0.09942397,0.16749561,0.122014254,1
13552000,-0.10117979,0.16734509,0.121940926,1
13555999,-0.102931075,0.16722053,0.121856995,1
13560000,-0.10470721,0.16710868,0.12176596,1
13564000,-0.106446534,0.16696596,0.12169204,1
13568000,-0.10814619,0.16685754,0.12160648,1
13572000,-0.109865785,0.16681752,0.121489085,1
13575999,-0.111581,0.16677016,0.12137555,1
13580000,-0.11330226,0.16669735,0.121273324,1
13584000,-0.11501843,0.1666192,0.12117426,1
13588000,-0.11669838,0.16655427,0.12107234,1
13592000,-0.11833832,0.16651188,0.12096362,1
13596000,-0.12013829,0.16670121,0.12135005,1
13600000,-0.121757895,0.16665968,0.12124291,1
13604000,-0.123386726,0.16664015,0.12112519,1
13608000,-0.12504394,0.16656049,0.12103312,1
13612000,-0.12667868,0.16646086,0.1209524,1
13620000,-0.12979862,0.16634725,0.12076382,1
13624000,-0.13130999,0.16631463,0.12066239,1
13628000,-0.13280672,0.16628543,0.120560676,1
13632000,-0.13435248,0.16627231,0.120447844,1
13636000,-0.1359118,0.16624644,0.12034006,1
13640000,-0.13744442,0.16621342,0.120237954,1
13644000,-0.13895708,0.16621739,0.12012001,1
13652000,-0.14204022,0.16620535,0.1198896,1
13656000,-0.14354947,0.1662084,0.11977268,1
13660000,-0.14506426,0.16622517,0.11964892,1
13664000,-0.1465404,0.16624258,0.11952786,1
13668000,-0.14793757,0.1662618,0.119412,1
13672000,-0.14934635,0.16631484,0.11927906,1
13676000,-0.15077811,0.16635881,0.11914868,1
13680000,-0.1521863,0.16637933,0.11903144,1
13684000,-0.15360498,0.16638045,0.118922785,1
13688000,-0.15500353,0.16639742,0.11880809,1
13692000,-0.15641159,0.16645256,0.11867414,1
13700000,-0.15925667,0.16660719,0.11858231,1
13708000,-0.16200213,0.16665918,0.11834818,1
13716000,-0.16468063,0.16679126,0.118079685,1
13724000,-0.16730492,0.16699669,0.11777862,1
13728000,-0.16859813,0.16706105,0.11764836,1
13732000,-0.16987443,0.16711982,0.117522135,1
13740000,-0.17237271,0.16727403,0.11725521,1
13744000,-0.17364751,0.16731249,0.11713904,1
13748000,0.4354818,0.17461023,0.16011521,0.40978044
13752000,0.43407637,0.17491391,0.16039273,0.40978044
13756000,0.43268427,0.17518014,0.1606834,0.40978044
13764000,0.4295063,0.1758725,0.16131021,0.40978044
13768000,0.42761698,0.17630048,0.1616762,0.40978044
13772000,0.42554188,0.16376466,0.16960219,0.4334424
13776000,0.42329133,0.16424963,0.17007375,0.4334424
13780000,0.42091927,0.16475251,0.1705754,0.4334424
13784000,0.41840643,0.16535589,0.17107575,0.4334424
13788000,0.41576573,0.16599679,0.17159937,0.4334424
13796000,0.41025412,0.1541856,0.18044074,0.45594496
13800000,0.40682036,0.15567258,0.1825036,0.45594496
13804000,0.40383813,0.1563896,0.18314031,0.45594496
13808000,0.40082118,0.15705732,0.18381238,0.45594496
13812000,0.39776152,0.15769692,0.18451302,0.45594496
13816000,0.3946308,0.15838596,0.18521567,0.45594496
13820000,0.3914565,0.14623979,0.1937229,0.47784987
13824000,0.388229,0.14696765,0.19447578,0.47784987
13828000,0.38497537,0.14766194,0.1952552,0.47784987
13832000,0.38171047,0.1483835,0.1960277,0.47784987
13836000,0.37841338,0.1491436,0.19679506,0.47784987
13840000,0.3750919,0.1499201,0.19756494,0.47784987
13844000,0.37174073,0.13791038,0.2063149,0.49853876
13848000,0.36832646,0.13869305,0.2071529,0.49853876
13852000,0.36488527,0.13951725,0.2079829,0.49853876
13856000,0.36147472,0.14033268,0.20880833,0.49853876
13860000,0.3580435,0.14114255,0.2096461,0.49853876
13868000,0.35110632,0.13021106,0.2194222,0.5180035
13872000,0.34761578,0.13108374,0.22029337,0.5180035
13876000,0.34412414,0.13200979,0.22114125,0.5180035
13880000,0.34063458,0.13297234,0.22197258,0.5180035
13884000,0.33714616,0.13395332,0.2227965,0.5180035
13888000,0.3336627,0.13493195,0.22362177,0.5180035
13892000,0.3301891,0.12328502,0.23276441,0.53619504
13896000,0.32549366,0.1263674,0.2367487,0.53619504
13900000,0.3219638,0.12744702,0.23759988,0.53619504
13904000,0.31842798,0.12853357,0.23845188,0.53619504
13908000,0.31489068,0.12964037,0.23929638,0.53619504
13912000,0.311374,0.13078234,0.24011707,0.53619504
13916000,0.30792236,0.1194576,0.2493743,0.5541157
13920000,0.30447224,0.12065564,0.2501794,0.5541157
13924000,0.30099344,0.121835634,0.25100684,0.5541157
13932000,0.29406202,0.12427056,0.25261804,0.5541157
13940000,0.28718248,0.11437186,0.26282552,0.57070756
13944000,0.2837717,0.115686655,0.26359937,0.57070756
13948000,0.28036323,0.117024355,0.26436174,0.57070756
13956000,0.2735756,0.11977239,0.26584008,0.57070756
13960000,0.270206,0.121205315,0.26653993,0.57070756
13964000,0.26689422,0.11033943,0.27602452,0.5860151
13968000,0.26362944,0.111774564,0.2767141,0.5860151
13976000,0.25711218,0.11477169,0.27802363,0.5860151
13980000,0.2538814,0.116321206,0.27864015,0.5860151
13984000,0.250647,0.11786035,0.27926412,0.5860151
13988000,0.24738964,0.107135884,0.2888983,0.6000591
13992000,0.2441318,0.1086936,0.28955835,0.6000591
13996000,0.23971272,0.11248233,0.29320863,0.6000591
14000000,0.23652145,0.11406253,0.29384178,0.6000591
14004000,0.23338164,0.115643255,0.29445142,0.6000591
14012000,0.22719502,0.10682974,0.30468136,0.61380416
14016000,0.2240763,0.108523995,0.30525425,0.61380416
14020000,0.2209993,0.110200584,0.3058169,0.61380416
14028000,0.21491355,0.113493994,0.30694228,0.61380416
14032000,0.2119112,0.11510578,0.30750474,0.61380416
14036000,0.20892644,0.10463725,0.3173685,0.6263701
14040000,0.20595308,0.106294654,0.3179245,0.6263701
14044000,0.2030093,0.107984126,0.31844866,0.6263701
14048000,0.20008245,0.1096658,0.31896886,0.6263701
14052000,0.19717178,0.11133883,0.31948572,0.6263701
14056000,0.19430658,0.113053575,0.31995738,0.6263701
14060000,0.191477,0.10276836,0.32986987,0.6378129
14064000,0.1886524,0.104492694,0.33034635,0.6378129
14068000,0.18583488,0.1062252,0.33081454,0.6378129
14072000,0.18304,0.1079333,0.33128464,0.6378129
14076000,0.18029597,0.109660774,0.33171815,0.6378129
14080000,0.17754665,0.11143435,0.33212838,0.6378129
14084000,0.17477465,0.10127575,0.34215724,0.64820063
14088000,0.17204803,0.1030146,0.34260428,0.64820063
14092000,0.16935606,0.10472611,0.34304848,0.64820063
14100000,0.16301703,0.1102212,0.346454,0.64820063
14104000,0.16038005,0.11198363,0.34685105,0.64820063
14108000,0.15777487,0.10192536,0.35695708,0.65829647
14112000,0.15522635,0.10369931,0.35732833,0.65829647
14116000,0.15271124,0.105451114,0.35769364,0.65829647
14120000,0.1501827,0.10723445,0.35804805,0.65829647
14124000,0.14768061,0.1089901,0.35840356,0.65829647
14128000,0.14517352,0.11074263,0.3587631,0.65829647
14132000,0.14263684,0.10069562,0.3690252,0.667419
14140000,0.13768858,0.10411437,0.36981064,0.667419
14144000,0.13517725,0.105883494,0.3701895,0.667419
14148000,0.13271633,0.107656576,0.370538,0.667419
14152000,0.13028759,0.10944049,0.37086213,0.667419
14156000,0.12790367,0.099463776,0.38119453,0.67564243
14160000,0.12550414,0.101215765,0.3815465,0.67564243
14164000,0.12312226,0.1030073,0.38186538,0.67564243
14168000,0.12076631,0.10480639,0.38216487,0.67564243
14172000,0.11841924,0.10659294,0.38246617,0.67564243
14180000,0.11382621,0.09840864,0.3932043,0.68302757
14184000,0.11153571,0.10012631,0.39353758,0.68302757
14188000,0.1092713,0.10185334,0.39385,0.68302757
14192000,0.107042015,0.10360192,0.3941292,0.68302757
14196000,0.10383979,0.10746977,0.39680162,0.68302757
14200000,0.10161838,0.10922636,0.39707965,0.68302757
14204000,0.09937843,0.10584663,0.40191817,0.6902349
14208000,0.09715178,0.107638836,0.40218887,0.6902349
14212000,0.09492335,0.10941045,0.40247226,0.6902349
14220000,0.09048725,0.11284661,0.40308845,0.6902349
14228000,0.08617379,0.11874907,0.40143794,0.6967163
14232000,0.08404997,0.12048359,0.4016745,0.6967163
14236000,0.081978895,0.12221627,0.40188068,0.6967163
14240000,0.07989647,0.12397286,0.40207905,0.6967163
14244000,0.07778541,0.12572666,0.4022957,0.6967163
14248000,0.07569911,0.12747723,0.40249908,0.6967163
14252000,0.073655434,0.13135241,0.40072685,0.7025181
14256000,0.07162488,0.13307977,0.40090588,0.7025181
14260000,0.06958192,0.13484478,0.4010694,0.7025181
14264000,0.067543246,0.13657154,0.4012529,0.7025181
14268000,0.06557083,0.1382472,0.40142706,0.7025181
14276000,0.061580844,0.14360398,0.39995873,0.7077094
14280000,0.05962172,0.14533783,0.40008515,0.7077094
14288000,0.055701375,0.14868215,0.40041277,0.7077094
14292000,0.053685218,0.15033641,0.4006207,0.7077094
14296000,0.05076316,0.15414324,0.40310812,0.7077094
14300000,0.04883012,0.15744203,0.40172106,0.71290576
14304000,0.04693242,0.1590938,0.40186322,0.71290576
14308000,0.045066632,0.16074285,0.40198755,0.71290576
14312000,0.0431946,0.16238406,0.4021202,0.71290576
14316000,0.041295804,0.16402277,0.40227035,0.71290576
14320000,0.039386265,0.16565958,0.4024279,0.71290576
14324000,0.037522845,0.16879213,0.4011241,0.7175377
14328000,0.03569448,0.17038983,0.40125325,0.7175377
14332000,0.03385251,0.17200533,0.40137964,0.7175377
14336000,0.031972915,0.17364396,0.4015144,0.7175377
14340000,0.030108936,0.17526126,0.40165278,0.7175377
14348000,0.026428558,0.17978856,0.400617,0.72166663
14356000,0.022771262,0.18297207,0.40087643,0.72166663
14360000,0.020914681,0.18458799,0.40100807,0.72166663
14364000,0.019100867,0.18619537,0.40111876,0.72166663
14372000,0.015548617,0.19058967,0.4001046,0.725362
14376000,0.013702937,0.19216564,0.4002517,0.725362
14380000,0.011888795,0.19373009,0.4003868,0.725362
14384000,0.010116875,0.19528893,0.40049955,0.725362
14388000,0.008326404,0.1968704,0.40060937,0.725362
14396000,0.004717775,0.20112087,0.39973572,0.7286528
14400000,0.002779335,0.20308396,0.40019342,0.7286528
14404000,0.00102064,0.20469707,0.4002628,0.7286528
14408000,-0.000716783,0.2062543,0.4003542,0.7286528
14412000,-0.002479717,0.20778802,0.40047616,0.7286528
14420000,-0.005954705,0.21191621,0.39961785,0.73166114
14424000,-0.007662348,0.21341302,0.39972728,0.73166114
14428000,-0.009359993,0.21494544,0.3998079,0.73166114
14436000,-0.012823992,0.2180646,0.39997745,0.73166114
14444000,-0.016226716,0.2221508,0.399111,0.7343358
14448000,-0.017929666,0.22365269,0.3992129,0.7343358
14452000,-0.019615307,0.22516403,0.39929798,0.7343358
14460000,-0.022895865,0.22817981,0.39941624,0.7343358
14468000,-0.026205316,0.23216614,0.39856672,0.73670024
14476000,-0.029504873,0.2351348,0.39872444,0.73670024
14480000,-0.031193085,0.23662582,0.3988233,0.73670024
14484000,-0.032849193,0.2381905,0.39885458,0.73670024
14492000,-0.0360395,0.24203855,0.3980288,0.73879355
14496000,-0.03775043,0.24378598,0.39832067,0.73879355
14500000,-0.0393217,0.24523571,0.3983724,0.73879355
14508000,-0.04250706,0.24813043,0.39850652,0.73879355
14516000,-0.045610324,0.25182778,0.39773476,0.74068993
14524000,-0.04876019,0.25480032,0.39779407,0.74068993
14532000,-0.051814318,0.257757,0.39780316,0.74068993
14536000,-0.053334773,0.25920278,0.39782497,0.74068993
14540000,-0.05487284,0.26143277,0.39702272,0.7423604
14548000,-0.057925157,0.26429456,0.39709136,0.7423604
14556000,-0.060981147,0.26707056,0.39721948,0.7423604
14560000,-0.062487468,0.26848948,0.39724964,0.7423604
14564000,-0.06396662,0.27062082,0.39648095,0.74380136
14568000,-0.06541153,0.27198663,0.3965059,0.74380136
14572000,-0.06687309,0.27337906,0.39652422,0.74380136
14576000,-0.06833425,0.27477643,0.39653915,0.74380136
14580000,-0.06984994,0.27621964,0.396559,0.74380136
14584000,-0.0713516,0.2776396,0.3965854,0.74380136
14588000,-0.07278779,0.27970824,0.39583546,0.74505156
14592000,-0.07422142,0.28106982,0.39585605,0.74505156
14596000,-0.075615235,0.2823151,0.3957606,0.74505156
14600000,-0.07706235,0.28366768,0.395796,0.74505156
14604000,-0.078497,0.28499898,0.39583772,0.74505156
14612000,-0.081356205,0.28836587,0.39514834,0.7461021
14616000,-0.08274901,0.28965783,0.395189,0.7461021
14620000,-0.08414619,0.2909578,0.3952274,0.7461021
14624000,-0.085497186,0.2922469,0.39524323,0.7461021
14628000,-0.08688002,0.29353905,0.39527813,0.7461021
14632000,-0.08825173,0.29481792,0.39531484,0.7461021
14636000,-0.089581795,0.29673558,0.39460206,0.74699837
14640000,-0.09092932,0.2980054,0.39462876,0.74699837
14644000,-0.092295855,0.29927447,0.39466846,0.74699837
14648000,-0.093669295,0.30054563,0.3947117,0.74699837
14652000,-0.095017806,0.30182222,0.39473522,0.74699837
14656000,-0.09636254,0.30306277,0.3947808,0.74699837
14660000,-0.09770305,0.30487543,0.39414907,0.7477508
14664000,-0.09898086,0.30605602,0.39419097,0.7477508
14668000,-0.10023837,0.30726084,0.3942034,0.7477508
14676000,-0.10277957,0.30957833,0.3943088,0.7477508
14680000,-0.1040682,0.31076586,0.3943544,0.7477508
14684000,-0.10535124,0.31252643,0.3937217,0.74836004
14688000,-0.10665105,0.31370008,0.39378387,0.74836004
14692000,-0.10791604,0.31488308,0.393817,0.74836004
14696000,-0.10919584,0.3160507,0.39388907,0.74836004
14700000,-0.110439256,0.31717876,0.3939459,0.74836004
14704000,-0.11165176,0.31829923,0.3939877,0.74836004
14708000,-0.112884216,0.32000163,0.39336604,0.74888694
14712000,-0.11412894,0.32103676,0.39348742,0.74888694
14720000,-0.11655374,0.32317492,0.39364195,0.74888694
14724000,-0.117704116,0.32426083,0.39366686,0.74888694
14728000,-0.11882581,0.32532638,0.39368686,0.74888694
14732000,-0.11998529,0.32697895,0.3930485,0.749277
14740000,-0.122303225,0.32914793,0.39311227,0.749277
14748000,-0.124650516,0.33119816,0.39327845,0.749277
14752000,-0.1257849,0.33218583,0.39336154,0.749277
14756000,-0.12693834,0.3337622,0.39277303,0.7495832
14760000,-0.12805587,0.3347829,0.39282194,0.7495832
14764000,-0.12916723,0.3358092,0.39286333,0.7495832
14772000,-0.13138266,0.33781582,0.39297366,0.7495832
14780000,-0.13354328,0.3403484,0.3924042,0.74980205
14784000,-0.13461983,0.34130436,0.39247137,0.74980205
14788000,-0.13569014,0.34224766,0.3925435,0.74980205
14792000,-0.1367608,0.343166,0.39256686,0.74980205
14796000,-0.1380364,0.34464625,0.39304736,0.74980205
14800000,-0.13892032,0.34505737,0.39268166,0.74980205
14804000,-0.13980691,0.3459662,0.3917125,0.7501342
14808000,-0.14066917,0.3463598,0.39136058,0.7501342
14812000,-0.14152512,0.34676898,0.3909939,0.7501342
14816000,-0.14244089,0.347186,0.39061972,0.7501342
14820000,-0.1433455,0.34760064,0.3902468,0.7501342
14824000,-0.14423253,0.34798813,0.389898,0.7501342
14828000,-0.14511912,0.34887332,0.38894126,0.750394
14832000,-0.145968,0.34923238,0.3886163,0.750394
14836000,-0.14680928,0.34961966,0.38826507,0.750394
14840000,-0.14765833,0.35001314,0.38790727,0.750394
14844000,-0.14850545,0.3503841,0.3875698,0.750394
14848000,-0.14936858,0.3507567,0.38723013,0.750394
14852000,-0.15021895,0.35164344,0.38626412,0.75058544
14860000,-0.15187629,0.35234064,0.3856248,0.75058544
14864000,-0.1527051,0.35271433,0.385281,0.75058544
14868000,-0.15354095,0.35304746,0.38497445,0.75058544
14872000,-0.15434353,0.35339054,0.38465792,0.75058544
14876000,-0.15511557,0.3542374,0.38372216,0.7507151
14884000,-0.15666628,0.3548994,0.38310787,0.7507151
14888000,-0.15746002,0.3552147,0.38281474,0.7507151
14892000,-0.15828815,0.3555023,0.38254714,0.7507151
14896000,-0.15905067,0.35566294,0.38213107,0.7507151
14900000,-0.15985395,0.35649192,0.38120422,0.7507653
14904000,-0.16064332,0.35678345,0.380931,0.7507653
14908000,-0.16142645,0.35709685,0.38063684,0.7507653
14912000,-0.16217327,0.3574354,0.38031852,0.7507653
14916000,-0.16290252,0.35776952,0.38000372,0.7507653
14920000,-0.16361374,0.35811853,0.37967455,0.7507653
14924000,-0.16430375,0.35898215,0.3787079,0.75077534
14928000,-0.1650021,0.3592916,0.3784145,0.75077534
14932000,-0.16570409,0.35958326,0.37813762,0.75077534
14940000,-0.16721638,0.36016515,0.3775839,0.75077534
14944000,-0.16796646,0.36048102,0.37728268,0.75077534
14948000,-0.16869713,0.36131087,0.37634212,0.75074404
14952000,-0.16945088,0.3616235,0.37604243,0.75074404
14956000,-0.17020698,0.36195117,0.37572795,0.75074404
14960000,-0.17092834,0.36227605,0.3754159,0.75074404
14964000,-0.1716381,0.36258972,0.37511396,0.75074404
14972000,-0.17307195,0.363697,0.3738992,0.7507058
14976000,-0.17377618,0.36402816,0.3735787,0.7507058
14980000,-0.17448694,0.36436158,0.3732554,0.7507058
14988000,-0.17588851,0.36499166,0.37264296,0.7507058
14992000,-0.1766017,0.36530897,0.3723338,0.7507058
14996000,-0.1780989,0.36848933,0.37325165,0.75065386
15000000,-0.17879999,0.36880112,0.37294626,0.75065386
15004000,-0.17947063,0.36912346,0.3726304,0.75065386
15012000,-0.18089302,0.36978644,0.37197906,0.75065386
15020000,-0.18228547,0.3708955,0.3707609,0.7509948
15024000,-0.18295048,0.37117457,0.37048435,0.7509948
15028000,-0.18361023,0.37145317,0.37020802,0.7509948
15032000,-0.18429452,0.37173665,0.36992627,0.7509948
15036000,-0.18499209,0.3720362,0.36962843,0.7509948
15040000,-0.18564531,0.37235257,0.36931401,0.7509948
15044000,-0.18627313,0.37312242,0.36842132,0.751279
15048000,-0.18690489,0.37345287,0.36809185,0.751279
15056000,-0.18822905,0.37405837,0.36748558,0.751279
15060000,-0.18889809,0.3743507,0.36719182,0.751279
15064000,-0.18956754,0.37466395,0.36687726,0.751279
15068000,-0.19022347,0.37541845,0.36599067,0.75154954
15072000,-0.19086665,0.37569132,0.36571485,0.75154954
15076000,-0.19149262,0.37597325,0.3654297,0.75154954
15080000,-0.19211072,0.37629133,0.3651086,0.75154954
15084000,-0.19271651,0.3766106,0.36478606,0.75154954
15088000,-0.19332916,0.3769096,0.36448306,0.75154954
15092000,-0.19392571,0.37765327,0.3636014,0.75179106
15096000,-0.19411261,0.37676919,0.3623869,0.75179106
15100000,-0.19470815,0.37703922,0.36211124,0.75179106
15104000,-0.19531094,0.37731114,0.36183324,0.75179106
15112000,-0.19647054,0.37794244,0.36118948,0.75179106
15116000,-0.19705537,0.37874347,0.36023635,0.7518019
15124000,-0.19827116,0.3793861,0.35957694,0.7518019
15128000,-0.19889912,0.3797344,0.3592191,0.7518019
15132000,-0.19949126,0.3800661,0.35887796,0.7518019
15140000,-0.20061333,0.38115877,0.35761654,0.75182915
15148000,-0.20177963,0.38171232,0.35704115,0.75182915
15152000,-0.20240846,0.38197696,0.3567645,0.75182915
15156000,-0.20300116,0.38228875,0.35644025,0.75182915
15164000,-0.20403925,0.38341454,0.3551367,0.7518388
15168000,-0.2045959,0.38365254,0.35488623,0.7518388
15172000,-0.20516455,0.38391382,0.35461164,0.7518388
15176000,-0.20572516,0.38418147,0.3543303,0.7518388
15180000,-0.20627965,0.38443416,0.354064,0.7518388
15184000,-0.20685351,0.3846844,0.35379934,0.7518388
15188000,-0.20742433,0.3854475,0.35286325,0.75180113
15196000,-0.20858192,0.38596237,0.3523169,0.75180113
15200000,-0.20973787,0.38815856,0.35347217,0.75180113
15208000,-0.2108557,0.38867313,0.35292473,0.75180113
15212000,-0.21141236,0.38939363,0.35204002,0.75208575
15216000,-0.21195456,0.3896587,0.35175723,0.75208575
15220000,-0.21250758,0.3899346,0.3514628,0.75208575
15224000,-0.21306674,0.39021477,0.35116366,0.75208575
15228000,-0.21362008,0.39047572,0.35088384,0.75208575
15232000,-0.2141193,0.39076823,0.35057244,0.75208575
15236000,-0.21459803,0.39149672,0.34967238,0.752356
15240000,-0.21513599,0.39176023,0.3493888,0.752356
15244000,-0.21570235,0.3920631,0.34906372,0.752356
15248000,-0.21627244,0.39233103,0.34877416,0.752356
15252000,-0.21680385,0.39254802,0.34853792,0.752356
15260000,-0.21783385,0.3934866,0.347403,0.752595
15264000,-0.2183817,0.3937114,0.34715706,0.752595
15268000,-0.2189413,0.39392155,0.34692568,0.752595
15272000,-0.21947624,0.3941492,0.34667653,0.752595
15276000,-0.22003494,0.3943649,0.34643894,0.752595
15280000,-0.2206159,0.39459032,0.34619042,0.752595
15284000,-0.22117299,0.39529216,0.34530413,0.75280964
15288000,-0.22170538,0.39551738,0.3450559,0.75280964
15292000,-0.22223842,0.39572036,0.3448307,0.75280964
15300000,-0.22291002,0.39479178,0.34339154,0.75280964
15304000,-0.22343473,0.39501753,0.3431421,0.75280964
15308000,-0.22393757,0.39569905,0.3422647,0.75278395
15312000,-0.22445711,0.39589,0.34205097,0.75278395
15316000,-0.22500381,0.39607513,0.3418424,0.75278395
15320000,-0.22553736,0.39624655,0.3416484,0.75278395
15324000,-0.22605622,0.39642295,0.3414493,0.75278395
15332000,-0.22709271,0.39730784,0.34033832,0.7526872
15336000,-0.22760774,0.3975156,0.3401051,0.7526872
15340000,-0.22811113,0.39771476,0.33988118,0.7526872
15344000,-0.22863728,0.39792705,0.33964255,0.7526872
15348000,-0.22918567,0.39811534,0.3394284,0.7526872
15352000,-0.22972655,0.39827704,0.33924255,0.7526872
15356000,-0.23029491,0.39895213,0.3383581,0.7526081
15364000,-0.23141971,0.39928615,0.33797184,0.7526081
15368000,-0.23196197,0.39946556,0.3377659,0.7526081
15372000,-0.2324403,0.3996548,0.3375511,0.7526081
15380000,-0.2334128,0.400471,0.33649907,0.7525255
15384000,-0.23396678,0.40061125,0.33633333,0.7525255
15388000,-0.23448566,0.4007473,0.33617294,0.7525255
15396000,-0.23550494,0.4010899,0.3357769,0.7525255
15404000,-0.23663174,0.40229067,0.3349614,0.75247467
15412000,-0.23759174,0.4026517,0.33454508,0.75247467
15416000,-0.23810175,0.40282655,0.33434182,0.75247467
15420000,-0.23862202,0.40301755,0.33412063,0.75247467
15424000,-0.23912057,0.40317473,0.33393657,0.75247467
15428000,-0.23961346,0.40381202,0.33308092,0.75240356
15432000,-0.2401025,0.40397927,0.3328853,0.75240356
15436000,-0.24061354,0.40411973,0.3327177,0.75240356
15440000,-0.24110544,0.40423864,0.3325738,0.75240356
15444000,-0.2416091,0.4043549,0.33243227,0.75240356
15448000,-0.24214095,0.40448403,0.3322759,0.75240356
15452000,-0.24264523,0.4051241,0.33141294,0.7523077
15456000,-0.24315229,0.40526417,0.33124495,0.7523077
15460000,-0.24366485,0.4054033,0.33107746,0.7523077
15464000,-0.24415022,0.40555432,0.3308978,0.7523077
15468000,-0.2446239,0.40569854,0.33072597,0.7523077
15476000,-0.24562225,0.406448,0.32972324,0.7522054
15480000,-0.24608803,0.40652215,0.32962695,0.7522054
15484000,-0.2465424,0.40660363,0.32952303,0.7522054
15488000,-0.2470351,0.40671617,0.32938394,0.7522054
15492000,-0.2475599,0.40684432,0.32922673,0.7522054
15500000,-0.24875294,0.40813535,0.3286572,0.7521803
15508000,-0.24964237,0.40843457,0.32829955,0.7521803
15512000,-0.2500871,0.40854064,0.32816818,0.7521803
15516000,-0.2505997,0.40863365,0.3280486,0.7521803
15524000,-0.25158706,0.40933222,0.32709572,0.7521007
15528000,-0.25207034,0.40944397,0.32695597,0.7521007
15532000,-0.2525143,0.40956178,0.32681093,0.7521007
15536000,-0.25294212,0.40965864,0.32668942,0.7521007
15540000,-0.25339034,0.40974846,0.32657468,0.7521007
15544000,-0.25384265,0.4098866,0.3264068,0.7521007
15548000,-0.2542989,0.41052803,0.3255306,0.75197613
15552000,-0.25475204,0.41064674,0.32538337,0.75197613
15556000,-0.2551821,0.41074714,0.32525697,0.75197613
15560000,-0.25558308,0.41089267,0.32508203,0.75197613
15564000,-0.2559969,0.41103336,0.32491156,0.75197613
15568000,-0.25645483,0.4111027,0.3248182,0.75197613
15572000,-0.25693297,0.41165474,0.32403553,0.7518331
15576000,-0.2574029,0.4117542,0.3239079,0.7518331
15580000,-0.2578321,0.41183314,0.3238045,0.7518331
15584000,-0.2582577,0.41190144,0.323713,0.7518331
15592000,-0.25916624,0.41203064,0.3235358,0.7518331
15596000,-0.25945517,0.41224894,0.32247025,0.75165194
15600000,-0.25985205,0.4123761,0.322314,0.75165194
15604000,-0.26027805,0.41249192,0.3221691,0.75165194
15608000,-0.2607127,0.41258934,0.3220441,0.75165194
15612000,-0.26115268,0.41268808,0.3219176,0.75165194
15620000,-0.26203322,0.41337943,0.32095706,0.75142044
15628000,-0.26284236,0.41360775,0.32067102,0.75142044
15632000,-0.26326,0.41373426,0.32051352,0.75142044
15636000,-0.2637001,0.41384402,0.32037368,0.75142044
15640000,-0.26408365,0.41391686,0.3202772,0.75142044
15644000,-0.26449192,0.41448444,0.31946772,0.7511923
15648000,-0.2648723,0.4145708,0.31935582,0.7511923
15652000,-0.26521584,0.41466916,0.319232,0.7511923
15656000,-0.2655841,0.41476732,0.31910735,0.7511923
15660000,-0.26596433,0.41483706,0.3190139,0.7511923
15664000,-0.26631978,0.41491425,0.318913,0.7511923
15668000,-0.2666872,0.41549107,0.3180934,0.7509053
15672000,-0.26708362,0.4155797,0.3179776,0.7509053
15676000,-0.26746675,0.4156398,0.31789452,0.7509053
15680000,-0.26789498,0.41568384,0.31782734,0.7509053
15684000,-0.26831532,0.41574377,0.31774285,0.7509053
15688000,-0.26869324,0.41584244,0.3176164,0.7509053
15692000,-0.2690919,0.41643855,0.31677026,0.7506369
15696000,-0.26911813,0.41536257,0.31581295,0.7506369
15700000,-0.26947233,0.41547075,0.3156763,0.7506369
15704000,-0.26983643,0.41557822,0.31553972,0.7506369
15708000,-0.270199,0.41566822,0.3154231,0.7506369
15716000,-0.2708673,0.4163515,0.31445745,0.7501882
15724000,-0.27157098,0.41653216,0.31422314,0.7501882
15732000,-0.272251,0.41678956,0.31390262,0.7501882
15740000,-0.27289298,0.41748047,0.31292528,0.7497196
15744000,-0.27321643,0.41757914,0.31279907,0.7497196
15748000,-0.27357045,0.41768444,0.3126641,0.7497196
15756000,-0.2741975,0.41790357,0.31238765,0.7497196
15760000,-0.27449778,0.4180222,0.31223956,0.7497196
15764000,-0.27480775,0.41865623,0.31133902,0.7492267
15768000,-0.27512538,0.418772,0.31119293,0.7492267
15772000,-0.2754336,0.418902,0.31103104,0.7492267
15780000,-0.2760145,0.41916907,0.31070027,0.7492267
15784000,-0.27628216,0.41926566,0.310578,0.7492267
15788000,-0.27654698,0.41986656,0.30971178,0.7487439
15796000,-0.2772346,0.42027262,0.30967054,0.7487439
15800000,-0.27750194,0.4203705,0.30954623,0.7487439
15804000,-0.2777823,0.42044425,0.30944887,0.7487439
15812000,-0.2783332,0.42111656,0.30848956,0.74825853
15816000,-0.2785936,0.4212517,0.3083224,0.74825853
15820000,-0.27885434,0.4214208,0.30811623,0.74825853
15824000,-0.27910542,0.42157304,0.30792972,0.74825853
15828000,-0.27938804,0.42168626,0.3077863,0.74825853
15832000,-0.27966604,0.42180672,0.30763474,0.74825853
15836000,-0.27991483,0.42243755,0.30673072,0.74781865
15844000,-0.28040814,0.42264372,0.30646965,0.74781865
15848000,-0.28067923,0.42275208,0.30633163,0.74781865
15852000,-0.28094947,0.42286956,0.3061832,0.74781865
15856000,-0.28121287,0.42297393,0.3060501,0.74781865
15860000,-0.2814387,0.4235992,0.30515167,0.747357
15864000,-0.28166717,0.42373925,0.3049789,0.747357
15868000,-0.2819034,0.4238838,0.30480036,0.747357
15872000,-0.2821393,0.42402157,0.30462945,0.747357
15876000,-0.2823152,0.4241523,0.30446965,0.747357
15884000,-0.28261495,0.42491347,0.30340677,0.7468899
15892000,-0.2830073,0.42514193,0.30312234,0.7468899
15896000,-0.28319687,0.42524478,0.30299348,0.7468899
15900000,-0.28330868,0.42512062,0.302749,0.7468899
15904000,-0.2835033,0.4252018,0.30264476,0.7468899
15908000,-0.2836976,0.4257894,0.30178595,0.7463815
15916000,-0.28402656,0.42598075,0.3015465,0.7463815
15920000,-0.2842226,0.42606378,0.30143982,0.7463815
15924000,-0.28440547,0.42615366,0.3013259,0.7463815
15932000,-0.2847125,0.42688462,0.30029017,0.74586797
15936000,-0.28485757,0.42700222,0.3001456,0.74586797
15944000,-0.28514728,0.4272272,0.2998684,0.74586797
15948000,-0.28527945,0.42731443,0.29975975,0.74586797
15952000,-0.28540546,0.42743754,0.2996096,0.74586797
15956000,-0.28553933,0.42806673,0.2987014,0.74536276
15960000,-0.28566065,0.42819613,0.29854396,0.74536276
15964000,-0.28579468,0.42834544,0.29836267,0.74536276
15972000,-0.28599375,0.4286435,0.29800412,0.74536276
15976000,-0.28609717,0.42877564,0.29784432,0.74536276
15980000,-0.286157,0.42943043,0.2969063,0.7448995
15984000,-0.2862398,0.42956048,0.29674974,0.7448995
15988000,-0.28635293,0.42966333,0.29662317,0.7448995
15996000,-0.28666046,0.42989886,0.2963302,0.7448995
16004000,-0.28658217,0.42985156,0.29476434,0.7443471
16012000,-0.28673062,0.43005112,0.29452208,0.7443471
16016000,-0.28680587,0.4301793,0.29436752,0.7443471
16020000,-0.28693506,0.4303272,0.2941867,0.7443471
16024000,-0.28700066,0.4304622,0.29402483,0.7443471
16028000,-0.2870121,0.43112698,0.29306927,0.74381495
16036000,-0.28710377,0.43139032,0.29275513,0.74381495
16044000,-0.28716668,0.43170056,0.2923876,0.74381495
16048000,-0.28715006,0.43186873,0.29219154,0.74381495
16052000,-0.28712195,0.43255392,0.2912139,0.74326706
16060000,-0.28715938,0.432809,0.2909123,0.74326706
16064000,-0.28720704,0.43295157,0.29074183,0.74326706
16068000,-0.28724036,0.4330594,0.290613,0.74326706
16072000,-0.28725445,0.4331977,0.2904496,0.74326706
16076000,-0.2872944,0.43388763,0.2894606,0.7427366
16080000,-0.28733647,0.43402565,0.28929558,0.7427366
16084000,-0.28736398,0.43417454,0.28911868,0.7427366
16088000,-0.28735197,0.43432495,0.28894255,0.7427366
16092000,-0.28734988,0.43448392,0.28875569,0.7427366
16096000,-0.28687805,0.43303216,0.2875206,0.7427366
16100000,-0.28687912,0.4337486,0.2864929,0.7420232
16108000,-0.2868195,0.4340739,0.28611353,0.7420232
16112000,-0.28681603,0.43427032,0.28588215,0.7420232
16116000,-0.2867853,0.4344543,0.2856673,0.7420232
16120000,-0.28672212,0.43464607,0.28544542,0.7420232
16124000,-0.28663683,0.4354066,0.28436908,0.74134165
16128000,-0.2866118,0.43556368,0.2841853,0.74134165
16132000,-0.28663242,0.43567592,0.28405133,0.74134165
16136000,-0.28660375,0.43580252,0.283904,0.74134165
16140000,-0.28657553,0.4359342,0.2837503,0.74134165
16144000,-0.2865584,0.43606412,0.28359804,0.74134165
16148000,-0.28650564,0.43678984,0.2825618,0.7406868
16152000,-0.28643095,0.4369504,0.28237736,0.7406868
16156000,-0.286336,0.43710986,0.28219572,0.7406868
16164000,-0.2861333,0.43744084,0.28181887,0.7406868
16172000,-0.2859564,0.4383731,0.28054494,0.74008244
16176000,-0.28584507,0.43856612,0.28032485,0.74008244
16180000,-0.28577232,0.43874964,0.28011283,0.74008244
