timestamp,roll_body,pitch_body,yaw_body,q_d[0],q_d[1],q_d[2],q_d[3],thrust_body[0]
10624000,0,0,1.6171399,0.69053346,0,0,0.72330046,1
10648000,0,0,1.6171399,0.69053346,0,0,0.72330046,1
10672000,0,0,1.6171399,0.69053346,0,0,0.72330046,1
10696000,0,0,1.6171399,0.69053346,0,0,0.72330046,1
10720000,0,-0.30739784,1.6171399,0.68239313,0.11073331,-0.10571686,0.7147739,1
10744000,0,-0.29282707,1.6171399,0.6831452,0.10552301,-0.1007426,0.7155616,1
10768000,0,-0.27909747,1.6171399,0.68382066,0.10060838,-0.09605061,0.71626914,1
10792000,0,-0.26607335,1.6171399,0.6844317,0.095941894,-0.09159553,0.7169091,1
10816000,0,-0.2538392,1.6171399,0.6849792,0.09155474,-0.08740712,0.7174826,1
10840000,0,-0.24226367,1.6171399,0.68547356,0.08740061,-0.08344118,0.7180005,1
10864000,0,-0.23124263,1.6171399,0.685923,0.08344274,-0.07966261,0.7184712,1
10888000,0,-0.220692,1.6171399,0.68633366,0.07965144,-0.07604306,0.7189014,1
10912000,0,-0.21061835,1.6171399,0.686708,0.076029465,-0.07258517,0.7192935,1
10936000,0,-0.20095092,1.6171399,0.6870508,0.07255173,-0.069264986,0.7196526,1
10960000,0,-0.19163145,1.6171399,0.6873661,0.069197565,-0.06606278,0.7199828,1
10984000,0,-0.18261136,1.6171399,0.68765706,0.06594972,-0.06296206,0.72028756,1
11008000,0,-0.17388867,1.6171399,0.68792516,0.06280767,-0.05996236,0.72056836,1
11032000,0,-0.16542292,1.6171399,0.68817276,0.05975705,-0.05704993,0.72082776,1
11056000,0,-0.15717976,1.6171399,0.68840206,0.0567856,-0.05421309,0.72106797,1
11080000,0,-0.1491297,1.6171399,0.6886147,0.05388283,-0.051441826,0.72129065,1
11104000,0,-0.14127934,1.6171399,0.6888113,0.051051226,-0.0487385,0.7214966,1
11128000,0,-0.13360263,1.6171399,0.6889933,0.048281495,-0.046094242,0.7216872,1
11152000,0,-0.1260769,1.6171399,0.6891619,0.04556555,-0.043501336,0.7218638,1
11176000,0,-0.118682355,1.6171399,0.689318,0.042896315,-0.040953025,0.7220273,1
11200000,0,-0.11141746,1.6171399,0.6894622,0.04027331,-0.038448844,0.7221784,1
11224000,0,-0.10426524,1.6171399,0.68959534,0.03769047,-0.035983015,0.7223178,1
11248000,0,-0.097210675,1.6171399,0.68971795,0.03514242,-0.033550397,0.72244626,1
11272000,0,-0.09024031,1.6171399,0.68983066,0.032624356,-0.031146405,0.72256434,1
11296000,0,-0.08335677,1.6171399,0.6899338,0.030137267,-0.028771987,0.72267234,1
11320000,0,-0.0765481,1.6171399,0.6900277,0.02767688,-0.02642306,0.72277075,1
11344000,0,-0.06980354,1.6171399,0.69011295,0.025239343,-0.024095949,0.72286,1
11368000,0,-0.063113384,1.6171399,0.69018966,0.02282118,-0.021787334,0.7229403,1
11392000,0,-0.056468815,1.6171399,0.6902582,0.020419246,-0.019494213,0.72301215,1
11416000,0,-0.049871467,1.6171399,0.69031876,0.018034158,-0.017217174,0.72307557,1
11440000,0,-0.043313466,1.6171399,0.6903715,0.0156631,-0.014953529,0.7231309,1
11464000,0,-0.036787614,1.6171399,0.69041663,0.013303499,-0.012700823,0.7231781,1
11488000,0,-0.030287357,1.6171399,0.69045424,0.010953011,-0.010456817,0.7232175,1
11512000,0,-0.023812674,1.6171399,0.6904845,0.008611656,-0.008221529,0.7232492,1
11536000,0,-0.017357787,1.6171399,0.6905075,0.006277369,-0.005992991,0.7232732,1
11560000,0,-0.010917406,1.6171399,0.69052315,0.003948263,-0.003769398,0.72328967,1
11584000,0,-0.004486704,1.6171399,0.69053173,0.001622616,-0.001549108,0.72329867,1
11608000,0,0.001935866,1.6171399,0.6905331,-0.000700106,0.00066839,0.7233001,1
11632000,0,0.008354462,1.6171399,0.69052744,-0.003021384,0.002884509,0.72329414,1
11656000,0,0.014772924,1.6171399,0.6905146,-0.005342583,0.005100553,0.7232807,1
11680000,0,0.021194763,1.6171399,0.6904947,-0.007664948,0.00731771,0.72325987,1
11704000,0,0.027620563,1.6171399,0.6904676,-0.009988666,0.009536158,0.7232315,1
11728000,0,0.034053344,1.6171399,0.6904334,-0.012314804,0.011756918,0.7231956,1
11752000,0,0.040495843,1.6171399,0.6903919,-0.014644329,0.013980911,0.7231522,1
11776000,0,0.04695058,1.6171399,0.6903432,-0.016978128,0.016208984,0.72310114,1
11800000,0,0.053417135,1.6171399,0.6902872,-0.019316021,0.018440967,0.7230425,1
11824000,0,0.059897635,1.6171399,0.6902238,-0.021658756,0.02067757,0.72297615,1
11848000,0,0.06639403,1.6171399,0.690153,-0.024007006,0.022919439,0.72290194,1
11872000,0,0.072908066,1.6171399,0.6900747,-0.02636138,0.025167156,0.7228199,1
11896000,0,0.07944122,1.6171399,0.6899888,-0.02872238,0.027421197,0.72273,1
11920000,0,0.08599491,1.6171399,0.6898953,-0.031090496,0.029682033,0.722632,1
11944000,0,0.09257038,1.6171399,0.6897939,-0.033466145,0.03195006,0.72252584,1
11968000,0,0.09916871,1.6171399,0.68968475,-0.035849694,0.034225628,0.7224115,1
11992000,0,0.105790846,1.6171399,0.6895677,-0.038241446,0.03650903,0.72228885,1
12016000,0,0.11243565,1.6171399,0.6894425,-0.04064096,0.03879984,0.7221578,1
12040000,0,0.119103834,1.6171399,0.68930936,-0.043048475,0.04109829,0.72201824,1
12064000,0,0.125796,1.6171399,0.689168,-0.045464166,0.043404546,0.7218702,1
12088000,0,0.13251264,1.6171399,0.6890183,-0.04788817,0.04571874,0.7217134,1
12112000,0,0.13925582,1.6171399,0.68886024,-0.050321218,0.048041563,0.72154784,1
12136000,0,0.14602576,1.6171399,0.6886937,-0.052763343,0.050373055,0.7213734,1
12160000,0,0.15282257,1.6171399,0.6885185,-0.05521455,0.05271322,0.7211899,1
12184000,0,0.15964627,1.6171399,0.68833464,-0.057674818,0.05506203,0.72099733,1
12208000,0,0.16649666,1.6171399,0.68814206,-0.060144033,0.057419386,0.7207956,1
12232000,0,0.17337358,1.6171399,0.68794054,-0.0626221,0.059785187,0.7205845,1
12256000,0,0.18027675,1.6171399,0.6877301,-0.06510888,0.06215931,0.72036403,1
12280000,0,0.18720587,1.6171399,0.6875106,-0.06760423,0.064541616,0.7201342,1
12304000,0,0.19416109,1.6171399,0.687282,-0.07010816,0.06693211,0.7198947,1
12328000,0,0.20114197,1.6171399,0.6870442,-0.072620474,0.06933062,0.7196456,1
12352000,0,0.208148,1.6171399,0.68679714,-0.07514095,0.07173692,0.7193868,1
12376000,0,0.21517864,1.6171399,0.6865407,-0.07766936,0.07415078,0.71911824,1
12400000,0,0.22223376,1.6171399,0.6862749,-0.080205604,0.07657213,0.71883976,1
12424000,0,0.22931267,1.6171399,0.6859995,-0.0827494,0.07900068,0.71855134,1
12448000,0,0.23641463,1.6171399,0.68571466,-0.08530043,0.08143614,0.718253,1
12472000,0,0.24353883,1.6171399,0.6854202,-0.08785837,0.083878204,0.7179446,1
12496000,0,0.25068605,1.6171399,0.6851161,-0.090423465,0.0863271,0.71762604,1
12520000,0,0.25785542,1.6171399,0.6848023,-0.09299534,0.08878246,0.7172973,1
12544000,0,0.26504603,1.6171399,0.68447864,-0.095573634,0.09124395,0.71695834,1
12568000,0,0.27225694,1.6171399,0.6841452,-0.098157965,0.093711205,0.71660906,1
12592000,0,0.2794872,1.6171399,0.68380195,-0.10074795,0.096183866,0.7162495,1
12616000,0,0.28673652,1.6171399,0.68344885,-0.10334345,0.09866178,0.7158797,1
12640000,0,0.29400396,1.6171399,0.6830858,-0.10594407,0.10114458,0.7154994,1
12664000,0,0.30128855,1.6171399,0.68271285,-0.108549416,0.103631906,0.71510875,1
12688000,0,0.3085893,1.6171399,0.6823301,-0.11115911,0.10612337,0.7147078,1
12712000,0,0.3159076,1.6171399,0.68193716,-0.11377358,0.1086194,0.7142962,1
12736000,0,0.3232424,1.6171399,0.68153423,-0.11639242,0.1111196,0.71387416,1
12760000,0,0.33059266,1.6171399,0.68112123,-0.1190152,0.11362357,0.7134416,1
12784000,0,0.33795735,1.6171399,0.6806982,-0.121641524,0.11613092,0.7129985,1
12808000,0,0.34533733,1.6171399,0.68026507,-0.12427165,0.11864189,0.7125448,1
12831999,0,0.34906584,1.6171399,0.6800427,-0.1255998,0.119909875,0.71231186,1
12856000,0,0.34906584,1.6171399,0.6800427,-0.1255998,0.119909875,0.71231186,1
12880000,0,0.34906584,1.6171399,0.6800427,-0.1255998,0.119909875,0.71231186,1
12904000,0,0.34906584,1.6171399,0.6800427,-0.1255998,0.119909875,0.71231186,1
12927999,0,0.34906584,1.6171399,0.6800427,-0.1255998,0.119909875,0.71231186,1
12952000,0,0.34906584,1.6171399,0.6800427,-0.1255998,0.119909875,0.71231186,1
12976000,0.43633232,0.34906584,-1.5610367,0.65672094,0.27074534,-0.029522732,-0.7032375,1
13000000,0.43633232,0.34906584,-1.5610862,0.65670353,0.27074462,-0.029529423,-0.7032537,1
13023999,0.43633232,0.34906584,-1.5545654,0.6589929,0.27083945,-0.028646551,-0.7011089,1
13048000,0.43633232,0.34906584,-1.5546564,0.65896106,0.27083814,-0.028658874,-0.70113885,1
13072000,0.43633232,0.34906584,-1.5546982,0.6589464,0.27083755,-0.02866453,-0.7011526,1
13096000,0.43633232,0.34906584,-1.5547901,0.65891415,0.27083623,-0.028676972,-0.7011829,1
13119999,0.43633232,0.34906584,-1.5481797,0.6612281,0.27092952,-0.027781658,-0.69900125,1
13144000,0.43633232,0.34906584,-1.5482655,0.66119814,0.27092835,-0.027793251,-0.69902956,1
13168000,0.43633232,0.34906584,-1.5483526,0.66116774,0.27092713,-0.02780506,-0.6990584,1
13192000,0.43633232,0.34906584,-1.5483909,0.66115427,0.2709266,-0.027810246,-0.69907105,1
13215999,0.43633232,0.34906584,-1.5417997,0.66345453,0.27101678,-0.026917234,-0.6968884,1
13240000,0.43633232,0.34906584,-1.541883,0.6634255,0.27101564,-0.026928522,-0.69691604,1
13264000,0.43633232,0.34906584,-1.5419167,0.66341376,0.2710152,-0.026933104,-0.6969272,1
13288000,0.43633232,0.34906584,-1.5420005,0.66338456,0.27101406,-0.026944451,-0.69695497,1
13312000,0.43633232,0.34906584,-1.5353307,0.6657052,0.27110243,-0.026040487,-0.69473875,1
13336000,0.43633232,0.34906584,-1.5354081,0.66567826,0.27110142,-0.026051,-0.69476455,1
13360000,0.43633232,0.34906584,-1.5354874,0.6656507,0.2711004,-0.026061751,-0.69479096,1
13383999,0.43633232,0.34906584,-1.5287973,0.66797113,0.27118605,-0.025154747,-0.69256043,1
13408000,0.43633232,0.34906584,-1.5288744,0.6679444,0.2711851,-0.0251652,-0.6925862,1
13432000,0.43633232,0.34906584,-1.5289025,0.66793466,0.2711847,-0.025169022,-0.6925956,1
13456000,0.43633232,0.34906584,-1.5222443,0.6702367,0.271267,-0.024266087,-0.6903681,1
13479999,0.43633232,0.34906584,-1.5223182,0.6702112,0.2712661,-0.0242761,-0.69039285,1
13504000,0.43633232,0.34906584,-1.5223442,0.6702022,0.2712658,-0.024279632,-0.6904016,1
13528000,0.43633232,0.34906584,-1.5156703,0.67250234,0.27134532,-0.02337429,-0.6881613,1
13552000,0.43633232,0.34906584,-1.5156927,0.6724946,0.27134502,-0.02337733,-0.6881689,1
13575999,0.43633232,0.34906584,-1.5157722,0.67246723,0.27134413,-0.023388125,-0.6881956,1
13600000,0.43633232,0.34906584,-1.5090431,0.6747789,0.27142125,-0.022475041,-0.6859291,1
13624000,0.43633232,0.34906584,-1.5091254,0.67475075,0.27142036,-0.022486202,-0.6859569,1
13648000,0.43633232,0.34906584,-1.5092106,0.6747214,0.2714194,-0.02249775,-0.6859856,1
13672000,0.43633232,0.34906584,-1.5024747,0.67702806,0.2714936,-0.021583512,-0.6837093,1
13696000,0.43633232,0.34906584,-1.5025591,0.6769991,0.27149272,-0.021594971,-0.68373793,1
13720000,0.43633232,0.34906584,-1.4958128,0.6793016,0.271564,-0.020679057,-0.68145037,1
13744000,0.87266463,0.3415379,-1.4958967,0.60589,0.41006225,-0.17034853,-0.66009665,0.40978044
13768000,0.87266463,0.33401257,-1.4959192,0.6073689,0.40796992,-0.1729993,-0.6593442,0.4334424
13792000,0.87266463,0.32648903,-1.4890354,0.6111095,0.40647635,-0.17424428,-0.65647626,0.45594496
13816000,0.87266463,0.31896254,-1.4888245,0.6126453,0.40440184,-0.17685044,-0.6556286,0.47784987
13840000,0.87266463,0.3114324,-1.4817847,0.61640507,0.40293148,-0.17808108,-0.65267,0.49853876
13864000,0.87266463,0.30389798,-1.4815212,0.61793876,0.40085804,-0.18068242,-0.6517808,0.5180035
13888000,0.87266463,0.29635885,-1.4813142,0.61944616,0.39877316,-0.18329468,-0.65089893,0.53619504
13912000,0.87266463,0.28880727,-1.4741218,0.62321323,0.39732656,-0.18452254,-0.6478334,0.5541157
13936000,0.87266463,0.28124332,-1.4739128,0.62470466,0.39523378,-0.1871461,-0.6469239,0.57070756
13960000,0.87266463,0.27366728,-1.4666655,0.6284588,0.39379793,-0.18838698,-0.6437958,0.5860151
13984000,0.87266463,0.2660795,-1.466477,0.6299265,0.39169562,-0.1910258,-0.64286566,0.6000591
14008000,0.87266463,0.2584738,-1.4592121,0.6336556,0.3902659,-0.1922889,-0.6396859,0.61380416
14032000,0.87266463,0.250851,-1.4590515,0.6350989,0.38815016,-0.1949482,-0.63873637,0.6263701
14056000,0.87266463,0.24321195,-1.458871,0.6365421,0.38602656,-0.19760689,-0.6377689,0.6378129
14080000,0.87266463,0.2355576,-1.4516705,0.6402097,0.38459408,-0.19891977,-0.6345469,0.64820063
14104000,0.87266463,0.22788364,-1.4515306,0.641624,0.3824557,-0.201601,-0.6335642,0.65829647
14128000,0.87266463,0.22019129,-1.4443464,0.6452556,0.38102397,-0.20294523,-0.63030076,0.667419
14152000,0.87266463,0.21248187,-1.4442657,0.6466346,0.37886843,-0.20565237,-0.6293087,0.67564243
14176000,0.87266463,0.2047567,-1.4370633,0.65023977,0.3774426,-0.20701943,-0.6259938,0.68302757
14200000,0.87266463,0.20131312,-1.4370966,0.6508249,0.3764727,-0.20824286,-0.6255638,0.6902349
14224000,0.87266463,0.2029172,-1.4299395,0.6527829,0.37766382,-0.2063258,-0.62343735,0.6967163
14248000,0.87266463,0.20437351,-1.4300205,0.65250635,0.37806228,-0.20582485,-0.62365097,0.7025181
14272000,0.87266463,0.20570299,-1.4228914,0.6544961,0.37916306,-0.20400321,-0.6214925,0.7077094
14296000,0.87266463,0.20683858,-1.4157692,0.6565096,0.38020116,-0.20224676,-0.6193048,0.71290576
14320000,0.87266463,0.2078802,-1.4159002,0.65628964,0.38047594,-0.20190018,-0.6194823,0.7175377
14344000,0.87266463,0.20883918,-1.408817,0.65831447,0.3814524,-0.20020846,-0.6172784,0.72166663
14368000,0.87266463,0.2097238,-1.4089189,0.65813076,0.38168555,-0.19991145,-0.61742646,0.725362
14392000,0.87266463,0.21054262,-1.4019041,0.66015154,0.38260847,-0.19827782,-0.6152208,0.7286528
14416000,0.87266463,0.21129572,-1.4020383,0.6599807,0.3828013,-0.19803335,-0.6153629,0.73166114
14440000,0.87266463,0.21200328,-1.3950382,0.662009,0.38368472,-0.19643779,-0.61314136,0.7343358
14464000,0.87266463,0.2126661,-1.3879743,0.6640569,0.38455576,-0.19484234,-0.610886,0.73670024
14488000,0.87266463,0.21329066,-1.3881063,0.66390955,0.38471213,-0.19464241,-0.61101145,0.73879355
14512000,0.87266463,0.21387942,-1.3810941,0.665947,0.38555098,-0.19307944,-0.60875726,0.74068993
14536000,0.87266463,0.21444212,-1.3812168,0.6658133,0.3856908,-0.19289957,-0.6088718,0.7423604
14560000,0.87266463,0.21498048,-1.3741443,0.66787034,0.38651496,-0.19133922,-0.6065844,0.74380136
14584000,0.87266463,0.21549848,-1.3671131,0.6699105,0.38732353,-0.18979082,-0.60430115,0.74505156
14608000,0.87266463,0.2159987,-1.3672538,0.66978264,0.3874437,-0.18963617,-0.6044144,0.7461021
14632000,0.87266463,0.21648759,-1.3601683,0.6718365,0.3882429,-0.1880841,-0.6021025,0.74699837
14656000,0.87266463,0.21696265,-1.3531325,0.6738699,0.3890277,-0.18654346,-0.5997985,0.7477508
14680000,0.87266463,0.21742804,-1.353244,0.67375743,0.38914028,-0.18639503,-0.599898,0.74836004
14704000,0.87266463,0.21787943,-1.3461206,0.67581326,0.38992035,-0.18484238,-0.5975548,0.74888694
14728000,0.87266463,0.21832857,-1.3389908,0.67786336,0.3906943,-0.18328615,-0.5952021,0.749277
14752000,0.87266463,0.21877004,-1.339139,0.6777445,0.39079612,-0.18315285,-0.59531146,0.7495832
14776000,0.87266463,0.21920905,-1.3319902,0.67979395,0.3915625,-0.18159306,-0.5929442,0.74980205
14800000,0.87266463,0.2196166,-1.3248158,0.68184805,0.39231688,-0.18003674,-0.59055686,0.7501342
14824000,0.87266463,0.22002517,-1.3249221,0.6817479,0.39241302,-0.17990667,-0.5906483,0.750394
14848000,0.87266463,0.22043237,-1.317805,0.68377703,0.39315554,-0.17835832,-0.58827376,0.75058544
14872000,0.87266463,0.2208357,-1.3106207,0.6858182,0.39389697,-0.17679511,-0.5858686,0.7507151
14896000,0.87266463,0.22124091,-1.3034012,0.68786085,0.39463577,-0.17522128,-0.58344454,0.7507653
14920000,0.87266463,0.22164558,-1.3034643,0.6877748,0.39473328,-0.17508309,-0.5835215,0.75077534
14944000,0.87266463,0.2220477,-1.2962692,0.6898025,0.39546245,-0.17351183,-0.58109856,0.75074404
14968000,0.87266463,0.22244889,-1.2890068,0.69184136,0.39619094,-0.17192464,-0.57864517,0.7507058
14992000,0.87266463,0.22284971,-1.2817168,0.6938793,0.39691532,-0.17032908,-0.57617503,0.75065386
15016000,0.87266463,0.22320196,-1.2817816,0.6938023,0.39699805,-0.1702098,-0.57624614,0.7509948
15040000,0.87266463,0.22356173,-1.274492,0.6958384,0.39770535,-0.16862646,-0.5737635,0.751279
15064000,0.87266463,0.22392815,-1.2671881,0.6978685,0.39840925,-0.16703482,-0.5712695,0.75154954
15088000,0.87266463,0.2242964,-1.2598667,0.6998945,0.39910868,-0.1654361,-0.5687625,0.75179106
15112000,0.87266463,0.22468816,-1.2525778,0.70189834,0.39980483,-0.1638321,-0.56626296,0.7518019
15136000,0.87266463,0.22508383,-1.2452024,0.703917,0.40050256,-0.16220647,-0.56372654,0.75182915
15160000,0.87266463,0.2254826,-1.2377943,0.7059351,0.40119708,-0.16057011,-0.56117165,0.7518388
15184000,0.87266463,0.2258852,-1.237829,0.7058596,0.40129164,-0.16042385,-0.5612409,0.75180113
15208000,0.87266463,0.22625245,-1.2304188,0.70787436,0.4019716,-0.15879586,-0.5586739,0.75208575
15232000,0.87266463,0.22662938,-1.2230048,0.7098793,0.40264753,-0.15716055,-0.5560998,0.752356
15256000,0.87266463,0.22700599,-1.2155675,0.7118813,0.40331858,-0.15551779,-0.55350995,0.752595
15280000,0.87266463,0.22738881,-1.2081219,0.7138751,0.40398514,-0.15386818,-0.55091095,0.75280964
15304000,0.87266463,0.22779594,-1.2006431,0.71586466,0.40465316,-0.15219966,-0.5482963,0.75278395
15328000,0.87266463,0.22820678,-1.1931493,0.71784806,0.40531632,-0.15052384,-0.5456697,0.7526872
15352000,0.87266463,0.22862254,-1.1856196,0.71983075,0.40597644,-0.148836,-0.5430236,0.7526081
15376000,0.87266463,0.22904263,-1.1780645,0.72180986,0.4066324,-0.14713845,-0.54036176,0.7525255
15400000,0.87266463,0.22945113,-1.1704922,0.7237855,0.40727997,-0.1454391,-0.5376848,0.75247467
15424000,0.87266463,0.22986968,-1.1629425,0.72574365,0.40792108,-0.14373761,-0.5350103,0.75240356
15448000,0.87266463,0.23028871,-1.1552886,0.72771955,0.40856266,-0.14201191,-0.5322908,0.7523077
15472000,0.87266463,0.23071033,-1.1476686,0.72967577,0.40919515,-0.14028929,-0.5295767,0.7522054
15496000,0.87266463,0.23111877,-1.1400084,0.73163444,0.40982032,-0.13856089,-0.5268388,0.7521803
15520000,0.87266463,0.23153202,-1.1323581,0.7335795,0.4104386,-0.13682982,-0.52409786,0.7521007
15544000,0.87266463,0.2319471,-1.1246853,0.73552,0.4110516,-0.13509077,-0.5213419,0.75197613
15568000,0.87266463,0.2323649,-1.1169909,0.7374552,0.41165927,-0.13334349,-0.5185711,0.7518331
15592000,0.87266463,0.23278295,-1.1092093,0.73940235,0.41226533,-0.13157545,-0.5157609,0.75165194
15616000,0.87266463,0.23320466,-1.10148,0.74132484,0.41286123,-0.12981401,-0.5129633,0.75142044
15640000,0.87266463,0.23363161,-1.0937562,0.74323446,0.41345042,-0.12804903,-0.5101614,0.7511923
15664000,0.87266463,0.2340553,-1.0859973,0.7451429,0.41403365,-0.1262755,-0.5073388,0.7509053
15688000,0.87266463,0.23448074,-1.0781698,0.7470576,0.41461396,-0.12448436,-0.50448364,0.7506369
15712000,0.87266463,0.23492505,-1.0704167,0.7489399,0.41518596,-0.122698575,-0.50165206,0.7501882
15736000,0.87266463,0.23537157,-1.0626276,0.75081986,0.41575292,-0.1209018,-0.4988002,0.7497196
15760000,0.87266463,0.23581554,-1.0547682,0.75270694,0.41631588,-0.11908893,-0.49591455,0.7492267
15784000,0.87266463,0.236267,-1.0469749,0.7545655,0.41686857,-0.11728423,-0.49304774,0.7487439
15808000,0.87266463,0.23670758,-1.0309842,0.75841725,0.41788113,-0.113769576,-0.48706782,0.74825853
15832000,0.87266463,0.23715784,-1.0231684,0.7602476,0.4184119,-0.111953504,-0.48417088,0.74781865
15856000,0.87266463,0.23760684,-1.0152972,0.7620803,0.41893765,-0.11012392,-0.4812457,0.747357
15880000,0.87266463,0.23806104,-1.0074606,0.7638927,0.41945463,-0.10829708,-0.47832763,0.7468899
15904000,0.87266463,0.23851544,-0.99955404,0.7657106,0.41996744,-0.106453106,-0.47537595,0.7463815
15928000,0.87266463,0.2389775,-0.9916809,0.767508,0.42047197,-0.10461068,-0.47243145,0.74586797
15952000,0.87266463,0.23943514,-0.98458153,0.76911294,0.42092782,-0.102930576,-0.469777,0.74536276
15976000,0.87266463,0.23990048,-0.97599286,0.77105516,0.4214537,-0.10093158,-0.46654424,0.7448995
16000000,0.87266463,0.24037306,-0.9702853,0.7723145,0.42182857,-0.099534765,-0.46441764,0.7443471
16024000,0.87266463,0.24085543,-0.964622,0.77355623,0.42219853,-0.09814198,-0.46230635,0.74381495
16048000,0.87266463,0.24133767,-0.96200377,0.7740907,0.4224162,-0.097391196,-0.4613708,0.74326706
16072000,0.87266463,0.24182227,-0.95644057,0.7753008,0.42277482,-0.0960166,-0.45929387,0.7427366
16096000,0.87266463,0.24233186,-0.95092076,0.77649176,0.4231316,-0.09463967,-0.45723465,0.7420232
16120000,0.87266463,0.24284732,-0.9430314,0.7782151,0.42359516,-0.092757255,-0.4542516,0.74134165
16144000,0.87266463,0.24335815,-0.9376507,0.7793609,0.42393535,-0.0914064,-0.45223913,0.7406868
16168000,0.87266463,0.24387614,-0.93231225,0.780491,0.4242707,-0.0900604,-0.45024148,0.74008244
16192000,0.87266463,0.24439329,-0.9270158,0.7816065,0.42459977,-0.08872251,-0.44825727,0.73956203
16216000,0.87266463,0.24490713,-0.92479646,0.7820299,0.42478922,-0.08803854,-0.44747344,0.7390877
16240000,0.87266463,0.24542993,-0.9144286,0.7842647,0.42533153,-0.08561834,-0.44349906,0.7386948
16264000,0.87266463,0.24595615,-0.90930593,0.7853233,0.42564112,-0.084310055,-0.44157517,0.73836905
16288000,0.87266463,0.24648564,-0.9042238,0.78636783,0.42594564,-0.083008,-0.4396652,0.7380638
16312000,0.87266463,0.24705844,-0.89918196,0.78739274,0.4262521,-0.081695475,-0.4377757,0.73740536
16336000,0.87266463,0.24762818,-0.89418024,0.7884047,0.42655244,-0.08039179,-0.43589914,0.7367916
16360000,0.87266463,0.24820474,-0.88429606,0.7904684,0.42704183,-0.07804197,-0.4320929,0.7362918
16384000,0.87266463,0.24877642,-0.87941325,0.7914409,0.427327,-0.07676018,-0.4302566,0.7358442
16408000,0.87266463,0.24935454,-0.8745696,0.79239976,0.42760798,-0.07548313,-0.4284346,0.7354939
16432000,0.87266463,0.24993151,-0.86976475,0.7933463,0.42788363,-0.07421395,-0.4266257,0.7352328
16456000,0.87266463,0.25051785,-0.86027086,0.7952811,0.42832696,-0.071935914,-0.42295283,0.73504
16480000,0.87266463,0.25110042,-0.8555813,0.79618996,0.4285891,-0.07068668,-0.42118436,0.73490936
16504000,0.87266463,0.25169945,-0.8509296,0.7970846,0.42884907,-0.06943781,-0.41943175,0.7347324
16528000,0.87266463,0.25229907,-0.84631556,0.7979673,0.4291043,-0.06819595,-0.41769233,0.73467624
16552000,0.87266463,0.25290293,-0.8417389,0.7988379,0.42935547,-0.06695947,-0.41596666,0.73468375
16576000,0.87266463,0.25351024,-0.8326967,0.8006271,0.42974943,-0.06476141,-0.4124532,0.73473847
16600000,0.87266463,0.2541421,-0.8282305,0.8014597,0.42999178,-0.06353477,-0.41077095,0.7346205
16624000,0.87266463,0.25478104,-0.82380074,0.80228025,0.43023074,-0.062312193,-0.4091028,0.73463464
16648000,0.87266463,0.25541994,-0.816259,0.80373025,0.43056083,-0.060419016,-0.40618294,0.73467326
16672000,0.87266463,0.25606495,-0.8075755,0.8053989,0.430917,-0.058275655,-0.4027992,0.7348038
16696000,0.87266463,0.2567087,-0.8032871,0.8061737,0.4311381,-0.05707842,-0.40118092,0.7351044
16720000,0.87266463,0.25735667,-0.7990339,0.8069374,0.4313556,-0.055886336,-0.39957604,0.73541933
16744000,0.87266463,0.25800842,-0.7948156,0.8076906,0.43156958,-0.05469954,-0.39798447,0.7358123
16768000,0.87266463,0.25866377,-0.7874573,0.8090613,0.43186438,-0.05283252,-0.3951223,0.7362974
16792000,0.87266463,0.2593252,-0.7791928,0.8105987,0.43217522,-0.050765723,-0.3918892,0.7368652
16816000,0.87266463,0.25999713,-0.7756482,0.8112022,0.43236166,-0.04971321,-0.3905674,0.7374222
16840000,0.87266463,0.26067683,-0.7756482,0.81111133,0.4324599,-0.049423464,-0.3906841,0.73805076
16864000,0.87266463,0.2613574,-0.7756482,0.8110202,0.4325582,-0.049133316,-0.3908009,0.738703
16888000,0.87266463,0.2620427,-0.7756482,0.81092846,0.43265715,-0.048841134,-0.3909185,0.7394504
16912000,0.87266463,0.2627595,-0.7756482,0.81083226,0.43276057,-0.04853551,-0.39104143,0.7398958
16936000,0.87266463,0.26348367,-0.7756482,0.8107351,0.43286505,-0.04822678,-0.3911656,0.74042
16960000,0.87266463,0.26421273,-0.7756482,0.8106371,0.43297014,-0.04791592,-0.39129052,0.7410575
16984000,0.87266463,0.26494634,-0.7756482,0.8105384,0.43307582,-0.04760313,-0.39141622,0.7417812
17008000,0.87266463,0.26566714,-0.7756482,0.8104413,0.43317965,-0.04729581,-0.39153963,0.7427858
17032000,0.87266463,0.26639318,-0.7756482,0.8103434,0.43328413,-0.046986215,-0.3916639,0.7438616
17056000,0.87266463,0.26711604,-0.7756482,0.8102459,0.43338805,-0.04667799,-0.3917876,0.74496335
17080000,0.87266463,0.26784587,-0.7756482,0.8101472,0.43349302,-0.046366774,-0.3919124,0.746091
17104000,0.87266463,0.2686175,-0.7756482,0.81004286,0.43360388,-0.046037763,-0.3920443,0.74678254
17128000,0.87266463,0.26939642,-0.7756482,0.8099373,0.4337157,-0.04570558,-0.39217737,0.74756914
17152000,0.87266463,0.2701808,-0.7756482,0.80983096,0.43382823,-0.045371108,-0.39231133,0.7484471
17176000,0.87266463,0.27097127,-0.7756482,0.8097237,0.43394166,-0.04503402,-0.39244628,0.7493304
17200000,0.87266463,0.27173585,-0.7756482,0.8096197,0.43405125,-0.04470796,-0.39257675,0.7507112
17224000,0.87266463,0.2725056,-0.7756482,0.809515,0.43416148,-0.04437968,-0.39270803,0.7521737
17248000,0.87266463,0.27327538,-0.7756482,0.8094101,0.43427172,-0.044051394,-0.39283928,0.75365883
17272000,0.87266463,0.27404645,-0.7756482,0.80930495,0.43438205,-0.043722548,-0.39297068,0.75519633
17296000,0.87266463,0.27483115,-0.7756482,0.80919784,0.43449426,-0.043387897,-0.39310437,0.75662774
17320000,0.87266463,0.27562118,-0.7756482,0.80908984,0.43460718,-0.043050952,-0.3932389,0.75806254
17344000,0.87266463,0.27641493,-0.7756482,0.80898124,0.43472058,-0.042712405,-0.39337397,0.7595106
17368000,0.87266463,0.27721277,-0.7756482,0.8088718,0.43483445,-0.042372122,-0.39350966,0.76102227
17392000,0.87266463,0.27801448,-0.7756482,0.8087619,0.4349488,-0.04203017,-0.39364594,0.76258504
17416000,0.87266463,0.27883634,-0.7756482,0.808649,0.43506598,-0.04167963,-0.39378566,0.76393306
17440000,0.87266463,0.27966177,-0.7756482,0.80853546,0.43518358,-0.041327544,-0.39392585,0.765328
17464000,0.87266463,0.28047705,-0.7756482,0.8084232,0.43529966,-0.040979795,-0.39406428,0.7667219
17488000,0.87266463,0.28129596,-0.7756482,0.80831033,0.43541622,-0.040630475,-0.39420325,0.7681316
17512000,0.87266463,0.28211936,-0.7756482,0.80819666,0.4355333,-0.04027924,-0.3943429,0.7695594
17536000,0.87266463,0.28294644,-0.7756482,0.8080824,0.43565086,-0.039926447,-0.39448312,0.77102184
17560000,0.87266463,0.2837769,-0.7756482,0.8079675,0.43576878,-0.039572187,-0.39462385,0.77250636
17584000,0.87266463,0.28461123,-0.7756482,0.80785197,0.43588722,-0.039216258,-0.39476514,0.77403367
17608000,0.87266463,0.28543228,-0.7756482,0.8077381,0.43600368,-0.038866,-0.39490417,0.7757827
17632000,0.87266463,0.28625795,-0.7756482,0.80762345,0.43612072,-0.038513765,-0.39504385,0.77750516
17656000,0.87266463,0.28707787,-0.7756482,0.8075094,0.4362369,-0.038163982,-0.39518255,0.7792144
17680000,0.87266463,0.2878984,-0.7756482,0.8073953,0.43635303,-0.037813924,-0.39532125,0.7809423
17704000,0.87266463,0.28870928,-0.7756482,0.8072822,0.43646777,-0.037467957,-0.39545825,0.7828595
17728000,0.87266463,0.289525,-0.7756482,0.80716854,0.43658316,-0.037119955,-0.39559606,0.7847683
17752000,0.87266463,0.2903437,-0.7756482,0.80705416,0.43669882,-0.03677068,-0.39573425,0.7866203
17776000,0.87266463,0.29116586,-0.7756482,0.8069391,0.43681493,-0.036419883,-0.39587295,0.78852475
17800000,0.87266463,0.2919943,-0.7756482,0.8068232,0.43693185,-0.036066428,-0.39601266,0.790292
17824000,0.87266463,0.29282674,-0.7756482,0.8067064,0.43704927,-0.03571126,-0.39615297,0.7920418
17848000,0.87266463,0.29366097,-0.7756482,0.80658937,0.43716684,-0.035355315,-0.39629355,0.7937841
17872000,0.87266463,0.29447848,-0.7756482,0.8064745,0.43728206,-0.0350065,-0.3964312,0.79542744
17896000,0.87266463,0.29528514,-0.7756482,0.8063611,0.43739557,-0.0346623,-0.396567,0.79724234
17920000,0.87266463,0.296094,-0.7756482,0.8062472,0.4375094,-0.034317188,-0.3967031,0.79902357
17944000,0.87266463,0.2969012,-0.7756482,0.8061334,0.43762287,-0.033972748,-0.3968388,0.8007642
17968000,0.87266463,0.29770774,-0.7756482,0.8060195,0.4377362,-0.033628583,-0.39697438,0.8024289
17992000,0.87266463,0.29851377,-0.7756482,0.8059056,0.43784934,-0.03328462,-0.3971098,0.80408305
18016000,0.87266463,0.2993063,-0.7756482,0.80579346,0.43796062,-0.032946452,-0.39724287,0.80602914
18040000,0.87266463,0.30009708,-0.7756482,0.80568147,0.43807152,-0.032609,-0.39737558,0.80789906
18064000,0.87266463,0.3008704,-0.7756482,0.80557173,0.4381799,-0.032279,-0.39750528,0.80969226
18088000,0.87266463,0.3016339,-0.7756482,0.8054634,0.43828684,-0.031953186,-0.3976333,0.8113724
18112000,0.87266463,0.30239508,-0.7756482,0.8053552,0.43839338,-0.03162834,-0.39776093,0.81290156
18136000,0.87266463,0.30315444,-0.7756482,0.8052472,0.43849966,-0.031304285,-0.39788815,0.81434166
18160000,0.87266463,0.30390927,-0.7756482,0.8051397,0.43860522,-0.030982137,-0.39801458,0.81569785
18184000,0.87266463,0.30466,-0.7756482,0.8050327,0.43871012,-0.030661762,-0.3981402,0.81694317
18208000,0.87266463,0.30538753,-0.7756482,0.80492884,0.4388117,-0.030351281,-0.39826193,0.81854874
18232000,0.87266463,0.30611134,-0.7756482,0.8048254,0.43891275,-0.030042365,-0.398383,0.82008016
18256000,0.87266463,0.30683583,-0.7756482,0.8047219,0.4390138,-0.029733166,-0.39850408,0.82150763
18280000,0.87266463,0.30752018,-0.7756482,0.8046239,0.43910924,-0.029441103,-0.39861846,0.8227524
18304000,0.87266463,0.30820656,-0.7756482,0.80452555,0.4392049,-0.029148176,-0.39873308,0.8238013
18328000,0.87266463,0.30887902,-0.7756482,0.80442905,0.43929854,-0.028861165,-0.39884537,0.8247353
18352000,0.87266463,0.30954567,-0.7756482,0.8043334,0.43939134,-0.028576627,-0.39895666,0.8255785
18376000,0.87266463,0.3102034,-0.7756482,0.8042388,0.43948287,-0.028295904,-0.39906633,0.82627714
18400000,0.87266463,0.31084216,-0.7756482,0.80414695,0.43957168,-0.028023288,-0.39917287,0.8271562
18424000,0.87266463,0.3114722,-0.7756482,0.80405635,0.43965927,-0.027754366,-0.39927793,0.82792604
18448000,0.87266463,0.31209195,-0.7756482,0.803967,0.43974537,-0.027489841,-0.39938116,0.8285325
18472000,0.87266463,0.3126932,-0.7756482,0.80388033,0.4398288,-0.027233213,-0.39948133,0.82895625
18496000,0.87266463,0.3132617,-0.7756482,0.80379826,0.43990773,-0.026990563,-0.399576,0.8292625
18520000,0.87266463,0.3138248,-0.7756482,0.8037169,0.43998584,-0.026750192,-0.3996697,0.8294347
18544000,0.87266463,0.31437927,-0.7756482,0.8036368,0.44006273,-0.026513532,-0.399762,0.8294368
18568000,0.87266463,0.31492347,-0.7756482,0.80355805,0.4401382,-0.026281267,-0.39985254,0.82929146
18592000,0.87266463,0.315457,-0.7756482,0.80348086,0.44021207,-0.026053533,-0.39994124,0.82905406
18616000,0.87266463,0.31597647,-0.7756482,0.8034056,0.440284,-0.025831789,-0.4000276,0.82881075
18640000,0.87266463,0.31648493,-0.7756482,0.8033319,0.44035444,-0.025614753,-0.40011212,0.8283838
18664000,0.87266463,0.31698075,-0.7756482,0.8032599,0.44042304,-0.025403112,-0.40019447,0.8278641
18688000,0.87266463,0.31743366,-0.7756482,0.8031942,0.4404857,-0.025209785,-0.40026972,0.827077
18712000,0.87266463,0.3178708,-0.7756482,0.80313075,0.44054613,-0.025023192,-0.40034232,0.8262848
18736000,0.87266463,0.3182988,-0.7756482,0.8030685,0.44060528,-0.024840504,-0.40041336,0.82533616
18760000,0.87266463,0.31871623,-0.7756482,0.8030078,0.44066295,-0.024662301,-0.40048262,0.824338
18784000,0.87266463,0.3191232,-0.7756482,0.8029486,0.44071916,-0.024488598,-0.40055016,0.82326305
18808000,0.87266463,0.3195195,-0.7756482,0.80289084,0.4407739,-0.02431944,-0.4006159,0.82191145
18832000,0.87266463,0.31990618,-0.7756482,0.8028346,0.4408273,-0.024154365,-0.40068,0.82048285
18856000,0.87266463,0.3202819,-0.7756482,0.8027798,0.44087914,-0.023993954,-0.40074232,0.81901354
18880000,0.87266463,0.32062852,-0.7756482,0.80272925,0.44092697,-0.023846,-0.40079978,0.81745046
18904000,0.87266463,0.3209505,-0.7756482,0.8026823,0.44097137,-0.023708552,-0.40085313,0.81605697
18928000,0.87266463,0.32126558,-0.7756482,0.8026363,0.44101483,-0.023574084,-0.40090534,0.81466335
18952000,0.87266463,0.3215718,-0.7756482,0.8025916,0.44105703,-0.023443326,-0.4009561,0.81328356
18976000,0.87266463,0.32186958,-0.7756482,0.80254805,0.4410981,-0.02331622,-0.40100542,0.8119389
19000000,0.87266463,0.32215807,-0.7756482,0.8025059,0.44113785,-0.023193076,-0.40105316,0.81051797
19024000,0.87266463,0.32244152,-0.7756482,0.8024645,0.4411769,-0.023072064,-0.40110013,0.8091336
19048000,0.87266463,0.32271692,-0.7756482,0.8024242,0.44121483,-0.022954509,-0.40114573,0.80775195
19072000,0.86642015,0.32298702,-0.7756482,0.8037585,0.4387446,-0.021586478,-0.40125978,0.8063819
19096000,0.855748,0.32321054,-0.7756482,0.8060557,0.43448055,-0.019349307,-0.40140545,0.80514795
19120000,0.84471965,0.3234338,-0.7756482,0.80840707,0.4300604,-0.017039776,-0.40154162,0.80388814
19144000,0.8333505,0.3236531,-0.7756482,0.8108072,0.42548883,-0.014662609,-0.4016665,0.8025655
19168000,0.82159895,0.32386693,-0.7756482,0.81326264,0.4207476,-0.012210101,-0.4017787,0.8012015
19192000,0.8094571,0.32407615,-0.7756482,0.81577224,0.41583237,-0.009680361,-0.4018772,0.7998095
19216000,0.7969556,0.3242782,-0.7756482,0.818327,0.41075397,-0.007080704,-0.40195996,0.79832965
19240000,0.7840646,0.32447898,-0.7756482,0.82092935,0.40549982,-0.004402638,-0.40202668,0.7968227
19264000,0.77085775,0.32467487,-0.7756482,0.8235618,0.40009847,-0.001662627,-0.40207505,0.7953716
19288000,0.7573115,0.32485324,-0.7756482,0.8262281,0.39453724,0.001138389,-0.40210214,0.7938767
19312000,0.74352545,0.32500175,-0.7756482,0.8289076,0.38885444,0.0039749,-0.40210515,0.7924209
19336000,0.7293743,0.32515642,-0.7756482,0.8316171,0.3830026,0.006887585,-0.40208775,0.79099816
19360000,0.7149671,0.32530874,-0.7756482,0.83433384,0.37702474,0.009850666,-0.40204766,0.78955734
19384000,0.70021784,0.32545722,-0.7756482,0.83707154,0.37088382,0.012880608,-0.40198308,0.78810585
19408000,0.6852565,0.3255998,-0.7756482,0.8398036,0.3646331,0.015950128,-0.40189323,0.7866593
19432000,0.6700593,0.32574484,-0.7756482,0.8425308,0.3582633,0.019067459,-0.401778,0.7852184
19456000,0.6544857,0.32588908,-0.7756482,0.84527606,0.3517139,0.022259235,-0.40163437,0.78372127
19480000,0.6385827,0.32603166,-0.7756482,0.8480275,0.34500355,0.025515303,-0.40146098,0.7821967
19504000,0.62227404,0.32613516,-0.7756482,0.85079914,0.33809307,0.028834037,-0.401251,0.78104806
19528000,0.60575026,0.32624215,-0.7756482,0.8535497,0.331069,0.032195717,-0.4010105,0.77982396
19552000,0.588792,0.3263484,-0.7756482,0.8563129,0.32383654,0.035642125,-0.40073407,0.7785588
19576000,0.5714619,0.32645312,-0.7756482,0.8590737,0.316421,0.03915993,-0.4004206,0.7771985
19600000,0.55374414,0.32655406,-0.7756482,0.86183053,0.30881426,0.04275082,-0.40006757,0.7756375
19624000,0.5356782,0.32665756,-0.7756482,0.8645723,0.30103344,0.046409257,-0.39967456,0.7740151
19648000,0.5171517,0.32675943,-0.7756482,0.8673114,0.29302832,0.050155267,-0.39923638,0.77231765
19672000,0.4981823,0.3268591,-0.7756482,0.8700399,0.28480524,0.053984456,-0.398751,0.77060235
19696000,0.4789126,0.32694265,-0.7756482,0.8727336,0.2764231,0.057861477,-0.3982189,0.76911634
19720000,0.4591991,0.327009,-0.7756482,0.8754081,0.2678184,0.061813727,-0.39763412,0.76746374
19744000,0.43913844,0.32707107,-0.7756482,0.8780433,0.25903472,0.065827034,-0.39699844,0.7657532
19768000,0.41867092,0.32712895,-0.7756482,0.8806416,0.2500453,0.06991253,-0.39630774,0.76394945
19792000,0.39788026,0.32718256,-0.7756482,0.88318735,0.24088639,0.07405276,-0.3955628,0.762087
19816000,0.37673083,0.32722753,-0.7756482,0.8856803,0.23154125,0.078251936,-0.3947601,0.7606294
19840000,0.35539955,0.32727152,-0.7756482,0.8880947,0.2220894,0.082477786,-0.39390528,0.75911903
19864000,0.33384585,0.3273088,-0.7756482,0.89043266,0.21251222,0.08673494,-0.39299527,0.75752795
19888000,0.31198204,0.3273392,-0.7756482,0.89269936,0.20277083,0.091039725,-0.39202484,0.7558537
19912000,0.28995672,0.32733992,-0.7756482,0.89487815,0.19292787,0.09535168,-0.39099854,0.7543451
19936000,0.26766977,0.32733813,-0.7756482,0.89697266,0.18294373,0.09970193,-0.38991168,0.7527632
19960000,0.24534804,0.3273289,-0.7756482,0.89895946,0.17291993,0.10404317,-0.38877445,0.75109506
19984000,0.2229002,0.3273115,-0.7756482,0.9008453,0.16281632,0.108392134,-0.38758186,0.74936986
20008000,0.20036212,0.32728156,-0.7756482,0.9026256,0.15264921,0.112739146,-0.38633534,0.7479189
20032000,0.17786494,0.3272448,-0.7756482,0.90428895,0.14247991,0.117060825,-0.3850424,0.74637085
20056000,0.1553804,0.32719642,-0.7756482,0.90583795,0.13229614,0.12135996,-0.38370183,0.74473333
20080000,0.13283727,0.3271364,-0.7756482,0.90727675,0.12206687,0.1256496,-0.3823096,0.74298966
20104000,0.11040987,0.32704952,-0.7756482,0.908596,0.11186966,0.12988892,-0.38087708,0.7413398
20128000,0.088074565,0.32694906,-0.7756482,0.90979695,0.101697624,0.1340883,-0.37940386,0.7395463
20152000,0.06590573,0.32683778,-0.7756482,0.9108774,0.09158654,0.13823453,-0.37789607,0.73766726
20176000,0.04405545,0.32671252,-0.7756482,0.9118336,0.08160666,0.14229749,-0.3763659,0.73570055
20200000,0.022374766,0.3265694,-0.7756482,0.9126757,0.07169089,0.14630356,-0.3748049,0.7342305
20224000,0.001034458,0.3264179,-0.7756482,0.9134001,0.06192034,0.1502252,-0.37322718,0.7326386
20248000,-0.020026688,0.32625285,-0.7756482,0.9140136,0.052267544,0.15407178,-0.37163037,0.73094594
20272000,-0.040613223,0.32607266,-0.7756482,0.914516,0.04282286,0.15780665,-0.370032,0.7291616
20296000,-0.060731318,0.3258737,-0.7756482,0.9149143,0.033584137,0.16143015,-0.36843476,0.72743106
20320000,-0.08037077,0.32564682,-0.7756482,0.91521525,0.024555467,0.16493697,-0.36684296,0.72553056
20344000,-0.09950874,0.3254034,-0.7756482,0.91542435,0.015750524,0.168329,-0.3652609,0.72352344
20368000,-0.11829607,0.3251414,-0.7756482,0.91554856,0.007100806,0.17163368,-0.36367866,0.72138965
20392000,-0.13650225,0.32486132,-0.7756482,0.9155927,-0.00128727,0.17481005,-0.36211848,0.71914774
20416000,-0.1542306,0.32455978,-0.7756482,0.91556346,-0.009460922,0.17787643,-0.3605745,0.7172188
20440000,-0.17137296,0.32424316,-0.7756482,0.91546726,-0.01736883,0.18081713,-0.3590587,0.7151658
20464000,-0.18798243,0.32390723,-0.7756482,0.91531056,-0.025035616,0.18364093,-0.3575693,0.7130072
20488000,-0.20397717,0.32355154,-0.7756482,0.9151007,-0.032423552,0.18633409,-0.35611656,0.7107081
20512000,-0.2193743,0.3231661,-0.7756482,0.91484463,-0.039542124,0.1888964,-0.35470247,0.70872283
20536000,-0.23409614,0.32276216,-0.7756482,0.9145498,-0.046353478,0.19132036,-0.35333616,0.70660645
20560000,-0.2481724,0.3223363,-0.7756482,0.91422254,-0.052871782,0.19361095,-0.3520178,0.70438755
20584000,-0.26150784,0.3218906,-0.7756482,0.91387165,-0.059053123,0.19575366,-0.35075897,0.70207393
20608000,-0.27422825,0.3214231,-0.7756482,0.9134999,-0.06495547,0.19777094,-0.34955007,0.7000764
20632000,-0.2863268,0.32093763,-0.7756482,0.91311294,-0.07057507,0.19966438,-0.3483935,0.6979638
20656000,-0.29770324,0.32043034,-0.7756482,0.9127198,-0.0758671,0.2014159,-0.34730166,0.6957674
20680000,-0.3083121,0.3199024,-0.7756482,0.9123279,-0.08081084,0.20301935,-0.34628117,0.69348824
20704000,-0.31835136,0.31935543,-0.7756482,0.91193426,-0.085496575,0.20451084,-0.34531355,0.6915795
20728000,-0.3276565,0.31878293,-0.7756482,0.91155076,-0.08985077,0.20585987,-0.34441796,0.68952954
20752000,-0.33638737,0.31819037,-0.7756482,0.91117424,-0.09394555,0.20709744,-0.34357888,0.6873871
20776000,-0.3445451,0.31758103,-0.7756482,0.91080785,-0.09778105,0.20822588,-0.34279698,0.6851872
20800000,-0.3521677,0.31695503,-0.7756482,0.9104532,-0.1013748,0.20925245,-0.34206945,0.68340224
20824000,-0.35928905,0.31631818,-0.7756482,0.91011095,-0.10474126,0.21018612,-0.34139287,0.68152094
20848000,-0.36591235,0.3156665,-0.7756482,0.9097836,-0.10788296,0.21102615,-0.34076822,0.6795741
20872000,-0.37216762,0.3150026,-0.7756482,0.90946615,-0.110858664,0.2117963,-0.34018204,0.6775713
20896000,-0.37801075,0.31432742,-0.7756482,0.9091629,-0.113648295,0.21248987,-0.33963946,0.6761752
20920000,-0.38349882,0.31364036,-0.7756482,0.90887195,-0.11627808,0.21311657,-0.33913487,0.674658
20944000,-0.38860935,0.31294098,-0.7756482,0.9085962,-0.118738025,0.2136727,-0.3386712,0.6730537
20968000,-0.39347675,0.31223264,-0.7756482,0.9083287,-0.121088654,0.21418275,-0.33823395,0.6713884
20992000,-0.39817145,0.3115171,-0.7756482,0.9080659,-0.123361684,0.21465951,-0.33781555,0.66964585
21016000,-0.40258014,0.31079313,-0.7756482,0.90781564,-0.12550592,0.21508354,-0.3374285,0.6681613
21040000,-0.4068177,0.31007183,-0.7756482,0.9075711,-0.12757152,0.2154792,-0.33705935,0.66658187
21064000,-0.4108123,0.309346,-0.7756482,0.9073374,-0.12952727,0.21583134,-0.33671668,0.66493315
21088000,-0.4147638,0.30861795,-0.7756482,0.9071026,-0.1314635,0.21617472,-0.33637893,0.66321653
21112000,-0.41857135,0.30788618,-0.7756482,0.90687305,-0.13333473,0.21649173,-0.33605707,0.66181004
21136000,-0.42221016,0.30714482,-0.7756482,0.9066513,-0.13513094,0.2167757,-0.3357547,0.66029
21160000,-0.42575017,0.3064027,-0.7756482,0.9064328,-0.13688213,0.21704239,-0.33546317,0.65870684
21184000,-0.42912993,0.30566272,-0.7756482,0.9062217,-0.13855994,0.21728277,-0.3351888,0.6570646
21208000,-0.43251896,0.30491906,-0.7756482,0.90600693,-0.14024231,0.21752274,-0.334914,0.65540445
21232000,-0.43582585,0.30418676,-0.7756482,0.9057944,-0.1418849,0.2177536,-0.33464682,0.6536709
21256000,-0.43913007,0.30345938,-0.7756482,0.9055789,-0.14352496,0.2179859,-0.33437943,0.65189767
21280000,-0.44229436,0.30273938,-0.7756482,0.9053702,-0.14509988,0.21819776,-0.3341264,0.65008366
21304000,-0.44541854,0.3020212,-0.7756482,0.9051617,-0.14665598,0.21840344,-0.33387774,0.64844453
21328000,-0.44847962,0.30131143,-0.7756482,0.90495473,-0.14818153,0.218602,-0.3336349,0.64673537
21352000,-0.4515054,0.30060908,-0.7756482,0.90474766,-0.14968932,0.21879771,-0.33339518,0.6449894
21376000,-0.45450228,0.29991692,-0.7756482,0.9045398,-0.15118176,0.21899283,-0.3331574,0.64322615
21400000,-0.45750174,0.2992304,-0.7756482,0.9043291,-0.1526739,0.21919057,-0.33291867,0.6416825
21424000,-0.4604031,0.2985624,-0.7756482,0.90412307,-0.15411773,0.21937992,-0.33268845,0.64009476
21448000,-0.46332148,0.29790667,-0.7756482,0.903913,-0.15556657,0.21957725,-0.33245486,0.6385008
21472000,-0.46618363,0.2972629,-0.7756482,0.9037046,-0.15698731,0.21977025,-0.3322259,0.636872
21496000,-0.46893555,0.2966237,-0.7756482,0.9035025,-0.15835705,0.21994671,-0.33200857,0.6352727
21520000,-0.4716419,0.29600534,-0.7756482,0.9033015,-0.15970181,0.22012456,-0.33179352,0.63364285
21544000,-0.47426647,0.2953938,-0.7756482,0.9031048,-0.16100803,0.22029164,-0.33158672,0.6319866
21568000,-0.47688964,0.2947971,-0.7756482,0.9029059,-0.16231044,0.2204648,-0.3313781,0.6303303
21592000,-0.47944745,0.29421666,-0.7756482,0.9027101,-0.16357985,0.2206341,-0.33117464,0.6286753
21616000,-0.481955,0.29363957,-0.7756482,0.90251654,-0.16482566,0.22079633,-0.33097637,0.6274676
21640000,-0.4843631,0.29309648,-0.7756482,0.90232867,-0.16601966,0.22095688,-0.33078444,0.62624973
21664000,-0.48672917,0.2925618,-0.7756482,0.90214264,-0.16719282,0.22111398,-0.33059615,0.62501687
21688000,-0.4890548,0.29203475,-0.7756482,0.90195817,-0.16834597,0.22126758,-0.33041131,0.6237732
21712000,-0.49133202,0.29153052,-0.7756482,0.9017759,-0.1694726,0.22142306,-0.33022878,0.6225705
21736000,-0.49356508,0.2910386,-0.7756482,0.90159565,-0.17057666,0.22157647,-0.33004946,0.6213425
21760000,-0.49572456,0.28999385,-0.7756482,0.90143085,-0.17175673,0.22147587,-0.32995516,0.6192236
21784000,-0.49784836,0.2811099,-0.7756482,0.9014054,-0.1744695,0.21794021,-0.3309542,0.5850799
21808000,-0.49981835,0.27222785,-0.7756482,0.90137106,-0.17710929,0.21437794,-0.3319708,0.55313075
21832000,-0.5015647,0.26334786,-0.7756482,0.9013346,-0.17964442,0.21077731,-0.3330115,0.5236031
21856000,-0.50289273,0.2544698,-0.7756482,0.90131474,-0.18198723,0.20710546,-0.33409524,0.49646887
21880000,-0.5039095,0.24559338,-0.7756482,0.9013031,-0.18418589,0.20337965,-0.33520883,0.47164196
21904000,-0.50452864,0.23671184,-0.7756482,0.9013087,-0.18620272,0.19958186,-0.3363601,0.44954655
21928000,-0.50494885,0.2278248,-0.7756482,0.9013142,-0.18812735,0.1957449,-0.33752736,0.4295173
21952000,-0.5051876,0.21893184,-0.7756482,0.9013183,-0.18996762,0.19187123,-0.33870777,0.41140002
21976000,-0.5052503,0.2100325,-0.7756482,0.9013211,-0.19172609,0.18796131,-0.33989987,0.39506838
22000000,-0.50517577,0.201119,-0.7756482,0.90131915,-0.19342162,0.1840181,-0.3410999,0.38096017
22024000,-0.5050288,0.19219121,-0.7756482,0.90130645,-0.19508344,0.18005243,-0.34230137,0.36831677
22048000,-0.50479376,0.18324897,-0.7756482,0.9012846,-0.19670448,0.17606151,-0.34350502,0.3569986
22072000,-0.50446665,0.1742922,-0.7756482,0.9012541,-0.1982829,0.17204447,-0.34471074,0.34687793
22096000,-0.50412637,0.16531384,-0.7756482,0.90120727,-0.19985558,0.16801175,-0.34591216,0.33840317
22120000,-0.50372267,0.15631415,-0.7756482,0.9011489,-0.20139976,0.1639548,-0.3471132,0.33087283
22144000,-0.5033033,0.14729345,-0.7756482,0.9010742,-0.20293684,0.159882,-0.3483095,0.32415855
22168000,-0.5028497,0.13825212,-0.7756482,0.9009851,-0.20445837,0.15579031,-0.34950235,0.31819245
22192000,-0.50241894,0.12919064,-0.7756482,0.90087557,-0.2059899,0.15168995,-0.35068706,0.31288484
22216000,-0.50202215,0.12010313,-0.7756482,0.90074426,-0.2075375,0.14758039,-0.35186356,0.30865902
22240000,-0.50163436,0.110990405,-0.7756482,0.90059346,-0.20908967,0.14345767,-0.3530337,0.3048931
22264000,-0.50121915,0.10185333,-0.7756482,0.90042686,-0.21062985,0.13931583,-0.35419983,0.30155978
22288000,-0.5008582,0.09269286,-0.7756482,0.9002359,-0.21219456,0.1351698,-0.3553561,0.29858845
22312000,-0.5004892,0.08350166,-0.7756482,0.9000265,-0.21375702,0.1310054,-0.3565077,0.29655784
22336000,-0.5001349,0.074281,-0.7756482,0.89979637,-0.21532719,0.1268273,-0.35765284,0.29475418
22360000,-0.49985072,0.0650322,-0.7756482,0.8995391,-0.21692967,0.1226461,-0.35878807,0.29316193
22384000,-0.49964467,0.05864856,-0.7756482,0.89935166,-0.21802862,0.11975668,-0.35956702,0.289114
22408000,-0.49953523,0.05539153,-0.7756482,0.8992531,-0.21858655,0.118281156,-0.35996306,0.28336716
22432000,-0.4994539,0.052340847,-0.7756482,0.8991563,-0.21911813,0.11690259,-0.36033177,0.27822345
22456000,-0.49932945,0.049474865,-0.7756482,0.8990688,-0.21959545,0.11559855,-0.36068007,0.2736171
22480000,-0.4992126,0.046782415,-0.7756482,0.89898485,-0.22004353,0.11437323,-0.36100647,0.26950246
22504000,-0.4990633,0.043997217,-0.7756482,0.8988997,-0.22049387,0.113100305,-0.36134487,0.266776
22528000,-0.49900433,0.04137762,-0.7756482,0.89880896,-0.22095361,0.111917555,-0.36165777,0.2643483
22552000,-0.49885306,0.03892125,-0.7756482,0.89873314,-0.22134127,0.11079093,-0.36195588,0.26228055
22576000,-0.49871165,0.036608946,-0.7756482,0.8986605,-0.22170633,0.10973037,-0.36223575,0.26045927
22600000,-0.49848983,0.034366254,-0.7756482,0.8985984,-0.22202212,0.108686216,-0.36251128,0.2590652
22624000,-0.4981583,0.03227396,-0.7756482,0.89855325,-0.2222605,0.10768931,-0.36277434,0.2579162
22648000,-0.49767926,0.030310316,-0.7756482,0.89852875,-0.2224086,0.10672305,-0.36302957,0.25688246
22672000,-0.49718845,0.028474608,-0.7756482,0.89851016,-0.22252755,0.10581173,-0.36326978,0.2559848
22696000,-0.49661553,0.0265973,-0.7756482,0.8984982,-0.22261713,0.104866646,-0.36351833,0.25576946
22720000,-0.4958816,0.024844423,-0.7756482,0.8985086,-0.22261128,0.10394782,-0.36376002,0.25560802
22744000,-0.49508774,0.023199078,-0.7756482,0.89852947,-0.22255845,0.10306603,-0.36399144,0.25546113
22768000,-0.49428746,0.021675289,-0.7756482,0.8985557,-0.2224802,0.10223733,-0.36420834,0.25540072
22792000,-0.4933386,0.020252043,-0.7756482,0.8986021,-0.22231652,0.10142642,-0.3644204,0.25533992
22816000,-0.49222076,0.018740043,-0.7756482,0.8986632,-0.22209316,0.10054467,-0.36465022,0.25590366
22840000,-0.49114275,0.017340168,-0.7756482,0.8987241,-0.2218669,0.09972019,-0.3648642,0.25642255
22864000,-0.48996788,0.016036456,-0.7756482,0.8987994,-0.2215793,0.098920934,-0.36507106,0.25687397
22888000,-0.488677,0.014843694,-0.7756482,0.89889187,-0.22121899,0.09815002,-0.36527008,0.25733906
22912000,-0.496607,0.013555151,-0.78522164,0.8961943,-0.22454202,0.10009582,-0.36932036,0.2582748
22936000,-0.50597924,0.012361551,-0.79662806,0.89295954,-0.22837977,0.102596104,-0.3740855,0.25916183
22960000,-0.51508397,0.011262773,-0.8079724,0.88972497,-0.23205669,0.10512659,-0.37879747,0.259965
22984000,-0.5240059,0.010250097,-0.8192991,0.8864743,-0.23561013,0.107702,-0.3834729,0.26073277
23008000,-0.5326225,0.009250416,-0.83052874,0.88323563,-0.23900452,0.11025476,-0.38809222,0.26177806
23032000,-0.5410349,0.008339427,-0.84176934,0.87998205,-0.24226458,0.11284814,-0.39268914,0.2627752
23056000,-0.5491334,0.0075133,-0.8528392,0.87676454,-0.24535356,0.11543438,-0.39719072,0.26376575
23080000,-0.55700415,0.006769676,-0.86391467,0.8735402,-0.24830031,0.11804807,-0.40167055,0.26474053
23104000,-0.55490494,0.006039834,-0.86339086,0.8738647,-0.24756123,0.117242984,-0.40165657,0.26596177
23128000,-0.56264514,0.005382783,-0.87449276,0.87062174,-0.2504119,0.11990186,-0.40612206,0.26715606
23152000,-0.5700451,0.004811248,-0.8853925,0.86743164,-0.25308374,0.12253641,-0.41048214,0.26836967
23176000,-0.5774192,0.004306794,-0.89642143,0.8641879,-0.25569728,0.12524259,-0.4148646,0.26953295
23200000,-0.58455026,0.003952397,-0.9073509,0.86097103,-0.25815502,0.12798077,-0.41917276,0.2704075
23224000,-0.5913576,0.003673722,-0.9181141,0.8578037,-0.2604429,0.13069047,-0.4233938,0.27136916
23248000,-0.5980586,0.003453834,-0.92894524,0.85460883,-0.2626433,0.13343845,-0.42761707,0.2722568
23272000,-0.604525,0.003290255,-0.93963313,0.85144925,-0.26471618,0.13616711,-0.43176147,0.27314836
23296000,-0.602438,0.003075659,-0.9394492,0.85175055,-0.26388645,0.13560086,-0.43185347,0.27440786
23320000,-0.6086485,0.002914609,-0.9500916,0.84860826,-0.26583278,0.13828923,-0.43597364,0.2756617
23344000,-0.61481035,0.002814683,-0.9608084,0.84543234,-0.26771602,0.14102599,-0.44009545,0.27694404
23368000,-0.6208145,0.002763967,-0.9714474,0.84227043,-0.2695031,0.14376082,-0.4441637,0.27818936
23392000,-0.626629,0.002759964,-0.98206043,0.8391166,-0.271178,0.14649087,-0.44820356,0.27942532
23416000,-0.6322173,0.002881885,-0.9925607,0.836002,-0.2727145,0.14922757,-0.45217106,0.2804821
23440000,-0.6377152,0.003042962,-1.0030973,0.8328696,-0.27417827,0.1519838,-0.45613095,0.28152543
23464000,-0.6429402,0.003242424,-1.0134987,0.8297843,-0.27550688,0.15469277,-0.4600263,0.2825937
23488000,-0.64077455,0.003476485,-1.0135525,0.8300875,-0.2745501,0.15429904,-0.4601836,0.28373766
23512000,-0.64580256,0.003736167,-1.0239165,0.8270208,-0.27576643,0.1569942,-0.4640499,0.28489855
23536000,-0.6506682,0.004033597,-1.0342796,0.82395715,-0.2768848,0.1596823,-0.46790066,0.28610182
23560000,-0.6553779,0.00436119,-1.0445379,0.82092,-0.2779185,0.16234604,-0.47169414,0.28732675
23584000,-0.6600981,0.004705015,-1.0548835,0.8178406,-0.27892393,0.16504474,-0.47549805,0.28852192
23608000,-0.66461897,0.005121773,-1.0650939,0.81480587,-0.27982002,0.16771999,-0.47923082,0.28968158
23632000,-0.669022,0.005562963,-1.0753205,0.8117653,-0.28063962,0.17039126,-0.4829548,0.29089534
23656000,-0.66656005,0.006033855,-1.0754111,0.8121271,-0.27951828,0.17000027,-0.48313448,0.29217905
23680000,-0.67071193,0.00651791,-1.0855956,0.8091167,-0.28021088,0.17262815,-0.48683825,0.29346475
23704000,-0.6746855,0.007062903,-1.0956557,0.8061473,-0.28080693,0.17522974,-0.49047777,0.2946434
23728000,-0.67858815,0.007630923,-1.1056744,0.8031813,-0.28135243,0.17782658,-0.49408337,0.29589522
23752000,-0.682373,0.008206066,-1.1157187,0.8002076,-0.28182676,0.18040934,-0.49768853,0.29710567
23776000,-0.6860184,0.008794067,-1.1256764,0.79725826,-0.28223053,0.18295829,-0.50124997,0.29834443
23800000,-0.6895876,0.009414154,-1.1356626,0.79429746,-0.282574,0.18551227,-0.5048056,0.29964232
23824000,-0.68688977,0.010044994,-1.1358392,0.7946892,-0.28132576,0.18510613,-0.5050352,0.30100995
23848000,-0.69028795,0.010678511,-1.1457862,0.7917468,-0.2815852,0.18761773,-0.5085729,0.3023757
23872000,-0.6935207,0.011328561,-1.1556098,0.7888435,-0.28176814,0.19008234,-0.512056,0.3037847
23896000,-0.69666386,0.012069429,-1.1654818,0.78593194,-0.28186962,0.19257176,-0.51553524,0.30499628
23920000,-0.6996351,0.012804134,-1.1752386,0.78305745,-0.2818984,0.19500266,-0.5189685,0.30620685
23944000,-0.70249885,0.013549094,-1.1849341,0.780199,-0.2818711,0.19740492,-0.5223692,0.3075
23968000,-0.6995661,0.014295845,-1.1852196,0.78060627,-0.28050202,0.19696923,-0.522662,0.30884624
23992000,-0.7023373,0.015039871,-1.1948869,0.7777526,-0.28042725,0.1993403,-0.5260465,0.31026596
24016000,-0.70500904,0.015951354,-1.204565,0.7749103,-0.28025132,0.20175427,-0.5294038,0.31118807
24040000,-0.70754796,0.016845426,-1.2141396,0.7720974,-0.28002226,0.20411387,-0.53271997,0.3121395
24064000,-0.70992106,0.017738722,-1.2236578,0.7693079,-0.27971897,0.20642255,-0.53601515,0.31324577
24088000,-0.71221095,0.01862186,-1.2331867,0.76651174,-0.27936956,0.20870754,-0.5393085,0.31330222
24112000,-0.7088845,0.0195395,-1.2333746,0.7670134,-0.2778247,0.20818649,-0.5395946,0.31304836
24136000,-0.71100026,0.020445978,-1.2427933,0.76425874,-0.27740112,0.21041164,-0.54284805,0.31285343
24160000,-0.7130586,0.021341415,-1.2522374,0.76149005,-0.27694103,0.21262047,-0.54610354,0.3127238
24184000,-0.7149875,0.022226455,-1.2615975,0.7587471,-0.27642894,0.214778,-0.549327,0.31264532
24208000,-0.7168795,0.023145238,-1.2709361,0.75600475,-0.27588147,0.2169344,-0.55252665,0.31250086
24232000,-0.71857715,0.024047576,-1.2802563,0.75327885,-0.2752532,0.21902719,-0.555728,0.31246543
24256000,-0.7148007,0.024929352,-1.2803838,0.7538499,-0.27356824,0.218325,-0.556062,0.3124816
24280000,-0.7162773,0.025804386,-1.2895837,0.7511707,-0.27286786,0.22032042,-0.5592358,0.31258106
24304000,-0.7176864,0.026727907,-1.2988012,0.7484871,-0.2721138,0.22231507,-0.56240296,0.31257707
24328000,-0.7189664,0.027634073,-1.3079224,0.7458332,-0.27131474,0.2242511,-0.56553745,0.31264114
24352000,-0.7201074,0.028526252,-1.3170061,0.7431941,-0.2704602,0.22613437,-0.56866246,0.31276906
24376000,-0.71585095,0.029403849,-1.3170857,0.74383473,-0.2686157,0.22525798,-0.56904685,0.3129592
24400000,-0.7169007,0.030272862,-1.326213,0.7411786,-0.26772165,0.22710115,-0.5721927,0.31319708
24424000,-0.71783936,0.031127037,-1.3352313,0.7385537,-0.26679218,0.22888868,-0.57530016,0.3134818
24448000,-0.7186501,0.031966563,-1.3442216,0.7359395,-0.26581246,0.23062618,-0.5784016,0.31381828
24472000,-0.71930945,0.032791,-1.3531706,0.73334265,-0.2647762,0.23230433,-0.5814953,0.31420362
24496000,-0.7146247,0.03373285,-1.3532927,0.73402274,-0.2627653,0.2312999,-0.58194965,0.31430143
24520000,-0.7150944,0.03465257,-1.3621953,0.73145914,-0.26163155,0.23293757,-0.5850269,0.31445462
24544000,-0.7154837,0.035554092,-1.3710867,0.72889453,-0.2604658,0.23453791,-0.5881006,0.31467393
24568000,-0.7157613,0.0364358,-1.3799449,0.72633916,-0.25926036,0.23608798,-0.5911666,0.3149364
24592000,-0.71063966,0.037297215,-1.3799843,0.7270787,-0.25713575,0.23488802,-0.5916633,0.31523004
24616000,-0.7108656,0.03816439,-1.3888882,0.7244991,-0.25590706,0.23640811,-0.5947468,0.31550494
24640000,-0.71092725,0.039009787,-1.3976972,0.72195345,-0.25462854,0.23785292,-0.5978073,0.31583357
24664000,-0.7108582,0.039838128,-1.406475,0.71941894,-0.25330412,0.23924167,-0.60086346,0.3162049
24688000,-0.70530045,0.04065084,-1.4064963,0.7201985,-0.25105268,0.23786268,-0.6014216,0.3165943
24712000,-0.70504355,0.04149808,-1.4152433,0.7176823,-0.24965718,0.2391808,-0.6044799,0.31689602
24736000,-0.704671,0.042326145,-1.4239658,0.7151726,-0.24822238,0.24044634,-0.6075355,0.3172369
24760000,-0.6987271,0.0431384,-1.423966,0.71599174,-0.24584429,0.23892663,-0.6081369,0.31762636
24784000,-0.6982614,0.04393698,-1.4327326,0.71345973,-0.24437998,0.24014056,-0.6112169,0.31806034
24808000,-0.69771725,0.044811893,-1.4414272,0.71095383,-0.24286658,0.24134013,-0.6142601,0.3182519
24832000,-0.69709516,0.04566678,-1.4501035,0.70844764,-0.24132821,0.24249788,-0.6172986,0.3184842
24856000,-0.6907941,0.04650528,-1.450105,0.7092913,-0.23883088,0.24084502,-0.6179479,0.31873322
24880000,-0.6900222,0.04732815,-1.4587536,0.7067901,-0.23725401,0.24192226,-0.6209927,0.31902528
24904000,-0.68917644,0.048041996,-1.4673866,0.7042775,-0.23568274,0.24292773,-0.6240456,0.31960294
24928000,-0.6824657,0.04874466,-1.4673634,0.7051444,-0.23309736,0.24107364,-0.62475634,0.32022542
24952000,-0.68137467,0.0494378,-1.4759676,0.7026485,-0.23145306,0.24197143,-0.62782514,0.3208864
24976000,-0.680256,0.050122466,-1.4845604,0.7001447,-0.2297996,0.24284655,-0.63088435,0.32153687
25000000,-0.6731841,0.050844505,-1.4845397,0.70103365,-0.22709249,0.2408609,-0.6316382,0.32205656
25024000,-0.6719484,0.051551793,-1.4931148,0.6985315,-0.22539735,0.24168317,-0.63469607,0.32261276
25048000,-0.66460425,0.05224954,-1.4930873,0.69943416,-0.22260803,0.23958781,-0.6354803,0.3231613
25072000,-0.66319525,0.05293693,-1.5016432,0.6969351,-0.22086637,0.24032356,-0.6385483,0.32373333
25096000,-0.66164875,0.053667754,-1.5101827,0.6944468,-0.21906228,0.24101771,-0.64161193,0.32416427
25120000,-0.65388674,0.054387342,-1.5101458,0.6953761,-0.21613422,0.23876773,-0.6424392,0.3245886
25144000,-0.65215695,0.055094957,-1.518668,0.6928894,-0.2142828,0.23936911,-0.645515,0.32499847
25168000,-0.6440729,0.055793602,-1.5186266,0.6938327,-0.21125504,0.2369917,-0.6463764,0.32541707
25192000,-0.6421542,0.05648064,-1.5271327,0.691347,-0.20935456,0.23749827,-0.6494648,0.3258388
25216000,-0.6403531,0.05713478,-1.535634,0.68883264,-0.20750533,0.23801963,-0.65253186,0.32633245
25240000,-0.63194525,0.05777979,-1.5355853,0.68977803,-0.20439856,0.23548782,-0.6534317,0.32681787
25264000,-0.62992996,0.058417987,-1.5440699,0.687267,-0.20249173,0.2359066,-0.6565129,0.32729834
25288000,-0.6212469,0.059048396,-1.5440161,0.68821824,-0.19930102,0.23326172,-0.65743726,0.32776195
25312000,-0.61912006,0.05970041,-1.5524838,0.68570197,-0.19736308,0.2336205,-0.6605165,0.3281259
25336000,-0.61006624,0.060343035,-1.5523614,0.6866899,-0.1940544,0.23083268,-0.66144997,0.32848144
25360000,-0.6077955,0.0609794,-1.5608135,0.6841676,-0.19208498,0.2311099,-0.6645345,0.32881567
25384000,-0.5984211,0.06160849,-1.56075,0.6851403,-0.18866992,0.2281981,-0.66551644,0.32913664
25408000,-0.5960715,0.062354323,-1.5691867,0.6826164,-0.18664977,0.22845629,-0.6685839,0.32906273
25432000,-0.58647186,0.06308517,-1.5691178,0.68359435,-0.1831296,0.22548339,-0.6695668,0.32898152
25456000,-0.5839436,0.063804306,-1.5775391,0.68106437,-0.18107128,0.22564244,-0.672644,0.32892856
25480000,-0.5739995,0.06451324,-1.5774647,0.68204474,-0.17744774,0.22252586,-0.67365384,0.32886833
25504000,-0.5713569,0.0651677,-1.5858719,0.67949814,-0.1753875,0.2225938,-0.6767374,0.32893685
25528000,-0.56109077,0.06581288,-1.5857297,0.6804941,-0.1716901,0.21932027,-0.67775285,0.32899696
25552000,-0.5583879,0.06644904,-1.5941235,0.67792946,-0.16963157,0.21933037,-0.6808311,0.32904845
25576000,-0.5479541,0.06707754,-1.594041,0.678887,-0.16588321,0.215978,-0.6818714,0.32910562
25600000,-0.53725564,0.06773011,-1.5939578,0.6798476,-0.1620313,0.21253835,-0.6829207,0.3290548
25624000,-0.53452486,0.06837003,-1.6023254,0.6772571,-0.15999265,0.21249044,-0.68598324,0.3289802
25648000,-0.523603,0.06900079,-1.6021686,0.678226,-0.15608762,0.20893879,-0.6870159,0.32888842
25672000,-0.52084064,0.06962,-1.6105263,0.67561305,-0.15406272,0.2088414,-0.6900702,0.32879707
25696000,-0.5098387,0.07023848,-1.610429,0.67653286,-0.15013635,0.20524019,-0.6911141,0.32866174
25720000,-0.49860096,0.07084552,-1.6103327,0.67744595,-0.14612858,0.20154841,-0.6921645,0.32852966
25744000,-0.49564087,0.07144235,-1.6186754,0.6748129,-0.144077,0.20132498,-0.6952248,0.328383
