timestamp,control[0],control[1],control[2],control[3],control[4],output[2],output[3],output[4],output[5],output[6],output[7],indicated_airspeed_m_s,equivalent_airspeed_m_s,true_airspeed_m_s,equivalent_ground_minus_wind_m_s,true_ground_minus_wind_m_s,indicated_airspeed_m_s.1,true_airspeed_m_s.1,differential_pressure_raw_pa,differential_pressure_filtered_pa,temperature,gyro_bias[0],gyro_bias[1],gyro_bias[2],accel_bias[0],accel_bias[1],accel_bias[2],nav_roll,nav_pitch,nav_bearing,target_bearing,xtrack_error,wp_dist,acceptance_radius,rollspeed_integ,pitchspeed_integ,yawspeed_integ,additional_integ1,x,y,z,temperature.1,pressure,temperature.2,gyro_rad[0],gyro_rad[1],gyro_rad[2],accelerometer_m_s2[0],accelerometer_m_s2[1],accelerometer_m_s2[2],timestamp_sample,x.1,y.1,z.1,temperature.3,altitude_sp,altitude_filtered,height_rate_setpoint,height_rate,airspeed_sp,airspeed_filtered,airspeed_derivative_sp,airspeed_derivative,throttle_integ,pitch_integ,timestamp_sample.1,baro_alt_meter,baro_temp_celcius,baro_pressure_pa,rho,roll_body,pitch_body,yaw_body,q_d[0],q_d[1],q_d[2],q_d[3],thrust_body[0],xyz[0],xyz[1],xyz[2],xyz[0].1,xyz[1].1,xyz[2].1,lat,lon,alt,vel_m_s,vel_n_m_s,vel_e_m_s,vel_d_m_s,cog_rad,ref_lat,ref_lon,x.2,y.2,z.2,vx,vy,vz,ax,ay,az,dist_bottom,roll,pitch,yaw,thrust_body[0].1,isTakeoff,isClimbing,isDescending,isCruise,isLand
77007412.0,0.042274783,0.101686731,-0.17273237100000002,0.0,0.0,1416.0,1500.0,1000.0,1478.090018,1520.909982,1552.0,15.07634026,14.98343902,15.34765177,14.21379529,14.55929923,15.02674927,15.39396281,140.2445112,140.2445112,11.76397253,-0.001062654,-0.005964866,0.000600901,-0.20587092,0.129609387,-0.014269978,-0.202918598,-0.149354178,-1.818390379,-1.613632434,10.39053529,251.2383026,42.64811946,-0.01802125,0.044938912,-0.058927234,0.0,-1.86827456,0.147248466,-9.199938694,6.87e+18,954.8172747,11.76422106,0.151707543,0.082589595,-0.399973314,-1.928104596,0.27853025600000003,-9.308571322,77259612.72,0.159783887,0.099926237,-0.397144133,6.87e+18,90.85350727,92.75524922,-2.272202853,-4.0991130810000005,15.36219448,15.91943343,-0.011144781,0.523604972,-0.1,63.05335582,53725602.72,487.1710522,11.83582088,95608.66215,1.135989133,-0.154472584,-0.15435905,-1.824846978,0.60348524,-0.107873727,0.013817335,-0.789920411,0.0,-0.429138789,0.069566701,-0.445000159,0.013472847,0.009475943,0.000204009,398713897.1,327407246.6,481285.1804,19.27929586,0.146901373,19.27309831,-4.759295766,1.563050473,39.87141370000001,32.7364371,-2.491603998,393.680884,-88.11013793,0.090494168,19.06783479,-4.720458911000001,-0.058243843,-0.15005389,-0.056377962,88.3514403,0.309553982,0.171335305,-0.080931114,0.0,0.0,0.0,1.0,0.0,0.0
77036009.0,0.0418051207254509,0.10671062939679359,-0.16674219746292585,0.0,0.0,1418.6753507014027,1500.0,1000.0,1478.901524993988,1520.098475006012,1553.7835671342684,15.071286424428857,14.9781466947495,15.34215315737475,14.208330984288578,14.553628280200401,15.061307488436874,15.429219491162325,140.26406712184368,140.26406712184368,11.76460436757515,-0.0010614964649298597,-0.005964313094188377,0.0005991878837675351,-0.20590015534068135,0.12960927195991984,-0.014262210565130261,-0.19107460106613228,-0.14940698050501003,-1.8177244761843687,-1.61361031152505,10.364549207334669,250.7618626811623,42.65440185228457,-0.01797081518036072,0.04514086530661323,-0.058083355262525053,0.0,-1.8722699331963928,0.1133122558997996,-9.245991447927857,6.87e+18,954.826890713026,11.764753909599198,0.1550174984809619,0.08354840502004007,-0.4093701970761523,-1.917750537543086,0.357978841991984,-9.18523827445491,77291348.72881764,0.16127884711022045,0.10434787293186373,-0.3950409024789579,6.87e+18,90.75549811569138,92.63378721018037,-2.367326574693387,-4.073236158885772,15.36208343511022,15.93380666246493,-0.011434466190380762,0.5195262330921844,-0.1,63.027513483927855,53762945.24725451,487.2302149945892,11.834659866973949,95608.02473877756,1.1359814913066133,-0.13380579679559118,-0.1470364011022044,-1.8155935650641284,0.6085633071142285,-0.09879199577755511,0.007445407645290581,-0.787278553014028,0.0,-0.23692898122444891,0.06874665339478958,-0.7549064365350702,0.01658534197995992,0.007789780034068135,-0.006086975619238477,398713897.63507015,327407330.16012025,481459.49296412827,19.27376212893788,0.1487459488316633,19.27125391430862,-4.753762089336673,1.5629860782004008,39.87141370000001,32.7364371,-2.487926098861723,394.4201270961924,-88.29537207829658,0.08896703768937876,19.062772116853708,-4.721596327432866,-0.055302933420841686,-0.13600934042084167,-0.047214849284569135,88.53667591082164,0.31858084177955914,0.15417422422845692,-0.07932751146492986,0.0,0.0,0.0,1.0,0.0,0.0
77064606.0,0.03778996604609218,0.10578792946292585,-0.1670331552745491,0.0,0.0,1422.1342685370741,1500.0,1000.0,1476.6492985971945,1522.3507014028055,1554.7835671342684,15.07182877048096,14.978548497014028,15.34248150256513,14.208603197074147,14.553827987755511,15.038157515390782,15.405368428076153,140.28362304368736,140.28362304368736,11.7652362051503,-0.0010604407935871744,-0.005963931789579159,0.0005974606633266533,-0.20593733526853708,0.1296122277194389,-0.014256219476953907,-0.17923060491583165,-0.14945978301002005,-1.8170585733687377,-1.6135881898336673,10.338563124669339,250.28542268396794,42.66068424456914,-0.017917884699398798,0.045346435559118235,-0.05726192415631263,0.0,-1.8701499919539077,0.07141019966533066,-9.285129958448897,6.87e+18,954.8357516024048,11.76544457745491,0.15590700176352706,0.08560340352104208,-0.4016612360400802,-1.8929089856713426,0.2575009415290581,-9.1521148686994,77323084.73763527,0.1643654177755511,0.10620175152905811,-0.39339086681563123,6.87e+18,90.65236379763527,92.51270226853707,-2.4843744421182365,-4.044680978448898,15.361971637995993,15.947453434168336,-0.011709638150300601,0.5138190630260521,-0.1,63.00307933553106,53800287.76667335,487.5973520342685,11.833493933146293,95603.81780314629,1.1359314656833668,-0.12262558871543086,-0.14324385691783564,-1.8143645542344689,0.609775587004008,-0.09391312825651302,0.004150193470941884,-0.7869729889819639,0.0,0.1268448275390782,0.36282108753707415,-0.19493096874549098,0.015609103729458918,0.008432616795591182,-0.0034757239539078156,398713898.17014027,327407415.28737473,481637.38494128257,19.26904189727455,0.1473365043446894,19.268595933026052,-4.749855398933868,1.563049461260521,39.87141370000001,32.7364371,-2.4847026106773544,395.11039372044087,-88.46889956122244,0.08779710507615231,19.05867642823647,-4.721675509809619,-0.07392639550701402,-0.13953292624248498,-0.011324964478957915,88.71020390032064,0.31949492953507014,0.1433647300280561,-0.07919430008216433,0.0,0.0,0.0,1.0,0.0,0.0
77095643.0,0.040668710460921846,0.10443796249498997,-0.16691680003206413,0.0,0.0,1424.5836089238478,1500.0,1000.0,1478.7014028056112,1520.2985971943888,1557.2589596252506,15.083842970821642,14.99062295537074,15.354754753547095,14.220634935531063,14.566062224488977,15.071176493126252,15.439209201342686,140.30317896553103,140.30317896553103,11.765868042725451,-0.001059593016032064,-0.005963904430861724,0.0005957051563126253,-0.20599080036472947,0.12962147705210422,-0.014253868028056112,-0.1673866081983968,-0.14951258551503008,-1.8163926705531062,-1.6135660675751504,10.312577048757515,249.8089826759519,42.6669666301002,-0.017867694551102205,0.04555549714228457,-0.056413588078156315,0.0,-1.8670642448496995,0.028250078340681363,-9.323176486092184,6.87e+18,954.8444933458918,11.766160174809619,0.16031527128657314,0.08827995065330661,-0.40327338468737484,-1.9591651388937876,0.2618155551242485,-9.12505857193988,77354820.7396994,0.1677033560741483,0.10765009788376753,-0.39181240558917835,6.87e+18,90.5485216564529,92.3916694028056,-2.604450196677355,-4.015755910673347,15.361859736993988,15.960999876252504,-0.0119828050501002,0.5078869952144289,-0.1,62.9788396750501,53837630.28501002,487.78365832605203,11.832317547394789,95601.66918232465,1.1359059489418837,-0.11286153576152305,-0.13998105444488979,-1.814223255022044,0.6104265571442886,-0.08965932442885773,0.0013077503707414834,-0.7869733648156312,0.0,0.2065955803246493,0.1169063216132265,0.0789669572745491,0.015796408266533068,0.00926484163527054,0.0008272194729458909,398713898.7052104,327407501.9142285,481818.8325591182,19.265129775711422,0.14269465548897795,19.265129775711422,-4.747564887829659,1.563239773264529,39.87141370000001,32.7364371,-2.481541880016032,395.79389626312627,-88.64081027358718,0.08667650411422846,19.05471428735471,-4.721608542889779,-0.09552805726052103,-0.14548280186372747,0.02825608510621242,88.88211498048096,0.3256102454148297,0.16252482041282565,-0.06122916191783567,0.0,0.0,0.0,1.0,0.0,0.0
77125633.0,0.041435530200400805,0.1063946859498998,-0.16350046141282565,0.0,0.0,1426.2835505090181,1500.0,1000.0,1478.7314074128258,1520.2685925871742,1557.4478236533066,15.099285924428857,15.006186183827655,15.37059814472946,14.23618140737475,14.581893383647294,15.023676823426854,15.390539178056112,140.32273488737474,140.32273488737474,11.766499885971944,-0.0010588073547094187,-0.005963982340681363,0.0005939412084168337,-0.20604913281963927,0.1296326074028056,-0.014252604370741483,-0.15554261183166332,-0.1495653880200401,-1.8157267677374749,-1.6135439451002005,10.286590969338677,249.3325427246493,42.673249019138275,-0.017819518446893785,0.045767103230460925,-0.05552662548496994,0.0,-1.8642039146232465,-0.007079729895791585,-9.358948468581161,6.87e+18,954.8539568268537,11.76686646024048,0.16477034744488978,0.09524230935671342,-0.4016279557855712,-1.9223419724428856,0.2521548325531062,-9.149723709082163,77386556.74527054,0.1706922593486974,0.10894884058116233,-0.3902145161262525,6.87e+18,90.44467951527054,92.27063653707415,-2.7245259506693387,-3.9868308428977954,15.361747841663327,15.974546318336673,-0.012255972300601202,0.5019549270521042,-0.1,62.954600016733465,53874972.80901804,487.77340602545087,11.831150512484971,95601.79571583167,1.1359074698256513,-0.10322060058717435,-0.13951421701202404,-1.8140683286152304,0.6109328064809619,-0.08653296599398798,-0.002348602,-0.7869281340360721,0.0,0.09020424563326654,0.3060172645651303,0.20693282915430863,0.015024002056112228,0.009765207611222446,0.0002579345130260522,398713899.296994,327407589.00901806,482001.2613022044,19.261440621943887,0.13716092531863727,19.261440621943887,-4.745720310539078,1.5634651067855712,39.87141370000001,32.7364371,-2.478297857180361,396.5001363312625,-88.81866014861724,0.08593148952304609,19.049994233907814,-4.72241245849499,-0.09714852499799599,-0.157003686745491,0.039971152122244495,89.0599649319038,0.32691887185971946,0.171046926254509,-0.050918938507014025,0.0,0.0,0.0,1.0,0.0,0.0
77158068.0,0.04312858605811623,0.10963250225651303,-0.15712328592985972,0.0,0.0,1427.4589178356714,1500.0,1000.0,1477.8718463126254,1521.1281536873746,1555.4950928056112,15.114728878036072,15.02174940769539,15.386441540501002,14.251727883807614,14.597724539559117,14.994046674108217,15.360108399238477,140.34229080921844,140.34229080921844,11.767131727875752,-0.001058022152304609,-0.005964060384769539,0.0005921772605210421,-0.20610746481563127,0.12964373775350702,-0.01425134025450902,-0.1436986153306613,-0.1496181905250501,-1.8150608649218436,-1.6135218226252503,10.260604886673347,248.85610275991985,42.67953141142284,-0.017776116016032063,0.045961662795591184,-0.054690461498998,0.0,-1.8625576244529058,-0.006205078274549112,-9.384473145691382,6.87e+18,954.8667579298598,11.767525377074149,0.16475925369138275,0.09857840563126252,-0.3985330518256513,-1.8699610316793587,0.23709790237875752,-9.191592205304609,77418292.75408818,0.17203126396993987,0.10963526168737475,-0.3885141439779559,6.87e+18,90.34083737408818,92.14960367134269,-2.844601704795591,-3.9579057751222444,15.361635944989981,15.988092760420843,-0.012529139416833668,0.4960228585651303,-0.1,62.93036035382765,53912315.33168337,487.84886085731466,11.829989939318638,95600.94351138276,1.1358973614769539,-0.09364740588777555,-0.14233339098797596,-1.813890891781563,0.6112971055390781,-0.08471052006012024,-0.006991736857715429,-0.7868154834368737,0.0,0.16438754270541073,0.4379149715671343,0.24127988425250504,0.013979343252505012,0.010210591661322644,-0.0021171128236472945,398713899.8753507,327407676.0903807,482183.6900318637,19.25775146492986,0.1316271951482966,19.25775146492986,-4.743875732923848,1.5636904404408818,39.87141370000001,32.7364371,-2.474967291727455,397.2300010885771,-89.00268093228458,0.08557671635070141,19.04448668947896,-4.724121236775551,-0.07800816106212426,-0.17431295432064128,0.022732944587174363,89.2439854749499,0.3274716669899799,0.17044412718637272,-0.045012888172344695,0.0,0.0,0.0,1.0,0.0,0.0
77190994.0,0.04383968444488978,0.11354534456112224,-0.15098825864529059,0.0,0.0,1429.6830721442886,1500.0,1000.0,1477.2286533066133,1521.7713466933867,1555.332370741483,15.130171831643286,15.037312630741482,15.402284937094189,14.267274361062125,14.613555698977956,15.034850379318637,15.401865232805612,140.36184673106214,140.36184673106214,11.767763565450903,-0.0010572370320641282,-0.005964138861723447,0.0005904133126252505,-0.20616579672945892,0.12965486810420843,-0.014250076056112225,-0.13216084700400801,-0.14937051241883767,-1.8139485613046091,-1.6134271761523045,10.217985822044088,248.38695786713427,42.69578259278558,-0.017734909462925854,0.046140584949899796,-0.05389187785170341,0.0,-1.8619137643927854,0.024563519270541075,-9.401536644478957,6.87e+18,954.8823149158317,11.768145180981964,0.1639128867975952,0.09994692337675351,-0.3985939626072144,-1.8773723341643285,0.24131958584569138,-9.217369191957914,77450028.76290582,0.17200795061322646,0.1098160904248497,-0.3867291521242485,6.87e+18,90.2362708556513,92.0280457249499,-2.9569502301963926,-3.9303302722765534,15.361525537975952,16.001491413426855,-0.012799320579158318,0.49012327344488976,-0.1,62.906263965651306,53950642.5388978,488.1123652100201,11.828818961162325,95597.92219024047,1.1358614819078157,-0.08119078569739478,-0.14086380658917835,-1.8112264411603207,0.6128910112004008,-0.0803034695490982,-0.011534137148296592,-0.7859612165631262,0.0,0.13540115406813638,0.2035348577695391,0.17076590114629261,0.013126411829659318,0.012093263645290581,-0.002865270859719439,398713900.41042084,327407763.1284569,482366.11871823645,19.254062311422846,0.1260934649779559,19.254062311422846,-4.742031155659319,1.5639157741783567,39.87141370000001,32.7364371,-2.4716029406653304,397.96983534208414,-89.1892840387976,0.08527294037875752,19.038690175551103,-4.726133637937876,-0.05274988047094189,-0.19020066193587176,-0.003447529611222441,89.4305882751503,0.3324409916092184,0.1706771655531062,-0.03659078833266533,0.0,0.0,0.0,1.0,0.0,0.0
77220561.0,0.04052950451903808,0.11689209585971944,-0.1472175484789579,0.0,0.0,1433.0903456513026,1500.0,1000.0,1475.8489212024047,1523.1510787975953,1557.6053757114228,15.145614785250501,15.052875859198398,15.418128328276554,14.282820832905811,14.629386861382766,15.039132886773547,15.40620679228457,140.38140265290582,140.38140265290582,11.768395403026053,-0.001056451613226453,-0.005964217096192385,0.0005886493647294589,-0.20622412918436872,0.1296659984549098,-0.014248812398797595,-0.12115170446292585,-0.14860413070340683,-1.8120656599138276,-1.6132073354529057,10.146654122104207,247.93040610881764,42.729242365791585,-0.017687767655310622,0.04633210909619239,-0.053020409346693394,0.0,-1.8570896571402806,0.05157587623046092,-9.422012520709417,6.87e+18,954.8975273064128,11.768767821402806,0.16656560777354712,0.10557661208016032,-0.39878445461923845,-1.8894328636232465,0.22127282718036073,-9.242704392112223,77481764.7692986,0.17274354507815634,0.10991285059318637,-0.3850388543446894,6.87e+18,90.12701520184369,91.90308876332665,-3.0192778951222445,-3.911490941008016,15.361424800240481,16.013933386513028,-0.013050174004008016,0.48443396368937874,-0.1,62.883095058356716,53989127.298757516,488.41991603446894,11.827640131342685,95594.38898639278,1.1358194927134269,-0.06545028801603206,-0.13330705107815632,-1.8057036447855712,0.6159394265611222,-0.07247613399398797,-0.01559037249498998,-0.7842742305971944,0.0,-0.15776243850100205,0.014241248689378774,-0.0036595001122244064,0.012183157480961923,0.013793494607214431,-0.002238886216432866,398713900.9212425,327407849.7785571,482548.04536372743,19.249703769018037,0.12156382311823646,19.250038463747494,-4.740855971062125,1.5640943839158317,39.87141370000001,32.7364371,-2.468249262218437,398.7095316016032,-89.37577016418838,0.08454429254909819,19.033059402725453,-4.727849968963928,-0.03743785396593186,-0.19169009920841687,-0.017281518252505013,89.61707436603206,0.3415920009258517,0.17163260312024048,-0.027285700703406815,0.0,0.0,0.0,1.0,0.0,0.0
77252188.0,0.043502438430861726,0.11352844273947896,-0.14409384241082163,0.0,0.0,1434.1342685370741,1500.0,1000.0,1476.4028056112224,1522.5971943887776,1557.5370741482966,15.161057738857716,15.068439086312626,15.433971720801603,14.298367306092183,14.64521801729459,14.958497634188376,15.323338867234469,140.4009585747495,140.4009585747495,11.769027240601202,-0.0010556667094188377,-0.005964294815631263,0.0005868854168336673,-0.20628246150501,0.12967712880561122,-0.014247548741482966,-0.11029293766332665,-0.14769019536673347,-1.8099635494729458,-1.6129518813747497,10.067154624016032,247.4774365957916,42.767597413847696,-0.017633843432865733,0.04654511850100201,-0.05209040895190381,0.0,-1.836912284957916,0.06479226383567135,-9.455021423246492,6.87e+18,954.9114740569138,11.769400893927855,0.16840761283567135,0.10716616567935873,-0.39707749908416834,-1.9027945982104209,0.1662714705490982,-9.276863900651303,77513500.77054109,0.1762664675711423,0.10970084270340681,-0.38369634831863725,6.87e+18,90.00819612773547,91.77119956388778,-2.9795888051482966,-3.910468893723447,15.361343781703408,16.024424228957916,-0.013261607995991983,0.4791735073507014,-0.1,62.86181772669339,54024445.71416834,488.6665184388778,11.826480543627254,95591.55417783567,1.135785756987976,-0.053425998062124246,-0.1336977993186373,-1.8031462218797596,0.6173684667895791,-0.06890491638877756,-0.020523903915831664,-0.7833777173527054,0.0,0.1967109469038076,-0.07200820222645289,-0.25461460176152306,0.012023040607214427,0.01089258707214429,-0.0004965853086172345,398713901.35370743,327407935.2689379,482728.4891094188,19.24336800777555,0.12,19.245026001503007,-4.741657998921844,1.5641349845310621,39.87141370000001,32.7364371,-2.4649123000981965,399.44901164468934,-89.56207306915832,0.08315016105611223,19.027688227314627,-4.729102559244489,-0.03770479854108217,-0.1706273046753507,-0.011777016288577153,89.8033776455511,0.3545308884789579,0.1803846463206413,-0.013465409462925852,0.0,0.0,0.0,1.0,0.0,0.0
77280785.0,0.04311941311022044,0.10870768146693387,-0.14312678211623248,0.0,0.0,1435.0521042084167,1500.0,1000.0,1478.9180549559119,1520.0819450440881,1560.9478957915833,15.17650069246493,15.084002306112223,15.449815120641283,14.313913786593186,14.661049173466935,14.930201474288577,15.294220623647295,140.42051449919836,140.42051449919836,11.769659078176353,-0.0010548810741482966,-0.005964373292585171,0.0005851214689378758,-0.20634079309418837,0.12968825915631263,-0.014246285084168336,-0.09943417159519038,-0.14677626076152306,-1.8078614390060121,-1.6126964272965931,9.987655134887776,247.02446708537076,42.80595245458918,-0.01759042417234469,0.04671957686172345,-0.051323146731462925,0.0,-1.7932657548276554,0.056919993539078166,-9.507188436152305,6.87e+18,954.9234861140282,11.77004988967936,0.17603898685571143,0.10758533134068136,-0.39988612556513026,-1.9127940556432868,0.14916672339478962,-9.292125209843686,77545236.77935871,0.18405012579358718,0.10901684916633267,-0.38288548073346695,6.87e+18,89.88937706094188,91.63931035713426,-2.9398997144168337,-3.9094468464128256,15.361262763426854,16.034915063827658,-0.01347304274549098,0.47391305174348697,-0.1,62.84054039476954,54062437.87543087,488.8304064372745,11.825320590360722,95589.68806158318,1.1357636024268536,-0.04440880454108217,-0.1336648152725451,-1.8029382359098196,0.617758144490982,-0.06610555118637274,-0.02405221084368737,-0.7832111403687375,0.0,0.3607635920420844,0.263388503961924,0.03596356450701413,0.009334892635270537,0.015677740729458923,0.001041554198396797,398713901.71042085,327408020.0801603,482908.1509480962,19.235989694008016,0.12,19.23949227044088,-4.743502576511022,1.564102815222445,39.87141370000001,32.7364371,-2.4615799579038073,400.18707471643285,-89.74803345146293,0.08177830619639279,19.022335972004008,-4.730351341150301,-0.03843958276352704,-0.15009419469739477,-0.005908223114228472,89.98933839302605,0.35895586175150296,0.19112780081763528,-0.00127055575350702,0.0,0.0,0.0,1.0,0.0,0.0
77309382.0,0.04454348534468938,0.11237655129659317,-0.13802054801803607,0.0,0.0,1436.8356713426854,1500.0,1000.0,1476.1130130621243,1522.8869869378757,1559.1643286573146,15.191943646072144,15.099565534569138,15.465658511823646,14.329460258436873,14.676880338296593,14.998150040320642,15.363929998496994,140.44007051022047,140.44007051022047,11.770290915751502,-0.0010540963046092185,-0.005964451769539078,0.0005833575210420842,-0.2063991255490982,0.12969938950701404,-0.014245021426853709,-0.08857540466132266,-0.14586232529058119,-1.8057593276733466,-1.6124409732184368,9.908155641430861,246.57149766152304,42.84430750398798,-0.017545964302605212,0.04690623251302605,-0.050484962923847694,0.0,-1.749619224697395,0.04904772237675351,-9.559355449058115,6.87e+18,954.9354981711423,11.770698894088175,0.16557983883967936,0.11112771415631263,-0.39851486029458916,-1.8094937630480963,0.10696372421643291,-9.348132459492986,77576972.78817636,0.19183378488176353,0.10833285562925851,-0.3820746131482966,6.87e+18,89.77055798549098,91.50742115903807,-2.900210623685371,-3.908424798236473,15.361181753807614,16.045405898697396,-0.01368447749498998,0.4686525952705411,-0.1,62.819263054188376,54099325.13825651,489.01337117474947,11.824158810400801,95587.58497731463,1.1357386628076154,-0.03557238960120241,-0.1325235365250501,-1.8027093658997997,0.61816454898998,-0.0629263748737475,-0.027165870492985973,-0.7830517402985973,0.0,0.0790768477134271,0.06344675073547107,-0.08431755621442878,0.0160526001503006,0.0145710506993988,-0.003155644779559115,398713902.06713426,327408104.97795594,483087.81278677355,19.228611388897797,0.12,19.233958539378758,-4.745347153234469,1.5640706459138276,39.87141370000001,32.7364371,-2.4584011142264526,400.87805074048094,-89.9226117938477,0.08114672099599199,19.017612194448898,-4.731473567833667,-0.05472106351503005,-0.14716293510821646,0.012066247206412816,90.16391678891785,0.3540543151683367,0.20316726957515027,0.005795299607214424,0.0,0.0,0.0,1.0,0.0,0.0
77341218.0,0.046845992833667326,0.11477233616432865,-0.13168911226853708,0.0,0.0,1437.0,1500.0,1000.0,1475.3836025350704,1523.6163974649296,1556.571142284569,15.207386599679358,15.115128763026052,15.481501903006011,14.345006730280561,14.69271149503006,14.973489184388777,15.338536089338676,140.45962644028057,140.45962644028057,11.770922753326653,-0.0010533107254509018,-0.005964529436873747,0.000581594382765531,-0.20645745800400803,0.12971051985771542,-0.01424375776953908,-0.07771663853707417,-0.14494838981963928,-1.8036572171503007,-1.6121855183306613,9.828656147973948,246.11852815671344,42.88266255338677,-0.017504227182364728,0.04708539999599198,-0.04966390742084168,0.0,-1.7606366262224449,0.016719244016032087,-9.598296301058117,5.785110220440882e+18,954.9483541753507,11.771362253046092,0.1707477330521042,0.11338812562925853,-0.39466444457114225,-1.9184713008897796,0.1162718034509018,-9.434862493927856,77608708.79699399,0.1985303706472946,0.104776132248497,-0.3792371649779559,5.785110220440882e+18,89.65173891004008,91.37553195284569,-2.860521533763527,-3.9074027508697395,15.361100736092183,16.055896733567135,-0.013895912244488978,0.46339213879759517,-0.1,62.797985721703405,54136419.06448898,489.1183192212425,11.822975526953908,95586.3946091984,1.135724495981964,-0.021033372168336683,-0.13568035953306615,-1.7976422631362727,0.6204953455531061,-0.05956869775951904,-0.03397666772945892,-0.7811796684529059,0.0,0.09907847730861721,-0.5946639021783563,0.09277232629458905,0.009488162398797599,0.009389742969939885,0.001138880010020037,398713902.4238477,327408189.79478955,483267.4746254509,19.221233075691384,0.12,19.228424808316632,-4.747191730767535,1.5640384766052104,39.87141370000001,32.7364371,-2.4552479516713426,401.56114908837674,-90.09528591987976,0.08063898244088177,19.01299356214429,-4.7325746213547095,-0.07360348897995991,-0.14717644609218436,0.03206598410020039,90.33659091987977,0.35661448342284574,0.20103732081763528,0.01077030033066132,0.0,0.0,0.0,1.0,0.0,0.0
77370576.0,0.04307327661122244,0.12102154937074147,-0.12976451740881764,0.0,0.0,1440.9917801603206,1500.0,1000.0,1473.6786681262527,1525.3213318737473,1560.2084168336673,15.222829553286573,15.130691984468939,15.497345301202404,14.36055320212425,14.708542650941883,15.001717110040081,15.36739770547094,140.47918236212425,140.47918236212425,11.771554590901804,-0.001052525765531062,-0.005964607723446894,0.0005798306252505009,-0.20651579045891783,0.12972165020841683,-0.01424249411222445,-0.06685787179358718,-0.1440344550501002,-1.8015551067094189,-1.6119300640621241,9.749156655218437,245.66555864368738,42.921017602785575,-0.017456024496993988,0.04726210172945892,-0.04884170321242484,0.0,-1.8163419338276552,-0.03560224850901801,-9.626424731629259,3.818577154308618e+18,954.9619001563126,11.772037344328657,0.1769846558977956,0.10919651510821644,-0.3936691728777555,-1.8669018510100202,0.10139173441282566,-9.522695606783566,77640444.7987976,0.20433827249098196,0.09887094400200401,-0.37474298264328665,3.818577154308618e+18,89.53291983458918,91.24364275284569,-2.820832443222445,-3.9063807028837676,15.361019724569138,16.0663875754509,-0.014107346993987975,0.4581316830260521,-0.1,62.77670839004008,54173712.99004008,489.39111938156316,11.821810451002005,95583.26844637275,1.1356874064028055,-0.007622101827655317,-0.12777287753907818,-1.7933932378757516,0.6227085715951904,-0.052247911677354715,-0.036871568521042085,-0.7798161476813628,0.0,-0.09678435516633253,-0.12934175524448932,0.5817472539398795,0.007065055805611223,0.007477331677354711,0.0007704779258517044,398713902.7805611,327408274.6735471,483447.13646412827,19.213854768677354,0.12,19.22289107725451,-4.749036308382766,1.5640063065951906,39.87141370000001,32.7364371,-2.4520931518817637,402.24338919158316,-90.26779949563127,0.08021469204008017,19.008243356032064,-4.733160300563126,-0.06911866990180361,-0.15055717899799598,0.047862665993987974,90.50910382228456,0.35457511002605213,0.19030606497595193,0.010058791923847697,0.0,0.0,0.0,1.0,0.0,0.0
77401545.0,0.04483849371342685,0.12108819494388777,-0.1271014903707415,0.0,0.0,1442.874350729459,1500.0,1000.0,1473.5931863727455,1525.4068136272545,1560.8136272545091,15.23827251282565,15.14625520993988,15.513188695370742,14.3760996798998,14.724373812785572,15.051067715771543,15.417914320601202,140.49873828396792,140.49873828396792,11.772186428476953,-0.0010517404028056111,-0.005964686200400802,0.0005780666773547093,-0.2065741223206413,0.12973278055911824,-0.014241230454909817,-0.05599910545290582,-0.1431205198777555,-1.799452996268537,-1.6116746099839678,9.66965716206012,245.21258918997995,42.959372646252504,-0.017409967406813626,0.04746082637274549,-0.04802262805410821,0.0,-1.8826710443867736,-0.09267674638476951,-9.65198268951503,1.6378797595190387e+18,954.97561011002,11.772715224689378,0.1772424894468938,0.11105199476152304,-0.390028782248497,-1.876116096064128,0.06788087985571144,-9.490592487128255,77672180.80462925,0.20993490461523046,0.09240744741883768,-0.36985493944689385,1.6378797595190387e+18,89.41912621629258,91.11511000492986,-2.7916211616773547,-3.906889752967936,15.360931525531061,16.075144452424848,-0.014284247026052105,0.45350595169338676,-0.1,62.75753982406814,54211055.51430862,489.5360850831663,11.820635658597194,95581.61534348698,1.1356677095290582,0.0022092770100200373,-0.12544882151903808,-1.791934549482966,0.6235864193527054,-0.04825481496192385,-0.04002274714028056,-0.7792309688316633,0.0,0.013847723925851596,-0.2230750411122243,0.5039218365611224,0.005162140833667336,0.007006117547094189,-0.0014940537555110213,398713903.2559118,327408358.6222445,483624.3462482966,19.20851969995992,0.12102167098997996,19.216335671643286,-4.750880865236473,1.5639741269038077,39.87141370000001,32.7364371,-2.4489329062124248,402.9255539629259,-90.44035502300602,0.07988137321843687,19.003310598096192,-4.733087286450902,-0.03430462093587176,-0.15787598184168336,0.05800118799398797,90.68165782917836,0.3511036101422846,0.1921284088977956,0.013027595416833666,0.0,0.0,0.0,1.0,0.0,0.0
77431770.0,0.04809029494789579,0.11662549128857716,-0.1254364046432866,0.0,0.0,1444.198988272545,1500.0,1000.0,1473.4881573907815,1525.5118426092185,1560.202175723447,15.253715470501001,15.161818433547094,15.529032086553105,14.391646155811623,14.74020497276553,15.081064239639279,15.448522589759518,140.51829420581163,140.51829420581163,11.772818266052104,-0.0010509552264529058,-0.0059647641923847704,0.0005763027294589179,-0.20663245436873748,0.12974391090981965,-0.01423996679759519,-0.0451403389258517,-0.14220658440681364,-1.7973508853426854,-1.6114191559058115,9.590157668603206,244.75961971763527,42.997727691583165,-0.017368473611222447,0.047669207947895795,-0.04723276950901804,0.0,-1.9227725530400803,-0.13292095707014026,-9.677993006507013,1.2035951903807613e+18,954.987729041483,11.773404812224449,0.1819257719238477,0.1054008666252505,-0.3886442221843687,-1.8654845466372745,0.05124789023046092,-9.486589884587174,77703916.8134469,0.2143162753006012,0.09227676105611222,-0.3634710030761523,1.2035951903807613e+18,89.31465159749499,90.9928013243487,-2.7818394989138278,-3.9102380084148294,15.360830012945891,16.08068594254509,-0.0143971079498998,0.45005722690781563,-0.1,62.74228167256513,54248398.03671343,489.66271454649296,11.819463102044088,95580.15497462926,1.1356503201262524,0.01041951696793587,-0.1290586917995992,-1.7916065881162324,0.6238432991062125,-0.04709369981763527,-0.04435344763527054,-0.77886064203006,0.0,-0.19694439335671327,0.010215558060120089,0.2583825120981964,0.0044457036833667335,0.006823926320641283,-0.0032837533286573144,398713903.79098195,327408441.9476954,483799.9189537074,19.204548799959923,0.12272546261322645,19.209098148456913,-4.752725408244489,1.56394194049499,39.87141370000001,32.7364371,-2.4457561671663326,403.60958595010027,-90.61341520116233,0.07959694842084168,18.998283093346693,-4.732768610250501,0.010652503705410812,-0.16664617367935872,0.06546088807214429,90.85471628821644,0.360209100737475,0.19976675717034068,0.023576677593186372,0.0,0.0,0.0,1.0,0.0,0.0
77462007.0,0.05017305912224449,0.11767794156312625,-0.12118361893987976,0.0,0.0,1446.0478625931862,1500.0,1000.0,1472.9451164549098,1526.0548835450902,1560.6365743747497,15.269158424108216,15.177381656853706,15.544875481503006,14.407192627655311,14.756036128677353,15.083473777074149,15.450865263927856,140.53785012765533,140.53785012765533,11.773450103627255,-0.0010501700801603207,-0.005964842154308618,0.0005745387815631263,-0.2066907868236473,0.12975504126052104,-0.014238703140280562,-0.034281571991983964,-0.14129264931262522,-1.7952487743867733,-1.6111637014509017,9.510658175146292,244.3066502046092,43.03608274098197,-0.01732911092785571,0.04787460924048097,-0.04648942671743487,0.0,-1.9336207828737475,-0.15439330026452905,-9.704507867312625,2.7230460921843686e+18,954.9980734074148,11.774107464088177,0.18703971035470943,0.09961577696192385,-0.3863182439679359,-1.8653426991543087,0.06801409923847695,-9.557801387406812,77735652.82226454,0.21734218905811623,0.09920945233266533,-0.3554186038977956,2.7230460921843686e+18,89.21587212945892,90.87429637589179,-2.7839319240701403,-3.9153213971783565,15.360720364388778,16.084262401102205,-0.014470832589178357,0.44732781004408817,-0.1,62.729413307034065,54285740.55881763,489.81340529158314,11.818300469498999,95578.41063533066,1.1356296316392784,0.022910750394789577,-0.1315654552004008,-1.787545490254509,0.6256551528396793,-0.044062255348697385,-0.050078792116232465,-0.7772182386472946,0.0,-0.3745901191182365,0.2220610420901804,0.11730374065130263,0.004879827356713427,0.006609773384769539,-0.003724052112224449,398713904.36372745,327408525.11342686,483975.1538004008,19.20085945943888,0.12457004022845691,19.201719839579155,-4.754569948781564,1.5639097524589178,39.87141370000001,32.7364371,-2.442399625947896,404.3174174983968,-90.79259758082164,0.07947292922845692,18.99297601224449,-4.732647994617234,0.031832844468937874,-0.17401484122444888,0.06748865574348697,91.03389868270541,0.371570421993988,0.20143024024849698,0.03350744786372745,0.0,0.0,0.0,1.0,0.0,0.0
77495371.0,0.051836490298597195,0.12352534800601203,-0.11379138911222444,0.0,0.0,1447.1956416112225,1500.0,1000.0,1472.6670305390783,1526.3329694609217,1560.2922095831664,15.28460137771543,15.19294488531062,15.560718878917836,14.422739102184368,14.771867284589177,15.062909336112225,15.429746629699398,140.55740604949904,140.55740604949904,11.774081941202406,-0.0010493844188376753,-0.005964920631262524,0.0005727748336673347,-0.20674911901002005,0.12976617161122245,-0.014237439482965932,-0.023422805326653307,-0.14037871446492986,-1.7931466639458917,-1.6109082467494988,9.431158681689379,243.8536807184369,43.07443779038076,-0.017288582777555107,0.04808510913827655,-0.0457793849018036,0.0,-1.9345547733967936,-0.16950366381362725,-9.731193722733467,4.905230460921844e+18,955.0078163480962,11.77481454767535,0.1873425028677355,0.10454160763326653,-0.3797073111222445,-1.8889526573266533,0.07453820700400801,-9.618424837438877,77767388.8283968,0.21990872432865732,0.10853599535671343,-0.346800745490982,4.905230460921844e+18,89.11709265873748,90.75579142496993,-2.786024349472946,-3.9204047861883766,15.360610713366734,16.087838857194388,-0.014544557228456914,0.44459839344889784,-0.1,62.716544941503,54323083.08338677,489.9700210557113,11.81713535016032,95576.61685246493,1.135608330789579,0.038026474955911826,-0.13083601053106214,-1.7811458542044087,0.6284729665370741,-0.03887994822044088,-0.055857582238476956,-0.7748430428096192,0.0,0.1375030876993988,-0.20859459568737476,0.05547026891382766,0.004823484422845692,0.008743832346693386,-0.0027231480120240483,398713904.9611223,327408608.25450903,484150.3886470942,19.197170124068137,0.12641461784368738,19.19434152823647,-4.75641448956513,1.5638775646913827,39.87141370000001,32.7364371,-2.4388137258777554,405.05560813847694,-90.97958953885771,0.07955352684368738,18.987312301042085,-4.73278002852505,0.0226831201002004,-0.17959570010420842,0.06258735912825651,91.22089287288577,0.37020250469138277,0.20035767671142285,0.037083093515030065,0.0,0.0,0.0,1.0,0.0,0.0
77529561.0,0.05142729900601203,0.1207005272745491,-0.11216721474348697,0.0,0.0,1448.2530276032064,1500.0,1000.0,1471.9220618016031,1527.0779381983969,1558.626513801603,15.300044331322646,15.208508112164328,15.576562270100201,14.438285581342685,14.787698442104208,15.031601341422846,15.397597299238477,140.5769619713427,140.5769619713427,11.774713778777555,-0.0010485989178356714,-0.005964998947895791,0.0005710108857715432,-0.20680745073346693,0.12977730196192386,-0.014236175825651303,-0.012564039124248494,-0.13946477899398796,-1.7910445533446893,-1.6106527926713425,9.351659188392786,243.4007112785571,43.112792838176354,-0.017247776454909818,0.04830565082164329,-0.04510618698597194,0.0,-1.9320347304308618,-0.17753226978557113,-9.775134979677356,6.718857715430862e+18,955.019459038477,11.775526439458918,0.1939013700721443,0.1027357018517034,-0.37631049280561124,-1.779669518498998,0.017032004378757508,-9.643699094492986,77799124.8298998,0.22310482496993989,0.11555629691983968,-0.33846259674348694,6.718857715430862e+18,89.01831318338677,90.63728648028055,-2.788116774252505,-3.9254881745751504,15.360501066973947,16.091415319519037,-0.014618281867735472,0.44186897731663327,-0.1,62.70367657597194,54360425.603326656,490.24118266192386,11.81596030266533,95573.51201669338,1.1355714084549098,0.04547114146893788,-0.12998398856713428,-1.780908106228457,0.6287142111763526,-0.036202665304609215,-0.058479178511022044,-0.7745861719278556,0.0,0.5846848523086171,-0.09712851323246498,0.14692860079759512,0.00497583666733467,0.014296420042084167,-0.001015265166332665,398713905.49619234,327408691.45791584,484325.6234937876,19.193480787094188,0.1282591952985972,19.186963221523044,-4.758259029725451,1.5638453773867735,39.87141370000001,32.7364371,-2.4352186033627254,405.786934648497,-91.16486262252505,0.07964167748496993,18.981585234509016,-4.7330901903687375,0.012949130400801602,-0.18483107331062124,0.054959888707414827,91.4061676562525,0.36556788761723447,0.20388642802404808,0.03989440805410822,0.0,0.0,0.0,1.0,0.0,0.0
77558366.0,0.05473829050501003,0.11836544607014027,-0.10845407126252506,0.0,0.0,1451.2398107134268,1500.0,1000.9627448296593,1471.979070781563,1527.020929218437,1560.2502753226454,15.315487284929858,15.22407133222445,15.592405661803609,14.453832053186373,14.803529606412825,15.05462405272545,15.42107472212425,140.5965178931864,140.5965178931864,11.775345616352705,-0.0010478140961923848,-0.00596507658517034,0.0005692469378757516,-0.20686578318837673,0.12978843231262524,-0.014234912168336677,-0.0017052722424849885,-0.13855084352304609,-1.788942442064128,-1.6103973385931865,9.272159695775551,242.94774176553108,43.15114787917836,-0.01721777234669339,0.04849768113026052,-0.044589530891783566,0.0,-1.913667898707415,-0.1530704186573147,-9.898242450322645,6.87e+18,955.0398173218437,11.77626042004008,0.19696274364929858,0.09360397736472947,-0.3708282460501002,-1.8711809511863728,-0.009919439789579133,-9.638794358581162,77830860.83871743,0.22918931433667336,0.11199576950701404,-0.331407730486974,6.87e+18,88.91953371535071,90.51878153559117,-2.790209199032064,-3.930571562961924,15.360391413787575,16.094991781843685,-0.014692006507014028,0.43913956050501,-0.1,62.690808209919844,54397768.13006012,490.4671392194389,11.814790061122244,95570.90476747495,1.135540515254509,0.05328443205410819,-0.12732623955711428,-1.7801865795631262,0.6291477881803608,-0.03269155941282567,-0.06068137168336673,-0.7742120475250501,0.0013235972144288195,0.10092805555911893,-0.3386721292204407,-0.26701657447895766,0.007271675060120246,0.00996845859519037,6.06949899797899e-07,398713906.02084166,327408774.8541082,484501.42843346694,19.18957633527054,0.1296735136012024,19.17936976817635,-4.760533832631263,1.563831961507014,39.87141370000001,32.7364371,-2.4315799219118235,406.4858406202405,-91.34201725032064,0.07976550210621243,18.9755589602004,-4.734241675456913,0.0004555735691383003,-0.1884346720741483,0.034456314344689425,91.58332143953908,0.3623184362024048,0.1911106948917835,0.03833453965931861,0.0,0.0,0.0,1.0,0.0,0.0
77590531.0,0.052130359533066134,0.12240325746292585,-0.10405578133266534,0.0,0.0,1455.3442633086172,1500.0,1017.4404928757515,1471.6208591583163,1527.3791408416837,1564.5338337294588,15.330930238537075,15.239634560681363,15.608249061903807,14.469378525030061,14.81936076232465,15.055559283987975,15.42201987002004,140.61607381503006,140.61607381503006,11.775977453927855,-0.0010470284348697394,-0.005965155062124248,0.0005674829899799599,-0.20692411564328658,0.12979956266332665,-0.014233648511022044,0.009153493799599182,-0.1376369080521042,-1.7868403316232466,-1.6101418845150302,9.192660202318637,242.49477225250502,43.189502928577156,-0.017187638088176353,0.04873197585971944,-0.04405001788577154,0.0,-1.893886719468938,-0.1257087491382766,-10.028415618729458,6.87e+18,955.0609534841681,11.77699638226453,0.20333039668537073,0.08680794360721444,-0.36885859133066135,-1.8365505580300603,-0.02420385061122242,-9.653033820835672,77862596.84753507,0.2355315970220441,0.1074908891462926,-0.32446739901402805,6.87e+18,88.82075424731462,90.4002765909018,-2.7923016238116234,-3.935654951348697,15.360281768997995,16.098568244168337,-0.014765731146292585,0.43641014453306615,-0.1,62.677939835470944,54435110.64839679,490.6440116482966,11.813627603406815,95568.90119733466,1.1355166778797594,0.07003698855711421,-0.11336813947695393,-1.7718108163166333,0.6327097081903807,-0.02173638532464932,-0.06288216511022043,-0.7715124126653307,0.023977472615230425,-0.32115770390981896,-0.42586105145490966,-0.39763163056112205,0.004366613396793591,0.016280845128256505,0.001013956669338676,398713906.3775551,327408861.35711426,484686.4206408818,19.182205342785572,0.12415405196793589,19.16830926196393,-4.769742485166333,1.5641210661462925,39.87141370000001,32.7364371,-2.427917365018036,407.1669767935872,-91.51472209811624,0.079908879501002,18.969368671322645,-4.735854294815631,-0.013550517843687349,-0.19114388468937873,0.006895279474949945,91.75602404895791,0.38209620793587173,0.2141797668857715,0.05673675575150298,0.0,0.0,0.0,1.0,0.0,0.0
77623214.0,0.05721611198797594,0.11989824275350702,-0.100951358,0.0,0.0,1460.9487108657315,1500.0,1033.1205174148297,1471.0983211222444,1527.9016788777556,1570.817385975952,15.34637319214429,15.255197789138277,15.624092453647295,14.484924996873747,14.835191918236474,15.036841263466933,15.402747771543087,140.63562973687374,140.63562973687374,11.776609291503005,-0.0010462436092184369,-0.005965233539078157,0.0005657190420841683,-0.20698244726252504,0.12981069301402806,-0.014232384853707414,0.020012260677354697,-0.13672297341683368,-1.7847382211823648,-1.6098864296012023,9.113160708861724,242.04180282304614,43.22785797797595,-0.017153127418837677,0.04901795519038076,-0.0435396455751503,0.0,-1.8780919148236472,-0.10879121983567137,-10.135452939378757,6.87e+18,955.0815795527054,11.77775368753507,0.2063758366272545,0.08734080685771545,-0.3648430435230461,-1.874690082769539,-0.05884517522845686,-9.63504662557916,77894332.8563527,0.24143930136072145,0.10139078155310623,-0.31759570540681364,6.87e+18,88.72372675589179,90.28209800094189,-2.78225613543487,-3.9319326777575148,15.36019827236473,16.101775582104207,-0.014831548663326654,0.4320636259599198,-0.1,62.668044980220444,54472453.17509019,490.759296686974,11.812444721883768,95567.57502238477,1.1355008303587173,0.07805711129058115,-0.09943328610220444,-1.7703636693547096,0.6333738400460922,-0.013762726973947906,-0.06160390330260521,-0.771254619496994,0.11218304354509002,0.06661295864128192,0.461317471819638,-0.5705700615310619,0.0002807038356713483,0.011010861949899808,-0.00147741649098196,398713906.73426855,327408947.86012024,484871.4305645291,19.174827673286575,0.11862121708617235,19.15724206202405,-4.778964510114228,1.5644107549198396,39.87141370000001,32.7364371,-2.4242243863446893,407.86266910821644,-91.69123598603207,0.07996942180961923,18.96335403220441,-4.7377657435611225,-0.022139624657314616,-0.19132353602805613,-0.018651107222444854,91.93253666787575,0.374356145490982,0.2061268578236473,0.05323219690581163,0.0,0.0,0.0,1.0,0.0,0.0
77657938.0,0.054919537947895794,0.12051333264529059,-0.0977720110240481,0.0,0.0,1464.1823647294589,1500.0,1009.811623246493,1471.0,1528.0,1575.6372745490983,15.361816145751503,15.270761010320642,15.63993584482966,14.500471475991985,14.851023081422845,15.083818390480962,15.45075347266533,140.65518565871744,140.65518565871744,11.777241129078156,-0.001045458112224449,-0.005965311288577154,0.0005639550941883767,-0.2070407795531062,0.12982182336472944,-0.014231121196392785,0.030871026883767524,-0.13580903811022046,-1.782636110741483,-1.6096309753587175,9.03366121540481,241.5888333264529,43.266213027374754,-0.01712069584769539,0.04931463294188377,-0.04309581558316634,0.0,-1.8886324469378757,-0.1608711931683366,-10.089647161503006,6.87e+18,955.0988357713427,11.778652017234469,0.2083293039759519,0.09330252374148296,-0.35557752775551105,-1.8010426801302606,-0.04666316153507016,-9.63228106587976,77926068.85789579,0.24447604023246491,0.0847520628436874,-0.3111774595290581,6.87e+18,88.62770864651303,90.16410742426854,-2.765217639737475,-3.923137204793587,15.360129843907817,16.104770262204408,-0.014892810965931863,0.4267854490100201,-0.1,62.65986325567134,54509795.69507014,490.84521706112224,11.811279899298597,95566.58583046093,1.1354891566012024,0.08465306282364729,-0.08551588636472947,-1.7699330585631263,0.6335575908036073,-0.006276906358717444,-0.05976277595390782,-0.771345623757515,0.042484549452905945,-0.044796203328657,0.49421020340480987,-0.06358942361723541,0.0030532087394789524,0.008199670787575154,-0.0005192337474949924,398713907.09098196,327409034.3631263,485056.4416777555,19.167449548176354,0.11308748424048097,19.14617441262525,-4.788187433697395,1.5647004829158317,39.87141370000001,32.7364371,-2.4204599686733466,408.59254298376754,-91.87669448194389,0.0798354427274549,18.95775185492986,-4.740378920667335,-0.018008256306613235,-0.1855631236472946,-0.039466576677354676,92.1179961567936,0.3709872140220441,0.2014343897995992,0.044074372505010034,0.0,0.0,0.0,1.0,0.0,0.0
77691023.0,0.05655411115430862,0.13084707003807614,-0.08777788416633268,0.057416311743486874,0.0,1464.3807615230462,1500.0,1000.0,1469.7615230460922,1529.2384769539078,1572.6653306613227,15.377259099358717,15.286324236052105,15.655779242204408,14.516017950561123,14.86685424006012,15.114923843266533,15.482479457915831,140.67474158056115,140.67474158056115,11.777872966653307,-0.0010446730701402806,-0.005965389492985972,0.0005621911462925852,-0.20709911200801603,0.12983295371543085,-0.014229857539078156,0.04104104121442885,-0.13563800737474951,-1.7799998928717433,-1.6092719022484971,8.930858788517035,241.126334352505,43.312243178537074,-0.017090055513026052,0.04962740577755511,-0.04269728507615231,0.0,-1.9050615428396793,-0.22837896217635262,-10.009665760048096,6.87e+18,955.1153384937876,11.77958187995992,0.2091086332044088,0.10465546752104207,-0.3512393058877755,-1.8158845932725451,-0.08208891928056106,-9.624750418803607,77957804.86398797,0.24687083314829658,0.06575691831262527,-0.3048606042685371,6.87e+18,88.53189197158316,90.04615437494991,-2.746783564677355,-3.913329284402806,15.360064428857715,16.10772250278557,-0.01495316420240481,0.42132134243887776,-0.1,62.6520234107014,54547138.219599195,491.0579087218437,11.81010335953908,95564.14743304609,1.1354601886653306,0.09820187159118235,-0.0780764639258517,-1.7635025388076153,0.6360137935230461,0.0011009532805611134,-0.06262858028456914,-0.7691077641362726,0.003799327955911834,-0.2078395289378756,0.20298225623647337,-0.20980907189178297,-8.942185971943118e-05,0.011176736364729453,-0.0013421221002003984,398713907.50961924,327409120.86613226,485241.452790982,19.160071421422845,0.10755375077555111,19.135106763226453,-4.79741035744489,1.5649902109118237,39.87141370000001,32.7364371,-2.4166798747054106,409.3299175258517,-92.06411574108216,0.07965877861923847,18.95224019278557,-4.74314608288978,-0.011085557178356721,-0.17849924653507013,-0.05924391232865728,92.30541891140281,0.37508268781763526,0.2074795531002004,0.034365452386773555,0.0,0.0,0.0,1.0,0.0,0.0
77721143.0,0.057908502557114244,0.14147580148096192,-0.07891450825450902,0.06381466242484976,0.0,1463.4889779559119,1500.0,1000.0,1469.446620490982,1529.553379509018,1567.9559118236473,15.392702052965932,15.301887464509019,15.671622637194389,14.53156442240481,14.882685395971944,15.102540888456915,15.469724651202403,140.69429750240485,140.69429750240485,11.778504804228458,-0.0010438877895791582,-0.00596546796993988,0.0005604271983967936,-0.2071574439519038,0.12984408406613226,-0.014228593370741482,0.050572515513026044,-0.1361557207715431,-1.7768685057474949,-1.6088167645230462,8.806452282494991,240.65500069318637,43.365388901482966,-0.017058293519038075,0.04992184876352705,-0.042356069064128254,0.0,-1.9146491721983967,-0.2831039337895791,-9.924064363785572,6.87e+18,955.1302230138276,11.780484403006012,0.21406734617034068,0.11708901279158315,-0.34370615140881766,-1.8797581643446895,-0.09513376957114231,-9.747244922531063,77989540.87280561,0.24916527308817635,0.04953748993587176,-0.2993081536673347,6.87e+18,88.43607529392786,89.92820132835672,-2.7283494896172344,-3.903521364012024,15.359999011422845,16.110674743366733,-0.015013517438877756,0.4158572355951904,-0.1,62.64418356811623,54584480.74174348,491.33486325791586,11.80893150482966,95560.96605829659,1.1354224256993988,0.10862984114028056,-0.08406970939679358,-1.7594749792384767,0.6376081958577154,0.0022370632805611256,-0.06853846873146292,-0.7672870851282565,0.0,-0.04747793457915872,-0.13291196734068103,0.12101453736673251,0.00018530651703406236,0.010450417216432872,0.00023476265931863301,398713907.9044088,327409207.06252503,485425.65194128256,19.15286602012024,0.10271105783967936,19.125248467935872,-4.80525119243487,1.565237727975952,39.87141370000001,32.7364371,-2.4130990226112226,410.038793850501,-92.24416783476954,0.08000417003206413,18.946863570941883,-4.74461826544489,-0.004311207238476961,-0.1685014980781563,-0.05110400639679362,92.4854709855511,0.3743392273767535,0.20887545893186374,0.02431210364929861,0.0,0.0,0.0,1.0,0.0,0.0
77751351.0,0.0593169063727455,0.1477401851803607,-0.07303895756913828,0.021591812753507043,0.0,1462.5971943887776,1500.0,1000.0,1469.236850517034,1529.763149482966,1561.9719438877755,15.408145006573147,15.317450688937877,15.687466028376754,14.547110898276554,14.898516555911824,15.103400351082165,15.470538461663326,140.71385342424853,140.71385342424853,11.779136641803607,-0.0010431025310621244,-0.005965546044088176,0.000558663250501002,-0.2072157759178357,0.12985521441683368,-0.014227329224448897,0.05985408383967935,-0.1369429885991984,-1.7735433239539078,-1.608324030024048,8.67359057350501,240.1802093743487,43.42131945328657,-0.017026857509018035,0.05016445979158317,-0.04207296161523046,0.0,-1.9069933721783567,-0.30561077621242483,-9.824298176496994,6.87e+18,955.1410288839679,11.781318009178358,0.2214078200280561,0.12360984358316633,-0.33469180916032065,-1.8886214413006013,-0.07919700414428858,-9.953886481655312,78021276.88162325,0.2512067817174349,0.04031405670741483,-0.29568232930661326,6.87e+18,88.34025861627255,89.81024827773547,-2.7099154145571145,-3.893713444024048,15.359933594208417,16.113626983947896,-0.015073870675350702,0.410393128751503,-0.1,62.63634372933868,54621823.26410822,491.5079056955912,11.807770022004009,95558.97286981964,1.1353987407895791,0.11569650494989979,-0.09794154776352704,-1.758107098991984,0.6382285060841684,-0.0007931743146292565,-0.07564386081162323,-0.766098785472946,0.0,0.34261100767935837,-0.1028489372685375,0.5965930643166334,0.002958555334669339,0.006206005561122248,0.0016771479539078175,398713908.2611223,327409291.7012024,485605.9702024048,19.146486173947896,0.10117123116833668,19.121170351743487,-4.806486256132264,1.5652834976152306,39.87141370000001,32.7364371,-2.4096873951122246,410.7234654775551,-92.4179609851503,0.08079296463927856,18.94160163935872,-4.744990567533066,0.0023371434989979895,-0.15601189103006013,-0.01925282570140284,92.65926283649299,0.36744994306212425,0.2037824214028056,0.015795095721442894,0.0,0.0,0.0,1.0,0.0,0.0
77783516.0,0.06134525744088176,0.14794544024448897,-0.06950716023446893,0.0,0.0,1461.7054108216432,1500.0,1000.0,1468.5007511342685,1530.4992488657315,1555.11623246493,15.42358796018036,15.333013911422844,15.70330942250501,14.562657376092185,14.914347717795591,15.128722803486975,15.496329883867736,140.74634478637276,140.74634478637276,11.77978338264529,-0.0010423174669338677,-0.005965623923847696,0.0005568993026052104,-0.20727410837274549,0.12986634476753506,-0.014226065567134268,0.06913565216633266,-0.1377302566212425,-1.7702181421603207,-1.6078312952304608,8.540728864026052,239.70541800661323,43.47725000509018,-0.01699653311022044,0.05034652545891783,-0.04184073465931864,0.0,-1.884593337022044,-0.3005690575991984,-9.71242018488978,6.87e+18,955.1483471871744,11.782092683727456,0.2256122708757515,0.11900446506012025,-0.3285664009679359,-1.848838168192385,-0.09544047589979955,-10.118548413286574,78053012.887495,0.2530320180360721,0.037072647278557115,-0.29370389348897796,6.87e+18,88.24444193861723,89.69229522517034,-2.691481339496994,-3.883905524230461,15.359868178937877,16.116579224529058,-0.015134223911823647,0.40492902190781566,-0.1,62.62850388761523,54659165.78841683,491.598917493988,11.806604556232465,95557.93095943888,1.1353863018917836,0.12576801106813626,-0.11179914846292584,-1.7541239531482966,0.6398497888436874,-0.0027372140160320637,-0.08389238041282565,-0.7638713694488978,0.0,0.351589346585171,0.19768484587775556,0.22831697327655381,0.001186163076152308,0.003878571426853708,0.0004606244348697393,398713908.61783564,327409374.7262525,485782.3117819639,19.140952261583166,0.10301580967535069,19.12301511306613,-4.800952468887776,1.5651225398937876,39.87141370000001,32.7364371,-2.4062737899078157,411.41347442344687,-92.59313012236473,0.08160004653507014,18.936289331743488,-4.745132353240481,0.008099293837675348,-0.15086224440681362,0.00887906606012023,92.83443072901804,0.3652418701122245,0.21303592306613223,0.00928211405611223,0.008182325488977937,0.0,0.0,1.0,0.0,0.0
77815680.0,0.060432493903807616,0.13811253010821645,-0.07127078993787575,0.0,0.0,1461.1863727454909,1500.0,1000.0,1468.627254509018,1530.372745490982,1552.627254509018,15.439030913787574,15.348577138016031,15.719152820741483,14.578203847935871,14.930178873707415,15.121965198096193,15.489271529619238,140.8362453244489,140.8362453244489,11.780496266352705,-0.0010415319919839681,-0.0059657024008016035,0.0005551353547094189,-0.20733244064128256,0.12987747511823647,-0.014224801909819638,0.07841722049298597,-0.13851752423246494,-1.7668929603667334,-1.607338560026052,8.407867154547095,239.23062663887777,43.53318055689379,-0.016964419969939883,0.050482266569138276,-0.041659481537074154,0.0,-1.8648225608156312,-0.29518326716633264,-9.613261964456914,6.87e+18,955.1559452507014,11.782868381462926,0.22661137954108215,0.10387629337875753,-0.3216722037034068,-1.8382481496172345,-0.15005634638276552,-10.199753912705411,78084616.91126253,0.25535096261523044,0.034810774979959914,-0.2912553723426854,6.87e+18,88.1534193550501,89.57203326254509,-2.662084347651303,-3.8735336605991986,15.359801710280562,16.120507594228457,-0.015214120194388777,0.39962574635671344,-0.1,62.62242450755511,54697173.71709419,491.8002706366733,11.805428616593186,95555.63668126253,1.1353590931082165,0.13708633397194386,-0.12549432382364728,-1.7489509861543087,0.6419279740601203,-0.004152550913827653,-0.09256634822044088,-0.7611359691462926,0.0,-0.11339187544889831,0.15127207418236477,-0.4250161240641285,-0.002223959909819641,0.004562236128256509,0.0002564938617234482,398713908.97454906,327409457.7326653,485958.6534026052,19.135418343246492,0.10486038818236473,19.124859874388775,-4.795418681643287,1.5649615825831664,39.87141370000001,32.7364371,-2.4027871718396794,412.1274986118237,-92.77449808549099,0.08227884155911823,18.93079587448898,-4.745095187525051,0.011532232104208416,-0.16641874004609217,0.0175377633987976,93.01579808549099,0.3704096386653307,0.24682975165931864,0.003223739959919841,0.05334682156713419,0.0,0.0,1.0,0.0,0.0
77847531.0,0.06308015389779559,0.12207857034268538,-0.07422022173947895,0.0,0.0,1462.2344689378758,1500.0,1000.0,1467.1209163346693,1531.8790836653307,1551.312625250501,15.454473868176352,15.364140358336673,15.73499621270541,14.59375031977956,14.946010030400803,15.135355531723446,15.50301959773547,141.0441843793587,141.0441843793587,11.78134514543086,-0.001040747144288577,-0.005965780799599198,0.0005533714068136271,-0.20739077228256514,0.12988860546893788,-0.014223538252505009,0.08769878881963927,-0.13930479247094188,-1.7635677785731463,-1.6068458255270541,8.275005445146292,238.75583527114227,43.58911110791583,-0.01693178244488978,0.05059544716032064,-0.04151816044088177,0.0,-1.8561171911803607,-0.28834942531663327,-9.567635739096193,6.87e+18,955.1647209420842,11.783648385671343,0.23048379381763526,0.08430207187575152,-0.31687407078356716,-1.8171017943647294,-0.16682663209619236,-10.145294368657314,78115665.5033467,0.259747713250501,0.036671349224448896,-0.2868284637234469,6.87e+18,88.08080325352705,89.44290642961924,-2.590596246517034,-3.8609965888797597,15.359731220941885,16.128183722084167,-0.01536905011022044,0.39493996765731465,-0.1,62.62310428032064,54737142.10282565,492.03891061863726,11.804257028016032,95552.90502006012,1.1353265964328656,0.1428473118737475,-0.1382588647795591,-1.7481880547294588,0.6423070891803607,-0.007155816861723446,-0.09881221412224449,-0.7600102382164328,0.0,0.5476603071943892,0.0388197885791586,-0.13953541920040077,-0.0008918964008016003,0.009652279745490983,-0.0018243431362725427,398713909.3312625,327409540.6763527,486134.99496052106,19.12988442490982,0.10670496668937876,19.12670463571142,-4.7898848943987975,1.5648006245671342,39.87141370000001,32.7364371,-2.3992351634749496,412.8633059270541,-92.96149680751503,0.08283917170741482,18.925140514288575,-4.744907785218437,0.012952571240480961,-0.20062254111422842,0.008197068947895797,93.20279682002004,0.3627852473807615,0.2658568851222445,0.0013948625931863737,0.15208696993987983,0.0,0.0,1.0,0.0,0.0
77876128.0,0.06097461811623246,0.11406275502204409,-0.0755927471002004,0.0,0.0,1464.9098196392786,1500.0,1000.0,1468.500602717435,1530.499397282565,1554.879759519038,15.469916830701402,15.379703586793587,15.750839612805612,14.609296791623247,14.96184119523046,15.136606115490983,15.504205553947896,141.2521235156312,141.2521235156312,11.782194016372745,-0.0010399614829659318,-0.005965858384769538,0.0005516074589178357,-0.20744910473747494,0.12989973581963926,-0.01422227459519038,0.09698035714629258,-0.14009205989579157,-1.760242596779559,-1.6063530910280561,8.142143736559118,238.2810439034068,43.6450416508016,-0.01690039790581162,0.05070458809218437,-0.04137808175350701,0.0,-1.8590068178537074,-0.27999822803206414,-9.57810354365531,6.87e+18,955.1747304991984,11.784432905511023,0.24217142007014028,0.05976479327855713,-0.3143363017755511,-1.8746502368597193,-0.1813029966553106,-10.124901828977956,78146132.06717435,0.26632171251903813,0.04285167152905812,-0.28032848249098197,6.87e+18,88.01090520402806,89.31247053553106,-2.512892611647295,-3.848139784430862,15.359660145791583,16.136413279198397,-0.015535059188376754,0.39034537297795596,-0.1,62.62478216218437,54771300.67737475,492.27199840821646,11.803070224609218,95550.23673228457,1.1352948694488978,0.1549882112024048,-0.1472625016232465,-1.7417808047194387,0.6448251408537075,-0.006359778745490982,-0.10629570064529058,-0.7568604622244489,0.0,-0.08018599161322615,-0.4981879369919838,-0.14856172161523046,-0.00619569623046092,0.007849456328657314,-0.006191894178356712,398713909.68797594,327409623.7014028,486311.33659979963,19.124350506573148,0.10854954519639277,19.12854939703407,-4.784351107154309,1.5646396665511022,39.87141370000001,32.7364371,-2.3957073800480964,413.5940099280561,-93.14726248557115,0.08340488888176352,18.91954885296593,-4.744884191300602,0.015910215138276555,-0.22902791934068134,-0.0005046099799599166,93.38856264076152,0.3589232564689379,0.3011746766452906,-0.0006147734589178348,0.004959357715430934,0.0,0.0,1.0,0.0,0.0
