timestamp,control[0],control[1],control[2],control[3],control[4],output[2],output[3],output[4],output[5],output[6],output[7],indicated_airspeed_m_s,equivalent_airspeed_m_s,true_airspeed_m_s,equivalent_ground_minus_wind_m_s,true_ground_minus_wind_m_s,indicated_airspeed_m_s.1,true_airspeed_m_s.1,differential_pressure_raw_pa,differential_pressure_filtered_pa,temperature,gyro_bias[0],gyro_bias[1],gyro_bias[2],accel_bias[0],accel_bias[1],accel_bias[2],nav_roll,nav_pitch,nav_bearing,target_bearing,xtrack_error,wp_dist,acceptance_radius,rollspeed_integ,pitchspeed_integ,yawspeed_integ,additional_integ1,x,y,z,temperature.1,pressure,temperature.2,gyro_rad[0],gyro_rad[1],gyro_rad[2],accelerometer_m_s2[0],accelerometer_m_s2[1],accelerometer_m_s2[2],timestamp_sample,x.1,y.1,z.1,temperature.3,altitude_sp,altitude_filtered,height_rate_setpoint,height_rate,airspeed_sp,airspeed_filtered,airspeed_derivative_sp,airspeed_derivative,throttle_integ,pitch_integ,timestamp_sample.1,baro_alt_meter,baro_temp_celcius,baro_pressure_pa,rho,roll_body,pitch_body,yaw_body,q_d[0],q_d[1],q_d[2],q_d[3],thrust_body[0],xyz[0],xyz[1],xyz[2],xyz[0].1,xyz[1].1,xyz[2].1,lat,lon,alt,vel_m_s,vel_n_m_s,vel_e_m_s,vel_d_m_s,cog_rad,ref_lat,ref_lon,x.2,y.2,z.2,vx,vy,vz,ax,ay,az,dist_bottom,roll,pitch,yaw,thrust_body[0].1,isTakeoff,isClimbing,isDescending,isCruise,isLand
43800433.0,-0.035993076,-0.023901094,-0.004870024000000001,0.59860474,0.0,1497.0,1500.0,1597.841768,1518.0,1481.0,1484.683537,20.24411141,20.25271983,20.69368749,20.33780288,20.78062334,19.98197188,20.41259352,248.4901608,248.4901608,12.13880475,-0.001399882,-0.005791502,0.001314759,-0.158155593,0.004714245,-0.038303265,-0.052468366,0.220180809,1.507878219,1.558574704,3.571563563,331.2335016,58.11569239,-0.021228057,-0.023535536,-0.007041261,0.0,2.360614114,0.42889223,-9.507275579,1.27e+18,961.4382103,12.13866815,-0.002586226,-0.027252516,0.007457593,2.67620021,0.329250842,-9.536613295,43830483.7,-0.008171295,-0.014905343,0.015089769,6.87e+18,49.79536289999999,52.11059938,3.884202472,4.669265548,15.33144435,20.67102129,-0.106791534,-0.08486394,-0.116861968,-23.91409992,14489688.34,399.5276175,12.404602,96617.32248,1.147973665,-0.059835595,0.220889159,1.504434633,0.7231493529999999,-0.096984196,0.06013004,0.6811999959999999,0.5619126289999999,-0.5408965029999999,0.278132539,0.538469333,0.003770414,0.008363742,0.00033951699999999995,398714138.0,327364371.9,400121.5191,0.0,-0.00879776,0.012404481,0.004808962,2.290596444,39.87141370000001,32.7364371,0.015997424,0.008445494,-0.068304728,0.002232176,0.006368937,0.005317367,-0.036112613,0.06385339400000001,0.069516493,0.100092538,-0.066133376,0.006008693000000001,-0.00516906,0.56270224,0.0,1.0,0.0,0.0,0.0
43827537.0,-0.03662184428657315,-0.030446359781563126,-0.0050342657334669335,0.5980659198597195,0.0,1497.0,1500.0,1597.2091768176354,1516.4969939879759,1482.5030060120241,1484.1698568897796,20.247908228637275,20.256655819478958,20.697828391803604,20.341900036813627,20.78492937707415,19.998371238717436,20.429578081623248,248.44935163166332,248.44935163166332,12.137965268537075,-0.0013999586533066132,-0.005792113723446893,0.0013146485290581164,-0.15816651985370744,0.004736215941883767,-0.03821121640280561,-0.05231325577955911,0.22037841671543085,1.5082480674468937,1.5586230534488978,3.5498174663066133,330.691569861523,58.11090237747495,-0.02125041571743487,-0.02353952723246493,-0.007070504236472945,0.0,2.477667025072144,0.43233912178356715,-9.401299157907815,3.1036673346693386e+18,961.4246244032064,12.13786824268537,0.0022339030080160325,-0.0422786284749499,0.010750334983967937,2.6834968623046094,0.3439074554769539,-9.375630070300602,43857227.52014028,-0.0016035202004008016,-0.029012471757515028,0.015272868949899796,6.87e+18,49.92091795761523,52.228164134509015,3.884601990537074,4.669136967338678,15.331529585470943,20.66880634761523,-0.10674553074348697,-0.08704117196392785,-0.11740453438276553,-23.729815834328658,14521156.754328657,399.585493001002,12.404602,96616.65507018036,1.1479656915531062,-0.06030154114228458,0.22107217703607213,1.504414013260521,0.7231245383707414,-0.0972139342264529,0.06003892627254509,0.6812016508096191,0.5616859418757515,-0.08500411071543085,0.19399961916032066,-0.01836078799198393,-0.0011910584448897791,0.005871661839679359,-0.0005100315971943888,398714138.0,327364371.9751503,400121.62010200403,0.0,-0.009050315360721444,0.00994657468737475,0.0037987398056112225,2.5527945396913827,39.87141370000001,32.7364371,0.015757463078156314,0.00828451153507014,-0.06752259373146292,0.0023095101683366735,0.007169873122244489,0.0063425193046092185,-0.017790252779559118,0.06935842180561122,0.04925336273947896,0.10006237266933868,-0.06667644664128257,0.006154437238476954,-0.005257572775551102,0.5623268341883767,0.0,1.0,0.0,0.0,0.0
43854642.0,-0.035131832038076155,-0.03198128830861723,-0.005143299036072144,0.5975569682164329,0.0,1497.0,1500.0,1596.4969939879759,1516.0,1483.0,1484.0,20.25170505230461,20.260591808957916,20.701969293607213,20.345997193627255,20.789235409118238,20.04397989498998,20.47619932991984,248.40854251362725,248.40854251362725,12.137125792104209,-0.0014000353066132263,-0.005792725446893787,0.0013145375551102205,-0.15817744670741485,0.004758186883767535,-0.03811916780561122,-0.05215814606212424,0.22057602493386774,1.5086179158937876,1.5586714023947894,3.5280713696132264,330.14963812304615,58.1061123649499,-0.02127314313827655,-0.02354481772945892,-0.007099291749498998,0.0,2.5947199361442888,0.4357860130641283,-9.295322736815631,4.942364729458917e+18,961.4110385567134,12.13706833537074,0.009980197561122244,-0.048522339981963925,0.012278875430861723,2.644751577088176,0.37397287998196393,-9.225006574330662,43883971.34531062,0.004964255102204409,-0.04311960051503006,0.01545596940280561,6.87e+18,50.04647306553106,52.345786684408814,3.8849986193046093,4.668736050168337,15.331621586372746,20.666354906893787,-0.10669466341883768,-0.08920029872945892,-0.11794561890981964,-23.545271090941885,14552625.173687374,399.6105718058116,12.404602,96616.37920024048,1.1479623985771543,-0.05478719045891784,0.22125296273146292,1.50807045549499,0.7221309583066132,-0.0953971688517034,0.06181162486573147,0.6823463867815631,0.5614754958096192,-0.09337387094589178,-0.005157933382765517,-0.419357562002004,-0.0014598665791583168,0.00861633451503006,-0.001613393004008016,398714138.0,327364372.0,400121.23736312625,0.0,-0.008093402322645292,0.008093402322645292,0.007626391206412826,2.9225545496673346,39.87141370000001,32.7364371,0.015517502659318639,0.008123529573146292,-0.06674045946292584,0.0023868443366733467,0.007970808741482966,0.007367671106212425,0.0005321079438877756,0.07486344961122245,0.02899023247895792,0.10003220784168337,-0.06676641298797595,0.006189740973947895,-0.005412486368737475,0.5620845086773547,0.0,1.0,0.0,0.0,0.0
43880729.0,-0.033684121138276554,-0.031067538807615234,-0.005115935276553106,0.5969865888677355,0.0,1497.0,1500.0,1595.4909819639279,1516.5090180360721,1482.4909819639279,1484.254509018036,20.255501878456915,20.264527795891784,20.70611019286573,20.350094350440884,20.793541438677355,20.08106682581162,20.51412673825651,248.36773339498998,248.36773339498998,12.136286315611223,-0.0014001119599198397,-0.005793337170340682,0.0013144263326653307,-0.15818837381563125,0.004780157571142285,-0.03802711920841684,-0.05200303659318637,0.2207736334008016,1.5089877645951904,1.5587197513466933,3.50632527291984,329.6077064100201,58.10132234987976,-0.021295745769539076,-0.023550466316633267,-0.007124905382765531,0.0,2.6726293391182363,0.43718492856513036,-9.193252772096193,6.34070140280561e+18,961.3977932426853,12.136225316773547,0.01741665541082164,-0.04997081373947895,0.012871975110220441,2.615542270725451,0.40757906171943886,-9.0869702267495,43910715.17296593,0.009929085264529057,-0.05305290099599198,0.015733793016032064,6.87e+18,50.1720281957515,52.46343778661323,3.885393820456914,4.668200592252505,15.331716929559118,20.66378663034068,-0.10664139312825652,-0.09135048134869739,-0.11848597136472946,-23.360597576412825,14584093.59298597,399.6047503883767,12.404602,96616.45133895792,1.1479632633106212,-0.04933948302805611,0.22143241526653307,1.5116827955671341,0.7211496829719438,-0.09360258149699398,0.06356293709018036,0.68347743650501,0.5612750120641282,-0.10008866505010039,-0.25840688890581154,-0.5422894633747496,-4.309604208416841e-05,0.009676799839679362,-0.002176772681362726,398714138.0,327364372.0,400120.61561923847,0.0,-0.006538982983967937,0.006538982983967937,0.013844067555110218,3.345452716755511,39.87141370000001,32.7364371,0.015295312054108216,0.00800393026252505,-0.0660232494268537,0.0026135307595190377,0.008613526545090181,0.008253744679358717,0.01595997272144288,0.07331331335270541,0.017072937759519034,0.1000091389739479,-0.06674296339078156,0.006227000733466933,-0.0056075596272545086,0.5618638165130261,0.0,1.0,0.0,0.0,0.0
43904856.0,-0.03437234079158317,-0.030203089414829666,-0.004878862164328657,0.5962626599799599,0.0,1497.0,1500.0,1593.993987975952,1518.0,1481.0,1485.006012024048,20.25929870460922,20.26846377791583,20.71025108721443,20.35419150719439,20.797847468236473,20.07376248521042,20.506922029879757,248.32692422725452,248.32692422725452,12.135446834148295,-0.0014001886192384768,-0.005793948893787575,0.001314315110220441,-0.15819930141482966,0.00480212776753507,-0.03793507061122245,-0.051847927124248495,0.22097124186773548,1.5093576137875753,1.5587681007895793,3.484579176226453,329.0657747460922,58.096532329899794,-0.021317736689378756,-0.023555556186372745,-0.0071447899178356715,0.0,2.673722226793587,0.4345648291222445,-9.098848966603207,6.87e+18,961.3852161527054,12.13529769513026,0.02137916428256513,-0.05051053316432866,0.013313494801603208,2.6484266278797595,0.43305064898997997,-8.963884757164331,43937459.00062124,0.011748242362725451,-0.05479534278557114,0.016197504014028058,6.87e+18,50.297583321002,52.58108888887776,3.8857890216092184,4.667665134336674,15.331812272745491,20.661218353787575,-0.10658812283767535,-0.09350066445891783,-0.11902632381963928,-23.17592406188377,14615562.007374749,399.57102255470943,12.404602,96616.8163349499,1.1479676243847696,-0.04979079799599198,0.22161145033066132,1.5116617254428855,0.7211270257274549,-0.0938254635511022,0.06347458551503006,0.6834790093166332,0.5610779443186372,0.33715194351903816,-0.5004948850821643,-0.27274988306012027,0.00015452744889779527,0.0024538515230460925,-0.001458668759519038,398714138.0,327364372.0,400119.9938256513,0.0,-0.004984563651302606,0.004984563651302606,0.020061743412825652,3.7683508843346694,39.87141370000001,32.7364371,0.015108005635270542,0.007965570507014028,-0.06543349490781564,0.0031334169258517034,0.00894564072745491,0.008866788360721441,0.025705529168336672,0.05791288508216433,0.021539707018036067,0.1,-0.06683353248296593,0.00637232589779559,-0.00581669966733467,0.5615574856893788,0.0,1.0,0.0,0.0,0.0
43932487.0,-0.03621643973947896,-0.029023391268537074,-0.005061007705410822,0.5949457824749499,0.0,1497.0,1500.0,1593.2424849699398,1518.0,1481.0,1485.7575150300602,20.263095530761525,20.272399767394788,20.714391989018036,20.358288656492984,20.80215349779559,20.119533136513027,20.5537295148497,248.28611513406813,248.28611513406813,12.13460735268537,-0.001400266024048096,-0.005794560617234469,0.001314203887775551,-0.1582102282685371,0.004824098709418838,-0.037843022014028053,-0.05169281765531063,0.22116885033466935,1.509727462234469,1.5588164494869738,3.462833079533066,328.5238430076152,58.09174231737475,-0.021338197861723446,-0.023560079482965932,-0.00716827964729459,0.0,2.627844075991984,0.4294872194028056,-9.009132792004008,6.87e+18,961.3730477408818,12.134318336412825,0.01963544960320641,-0.04890767870541082,0.010427845002004008,2.5641551128496993,0.43572802273747496,-8.886104402705412,43964202.82827655,0.011643912703406813,-0.051529315981963926,0.016774880767535073,6.87e+18,50.4231384462525,52.6987399985972,3.886184222761523,4.667129676420841,15.331907615931865,20.65865007723447,-0.10653485254709419,-0.09565084682364729,-0.1195666762745491,-22.99125054735471,14647030.429218438,399.6358668933868,12.404602,96616.06570368737,1.147958672480962,-0.05019792249498998,0.22179449166332665,1.5116409058036073,0.7211061166593187,-0.09403378243887776,0.06340277489378758,0.6834791738957916,0.5608349841482966,-0.11267861660120243,-0.020522020352705284,-0.026478765575150248,0.0023833335611222447,0.0023447919038076153,-0.002950763699398798,398714138.0,327364372.0,400119.37203206413,0.0,-0.0034301450641282564,0.0034301450641282564,0.026279420016032062,4.191249051168336,39.87141370000001,32.7364371,0.014943585044088176,0.007980508883767536,-0.06492735838476954,0.0038456576573146295,0.009073981659318636,0.009300708450901803,0.03172317521042084,0.033425895352705404,0.03675533427254509,0.1,-0.054323092853707414,0.006232813122244488,-0.005988908084168337,0.5613131968617234,0.0,1.0,0.0,0.0,0.0
43963477.0,-0.03713725275951904,-0.02792201725450902,-0.005039962408817635,0.5934607534068136,0.0,1497.0,1500.0,1591.9819639278558,1518.0,1481.0,1486.0,20.26689235182365,20.27633575687375,20.718532890821646,20.36238581088176,20.80645953244489,20.13339630272545,20.568066897094187,248.25197188657313,248.25197188657313,12.133770217795592,-0.0014003429198396792,-0.005795172340681363,0.0013140931743486975,-0.1582211551222445,0.004846069651302605,-0.037750973416833665,-0.05153770818637275,0.22136645829258517,1.5100973106813627,1.5588647986933868,3.4410869828396793,327.98191126913827,58.0869523048497,-0.021357925539078157,-0.02356741103206413,-0.007192373581162325,0.0,2.581965925190381,0.4244096096833667,-8.919416616895791,6.87e+18,961.3608792781565,12.133338977695391,0.018859087052104206,-0.04551736974549098,0.012967867314629254,2.5096583105731463,0.47414109424048095,-8.831306934871744,43990946.65084168,0.011539583553106213,-0.04826328917835671,0.017352257012024048,6.87e+18,50.548693571503,52.81639110322645,3.886579423913828,4.6665942185050096,15.332002959118237,20.656081800681363,-0.10648158174749499,-0.09780102969739479,-0.12010702872945891,-22.80657703791583,14678498.845971944,399.64941600841684,12.404602,96615.90465783566,1.1479567490981963,-0.05058027715831663,0.22198028932865732,1.5116176082645292,0.7210869586132265,-0.09423401812024049,0.06334055060921844,0.6834775070280561,0.5605931774128257,-0.10665444572745511,0.06345078529859728,-0.000512438210420775,0.0010703305871743508,0.004593356212424847,-0.0034308839539078156,398714138.0,327364372.0,400118.75028937875,0.0,-0.001875725967935873,0.001875725967935873,0.03249709661923847,4.614147218511022,39.87141370000001,32.7364371,0.014806800569138277,0.00799808346492986,-0.0644663259498998,0.004565845687374749,0.009250968935871743,0.009577079823647295,0.035701021060120235,0.015808057190380774,0.039873619539078156,0.1,-0.050349040939879755,0.0062247288036072134,-0.006127330428857715,0.5611256248597194,0.0,1.0,0.0,0.0,0.0
43994165.0,-0.03762231326052104,-0.026978858777555112,-0.004969652238476954,0.592123073747495,0.0,1497.0,1500.0,1590.739478957916,1518.260521042084,1480.739478957916,1486.260521042084,20.27068917306613,20.280271743747495,20.722673790020043,20.36648296769539,20.810765566913826,20.12475841985972,20.559428495991984,248.26430598076152,248.26430598076152,12.132949420400802,-0.0014004195731462925,-0.0057957840641282565,0.0013139824428857717,-0.1582320819759519,0.004868040332665331,-0.037658924819639276,-0.05138259871743487,0.22156406626853709,1.5104671591282566,1.5589131478817637,3.419340886146293,327.43997953066133,58.08216228971944,-0.021375557783567135,-0.023574825961923847,-0.00721695933266533,0.0,2.5416818507615235,0.42098179583567136,-8.865568482847696,6.87e+18,961.3478102741485,12.13242073721443,0.01797918247294589,-0.039824357230460926,0.016885027975951903,2.491504304280561,0.4785562151022045,-8.816565954771542,44017690.47358718,0.01198932454509018,-0.04359031301603207,0.017281668464929862,6.87e+18,50.674248699358714,52.93404220543086,3.886974625066132,4.666058760589178,15.332098304909819,20.653513521523045,-0.10642831096593187,-0.09995121281362726,-0.12064738118436874,-22.621903528296592,14709967.262905812,399.6401659593186,12.404602,96616.01022436874,1.1479580210220441,-0.050958338931863724,0.22216704704408816,1.5115928768216433,0.7210683963386775,-0.09443298125651302,0.0632802133246493,0.6834751557955911,0.5603565602885772,0.00670172285971949,-0.05440751774749491,-0.07161843179759515,-0.0015975844729458908,0.00564898975951904,-0.002554902080160322,398714138.0,327364372.0,400118.41183547094,0.0,-0.000636079094188377,6.534424849700764e-06,0.03714091115831663,4.935794416897796,39.87141370000001,32.7364371,0.014715937162324649,0.008020039086172345,-0.06408024111022044,0.005299238773547094,0.009508790078156313,0.009591657238476955,0.036289397783567136,0.009604463953907811,0.02289014707414832,0.1,-0.050650014246492986,0.006374921599198396,-0.006216692803607214,0.5609025133667335,0.0,1.0,0.0,0.0,0.0
44021222.0,-0.03811655483767535,-0.026263007747494987,-0.0049869590641282565,0.591199951503006,0.0,1497.0,1500.0,1589.9639278557115,1519.0,1480.0,1487.0,20.274458586072143,20.28417959737475,20.726785982545092,20.37054481492986,20.815035556072147,20.103369713046092,20.537670905871742,248.3582474649299,248.3582474649299,12.132157306172346,-0.001400496094188377,-0.00579639673747495,0.0013138693687374749,-0.15824296473747496,0.004889978106212425,-0.03756707665130261,-0.051227489248496995,0.22176167473547093,1.5108370075751503,1.5589614965911827,3.397594789452906,326.89804779218434,58.0773722697996,-0.021389955342685372,-0.02357984211222445,-0.007241872468937876,0.0,2.511969343533066,0.42067173133466934,-8.879503014492986,6.87e+18,961.333039490982,12.131617996853707,0.01603741445490982,-0.031447686354709424,0.018382138705410823,2.513826671274549,0.38852493082565126,-8.858868315501,44044434.301242486,0.013486135124248497,-0.03625851372144289,0.01598657020841683,6.87e+18,50.79998393709418,53.05185700651303,3.887370646450902,4.665519538869739,15.332193709478958,20.65093265849699,-0.10637478797795591,-0.10208541711222445,-0.1211884448496994,-22.436958223026053,14741435.684629258,399.63221077034063,12.404602,96616.10920398797,1.1479592439218438,-0.05135051831462926,0.2223530009498998,1.5115677416973947,0.7210493660701404,-0.09463674738276553,0.06321478238076153,0.6834731873687374,0.5601297835791583,-0.08514955362124249,-0.19568217104208413,-0.12465446171543089,-0.003538215731462927,0.002448466380761522,-7.930583166332652e-05,398714138.0,327364372.0,400118.6165352705,0.0,0.0,-0.0024662244188376745,0.03876688730260521,5.063295589783567,39.87141370000001,32.7364371,0.014686805899799598,0.00804788451503006,-0.06379490970941883,0.006050383312625251,0.009875277815631262,0.009254299272545091,0.03232123946693387,0.018745282102204407,-0.021116544058116218,0.1,-0.05133547983366734,0.006703951396793587,-0.006243806190380762,0.5605644071743486,0.0,1.0,0.0,0.0,0.0
44045320.0,-0.03870248219238477,-0.025513366965931865,-0.004883713072144288,0.5894094204408817,0.0,1497.0,1500.0,1587.7094188376755,1519.0,1480.0,1487.0,20.27654209058116,20.286357558296594,20.729133016613225,20.372435123046092,20.817089060581164,20.144022403426852,20.57925939785571,248.4521890230461,248.4521890230461,12.131365191943889,-0.001400564480961924,-0.005797067829659318,0.0013136424148296592,-0.1582511358296593,0.004909922244488978,-0.03748755485771543,-0.05107237977955912,0.22195928320240482,1.5112068560220442,1.55900984604008,3.3758486927595195,326.3561160537074,58.07258225727455,-0.021407789260521042,-0.023582724126252504,-0.007263276777555109,0.0,2.4840332518496995,0.420885564751503,-8.90482754530461,6.87e+18,961.3179826773547,12.130834675210421,0.014203380386773547,-0.026225646024048095,0.011003807793587174,2.457158250933868,0.4036451074288577,-9.035613096813625,44071178.1288978,0.01515889288977956,-0.028479933811623247,0.014485708234468937,6.87e+18,50.93679563048096,53.17973928857715,3.8878171121322644,4.664748843228457,15.332292426913828,20.64757818955912,-0.1063057241002004,-0.1032369241262525,-0.12177324795591182,-22.23529778715431,14772904.098957917,399.51418391663327,12.404602,96617.45507823647,1.1479751765370743,-0.05174085047895791,0.22253043531863728,1.5115471602845691,0.7210291829539078,-0.09483708380561122,0.06314668117835671,0.6834729604148296,0.559970382276553,-0.0678700924488978,-0.2488224861723447,0.020750806070140293,0.000731051052104208,0.005933490178356714,-0.0005296703106212425,398714138.0,327364372.0,400119.39373967936,0.0,0.0,-0.0055750630961923855,0.03721246871543086,4.9861929512565135,39.87141370000001,32.7364371,0.014657674637274548,0.008075729204408817,-0.06350957904809619,0.006801527851703408,0.01024176629258517,0.008916941306613226,0.0283530811503006,0.027886100989979963,-0.06512323519038077,0.1,-0.051503781937875755,0.006943226196392786,-0.006263380589178356,0.5604048555711423,0.0,1.0,0.0,0.0,0.0
44071479.0,-0.03879009787775551,-0.025102358448897796,-0.004945300905811623,0.5882612863727456,0.0,1497.0,1500.0,1586.4849699398796,1519.0,1480.0,1487.0,20.27621647503006,20.286063519138278,20.72895766521042,20.3712223647495,20.815975243527053,20.134391642925852,20.569554804929858,248.5461305296593,248.5461305296593,12.13057307256513,-0.0014006210220440882,-0.005797823386773547,0.0013132537414829659,-0.1582554313206413,0.0049270167214428865,-0.03742564606212425,-0.051078059090180365,0.22214494863727455,1.511457004272545,1.5590374845851704,3.360999837943888,325.8224503931864,58.06692722086172,-0.021426549202404808,-0.02358393383767535,-0.0072889697414829655,0.0,2.456183788737475,0.4193194645811623,-8.934955331951905,6.87e+18,961.3030913428858,12.130052332124249,0.013510172923847695,-0.021691573062124245,0.009647812989979961,2.40335292544489,0.408656959002004,-9.115827073807615,44097921.95655311,0.016549949298597197,-0.02105127717034068,0.013105792314629258,6.87e+18,51.076648627875755,53.31038582452906,3.888277429032064,4.663914590817636,15.332392061102205,20.644011311923848,-0.10623239268336673,-0.10411860998196393,-0.1223700610480962,-22.029047836012026,14804372.518436873,399.5303560250501,12.404602,96617.27144711422,1.1479730346873747,-0.05214891924849699,0.22270109807214433,1.5115263156913827,0.7210085064388778,-0.09504149823647295,0.06307007888977956,0.6834734503827655,0.5598809405971944,0.024107504406813654,0.21319517734869753,-0.06623554832264535,0.0015011850661322645,0.006357871619238477,-0.0007410083086172346,398714138.0,327364372.0,400120.17094408814,0.0,0.0,-0.008683901258517035,0.03565804961322645,4.90909031324449,39.87141370000001,32.7364371,0.014662870643286573,0.008175417496993987,-0.06305965095991983,0.00674893141482966,0.010076323482965933,0.009126097188376753,0.017845107697394787,0.018111521591182365,-0.06187527091382765,0.1,-0.052033451278557116,0.007205419833667336,-0.006281815741482966,0.5601589499078157,0.0,1.0,0.0,0.0,0.0
44098584.0,-0.03880101332665331,-0.024807111336673345,-0.0049540660100200395,0.5870678755511023,0.0,1497.0,1500.0,1585.487514218437,1519.2459527154308,1479.7540472845692,1487.0,20.274784723867736,20.284634478717436,20.727624178396795,20.36858484955912,20.81340717254509,20.12847816731463,20.56366987783567,248.64007203927855,248.64007203927855,12.129780953486975,-0.001400672124248497,-0.0057986177254509014,0.0013127908156312625,-0.15825794708617236,0.004942803060120241,-0.037371824434869735,-0.051260258523046096,0.2223175023246493,1.5115757408216433,1.5590423858076152,3.35372306945491,325.2978595927856,58.06032252288577,-0.02144623593787575,-0.023584110254509016,-0.007315083258517034,0.0,2.42883087191984,0.40755099336272543,-8.992614826182365,6.87e+18,961.289148376553,12.129275619739479,0.011910480186372743,-0.016016505362725447,0.011177800639278559,2.3596089400781564,0.41260242889178356,-9.166131608747495,44124665.78154308,0.016326325825651303,-0.01562834218036072,0.012419126254509017,6.87e+18,51.217898018998,53.44230154831663,3.8887441056352703,4.6630511566993995,15.332492113547094,20.6403469054509,-0.10615710211823648,-0.10487640908016033,-0.12297238818637275,-21.82069063661323,14835954.398076152,399.58074715070137,12.404602,96616.70101336674,1.147966293268537,-0.05255087721843687,0.22286951577955916,1.511504729771543,0.7209884554889779,-0.09524291949899799,0.06299479262925851,0.6834735410861724,0.5598203301062123,0.13411352012424854,0.5386111847034066,-0.1587989787114228,0.0004684885310621236,0.006039597440881764,-0.0005704548857715428,398714138.0,327364372.0,400120.948148497,0.0,0.0,-0.011792739184368739,0.034103630274549095,4.831987675202405,39.87141370000001,32.7364371,0.01468561544488978,0.008311833671342684,-0.06252557725250502,0.0062854447374749494,0.009638945250501001,0.009614642807615231,0.003993836284569131,-0.00133302814228458,-0.03446968082364728,0.1,-0.05267465200200401,0.007392804090180362,-0.006285045575150301,0.5599552571983969,0.0,1.0,0.0,0.0,0.0
44125761.0,-0.039083651611222445,-0.02444667407014028,-0.004734041008016032,0.5852783911823648,0.0,1497.0,1500.0,1584.0577862725452,1519.9061415831663,1479.0938584168337,1487.0,20.273352968036072,20.28320544314629,20.726290696252505,20.365947329519038,20.810839106232464,20.170383223807615,20.606614626893787,248.7340135955912,248.7340135955912,12.128988839258518,-0.001400723226452906,-0.005799412064128258,0.001312327871743487,-0.15826046238476954,0.0049585898657314624,-0.0373180032745491,-0.051629316406813626,0.22247617619038076,1.5115553690601202,1.559023217971944,3.3544618855871744,324.7828751721443,58.05271254042084,-0.02146681992985972,-0.023583841084168337,-0.007338445689378758,0.0,2.4023090728396794,0.37870582801402813,-9.09635680038076,6.87e+18,961.2767927635269,12.128508335350702,0.007813944402805612,-0.00792586705811623,0.012882306028056113,2.332277324496994,0.4216731733767536,-9.242587620378758,44151409.60186373,0.013400056537074153,-0.013562577651302608,0.012892819623246492,6.87e+18,51.35914740527054,53.57421726743487,3.889210782238477,4.662187722581162,15.332592161322644,20.636682494128255,-0.10608181202004008,-0.10563420816032064,-0.12357471485771543,-21.61233343721443,14867738.101402806,399.5797857805611,12.404602,96616.72191248498,1.1479664889358716,-0.05292742880761522,0.22303939411623247,1.5114820196392784,0.7209699291963928,-0.09543564086973948,0.06292878102605211,0.683472327523046,0.5597541270561122,0.22210339840480897,0.20202314312424793,-0.07211715256112208,-0.0008397659218436906,0.006854408725450905,6.29109639278568e-05,398714138.0,327364372.0,400121.7253529058,0.0,0.0,-0.014901577128256507,0.03254921095390782,4.754885036693387,39.87141370000001,32.7364371,0.014710716529058117,0.008455748294589178,-0.0619752847214429,0.005752000146292586,0.009157677038076153,0.010151821112224449,-0.010303099527054096,-0.021955325821643293,-0.0030161343086172574,0.1,-0.05321974183567134,0.007433000507014026,-0.0062628445951903805,0.5598997884969941,0.0,1.0,0.0,0.0,0.0
44155871.0,-0.03916196874549098,-0.024374218659318637,-0.004718624675350701,0.5844238571142285,0.0,1497.0,1500.0,1583.2482559619239,1519.2126658817635,1479.7873341182365,1487.0,20.271921219539077,20.28177640757515,20.724957206773546,20.363309809478956,20.80827103258517,20.173500465791584,20.6100140808016,248.82795507855715,248.82795507855715,12.12819672503006,-0.0014007743286573147,-0.005800206402805611,0.0013118641943887777,-0.15826297841683368,0.0049743759378757515,-0.03726418138076153,-0.051998375024048096,0.2226348507895792,1.5115349965651304,1.5590040501362725,3.355200701719439,324.26789067815633,58.045102557955914,-0.021486775340681365,-0.023585094591182364,-0.007364516080160321,0.0,2.375787274492986,0.34986066193186377,-9.200098774579159,6.87e+18,961.2644370771543,12.127741058296593,0.008013336186372746,-0.009403161146292582,0.012740598863727455,2.3251651368717434,0.37465485574148305,-9.31611426116032,44178153.429519035,0.010473787248496997,-0.011496813122244492,0.013366512258517033,6.87e+18,51.50039679154308,53.70613299388778,3.8896774588416836,4.661324288462926,15.332692216432864,20.633018082805613,-0.10600652118837675,-0.10639200650701403,-0.12417704226252506,-21.40397623781563,14899333.993186373,399.51777663727455,12.404602,96617.44784935872,1.1479750695971944,-0.05332554579158316,0.22320473229258517,1.5114595046092183,0.7209503540460922,-0.0956345937755511,0.06285374044488978,0.6834719743166332,0.5597039627274549,0.6185784986052099,0.5539335649679354,-0.17880738427454895,0.001165612334669336,0.0047174806192384795,-0.0006199655390781554,398714138.0,327364372.0,400122.5025573146,0.0,0.0,-0.01801041580561122,0.03099479236673347,4.677782398917836,39.87141370000001,32.7364371,0.014699363573146293,0.008627760569138276,-0.06139968978156314,0.005470839575150301,0.008941386957915833,0.010560742454909818,-0.017522413154308608,-0.0175817767234469,0.010957394498997977,0.1,-0.053880776655310623,0.007801729965931863,-0.006292869394789579,0.5598147258717434,0.0,1.0,0.0,0.0,0.0
44181813.0,-0.03956226123046092,-0.024095783328657316,-0.004705034595190381,0.583086817234469,0.0,1497.0,1500.0,1582.4789579158316,1519.5210420841684,1479.4789579158316,1487.5210420841684,20.270489471042083,20.28034736679359,20.72362372250501,20.360672294649298,20.805702964148296,20.227858466092183,20.665608258557114,248.92189661362727,248.92189661362727,12.127404610801603,-0.0014008254308617233,-0.005801000741482966,0.0013114010380761525,-0.1582654944488978,0.00499016201002004,-0.037210359486973946,-0.05236743364128257,0.2227935248677355,1.5115146240701403,1.5589848823006012,3.3559395178517035,323.75290623627257,58.03749257549098,-0.021507851513026054,-0.02358712028256513,-0.007394356731462926,0.0,2.340853177188377,0.3288799956492986,-9.289933895350702,6.515691382765531e+18,961.2516048456913,12.126972223326653,0.004499778951903814,-0.005359465695390788,0.010022060877755515,2.238738665398798,0.3465658365430862,-9.366104770839678,44204897.25717435,0.007713166096192388,-0.009318807270541084,0.013548341607214428,6.515691382765531e+18,51.64164617781563,53.83804872034068,3.89014413544489,4.660460854344689,15.332792271543084,20.629353676693388,-0.10593123087775551,-0.1071498053747495,-0.12477936914629259,-21.195619038416833,14930531.319038076,399.5470580270541,12.404602,96617.09429124248,1.1479708888957916,-0.053676889348697396,0.2233702835751503,1.5114389612024048,0.7209323758897795,-0.09581681393587174,0.06279467188777554,0.6834708947775552,0.5596472775571143,0.4913256698276557,0.4592123838056115,0.03909431948296552,-0.0026719920140280485,0.003915846340681363,-0.0015596292965931852,398714138.0,327364372.0,400123.27981382766,0.0,0.0008077767535070128,-0.017888146947895794,0.029440373258517036,4.273343914368738,39.87141370000001,32.7364371,0.014663676388777556,0.008818528795591182,-0.06080720474148297,0.005358081368737475,0.008901971907815632,0.010884050851703407,-0.020017350669338678,0.0034767231963927538,0.013262854849699402,0.1,-0.054338048068136274,0.00789599946492986,-0.00629733708016032,0.5597550640480962,0.0,1.0,0.0,0.0,0.0
44205912.0,-0.03990244471943888,-0.023835835146292585,-0.004692852152304609,0.5818390171943888,0.0,1497.0,1500.0,1581.4549098196392,1519.7274549098197,1479.2725450901803,1488.0,20.26905771981964,20.278918326432866,20.72229023781563,20.3580347793988,20.803134898016033,20.239690089078156,20.677710061242486,249.01583814448898,249.01583814448898,12.126612496573147,-0.0014008765330661322,-0.0058017950801603204,0.001310938112224449,-0.15826801048096192,0.005005948082164329,-0.03715653786573146,-0.05273649225851703,0.22295219898797594,1.5114942515751504,1.558965714737475,3.356678333983968,323.2379218174349,58.0298825957515,-0.021529421498997996,-0.023588164583166333,-0.007427103442885772,0.0,2.290847836250501,0.32198915074148293,-9.354853879947896,5.522264529058118e+18,961.2379188190381,12.126200603406813,0.00035016774949900005,-0.0022112362825651277,0.007678755198396793,2.1791973453607216,0.34604593174148296,-9.425976817863727,44231641.08482966,0.0052493162605210435,-0.006939712723446895,0.013207276088176354,5.522264529058118e+18,51.78289556408818,53.96996444679358,3.8906108120480964,4.659597420226453,15.332892323927855,20.625689270160322,-0.1058559405250501,-0.1079076044729459,-0.1253816957995992,-20.98726183901804,14961714.607655311,399.57623352905813,12.404602,96616.74488134269,1.1479667645711422,-0.054015401589178356,0.22353601524048097,1.5114186343887777,0.7209149100440881,-0.09599447244889779,0.06274005008416833,0.68346947298998,0.5595852072945893,0.3063991942284568,0.158260413430862,0.1968411253046094,-0.006166145268537076,0.0036667774068136275,-0.0012890567535070161,398714138.0,327364372.0,400124.05706613226,0.0,0.0021140460801603194,-0.01577190811222445,0.02788595391983968,3.6669010367635275,39.87141370000001,32.7364371,0.014620476633266533,0.009023197813627254,-0.060197960470941884,0.005358585993987976,0.008957727631262525,0.011189850012024048,-0.018949569883767538,0.02934994080160319,0.01029644396192385,0.1,-0.05478229636472946,0.007963941573146293,-0.006303887799599199,0.5597017349258516,0.0,1.0,0.0,0.0,0.0
44230010.0,-0.03987537445691383,-0.023775177304609218,-0.0046791817955911825,0.581124046492986,0.0,1497.0,1500.0,1579.9759519038075,1519.0,1480.0,1488.0,20.267625964048097,20.277489290861723,20.720956748336672,20.355397259599197,20.800566831643287,20.143915880621243,20.579927448617237,249.10977962985973,249.10977962985973,12.125820382104209,-0.0014009276352705412,-0.005802589418837676,0.0013104751863727455,-0.15827052648897796,0.005021734178356714,-0.037102716699398804,-0.05310555085170339,0.22311087358717435,1.5114738791042084,1.5589465476292585,3.357417150116232,322.7229373961924,58.022272620561125,-0.021550953935871742,-0.023586983965931865,-0.007462084158316633,0.0,2.2208958029579158,0.3337460921482966,-9.386798844877756,3.681322645290582e+18,961.2231027845692,12.1254253003006,-0.00198758036272545,-0.004622357258517037,0.007955673703406814,2.224637935490982,0.3782154563747496,-9.519425080232464,44258384.91224449,0.0031782415871743496,-0.004294478529058118,0.012174162336673348,3.681322645290582e+18,51.923657161422845,54.10143616771543,3.8910752992885773,4.658779862204409,15.332991420661322,20.621953657234467,-0.10577924470741483,-0.10866535963527055,-0.12598171244088177,-20.77964904410822,14993183.029258516,399.53884308316634,12.404602,96617.18873086173,1.1479720268897795,-0.05436932336072144,0.22370113708617234,1.5113970916893786,0.7208970809599198,-0.09617743745891784,0.06268000708016032,0.6834680660741482,0.5595240733126252,0.4064782599178359,-0.14489373953106216,0.0004768737234469374,-0.004427946050100203,0.0035427106633266502,0.0012135492765531066,398714138.0,327364372.0,400124.8342705411,0.0,0.0036684653947895783,-0.01266307016232465,0.02633153460521042,2.959900262190381,39.87141370000001,32.7364371,0.01458504294789579,0.00924125763527054,-0.05956652428256513,0.005451734551102204,0.009053949523046093,0.011544287152304608,-0.014362382681362744,0.049094643701402825,0.007064851969939882,0.1,-0.05534893662925852,0.008188540432865732,-0.006334812028056112,0.5596402345711422,0.0,1.0,0.0,0.0,0.0
44254109.0,-0.03950488873547094,-0.023917061823647296,-0.004588612907815631,0.5804379993987977,0.0,1497.0,1500.0,1579.2244488977956,1519.0,1480.0,1488.0,20.266194215551106,20.27606025529058,20.719623258857716,20.35275974707415,20.79799875799599,20.258590587535075,20.697449592905812,249.20372118797596,249.20372118797596,12.125028260360722,-0.00140097873747495,-0.00580338375751503,0.001310012260521042,-0.15827304176953907,0.005037521002004008,-0.03704889480561122,-0.05347460871743487,0.22326954818637273,1.5114535073607214,1.5589273797935872,3.358155966248497,322.2079529022044,58.01466263809619,-0.021571451931863727,-0.023588826651302606,-0.007498807855711423,0.0,2.1509437703927854,0.3455030342825651,-9.418743809807616,1.8476553106212431e+18,961.2082866773547,12.124649997194387,-0.0030066229478957914,0.00221435341282565,0.006957914434869739,2.1516483570841682,0.3787535618356714,-9.549845962496994,44285128.73238477,0.001107166186372746,-0.001649245062124249,0.011141047857715431,1.8476553106212431e+18,52.04966314338677,54.219476721322636,3.8914735583066133,4.659350056092184,15.333061753827655,20.616064195811624,-0.10566004806412825,-0.10942178573747495,-0.12651185121843686,-20.59455448498998,15024651.443587175,399.63998005711426,12.404602,96616.02594529059,1.1479581796953908,-0.05477170963326654,0.22384323352905813,1.5113736132324649,0.7208785797074149,-0.09636998305010021,0.06259513458517034,0.6834682246412825,0.5596242080821643,-0.12053627389979943,-0.053119037376753525,-0.07777232241883765,-5.5228865731463996e-05,0.009222450142284566,0.0008612454188376753,398714138.0,327364372.0,400125.6114749499,0.0,0.005222883981963927,-0.00955423148496994,0.024777116018036074,2.25289948688978,39.87141370000001,32.7364371,0.014611728819639277,0.00956643373747495,-0.05875756436272545,0.006285970523046093,0.009473872118236474,0.012287791911823647,0.018377471026052094,0.01981572812024049,0.0017120072805611236,0.1,-0.05551914379358718,0.008098178959919839,-0.006391375404809619,0.5595921586693386,0.0,1.0,0.0,0.0,0.0
44278208.0,-0.03961255335270541,-0.02381484070541082,-0.004584717541082165,0.5791876881763528,0.0,1497.0,1500.0,1577.945891783567,1519.0,1480.0,1488.0,20.26476246178357,20.27463121971944,20.7182897746493,20.350122229278558,20.795430689619238,20.25419876438878,20.693152356092185,249.29766269338677,249.29766269338677,12.124236143887774,-0.0014010303667334669,-0.005804178096192385,0.0013095488076152306,-0.1582755575771543,0.005053307298597194,-0.03699507291182365,-0.05384366711022044,0.22342822225851702,1.5114331350901804,1.5589082119579158,3.3588947823807613,321.6929684609218,58.00705265563126,-0.021592025296593185,-0.023590319372745493,-0.007535692831663328,0.0,2.111038073214429,0.35048154723446895,-9.458728629923849,1.220941883767535e+18,961.1935621721443,12.123877334629258,-0.003778364366733467,0.0030721216973947896,0.007807889863727454,2.1524550143807617,0.38083003019238476,-9.621004173366734,44311872.55779559,-0.001313315519038076,-0.0007263158476953908,0.009669590382765532,1.220941883767535e+18,52.17535283490982,54.337229371623245,3.8918703974408824,4.659949997440882,15.33313146507014,20.61012856971944,-0.10553994067134269,-0.11017818337875751,-0.1270404921082164,-20.40994261783567,15056119.857915832,399.5648279202405,12.404602,96616.9011988978,1.1479686518316634,-0.0551574351983968,0.2239885381503006,1.5113512394809618,0.7208603061422846,-0.09655764074148297,0.0625170705751503,0.6834681144108217,0.559699112771543,-0.10019868943687377,0.027465354200400798,-0.1398640966953908,0.0016220350501002004,0.009512676615230461,-0.002005945605210421,398714138.0,327364372.0,400126.38867935876,0.0,0.006777303096192384,-0.006445393334669339,0.023222696903807617,1.5458987121162324,39.87141370000001,32.7364371,0.014638414691382766,0.00989160983967936,-0.05794860444288578,0.007120205967935872,0.009893794713426853,0.013031296671342686,0.05111732473346693,-0.009463187460921842,-0.0036408374088176348,0.1,-0.05567735415230461,0.008140553955911824,-0.006456643080160321,0.5595458921442886,0.0,1.0,0.0,0.0,0.0
44302306.0,-0.03987278697995992,-0.023761493430861723,-0.0046014013246492985,0.5779558810220441,0.0,1497.0,1500.0,1576.7214428857715,1519.2785571142285,1479.7214428857715,1488.0,20.263330708557113,20.273202181362727,20.716956289899798,20.347484709238476,20.792862623486975,20.250381816673347,20.689292648517032,249.39160420420842,249.39160420420842,12.123444029659318,-0.0014010819418837674,-0.00580497243486974,0.0013090854088176353,-0.15827807360921844,0.005069093370741483,-0.03694125129659318,-0.05421272572745491,0.22358689638476953,1.5114127625951903,1.5588890441222445,3.359633598513026,321.1779840142284,57.999442673166335,-0.021612329358717434,-0.02359256419238477,-0.0075716088637274555,0.0,2.1018807350581166,0.34852325566132264,-9.506941153773548,1.8296793587174354e+18,961.1789313569138,12.123107375971944,-0.0028845028496993982,0.0010798556392785565,0.0069415251983967925,2.164660249563126,0.38273112478957916,-9.662972289613226,44338616.38545091,-0.004091367090180361,-0.0015659324408817642,0.007749547406813627,1.8296793587174354e+18,52.30090783240481,54.454859419498995,3.8922666319098203,4.66056260690982,15.333200911462926,20.604173284148295,-0.10541944543086172,-0.1109345688997996,-0.12756849511422846,-20.225536304929857,15087588.275030062,399.4971204603206,12.404602,96617.68885332665,1.1479780576973948,-0.05552389722044088,0.2241389408216433,1.5113308111342685,0.7208420231302606,-0.09674013995190381,0.0624473506733467,0.6834679239739478,0.5597231717314629,0.13152841749899805,-0.06899447852304619,-0.20759073025250502,0.0017974864829659318,0.007847520136272546,-0.0033111005911823643,398714138.0,327364372.0,400127.16588376753,0.0,0.008331722434869739,-0.0033365551302605204,0.021668277565130258,0.8388979375671342,39.87141370000001,32.7364371,0.014670382284569138,0.010231958669338678,-0.05709068421042086,0.0077904883206412825,0.010275449410821643,0.013639815438877755,0.06908183972945892,-0.03010972810220441,-0.003803781993987974,0.1,-0.055977707302605206,0.008316180444889779,-0.00652274616232465,0.5595669378757515,0.0,1.0,0.0,0.0,0.0
44326405.0,-0.040040797621242484,-0.023954635384769538,-0.004592133639278557,0.5771650145891783,0.0,1497.0,1500.0,1575.9699398797595,1519.9955141282564,1479.0044858717436,1488.0,20.261898959759517,20.271773138577156,20.71562280072144,20.344847189499,20.790294557054107,20.328135116873746,20.768654436292582,249.48554576232465,249.48554576232465,12.122651915430861,-0.0014011330440881762,-0.005805766743486974,0.0013086224829659317,-0.15828058964128255,0.005084879442885772,-0.03688743012424849,-0.054581784344689376,0.2237455709539078,1.5113923901002004,1.5588698762865731,3.3603724146452905,320.6629995232464,57.991832691002,-0.0216321696993988,-0.02359613548496994,-0.007605777240480962,0.0,2.123204683955912,0.339688411252505,-9.563309917551104,3.6636472945891794e+18,961.1643933809619,12.122340098617235,0.00042485339278556996,-0.0014644068757515046,0.0022012240561122267,2.145822005254509,0.3840878417234469,-9.629066506977956,44365360.213106215,-0.007223882651302605,-0.004152786148296595,0.0053848147214428845,3.6636472945891794e+18,52.4264628298998,54.57248947180361,3.8926628663486973,4.661175216378758,15.33327035785571,20.59821799857715,-0.10529895019038077,-0.11169095445090181,-0.1280964981202405,-20.041129987595188,15119095.133246494,399.56470980501,12.404602,96616.90954531061,1.1479687301623247,-0.055871941799599194,0.22429663089178356,1.5113127093507013,0.7208234598937875,-0.09691854084368738,0.062386461975951914,0.6834677722605211,0.5596699358897795,0.3066251947434868,-0.4210934781723444,-0.26779936266733434,0.001291715430861722,0.00675703709018036,-0.00023596477955911783,398714138.0,327364372.0,400127.8748246493,0.0,0.00971548638276553,-0.00034148673346693373,0.020056973116232463,0.17649917920040098,39.87141370000001,32.7364371,0.014711528727454909,0.01059867542284569,-0.056147678368737484,0.008175845354709419,0.010590600312625249,0.014013748875751502,0.061369045761523036,-0.035754503753507014,0.005052536613226459,0.1,-0.05652553928657315,0.008617654412825651,-0.00658366876753507,0.5596977952004007,0.0,1.0,0.0,0.0,0.0
44350503.0,-0.04007581315230461,-0.023836070004008017,-0.0046254996212424845,0.5764111293186372,0.0,1497.0,1500.0,1575.2184368737476,1519.8833673346694,1479.1166326653306,1488.0,20.260467203747496,20.270344103006014,20.714289318757515,20.342209676973948,20.787726483406814,20.274006038717435,20.713590593607215,249.57948732044088,249.57948732044088,12.121859801202405,-0.0014011841462925852,-0.005806560330661323,0.0013081595571142284,-0.1582831056733467,0.00510066551503006,-0.036833608230460925,-0.054950842961923846,0.2239042448016032,1.5113720176052103,1.5588507084509016,3.361111230777555,320.1480151044089,57.9842227160521,-0.02165316218436874,-0.023594822609218438,-0.007640283252505011,0.0,2.1445286328537074,0.3308535675651303,-9.619678681328658,5.504829659318634e+18,961.1498554050099,12.121572814048097,-0.0018728617875751466,-0.004874478769539073,0.006487675458917829,2.198043436617234,0.40622063480961923,-9.670539606426853,44392104.04076152,-0.010356398933867729,-0.006739639855711417,0.003020082757515034,5.504829659318634e+18,52.552017827394785,54.69011951689379,3.8930591000661323,4.6617878258476955,15.333339804248498,20.59226271300601,-0.1051784549498998,-0.11244734072344689,-0.1286245011262525,-19.85672367747495,15151524.464408817,399.51694743026053,12.404602,96617.45842807616,1.1479752592204409,-0.05627381178957916,0.22447715318637276,1.5112903431182365,0.720802507238477,-0.09712396193587175,0.062315661374749504,0.683467153773547,0.5593956831342686,0.006968363330661809,0.11151749251903731,0.3624116706492975,-0.0011410237975951866,0.00561366434468938,0.0006755407314629244,398714138.0,327364372.0,400126.94544088177,0.0,0.007003520951903812,-7.6905070140281e-05,0.01708042602204409,0.5845488092104202,39.87141370000001,32.7364371,0.014757746913827655,0.010979960993987976,-0.055157662587174354,0.008403779222444889,0.010869008128256512,0.014258070769539078,0.03946931479959923,-0.03311067259118237,0.018892076943887753,0.1,-0.057012621450901795,0.008813064733466934,-0.006637262955911823,0.5597526752104209,0.0,1.0,0.0,0.0,0.0
44374602.0,-0.037874865733466934,-0.02360792648296593,-0.004564778364729459,0.5751411134268537,0.0,1497.0,1500.0,1573.933867735471,1518.3311210621243,1480.6688789378757,1488.0,20.259035453066133,20.268915067434868,20.712955831462928,20.339572159118237,20.78515841509018,20.237302481963926,20.676233368757515,249.6734288252505,249.6734288252505,12.121067686973948,-0.001401235248496994,-0.005807354450901804,0.0013076960981963928,-0.15828562117234468,0.005116452120240481,-0.03677978686973948,-0.05531990104609218,0.22406291918236473,1.5113516451102202,1.5588315406152304,3.36185004690982,319.6330306855712,57.976612735771546,-0.021673089070140282,-0.0235932447995992,-0.007670817921843689,0.0,2.150445702897796,0.3236489488557114,-9.644625262773548,6.482444889779559e+18,961.135695213026,12.12080565741483,-0.0028177819939879762,-0.002424535480961919,0.011160408969939882,2.1725908156753504,0.402701912997996,-9.624302540737474,44418847.86308617,-0.011987751412825652,-0.0065528028176352685,0.00214194856513026,6.482444889779559e+18,52.67757282488978,54.80774956198397,3.8934553343166334,4.662400435316633,15.333409255971944,20.58630742743487,-0.10505795970941884,-0.11320372646292585,-0.12915250413226453,-19.672317362024046,15182590.58022044,399.56637671122246,12.404602,96616.8589211423,1.1479681289919839,-0.05666502525450902,0.22465719358917835,1.5112693975070142,0.7207816116212425,-0.09732541061923848,0.062248266000000003,0.683466719727455,0.5591038264028056,-0.28494212269539104,-0.08666449226452949,0.3190071942505007,-0.0008046363927855695,0.005299760625250501,-0.0006980718016032087,398714138.0,327364372.0,400125.9034735471,0.0,0.004010040631262523,0.0,0.014010040631262523,1.0661744779338682,39.87141370000001,32.7364371,0.014822369208416834,0.011380303679358718,-0.05417868287374749,0.008649102773547095,0.011104473735470943,0.014523908278557115,0.024973907597194377,-0.03857597883166333,0.03223082936272546,0.1,-0.057241049799599195,0.008967851683366734,-0.006684779657314629,0.559639024230461,0.0,1.0,0.0,0.0,0.0
44399840.0,-0.03592221615831663,-0.02338076599198397,-0.004532078082164329,0.573947023767535,0.0,1497.0,1500.0,1572.7154308617235,1517.2845691382765,1481.7154308617235,1488.0,20.25760370456914,20.267486031863726,20.71162234198397,20.336934641923847,20.782590348957918,20.247579160541083,20.686860752865734,249.76737033667337,249.76737033667337,12.1202755698998,-0.0014012863507014029,-0.005808148789579159,0.0013072327054108215,-0.15828813673747494,0.005132238659318638,-0.03672596544288577,-0.05568895919639279,0.22422159378156314,1.5113312728997994,1.5588123730641283,3.3625888630420846,319.1180462382766,57.96900275330662,-0.02169300843086172,-0.023592191024048095,-0.0077022573326653325,0.0,2.1458003376593187,0.3175619576853707,-9.648029857188376,6.87e+18,961.1217940080161,12.12003858735471,-0.003054328965931864,-0.0001245193306613205,0.012532112100200403,2.1139398431462926,0.3771954019058117,-9.59259860853507,44445591.68607214,-0.012589956799599199,-0.004464417388777559,0.0022829756993987967,6.87e+18,52.80312784230461,54.92539764875752,3.8938506695470942,4.662954202148297,15.333482030801603,20.580521153166334,-0.10494077799198397,-0.11390771256112225,-0.12968002621643285,-19.48792644242485,15213461.949559119,399.637813042485,12.404602,96616.02206064128,1.147958175801603,-0.057057071595190384,0.2248308488537074,1.5112490667555112,0.7207607305551103,-0.09752500698597194,0.06217824560721443,0.6834667095731464,0.5588490913146292,-0.22861448284569205,-0.4119909269619238,-0.022193076460921432,0.00036085016833667263,0.0057915832505010005,-0.002239393404809619,398714138.0,327364372.0,400124.8154008016,0.0,0.0009012024208416866,0.0,0.010901202420841688,1.5779497264308613,39.87141370000001,32.7364371,0.014913903088176353,0.0118085122004008,-0.05321584128657315,0.0089198553747495,0.011277147452905811,0.014821206072144289,0.02130551916432865,-0.055898921048096156,0.04483730042284568,0.1,-0.0573346832004008,0.009089462731462926,-0.006754983783567134,0.5594543776352706,0.0,1.0,0.0,0.0,0.0
44426800.0,-0.03590051001002004,-0.023237942208416833,-0.004611724084168337,0.5732118764008016,0.0,1497.0,1500.0,1571.9278557114228,1518.0,1481.0,1488.0,20.256171955711423,20.266056995931866,20.71028885286573,20.334297129038077,20.78002228246493,20.31854919206413,20.759535618617235,249.86131189118237,249.86131189118237,12.119483448517034,-0.0014013374529058117,-0.005808943128256513,0.0013067697795591182,-0.15829065276953908,0.005148024731462926,-0.036672143549098195,-0.05605801781362725,0.22438026834468938,1.5113109011202404,1.5587932059438878,3.3633276792104208,318.6030617478958,57.961392770841684,-0.02171360584769539,-0.023592128024048097,-0.007737502234468939,0.0,2.1341828736953907,0.3122126953747495,-9.637214921102204,6.87e+18,961.108063747495,12.119271573687374,-0.0030766320120240455,-0.002007757931863722,0.008658758839679344,2.0560815224529057,0.33612637537875745,-9.641216361723448,44472335.51372746,-0.012512838276553107,-0.0011208497895791691,0.003096735432865729,6.87e+18,52.92868290250501,55.04308320358717,3.894244137270541,4.663385767725451,15.333561704488979,20.575085872565133,-0.10483047765330661,-0.11450287833466934,-0.13020654949498997,-19.303567500561122,15244930.364248497,399.6750328695391,12.404602,96615.62328507013,1.1479534323086171,-0.05745625567134269,0.2249940020741483,1.5112288827675353,0.7207398854428858,-0.09772361605210421,0.06210197369138277,0.6834672685290581,0.5586710297895792,0.3425939284569153,-0.4248943168537092,-0.3633473601743499,0.0009325785891783608,0.006808565983967948,-0.002490013603206414,398714138.0,327364372.0,400123.7273711423,0.0,-0.002207636220440872,0.0,0.007792363779559129,2.0897249749639264,39.87141370000001,32.7364371,0.015037220186372746,0.012269630687374748,-0.05227205947294589,0.00922064069539078,0.011375662697394788,0.01515565872745491,0.030424098787575127,-0.08722601452104199,0.05657892921643283,0.1,-0.05739239525851703,0.009193222360721441,-0.006867251659318637,0.5592556646693387,0.0,1.0,0.0,0.0,0.0
44450898.0,-0.036277781052104205,-0.023274529883767537,-0.0047529758376753505,0.5722253430841683,0.0,1497.0,1500.0,1570.4248496993987,1518.0,1481.0,1488.0,20.2547401996994,20.264627952845693,20.708955370901805,20.331659608997995,20.777454208817634,20.29675027673347,20.73736121480962,249.95525337414833,249.95525337414833,12.118691334288577,-0.0014013885551102205,-0.005809737466933867,0.0013063068537074148,-0.1582931688016032,0.005163810803607214,-0.03661832165531062,-0.05642707643086172,0.22453894219238477,1.5112905286252505,1.5587740381082165,3.364066496094188,318.0880773290581,57.953782788376756,-0.021733686008016034,-0.0235911285250501,-0.0077658196192384775,0.0,2.1225654090160324,0.3068634323486974,-9.626399985731462,6.87e+18,961.0943334869739,12.118504567174348,-0.0038625072625250497,-0.003833714845691382,0.013336547166332664,2.05851269855511,0.359883945769539,-9.640267105961923,44499079.341382764,-0.012435719038076153,0.0022227170941883753,0.003910494450901803,6.87e+18,53.054238163026056,55.16092473665331,3.8946298304068137,4.663308616172345,15.333670131342684,20.571111759338677,-0.10474882459719438,-0.11464503114028056,-0.1307289139739479,-19.119341678917838,15276398.786092184,399.6135364016032,12.404602,96616.32318236472,1.1479617304048095,-0.05782779049098197,0.22515023278557114,1.5112105445911825,0.720720040503006,-0.09790995047094188,0.06203255059519038,0.6834677795511022,0.5585708379058116,-0.10395668702404787,0.1508452903607212,0.004730448693386569,-0.00032603413627254447,0.0030814823166332686,-0.002157005336673347,398714138.0,327364372.0,400122.63926993986,0.0,-0.005316474146292584,0.0,0.004683525853707417,2.6015002242124248,39.87141370000001,32.7364371,0.015160536569138275,0.012730749174348696,-0.05132827765931864,0.009521426016032064,0.011474177226452905,0.015490111382765532,0.03954267769539078,-0.11855310870941882,0.0683205587254509,0.1,-0.05767508814428858,0.009480854875751503,-0.006994411228456914,0.5588409702805611,0.0,1.0,0.0,0.0,0.0
44474997.0,-0.03668550947094188,-0.023047614,-0.004794962817635271,0.5711863542284569,0.0,1497.0,1500.0,1569.4609218436874,1518.0,1481.0,1488.0,20.253308449078155,20.263198915150298,20.707621883547095,20.329022088957917,20.774886140561122,20.308548226913828,20.74948882308617,250.04919491102206,250.04919491102206,12.11789922006012,-0.0014014396573146294,-0.0058105318056112226,0.0013058433887775552,-0.15829568483366735,0.005179596875751503,-0.0365645003006012,-0.05679613504809619,0.22469761657915832,1.5112701561302606,1.5587548702725451,3.364805312438878,317.5730929102204,57.94617281130261,-0.02175293922244489,-0.0235901969498998,-0.007795240496993988,0.0,2.1111871106733466,0.3151198373046092,-9.615659188701402,6.87e+18,961.0783187749499,12.11761795539078,-0.0027691398877755556,-0.0061824428016031985,0.014568954382765531,2.0150551646573147,0.33816213251703414,-9.580195340729459,44525823.16903807,-0.011025700486973954,0.002677316160320643,0.005967025382765524,6.87e+18,53.179793423547096,55.27876626971944,3.895015523004008,4.663231464619239,15.333778552805612,20.567137646112226,-0.10466717208016031,-0.11478718448496994,-0.13125127845290582,-18.93511585188377,15307867.20254509,399.6237773280561,12.404602,96616.20724416834,1.1479603639078155,-0.058140190593186376,0.22530946184969938,1.5111914064228458,0.7207031971503006,-0.09807596919038077,0.061984465290581166,0.6834660981422845,0.5584596585310622,-0.14154477610821675,0.27898775884168353,-0.09258238913226378,-3.683433867735723e-05,0.0005868445210420897,-0.0006338391843687427,398714138.0,327364372.0,400121.6496044088,0.0,-0.008067293018036065,0.0,0.0012166683346693484,3.1042540280080146,39.87141370000001,32.7364371,0.015193311002004007,0.01294664424248497,-0.05084823028256513,0.009878200533066131,0.0106393706492986,0.015804801971943887,0.04736614020040078,-0.10866749510020048,0.047603946354709506,0.1,-0.05800230026052104,0.00987180872745491,-0.007130448875751502,0.5586398424849699,0.0,1.0,0.0,0.0,0.0
44499095.0,-0.036827125903807614,-0.022854410883767533,-0.004811034831663327,0.5702879453306613,0.0,1497.0,1500.0,1568.7094188376755,1518.0,1481.0,1488.0,20.25187669767535,20.26176987957916,20.706288396973946,20.32638457182365,20.772318071523046,20.328364215991982,20.769828571783567,250.14313644008016,250.14313644008016,12.117107105831662,-0.0014014907595190382,-0.005811326144288577,0.001305380002004008,-0.15829820057515032,0.005195383238476954,-0.03651067886773547,-0.057165193374749505,0.22485629088777556,1.5112497836352705,1.5587357024368738,3.3655441285711425,317.05810846232464,57.938562833446895,-0.02177181659719439,-0.023589023933867737,-0.007822589074148296,0.0,2.0999259221462925,0.33003836953907817,-9.604954694182364,6.87e+18,961.0611854402806,12.116672778537074,-0.0010791614008016032,-0.007357990196392785,0.013857000164328658,1.9818069578336672,0.3205840846012024,-9.53380806073948,44552566.99378757,-0.008963016739478958,0.0017173083446893789,0.008632089731462924,6.87e+18,53.30534868116233,55.39660780278557,3.895401215679359,4.663154313066132,15.3338869750501,20.56316353288577,-0.10458551948496994,-0.114929337751503,-0.1317736432224449,-18.75089002272545,15339335.619779559,399.67906348637274,12.404602,96615.57423995993,1.147952862955912,-0.058420870693386785,0.22548282304208417,1.5111715087174349,0.7206874093046093,-0.09823532756713427,0.061952383687374754,0.6834627705571142,0.5582100027194389,0.07778999054509017,0.01805307944288581,-0.20875246869138278,-0.0001662833767535069,0.0019485448817635267,0.00030396410220440894,398714138.0,327364372.0,400121.3068268537,0.0,-0.008465849711422845,0.0,-0.004602451284569138,3.547735074751503,39.87141370000001,32.7364371,0.015187485110220441,0.013057994833667335,-0.050565883919839676,0.010258844831663326,0.009406667663326653,0.016111067743486977,0.054637464569138275,-0.08121195862725451,0.013049640362725452,0.1,-0.05819765645290581,0.010235275130260521,-0.007251349687374749,0.5585397102204409,0.0,1.0,0.0,0.0,0.0
44523194.0,-0.03657504237274549,-0.022863416114228458,-0.004850955933867735,0.5696320780621243,0.0,1497.0,1500.0,1567.9579158316633,1518.0,1481.0,1488.0,20.25044494208417,20.260340844008017,20.704954914589177,20.323747058877757,20.769749998296593,20.338360721302607,20.78018308176353,250.2370779272545,250.2370779272545,12.116314991603206,-0.0014015419038076152,-0.005812120482965932,0.0013049170761523046,-0.1583007158977956,0.00521117002004008,-0.03645685701603206,-0.05752223789378759,0.22501535136272544,1.5112356451102202,1.5587176820681363,3.365922676615231,316.5427268368737,57.93094283831663,-0.021790665152304607,-0.02358722929058116,-0.007846231082164328,0.0,2.088675436837675,0.34694294510220436,-9.594277216623246,6.87e+18,961.0437070320642,12.115709878937876,0.00029827821042084174,-0.006342493178356715,0.012346676653306613,1.9917359360360722,0.3363972717735471,-9.546866716881762,44579310.8143487,-0.006702182807615234,0.00032659923446894064,0.011479970691382757,6.87e+18,53.43090393458918,55.51444933543086,3.895786908815631,4.663077161513026,15.333995401482966,20.559189419238475,-0.10450386647094188,-0.1150714905991984,-0.13229600841082165,-18.56666419398798,15370936.717014028,399.744174807014,12.404602,96614.82328104209,1.14794395547495,-0.0586895297234469,0.22567734149098195,1.5111510799018035,0.7206712612124248,-0.09839751242484969,0.06193210969338678,0.6834582869699398,0.5577424116573146,0.43364365515831643,-0.5009845776513043,-0.08023435703807584,-0.0017832420921843704,0.008216794595190383,-0.0005330195270541026,398714138.0,327364372.0,400121.9286162325,0.0,-0.005357011076152311,0.0,-0.013928965813627235,3.9028361025571137,39.87141370000001,32.7364371,0.015177301733466934,0.01315069476753507,-0.050316049703406814,0.010624240599198396,0.008133987108216435,0.016401831663326656,0.06114884144889781,-0.05186974862525056,-0.021458712064128246,0.1,-0.058162397873747496,0.010505720897795591,-0.007342729963927856,0.5584455354108216,0.0,1.0,0.0,0.0,0.0
