timestamp,control[0],control[1],control[2],control[3],control[4],output[2],output[3],output[4],output[5],output[6],output[7],indicated_airspeed_m_s,equivalent_airspeed_m_s,true_airspeed_m_s,equivalent_ground_minus_wind_m_s,true_ground_minus_wind_m_s,indicated_airspeed_m_s.1,true_airspeed_m_s.1,differential_pressure_raw_pa,differential_pressure_filtered_pa,temperature,gyro_bias[0],gyro_bias[1],gyro_bias[2],accel_bias[0],accel_bias[1],accel_bias[2],nav_roll,nav_pitch,nav_bearing,target_bearing,xtrack_error,wp_dist,acceptance_radius,rollspeed_integ,pitchspeed_integ,yawspeed_integ,additional_integ1,x,y,z,temperature.1,pressure,temperature.2,gyro_rad[0],gyro_rad[1],gyro_rad[2],accelerometer_m_s2[0],accelerometer_m_s2[1],accelerometer_m_s2[2],timestamp_sample,x.1,y.1,z.1,temperature.3,altitude_sp,altitude_filtered,height_rate_setpoint,height_rate,airspeed_sp,airspeed_filtered,airspeed_derivative_sp,airspeed_derivative,throttle_integ,pitch_integ,timestamp_sample.1,baro_alt_meter,baro_temp_celcius,baro_pressure_pa,rho,roll_body,pitch_body,yaw_body,q_d[0],q_d[1],q_d[2],q_d[3],thrust_body[0],xyz[0],xyz[1],xyz[2],xyz[0].1,xyz[1].1,xyz[2].1,lat,lon,alt,vel_m_s,vel_n_m_s,vel_e_m_s,vel_d_m_s,cog_rad,ref_lat,ref_lon,x.2,y.2,z.2,vx,vy,vz,ax,ay,az,dist_bottom,roll,pitch,yaw,thrust_body[0].1,isTakeoff,isClimbing,isDescending,isCruise,isLand
175334111.0,-0.029528785,0.251734409,-0.144321645,0.26700693,1.0,1427.0,2000.0,1258.820964,1513.0,1486.0,1621.273655,12.08318315,12.0749035,12.3413511,10.91255018,11.15334965,12.64297471,12.92197748,89.56420281,89.56420281,12.07245778,-0.000604037,-0.005907361,0.00017402099999999998,-0.25949491,0.220206681,-0.040244151,-0.012846525,0.127444436,-1.5977385730000002,-1.588274622,0.353716527,360.3075123,36.76170292,-0.002742753,0.179577513,-0.107377457,0.0,-1.402441924,0.156233786,-9.500735513,6.87e+18,960.2676864,12.07244642,-0.020278781000000003,-0.153177489,0.011906115,-1.39912139,0.216261349,-8.956886632,175627231.0,-0.028255899,-0.124965754,0.009562524,6.87e+18,50.11765949,51.10359347,0.860334625,-0.08834366,10.2215653,12.62618674,-0.048092421,-0.078170965,-0.27279137600000003,134.40138280000002,169381521.1,454.8018549,12.04596884,95980.18662,1.140403427,-0.009868046,0.049711155,-1.596584851,0.697794116,0.014356126,0.020877931,-0.7158496870000001,0.0,-0.058130617,-0.675713076,-0.315718206,-0.14833438699999998,0.025532424,0.119312529,398727176.7,327374389.7,454835.2472,14.357000400000002,-2.347281456,-14.15630125,-1.270840167,4.547742818,39.87141370000001,32.7364371,144.17694269999996,79.18854963,-55.281045,-1.49126002,-13.28693614,-0.70391258,1.493165689,1.491484806,1.50646978,55.52234321,-0.033380573,-0.054042756,0.001838825,0.0,0.0,0.0,0.0,0.0,1.0
175409045.0,-0.024348408753507012,0.20277155147695392,-0.1392546921262525,0.15211169490981963,1.0,1430.0,2000.0,1109.3527054108217,1511.0080160320642,1487.9919839679358,1594.056112224449,12.057292788697396,12.049041272184368,12.314922439619238,10.876136978877756,11.11613682456914,12.404090021763528,12.677857568376753,88.92039496681362,88.92039496681362,12.072353659058116,-0.0006037865050100201,-0.005906040649298598,0.0001739062284569138,-0.2595511620460922,0.22026508971342684,-0.040315180370741485,-0.011384210372745491,0.10788171556913828,-1.5965328860581163,-1.5882426551923847,0.30982201558717437,359.371173697996,36.79571385496994,-0.0027311142825651303,0.18001835033867739,-0.107351631246493,0.0,-1.419723700771543,0.21119039466933873,-8.753964678873748,6.87e+18,960.2591599873747,12.072207759238477,-0.02003645579158317,-0.1729586866432866,0.001561507659318638,-1.4987440962545089,0.2023684665210421,-8.408307630845691,175698262.6663327,-0.023821539621242487,-0.15466064519038075,0.010176154384769539,6.87e+18,50.157318963366734,51.095066521142286,1.319660955729459,-0.0767052657014028,10.221545629238477,12.604118402825652,-0.04765145285971944,-0.03334421723446894,-0.27330330778156314,134.53169441482967,169465101.26833665,454.8520401350701,12.045597948897795,95979.61040184369,1.1403965188757514,-0.009881230068136272,0.049060272258517036,-1.597045652739479,0.6976338261202405,0.014123242098196391,0.020652388046092183,-0.716017220975952,0.0,0.18492261339879756,-0.40383883422044087,0.036509423052104195,-0.1417808420300601,-0.02017622750501002,0.12790693580961923,398727159.63406813,327374248.9825651,454935.92074749497,14.166527580821644,-2.180459595490982,-13.998436449378758,-1.1942182865531064,4.557620525296593,39.87141370000001,32.7364371,144.050651704008,78.05717308484972,-55.33620812262525,-1.3738427654088177,-13.167548958496996,-0.5738985117234469,1.3408686233807616,1.4283935994308616,1.5475321841042085,55.57750735929859,-0.014254639214428858,-0.06909935609418838,0.0005051682164328656,0.0,0.0,0.0,0.0,0.0,1.0
175477067.0,-0.01905748413026052,0.16516398158316634,-0.14030256120841683,0.03572234879559118,1.0,1428.0160320641282,2000.0,1033.2930210521042,1508.0108671022044,1490.9891328977956,1582.7887867054108,12.031402437314629,12.023179044368737,12.288493769238478,10.839723767835672,11.078923999058116,12.257092119258518,12.527626345951903,88.27658712362725,88.27658712362725,12.072249538116234,-0.000603537002004008,-0.005904720298597194,0.0001737914649298597,-0.25960741409218435,0.2203234984268537,-0.040386209741482965,-0.009921895745490981,0.08831899513827654,-1.5953271981162322,-1.5882106893767534,0.26592750318236474,358.4348351951905,36.82972477993988,-0.0027136556092184367,0.1805516301743487,-0.10730463408216433,0.0,-1.458849524943888,0.29918778755911823,-8.336406397272544,6.87e+18,960.2641495174348,12.071969088557115,-0.016542432941883768,-0.1670250204549098,0.0103790043747495,-1.4305909675010022,0.20588018371142286,-8.138056969673345,175769294.23266533,-0.013720639601202404,-0.1651047155991984,0.010802789350701404,6.87e+18,50.26700783234469,51.092458686693384,1.0300967941182366,-0.01645633244288577,10.221530331402807,12.669269035731462,-0.048954767104208416,0.29541046271543087,-0.273730262987976,134.67121231523046,169548681.33667335,454.85702261422847,12.045300803907816,95979.56808727456,1.1403960686152306,-0.00993230833266533,0.041518798270541085,-1.5976094347154308,0.6974784661002004,0.011409861182364728,0.018037382613226453,-0.7162874986573146,0.0,-0.08203117231062124,0.04083611924649297,0.08270689885971949,-0.14114406802204407,-0.04408013684769539,0.13328214458517032,398727142.76733464,327374108.1659319,455036.24419498997,13.976614871643287,-2.015318068981964,-13.841551838677356,-1.1157760401062122,4.567420020601203,39.87141370000001,32.7364371,143.9350800807615,76.9601749478958,-55.38038664328657,-1.2669295227575152,-13.05892169527054,-0.4458485160721443,1.2315878163086171,1.3058471309458917,1.5636253738036072,55.62168573002004,-0.011626576611222445,-0.07531982218837677,-0.001143223647294589,0.0,0.0,0.0,0.0,0.0,1.0
175545025.0,-0.011405236891783566,0.15431645771342684,-0.14300255835671344,4.529367535070078e-05,1.0,1428.0,2000.0,1000.0,1505.900392264529,1493.099607735471,1576.0120240480962,12.005512085971944,11.997316816553106,12.262065108857716,10.803310566633266,11.041711173587174,12.117497998877756,12.384876039559117,87.63277928056112,87.63277928056112,12.072145417174347,-0.0006032865150300601,-0.00590339895991984,0.00017367669739478956,-0.2596636671262525,0.22038190614028055,-0.04045723911222445,-0.009461889537074148,0.07732600906613227,-1.5952344046973947,-1.5882067208236472,0.26018529519839684,357.5336506008016,36.60165896731463,-0.002700425072144289,0.1811990018797595,-0.1072331616012024,0.0,-1.4565128488877754,0.22410257378356713,-8.070681631098196,6.87e+18,960.2758939416831,12.071856140501003,-0.011863781468937875,-0.157906710244489,-0.0012983271382765536,-1.391745943280561,0.21280639801402806,-7.830382484923849,175840325.89779562,-0.017184543004008016,-0.17086198295991983,0.002942331825651302,6.87e+18,50.37683368851703,51.089862430040085,0.7390678056773547,0.04388768283567134,10.221515051983967,12.734590268597193,-0.050261494156312626,0.6247205045611224,-0.2741570509819639,134.8107482228457,169632261.50501,454.8944616571142,12.04506366971944,95979.14944248497,1.140391161689379,-0.010054807430861724,0.03411306816432865,-1.5981795660961924,0.697310471771543,0.008718639212424849,0.015496533531062123,-0.71654846649499,0.0,0.3046876479579158,-0.4137151744268538,0.371121297496994,-0.1369051768256513,-0.0559811378496994,0.13538909926252504,398727127.7805611,327373972.09599197,455123.767806012,13.806912524949901,-1.8703868376192385,-13.698140941402805,-1.0193691708056112,4.5762792012545095,39.87141370000001,32.7364371,143.82884563727455,75.88096830294589,-55.4133347496994,-1.168270073815631,-12.958960909839679,-0.3174988756032064,1.163196828244489,1.1379320987334671,1.5574744572444892,55.65463303921844,-0.009699706625250501,-0.07777302903406813,-0.002356814134268537,0.0,0.0,0.0,0.0,0.0,1.0
175609079.0,-0.0026829693867735467,0.14749911100000002,-0.15043541676152306,0.0,1.0,1424.010942476954,2000.0,1000.0,1500.9839679358718,1498.0160320641282,1572.7239514569142,11.973250296092186,11.96509560739479,12.229125601362725,10.764161718176354,11.001691923967936,11.983532674488977,12.24797850509018,86.98897143741483,86.98897143741483,12.072041296232465,-0.0006029946933867736,-0.005902253759519038,0.00017367705410821643,-0.25971429480761526,0.22043795923446896,-0.04051893161122245,-0.009549116382765531,0.07101185708817634,-1.5957492219298597,-1.5882180390821643,0.2752731682645291,356.6516590693387,36.23050664308617,-0.0026849698256513027,0.1819216660821643,-0.10714991666933868,0.0,-1.4288901976753507,0.20888157581362723,-7.918149135877756,6.87e+18,960.2762319422847,12.071783988056112,-0.01495994716232465,-0.14990406949098198,-0.0010138133887775552,-1.366511564036072,0.20099924135470942,-7.80947195109018,175911357.46533066,-0.01286808696993988,-0.16362384863527055,0.0002268124028056113,6.87e+18,50.46852925637275,51.09031228228457,0.4348659671583166,0.11393032566933868,10.221520071903807,12.808226256833668,-0.05173411131462926,0.8828139670140279,-0.27458972508817636,134.95534506953908,169716581.71402806,455.04228954188375,12.044917021142284,95977.46502661322,1.1403710719859719,-0.01003188939478958,0.03633124931262525,-1.5985889047034068,0.697154096507014,0.00952481327254509,0.016259595773547093,-0.7166735027234469,0.0,0.53816693198998,-0.6057828328356714,0.15715823733867734,-0.13417597384168337,-0.06535692986172345,0.13814064895991984,398727114.6058116,327373840.0613226,455200.55860641284,13.654156863106211,-1.7424022278256512,-13.566027958537074,-0.9078987100741484,4.584349913006013,39.87141370000001,32.7364371,143.72585742825655,74.75377768593187,-55.43705610046092,-1.0701623051282565,-12.861272270821644,-0.1805690836212425,1.0710564290861724,1.0154155565891783,1.6053327876332666,55.67835496805611,-0.008036074050100199,-0.0736487265270541,-0.003575732739478958,0.0,0.0,0.0,0.0,0.0,1.0
175689005.0,-0.0013124862565130264,0.1445692660240481,-0.15907310964328658,0.0,1.0,1420.0801603206412,2000.0,1000.0,1500.9799599198398,1498.0200400801602,1572.5608447815632,11.921758734028057,11.913682227054107,12.176535565531061,10.7167563697996,10.953202544989981,11.962786193527053,12.226838374268537,86.34516360406813,86.34516360406813,12.071937175490982,-0.0006025752284569138,-0.005901636172344689,0.00017402449298597192,-0.25974795000601203,0.22048690397795592,-0.040552448010020045,-0.009636343228456915,0.06469770511022044,-1.5962640381623245,-1.5882293563727454,0.2903610413306613,355.7696675366733,35.85935431885772,-0.0026712714248497,0.1827869602745491,-0.10706666902204409,0.0,-1.3858536167114228,0.2482018000761523,-7.8588414034549094,6.125230460921844e+18,960.2678009362726,12.071757196993987,-0.00836151288977956,-0.15482446024448898,-0.008771178735470942,-1.4129402471563126,0.23202414413426856,-7.8793962151603205,175982389.03166333,-0.0046886580661322655,-0.14886882346292588,0.0007889218096192386,6.125230460921844e+18,50.459628962444896,51.10766354134269,0.05757457073346697,0.23778580423446893,10.221637780821643,12.927996670460923,-0.05412716836472946,0.7457622485611222,-0.27505505783166334,135.1280226288577,169803346.96813628,454.923040327455,12.044810739138276,95978.8279340481,1.140387248769539,-0.010056954781563127,0.030570364258517037,-1.5991630760961926,0.6969716046432866,0.007455422162324649,0.014258645521042085,-0.7169180236733467,0.0,0.1040296874649298,-0.023593585739478964,-0.11619250099999978,-0.12508592205811622,-0.06566033286172344,0.12891499173146292,398727101.6282565,327373708.02464926,455274.5233995992,13.504600417535071,-1.615484017276553,-13.434448103266533,-0.7926958093386774,4.592392637102204,39.87141370000001,32.7364371,143.63013934509019,73.63330158861724,-55.448543341342685,-0.9818027009038077,-12.774761089498998,-0.04189340665931865,0.9270003424308617,1.0221828481963926,1.6350925919398798,55.68984137975952,-0.006356822823647294,-0.04737179153507015,-0.004414147278557114,0.0,0.0,0.0,0.0,0.0,1.0
175764898.0,-0.0017564655971943881,0.14506163501002006,-0.1597510291923848,0.0,1.0,1417.0721442885772,2000.0,1000.0,1500.9997738997995,1498.0002261002005,1573.1535793747496,11.870164527074149,11.862166392705412,12.123840638637274,10.66930694975952,10.904667953987977,11.813402371022043,12.074164955450902,85.70135576088175,85.70135576088175,12.07183305458918,-0.0006021550741482966,-0.005901021406813627,0.00017437279158316634,-0.2597815146072144,0.2205358107735471,-0.040585814012024046,-0.009723570074148296,0.058383553108216434,-1.5967788543947896,-1.5882406746472946,0.3054489143967936,354.88767600400803,35.488201994629264,-0.0026578807835671344,0.18377368636472946,-0.10695882158116232,0.0,-1.362633918751503,0.2939122267655311,-7.837700187543087,1.278677354709418e+18,960.2628005062124,12.071821091322645,-0.014182804124248495,-0.1541140821543086,-0.013656916835671344,-1.3899911750240481,0.24843747564128263,-7.753086781272545,176053420.69559118,-0.012033458156312626,-0.14942817037474948,-0.004864234811623247,1.278677354709418e+18,50.450065107174346,51.125126285611216,-0.3201989408957917,0.3619962426813627,10.221756232985971,13.048071386553106,-0.05652629683767535,0.6061040696492986,-0.2755206059739479,135.30088541462925,169883001.81002006,455.07025576833666,12.0448,95977.13507587175,1.1403671193887777,-0.010049675799599199,0.023683262809619236,-1.5997411240781565,0.6967845243687374,0.004992234985971944,0.011854834124248495,-0.7171650343266532,0.0,0.1600646389218436,0.15850412197394786,-0.269422068450902,-0.11627333864729458,-0.06542167542084168,0.1250142103767535,398727090.53226453,327373576.68236476,455329.59493687376,13.376432691242485,-1.4956953054108217,-13.306432498697395,-0.6525393779759519,4.600248246410821,39.87141370000001,32.7364371,143.5501606801603,72.60349252250501,-55.44614959432866,-0.9076419843987976,-12.703972985951905,0.0859320275450902,0.9649455574709419,0.8500373273046091,1.6005813149819639,55.68744759432866,-0.005259652933867735,-0.04312958295591182,-0.005173404496993989,0.0,0.0,0.0,0.0,0.0,1.0
175844760.0,-0.0019706367334669335,0.14887290363326652,-0.16506020591382767,0.0,1.0,1417.0,2000.0,1000.0,1501.0,1498.0,1576.887775551102,11.81857031991984,11.810650558156313,12.071145711743489,10.621857529719438,10.856133353266532,11.700842733527054,11.959114281122245,84.98549497641284,84.98549497641284,12.07201373268537,-0.0006017349198396794,-0.005900405669338677,0.0001747210901803607,-0.25981507920841684,0.22058471754108216,-0.040619180014028054,-0.009810795947895792,0.0520694011262525,-1.5972936715991983,-1.5882519928937875,0.3205367884348697,354.0056844713427,35.1170496704008,-0.0026407855731462927,0.1848594691743487,-0.10685665545891784,0.0,-1.3823643950521043,0.24362466900601207,-7.768829595076152,3.601543086172343e+18,960.2562023420842,12.071950243527056,-0.0025806750901803694,-0.16499168386773547,-0.012418050182364731,-1.3399856374288577,0.22728774102004004,-7.7488930173807615,176124452.26432866,-0.008617147817635274,-0.15019104070541084,-0.013029255757515026,3.601543086172343e+18,50.419083311803604,51.14812781707415,-0.6525463164529057,0.4537304124589178,10.221760510901802,13.129824639218437,-0.05816127913827655,0.4057879583827656,-0.2709357723527054,135.4790599709419,169966684.30180362,454.94540622104194,12.044849704709419,95978.56151729458,1.1403840431603207,-0.009864645897795591,0.02639674558517034,-1.6001534249699398,0.6966292079158317,0.006032451649298597,0.012732460763527053,-0.717292941254509,0.0,0.10596689068537066,0.21232633037675347,0.39586750005009985,-0.11223103541082165,-0.07490658107214429,0.11433917554709419,398727079.3571142,327373445.4460922,455384.5044791583,13.248448248116233,-1.3759676873126252,-13.178447436813627,-0.512169114971944,4.608102251340682,39.87141370000001,32.7364371,143.47512209879758,71.58116138132264,-55.434304419478956,-0.8373003891302605,-12.641810337174348,0.2115371981503006,0.8999047031843688,0.7680045535651303,1.515234146018036,55.675602419478956,-0.0040995653346693394,-0.03648411155911824,-0.0058879320561122245,0.0,0.0,0.0,0.0,0.0,1.0
175920912.0,-0.0030628509519038077,0.16380569331262526,-0.16580022157314628,0.0,1.0,1416.0901683366735,2000.0,1000.0,1500.9892178917835,1498.0107821082165,1580.9892178917835,11.76697611276553,11.759134733607215,12.0184507848497,10.574408109679359,10.80759876230461,11.582269905090179,11.837925570641282,84.1859494050501,84.1859494050501,12.072525186833667,-0.0006013157334669339,-0.005899790875751503,0.00017506942084168336,-0.2598486438096192,0.22063362433266534,-0.04065254598396793,-0.009898022765531063,0.04575524914428858,-1.5978084878597196,-1.5882633101963926,0.3356246615290582,353.123693035471,34.74589734617234,-0.002626131625250501,0.186083503751503,-0.10675475172745491,0.0,-1.3842047195370741,0.17763348806012025,-7.742289608486974,6.845951903807615e+18,960.2551181102205,12.072131334789578,-0.014369878715430865,-0.17432626518036073,-0.019464937767535072,-1.336026721727455,0.15594585101603206,-7.799690181951903,176195483.83066133,-0.006299540809619238,-0.15692797331863728,-0.018255651569138276,6.845951903807615e+18,50.331747266733466,51.18570284396794,-0.8653698906633266,0.460014054503006,10.221464339038075,13.110747712044088,-0.05778566702805612,0.04587062995190383,-0.2530625369298597,135.67121101703407,170053468.41883767,454.9325919887776,12.044989459338678,95978.73025102205,1.1403860991543087,-0.009789587066132263,0.02154866133266533,-1.6007305028076153,0.6964337302665331,0.004322783799599199,0.011015831973947897,-0.7175235184869739,0.0,-0.1263684983486974,0.30471515868136273,-0.43948260169338677,-0.10533135729458917,-0.07562379105611222,0.10225872740881763,398727069.3539078,327373314.10981965,455422.3732168337,13.134905008737476,-1.2677932033647294,-13.076457374629259,-0.38912846668136275,4.61555305379559,39.87141370000001,32.7364371,143.40299928557118,70.51729269677355,-55.41159931206413,-0.7686552386833667,-12.583464319919841,0.34129661778957915,0.8055951788917836,0.6829579168156313,1.5076059534088175,55.652897312064134,-0.002907955805611222,-0.016378431779559117,-0.006624937464929859,0.0,0.0,0.0,0.0,0.0,1.0
175989108.0,-0.0012073612625250502,0.16660759329058114,-0.17035574504208417,0.0,1.0,1414.0721442885772,2000.0,1000.0,1500.0360721442885,1498.9639278557115,1582.1750061583168,11.715381905611224,11.707618899058115,11.965755857955912,10.52695868963928,10.759064171342684,11.434314041282565,11.686665106332665,83.38629307068136,83.38629307068136,12.073037078937876,-0.0006008955751503007,-0.00589917611022044,0.00017541772344689379,-0.2598822074108217,0.2206825311242485,-0.040685911981963925,-0.009985249611222446,0.039441097162324655,-1.5983233040921845,-1.588274628470942,0.3507125345951904,352.241701506012,34.37474502194389,-0.002610801739478958,0.18738368559118235,-0.10665792730460923,0.0,-1.3210981570501001,0.14764526375551104,-7.83238956090982,6.87e+18,960.2660026681363,12.072369576492985,-0.013376739412825647,-0.17808690534669336,-0.019795704563126248,-1.285379594498998,0.2555132069539078,-7.720545954264528,176266515.49338678,-0.013721549573146287,-0.1753520185210421,-0.01599356553306613,6.87e+18,50.243929517935875,51.22340244196393,-1.0771718006573145,0.4655672834408818,10.221165598917835,13.0908088997996,-0.057392868781563126,-0.31541093609018017,-0.2350757150460922,135.86348143166333,170133742.21503004,454.8693866166333,12.045189215651302,95979.42538635271,1.140394330258517,-0.009432739883767536,0.021503809452905805,-1.6011537079178357,0.6962810108096193,0.004433259324649297,0.010871243855711423,-0.7176729943807615,0.0,0.2611468852204412,-0.1267399891523044,-0.31253892444889764,-0.1048426087995992,-0.08585922366733466,0.09397829072344689,398727059.8695391,327373182.8735471,455452.92436893785,13.027563035190381,-1.1645798161603207,-12.985629968957916,-0.2735294272665332,4.62283071502004,39.87141370000001,32.7364371,143.33587135370743,69.45039458122244,-55.37864742378758,-0.703821732965932,-12.530986898797597,0.4694049523827655,0.7676657887975953,0.610607018761523,1.5022263630220443,55.61994542378758,-0.0016689464388777563,-0.0016932262805611298,-0.007368090044088176,0.0,0.0,0.0,0.0,0.0,1.0
176057115.0,-0.0035327087895791563,0.16927476975551103,-0.1705276406232465,0.0,1.0,1414.0,2000.0,1000.0,1500.0,1499.0,1585.194955252505,11.663787708056113,11.656103074509018,11.913060931062125,10.479509269599198,10.710529580380763,11.31744661755511,11.567224035551101,82.58663674591183,82.58663674591183,12.073548971042085,-0.0006004754168336672,-0.005898561344689379,0.00017576698597194387,-0.2599157720120241,0.22073143695591183,-0.04071927797995992,-0.009909217617234468,0.035400745396793595,-1.5988341382144289,-1.5882856813647297,0.36536216791182363,351.3882931773547,34.08788919549099,-0.0025941824669338674,0.18881205116833666,-0.10655753882565129,0.0,-1.3254528451002003,0.17476982084769538,-7.771276523212425,6.87e+18,960.2967067006012,12.072787839398798,-0.004966223352705412,-0.17840981401803607,-0.02955829809619238,-1.3576202151342687,0.15182826222845697,-7.61576037168938,176337547.06332666,-0.008715246865731465,-0.17910143694789582,-0.020747090731462924,6.87e+18,50.14920854368737,51.25441026597194,-1.222587371803607,0.4251328435651303,10.2209847849499,13.024786784248496,-0.05607604401803607,-0.6057044966773546,-0.21775960931262525,136.02773486192385,170217421.63807616,454.87285803647296,12.045446721482966,95979.3639342485,1.1403936989078156,-0.009002531208416834,0.020556820494989983,-1.6017120496132267,0.6960816767915831,0.004246072102204409,0.010386043276553106,-0.7178748056152304,0.0,-0.3068343934048096,-0.6730510793907811,-0.5256124668517033,-0.10028719533266534,-0.09273007993987975,0.08864755417434869,398727050.96432865,327373053.5531062,455473.1002314629,12.927295181382766,-1.067261504034068,-12.897160356793586,-0.14849824910420845,4.629676254889779,39.87141370000001,32.7364371,143.27588326593187,68.42632766094188,-55.33624466725451,-0.6448056476332665,-12.48824260981964,0.5877337433286572,0.7963751943066132,0.5800723153406814,1.3771048238116235,55.57754281124248,-0.0008191856933867737,0.0069047259539078126,-0.007853560645290582,0.0,0.0,0.0,0.0,0.0,1.0
176128944.0,-0.000180487773547094,0.1845288283226453,-0.17858345854509017,0.0,1.0,1410.0,2000.0,1000.0,1499.5656302324649,1499.4343697675351,1592.8677354709419,11.612193500861723,11.604587239959919,11.860366004168336,10.432059849559117,10.661994988977957,11.36413752240481,11.614863236953909,81.78698041150301,81.78698041150301,12.074060873146292,-0.0006000552585170341,-0.0058979456232464925,0.00017611528456913826,-0.2599493366132265,0.22078034375150302,-0.04075264302204409,-0.00970062643486974,0.03320663623647294,-1.59934173797996,-1.5882965206012023,0.37965596750300606,350.5580933494991,33.86947907004008,-0.0025802382084168336,0.1902733259298597,-0.10647457141683367,0.0,-1.2936412559078156,0.17434501383967935,-7.715457241603207,6.87e+18,960.3090713751502,12.073221129338675,-0.012353936290581164,-0.181663145248497,-0.021238688450901804,-1.2917462013967935,0.14397207313627253,-7.511296748573146,176408578.62965932,-0.008456128210420842,-0.18075691198597194,-0.021651420901803605,6.87e+18,50.04386691779559,51.27512276577154,-1.2658672609639279,0.3139461684609218,10.220985411643287,12.88786530769539,-0.05333760074749499,-0.786782688717435,-0.20147540486372748,136.14888393927856,170300902.3561122,454.8845544631263,12.045782124509017,95979.26471501002,1.14039250751503,-0.008598739492985973,0.020174670973947897,-1.6021458306573146,0.6959256586753506,0.004251632248496994,0.010107179496993988,-0.7180295625350701,0.0,-0.2413747155130261,-0.47287681677154325,0.1664035778036072,-0.0975430213747495,-0.09694001389779561,0.08231930875751503,398727043.4675351,327372929.2466934,455467.61657054105,12.844522391583167,-0.9845223917154309,-12.814521860841683,-0.00014030415831663146,4.635453108450902,39.87141370000001,32.7364371,143.21834263186372,67.33917637551102,-55.28053546991984,-0.585888662254509,-12.45077986985972,0.7056904203466934,0.7174545395951903,0.39040020920841684,1.3049070459278558,55.521834431843686,0.00023911867334669348,0.030564813955911832,-0.008199527478957917,0.0,0.0,0.0,0.0,0.0,1.0
176204742.0,-0.002378064440881766,0.19373303697995992,-0.18197744024649298,0.0,1.0,1408.0480961923847,2000.0,1000.0,1500.4961205410825,1498.5038794589175,1596.4966015991988,11.560599293667336,11.553071414929859,11.80767107727455,10.384610429519038,10.613460397975953,11.345524152945892,11.59577913725451,80.9873240770942,80.9873240770942,12.074572765250501,-0.0005996351002004008,-0.005897330813627254,0.00017646363126252505,-0.25998290121442885,0.22082925054709418,-0.040786009024048095,-0.009492035292585169,0.031012528076152304,-1.5998493386573147,-1.5883073588376753,0.3939497661422846,349.7278936128257,33.65106894458918,-0.0025643972965931866,0.19183486248897794,-0.10638248581963927,0.0,-1.2291951734308617,0.14869499449298595,-7.672450756537073,6.87e+18,960.3037654456913,12.073668002945892,-0.003727895891783563,-0.18217712142284567,-0.020224656679358716,-1.322672842482966,0.14961264783567138,-7.583138305777555,176479610.29118237,-0.013047165599198397,-0.1818360118997996,-0.018471039116232463,6.87e+18,49.938460328076154,51.29577229132265,-1.3085225028697394,0.20232678277555105,10.220987148156313,12.750510221122244,-0.05059046208817635,-0.9671929341462926,-0.18519751044488977,136.2697693973948,170384482.5200401,454.7680308378757,12.046175452244489,95980.58559448898,1.1404081688236474,-0.008172057234468937,0.019748979052104206,-1.602679105773547,0.6957343282665331,0.004249856076152304,0.009804767370741482,-0.7182195519318637,0.0,0.43983812177555126,-0.20981939442685352,-0.11137181093587159,-0.0854424276012024,-0.09589474726653306,0.076514962747495,398727036.0779559,327372804.9963928,455461.8365769539,12.761951646753507,-0.9019516484649299,-12.731950706372745,0.14848703237274558,4.641217619128256,39.87141370000001,32.7364371,143.16834867254508,66.33272634683367,-55.21935236244489,-0.5350336475410821,-12.422537189038076,0.8082489639859719,0.6752625346993988,0.36656427997995994,1.2222372876953906,55.46065056264529,0.0011578446533066136,0.049204061813627256,-0.007937070533066132,0.0,0.0,0.0,0.0,0.0,1.0
176269132.0,-0.00024505250300601385,0.1986572389238477,-0.18181983436673346,0.0,1.0,1405.2084168336673,2000.0,1000.0,1499.0,1500.0,1600.8436873747496,11.509005086472946,11.501555580861725,11.754976150380761,10.337161009478958,10.564925806973948,11.342118020721443,11.592255043627254,80.18766774268536,80.18766774268536,12.07508465735471,-0.000599214993987976,-0.005896716048096193,0.00017681193386773547,-0.2600164648156313,0.22087815729058116,-0.0408193750260521,-0.00928344320240481,0.028818419915831662,-1.6003569383787577,-1.5883181980741483,0.40824356568537074,348.89769378577154,33.432658809138275,-0.00255047673747495,0.19344561468136273,-0.10628849873947896,0.0,-1.2113121971663325,0.15875057706613227,-7.6008994580020035,6.87e+18,960.3064063571143,12.074208042144289,-0.009436046603206419,-0.18325344505611224,-0.01796249842885771,-1.289967111488978,0.12853867307615216,-7.592952508795592,176550641.86232466,-0.01347678554509018,-0.18451032375751503,-0.015964074156312624,6.87e+18,49.83028068925852,51.30390924967936,-1.3554441947054108,0.07615548740480951,10.220979143306614,12.614899988456914,-0.04787841729258517,-1.0980152192785573,-0.17572799594388777,136.36241408877754,170468062.5935872,454.77390347294585,12.046629703867735,95980.51846054109,1.1404073220380762,-0.0076787098777555095,0.01418097603607214,-1.6032401188496994,0.6955404478256513,0.0024239355050100185,0.007690120899799598,-0.7184414680440881,0.0,0.11591806477555118,0.2515731755430871,0.021643616248496644,-0.08139733784769539,-0.09412916019038077,0.07698086307014028,398727029.66152304,327372679.96693385,455439.4612144288,12.700566632725451,-0.8370356798517035,-12.674096938917836,0.2723976785791584,4.6461195187394795,39.87141370000001,32.7364371,143.12096310881762,65.27061737112224,-55.146859991723446,-0.48377682124248494,-12.397272942304609,0.909666206250501,0.6150640341442885,0.2717252333787574,1.1489045589178357,55.38815924847695,0.0019414455030060127,0.06387526443486975,-0.007633374537074148,0.0,0.0,0.0,0.0,0.0,1.0
176341138.0,0.001502160420841683,0.21842449531663324,-0.18906742811623248,0.0,1.0,1405.0,2000.0,1000.0,1499.056112224449,1499.943887775551,1610.7577712144289,11.45741087983968,11.450039746312624,11.702281223486974,10.289711589438877,10.516391215971945,11.135803694709418,11.381360864428858,79.38801140883768,79.38801140883768,12.075596549458918,-0.0005987948396793587,-0.00589610128256513,0.0001771611803607214,-0.2600500294168337,0.22092706408216434,-0.04085274102805611,-0.009074852008016032,0.026624310755511024,-1.6008645391002003,-1.588329036310621,0.4225373643326653,348.0674940482967,33.21424868368737,-0.002538115008016032,0.19514157359118237,-0.10619458561723447,0.0,-1.2398308389318637,0.16443147066533065,-7.589865733086173,3.456913827655314e+18,960.3109208304609,12.074810608016032,-0.004773277418837682,-0.17091894139879762,-0.01498825759318638,-1.28700510153507,0.1501476527434869,-7.693815612971944,176621673.42865732,-0.009355852965931867,-0.17575122642685373,-0.018740703426853706,3.456913827655314e+18,49.71943703689379,51.30002562811623,-1.4064645731442884,-0.06399551981563116,10.220961768737475,12.480965992745492,-0.045200086468937875,-1.181199403761523,-0.17279914517034067,136.42792852845693,170551642.75671342,454.7514140242485,12.047117909859718,95980.75321643286,1.1404101939639277,-0.0072262305991983985,0.01955757958116232,-1.6036219855751506,0.6953940543406814,0.004514582076152305,0.009396395462925852,-0.718553056983968,0.0,0.3116719551583165,0.31618181483366653,0.7982120276232456,-0.07964154543887775,-0.09075917379959919,0.07633316710220442,398727023.4739479,327372554.91823643,455414.27708476956,12.642767116012024,-0.7751076224348697,-12.620426371142285,0.3921252477214428,4.650875427775551,39.87141370000001,32.7364371,143.07784446492985,64.23484816032064,-55.06859397727455,-0.43735207437074153,-12.379068861983967,1.0017555214208418,0.5611629015330661,0.18994930914829664,1.0462254989258517,55.30989257797595,0.0031210700120240477,0.09678482815030058,-0.006812029468937875,0.0,0.0,0.0,0.0,0.0,1.0
176408904.0,0.0005469646072144287,0.2283456113787575,-0.18965291146492988,0.0,1.0,1405.0,2000.0,1000.0,1499.9687552705411,1499.0312447294589,1615.7613554549098,11.40581667268537,11.398523921763527,11.649586305991985,10.242262169398797,10.467856615571142,11.157994075851704,11.404021654328657,78.58835507446894,78.58835507446894,12.076108441563125,-0.0005983746853707414,-0.0058954865170340685,0.00017750947895791582,-0.2600835940180361,0.22097596993386773,-0.040886106969939884,-0.008866260865731465,0.02443020259519038,-1.6013721388216435,-1.588339875486974,0.43683116386773546,347.23729422204406,32.99583855823647,-0.0025248585831663325,0.19686012033466932,-0.10609880370541082,0.0,-1.268825511218437,0.1550956623466934,-7.612979333757514,1.528216432865731e+18,960.3169945523047,12.07546543018036,-0.003318570533066131,-0.16219559973947897,-0.020332947761523047,-1.2884296010761522,0.17974157045691377,-7.751086344987976,176692705.09499,-0.004106632681362727,-0.16508096766132266,-0.021618339044088178,1.528216432865731e+18,49.608593393927855,51.29614200655311,-1.4574849515831663,-0.20414652614829654,10.220944403046092,12.347031996513026,-0.04252175558517034,-1.264383588244489,-0.1698702953967936,136.49344287334665,170636830.02545092,454.39810296533074,12.047678290801604,95984.85861727454,1.140458876997996,-0.006874100859719439,0.015345359170340684,-1.6041699211983969,0.6952038663126253,0.003125673036072145,0.007804553120240482,-0.7187633078316633,0.0,0.07588713557915824,0.3826061552164324,-0.05671909557915825,-0.076714878747495,-0.0830587868256513,0.06896800971142286,398727017.66232467,327372429.1116232,455377.2300807615,12.590359821062124,-0.7131795659058117,-12.570350439298597,0.5172450517775551,4.655505752845691,39.87141370000001,32.7364371,143.0385787985972,63.20611938881763,-54.98313070925852,-0.39422799585571144,-12.367219261302605,1.0848571025250502,0.5234753908436873,0.13588358179158316,0.9569196739238478,55.22442864717435,0.003915443661322645,0.1072780829519038,-0.006492327330661322,0.0,0.0,0.0,0.0,0.0,1.0
176476893.0,0.0030944215771543087,0.23915144610420844,-0.18963321519438878,0.0,1.0,1405.0,2000.0,1000.0,1498.10540947495,1500.89459052505,1623.5511022044088,11.35422246553106,11.347008087214428,11.596891379699398,10.194812749358718,10.419322024609217,11.151189072725451,11.39693590697395,77.78869874945892,77.78869874945892,12.076620333667334,-0.0005979545310621242,-0.0058948707515030065,0.0001778577775551102,-0.26011715861923845,0.22102487672945892,-0.040919472967935876,-0.00865766878757515,0.022236093498997998,-1.6018797386072146,-1.5883507137835673,0.4511249625230461,346.40709448376754,32.77742843278557,-0.0025108891022044087,0.19863700976953907,-0.10599366332264529,0.0,-1.25450532645491,0.11663198949098197,-7.653982316222446,6.302885771543086e+18,960.3249420178357,12.076179788997996,-0.0009725204028056111,-0.15127184823647294,-0.016417609074148295,-1.2521606958657314,0.13559052245891784,-7.763674747813626,176763736.66132265,-0.0006554513166332665,-0.16127178351703408,-0.019576397124248496,6.302885771543086e+18,49.48800534316633,51.2715166086974,-1.4811036499138277,-0.3562614474088176,10.220941292625252,12.188368728116233,-0.039348550450901805,-1.303225779735471,-0.16912097910420842,136.5249088176353,170719291.60260522,454.4461725044088,12.048271798336673,95984.28671218437,1.1404521258697395,-0.006289962234468938,0.020821589711422846,-1.6045367986492984,0.6950600614789579,0.005298624813627255,0.009497052609218437,-0.7188693870621243,0.0,-0.00802625748697397,-0.012151575234468928,0.4395570833486974,-0.07303136293186373,-0.08446502546492986,0.07138452634268537,398727012.27314633,327372302.3721443,455324.8595787575,12.544917771362725,-0.6512515084969941,-12.524917771362725,0.6493301063106212,4.659973856559118,39.87141370000001,32.7364371,143.00216000961927,62.1425329707014,-54.88853902541082,-0.3511153106533066,-12.359035500781564,1.1624267303867735,0.5019655000881764,0.07822833103006012,0.9344554047074148,55.129838676553106,0.004866638729458918,0.14028408907014026,-0.005727473541082164,0.0,0.0,0.0,0.0,0.0,1.0
176544883.0,0.0018013203466933883,0.2605666360881764,-0.18858997591382765,0.0,1.0,1405.0,2000.0,1000.0,1499.0,1500.0,1630.7955911823647,11.302628258376753,11.295492261983968,11.544196452805611,10.147363329318638,10.370787433647296,11.260708909519037,11.508928251583168,76.9890424150501,76.9890424150501,12.077132225771543,-0.0005975353086172344,-0.005894255985971944,0.00017820614428857713,-0.26015072228857716,0.2210737835250501,-0.04095283896593187,-0.008326977340681363,0.021214297799599196,-1.6023725943847695,-1.5883615976813628,0.46541874620841683,345.58831278456915,32.62667114801604,-0.002500123601202405,0.2004474531262525,-0.1058789348496994,0.0,-1.2165821156953909,0.21288071569539083,-7.8065406170661324,6.87e+18,960.3567080122244,12.076972280360721,-0.0011081973947895778,-0.14168344717835674,-0.01353226824849699,-1.239491767747495,0.2103563182284569,-7.8520885113006,176834768.22765532,-0.0023648674468937886,-0.1543591138436874,-0.016684719490981964,6.87e+18,49.36172551711422,51.23477575549098,-1.488716795470942,-0.5153645921162325,10.22094650216433,12.015260893567135,-0.03588628572344689,-1.3161674394689378,-0.16964474636072147,136.5364866687375,170802435.7310621,454.28691822164336,12.048923100320643,95986.12577376753,1.140474002488978,-0.005938166653306613,0.01768794190781563,-1.6050707709238476,0.6948742672164329,0.0042966590280561125,0.008280497326653305,-0.7190705901202405,0.0,-0.26437869153306615,-0.6062046352404811,0.010386503434869881,-0.07311592296993988,-0.07910552138276554,0.06487929935270541,398727006.9771543,327372175.8130261,455271.54301262525,12.500370674268536,-0.5898435362885771,-12.480370674268537,0.7795363265851704,4.664429201735471,39.87141370000001,32.7364371,142.97044044248494,61.1448393345491,-54.79478715102204,-0.3136039545571142,-12.356434890841683,1.2283394144208417,0.5053921708917837,0.02547490197194387,0.9110577005731463,55.03608521757515,0.005920188893787575,0.15482009968136273,-0.004945349346693387,0.0,0.0,0.0,0.0,0.0,1.0
176609162.0,0.001878644358717435,0.26981590591583166,-0.19626887300400803,0.0,1.0,1401.99787852505,2000.0,1000.0,1498.0721442885772,1500.9278557114228,1639.984647466934,11.260802924408818,11.25374824260521,11.501481319258517,10.110305791903807,10.332866927474951,11.104608157855711,11.349166029238477,76.18938608064128,76.18938608064128,12.077644117875751,-0.000597112366733467,-0.005893656993987976,0.00017859805611222446,-0.26018662409018034,0.22112141351903808,-0.04097544369338677,-0.007851744615230461,0.02158027229058116,-1.6028479966112223,-1.5883725347214428,0.47971250993987985,344.78304765791586,32.556000648517035,-0.0024667611823647297,0.20228100682765532,-0.10576718462925852,0.0,-1.2029607892204408,0.27957460217434865,-7.923190780777555,6.87e+18,960.3771631841684,12.077929238056113,0.002520518094188364,-0.14377268941482965,-0.015764285825651307,-1.2669196589338678,0.18628635086372752,-8.07860725743487,176905799.89398798,-0.0027261957895791606,-0.14652751221843688,-0.01584425136272545,6.87e+18,49.235445701062126,51.19803490300601,-1.4963299401002004,-0.6744677359599197,10.220951711703407,11.84215305038076,-0.032424021060120246,-1.3291090992024046,-0.17016851368937874,136.54806461983966,170885963.2300601,454.2152101242485,12.049605370561123,95986.96229693387,1.140483899777555,-0.005274218290581163,0.02370429918837675,-1.6054188083426855,0.6947317853787575,0.006692295687374748,0.010130761835671343,-0.7191664082204409,0.0,-0.05081189641282591,-0.18789879707214352,-0.32354278623246363,-0.06212873060120243,-0.0726480948697395,0.06189189209218437,398727003.2370742,327372054.6719439,455198.709193988,12.474958155250501,-0.5399163157895792,-12.454958155250502,0.8676464258396793,4.668617350793587,39.87141370000001,32.7364371,142.9413698372746,60.070870791022045,-54.68629592549098,-0.2760603407695391,-12.35823722961924,1.2900855051062123,0.3918738650340683,0.025470834354709416,0.7506907472444891,54.927595534889775,0.006688826016032064,0.18326577599999994,-0.004184128785571144,0.0,0.0,0.0,0.0,0.0,1.0
176680502.0,0.0030225327975951953,0.29224261993987977,-0.19483143291783567,0.0,1.0,1402.0,2000.0,1000.0,1499.5191393767534,1499.4808606232466,1646.7715430861724,11.287906393126253,11.280953812805611,11.529183316132265,10.146572971202405,10.369839048577155,11.234522042144288,11.48205624238477,75.38972974623246,75.38972974623246,12.07815600997996,-0.0005966709058116233,-0.0058931704288577155,0.00017929311823647296,-0.2602390182785571,0.22116003719038077,-0.040922123182364725,-0.007376331260521043,0.02194798191783567,-1.6033233769579158,-1.5883834726853707,0.4940062736032064,343.9777993298597,32.48543021621242,-0.002434547376753507,0.2041293206052104,-0.10567683341482967,0.0,-1.2165924943567135,0.27954216336072146,-7.987133225843687,6.87e+18,960.3829284573146,12.079043406072143,-0.006821855124248516,-0.13043241934468938,-0.01677982681362726,-1.2096140574108214,0.1054623082064127,-8.0605431061503,176976831.46032065,-0.0020052823266533074,-0.13809148548897793,-0.017103599168336675,6.87e+18,49.12037295220441,51.143234856412825,-1.477616972741483,-0.8223576386132266,10.220900196753506,11.70573282240481,-0.02969664913026052,-1.3067667463246493,-0.1706195493967936,136.5234122559118,170973238.6967936,454.0508904501002,12.050317601903807,95988.82701496994,1.1405060274829661,-0.004788749651302605,0.020835543468937873,-1.605931918821643,0.6945542219859718,0.00583158932264529,0.008958259086172343,-0.7193608131523046,0.0,0.17221689336072124,0.10221381841883875,0.13363196745691502,-0.04862819822244488,-0.066459054501002,0.05611482340280561,398726999.53707415,327371933.7148297,455125.2212527054,12.450186936653306,-0.4903738706112225,-12.430186936653307,0.9543456849418839,4.672796544837675,39.87141370000001,32.7364371,142.91538963527054,59.054175111042085,-54.57910617342685,-0.24431083428657313,-12.365446166813628,1.3402009000821644,0.3251400110681362,-0.06921371241282577,0.6290161075350701,54.82040617342685,0.007249304839679359,0.19942538183166336,-0.003700071571142284,0.0,0.0,0.0,0.0,0.0,1.0
176760532.0,0.0015336528837675343,0.3026957373507014,-0.194772690503006,0.0,1.0,1402.0,2000.0,1000.0,1498.9436840881763,1500.0563159118237,1651.6483803286571,11.31717297486974,11.310323149018037,11.559095141442887,10.185141224148296,10.409161447174348,11.090350220741483,11.334437087855711,74.59007341262524,74.59007341262524,12.078667902084169,-0.0005962297154308617,-0.005892687398797595,0.0001799977034068136,-0.2602919300300601,0.2211983782004008,-0.040866419114228454,-0.006900916905811624,0.02231569054509018,-1.6037987564569138,-1.588394409721443,0.5083000372665331,343.1725510865732,32.414859793907816,-0.002417288977955912,0.20608654466132265,-0.1055832091262525,0.0,-1.2049759483947895,0.1500120574589179,-8.077588940877757,6.87e+18,960.3995313044088,12.080044242324648,0.0038621700080160287,-0.12297741464128258,-0.01604805555911824,-1.2355938689318637,0.16277722911623246,-8.161825922873748,177047863.0266533,-0.01147954693386773,-0.12914112840881764,-0.015948005148296595,6.87e+18,49.00898601074148,51.08249545306614,-1.4502458248857715,-0.9665597091442885,10.22083002763527,11.581378480701403,-0.027210970452905815,-1.272820122236473,-0.17104666381362724,136.48684438517034,171053355.851503,453.88376442625247,12.0510604298998,95990.74749741482,1.140528813987976,0.007598266833667333,0.026997062559118233,-1.5931800151322646,0.699042995260521,0.012306765677354708,0.006721407655310621,-0.7149415690440882,0.0,0.07703523373747578,0.09968435538076215,-0.07944602750701452,-0.051697537146292584,-0.0574633945991984,0.04900417319438878,398726996.0362725,327371811.5458918,455041.0381657314,12.435138569619237,-0.44812356832464934,-12.422430471623247,1.0288913959278558,4.676254570507014,39.87141370000001,32.7364371,142.8919109521042,58.01006910759519,-54.464050379058115,-0.21326875594789582,-12.375864566613226,1.383554789280561,0.3112806346993988,-0.14249709463727453,0.47770589873547104,54.70534990352705,0.007756932276553106,0.22430884109218435,-0.002979763947895792,0.0,0.0,0.0,0.0,0.0,1.0
176828842.0,0.002984927929859725,0.32255557033466936,-0.19395348614228458,0.0,1.0,1402.9158316633266,2000.0,1000.0,1498.9158316633266,1500.0841683366734,1661.6245341402805,11.34643954745491,11.339692493627254,11.589006958356713,10.223709477855712,10.44848383737475,11.1410458796994,11.386270148877756,74.29975328607215,74.29975328607215,12.079491470020038,-0.0005957876012024048,-0.005892204368737475,0.00018070128857715432,-0.2603448417815631,0.22123671921042085,-0.04081071596993988,-0.006425503551102204,0.02268340017234469,-1.6042741368797597,-1.5884053468416834,0.5225938018456915,342.3673028509018,32.3442893616032,-0.002406121392785571,0.20789147864128257,-0.10549756976953908,0.0,-1.1793483086392784,0.11181477904208419,-8.168462874210421,6.87e+18,960.4273545997996,12.081084540460921,0.008509004825651336,-0.11210018730861725,-0.024247099593186418,-1.1889515878416834,0.1471240808817637,-8.294493015158316,177118894.69298598,-0.008432821733466917,-0.11962246891783565,-0.019988014825651313,6.87e+18,48.897599069278556,51.021756059719436,-1.4228746761142284,-1.1107617788356716,10.220759858517035,11.457024138236472,-0.0247252907755511,-1.2388734990641284,-0.17147377907014028,136.45027651442885,171138500.4052104,454.0137779460922,12.051818691302605,95989.28861655311,1.1405115740240481,0.00816758273747495,0.02683677136472946,-1.5935379800781562,0.6989122523927856,0.012449515402805613,0.006459311873747495,-0.7150687117795592,0.0,-0.5283703324068155,-0.1401588148016047,-0.3683088178116243,-0.056472061020040105,-0.0486535585731463,0.038951205591182335,398726992.7430862,327371688.49318635,454949.38460901805,12.426881499258517,-0.4109667344408817,-12.426558593046092,1.0949480101242486,4.679208869182365,39.87141370000001,32.7364371,142.8708631727455,56.95967674787575,-54.344549011082165,-0.1841447741382765,-12.388980795711422,1.4209589953026052,0.29408005393587167,-0.17279053179559123,0.35836163124448894,54.585847706432865,0.008064003575150299,0.24273704683767539,-0.002338097991983967,0.0,0.0,0.0,0.0,0.0,1.0
176904833.0,0.0011667710801603203,0.3356600776252505,-0.1985067445751503,0.0,1.0,1400.2645290581163,2000.0,1000.0,1498.9118236472946,1500.0881763527054,1667.680420240481,11.375706129238477,11.369061829038076,11.618918774468938,10.262277721563127,10.487806235891783,11.282420655811624,11.530645065170342,74.7758618977956,74.7758618977956,12.080784022124249,-0.0005953464869739479,-0.005891721338677355,0.000181405873747495,-0.26039775353306616,0.22127506122044088,-0.0407550118256513,-0.0059500901963927865,0.02305110888777555,-1.6047495172144288,-1.5884162847935872,0.5368875655931864,341.56205461523047,32.2737189392986,-0.00239311846492986,0.2097840897775551,-0.10538863272144289,0.0,-1.190311589238477,0.11655572807815631,-8.269851679480961,5.547855711422845e+18,960.4540075793587,12.082164656332665,0.003723805805611225,-0.09233931713426853,-0.008943821887775549,-1.1888219065931864,0.12047615960921844,-8.436803928294589,177189926.25931862,-0.00018368669739478836,-0.10921584340681362,-0.02421761971543086,5.547855711422845e+18,48.78867851793587,50.93592512513026,-1.4095247857795594,-1.2577625283266534,10.22073369470942,11.372351741883767,-0.023032366743486972,-1.1783075556252505,-0.17187839114629258,136.39032263567137,171220283.7034068,453.8669578370741,12.052607194068136,95990.98001080159,1.1405315549378756,0.00867134314228457,0.031863403885771545,-1.5939215871703405,0.698739004248497,0.014424057048096193,0.008033212478957916,-0.7151860882505009,0.0,0.4153043265931866,-0.3061456185831666,-0.43975301091983976,-0.04893976392785571,-0.04393254202805611,0.041842594611222445,398726989.63226455,327371565.07575154,454854.2399531062,12.420211312865732,-0.3738099005571142,-12.43068687779559,1.1625915039278558,4.682163184270541,39.87141370000001,32.7364371,142.85222885250502,55.94261029070141,-54.226254140460924,-0.1600541194288577,-12.405365948897796,1.4510188730921842,0.24339491818837675,-0.19935906038276555,0.3332867944789579,54.46755232663327,0.008792435717434871,0.26424106484168336,-0.001618583891783567,0.0,0.0,0.0,0.0,0.0,1.0
176972822.0,0.0026310419719438893,0.3547811217214429,-0.19786880961122244,0.0,1.0,1402.8620077014032,2000.0,1000.0,1498.0195653947897,1500.9804346052103,1675.5060252024048,11.404972711022044,11.398431164448898,11.648830590581161,10.30084597527054,10.527128625250501,11.104724313146294,11.348914021042084,75.2592655676954,75.2592655676954,12.082081046753506,-0.000594904372745491,-0.005891238308617235,0.00018211045891783567,-0.26045066528456917,0.22131340223046092,-0.04069930868136272,-0.0054746768416833675,0.02341881842685371,-1.6052248967254508,-1.5884272218296591,0.551181329256513,340.7568063795591,32.20314850699398,-0.002381761547094188,0.21164456523246494,-0.10531154677955912,0.0,-1.3153648538557112,0.1045337611442886,-8.399583131272545,7.585751503006075e+17,960.4628892947896,12.083290757955913,0.01683889795991982,-0.083715537,-0.013896770793587185,-1.1569939470941883,0.1441679252525051,-8.575228653378757,177260957.82565132,0.004320242523046087,-0.09721820455110222,-0.021795992981963934,7.585751503006075e+17,48.68011431921843,50.84646882627254,-1.398200768769539,-1.4051676471142285,10.220713894468938,11.293412832865732,-0.02145398418637275,-1.1138954971082164,-0.17227975129058115,136.32698971002003,171305995.51102203,453.7036219,12.05339677993988,95992.85060350702,1.1405538278376752,0.008815926030060121,0.03010644776953908,-1.5943860794228457,0.6985836596452906,0.013848080633266533,0.007364370306613226,-0.715355594246493,0.0,-0.10760641934268439,0.39472044708817544,-0.48712687980561065,-0.04879541230861724,-0.032793638935871755,0.03519672934068137,398726987.1106212,327371440.0799599,454744.88576553104,12.42,-0.3366530657655311,-12.434815805571143,1.2366938195891783,4.685117562661323,39.87141370000001,32.7364371,142.8352512498998,54.86181396591183,-54.098636473927854,-0.13776834839478963,-12.425142423066132,1.47454456647495,0.27085218447494985,-0.23125312374348692,0.2473043026993989,54.339935418897795,0.009223401981963928,0.28205279917234466,-0.0009487681042084174,0.0,0.0,0.0,0.0,0.0,1.0
177044813.0,0.0013501661583166296,0.3592390408917836,-0.18846188208416834,0.0,1.0,1405.0,2000.0,1000.0,1498.9038076152306,1500.0961923847694,1679.3259698256513,11.43423929280561,11.427800500821643,11.678742406693386,10.339414228977956,10.566451024609218,11.256629134789579,11.504094433587174,75.74266922759519,75.74266922759519,12.083378063226453,-0.0005944623547094189,-0.005890755278557113,0.00018281504408817635,-0.26050357613226455,0.22135174324048096,-0.04064360544088177,-0.004405957170340679,0.024075373218436873,-1.6049952349038077,-1.5884215849378758,0.5433150551763527,339.95219144188377,32.178327136052104,-0.0023747813066132264,0.21346457146492986,-0.10523030610621242,0.0,-1.2753728281222445,0.15399787228256517,-8.493411493032065,12.084454626052105,960.4751180811623,12.084454626052105,0.021027292869739492,-0.06268403815430859,-0.01742564989779559,-1.167128106240481,0.2228300045430862,-8.692352210392785,177331989.49198395,0.007440995284569141,-0.08262841984569137,-0.023851316575150307,12.084454626052105,48.57101504743487,50.75526893791584,-1.3877784390420842,-1.5529272284028057,10.220689990941885,11.215794928977955,-0.01990210397995992,-1.048325962004008,-0.17268201153907817,136.26273310260518,171387613.22264528,453.55444471543086,12.054213678977957,95994.5347231463,1.1405738973727455,0.009233836635270542,0.03575932103206413,-1.5947449170621242,0.698411026278557,0.01601728890180361,0.0091867678496994,-0.7154586443987976,0.0,0.005681991585170104,0.4347548004168347,-0.26230641223647305,-0.04702064784168337,-0.024093983703406794,0.0323882883987976,398726984.6250501,327371314.9312625,454635.0666857715,12.42,-0.2994962317895791,-12.438944754509018,1.3110074464408819,4.688071944168336,39.87141370000001,32.7364371,142.82027791422846,53.85434404040079,-53.979269737615226,-0.11864255405611221,-12.447525809559117,1.4877046549739479,0.19100416157515024,-0.29601152927054114,0.09594125163727442,54.220567937054106,0.024679893130260547,0.30430424597394795,-0.0027043329278557153,0.0,0.0,0.0,0.0,0.0,1.0
177113203.0,0.0019293236953907826,0.3795141380480962,-0.1909833948757515,0.0,1.0,1404.0,2000.0,1000.0,1498.0,1501.0,1689.5991983967936,11.463505873587174,11.45716984527054,11.708654231803607,10.377982472685371,10.605773413967936,11.375880030040081,11.625890410060121,76.22607289749499,76.22607289749499,12.084675078777554,-0.0005940211442885772,-0.005890272248496995,0.00018351962925851703,-0.2605564877875752,0.221390084250501,-0.04058790139278558,-0.0023440923186372757,0.02521543135270541,-1.6035853876192385,-1.5883882052905813,0.49835466153507013,339.14863645671346,32.23008598406813,-0.0023647675671342686,0.2152844825310621,-0.10516228605410823,0.0,-1.2251435379118238,0.16354115845691386,-8.628855655727456,2.1415230460921815e+18,960.4953593032064,12.085653551162325,0.015308864681362722,-0.06367766416833667,-0.021491801398797583,-1.2033683715771544,0.214416351773547,-8.83146298431463,177403021.05831665,0.011376873024048094,-0.07232273974148297,-0.02220348048897796,2.1415230460921815e+18,48.44934719725451,50.623112849178355,-1.3985363753527054,-1.7090129715911824,10.220569568557114,11.16920703486974,-0.018972753206412826,-0.95556779847495,-0.17310539868937874,136.17677936452907,171472817.76593187,453.4008066346694,12.05503341268537,95996.30833865731,1.1405949148997996,0.009513236408817636,0.03286957789178357,-1.5952379492344688,0.698254500985972,0.01508324797194389,0.008073813579158318,-0.7156449457014028,0.0,0.451139592428858,0.2838346014729461,0.20703229870340673,-0.04530759139879759,-0.018528558258517038,0.03029607505811623,398726982.5002004,327371193.2521042,454521.25213486975,12.426146797975953,-0.26848619818236474,-12.44,1.35766053298998,4.690382663286574,39.87141370000001,32.7364371,142.80686391222446,52.78589900935872,-53.85268595599199,-0.10086231406813628,-12.471539714028056,1.4934801683507013,0.17775308181162325,-0.34481270222044086,0.007316672348697435,54.09398459390782,0.02608041931262525,0.31702180506613226,-0.0034187141222444886,0.0,0.0,0.0,0.0,0.0,1.0
177192792.0,0.002208206414829662,0.3859392313046092,-0.186246721997996,0.0,1.0,1406.687374749499,2000.0,1000.0,1498.1042084168337,1500.8957915831663,1692.770176521042,11.49277245533066,11.486539180681362,11.738566048917836,10.416550726392787,10.645095804368738,11.30061848991984,11.548812045971944,76.70947655739478,76.70947655739478,12.085972104328658,-0.0005935790300601202,-0.005889789218436874,0.0001842242144288577,-0.26060939953907813,0.22142842526052106,-0.04053219814428858,-0.0002682436913827625,0.026362297511022044,-1.6021589230040079,-1.5883544351022045,0.4528719703406813,338.34509649098203,32.28292310543086,-0.002356613240480962,0.21710869135470942,-0.10509433698597195,0.0,-1.203136751753507,0.10713308170541075,-8.81422315951503,6.656372745490988e+18,960.5243604456914,12.086915483747495,0.018054504008016056,-0.04828961357114228,-0.014528303619238462,-1.2674750315330663,0.10940059431262508,-8.984352315022043,177474052.71422845,0.01589156360120241,-0.06717063968937874,-0.015247934731462916,6.656372745490988e+18,48.327075702344686,50.488989712745486,-1.4103115594068139,-1.8654986053106215,10.220444518657315,11.124109452264529,-0.018073302334669337,-0.8615038159739478,-0.1735298004769539,136.08978345511022,171555175.08657315,453.2748052963928,12.055853146392785,95997.77722507014,1.1406124583126254,0.009864977488977958,0.03907460721643288,-1.5955599901783568,0.6980865374208417,0.01742756922845692,0.010111775052104213,-0.7157293360080161,0.0,0.08814358330661343,0.3967578777014035,0.07872480157915784,-0.04462577849098196,-0.012033908847695375,0.028290284549098193,398726980.4042084,327371072.69418836,454406.06594268535,12.43440387749499,-0.23958643872545085,-12.44,1.394817408789579,4.692472405018036,39.87141370000001,32.7364371,142.79500375130257,51.743752869839675,-53.72950492993988,-0.08567430954709417,-12.497144381242485,1.4931020468256513,0.20454090998597202,-0.3483253958236473,-0.09435655276753525,53.970803929939876,0.025046054627254507,0.34099981082364733,-0.0040053777474949905,0.0,0.0,0.0,0.0,0.0,1.0
177264349.0,0.014177725004008017,0.4026467801242485,-0.18649132584168338,0.0,1.0,1406.0,2000.0,1000.0,1492.8710897294588,1506.1289102705412,1700.6753507014027,11.522039037074148,11.515908516092184,11.768477865030059,10.455118971182365,10.68441820268537,11.37119052769539,11.620768198156313,77.1928802272946,77.1928802272946,12.087269119879759,-0.0005931379158316634,-0.005889306188376754,0.00018492879959919838,-0.26066231129058115,0.22146676627054107,-0.04047649410420842,0.0018076049358717436,0.027509164460921845,-1.600732458496994,-1.5883206640220442,0.4073892799378757,337.541556514429,32.33576022679359,-0.002347225913827655,0.21892945228657315,-0.10502973875551103,0.0,-1.2027965751663328,0.04681872203206412,-8.854612052679359,6.87e+18,960.5461422022045,12.088503241603206,0.016711210649298598,-0.04080552210220441,-0.01801317527254509,-1.1533553334428859,0.2123930432985972,-9.091567268863729,177545084.29098198,0.011079058689378756,-0.05075460766332665,-0.014639980246492986,6.87e+18,48.20706405833667,50.35323534364729,-1.4174808329398796,-2.016598194561122,10.220328334088176,11.087173758236473,-0.01733691130460922,-0.7683160866292587,-0.17394446398797594,136.0044098,171638184.25591183,453.14408418637277,12.0566728701002,95999.2483788978,1.140629874699399,0.010101885683366734,0.03849035769739479,-1.5960361358597195,0.6979192833446894,0.017303544501002004,0.00981892648496994,-0.7158999420501002,0.0,0.6183918247154309,0.6760311784068137,0.18710747611823647,-0.043073969677354704,-0.006282462022044086,0.026907553645290582,398726978.5865731,327370951.15531063,454288.66196392785,12.446819271362726,-0.21207278748496994,-12.44831665761523,1.423657602787575,4.694561994254509,39.87141370000001,32.7364371,142.78455630701401,50.70412337787575,-53.6072343137475,-0.07230836676352706,-12.523693625851704,1.4866416931543087,0.18197481226052103,-0.3468026897955912,-0.19431585567134269,53.84853363478958,0.02329908728456914,0.3448923187975952,-0.00413364850501002,0.0,0.0,0.0,0.0,0.0,1.0
177336771.0,0.009242857044088185,0.4091901878196393,-0.18828936983366734,0.0,1.0,1405.0,2000.0,1000.0,1494.887775551102,1504.112224448898,1703.887775551102,11.551305618817635,11.54527785262525,11.798389681142286,10.493687223807616,10.723740593166333,11.406156261763526,11.656488385931864,77.67628388719439,77.67628388719439,12.08856614543086,-0.0005926958016032064,-0.005888823158316633,0.00018563338476953908,-0.26071522304208417,0.22150510728056114,-0.04042079084769539,0.0038834536753506984,0.02865603051503006,-1.599305994773547,-1.5882868937254508,0.36190658875150306,336.7380165482966,32.38859734815632,-0.002337433773547094,0.2206963822785571,-0.10498590458517033,0.0,-1.1830376420941884,0.08401708429659305,-8.957160272809618,6.87e+18,960.5792472366734,12.089932436713426,0.015010505046092193,-0.027267204697394794,-0.011837722356713432,-1.20102341304008,0.18910567170741466,-9.208303761605212,177616115.85731462,0.008955921559118236,-0.037275077727454926,-0.011854645282565135,6.87e+18,48.09912725687375,50.20876504106213,-1.400039886773547,-2.138919166721443,10.220259550541082,11.093848496733466,-0.017471780591182363,-0.6798103383146293,-0.17430709500801603,135.92770343947896,171721764.41342685,452.98311051943875,12.057492603807615,96001.12067402805,1.1406522026292585,0.010360251653306613,0.04455436598396792,-1.5963509761703405,0.697748876008016,0.019565689454909815,0.011839814216432862,-0.7159767514148297,0.0,0.06114210263125952,0.2863625681182367,0.293118811342686,-0.04308547644488978,-0.0004907605370741601,0.024180416104208423,398726977.36733466,327370827.7466934,454166.95913386776,12.467295056893787,-0.18724593050300606,-12.472754070721443,1.4363769804929858,4.6966512870681365,39.87141370000001,32.7364371,142.77530242404808,49.62810153092184,-53.481538921002006,-0.06008663115831665,-12.550246653807616,1.4745484804388778,0.08408542650701412,-0.33848455880561135,-0.23634286712224445,53.72283838915832,0.022138857545090183,0.3655568695711423,-0.0033882686132264534,0.0,0.0,0.0,0.0,0.0,1.0
