timestamp,control[0],control[1],control[2],control[3],control[4],output[2],output[3],output[4],output[5],output[6],output[7],indicated_airspeed_m_s,equivalent_airspeed_m_s,true_airspeed_m_s,equivalent_ground_minus_wind_m_s,true_ground_minus_wind_m_s,indicated_airspeed_m_s.1,true_airspeed_m_s.1,differential_pressure_raw_pa,differential_pressure_filtered_pa,temperature,gyro_bias[0],gyro_bias[1],gyro_bias[2],accel_bias[0],accel_bias[1],accel_bias[2],nav_roll,nav_pitch,nav_bearing,target_bearing,xtrack_error,wp_dist,acceptance_radius,rollspeed_integ,pitchspeed_integ,yawspeed_integ,additional_integ1,x,y,z,temperature.1,pressure,temperature.2,gyro_rad[0],gyro_rad[1],gyro_rad[2],accelerometer_m_s2[0],accelerometer_m_s2[1],accelerometer_m_s2[2],timestamp_sample,x.1,y.1,z.1,temperature.3,altitude_sp,altitude_filtered,height_rate_setpoint,height_rate,airspeed_sp,airspeed_filtered,airspeed_derivative_sp,airspeed_derivative,throttle_integ,pitch_integ,timestamp_sample.1,baro_alt_meter,baro_temp_celcius,baro_pressure_pa,rho,roll_body,pitch_body,yaw_body,q_d[0],q_d[1],q_d[2],q_d[3],thrust_body[0],xyz[0],xyz[1],xyz[2],xyz[0].1,xyz[1].1,xyz[2].1,lat,lon,alt,vel_m_s,vel_n_m_s,vel_e_m_s,vel_d_m_s,cog_rad,ref_lat,ref_lon,x.2,y.2,z.2,vx,vy,vz,ax,ay,az,dist_bottom,roll,pitch,yaw,thrust_body[0].1,isTakeoff,isClimbing,isDescending,isCruise,isLand
57025705.0,-0.00454717,-0.068376924,-0.017663569,0.14859423,0.0,1491.0,1500.0,1146.0,1501.567113,1497.432887,1468.0,16.06499445,16.10689629,16.50453725,16.0247517,16.42036656,16.81451218,17.22878915,174.2829163,174.2829163,11.7361557,-0.00128327,-0.005830461,0.001060863,-0.159799404,-0.00484278,-0.003613424,0.011286236000000002,0.011737703,1.55353388,1.5596319630000002,0.73995724,76.01148522,46.72574584,-0.024456156,-0.006825115,-0.015669597,0.0,-0.606239665,0.157329574,-6.967638796,6.87e+18,954.3024191,11.73444853,-0.010881227,-0.140839977,-0.022722595,-0.585918099,0.16775659699999998,-6.985628067,57211239.85,-0.007030315,-0.14370029,-0.02438334,6.87e+18,100.04579,103.5748515,-0.176452949,-0.6870511509999999,15.37015307,16.09829432,-0.014562826,-0.264652292,-0.315182996,49.61738666,30234302.86,399.579007,12.404602,96616.72752,1.147966605,0.013423311,0.010796406,1.5534093409999998,0.71322613,0.001003155,0.008554355999999999,0.70088109,0.14266230300000002,-0.565863864,0.421012129,0.162176142,0.000670699,0.001876472,-0.004592976,398714138.0,327364372.0,400125.0436,0.0,0.006521304,-0.013042608999999998,0.0,5.328516212,39.87141370000001,32.7364371,0.029218305,-0.01759365,0.011176467,0.035226036,-0.022618851,0.048890969000000006,-0.0033831670000000003,-0.079677777,0.031181576000000006,0.1,0.080759868,-0.020136213,-0.004491055,0.143333909,0.0,0.0,0.0,1.0,0.0
57233579.0,-0.0025752519819639275,-0.056980028501002006,-0.0172570635751503,0.14429575134268538,0.0,1491.0,1500.0,1144.0,1500.1239839478958,1498.8760160521042,1473.7635270541082,15.963297350941884,16.005637123727457,16.400746186292587,15.954488474048096,16.348336294288575,16.526669936012023,16.934302411122246,169.32871323647294,169.32871323647294,11.734370668036071,-0.001277154897795591,-0.0058267838697394795,0.0010488182284569137,-0.15964676651302606,-0.004817459825651303,-0.0030748905591182363,0.014013123028056112,0.011036166486973949,1.553350776745491,1.5590901010040081,0.7446791774448898,72.67267292248495,46.49029198501002,-0.0242455721743487,-0.006334856773547094,-0.015517913627254508,0.0,-0.6310344383967936,0.11123936570541082,-7.315234279537074,6.19809619238477e+18,954.2657540975952,11.732331766733468,-0.003661314382765531,-0.12736214880561122,-0.02637639647294589,-0.5564731896252505,0.1866670812985972,-7.321214385166333,57416347.16126252,0.002004021042084168,-0.12681536020440884,-0.015535048118236472,6.19809619238477e+18,100.04579,103.43870040681362,-0.169645360246493,-0.7350766161983968,15.37009365256513,16.0936362052505,-0.014470841853707415,-0.19825353555110226,-0.31677018898196396,49.18462746156313,30475644.646593187,399.6609902921844,12.404602,96615.77180733466,1.14795524753507,0.016216407551102204,0.009742484364729458,1.5532251972765532,0.7132875120781562,0.002369414513026052,0.009157132641282565,0.7008076996633267,0.1433257568456914,-0.032649287484969924,0.2714357359338677,0.0314844825751503,0.0006556290621242485,0.00043903212825651284,-0.0022564164529058116,398714138.0,327364372.0,400129.06561342685,0.0,0.01,-0.011557337715430861,0.016885325096192387,5.308145449432866,39.87141370000001,32.7364371,0.03279734763527054,-0.014843283498997996,0.010931780428857715,0.037444373238476956,-0.020905101236472948,0.047751992691382764,0.042839873150300606,0.016616782096192384,0.02234064964729459,0.1,0.08865211881963928,0.0006981849659318635,-0.007729918573146292,0.14300622941883767,0.0,0.0,0.0,1.0,0.0
57431562.0,-0.0016866514248496994,-0.04498203724448898,-0.016790650793587172,0.144750800501002,0.0,1491.0,1500.0,1144.4729458917836,1501.0,1498.0,1480.0701916873747,15.861600246613227,15.904377957454908,16.29695512785571,15.884225248096191,16.276306018577152,16.29899962581162,16.701248410440883,164.37451022565128,164.37451022565128,11.732585646072144,-0.0012710407955911823,-0.005823106739478958,0.0010367734569138277,-0.159494128498998,-0.004792140651302605,-0.002536357118236473,0.016740011056112225,0.010334629973947896,1.5531676740180362,1.5585482394809618,0.7494011153627255,69.33386063024048,46.25483814002004,-0.02405878034268537,-0.00577570856513026,-0.015470584436873748,0.0,-0.47901271621442887,0.2614859046993988,-7.684882774212425,9.539679358717435e+17,954.2332892901804,11.730818912505011,0.010689739278557113,-0.11483001378757515,-0.01239493719238477,-0.5382924686893789,0.2561577422264529,-7.653773717032063,57621454.47779559,0.011568433527054108,-0.10845107244288577,-0.010116072853707414,9.539679358717435e+17,100.04579,103.28824003607214,-0.16212243627655312,-0.7665473351643286,15.37000590747495,16.086672898677353,-0.014333334551102205,-0.1426013650460922,-0.3183709360821643,48.7609707854509,30716986.43318637,399.5154423268537,12.404602,96617.46877571143,1.1479753715470942,0.01819843179559118,0.010049854501002004,1.553058972208417,0.7133435252745491,0.0029694059498997995,0.009961002410821642,0.7007374606733466,0.14242696494789578,0.19086274407014026,0.09635628457114229,-0.05233616637074154,0.0012166341703406815,0.002277900879759519,0.001363049348697395,398714137.1,327364372.0,400118.6703244489,0.0,-0.008605697547094188,-0.00034342729458917835,0.04543247474348698,3.797196685028056,39.87141370000001,32.7364371,0.035789972126252505,-0.013170241380761524,0.008679498298597195,0.039970715076152304,-0.022205066759519037,0.041634404679358715,-0.006432435723446893,0.010358485951903808,0.014425578567134268,0.1,0.08315184630861723,0.017931615899799597,-0.008708477625250502,0.14377855370741482,0.0,0.0,0.0,1.0,0.0
57644511.0,-0.0008094594629258517,-0.031959917004008014,-0.015722751649298598,0.1441767048697395,0.0,1492.0,1500.0,1144.0,1500.0,1499.0,1486.2905811623245,15.759903142825651,15.803118791182364,16.193164068877756,15.813962012144287,16.204275752865733,16.142371370741486,16.54090922531062,159.42030720941884,159.42030720941884,11.730800614108215,-0.0012649256933867734,-0.005819428609218437,0.0010247286853707414,-0.15934149053907817,-0.0047668204769539075,-0.0019978236773547093,0.02126281554308617,0.010198353338677356,1.5552127229398798,1.5596092088857716,0.6529307802705412,66.01451075903807,46.084303895891786,-0.023876513679358717,-0.00515119146492986,-0.015510619553106213,0.0,-0.5396497107635271,0.28025715213627256,-8.166877182402805,6.87e+18,954.20764,11.729726953727456,0.010323773318637274,-0.09260570173747495,-0.01997017203406814,-0.5282587392264528,0.1729775078256513,-8.097810381851703,57826561.78669339,0.012266455715430863,-0.09763008342084169,-0.018948174042084168,6.87e+18,100.04579,103.12975058857715,-0.15419801211222445,-0.7850882380501002,15.36978366230461,16.078242234208417,-0.01416917567735471,-0.09516514143486975,-0.31996815243086174,48.348553521983966,30958328.21977956,399.6150484044088,12.404602,96616.32694987976,1.1479618138096193,0.031528165444889775,0.010518650779559118,1.56213187746493,0.7101238011282566,0.007492175711422846,0.014832379811623246,0.7038807372044088,0.14289637285971946,0.1686718710480962,-0.05315549393987978,0.1344636748777555,0.00046876322645290577,0.0051552531342685375,-0.002334120194388778,398714138.0,327364372.0,400109.4571134269,0.0,0.0022853791442885773,0.0,0.0,4.046275207466934,39.87141370000001,32.7364371,0.03841011860120241,-0.012372303296593187,0.006974254312625251,0.041662426755511024,-0.022988639527054107,0.03647660013627255,-0.020273474885771543,-0.08174924278957917,0.024618689635270544,0.1,0.07776530893787575,0.034603920106212424,-0.009601503981963928,0.14218400086172345,0.0,0.0,0.0,1.0,0.0
57856986.0,-0.00026902402404809623,-0.02058987865531062,-0.014813669501002004,0.14399628629258515,0.0,1492.054108216433,1500.0,1143.0,1499.054108216433,1499.945891783567,1492.0255225210421,15.658206043767535,15.70185962490982,16.089373005711426,15.743698786192384,16.13224548715431,16.01937431973948,16.41498463268537,155.05494532705413,155.05494532705413,11.7293604796994,-0.0012588105911823647,-0.005815751478957916,0.0010126839138276554,-0.1591888520521042,-0.00474150130260521,-0.0014592902364729458,0.027053524390781562,0.01046114717234469,1.558830831973948,1.5618017668476953,0.48501939236072145,62.70890122871743,45.959602447855715,-0.023674806288577155,-0.004483326623246493,-0.015691419436873747,0.0,-0.616804568002004,0.17395235050901803,-8.34646758547495,5.517975951903807e+18,954.20395980501,11.729254901422847,0.012143190951903807,-0.08133513901402806,-0.01280106446492986,-0.6060379043066132,0.20623026687374754,-8.388624200026053,58031669.10559118,0.014416881044088175,-0.08176989056513027,-0.012930783068136274,5.517975951903807e+18,100.04579,102.98103797915832,-0.14676240338877755,-0.7913577151062123,15.369643817875751,16.081882724308617,-0.01424478868537074,-0.05790366463527054,-0.3213912589819639,47.996765632585166,31199670.006372746,399.58887934809616,12.404602,96616.60088220441,1.1479650935651302,0.03213040625250501,0.010631636330661323,1.5620099225330661,0.7101648543386774,0.007667158022044088,0.015083975040080161,0.7038320877815631,0.14594012188376754,0.563548055749499,0.338637256749499,0.010979133020040091,0.00042838403206412845,0.006844019827655311,-0.0010410904689378757,398714138.0,327364372.0,400112.68266913824,0.0,0.01,0.008413474330661324,0.008413474330661324,0.5788247395230461,39.87141370000001,32.7364371,0.04105711351503006,-0.012000105464929859,0.0046042469979959925,0.041353712773547095,-0.024098442863727455,0.03283084781963928,0.014129561428857716,0.029097766637274557,-0.018696087641282565,0.1,0.08853746397394789,0.049761361887775545,-0.017723707993987977,0.14267468947695391,0.0,0.0,0.0,1.0,0.0
58057077.0,0.006012756006012025,-0.010614557617234469,-0.01482212718236473,0.14305401521042085,0.0,1492.0,1500.0,1143.0,1498.0,1501.0,1496.8176352705411,15.609315098456914,15.65362153775551,16.039876061583165,15.702358724288576,16.089816923987975,15.879152480721443,16.271234072645292,153.6830958270541,153.6830958270541,11.729673650300601,-0.0012535310501002005,-0.005811914925851704,0.0010025482164328656,-0.15903493291182363,-0.004686277539078156,-0.0010187871803607215,0.032558106681362727,0.010831029224448898,1.5624549153607217,1.564084942509018,0.3171080079038076,59.40522851100201,45.84587111412826,-0.023490863931863726,-0.003777265591182365,-0.016000116426853707,0.0,-0.5103178697274549,0.23756558143887774,-8.67868794712024,6.815290581162325e+18,954.2039702755511,11.729103407975952,0.03220921738677355,-0.06187664932264529,-0.011597598066132265,-0.5846799101883768,0.25947959066132265,-8.61612952134469,58236776.41631263,0.0428792633507014,-0.06228601189579158,-0.0107778578997996,6.815290581162325e+18,100.04579,102.8243318735471,-0.1389270315771543,-0.7885451910601203,15.369500905691384,16.089576366012025,-0.01440150898997996,-0.025670974537074148,-0.3228261100761523,47.662844772585174,31441011.79296593,399.5592124298597,12.404602,96616.96629,1.1479693704749498,0.0315333736492986,0.011269365779559119,1.5618978610300602,0.7102088627154309,0.0072315406533066135,0.015099873601202404,0.703791929751503,0.1488595786953908,-0.08442958387975948,-0.10424088054108219,-0.16173602991783567,0.004328789635270541,0.00470652328256513,-0.00189249995991984,398714138.0,327364372.0,400113.1615573146,0.0,0.0038719047595190386,0.007743809336673348,0.013871904759519039,2.919280885771543,39.87141370000001,32.7364371,0.041650657669338675,-0.012238644024048097,0.0025352376272545093,0.036248412911823645,-0.025642470815631264,0.02801483797795591,-0.021769960785571144,-0.057229488505010015,0.03142389302805611,0.1,0.08052543180160321,0.05910569223647294,-0.013942980693386772,0.14501479108216433,0.0,0.0,0.0,1.0,0.0
58242627.0,0.001937087270541082,-0.0025076991923847695,-0.015446502368737475,0.14285411533066134,0.0,1491.0,1500.0,1143.0,1498.1870127675352,1500.8129872324648,1500.5811623246493,15.618524964148296,15.66372073749499,16.050117099899797,15.692841827334668,16.07995811278557,15.809991654228456,16.200512262164327,152.3112463324649,152.3112463324649,11.729986814549099,-0.0012491710601202405,-0.005807902511022044,0.0009945144408817636,-0.1588796030941884,-0.004598153028056112,-0.0006861442164328657,0.0361766079759519,0.011906805893787575,1.5661183790881763,1.5669654506132265,0.14919664286573145,56.11432282731463,45.804452099298594,-0.023325302486973946,-0.0030551765390781564,-0.016269509366733464,0.0,-0.6281932383106212,0.31791186613827654,-8.864484370727455,6.87e+18,954.1869703653307,11.729293724288578,0.036786166871743485,-0.05309876939278557,-0.008072184400801603,-0.5524820809919839,0.21073593559318637,-8.891426407649298,58441883.73338678,0.03338506129458918,-0.05493496962725451,-0.01602790627655311,6.87e+18,100.04579,102.66198620981964,-0.13080980832865732,-0.7866835263446894,15.369349412665331,16.107886296833666,-0.014770731659318638,0.003281184148296593,-0.32426036281162324,47.3524132841483,31682353.579559118,399.58256156432867,12.404602,96616.68825903808,1.1479660540921843,0.030526932583166334,0.01240364281763527,1.561788991703407,0.7102543756933868,0.00647575026252505,0.015148073709418838,0.7037522382024048,0.15139885197995992,-0.5429511216212424,0.13266473912424845,-0.12321313650100202,0.0011364568617234468,0.004515508821643288,-0.0011253091823647296,398714138.0,327364372.0,400114.4148112224,0.0,0.008049453288577153,0.016098906995991983,0.01,1.609811604507014,39.87141370000001,32.7364371,0.04140104313026052,-0.012849684184368737,-0.0006666432925851704,0.035414397184368736,-0.027386166444889778,0.02495119573747495,0.023777581953907813,-0.006363732266533063,-0.00862288348296593,0.1,0.07161099465731463,0.06597517395991984,-0.010349085895791582,0.14817973410821644,0.0,0.0,0.0,1.0,0.0
58443447.0,0.0007664442044088177,0.005010726064128257,-0.016146751256513023,0.14346277114228456,0.0,1491.0,1500.0,1142.0,1499.3446893787575,1499.6553106212425,1504.3446893787575,15.62773482983968,15.673819945410822,16.060358128216436,15.683324938557114,16.070099301583166,15.716859722264529,16.104865936533066,150.93939683787573,150.93939683787573,11.730299986973948,-0.0012448110701402805,-0.005803890096192385,0.000986480503006012,-0.15872427362124247,-0.004510027699398797,-0.0003535009078156313,0.03979003497194389,0.012984482709418836,1.569781948769539,1.569847565715431,-0.018714722334669337,52.8234515002004,45.76322763751503,-0.023163525983967936,-0.00231334446492986,-0.01652884035671343,0.0,-0.5491493487234469,0.18586486935871743,-9.0698478804509,4.4655110220440883e+18,954.2134094064128,11.729699379378758,0.02964140515631263,-0.045011139919839675,-0.008298620693386773,-0.5536363296472946,0.23121267850701405,-9.1041204746493,58646991.04228457,0.02458751450701403,-0.0353282623246493,-0.006434583891783567,4.4655110220440883e+18,100.04579,102.51146145250502,-0.12328360248496995,-0.8041249599438878,15.369313800681363,16.106343005851706,-0.014740592923847697,0.05243010120841683,-0.32553779321042087,47.09764872629258,31923695.366152305,399.5431983048096,12.404602,96617.15959651303,1.1479716629739478,0.04052085301603207,0.01361424551503006,1.5709583933767535,0.7069855086593186,0.009511083639278557,0.019138081024048095,0.7069050399438878,0.15460081433266532,0.05817377087174336,0.1108516810501002,0.15793450005410822,-0.0027794437114228455,0.0070377750741482965,-0.002193344537074148,398714138.0,327364372.0,400108.38613967935,0.0,0.0004863374669338678,0.0014298250480961924,0.0253701280501002,5.129172754200401,39.87141370000001,32.7364371,0.041346792038076154,-0.014726462134268538,-0.005017140771543086,0.032727816865731466,-0.031056233983967937,0.023229832154308617,0.04075628784569138,-0.03745142701603207,-0.058343853072144285,0.1,0.06350894137074148,0.07302250840480962,-0.007571825302605211,0.15079055824048096,0.0,0.0,0.0,1.0,0.0
58645659.0,-0.00035519748096192395,0.012228161837675349,-0.01682357320240481,0.14234993635470944,0.0,1491.0,1500.0,1142.0,1500.0,1499.0,1507.1082164328657,15.636944704448897,15.683919143326653,16.070599156533067,15.67380804977956,16.06024049038076,15.670302899318637,16.057129566833666,149.56754734328658,149.56754734328658,11.730613159398796,-0.0012404501883767534,-0.005799877681362726,0.0009784461462925853,-0.15856894356713427,-0.004421903370741483,-2.0855911823647304e-05,-0.011893923296593185,0.01424965628256513,1.3475544472224448,1.1869033945651302,-11.978529319078156,98.04351531833667,45.75584595442886,-0.022973417438877757,-0.0015505399038076152,-0.016806075953907814,0.0,-0.5475109576753507,0.2865219398476954,-9.268122387234468,6.87e+18,954.2255024925852,11.730286295811624,0.021265373723446893,-0.028731556418837675,-0.004847204310621243,-0.5234765716933868,0.1850157246973948,-9.192734897817635,58852098.36118236,0.02732735452705411,-0.02766226444488978,-0.0051447602404809615,6.87e+18,100.04579,102.34946275611222,-0.11518363539478958,-0.8353623995711422,15.369137969699398,16.13024258250501,-0.015222097801603206,0.13706605865330662,-0.3268208184669339,46.86562815701403,32165037.15274549,399.5720806486974,12.404602,96616.79758026052,1.1479673850661323,0.0381851263006012,0.014798683843687375,1.570855442533066,0.7070374956172344,0.008267613204408818,0.018730659565130262,0.706879579771543,0.15816470910821645,0.039787520182364755,-0.6857004670761524,-0.4426946206072145,-0.0010469956533066135,0.01064606851703407,-0.00029596516633266544,398714138.0,327364372.0,400113.16273887776,0.0,0.0,0.008107829723446893,-0.04243131767735471,1.3595678393867736,39.87141370000001,32.7364371,0.0398115937254509,-0.0165424999759519,-0.012472639030060118,0.03146719212224449,-0.03348537507815631,0.01954838524248497,0.00566300597795591,-0.08598997802805611,0.0068836440641282595,0.1,0.07170718441282566,0.07901113033266532,-0.005194074543086172,0.15394192472945892,0.0,0.0,0.0,1.0,0.0
58872574.0,0.004149359693386773,0.01869992355310621,-0.019394032266533065,0.1427978891983968,0.0,1490.0,1500.0,1143.8717434869739,1498.8717434869739,1500.1282565130261,1510.0,15.646154571222445,15.694018351242486,16.0808401948497,15.66429115971944,16.05038168046092,15.606123292004009,15.991257231082164,148.64751622505008,148.64751622505008,11.731108972905812,-0.0012360900901803606,-0.005795865266533066,0.0009704127895791584,-0.15841361451302605,-0.004333778170340682,0.0003117856753507014,-0.09056829896192385,0.01560634731462926,1.015070482753507,0.6156390688857716,-29.693921281462927,166.9415584306613,45.76498280623246,-0.022816924963927857,-0.0007850260480961924,-0.017071344957915832,0.0,-0.4750934532224449,0.149867345252505,-9.38298626619038,6.87e+18,954.2381685200401,11.731092181503005,0.037702997903807614,-0.024083509176352706,0.0022757240721442886,-0.5025796326773547,0.19956626376352704,-9.351269218913828,59057205.67136273,0.03177105083567134,-0.0256097363747495,0.002330781551102205,6.87e+18,100.04579,102.17628932144288,-0.10652481602004009,-0.8622680473326653,15.368978634168338,16.20834465541082,-0.01678731504008016,0.21866520231462927,-0.32812125685971943,46.67835677879759,32406378.940621242,399.61972052084167,12.404602,96616.24742507015,1.14796084102004,-0.08225744171543085,0.016363870937875752,0.7540424,0.9287493438276553,-0.04123446406012024,-0.007535590727454909,0.3681127887034068,0.16094063525250502,0.06271906306613217,-0.053620041735470914,-0.41457599239278553,0.0022116897915831664,0.001702954132264529,-0.0035893155270541083,398714138.0,327364372.0,400131.38136372744,0.0,0.003813528432865731,0.003813528432865731,0.005254112859719438,0.46032274461523043,39.87141370000001,32.7364371,0.0379661192004008,-0.01734086929058116,-0.017941342851703405,0.02919247837274549,-0.033057188114228454,0.016467517641282566,-0.04086437903807615,0.046911000995991985,0.04377857531262525,0.10203502570541081,0.06193294490781563,0.08221393349298597,-0.0025629261883767535,0.15752208164328657,0.0,0.0,0.0,1.0,0.0
59073908.0,0.0005185757615230463,0.022839930208416834,-0.019175141573146294,0.1459350371543086,0.0,1490.0,1500.0,1147.4404578416836,1500.0,1499.0,1512.0,15.6626040052505,15.710982963446893,16.0980931746493,15.677626843767536,16.06391612509018,15.599025336132264,15.983854603767535,148.82503170561122,148.82503170561122,11.732048485450902,-0.0012335330521042085,-0.0057929276793587175,0.0009648064509018037,-0.15830785785971943,-0.0043202437835671344,0.0005530705470941884,-0.20276000525651303,0.01700837931663327,0.7540424,0.16423458689178358,-42.94624094719439,220.91128735270541,45.77971355156313,-0.02283554415230461,-1.9135386773547108e-05,-0.017297074779559118,0.0,-0.5046115479498998,0.2529577281442886,-9.555759590517034,6.87e+18,954.2729885062124,11.731904338056113,0.025439683430861722,-0.020184940995991982,0.007276850368737475,-0.5038105227855711,0.2762435261943888,-9.481822993551102,59262312.988977954,0.028354602342685373,-0.01658080080761523,0.0035656308416833673,3.4135871743486976e+18,100.04579,102.00900243446894,-0.09816057924048097,-0.8889379254649299,15.368883028917836,16.27956042054108,-0.01821355159719439,0.26137403794188374,-0.32931072023847696,46.562171052144286,32649308.203486975,399.6078999392785,12.404602,96616.37991789579,1.147962411272545,-0.40263546549298596,0.01773926859318637,0.7540424,0.9101897064308617,-0.18908607026853708,-0.0655256186513026,0.3623101131823647,0.16486346621843687,-0.6257696382585171,-0.18648463037074148,-0.4704795227454909,0.0030364955070140277,0.00921624592785571,0.0007114212464929852,398714138.0,327364372.0,400124.54465751507,0.0,-0.0014697729619238473,0.0042651135190380765,0.01279534019238477,2.130446961569138,39.87141370000001,32.7364371,0.037314185875751506,-0.018357166256513027,-0.023365331204408816,0.031228310617234474,-0.03397274921643287,0.013484702418837676,0.0014321680340681356,-0.06479742596793588,0.027912831474949894,0.10252695605410822,-0.05522919855310619,0.08589565556513026,-0.0008669054168336674,0.1605397216232465,0.0,0.0,0.0,1.0,0.0
59273124.0,-0.001264374887775551,0.02641337739478958,-0.018166219985971944,0.14878362440881765,0.0,1490.3987975951904,1500.0,1150.0,1500.080972262525,1498.919027737475,1513.8705953907815,15.684385991763527,15.733004525791584,16.12051103711423,15.707795378156312,16.094681663587174,15.57859558252505,15.962894687094188,149.00254718617234,149.00254718617234,11.732987994008017,-0.0012323040561122245,-0.005790782647294589,0.000960988995991984,-0.15823861724448898,-0.004361650961923848,0.0007270609018036071,-0.43739040408216434,0.018576047148296592,0.7540424,0.1506776944809619,-39.89497309292585,220.34793678797595,45.814878803707415,-0.02333609197795591,0.0007651573446893787,-0.017441504569138275,0.0,-0.39385246365731463,0.21373925096192384,-9.551674412478958,6.87e+18,954.2741817432866,11.732827826032064,0.01639370591983968,-0.018933813687374748,0.007449147308617234,-0.4509336387815631,0.21040916654308617,-9.52237205202004,59467420.30388778,0.01938354502805611,-0.010510249146292585,0.0029862677855711423,6.87e+18,100.04579,101.82710113026053,-0.08906556733466935,-0.923911687759519,15.368739493927857,16.32740396981964,-0.01917329079759519,0.2732528240521042,-0.3305270575150301,46.49581472092184,32889062.512525048,399.51398098476955,12.404602,96617.49641290582,1.1479757011382765,-0.7139469797795591,0.01967443221442886,0.7540424,0.8697926756092185,-0.32825557009218437,-0.1200647423246493,0.3481033366673347,0.17205856969138275,0.34077436660521054,-0.03444226466332673,0.27230318955711413,0.0003667415771543092,0.003972025771543087,-0.004000253160320642,398714138.0,327364372.0,400109.812544489,0.0,-0.002343755470941884,0.0,0.0,4.5341160112204415,39.87141370000001,32.7364371,0.0374487620761523,-0.021132940995991983,-0.02796302306412826,0.02812706283767535,-0.03872495015230461,0.010737753138276553,0.033934350695390775,-0.0007241141022044069,-0.030368734645290586,0.10267085365330661,-0.4463976619759519,0.08847387371342685,-0.016591905144288575,0.16412609206412826,0.0,0.0,0.0,1.0,0.0
59480847.0,-0.002888186376753507,0.029672448036072146,-0.017546819909819638,0.15129010490981964,0.0,1491.0,1500.0,1152.1623246492986,1498.1623246492986,1500.8376753507014,1515.1156957575151,15.706167980300602,15.755026098136273,16.142928909579158,15.737963918897796,16.125447205731465,15.58365867765531,15.96786882749499,149.18006276673347,149.18006276673347,11.733927500541082,-0.0012310752625250502,-0.005788637615230461,0.0009571723787575151,-0.15816937683166332,-0.00440305730260521,0.000901052256513026,-0.6720208029078156,0.02014371497995992,0.7540424,0.13712080207014027,-36.84370523663327,219.7845862232465,45.850044057875756,-0.023691201190380762,0.0015971702645290584,-0.01762484666733467,0.0,-0.4472830546452906,0.2324077570761523,-9.643783794903808,6.87e+18,954.2846943935872,11.733889217294589,0.022119534813627252,-0.009534000048096193,0.010356884901803608,-0.5033386618737475,0.20138446158116233,-9.64350709008016,59672527.61677355,0.02167568172745491,-0.01087386569539078,0.017393503120240482,6.87e+18,100.04579,101.63505267855712,-0.07946301673346692,-0.962618587246493,15.368640482845692,16.367730128817634,-0.0199817986492986,0.26875529071142285,-0.33174049146292584,46.47848846240481,33130404.29911824,399.5860456336673,12.404602,96616.66390755512,1.147965834775551,-0.7224816672885771,0.020990413749498997,0.7540424,0.8683436676713426,-0.33220805421242483,-0.1209827505490982,0.347821261252505,0.19389616841282564,-0.14837398481563113,-0.6685796626913829,-0.5639059719318638,0.002452884204408818,0.005836085531062124,-0.0032168379759519037,398714138.0,327364372.0,400110.93734629254,0.0,0.0,-0.00021268781963927833,-0.00936491475751503,3.222991149707415,39.87141370000001,32.7364371,0.038045562118236474,-0.02264341949699399,-0.030988937723446894,0.026132285745490983,-0.04133450588376754,0.007090993110220442,-0.023509126462925852,-0.06765233921042084,0.027279774541082172,0.10187154039078156,-0.7810769247234469,0.10311032543887776,-0.07514270641282564,0.1705779936472946,0.0,0.0,0.0,1.0,0.0
59692368.0,-0.0012568170180360537,0.03287147498997995,-0.017487529779559117,0.1544914481763527,0.0,1491.0,1500.0,1155.9258517034068,1500.9258517034068,1498.0741482965932,1516.0,15.727949972825652,15.777047660480962,16.16534678204409,15.768132449639278,16.156212748617236,15.606866296152305,15.991526161062124,149.35757824729464,149.35757824729464,11.734867013086173,-0.0012298457935871743,-0.005786492583166333,0.0009533550861723447,-0.15810013574348697,-0.004444464318637274,0.0010750426112224446,-0.733608401765531,0.022182942464929856,0.7115940184448898,0.12257288846292588,-33.58762224052105,219.12502800080162,45.997780160501,-0.023177426763527055,0.002645225817635269,-0.018076818873747492,0.0,-0.39264014541082176,0.23667025997194374,-9.71258201695992,2.360921843687392e+18,954.3120659276552,11.734878302665331,0.02809570257715424,-0.0025944973026052294,0.013754958372745499,-0.4129420059318637,0.1975587328116232,-9.740589361933868,59877634.92641282,0.02236431634268538,-0.01094436475350702,0.02092739326853704,2.360921843687392e+18,100.04579,101.44011930400802,-0.06971625245891784,-1.005865584306613,15.36841163977956,16.421062929018035,-0.02105303638476954,0.25589338527254507,-0.3328728309579158,46.51646930547094,33371746.086452905,399.59714655651305,12.404602,96616.50682639278,1.147963896248497,-0.7238232268216431,0.023002044476953906,0.71228085749499,0.8750503365270541,-0.33557167474949895,-0.11335277748096194,0.3298677771963929,0.21655276899799597,-0.5507505586152243,-0.01705474944689811,0.22399264666933696,0.0013879162124248489,0.007907490539078126,-0.002589834220440881,398714138.0,327364372.0,400119.5132867735,0.0,-0.004589438561122208,-0.006909522138276574,-0.01152981254509017,3.87883930915431,39.87141370000001,32.7364371,0.03675011367134269,-0.023761081749498997,-0.037182768176352694,0.022537708857715433,-0.04432006938076152,0.005169180124248493,0.06555234247695386,0.025178277090180213,-0.010251164867735436,0.10306300851302605,-0.6114607593847697,0.14717911062725444,-0.158675233026052,0.18999317429258514,0.0,0.0,0.0,1.0,0.0
59895946.0,-0.0027706827575150303,0.03483762340480962,-0.017014860643286573,0.1581824400200401,0.0,1491.0,1500.0,1159.0,1501.9675646192384,1497.0324353807616,1517.0,15.7497319553507,15.799069232825651,16.187764654509017,15.798300990380762,16.186978293126252,15.568171630841682,15.951738893006013,149.567802858517,149.567802858517,11.73586419488978,-0.0012286171623246494,-0.005784347551102204,0.0009495376312625251,-0.1580308948036072,-0.004485871496993988,0.0012490329659318638,-0.7398991620581162,0.024372858731462926,0.6555810078637275,0.10770828803406814,-30.266089363667334,218.4347261547094,46.181488943587176,-0.022581587226452905,0.0035073131703406814,-0.018329767108216433,0.0,-0.34133642581162327,0.21229792663326652,-9.75944924280561,6.87e+18,954.3346353058116,11.735880224408819,0.010567915963927858,-0.006746704024048096,0.013294291759519038,-0.3539634095390781,0.16435041025851704,-9.72608738263527,60082742.24456914,-0.030330459627254502,-0.008340041148296593,0.013401082711422846,6.87e+18,100.04579,101.22792370020039,-0.05910646604809619,-1.0526787664729458,15.368189901122244,16.456999736232465,-0.021776194903807614,0.23448286695591183,-0.33398920236873747,46.607789494068136,33613087.87230461,399.5750489719439,12.404602,96616.79207655312,1.1479673036152305,-0.7437995266232466,0.025765073148296593,0.6199483821583166,0.8857305298476954,-0.3496973566152305,-0.09940396918436874,0.2886148168657314,0.22232005746893788,0.19053749192585168,0.05139657973346684,0.06697238799198413,0.0025140032244488986,0.005110437278557114,-0.0010357145891783564,398714138.0,327364372.0,400116.6579675351,0.0,-0.019739041669338677,0.01,-0.006318722685370743,2.113442386765531,39.87141370000001,32.7364371,0.034728317871743485,-0.02488260288977956,-0.0426459265490982,0.02159027623446894,-0.04510305580561123,0.003905438450901804,-0.0576296732004008,-0.05234335123847696,0.02217182300400802,0.10328225384569138,-0.4095371372785571,0.20446291637875752,-0.2235492292004008,0.21550373708216433,0.0,0.0,0.0,1.0,0.0
60110009.0,-0.06663136444288585,0.036807099470941886,-0.016727245671342685,0.16106425348697395,0.0,1489.6270026252505,1500.0,1162.6746326913828,1559.510320641283,1439.489679358717,1518.3729973747495,15.795563426673347,15.844768184288577,16.234425000841682,15.85329013244489,16.243157031222445,15.651887188496994,16.037464508456914,149.8234097198397,149.8234097198397,11.736941412625251,-0.001228403739478958,-0.005783311597194389,0.000946242865731463,-0.15793997846292585,-0.004577315967935872,0.0013908509599198397,-0.7464274546773548,0.026695244418837676,0.5905303972545088,0.09280512443086171,-26.9413015159519,217.62905530360723,46.36375879218437,-0.02213264255511022,0.0044467964649298605,-0.01841946652304609,0.0,-0.42846100425450895,0.258019440470942,-9.851577718240481,6.87e+18,954.3474991871743,11.737034146152304,-0.29049906569739536,-6.125240681357103e-05,-0.003723761775551165,-0.3952610395110221,0.16440708869138274,-9.807206494723447,60287849.55893788,-0.3727462354448902,0.00473393349098194,-0.015548090404809681,6.87e+18,100.04579,101.0204641478958,-0.04873351879358716,-1.0925292952985972,15.368119049438878,16.478091451783566,-0.0221994302244489,0.21605107637675353,-0.33497065381563124,46.743972939959924,33855475.041002005,399.59859243747496,12.404602,96616.5061988978,1.147963948468938,-0.7575327868637274,0.028521295168336677,0.5270384099078156,0.8955772463046093,-0.3604219417054108,-0.08351611191382764,0.24708244760921838,0.22868433993386775,-0.2467507313286565,-0.07658055020039903,0.12426891163727585,0.0052908306573146175,0.003515201144288591,-0.0016539777214428907,398714138.0,327364371.50941885,400119.2050014028,0.0,0.0,0.0046583222785571005,0.009316645010020011,1.833142284274551,39.87141370000001,32.7364371,0.0332693797755511,-0.026263927643286576,-0.0460706805731463,0.019297176617234464,-0.044601767290581164,0.0014548534168336692,-0.02516780808216424,-0.006755642344689328,0.01651885117434861,0.10901325556513027,-0.30730385861523035,0.26358306164128265,-0.2684809395591183,0.2218358630501002,0.0,0.0,0.0,1.0,0.0
60303686.0,-0.14047805101803607,0.0385773108496994,-0.023128355591182363,0.16483305450901803,0.0,1483.567134268537,1500.0,1167.432865731463,1585.586167795591,1413.413832204409,1520.2164328657313,15.852944961282565,15.901838513907816,16.292728116733468,15.92019967727455,16.311540778637276,15.592653545631261,15.976689061262524,150.0790164811623,150.0790164811623,11.738018623466933,-0.0012286781723446895,-0.005782807953907816,0.0009431987234468938,-0.15783865111022044,-0.00469279123246493,0.0015172172905811624,-0.7535080255891784,0.029325631713426854,0.5044668014048096,0.07781230112625251,-23.608945652184367,216.5551443238477,46.542683041663324,-0.02175748121843687,0.00554246748496994,-0.01868296042284569,0.0,-0.3492162168316633,0.28753604905410823,-9.864340444450901,6.87e+18,954.3693516440882,11.73803819731463,-0.6721407239398798,-0.005075843132264531,-0.06034491841683366,-0.3595039573787575,0.336661032244489,-9.796044962088176,60496195.15022045,-0.7251678844909819,0.007898874959919838,-0.07252487560721443,6.87e+18,100.04579,100.79283821763526,-0.03735227095591183,-1.1383793178376753,15.367977924468937,16.508996241002006,-0.02282035919038076,0.19995319748096194,-0.3359373212645291,46.94138913803607,34096369.61182365,399.5898825068136,12.404602,96616.59060312626,1.1479649635370741,-0.7605321838336674,0.031213456468937875,0.4477452931543086,0.903993226735471,-0.3650760306933868,-0.06826229539879759,0.21177004511823647,0.2354737678657315,-0.13254130879759526,-0.2511269698857716,-0.10664257708416844,-0.0011165226472945895,0.006182028316633266,-0.0010700257755511015,398714138.0,327364371.74328655,400127.084151503,0.0,0.0,-0.014526071539078155,-0.007263035769539078,4.025139120875751,39.87141370000001,32.7364371,0.032099196621242485,-0.027125978809619238,-0.046299582997996,0.017480440002004008,-0.037308346831663335,0.005656176002004008,0.03712909591382767,0.2633770244829656,0.0016310299158316562,0.10576025946292585,-0.22152852570741483,0.3223244276793587,-0.30113965946092186,0.22845574500801605,0.0,0.0,0.0,1.0,0.0
60519649.0,-0.18694529979559113,0.04775796651302604,-0.042199196018036046,0.17334967352705408,0.0,1472.0400801603207,1500.0,1181.9000561723446,1565.7239780060122,1433.2760219939878,1527.9599198396793,15.910326491563126,15.958908843527054,16.35103122715431,15.987109222104209,16.379924526252506,15.609418614208415,15.993772893006012,150.334623342485,150.334623342485,11.739095844308618,-0.0012289530380761523,-0.0057823047434869745,0.0009401545811623247,-0.1577373243246493,-0.004808266496993988,0.001643582621242485,-0.760588595501002,0.03195601800801603,0.4184032045551104,0.06281947682164331,-20.276589782945898,215.48123334408822,46.721607291142284,-0.021425453402805612,0.0068643042124248484,-0.019143761166332665,0.0,-0.20701836615030067,0.21699214153106228,-10.013862169138276,6.87e+18,954.3880614571143,11.739185668797596,-0.7728544502484971,0.03729770537474947,-0.13217847806813623,-0.2743381708176348,0.35048163514228464,-9.93340315090581,60709506.75460922,-0.7238499434248499,0.05145677957915827,-0.14554195048697388,6.87e+18,100.04579,100.54844026913827,-0.02513228323647296,-1.1904217761883766,15.367785959799598,16.527063402865732,-0.023185539693386773,0.19189770640480963,-0.33685863796392784,47.19620022392785,34337113.23228457,399.6331742817635,12.404602,96616.0918608016,1.147958953509018,-0.7586459142164329,0.033626066398797595,0.3721861040501003,0.9115953611763526,-0.36673578245490984,-0.05315464209619241,0.1779620236913828,0.24268714081563125,0.36385377701202104,0.2276153404248482,0.21203045925049324,0.0011881758176352534,0.00829534950901802,-0.0019656242304609437,398714138.0,327364372.0,400130.8369094188,0.0,0.01836878765531059,0.016737576290581105,-0.046737573310621186,1.143011739771549,39.87141370000001,32.7364371,0.017081131623246537,0.4931575347975936,-0.03354946529859723,-0.1714000619619235,6.7938876751703265,0.1678887676292582,-1.218507494406814,42.7611160728858,0.9623403354268546,0.10005593078156315,-0.150504398486974,0.36920522570340675,-0.3218595389619239,0.23504048791983967,0.0,0.0,0.0,1.0,0.0
60720469.0,-0.09977693106613227,0.06778016557715431,-0.06622263205410821,0.19469391965531063,0.0,1463.256513026052,1500.0,1209.4609218436874,1537.7695390781564,1461.2304609218436,1538.4869739478959,15.967708031442886,16.01597917314629,16.40933434501002,16.05401877436874,16.448308276032062,15.719910041102205,16.106707713867735,150.59023010380758,150.59023010380758,11.7401730551503,-0.0012292269438877756,-0.005781801316633266,0.0009371106953907816,-0.15763599775551101,-0.004923741761523047,0.0017699489519038074,-0.7559648804529058,0.034679101138276554,0.344758677993988,0.048704162637274555,-17.144860901603206,213.96652521402808,46.86740015342686,-0.021157099002004007,0.008262767076152306,-0.019446541216432866,0.0,0.052792951769539076,0.4867374574268537,-10.548646853607215,6.87e+18,954.385751472545,11.740219516613227,-0.5866158863887775,0.09844974381362726,-0.20237892185571144,-0.04757776939278557,0.4555927445250501,-10.297420996833669,60919171.50016032,-0.5258438512985972,0.11831452741082164,-0.22336889350100203,6.87e+18,100.04579,100.31360264128257,-0.013390489933867735,-1.2243000269939879,15.367656091162324,16.554935713827657,-0.02374558123246493,0.20451842270541082,-0.33764400326452904,47.48744299813627,34578455.018677354,399.48624693486977,12.404602,96617.79290096193,1.1479791851943888,-0.7530728233667335,0.03634421395791583,0.2995148201643286,0.9183833998056112,-0.3660456047815631,-0.0381432472745491,0.14532889844088176,0.2484743533507014,0.19089699316232456,0.18723289749098185,0.07586746282765532,0.00021605959519038157,0.008145890935871742,0.0008842110721442881,398714138.0,327364372.0,400118.76802424854,0.0,-0.009667492681362725,0.0026548479939879754,-0.0427004693987976,3.2281026658997996,39.87141370000001,32.7364371,-0.051111412753507016,3.1608113945150302,0.027362902072144285,-0.36979803111022047,14.563129525991982,0.3484729476272545,-0.6753471339318636,24.99189976985972,0.4476553463266534,0.1,-0.09067885395190381,0.4084156224028056,-0.3326434092224449,0.24275644239278557,0.0,0.0,0.0,1.0,0.0
60925847.0,-0.07216029465931863,0.08962638482164331,-0.0808180513466934,0.21692627468136275,0.0,1455.4929859719439,1500.0,1219.5070140280561,1531.9859719438878,1467.0140280561122,1551.0140280561122,16.025089561523046,16.07304950276553,16.46763745799599,16.12092832176353,16.516692020881763,15.804680506252506,16.193466916733467,151.23254959298598,151.23254959298598,11.741339138997995,-0.0012295018296593187,-0.0057812973827655306,0.0009340672965931864,-0.15753467118637274,-0.005039217026052105,0.0018963152825651303,-0.7491722525891783,0.03741936180561123,0.27341552016032056,0.03475145800601201,-14.050310045651297,212.37013324188376,47.00705346861724,-0.02090791966533066,0.009894427805611224,-0.019552828326653306,0.0,0.016721925935871924,0.5782313221603208,-10.853282709238478,6.87e+18,954.4390448170341,11.741437789599198,-0.4380167720801601,0.15650699022044098,-0.25395047400400805,0.031098800955911998,0.5525702219659324,-10.842697348036072,61128129.96845692,-0.39568775558316627,0.16629620816833673,-0.26248390957515033,6.87e+18,100.04579,100.06551801663326,-0.000986285719438862,-1.237483104036072,15.36751336507014,16.60276780244489,-0.024705084434869743,0.22643621235270545,-0.3384031233507014,47.85589856462926,34819796.805270545,399.5903162905812,12.404596651002004,96616.59699482967,1.1479650170501001,-0.7436359980120241,0.03913038205210421,0.23105296521042074,0.924451724254509,-0.3629156998537074,-0.02376400500200399,0.11443198831863723,0.2538365518456914,0.23687640080961977,-0.21224013739078043,0.03290498616432813,-0.0011807131162324866,0.006526356158316607,-0.004278210987975937,398714137.6985972,327364371.6985972,400117.2108527054,0.0,-0.006972889593186359,0.013945779172344661,0.0009186687655310193,3.1968340621022096,39.87141370000001,32.7364371,-0.12678859704809628,7.24146291633267,0.09549294668937883,-0.46515322601803616,19.064526367715438,0.3805970621543088,-0.4893672073867741,13.028837004068127,0.8719748557454916,0.1,-0.049552573917835616,0.44010138496392787,-0.3381841052645291,0.24821927255310622,0.0,0.0,0.0,1.0,0.0
61135192.0,-0.05636272850701403,0.11214385609819638,-0.09059845251102204,0.22275491420841684,0.0,1451.0,1500.0,1226.2580396492986,1523.5968682104208,1475.4031317895792,1562.5410821643286,16.050447581543086,16.09869275685371,16.4937711806012,16.17385759306613,16.570780340801605,15.781958862064128,16.17005612472946,152.19629142945888,152.19629142945888,11.742579094208416,-0.0012318261643286573,-0.005781130753507014,0.0009287514488977956,-0.15748101729058114,-0.004998090637274549,0.0019523226733466935,-0.7375238440080161,0.040216979026052105,0.20794384033667335,0.02157473642284569,-11.154259943426853,210.56246373426856,47.13290817501002,-0.020695184615230462,0.011558809178356715,-0.019435561490981964,0.0,0.05090805507014029,0.6341622437655311,-11.253998285571145,6.87e+18,954.442720390982,11.742704482885772,-0.3257275270721443,0.19623366416232463,-0.2829236045511022,-0.022307822328657297,0.6989313655511021,-11.179940566573146,61341441.577775545,-0.2982581951002004,0.21529033591583166,-0.2861627416973948,6.87e+18,100.04579,99.81085602124249,0.011746843973947896,-1.225143516759519,15.36727805246493,16.65101867180361,-0.025674804440881764,0.24542773674148297,-0.3391201258336673,48.29647648488978,35061138.59186373,399.5834595048097,12.40448,96616.68077759519,1.1479659991402806,-0.7262019511763527,0.0419990909498998,0.17373271534669338,0.9304190211262524,-0.35545834496392786,-0.01125409579759519,0.08851131525450902,0.25861381707815634,0.7178162740801605,0.46163877447494994,0.5602887943787576,0.00037853819639278646,0.007686841446893788,-0.0014761393426853714,398714137.4541082,327364371.4541082,400119.5051521042,0.0,0.0,0.0,-0.010103062346693387,4.7807674007815635,39.87141370000001,32.7364371,-0.1992915363987976,12.278461172284569,0.16381634409418838,-0.6787899741983968,21.584380813386773,0.4065951759719439,-0.8540556261062127,7.430569529366734,0.030217799464929765,0.1,-0.013152811601202408,0.4670502777875752,-0.3390015874048096,0.2541478544488978,0.0,0.0,0.0,1.0,0.0
61355067.0,-0.0439030913426854,0.13634633030661322,-0.10011352605811623,0.22982439048096193,0.0,1448.0,1500.0,1233.0340681362725,1517.9659318637275,1481.0340681362725,1573.049858478958,16.066522760120243,16.115226078196393,16.510579795290578,16.22273431971944,16.620724760841682,15.980190713627255,16.373113927995995,153.16003316593185,153.16003316593185,11.743819049418837,-0.00123474427254509,-0.005781062591182365,0.0009227776713426854,-0.15744118352104208,-0.0049115695691382775,0.001987934507014028,-0.7181702571743487,0.04310561167735471,0.15178905475350707,0.009629349959919854,-8.573191908166336,208.4195377943888,47.236867150260515,-0.020493468442885774,0.01321133694789579,-0.018630412641282564,0.0,-0.09507502238677354,0.8245808095050098,-11.565325112945892,4.463647294588997e+17,954.4536317861724,11.743872662004009,-0.24354107147494997,0.23208332291182365,-0.2992203053466934,-0.0020311455410822743,0.6725857602304592,-11.506595897114229,61550493.44651303,-0.21821816433867744,0.24263591799398795,-0.3044313971723447,4.463647294588997e+17,100.04579,99.56451561428858,0.024063757070140263,-1.1822276798236473,15.36712066264529,16.693996152725454,-0.026537505208416832,0.2592300026112224,-0.3397580603346693,48.79786061336674,35302480.37845691,399.55743337535074,12.404388,96616.98842857715,1.147969606036072,-0.7094313998036074,0.04489038355911823,0.11260376875751511,0.9355839809579158,-0.34786992305811626,0.0014725643126252345,0.06053813577555114,0.262802314501002,-0.1264055211543111,-0.1882358924188399,0.35991102326653646,0.005179312292585213,0.004138147066132237,-0.003104997290581178,398714138.0,327364372.0,400117.626006012,0.0,0.0,0.0,0.041218960991983876,4.511322163911823,39.87141370000001,32.7364371,-0.2649297122164328,17.56245660895791,0.2186112250561122,-0.6527880929338675,22.85621166300601,0.394935794633267,-1.0254605083667303,3.859202721527058,-1.3011954447394727,0.1,0.02427424742484965,0.45980648434669336,-0.310357190745491,0.2587900305811623,0.0,0.0,0.0,1.0,0.0
61559750.0,-0.03187044812825652,0.15524527883767536,-0.10509099838677355,0.2364141841482966,0.0,1446.5951903807616,1500.0,1240.7975951903807,1513.1747508476953,1485.8252491523047,1581.0276539619238,16.082597938697397,16.131759389539077,16.527388400661323,16.271611046372747,16.670669180881763,15.863175394248497,16.2529580196994,154.1237750024048,154.1237750024048,11.745059004629258,-0.001237663380761523,-0.005780993428857716,0.0009168028937875752,-0.1574013488196393,-0.004825048501002004,0.0020235473406813626,-0.6988166696112224,0.04599424432865731,0.09563426917034068,-0.002316037232464929,-5.9921238753647295,206.2766119476954,47.34082613551102,-0.02031210173947896,0.014870868314629257,-0.017157588100200398,0.0,0.04273454352905812,0.9008548380701403,-11.881336628957916,6.87e+18,954.4918612797595,11.745214584328657,-0.17779245097194388,0.2579868400961924,-0.31341170239478955,-0.0602482546472946,0.8993814053947896,-11.73677834012024,61760064.78655311,-0.14615674196793585,0.26294883273747494,-0.31662227328256515,6.87e+18,100.04579,99.32252644398798,0.03616323140681363,-1.1123440280501002,15.366946674529059,16.770306444428858,-0.028067187643286574,0.25675237942885776,-0.3403639884188377,49.37848237462926,35546972.97711422,399.64852773246497,12.404276426272544,96615.94271242485,1.1479572281062125,-0.6876079748577154,0.04787592531462926,0.05880698991382767,0.9405626439619239,-0.3374897873006012,0.012616750404809618,0.03573460617034068,0.2665396249298597,-0.7568688933406812,-0.49993395007615227,0.4226547376793586,0.0019958201823647302,0.005820584212424852,0.003104886188376751,398714138.0,327364372.0,400116.12087755516,0.0,0.0,0.008791185058116232,-0.010329480869739473,1.9073475825691384,39.87141370000001,32.7364371,-0.3609674340521042,23.16818932953908,0.1709241475210421,-1.0287254241222445,23.459764705951905,-0.38479185092585166,-2.4265918045651302,1.3058479455811625,-3.8352697493967938,0.10673270598396793,0.04723732208416833,0.458559326,-0.28734278181362727,0.2632063235350701,0.0,0.0,0.0,1.0,0.0
61770816.0,-0.023939849352705416,0.17063356657715434,-0.10685902865731464,0.24376515903807616,0.0,1446.0,1500.0,1246.4059039098197,1509.5940960901803,1489.4059039098197,1588.561122244489,16.098673122885774,16.148292710881762,16.544197005691384,16.320487773026052,16.72061359531062,15.98783682204409,16.380540365390782,155.08751673887775,155.08751673887775,11.74629895983968,-0.0012405819278557115,-0.005780925266533067,0.0009108291162324649,-0.1573615145230461,-0.004738527432865731,0.0020591591743486974,-0.670883898757515,0.04928427418637275,0.04834522642885766,-0.013055546490981977,-3.765242830865729,203.68146961182364,47.48181714122244,-0.020153876318637274,0.016360569496993993,-0.01514202558316633,0.0,-0.09870514076152323,0.9404558760801605,-11.97038382216433,6.87e+18,954.5121164961924,11.746503293967935,-0.11778538135470937,0.27279681671543093,-0.3273136724488978,-0.12133477759318695,0.9290864153126259,-11.912506611142284,61973376.39094189,-0.10108750037675346,0.28242285908416837,-0.3273063576973948,6.87e+18,100.04579,99.11071361258517,0.04675395798997997,-1.0204929921883767,15.366656960160322,16.84774749751503,-0.02962180266933868,0.23615383399198392,-0.34089280738476957,49.98767242048096,35785163.95164329,399.8274943601202,12.403216539258516,96613.86719380761,1.147932549488978,-0.6579951690741482,0.051124407102204415,0.01508134353106209,0.9459650301843687,-0.32316079083366733,0.021749926150300608,0.015390486717434853,0.2688672204228457,-0.4675276543767521,-0.3786533823066165,0.2227901386733472,0.0002717107254509277,0.005179302190380758,0.001137386330661317,398714138.0,327364377.8356713,400120.90169138275,0.640985885290589,-0.0018183996793587395,0.641182542024056,0.006682430719438854,3.1890282055631247,39.87141370000001,32.7364371,-0.5727850116392789,28.82847624080161,-0.09689909182965972,-1.468098132665331,23.63130167004008,-1.2055379401042092,-1.9718031173126247,0.25843081005410706,-2.817945255909819,0.3381995051963932,0.07139146739879766,0.44910804766733464,-0.26201633964729454,0.2667028780240481,0.0,0.0,0.0,1.0,0.0
61966689.0,-0.017292241318637276,0.18312389192384768,-0.10668882442284569,0.24953118253707415,0.0,1446.3507014028055,1500.0,1251.4300249438877,1505.8618016633268,1493.1381983366732,1593.9739478957915,16.114748305851702,16.16482602547094,16.561005610721445,16.36936449967936,16.770558010961924,16.01324403971944,16.406366154789577,155.90861137354705,155.90861137354705,11.74771606529058,-0.0012435002725450903,-0.005780856428857715,0.0009048553386773547,-0.1573216800240481,-0.0046520063647294595,0.0020947716833667335,-0.6423003481382765,0.05260475262925852,0.001728700490981967,-0.023703582034068135,-1.5652288864048098,201.0520239775551,47.625617243246495,-0.01999082348496994,0.01782441298797595,-0.012619831356713428,0.0,-0.10825277312825653,1.0020838677194388,-12.007143130661323,6.87e+18,954.5465931134269,11.74797959987976,-0.07768216422845692,0.28351870035270543,-0.33326846637474955,-0.1327564166292585,1.0244735453186373,-12.00828457523046,62181815.38354709,-0.05527905698997996,0.30352302209819637,-0.34192571472945893,6.87e+18,100.04579,98.907182551503,0.05693047815831663,-0.8905704544028056,15.366506595631263,16.894613424328657,-0.030562136368737475,0.19254069263527054,-0.34141073648496995,50.69204804072144,36026505.73823647,400.122859611022,12.40084070725451,96610.45732671343,1.1478920455130261,-0.6247984726513026,0.05462287794188377,-0.025882556316633266,0.9512698553406813,-0.3068647462965932,0.029957449611222445,-0.003918817454909818,0.26961353360921847,1.353819495436873,-0.964882679276552,0.9574076121683366,0.00221180611022044,0.006500870258517033,-0.0010563958056112222,398714138.0,327364503.93627256,400122.31695230457,8.846320622242484,-0.009464393707414833,8.843686721088176,-0.027901703813627256,1.5724762124509017,39.87141370000001,32.7364371,-0.9099435703547094,34.5147598995992,-0.5506825693547094,-1.8985309627014029,23.58336437737475,-1.9485788669559119,-2.1126386573687372,-0.586769811749499,-3.212927818603206,0.7919829666533066,0.09298268413026052,0.4373013286372745,-0.23751726920841684,0.26890078102204407,0.0,0.0,0.0,1.0,0.0
62178564.0,-0.012985085422845702,0.19453134685370746,-0.10744588282965935,0.2554469122244489,0.0,1450.0881763527054,1500.0,1257.0881763527054,1503.8236472945891,1495.1763527054109,1595.0,16.168866689198396,16.218735637895794,16.61599884298597,16.41968717913828,16.821874114088175,16.080133448797596,16.47474814450902,156.6605039224449,156.6605039224449,11.749219115511023,-0.0012479687755511022,-0.005782216895791584,0.0009065516773547094,-0.1572831564509018,-0.003962217200400802,0.002045676743486974,-0.6089353908496994,0.05599182468937876,-0.03810306376352701,-0.033101757663326646,0.3270954172264509,198.30878140380761,47.776681068637274,-0.01984619106212425,0.019151527569138276,-0.009960242208416837,0.0,-0.23803403274348664,0.9967769361122244,-12.134179666753507,6.87e+18,954.5700822671344,11.749364998216434,-0.041797197338677386,0.2941940326973948,-0.3422642276833668,-0.17903106357314638,0.962380793981964,-12.2068774295992,62391999.60971944,-0.025496997851703458,0.28549203910220444,-0.33944875649498996,6.87e+18,100.04579,98.72429132771543,0.06607499716032064,-0.7295378236733469,15.366393714308618,16.919932435010022,-0.031070774196392783,0.13185498426452913,-0.3418909540821643,51.45748866955912,36267847.524829656,400.7253423402806,12.397372941863727,96603.49709937876,1.1478093504028055,-0.5900286779118238,0.05809433971743486,-0.0661140274048096,0.9561498261823648,-0.28955334032865737,0.037378062707414825,-0.02317031357114227,0.26988587093587174,-0.17232366232064153,2.9558861107294687,-1.5427773431963834,0.17752191801202374,-0.166073040631262,0.1964134870981963,398714138.41763526,327364875.7745491,400130.55528396793,15.87431428671342,0.02,15.86431428671342,-0.05911051740480959,1.5690353782745492,39.87141370000001,32.7364371,-1.398114280953907,40.33289030989979,-1.2181372176132255,-2.3851065377234466,23.376744451843688,-2.7814429990300593,-1.9595170287555113,-1.0317427296372748,-3.0726337722244494,1.4594376808216423,0.11626094732665325,0.4200969320661323,-0.2138258892144289,0.2696163731563126,0.0,0.0,0.0,1.0,0.0
62393845.0,-0.004837237088176385,0.1919631998096192,-0.09607176413026051,0.2595484445290581,0.0,1454.0,1500.0,1261.8517034068136,1501.1494185871745,1497.8505814128255,1595.8517034068136,16.228420753166333,16.277985637294588,16.67644795270541,16.470216461903807,16.873386194368734,15.974384096613226,16.36621279440882,157.41239647134267,157.41239647134267,11.750722167214429,-0.0012526592865731462,-0.005783781663326652,0.0009093440761523046,-0.15724481946893787,-0.0031862332084168356,0.001984478613226453,-0.5702304949919841,0.05945326832865731,-0.07035751518236465,-0.04110407307815629,1.875787769755507,195.43844867995995,47.93585711138277,-0.01971646072945892,0.02038272734869739,-0.007180945172344696,0.0,-0.17879864601803586,0.9520345142925849,-12.096499247094187,4.671843687374785e+18,954.5968343022045,11.751007393026052,-0.010065258735470947,0.28353392523246496,-0.3429254119298598,-0.19743144676152424,1.0106520460160324,-12.04960366438878,62604030.01134269,0.009148556416833627,0.28199826657314636,-0.3392805599278556,4.671843687374785e+18,100.04579,98.58393199871743,0.07309291313426852,-0.5573901770721448,15.366172922024049,16.936240141543085,-0.03140134621242485,0.0592282101743489,-0.34229231038476954,52.20794697811623,36509547.07547094,401.39511791402805,12.392665889739478,96595.75010096193,1.1477172330561123,-0.5448579468817637,0.06192931164729458,-0.09436879643687368,0.9619775321863727,-0.2672361010661323,0.04246856584769538,-0.037085080458917806,0.2683480959438878,-0.17338443960921746,-0.6484547049058338,2.11718439914827,0.25473101211623184,0.12098533135270523,-0.12170058732464686,398714138.32965934,327365390.896994,400136.64763226453,19.85029478639278,-0.051242795348697065,19.846771398236466,-0.02466367394990001,1.5730688191603206,39.87141370000001,32.7364371,-1.9979206545531043,45.87760207549096,-2.0486688718737454,-2.8180126707154303,23.09829976901804,-3.5291364672845673,-1.8514956641503009,-1.3937340516853696,-3.023639054144288,2.289969171873745,0.14204400540480955,0.39961068990581167,-0.191673777971944,0.2699420193286573,0.0,0.0,0.0,1.0,0.0
62595852.0,-0.0013002635470941598,0.19146544807214427,-0.08738266906212423,0.26381883040480963,0.0,1458.7179073667335,1500.0,1265.6152304609218,1499.4758059418837,1499.5241940581163,1594.0,16.287974810981964,16.33723563757515,16.736897062424852,16.520745744669338,16.924898273767536,16.044303963587176,16.437662643507014,158.16428902024052,158.16428902024052,11.752225219799598,-0.0012573497975951905,-0.0057853457274549104,0.0009121363867735471,-0.1572064831022044,-0.0024102482164328645,0.0019232804829659319,-0.5308163437054108,0.06291987489378757,-0.10191937922645294,-0.04896595607615231,3.391861623913829,192.54761356252504,48.09357668214429,-0.019612632274549097,0.021462132352705412,-0.004612623336673344,0.0,-0.1750915422825653,1.0040310340120238,-12.100484258256513,6.87e+18,954.616430660521,11.752620829478959,0.019251359527054125,0.2896526712244488,-0.3418447159318638,-0.25056689006012045,0.9784553284468939,-12.120233491803608,62810622.818496995,0.0374602739198397,0.28429061523446897,-0.34580047850901807,6.87e+18,100.04579,98.471519961503,0.07871361711623247,-0.3560764431603204,15.366078896673347,16.925301458737476,-0.03118445197995992,-0.025525393821643393,-0.3426711717975952,53.02516292016033,36750531.09801603,402.41672038116235,12.38678823240481,96583.93904426854,1.1475769406292586,-0.4979137789539077,0.06553605426853708,-0.12001342068136275,0.9673866098256513,-0.2439123529278557,0.04646075372144289,-0.05003357610020042,0.26660707527855715,-0.24337342629659237,0.7453458851302576,1.3641626926673283,0.20669274895591166,-0.004420282002003492,-0.14154814234268462,398714134.6078156,327365998.09078157,400156.31533587177,22.05367618701403,-0.2159696420180363,22.05367618701403,-0.00839797629859721,1.5807294057595191,39.87141370000001,32.7364371,-2.729548222817636,51.43300053589179,-3.074187225687376,-3.2592980461583174,22.73702881232465,-4.3268108351002015,-1.789209009492986,-1.6928276850881765,-3.244078952693387,3.315487501460923,0.16377681580561124,0.37414357831863726,-0.17005407443286572,0.26834617695390783,0.0,0.0,0.0,1.0,0.0
62796673.0,0.001136231709418838,0.1886791758757515,-0.07815036249498998,0.2671343628116232,0.0,1463.37875751503,1500.0,1268.0,1497.37875751503,1501.62124248497,1592.0,16.347528871102202,16.396485631643287,16.797346172144287,16.57127502743487,16.976410359378757,16.118310731342685,16.513329238757514,158.91618156913827,158.91618156913827,11.753728266172345,-0.0012620393086172346,-0.0057869106432865735,0.0009149286973947896,-0.15716814650501001,-0.0016342638456913828,0.0018620823527054108,-0.47856081894388774,0.0664799574529058,-0.12094166313026052,-0.05428523999198397,4.317363725080161,189.28557283627254,48.224926163967936,-0.019521748240480963,0.022474165939879758,-0.0021604605531062126,0.0,-0.11901353622044088,0.9487788081022044,-12.145306894068135,6.87e+18,954.6519149991984,11.754363421723447,0.04075772231262525,0.27817441375951907,-0.34384213931262525,-0.2342782025250501,1.0020366456993988,-12.117108065911824,63023934.42667335,0.06571712758116233,0.27512766497795593,-0.3404370855551102,6.87e+18,100.04579,98.39424219691382,0.08257750988176353,-0.13948362390781566,15.366028606793586,16.896289701422845,-0.030605221168336673,-0.11464654737074148,-0.34301453003006016,53.86905211987976,36991872.884609215,403.3553492819639,12.37972268012024,96573.09728150301,1.147448164460922,-0.4463363384729459,0.06924726329058116,-0.13931294540881764,0.9727814515470942,-0.2183006241723447,0.04907065372144288,-0.06019093586773547,0.2637070711743487,-0.10558218440481004,-0.29847668551502987,-1.162269411709419,0.15630804343687377,0.19111993519438877,0.20669432994388778,398714128.4046092,327366646.76472944,400183.9220885772,23.199860311863727,-0.3966343446032064,23.180437905651303,-0.1575516909178356,1.5881389882805612,39.87141370000001,32.7364371,-3.5790622630701403,56.86768840759519,-4.282787501478958,-3.679646782194389,22.320298846292584,-5.129144007639279,-1.6003162818977956,-1.9139688461142284,-3.269399359274549,4.524088020915832,0.18563009184569138,0.34655069305410824,-0.15006944387775553,0.2667014990781563,0.0,0.0,0.0,1.0,0.0
