timestamp,control[0],control[1],control[2],control[3],control[4]
82000000,0.014979132,0.038242854,0.000420971,0.15,0
82004000,0.016671786,0.03815148,0.000714828,0.15,0
82012000,0.016466212,0.037717,0.001199353,0.15,0
82016000,0.016461588,0.037756775,0.000999827,0.15,0
82020000,0.016308345,0.037783094,0.000431517,0.15,0
82024000,0.015815178,0.037652437,9.15E-05,0.15,0
82028000,0.015481621,0.0376462,-0.000131729,0.15,0
82032000,0.014085496,0.037612647,0.00023014,0.15,0
82036000,0.014098929,0.037614003,0.000230663,0.15,0
82040000,0.014744579,0.03771315,0.000564112,0.15,0
82044000,0.0162908,0.03753118,0.000675894,0.15,0
82048000,0.01635779,0.037477057,0.000560939,0.15,0
82052000,0.014499726,0.037438184,5.65E-05,0.15,0
82056000,0.012877583,0.037530385,1.09E-05,0.15,0
82060000,0.012555202,0.037824824,0.000229969,0.15,0
82064000,0.013701148,0.038011923,0.000498255,0.15,0
82068000,0.014772852,0.037925277,0.000387915,0.15,0
82072000,0.015271012,0.037614476,4.83E-06,0.15,0
82076000,0.014712995,0.037495155,-0.000654243,0.15,0
82080000,0.014171391,0.037770804,-0.000588846,0.15,0
82084000,0.013238481,0.038146667,-0.000463659,0.15,0
82092000,0.014059233,0.038074013,-0.00076677,0.15,0
82096000,0.015068878,0.037915815,-0.000742374,0.15,0
82100000,0.015399148,0.03801665,-0.000378426,0.15,0
82108000,0.01427253,0.03754057,-0.000521138,0.15,0
82112000,0.013995404,0.037157103,-0.000624641,0.15,0
82116000,0.014299135,0.037059482,-0.000523518,0.15,0
82120000,0.014900089,0.037114292,-0.000301091,0.15,0
82124000,0.01497813,0.03733344,-0.000217505,0.15,0
82128000,0.014753214,0.037596364,-0.000159091,0.15,0
82132000,0.014688524,0.037730295,-9.01E-05,0.15,0
82136000,0.014900146,0.037829794,9.23E-07,0.15,0
82140000,0.015338889,0.03782432,-1.59E-05,0.15,0
82144000,0.01553429,0.037847783,-7.92E-05,0.15,0
82148000,0.015241102,0.03810861,1.66E-05,0.15,0
82152000,0.014406995,0.038094427,0.000136025,0.15,0
82156000,0.01368764,0.0376992,0.000145719,0.15,0
82160000,0.014379206,0.03749346,0.00021148,0.15,0
82164000,0.015397931,0.03744927,0.00038809,0.15,0
82172000,0.015462621,0.037219126,0.00021975,0.15,0
82176000,0.01548832,0.037191346,0.000220282,0.15,0
82180000,0.016000373,0.037126537,-0.000118881,0.15,0
82184000,0.015478869,0.037315287,-0.00068768,0.15,0
82188000,0.015358358,0.037337583,-0.000789929,0.15,0
82196000,0.016237216,0.03743183,-0.000366993,0.15,0
82200000,0.016464459,0.037593786,-9.98E-05,0.15,0
82204000,0.016510792,0.03744208,4.10E-05,0.15,0
82208000,0.015974773,0.037313875,1.63E-05,0.15,0
82212000,0.014508957,0.0373743,7.47E-05,0.15,0
82220000,0.014464256,0.037054785,0.000319412,0.15,0
82228000,0.016878223,0.037148338,0.00018734,0.15,0
82232000,0.017032996,0.03732948,3.45E-05,0.15,0
82240000,0.015613434,0.037330355,-0.000238055,0.15,0
82244000,0.01602144,0.037379187,-9.63E-05,0.15,0
82248000,0.016284788,0.03751171,2.10E-05,0.15,0
82252000,0.01581566,0.037595656,0.000115292,0.15,0
82256000,0.015433912,0.03759505,0.000153455,0.15,0
82260000,0.016254127,0.037665755,0.000117085,0.15,0
82264000,0.016916145,0.03775962,0.000127344,0.15,0
82268000,0.017065153,0.037757453,0.000846742,0,0
82272000,0.016153205,0.037573427,0.001253638,0,0
82276000,0.015339181,0.037418913,0.001432487,0,0
82284000,0.013940912,0.0375058,0.000527606,0,0
82292000,0.015901316,0.037474483,-0.001866387,1,0
82296000,0.0169275,0.03738416,-0.002028506,1,0
82300000,0.017035937,0.037237626,-0.001585816,1,0
82304000,0.016599977,0.03722029,-0.001072191,1,0
82308000,0.016424743,0.037352644,-0.000328059,1,0
82312000,0.016147785,0.03741665,0.000593097,1,0
82316000,0.015068136,0.03733741,0.001091005,1,0
82324000,0.013259191,0.03701288,0.000545072,1,0
82328000,0.014348372,0.036929388,0.000959864,1,0
82332000,0.015334476,0.037125528,0.000560613,1,0
82340000,0.015538151,0.03736715,-0.002358839,1,0
82344000,0.015990391,0.037459705,-0.003125129,1,0
82348000,0.016220938,0.03762701,-0.002821672,1,0
82352000,0.016019633,0.037640877,-0.002468294,1,0
82356000,0.015167539,0.037433445,-0.002504727,1,0
82360000,0.014044738,0.037046224,-0.002118755,1,0
82364000,0.014037691,0.03697553,-0.002001715,1,0
82368000,0.013882909,0.036374368,-0.000270118,1,0
82372000,0.014409291,0.036723554,-0.000242446,1,0
82376000,0.015296897,0.037073582,4.25E-05,1,0
82380000,0.016485805,0.03717212,0.000245654,1,0
82384000,0.016714549,0.037220158,0.000476461,1,0
82388000,0.016721386,0.03723602,0.000584662,1,0
82392000,0.016377613,0.03738293,0.001033596,1,0
82396000,0.016419008,0.037340995,0.000983142,1,0
82404000,0.015891291,0.03770694,0.00194381,1,0
82408000,0.01566095,0.03766694,0.002200078,1,0
82412000,0.015597251,0.037417427,0.002187092,1,0
82416000,0.016442966,0.03723915,0.001220531,1,0
82420000,0.018124236,0.037252855,-0.00056297,1,0
82424000,0.01923236,0.03725002,-0.001357625,1,0
82428000,0.019219195,0.03712541,-0.001203566,1,0
82432000,0.018376151,0.037032973,-0.001105119,1,0
82436000,0.0171408,0.036957346,-0.000553712,1,0
82444000,0.01615421,0.03704907,0.000193817,1,0
82448000,0.015557169,0.037289806,0.000390374,1,0
82452000,0.01536767,0.037441473,4.34E-05,1,0
82456000,0.01600483,0.037279375,-0.000126436,1,0
82460000,0.01633161,0.03704567,-0.000474687,1,0
82464000,0.015634838,0.03682981,-0.000116525,1,0
82468000,0.014674367,0.03668636,0.000980708,1,0
82472000,0.014315426,0.03666687,0.001669676,1,0
82476000,0.014318588,0.0366525,0.001750828,1,0
82480000,0.015301677,0.036937904,0.00143979,1,0
82488000,0.014466044,0.037300915,0.000497049,1,0
82492000,0.014437163,0.037301984,0.000378525,1,0
82496000,0.012969065,0.037157927,-0.000799138,1,0
82500000,0.013456818,0.03704528,-0.000973513,1,0
82508000,0.015398557,0.037071574,-0.00127999,1,0
82512000,0.016401066,0.037071403,-0.001452828,1,0
82516000,0.016532246,0.037233915,-0.001564853,1,0
82520000,0.016282786,0.037471183,-0.001483841,1,0
82524000,0.015565258,0.037431665,-0.001339676,1,0
82528000,0.014640579,0.037187796,-0.000724082,1,0
82532000,0.014219072,0.037075136,-0.000259403,1,0
82536000,0.014559499,0.037052847,-0.000264147,1,0
82540000,0.01583147,0.036967114,-0.000635261,1,0
82544000,0.016950475,0.03684895,-0.000906391,1,0
82548000,0.01696225,0.0369353,-0.000837765,1,0
82552000,0.01655577,0.037308022,-0.000443339,1,0
82556000,0.015670557,0.03769675,-0.000164735,1,0
82560000,0.014339389,0.03786886,-0.000273341,1,0
82564000,0.014042438,0.03790153,-0.000708401,1,0
82568000,0.014792963,0.037772108,-0.001032114,1,0
82572000,0.015676279,0.03740826,-0.001089964,1,0
82576000,0.016638832,0.036925543,-0.001173367,1,0
82584000,0.016013738,0.03638905,-0.000806548,1,0
82588000,0.014478801,0.035094675,-0.000427503,1,0
82592000,0.014162529,0.03531387,-0.0001357,1,0
82596000,0.014063974,0.035537034,6.03E-05,1,0
82600000,0.013723645,0.03572239,6.04E-05,1,0
82604000,0.013741686,0.03570662,1.37E-05,1,0
82608000,0.015153743,0.03562175,-0.00063167,1,0
82612000,0.015984328,0.03558392,-0.000833658,1,0
82616000,0.0157904,0.035699386,-0.000640136,1,0
82620000,0.015471714,0.035943687,-0.000336412,1,0
82624000,0.0156143,0.03618911,-0.000195966,1,0
82628000,0.016124496,0.036012918,-1.75E-05,1,0
82636000,0.015137798,0.0351035,0.00029043,1,0
82640000,0.013731611,0.034900192,0.00038148,1,0
82644000,0.013402936,0.034946743,0.000585732,1,0
82648000,0.013710687,0.035161693,0.000625797,1,0
82652000,0.013689259,0.035173938,0.000661112,1,0
82656000,0.013484293,0.03575131,0.000512456,1,0
82660000,0.013942892,0.03592347,0.000383822,1,0
82668000,0.014352387,0.03572172,0.00020004,1,0
82672000,0.014641875,0.035787284,-0.000119321,1,0
82676000,0.015322951,0.036032163,-0.000459906,1,0
82680000,0.015704945,0.036235843,-0.000563052,1,0
82684000,0.015304071,0.036330182,-0.000562926,1,0
82688000,0.01021762,0.027606398,-0.000423775,1,0
82692000,0.010281302,0.02734622,-0.000290068,1,0
82696000,0.010153637,0.02716447,-0.000170428,1,0
82700000,0.009721988,0.02716215,2.74E-05,1,0
82704000,0.009658061,0.027246878,0.000147953,1,0
82708000,0.009814214,0.027224364,3.16E-06,1,0
82712000,0.009583745,0.027160598,-0.000240476,1,0
82716000,0.00916407,0.027178105,-0.000245312,1,0
82720000,0.008757023,0.027177121,-8.52E-05,1,0
82724000,0.008344739,-0.3336765,4.04E-05,1,0
82728000,0.008181267,-0.33373848,0.000141192,1,0
82732000,0.008184454,-0.33388853,0.000150504,1,0
82736000,0.008472139,-0.33396098,-1.37E-05,1,0
82740000,0.008968052,-0.3339923,-0.000650323,1,0
82744000,0.009225876,-0.3339288,-0.001777692,1,0
82748000,0.008460256,-0.3182907,-0.004618449,1,0
82752000,0.007561097,-0.31848556,-0.006703518,1,0
82760000,0.006092364,-0.31841207,-0.011257753,1,0
82764000,0.005658467,-0.3180577,-0.013733128,1,0
82768000,0.005208588,-0.317734,-0.015981026,1,0
82772000,0.004419158,-0.30285215,-0.018500252,1,0
82776000,0.003344373,-0.30259374,-0.020555684,1,0
82780000,0.001992061,-0.302322,-0.022984082,1,0
82784000,0.000458877,-0.30212945,-0.024889149,1,0
82788000,9.86E-05,-0.25431308,-0.027220212,1,0
82796000,-0.001906082,-0.24245833,-0.031466693,1,0
82804000,-0.004985109,-0.24210995,-0.03582285,1,0
82808000,-0.006406334,-0.24200763,-0.037784204,1,0
82812000,-0.007652235,-0.24201877,-0.040280055,1,0
82820000,-0.010964904,-0.2311967,-0.04448153,1,0
82824000,-0.012881829,-0.2312652,-0.046206668,1,0
82828000,-0.014650981,-0.23143004,-0.048509166,1,0
82832000,-0.016346702,-0.23159108,-0.04982345,1,0
82836000,-0.01788363,-0.23169151,-0.051762193,1,0
82844000,-0.020594034,-0.22149725,-0.054973945,1,0
82848000,-0.0225068,-0.22147948,-0.05626887,1,0
82852000,-0.024260268,-0.22147255,-0.058215708,1,0
82856000,-0.02564834,-0.2215873,-0.059211127,1,0
82860000,-0.027274737,-0.22180685,-0.060977586,1,0
82864000,-0.029495843,-0.22204736,-0.061822586,1,0
82868000,-0.03210373,-0.2123178,-0.06341821,1,0
82872000,-0.034585997,-0.21248995,-0.06404515,1,0
82876000,-0.036533155,-0.21263193,-0.06549099,1,0
82880000,-0.03795458,-0.21271603,-0.06624169,1,0
82884000,-0.03839204,-0.21276854,-0.067885384,1,0
82888000,-0.030746745,-0.18363006,-0.068121396,1,0
82892000,-0.03233376,-0.1756132,-0.06885967,1,0
82896000,-0.03419586,-0.17579615,-0.068644956,1,0
82900000,-0.035971384,-0.1759285,-0.0693756,1,0
82904000,-0.037720025,-0.17599462,-0.06937088,1,0
82908000,-0.039597247,-0.1761151,-0.07007597,1,0
82912000,-0.04141633,-0.17636482,-0.069857545,1,0
82916000,-0.042898163,-0.16890834,-0.07020369,1,0
82920000,-0.04421477,-0.1691174,-0.06954837,1,0
82924000,-0.045528553,-0.16921897,-0.06950222,1,0
82928000,-0.046909563,-0.16928948,-0.06881963,1,0
82932000,-0.048497744,-0.16940719,-0.068920836,1,0
82936000,-0.049040016,-0.16951245,-0.068897195,1,0
82940000,-0.051511344,-0.16217011,-0.06822607,1,0
82944000,-0.05299434,-0.16219616,-0.067578375,1,0
82948000,-0.054787893,-0.16216952,-0.067489296,1,0
82952000,-0.056712046,-0.16219044,-0.06636599,1,0
82960000,-0.058822304,-0.16241138,-0.06437041,1,0
82964000,-0.05938576,-0.1553853,-0.06368322,1,0
82968000,-0.059996903,-0.15546846,-0.06313096,1,0
82972000,-0.060770076,-0.15557443,-0.06242798,1,0
82976000,-0.061826788,-0.15561491,-0.06119484,1,0
82980000,-0.063852005,-0.1555446,-0.06001719,1,0
82988000,-0.06630398,-0.14837797,-0.058283288,1,0
82996000,-0.058226656,-0.13688417,-0.056563973,1,0
83000000,-0.05873087,-0.13689293,-0.05553116,1,0
83004000,-0.059314646,-0.13691507,-0.0555368,1,0
83012000,-0.060829926,-0.1304754,-0.05268425,1,0
83016000,-0.061649736,-0.13042645,-0.051110607,1,0
83020000,-0.06276821,-0.13041303,-0.049851503,1,0
83024000,-0.06378337,-0.1303716,-0.04830284,1,0
83028000,-0.06446207,-0.13028768,-0.047154166,1,0
83036000,-0.06572712,-0.12413137,-0.044605225,1,0
83040000,-0.066501744,-0.124105394,-0.043109097,1,0
83044000,-0.067387894,-0.124017864,-0.041885,1,0
83048000,-0.06815253,-0.12384134,-0.040413506,1,0
83052000,-0.068667114,-0.123731904,-0.039178345,1,0
83060000,-0.06966136,-0.11785529,-0.03676276,1,0
83068000,-0.070148624,-0.11769424,-0.033511855,1,0
83072000,-0.07024651,-0.11755557,-0.031987272,1,0
83076000,-0.07020602,-0.11743754,-0.030629564,1,0
83080000,-0.07021117,-0.117269635,-0.029081132,1,0
83084000,-0.070374265,-0.11133688,-0.027652266,1,0
83088000,-0.06464734,-0.10563479,-0.026201155,1,0
83092000,-0.065163895,-0.10554129,-0.025014397,1,0
83096000,-0.06560019,-0.105496354,-0.023775626,1,0
83100000,-0.06579005,-0.10546133,-0.022615062,1,0
83104000,-0.06590244,-0.10544083,-0.021356804,1,0
83108000,-0.06602965,-0.10015423,-0.020232273,1,0
83112000,-0.0662686,-0.10009448,-0.018978538,1,0
83116000,-0.06672979,-0.10004787,-0.017715937,1,0
83120000,-0.067063704,-0.10003461,-0.01635344,1,0
83124000,-0.067101866,-0.100070015,-0.015021862,1,0
83128000,-0.06711264,-0.100124955,-0.013677136,1,0
83132000,-0.06719152,-0.09503392,-0.012417443,1,0
83136000,-0.06731832,-0.09504455,-0.011171136,1,0
83140000,-0.06768387,-0.095051825,-0.009942798,1,0
83144000,-0.06836292,-0.09507364,-0.00866241,1,0
83148000,-0.06895904,-0.09509065,-0.007414017,1,0
83152000,-0.06916018,-0.09511282,-0.006182506,1,0
83156000,-0.06907684,-0.090120256,-0.00506504,1,0
83160000,-0.06891439,-0.09019117,-0.004009878,1,0
83164000,-0.06860437,-0.09030707,-0.002956609,1,0
83168000,-0.06823066,-0.09045635,-0.001926141,1,0
83172000,-0.06868297,-0.0905056,-0.000809704,1,0
83176000,-0.068588376,-0.0907866,0.000111334,1,0
83180000,-0.068768606,-0.085953794,0.001184223,1,0
83184000,-0.068797454,-0.08605766,0.002198381,1,0
83188000,-0.068947405,-0.08624928,0.00319225,1,0
83196000,-0.06968344,-0.08660377,0.005203644,1,0
83200000,-0.06977739,-0.086945385,0.005956487,1,0
83204000,-0.070011236,-0.082284145,0.006689996,1,0
83208000,-0.07032658,-0.082449585,0.007340465,1,0
83212000,-0.07071769,-0.08265206,0.008035694,1,0
83220000,-0.07119791,-0.083305866,0.009309469,1,0
83224000,-0.071467884,-0.08358973,0.009910926,1,0
83228000,-0.07170053,-0.079073355,0.010537805,1,0
83236000,-0.07205796,-0.07973334,0.011689053,1,0
83240000,-0.072040655,-0.0799089,0.011802322,1,0
83244000,-0.07148149,-0.07966397,0.011200666,1,0
83248000,-0.0707855,-0.079277605,0.010364944,1,0
83252000,-0.07043562,-0.074326925,0.00981582,1,0
83260000,-0.070413545,-0.07426789,0.009322364,1,0
83264000,-0.070868455,-0.07432367,0.009162828,1,0
83268000,-0.071503066,-0.074431404,0.008968737,1,0
83272000,-0.07214493,-0.074570626,0.008676667,1,0
83276000,-0.07265756,-0.07001651,0.008395156,1,0
83280000,-0.07303865,-0.07002694,0.008070292,1,0
83284000,-0.07321396,-0.070036896,0.007635925,1,0
83288000,-0.07310634,-0.070116125,0.00700021,1,0
83292000,-0.07296321,-0.070271194,0.006373232,1,0
83296000,-0.073076196,-0.07041026,0.005828659,1,0
83300000,-0.073413745,-0.06586718,0.005270895,1,0
83308000,-0.074013665,-0.065925874,0.00386257,1,0
83312000,-0.074422725,-0.066014685,0.003232447,1,0
83316000,-0.074825406,-0.06614446,0.00260839,1,0
83324000,-0.07535885,-0.061834123,0.0014942,1,0
83328000,-0.07500561,-0.062046982,0.000326442,1,0
83332000,-0.07493408,-0.062177673,-0.00053695,1,0
83336000,-0.07523534,-0.06226756,-0.001033277,1,0
83340000,-0.074803546,-0.06264862,-0.002469075,1,0
83344000,-0.07501553,-0.06297203,-0.003289569,1,0
83348000,-0.07534271,-0.058820415,-0.004082704,1,0
83352000,-0.07592162,-0.059114628,-0.004865534,1,0
83356000,-0.07624227,-0.059276737,-0.005486108,1,0
83360000,-0.07723407,-0.05983083,-0.006530362,1,0
83364000,-0.07742309,-0.0602834,-0.007329242,1,0
83368000,-0.07761601,-0.06075824,-0.008046603,1,0
83372000,-0.077888295,-0.05681102,-0.008770849,1,0
83376000,-0.07803897,-0.057328574,-0.009408249,1,0
83380000,-0.078052066,-0.057906367,-0.010007298,1,0
83384000,-0.078009956,-0.058572225,-0.010591769,1,0
83388000,-0.07796832,-0.059240215,-0.011206197,1,0
83392000,-0.07809309,-0.05991036,-0.011776716,1,0
83396000,-0.078397736,-0.055913493,-0.012460811,1,0
83400000,-0.079021275,-0.056845803,-0.01310214,1,0
83404000,-0.079329975,-0.057284273,-0.013737937,1,0
83408000,-0.07999541,-0.058093667,-0.014084175,1,0
83412000,-0.08023704,-0.058814555,-0.014559297,1,0
83420000,-0.08017635,-0.055944823,-0.015508172,1,0
83424000,-0.07992733,-0.056639098,-0.015976042,1,0
83428000,-0.07975787,-0.057359967,-0.016438654,1,0
83432000,-0.07975617,-0.0581152,-0.016839158,1,0
83436000,-0.08004351,-0.058699522,-0.017407505,1,0
83440000,-0.08023716,-0.05945178,-0.017779091,1,0
83444000,-0.080352254,-0.055852413,-0.018165892,1,0
83448000,-0.080267765,-0.056638256,-0.018486355,1,0
83456000,-0.08041912,-0.058311272,-0.01915132,1,0
83460000,-0.080400236,-0.059158426,-0.019505069,1,0
83464000,-0.08028821,-0.06015449,-0.019539531,1,0
83468000,-0.080550484,-0.056526396,-0.020002514,1,0
83472000,-0.08066656,-0.057381418,-0.02005697,1,0
83476000,-0.08101143,-0.05812315,-0.020332467,1,0
83480000,-0.08119507,-0.05887173,-0.02056798,1,0
83484000,-0.08118794,-0.05969483,-0.020780642,1,0
83492000,-0.08116461,-0.05715608,-0.02114378,1,0
83496000,-0.081067316,-0.057965733,-0.021359548,1,0
83500000,-0.0808926,-0.05872506,-0.021552831,1,0
83508000,-0.0806139,-0.06012229,-0.021764543,1,0
83512000,-0.08062473,-0.060864113,-0.021852324,1,0
83516000,-0.08068156,-0.057381794,-0.022002868,1,0
83520000,-0.08072091,-0.05822311,-0.022111095,1,0
83524000,-0.08088467,-0.059044994,-0.022177586,1,0
83528000,-0.081085235,-0.059824586,-0.022191014,1,0
83532000,-0.081097856,-0.060586873,-0.022266127,1,0
83536000,-0.08096281,-0.061233994,-0.022383716,1,0
83540000,-0.08077286,-0.057529368,-0.022467887,1,0
83544000,-0.08056394,-0.05816392,-0.022369236,1,0
83548000,-0.08039358,-0.058883306,-0.0222901,1,0
83552000,-0.08036431,-0.05962474,-0.022256825,1,0
83556000,-0.080568336,-0.06035517,-0.022285696,1,0
83560000,-0.080818444,-0.061003365,-0.02231915,1,0
83564000,-0.08102277,-0.057457123,-0.022398297,1,0
83568000,-0.08127592,-0.057872497,-0.022178564,1,0
83572000,-0.08133721,-0.05846343,-0.022117684,1,0
83576000,-0.08120469,-0.059065953,-0.022051185,1,0
83580000,-0.081176125,-0.059684113,-0.021930065,1,0
83584000,-0.08150558,-0.060310625,-0.021727778,1,0
83588000,-0.08193895,-0.0566811,-0.02155575,1,0
83592000,-0.08199521,-0.057270437,-0.021389432,1,0
83596000,-0.081746995,-0.057826936,-0.021285202,1,0
83600000,-0.08158113,-0.05833364,-0.021184364,1,0
83604000,-0.0814229,-0.058820754,-0.021052592,1,0
83608000,-0.08104523,-0.05936844,-0.020856611,1,0
83612000,-0.080631,-0.055725627,-0.020736221,1,0
83620000,-0.08065933,-0.05689319,-0.020571014,1,0
83628000,-0.08123065,-0.057736535,-0.020234799,1,0
83632000,-0.0813645,-0.05821118,-0.020046001,1,0
83636000,-0.08153685,-0.054426756,-0.019941038,1,0
83640000,-0.08187786,-0.05487115,-0.019934088,1,0
83644000,-0.08204336,-0.055423632,-0.019879902,1,0
83648000,-0.081976816,-0.055834606,-0.019969583,1,0
83656000,-0.08186997,-0.05684987,-0.019830698,1,0
83660000,-0.08160144,-0.053080153,-0.01972434,1,0
83664000,-0.0817494,-0.0535064,-0.019690862,1,0
83668000,-0.08181166,-0.053908415,-0.019730743,1,0
83672000,-0.08173429,-0.05432549,-0.019734904,1,0
83676000,-0.081372514,-0.05472032,-0.019680856,1,0
83680000,-0.08104736,-0.055043414,-0.019622993,1,0
83684000,-0.081025414,-0.05116462,-0.019634666,1,0
83688000,-0.08117063,-0.05155868,-0.019627608,1,0
83692000,-0.08141048,-0.05200755,-0.019620096,1,0
83696000,-0.08180089,-0.052502297,-0.019705478,1,0
83700000,-0.08219893,-0.052963976,-0.019863717,1,0
83704000,-0.08229709,-0.053360745,-0.019907301,1,0
83708000,-0.08243352,-0.04958479,-0.0199087,1,0
83716000,-0.082009904,-0.050284617,-0.02002228,1,0
83720000,-0.081959814,-0.050623186,-0.020259075,1,0
83724000,-0.08204947,-0.051090308,-0.020404292,1,0
83728000,-0.08189352,-0.051571425,-0.020546783,1,0
83732000,-0.0817333,-0.047789805,-0.020742096,1,0
83736000,-0.08178778,-0.048174743,-0.02092275,1,0
83740000,-0.08194313,-0.04855288,-0.02098985,1,0
83744000,-0.081983075,-0.048941743,-0.020998277,1,0
83748000,-0.081935056,-0.049338426,-0.021145891,1,0
83756000,-0.08219146,-0.045880336,-0.0215346,1,0
83760000,-0.0827158,-0.046236485,-0.021975182,1,0
83764000,-0.082862265,-0.046684638,-0.022157079,1,0
83772000,-0.08245396,-0.047617022,-0.022592494,1,0
83780000,-0.0825641,-0.04421343,-0.023070835,1,0
83784000,-0.08271853,-0.044573925,-0.02355346,1,0
83788000,-0.08283176,-0.0449373,-0.023881007,1,0
83792000,-0.08280906,-0.045338083,-0.024133258,1,0
83796000,-0.082820706,-0.04582299,-0.024352316,1,0
83800000,-0.082827814,-0.046323813,-0.02458279,1,0
83804000,-0.08275243,-0.042498834,-0.024881206,1,0
83808000,-0.08266749,-0.042838503,-0.025230203,1,0
83812000,-0.08261785,-0.04324018,-0.025626533,1,0
83816000,-0.08259135,-0.043665707,-0.026072834,1,0
83820000,-0.082490265,-0.044056073,-0.02655894,1,0
83824000,-0.082379304,-0.044445638,-0.02696462,1,0
83828000,-0.08252292,-0.04062884,-0.027310364,1,0
83832000,-0.08286457,-0.041085057,-0.027654825,1,0
83836000,-0.08312393,-0.041547455,-0.028025826,1,0
83840000,-0.083250426,-0.042040925,-0.028447941,1,0
83844000,-0.08320777,-0.042565458,-0.028907906,1,0
83852000,-0.08325999,-0.039224863,-0.029663077,1,0
83856000,-0.08348034,-0.03967683,-0.0300566,1,0
83860000,-0.083599925,-0.040126193,-0.030459505,1,0
83864000,-0.08359533,-0.040564857,-0.030900525,1,0
83868000,-0.08353477,-0.040997222,-0.031366616,1,0
83872000,-0.083557636,-0.04144948,-0.03182505,1,0
83876000,-0.083672285,-0.03763058,-0.032224286,1,0
83880000,-0.0838243,-0.038151182,-0.03276518,1,0
83884000,-0.08393532,-0.038640127,-0.0332666,1,0
83888000,-0.08391243,-0.039210267,-0.033714965,1,0
83892000,-0.08384803,-0.039800793,-0.03411167,1,0
83896000,-0.08394212,-0.04031681,-0.034531698,1,0
83900000,-0.084097914,-0.036527593,-0.034937747,1,0
83904000,-0.0841803,-0.03699755,-0.035341088,1,0
83908000,-0.08423723,-0.037473805,-0.035791215,1,0
83912000,-0.08422996,-0.037950054,-0.036235344,1,0
83916000,-0.08413269,-0.038424384,-0.03671395,1,0
83920000,-0.08408486,-0.038946502,-0.037238996,1,0
83924000,-0.084220804,-0.03523571,-0.037779886,1,0
83928000,-0.08457783,-0.035782315,-0.0383097,1,0
83932000,-0.084928915,-0.03633304,-0.03879435,1,0
83936000,-0.085019246,-0.036870137,-0.039216958,1,0
83940000,-0.08488618,-0.037373446,-0.039590813,1,0
83944000,-0.08473696,-0.03785283,-0.040033218,1,0
83948000,-0.084682874,-0.033976182,-0.04054913,1,0
83952000,-0.084656894,-0.034361616,-0.04105473,1,0
83956000,-0.08462969,-0.034831807,-0.04155303,1,0
83960000,-0.08472257,-0.035349257,-0.042055055,1,0
83964000,-0.08498816,-0.03584651,-0.042525113,1,0
83968000,-0.08525837,-0.036357947,-0.04300222,1,0
83972000,-0.08524692,-0.032605357,-0.04352916,1,0
83976000,-0.085011095,-0.033099025,-0.044013806,1,0
83980000,-0.084972106,-0.033560194,-0.044333123,1,0
83984000,-0.08519547,-0.034115776,-0.044580698,1,0
83988000,-0.08528949,-0.03462547,-0.045017794,1,0
83992000,-0.08518385,-0.03527236,-0.04521344,1,0
83996000,-0.085183054,-0.03146821,-0.045545276,1,0
84000000,-0.085398965,-0.031995736,-0.045950614,1,0
84004000,-0.08555682,-0.032563873,-0.046408053,1,0
84008000,-0.08557666,-0.03308522,-0.046905987,1,0
84012000,-0.08559067,-0.03352367,-0.047360424,1,0
84016000,-0.085502096,-0.033938825,-0.047706004,1,0
84020000,-0.08531897,-0.030025158,-0.0477629,1,0
84024000,-0.08528238,-0.030484714,-0.04767456,1,0
84028000,-0.08536698,-0.03101207,-0.047678687,1,0
84036000,-0.085441165,-0.03225252,-0.047538307,1,0
84040000,-0.08572197,-0.032763183,-0.047467105,1,0
84044000,-0.08575331,-0.028949447,-0.04743474,1,0
84048000,-0.08559266,-0.029470734,-0.04746764,1,0
84052000,-0.08552896,-0.030008052,-0.047470823,1,0
84056000,-0.0856051,-0.030546747,-0.047438517,1,0
84060000,-0.08579487,-0.031065416,-0.047358774,1,0
84064000,-0.08612187,-0.03155875,-0.047276817,1,0
84068000,-0.08629367,-0.027691204,-0.0471977,1,0
84076000,-0.08634449,-0.02871973,-0.04717338,1,0
84080000,-0.08667389,-0.029317986,-0.04707317,1,0
84084000,-0.086829096,-0.029869478,-0.047017045,1,0
84088000,-0.08667075,-0.030340742,-0.047033668,1,0
84096000,-0.08627841,-0.026847959,-0.046970814,1,0
84100000,-0.08628605,-0.027349725,-0.046904698,1,0
84104000,-0.08601148,-0.027894545,-0.046883807,1,0
84108000,-0.085555956,-0.028439086,-0.046889864,1,0
84116000,-0.085417755,-0.02518219,-0.04678203,1,0
84120000,-0.08558508,-0.02568745,-0.04674365,1,0
84124000,-0.085772805,-0.02612498,-0.046762228,1,0
84128000,-0.08574274,-0.026525546,-0.046794288,1,0
84132000,-0.08546406,-0.026925858,-0.04678171,1,0
84136000,-0.085325,-0.027412053,-0.04676518,1,0
84140000,-0.0855011,-0.023574142,-0.046650812,1,0
84144000,-0.08572847,-0.024130303,-0.0465288,1,0
84148000,-0.08584587,-0.024632098,-0.04647501,1,0
84156000,-0.08601684,-0.025498534,-0.046440154,1,0
84160000,-0.08619164,-0.025978953,-0.04641677,1,0
84164000,-0.08644351,-0.022086043,-0.046393108,1,0
84168000,-0.0866643,-0.022611924,-0.046374545,1,0
84172000,-0.086746745,-0.02312605,-0.046361133,1,0
84176000,-0.08655858,-0.023622155,-0.046418298,1,0
84180000,-0.086300544,-0.024102945,-0.046464615,1,0
84184000,-0.086232044,-0.024545891,-0.046506934,1,0
84188000,-0.08629304,-0.020532006,-0.046492238,1,0
84192000,-0.08637886,-0.020974427,-0.046476193,1,0
84196000,-0.08635781,-0.021448852,-0.046463277,1,0
84200000,-0.08619308,-0.021920556,-0.046484694,1,0
84204000,-0.086104825,-0.022358594,-0.046475545,1,0
84208000,-0.086119324,-0.022805989,-0.0464499,1,0
84212000,-0.08592528,-0.018889723,-0.04635726,1,0
84216000,-0.08571561,-0.01946714,-0.046333164,1,0
84220000,-0.085811384,-0.01998052,-0.046443522,1,0
84224000,-0.08601981,-0.020418417,-0.046622075,1,0
84228000,-0.08618919,-0.020889364,-0.04665614,1,0
84232000,-0.08637639,-0.021404382,-0.046636455,1,0
84236000,-0.08654457,-0.017443579,-0.046598,1,0
84240000,-0.08655063,-0.017927215,-0.046574835,1,0
84244000,-0.086534835,-0.018384103,-0.04655567,1,0
84248000,-0.086518124,-0.01883499,-0.04661856,1,0
84252000,-0.086370654,-0.01933266,-0.046686035,1,0
84260000,-0.08637691,-0.015855255,-0.046765216,1,0
84264000,-0.08659944,-0.016252726,-0.046739988,1,0
84268000,-0.08646418,-0.016637245,-0.046683475,1,0
84272000,-0.08615025,-0.017020967,-0.04671076,1,0
84276000,-0.08572238,-0.017424308,-0.04673851,1,0
84284000,-0.08575178,-0.013933875,-0.04677988,1,0
84288000,-0.08588528,-0.014438781,-0.046804436,1,0
84292000,-0.08610035,-0.014892946,-0.04683834,1,0
84296000,-0.08625233,-0.015304925,-0.046915665,1,0
84300000,-0.086307995,-0.015702754,-0.04695128,1,0
84308000,-0.0867357,-0.01206856,-0.04699967,1,0
84312000,-0.08683242,-0.01252185,-0.04711386,1,0
84316000,-0.08694143,-0.013014995,-0.047167905,1,0
84320000,-0.087047674,-0.013520491,-0.04717692,1,0
84324000,-0.08704935,-0.013987826,-0.04717746,1,0
84328000,-0.08693022,-0.014424038,-0.047246963,1,0
84332000,-0.08684052,-0.010350317,-0.047255754,1,0
84340000,-0.08690051,-0.011246817,-0.047232106,1,0
84344000,-0.08691472,-0.011652841,-0.04722569,1,0
84348000,-0.0868359,-0.012050467,-0.04724008,1,0
84352000,-0.08671741,-0.012538131,-0.047266006,1,0
84356000,-0.086934745,-0.008491143,-0.047330733,1,0
84360000,-0.08710358,-0.008997073,-0.04745829,1,0
84364000,-0.08723121,-0.00951443,-0.047547787,1,0
84368000,-0.08745479,-0.010002944,-0.047617674,1,0
84372000,-0.08755991,-0.010477142,-0.04762741,1,0
84376000,-0.08743031,-0.010985168,-0.047642667,1,0
84380000,-0.08731816,-0.006950995,-0.047655135,1,0
84388000,-0.08733886,-0.007819236,-0.047854185,1,0
84396000,-0.08810427,-0.008597823,-0.04800608,1,0
84400000,-0.0881999,-0.009033658,-0.048048463,1,0
84404000,-0.08793811,-0.004902034,-0.048026305,1,0
84408000,-0.087608315,-0.005344139,-0.04801619,1,0
84412000,-0.08742755,-0.005780939,-0.048027586,1,0
84416000,-0.08722165,-0.00624672,-0.048145905,1,0
84420000,-0.08712436,-0.006761236,-0.048262738,1,0
84424000,-0.08732748,-0.00729449,-0.048374318,1,0
84428000,-0.08751638,-0.003189595,-0.04844884,1,0
84432000,-0.08741526,-0.003608046,-0.048544675,1,0
84436000,-0.087242,-0.004023038,-0.04857158,1,0
84440000,-0.0872432,-0.004455092,-0.04859595,1,0
84444000,-0.08730118,-0.004936922,-0.04856855,1,0
84452000,-0.08778996,-0.001369713,-0.048611037,1,0
84456000,-0.08797802,-0.001804294,-0.04863271,1,0
84460000,-0.08813656,-0.002224276,-0.04860279,1,0
84468000,-0.08840328,-0.003126349,-0.048612576,1,0
84472000,-0.08839128,-0.003685145,-0.048659056,1,0
84476000,-0.088456176,0.000464311,-0.048663262,1,0
84480000,-0.088673115,-0.000105083,-0.04885787,1,0
84484000,-0.08873991,-0.000556408,-0.048861198,1,0
84488000,-0.0887229,-0.00105034,-0.04885692,1,0
84492000,-0.08869883,-0.001586983,-0.04882103,1,0
84496000,-0.088710174,-0.002068931,-0.048842512,1,0
84500000,-0.08869396,0.002135241,-0.04885436,1,0
84504000,-0.088604316,0.001707388,-0.048883643,1,0
84508000,-0.0886128,0.001231482,-0.0489159,1,0
84512000,-0.08877128,0.000751881,-0.049018826,1,0
84516000,-0.08889462,0.000292696,-0.04905252,1,0
84520000,-0.0890658,-0.000190936,-0.049085867,1,0
84524000,-0.08921605,0.003983071,-0.04905104,1,0
84532000,-0.089062035,0.00312083,-0.049053535,1,0
84536000,-0.08825433,0.002731703,-0.049029052,1,0
84540000,-0.088281006,0.002184127,-0.049057566,1,0
84544000,-0.08865328,0.001605699,-0.04913546,1,0
84548000,-0.088707015,0.005771697,-0.049139746,1,0
84552000,-0.08910201,0.005122133,-0.049204923,1,0
84556000,-0.08916236,0.004653219,-0.049209222,1,0
84560000,-0.08929146,0.004246684,-0.04934249,1,0
84564000,-0.089340515,0.003812701,-0.049291134,1,0
84572000,-0.08936636,0.007390188,-0.0491323,1,0
84576000,-0.08961147,0.006864056,-0.049131878,1,0
84580000,-0.08975962,0.006329618,-0.049135424,1,0
84584000,-0.0896226,0.00585136,-0.04919196,1,0
84588000,-0.089565754,0.005436927,-0.049247377,1,0
84596000,-0.08949903,0.009182453,-0.049360197,1,0
84600000,-0.089330696,0.008705441,-0.049385875,1,0
84604000,-0.08921248,0.008223802,-0.049307108,1,0
84612000,-0.089267515,0.007179162,-0.049264193,1,0
84616000,-0.08936343,0.006607901,-0.049314752,1,0
84620000,-0.08922849,0.010839481,-0.049304076,1,0
84624000,-0.089178264,0.010346733,-0.049339313,1,0
84628000,-0.089260556,0.009824438,-0.049330074,1,0
84636000,-0.08987916,0.008813567,-0.04941702,1,0
84640000,-0.08975314,0.008334635,-0.049403396,1,0
84644000,-0.08941074,0.012534188,-0.049311697,1,0
84648000,-0.08904725,0.011992225,-0.049321964,1,0
84652000,-0.08877024,0.011444429,-0.049336113,1,0
84656000,-0.088743605,0.01091993,-0.049410544,1,0
84660000,-0.088784076,0.010419641,-0.049414847,1,0
84664000,-0.08918619,0.009924412,-0.049523562,1,0
84668000,-0.08979101,0.014155183,-0.049480945,1,0
84672000,-0.08984,0.013660453,-0.049527194,1,0
84676000,-0.090093836,0.013203658,-0.04940617,1,0
84680000,-0.0898831,0.012670921,-0.049382083,1,0
84684000,-0.08997561,0.012129668,-0.049396418,1,0
84688000,-0.090022065,0.011601536,-0.049514856,1,0
84692000,-0.089925475,0.015819812,-0.049585573,1,0
84696000,-0.09008773,0.015367365,-0.049676694,1,0
84700000,-0.0905598,0.014918707,-0.049654506,1,0
84708000,-0.09076047,0.013923096,-0.04948794,1,0
84716000,-0.0906112,0.017612636,-0.049525056,1,0
84724000,-0.09045166,0.01663564,-0.049773432,1,0
84728000,-0.090210035,0.016177591,-0.049773023,1,0
84732000,-0.09011835,0.015717149,-0.04974968,1,0
84736000,-0.09026782,0.015281277,-0.049780346,1,0
84740000,-0.09045828,0.019557444,-0.049724683,1,0
84744000,-0.09051934,0.018997971,-0.049705774,1,0
84748000,-0.0904126,0.018388625,-0.04969304,1,0
84756000,-0.08979701,0.017261826,-0.049722113,1,0
84760000,-0.08964733,0.01679696,-0.049789134,1,0
84764000,-0.08971265,0.02112757,-0.04984183,1,0
84768000,-0.08994492,0.020640457,-0.049921867,1,0
84772000,-0.09029465,0.020086104,-0.049956016,1,0
84776000,-0.09058729,0.019492919,-0.050013244,1,0
84780000,-0.09066686,0.018933842,-0.049965255,1,0
84784000,-0.090632156,0.018422324,-0.049932845,1,0
84788000,-0.090644024,0.022630952,-0.049872607,1,0
84792000,-0.09063414,0.022073565,-0.049915813,1,0
84796000,-0.090523124,0.021571044,-0.04998101,1,0
84804000,-0.09067332,0.020556195,-0.050144892,1,0
84812000,-0.09094638,0.024349678,-0.050178654,1,0
84816000,-0.090810776,0.023897462,-0.05008679,1,0
84820000,-0.09084828,0.023396902,-0.05009117,1,0
84824000,-0.09037089,0.022948824,-0.050208114,1,0
84828000,-0.090373136,0.022490453,-0.050280966,1,0
84836000,-0.09043577,0.026364077,-0.05029446,1,0
84840000,-0.090779066,0.025864309,-0.050240844,1,0
84844000,-0.091155946,0.025299154,-0.050158814,1,0
84852000,-0.091358945,0.02412034,-0.050305054,1,0
84856000,-0.09136136,0.023630856,-0.050433047,1,0
84860000,-0.09120374,0.027979597,-0.050431974,1,0
84864000,-0.09107645,0.027533265,-0.050430678,1,0
84868000,-0.091208026,0.027060632,-0.050430585,1,0
84872000,-0.091337934,0.026602382,-0.050537936,1,0
84876000,-0.0912498,0.026170053,-0.05057881,1,0
84880000,-0.091168776,0.025706355,-0.050627485,1,0
84884000,-0.091177404,0.02996241,-0.050555855,1,0
84888000,-0.091174975,0.029360179,-0.050490707,1,0
84892000,-0.09116467,0.028772736,-0.050439954,1,0
84896000,-0.09133793,0.028214749,-0.050556608,1,0
84900000,-0.0916928,0.027655507,-0.050669536,1,0
84904000,-0.09183214,0.027077401,-0.050768405,1,0
84908000,-0.09177857,0.031335156,-0.050741877,1,0
84912000,-0.09181525,0.030803608,-0.050743297,1,0
84916000,-0.091858536,0.030269751,-0.050738364,1,0
84924000,-0.0918322,0.029272571,-0.050830908,1,0
84928000,-0.09176655,0.02879778,-0.050823316,1,0
84932000,-0.09177731,0.029645158,-0.05087841,1,0
84936000,-0.09180878,0.029092832,-0.051050007,1,0
84940000,-0.09194433,0.028605105,-0.051169228,1,0
84944000,-0.09200123,0.028137852,-0.051307157,1,0
84948000,-0.091955885,0.027632575,-0.051357802,1,0
84952000,-0.09213393,0.02709979,-0.051416215,1,0
84960000,-0.09261578,0.02594929,-0.051345907,1,0
84964000,-0.09266438,0.025438314,-0.051350497,1,0
84968000,-0.092503026,0.025019575,-0.051370226,1,0
84972000,-0.09269722,0.02462229,-0.051395155,1,0
84976000,-0.09266622,0.024147686,-0.051516205,1,0
84980000,-0.09271818,0.02363979,-0.051520817,1,0
84988000,-0.091808066,0.022712845,-0.051701345,1,0
84992000,-0.09162899,0.02231502,-0.051741682,1,0
85000000,-0.09224002,0.021419788,-0.05169478,1,0
85004000,-0.2698771,0.02693405,0.008808003,1,0
85008000,-0.27003828,0.02649963,0.008853857,1,0
85012000,-0.27001897,0.026136355,0.008911598,1,0
85016000,-0.26947224,0.025740141,0.008980326,1,0
85020000,-0.26762867,0.025277687,0.008953693,1,0
85028000,-0.25975904,0.024321066,0.008883801,1,0
85032000,-0.2545494,0.023890292,0.008977412,1,0
85036000,-0.249378,0.023489041,0.009123242,1,0
85040000,-0.24454753,0.023023661,0.009258262,1,0
85044000,-0.24001667,0.022488872,0.009313453,1,0
85052000,-0.23534097,0.021383647,0.009323347,1,0
85056000,-0.22828372,0.02083922,0.009337463,1,0
85060000,-0.22462821,0.020358725,0.009313365,1,0
85064000,-0.22088066,0.01985627,0.009311503,1,0
85068000,-0.21736188,0.019387601,0.009322093,1,0
85072000,-0.21430264,0.018938242,0.009293187,1,0
85076000,-0.21134703,0.018491652,0.009229722,1,0
85080000,-0.20824184,0.018024957,0.009160526,1,0
85084000,-0.2051556,0.01755267,0.009118917,1,0
85088000,-0.20226845,0.017132394,0.009124937,1,0
85092000,-0.19968936,0.016769854,0.009203696,1,0
85096000,-0.19725733,0.016374094,0.009210112,1,0
85100000,-0.1950393,0.015910437,0.009234114,1,0
85104000,-0.1931366,0.01540543,0.009248363,1,0
85108000,-0.19125526,0.014925204,0.009230858,1,0
85112000,-0.1892307,0.014467845,0.009177823,1,0
85120000,-0.18519706,0.013676532,0.008986257,1,0
85124000,-0.18330888,0.013249205,0.008934314,1,0
85128000,-0.18161018,0.01278667,0.008925632,1,0
85132000,-0.18064687,0.012328891,0.008832724,1,0
85136000,-0.17844242,0.012082195,0.008876324,1,0
85140000,-0.17688212,0.011762571,0.008825516,1,0
85144000,-0.17549409,0.011401277,0.008789873,1,0
85148000,-0.1740283,0.011030968,0.008759528,1,0
85152000,-0.17261739,0.010631917,0.008727811,1,0
85156000,-0.17154239,0.010207865,0.008692935,1,0
85160000,-0.17054142,0.009806784,0.008662953,1,0
85164000,-0.16933735,0.009474374,0.008601711,1,0
85168000,-0.16789588,0.009160511,0.008494968,1,0
85172000,-0.16645043,0.008763397,0.008381575,1,0
85180000,-0.16429923,0.007951776,0.008157123,1,0
85188000,-0.1624697,0.007243151,0.008069573,1,0
85192000,-0.16136208,0.006962672,0.00806292,1,0
85196000,-0.16035849,0.006650955,0.008039625,1,0
85200000,-0.15954232,0.006320318,0.007956016,1,0
85204000,-0.15874733,0.006040042,0.007824023,1,0
85208000,-0.15794176,0.005754044,0.00768886,1,0
85212000,-0.15717961,0.005432518,0.007561432,1,0
85216000,-0.15625696,0.00513605,0.007464855,1,0
85220000,-0.15527758,0.004874446,0.007429108,1,0
85224000,-0.15463345,0.004608823,0.007381891,1,0
85228000,-0.15408802,0.004281098,0.007285979,1,0
85236000,-0.15245678,0.003588874,0.007053558,1,0
85240000,-0.15155765,0.003332941,0.00692558,1,0
85244000,-0.1506401,0.003102584,0.006808899,1,0
85248000,-0.14999229,0.002906019,0.006684244,1,0
85252000,-0.14961393,0.002730528,0.006596844,1,0
85256000,-0.14920716,0.002507292,0.00650563,1,0
85260000,-0.14864215,0.00225272,0.006335119,1,0
85264000,-0.14791332,0.00205775,0.006181603,1,0
85268000,-0.14706077,0.001917074,0.006106522,1,0
85272000,-0.14625652,0.001794869,0.006040537,1,0
85276000,-0.14573732,0.001638617,0.005953706,1,0
85280000,-0.14538004,0.001409417,0.005849807,1,0
85284000,-0.14487207,0.001180749,0.005730807,1,0
85288000,-0.14421783,0.000933619,0.005641682,1,0
85292000,-0.14327377,0.000690412,0.005517414,1,0
85300000,-0.1427956,0.000298841,0.005306553,1,0
85304000,-0.14233717,0.000150345,0.005233525,1,0
85308000,-0.14175713,3.79E-05,0.005144402,1,0
85312000,-0.14124136,-8.85E-05,0.005024435,1,0
85316000,-0.14086552,-0.000255287,0.004869367,1,0
85324000,-0.13979432,-0.000599291,0.004759501,1,0
85328000,-0.13928357,-0.000771219,0.004759196,1,0
85336000,-0.13837083,-0.001250355,0.004551638,1,0
85340000,-0.137964,-0.001422459,0.004434846,1,0
85344000,-0.13764627,-0.00157899,0.00429744,1,0
85348000,-0.13725087,-0.001765642,0.004143336,1,0
85356000,-0.13630342,-0.002084259,0.003780889,1,0
85360000,-0.13608637,-0.00214269,0.003619762,1,0
85364000,-0.13604727,-0.00216726,0.003505029,1,0
85368000,-0.1360199,-0.002268165,0.003390271,1,0
85372000,-0.13564844,-0.002457904,0.00327417,1,0
85376000,-0.1348306,-0.002609292,0.003157595,1,0
85380000,-0.13453944,-0.002780637,0.003100434,1,0
85384000,-0.13425778,-0.002926597,0.00303789,1,0
85388000,-0.1340911,-0.003134377,0.002942201,1,0
85396000,-0.13325344,-0.003636517,0.002677762,1,0
85400000,-0.13271305,-0.003844583,0.002630037,1,0
85404000,-0.13242753,-0.003966671,0.002593062,1,0
85408000,-0.13218592,-0.004059561,0.00248479,1,0
85412000,-0.13141522,-0.004211238,0.002373435,1,0
85416000,-0.13118172,-0.00429542,0.002161399,1,0
85420000,-0.13070817,-0.004428415,0.002022389,1,0
85428000,-0.13020323,-0.00458679,0.00180043,1,0
85432000,-0.12985303,-0.004688939,0.001722363,1,0
85436000,-0.12934709,-0.004836643,0.001633515,1,0
85440000,-0.1287973,-0.005028548,0.001497773,1,0
85444000,-0.12815297,-0.005242158,0.00133463,1,0
85452000,-0.1270499,-0.005564665,0.00110632,1,0
85456000,-0.12790345,-0.005597686,0.001108795,1,0
85460000,-0.12771825,-0.005661199,0.001053931,1,0
85464000,-0.12744431,-0.00581108,0.00100247,1,0
85468000,-0.12718074,-0.005995117,0.000965434,1,0
85476000,-0.12678972,-0.006490385,0.000866293,1,0
85484000,-0.12609807,-0.0068131,0.000603288,1,0
85488000,-0.12559663,-0.006895428,0.000477211,1,0
85492000,-0.12491699,-0.006946137,0.000365729,1,0
85496000,-0.12426232,-0.006988009,0.000232858,1,0
85500000,-0.12376516,-0.00707835,0.000101775,1,0
85504000,-0.12342075,-0.00719773,-3.24E-06,1,0
85508000,-0.12332432,-0.007336073,-9.33E-05,1,0
85512000,-0.12344095,-0.007508511,-0.00014497,1,0
85516000,-0.12280528,-0.007632316,-0.000243876,1,0
85520000,-0.12344685,-0.007762939,-0.000209886,1,0
85524000,-0.12281561,-0.007898582,-0.00030794,1,0
85528000,-0.12274748,-0.008093384,-0.000419771,1,0
85536000,-0.12182973,-0.008357608,-0.00074997,1,0
85540000,-0.12162229,-0.008441864,-0.000852025,1,0
85544000,-0.12155594,-0.008580076,-0.000942967,1,0
85548000,-0.12135908,-0.008751953,-0.00101839,1,0
85552000,-0.12122189,-0.008899356,-0.001087896,1,0
85556000,-0.12129749,-0.009013049,-0.001173331,1,0
85564000,-0.12101158,-0.009347353,-0.001170867,1,0
85568000,-0.12051985,-0.009419354,-0.001246645,1,0
85572000,-0.12007983,-0.009431889,-0.001397421,1,0
85576000,-0.1197938,-0.009467845,-0.001479905,1,0
85580000,-0.119582735,-0.009551104,-0.001536831,1,0
85584000,-0.11930181,-0.009713983,-0.001614991,1,0
85588000,-0.118945986,-0.009874419,-0.001690842,1,0
85592000,-0.11873063,-0.009934301,-0.00176267,1,0
85596000,-0.118707605,-0.00995916,-0.001840799,1,0
85600000,-0.118622676,-0.010015874,-0.001885364,1,0
85604000,-0.11840269,-0.010098785,-0.001862873,1,0
85608000,-0.11833026,-0.010249855,-0.00181689,1,0
85612000,-0.11829782,-0.010464708,-0.00181329,1,0
85616000,-0.117919,-0.010655136,-0.001879632,1,0
85620000,-0.117237076,-0.010809856,-0.001991841,1,0
85624000,-0.116506025,-0.01093005,-0.002106581,1,0
85628000,-0.11599805,-0.011057799,-0.002230466,1,0
85632000,-0.11583987,-0.011230971,-0.002351612,1,0
85636000,-0.11589665,-0.011340582,-0.002407806,1,0
85644000,-0.11632384,-0.011358746,-0.002395702,1,0
85648000,-0.11632538,-0.011366285,-0.00246563,1,0
85652000,-0.11608704,-0.011447024,-0.002533229,1,0
85656000,-0.11594649,-0.011603771,-0.002571471,1,0
85660000,-0.11582495,-0.011779219,-0.002642766,1,0
85664000,-0.115397155,-0.011931584,-0.002766817,1,0
85668000,-0.11489624,-0.012070437,-0.002852715,1,0
85672000,-0.11452107,-0.012166758,-0.002867833,1,0
85676000,-0.11431159,-0.012240223,-0.002881169,1,0
85684000,-0.11440767,-0.012508879,-0.002979934,1,0
85688000,-0.11429459,-0.012625435,-0.003150317,1,0
85696000,-0.11372543,-0.012807392,-0.003300504,1,0
85700000,-0.22395201,-0.017883379,-0.00365269,0.3977798,0
85704000,-0.22370198,-0.017903022,-0.003613406,0.3977798,0
85708000,-0.22343105,-0.01793174,-0.003710541,0.3977798,0
85716000,-0.22246273,-0.018038075,-0.003910607,0.3977798,0
85724000,-0.2183143,-0.023117378,-0.004393681,0.42022908,0
85728000,-0.21170583,-0.023255013,-0.004536582,0.42022908,0
85732000,-0.20724289,-0.023375537,-0.004719162,0.42022908,0
85736000,-0.20251714,-0.023561228,-0.004902059,0.42022908,0
85740000,-0.19781284,-0.02376172,-0.005052593,0.42022908,0
85744000,-0.19320256,-0.023895834,-0.005194136,0.42022908,0
85748000,-0.19193949,-0.028968206,-0.005691864,0.44142908,0
85752000,-0.1844218,-0.029191684,-0.005958169,0.44142908,0
85756000,-0.18054277,-0.029395964,-0.006216337,0.44142908,0
85760000,-0.1766708,-0.02961665,-0.006489419,0.44142908,0
85764000,-0.17300157,-0.029911723,-0.00676567,0.44142908,0
85772000,-0.16951089,-0.035429783,-0.007641099,0.46152133,0
85780000,-0.16017999,-0.036033854,-0.008259917,0.46152133,0
85788000,-0.15586422,-0.036380585,-0.008828229,0.46152133,0
85792000,-0.15085407,-0.036701612,-0.009314974,0.46152133,0
85796000,-0.14899594,-0.041835546,-0.01001286,0.48124355,0
85800000,-0.14482173,-0.042190813,-0.01033115,0.48124355,0
85804000,-0.14228836,-0.042382754,-0.010663137,0.48124355,0
85808000,-0.13981088,-0.042578604,-0.0109849,0.48124355,0
85812000,-0.13748224,-0.042747047,-0.01133181,0.48124355,0
85820000,-0.13253385,-0.04797256,-0.012492746,0.49971825,0
85824000,-0.13040137,-0.04815584,-0.012825483,0.49971825,0
85828000,-0.1284065,-0.048332468,-0.013179579,0.49971825,0
85832000,-0.12661634,-0.048512895,-0.013505462,0.49971825,0
85836000,-0.12507577,-0.048711866,-0.013780849,0.49971825,0
85840000,-0.12360438,-0.04887966,-0.014005018,0.49971825,0
85844000,-0.12083781,-0.053918548,-0.014772842,0.51691103,0
85848000,-0.11909128,-0.05400607,-0.015118042,0.51691103,0
85852000,-0.117204554,-0.054077014,-0.015511354,0.51691103,0
85856000,-0.11543365,-0.054138366,-0.015880892,0.51691103,0
85860000,-0.11400345,-0.05425766,-0.016289439,0.51691103,0
85864000,-0.11292657,-0.054364182,-0.016714197,0.51691103,0
85868000,-0.11117034,-0.059331715,-0.017652616,0.5328499,0
85872000,-0.11000663,-0.059357323,-0.017936172,0.5328499,0
85876000,-0.10861706,-0.059363224,-0.01819927,0.5328499,0
85880000,-0.107326746,-0.059347153,-0.018465605,0.5328499,0
85884000,-0.10624103,-0.05935058,-0.018738162,0.5328499,0
85888000,-0.10500387,-0.059218615,-0.019349048,0.5328499,0
85892000,-0.104904026,-0.064071424,-0.02030874,0.54890025,0
85896000,-0.10408944,-0.063988864,-0.020587802,0.54890025,0
85900000,-0.10337402,-0.063898705,-0.02080429,0.54890025,0
85908000,-0.10117982,-0.0637749,-0.021432243,0.54890025,0
85912000,-0.10058936,-0.06353687,-0.021796674,0.54890025,0
85916000,-0.09880288,-0.06828444,-0.022842593,0.5636052,0
85920000,-0.097914085,-0.06813664,-0.023165766,0.5636052,0
85924000,-0.09699375,-0.06800032,-0.02345395,0.5636052,0
85932000,-0.09546875,-0.067643784,-0.024024999,0.5636052,0
85940000,-0.092254594,-0.07211522,-0.02544865,0.5770331,0
85944000,-0.091965415,-0.07155168,-0.025714053,0.5770331,0
85948000,-0.091190174,-0.07128671,-0.025959138,0.5770331,0
85956000,-0.08942053,-0.07089697,-0.0264893,0.5770331,0
85960000,-0.09017885,-0.07060545,-0.026575333,0.5770331,0
85964000,-0.08898827,-0.07510378,-0.027707895,0.58923244,0
85968000,-0.088526055,-0.07468353,-0.028058615,0.58923244,0
85972000,-0.08793478,-0.07433532,-0.028327588,0.58923244,0
85976000,-0.08743844,-0.073991306,-0.028509742,0.58923244,0
85980000,-0.087209344,-0.07359804,-0.02866736,0.58923244,0
85984000,-0.08705043,-0.07321963,-0.028842593,0.58923244,0
85988000,-0.085284606,-0.07755452,-0.030279318,0.600225,0
85992000,-0.08470101,-0.07714454,-0.030471507,0.600225,0
85996000,-0.08384379,-0.07670243,-0.030661758,0.600225,0
86004000,-0.082360364,-0.075992525,-0.031112077,0.600225,0
86012000,-0.08173263,-0.07998849,-0.032590546,0.61124194,0
86020000,-0.08094973,-0.079003215,-0.03314668,0.61124194,0
86024000,-0.08016916,-0.078504935,-0.03338111,0.61124194,0
86028000,-0.079458356,-0.0780061,-0.033556543,0.61124194,0
86032000,-0.079069525,-0.07752396,-0.033681408,0.61124194,0
86036000,-0.0799588,-0.08187934,-0.034780934,0.6211226,0
86040000,-0.079696186,-0.081317216,-0.03495817,0.6211226,0
86044000,-0.079372555,-0.08076446,-0.035151526,0.6211226,0
86048000,-0.07898466,-0.08024958,-0.035360243,0.6211226,0
86052000,-0.07862578,-0.07976481,-0.03557948,0.6211226,0
86056000,-0.07847158,-0.07928732,-0.03579518,0.6211226,0
86060000,-0.07638545,-0.08365429,-0.03704067,0.6299329,0
86064000,-0.0777713,-0.08297554,-0.03714093,0.6299329,0
86068000,-0.07775014,-0.082407445,-0.03729976,0.6299329,0
86072000,-0.07721135,-0.08190166,-0.037452877,0.6299329,0
86076000,-0.076305,-0.081342414,-0.037580423,0.6299329,0
86080000,-0.0757366,-0.08075715,-0.037755072,0.6299329,0
86084000,-0.07520386,-0.08505039,-0.0390383,0.63774556,0
86088000,-0.07525564,-0.08435065,-0.039456055,0.63774556,0
86092000,-0.075151734,-0.08375737,-0.03952717,0.63774556,0
86096000,-0.07475756,-0.0831338,-0.03959883,0.63774556,0
86100000,-0.0743954,-0.082525134,-0.039720982,0.63774556,0
86108000,-0.07235235,-0.08620385,-0.04118955,0.64526296,0
86116000,-0.071875915,-0.08497233,-0.04156909,0.64526296,0
86120000,-0.07247467,-0.084351085,-0.041669063,0.64526296,0
86124000,-0.071615174,-0.08377077,-0.041866124,0.64526296,0
86128000,-0.07158196,-0.08314419,-0.041946575,0.64526296,0
86132000,-0.070495166,-0.08734264,-0.043193314,0.6518763,0
86136000,-0.07001585,-0.086758256,-0.04331346,0.6518763,0
86140000,-0.06963552,-0.086187966,-0.043418232,0.6518763,0
86144000,-0.069512576,-0.08552652,-0.043528486,0.6518763,0
86148000,-0.06956361,-0.08479679,-0.043646097,0.6518763,0
86152000,-0.06948193,-0.08410265,-0.043748245,0.6518763,0
86156000,-0.068469465,-0.08794533,-0.044942796,0.65766555,0
86160000,-0.06840118,-0.087398425,-0.04512162,0.65766555,0
86164000,-0.068097115,-0.08687603,-0.045316,0.65766555,0
86168000,-0.06773293,-0.08632372,-0.045470543,0.65766555,0
86172000,-0.067404404,-0.08571842,-0.045581467,0.65766555,0
86180000,-0.06903702,-0.08354844,-0.045526266,0.66268337,0
86184000,-0.069098845,-0.082888335,-0.045595147,0.66268337,0
86188000,-0.06902239,-0.08208348,-0.045994196,0.66268337,0
86192000,-0.06889012,-0.08150701,-0.046129957,0.66268337,0
86196000,-0.06844354,-0.08089903,-0.04630248,0.66268337,0
86204000,-0.066560656,-0.07898443,-0.046449505,0.6675922,0
86208000,-0.06587135,-0.078367606,-0.046580527,0.6675922,0
86212000,-0.06638234,-0.07779072,-0.046594754,0.6675922,0
86216000,-0.06646968,-0.07719982,-0.046664294,0.6675922,0
86220000,-0.066265695,-0.076596014,-0.04677024,0.6675922,0
86224000,-0.065983295,-0.07598263,-0.046890333,0.6675922,0
86228000,-0.0656843,-0.07481402,-0.04682759,0.67179453,0
86232000,-0.06572163,-0.07426413,-0.046881504,0.67179453,0
86236000,-0.06507771,-0.07366645,-0.04699499,0.67179453,0
86240000,-0.064923346,-0.07313871,-0.047060553,0.67179453,0
86244000,-0.06558441,-0.07250996,-0.04709681,0.67179453,0
86252000,-0.06414976,-0.07086094,-0.047251996,0.6753443,0
86256000,-0.06353314,-0.070251025,-0.047350857,0.6753443,0
86260000,-0.0631043,-0.06971166,-0.04749174,0.6753443,0
86264000,-0.06313244,-0.06926623,-0.047572117,0.6753443,0
86268000,-0.06328219,-0.068844624,-0.04760409,0.6753443,0
86276000,-0.062505916,-0.067413956,-0.047608126,0.67830735,0
86280000,-0.06325948,-0.06697719,-0.047714487,0.67830735,0
86284000,-0.063294694,-0.06649868,-0.047890022,0.67830735,0
86288000,-0.06312181,-0.0659012,-0.048167966,0.67830735,0
86292000,-0.06257179,-0.06536747,-0.048256606,0.67830735,0
86296000,-0.06259856,-0.064916536,-0.04830855,0.67830735,0
86300000,-0.06128735,-0.06404282,-0.048297495,0.6809825,0
86308000,-0.060484476,-0.06307043,-0.048536412,0.6809825,0
86316000,-0.061102744,-0.062223084,-0.04862837,0.6809825,0
86320000,-0.060939755,-0.061761275,-0.04873177,0.6809825,0
86324000,-0.060312316,-0.061024662,-0.048745476,0.6831418,0
86328000,-0.060119484,-0.06060856,-0.048852123,0.6831418,0
86332000,-0.06006805,-0.060210705,-0.048977315,0.6831418,0
86336000,-0.060091123,-0.059805192,-0.049082804,0.6831418,0
86340000,-0.060046483,-0.059366837,-0.049151115,0.6831418,0
86344000,-0.059924245,-0.058981918,-0.04920423,0.6831418,0
86348000,-0.058988996,-0.0583869,-0.049166825,0.6848504,0
86356000,-0.05904386,-0.057710476,-0.04931544,0.6848504,0
86360000,-0.058939427,-0.057306115,-0.04943499,0.6848504,0
86364000,-0.05871675,-0.056929015,-0.04957841,0.6848504,0
86368000,-0.05853272,-0.0566221,-0.049776882,0.6848504,0
86372000,-0.06045685,-0.056136377,-0.049875364,0.68613994,0
86376000,-0.060448863,-0.055860233,-0.04992716,0.68613994,0
86380000,-0.060065977,-0.05549521,-0.04996039,0.68613994,0
86388000,-0.059733365,-0.05471111,-0.050171502,0.68613994,0
86392000,-0.0596646,-0.054200992,-0.05049122,0.68613994,0
86396000,-0.058703016,-0.053715985,-0.050519384,0.68738484,0
86404000,-0.05827777,-0.053156517,-0.05076628,0.68738484,0
86408000,-0.05799446,-0.052858196,-0.050912026,0.68738484,0
86412000,-0.057676375,-0.052518256,-0.051013358,0.68738484,0
86416000,-0.057512723,-0.052187555,-0.05110538,0.68738484,0
86420000,-0.05704808,-0.05178263,-0.051150944,0.68825763,0
86424000,-0.056953065,-0.05156143,-0.05123382,0.68825763,0
86428000,-0.05657749,-0.05129281,-0.05131715,0.68825763,0
86432000,-0.05626328,-0.051005635,-0.051426806,0.68825763,0
86436000,-0.056356397,-0.050716344,-0.051532555,0.68825763,0
86440000,-0.05597061,-0.05040823,-0.051611073,0.68825763,0
86444000,-0.055510126,-0.050072335,-0.05159775,0.6888186,0
86448000,-0.05547478,-0.049784064,-0.0516731,0.6888186,0
86452000,-0.055728197,-0.0494403,-0.05177744,0.6888186,0
86456000,-0.055930097,-0.049105722,-0.05192411,0.6888186,0
86460000,-0.055829927,-0.04879886,-0.052083254,0.6888186,0
86464000,-0.05566354,-0.04851103,-0.052190296,0.6888186,0
86468000,-0.054513365,-0.04812002,-0.05221509,0.6890621,0
86472000,-0.05452737,-0.047898043,-0.052254193,0.6890621,0
86476000,-0.05461494,-0.047737192,-0.0522998,0.6890621,0
86480000,-0.054651238,-0.047534022,-0.052350946,0.6890621,0
86484000,-0.05452758,-0.04724005,-0.052392103,0.6890621,0
86492000,-0.053425755,-0.046686225,-0.05237302,0.6888371,0
86500000,-0.054118253,-0.046342928,-0.052713186,0.6888371,0
86504000,-0.05367448,-0.04611814,-0.05272705,0.6888371,0
86508000,-0.053166196,-0.045828827,-0.052745156,0.6888371,0
86512000,-0.052962422,-0.045551613,-0.05285795,0.6888371,0
86516000,-0.051896397,-0.045215033,-0.05295483,0.68834245,0
86520000,-0.051915728,-0.045024768,-0.053006608,0.68834245,0
86524000,-0.051794864,-0.04479603,-0.053024612,0.68834245,0
86528000,-0.0516845,-0.04449588,-0.053074792,0.68834245,0
86532000,-0.05151422,-0.044195637,-0.053159628,0.68834245,0
86536000,-0.051272135,-0.043949,-0.053263113,0.68834245,0
86540000,-0.050225843,-0.04361242,-0.05334157,0.68765485,0
86544000,-0.04996565,-0.043454394,-0.05341863,0.68765485,0
86548000,-0.049967594,-0.043383848,-0.053440437,0.68765485,0
86552000,-0.050153043,-0.043210693,-0.05343386,0.68765485,0
86556000,-0.05032378,-0.042946264,-0.05343114,0.68765485,0
86560000,-0.050339606,-0.042725716,-0.053461708,0.68765485,0
86564000,-0.04899704,-0.04246304,-0.053496018,0.68677676,0
86568000,-0.04899474,-0.042259414,-0.053551868,0.68677676,0
86572000,-0.048956025,-0.042036608,-0.053643905,0.68677676,0
86576000,-0.048858058,-0.041767724,-0.053792182,0.68677676,0
86580000,-0.048892364,-0.04145874,-0.05390385,0.68677676,0
86584000,-0.04905895,-0.04123024,-0.05392207,0.68677676,0
86588000,-0.048363265,-0.04094108,-0.053931728,0.6857463,0
86592000,-0.048396803,-0.040815637,-0.053948984,0.6857463,0
86596000,-0.04819491,-0.04070431,-0.05402132,0.6857463,0
86600000,-0.047933705,-0.040557727,-0.05407585,0.6857463,0
86604000,-0.047913663,-0.040351238,-0.054112837,0.6857463,0
86608000,-0.047999784,-0.040088024,-0.054152995,0.6857463,0
86612000,-0.04685328,-0.03972581,-0.054161444,0.6846815,0
86616000,-0.04695696,-0.03938613,-0.05414962,0.6846815,0
86620000,-0.046914753,-0.039092258,-0.054122426,0.6846815,0
86624000,-0.046862084,-0.038887158,-0.05417066,0.6846815,0
86628000,-0.046803653,-0.03874725,-0.054293364,0.6846815,0
86636000,-0.046228535,-0.038373325,-0.054388843,0.68346447,0
86640000,-0.046035565,-0.0381679,-0.054424614,0.68346447,0
86644000,-0.046769403,-0.037909556,-0.054404892,0.68346447,0
86648000,-0.046691522,-0.037701536,-0.054389603,0.68346447,0
86652000,-0.046591245,-0.03750804,-0.054419797,0.68346447,0
86656000,-0.046565164,-0.037332356,-0.054481678,0.68346447,0
86660000,-0.045009963,-0.037086215,-0.05450113,0.682116,0
86664000,-0.045213133,-0.0369368,-0.054573208,0.682116,0
86668000,-0.045392368,-0.03678215,-0.054584123,0.682116,0
86672000,-0.045541372,-0.036636416,-0.05456008,0.682116,0
86676000,-0.045355465,-0.036435787,-0.054593414,0.682116,0
86680000,-0.045123354,-0.03621035,-0.054534495,0.682116,0
86684000,-0.044102672,-0.03590548,-0.05451669,0.68068033,0
86688000,-0.04430943,-0.035658184,-0.05461309,0.68068033,0
86692000,-0.044558812,-0.03555654,-0.054630417,0.68068033,0
86696000,-0.04470368,-0.035414193,-0.05465824,0.68068033,0
86700000,-0.044905946,-0.035242215,-0.054669894,0.68068033,0
86704000,-0.044874996,-0.035013154,-0.05468858,0.68068033,0
86708000,-0.04303839,-0.034728624,-0.054750033,0.67929965,0
86716000,-0.042399157,-0.034357596,-0.054819133,0.67929965,0
86720000,-0.04251272,-0.034236718,-0.054741837,0.67929965,0
86724000,-0.042784367,-0.034105208,-0.054661095,0.67929965,0
86728000,-0.042973477,-0.033912823,-0.054623522,0.67929965,0
86732000,-0.041902266,-0.03367424,-0.054630306,0.6778534,0
86740000,-0.04182729,-0.033225067,-0.054595325,0.6778534,0
86744000,-0.04189739,-0.03312155,-0.05474802,0.6778534,0
86748000,-0.041954197,-0.032974232,-0.0548044,0.6778534,0
86752000,-0.04203824,-0.032835156,-0.05483212,0.6778534,0
86756000,-0.040562946,-0.032656603,-0.054844793,0.67634183,0
86760000,-0.040603656,-0.032461576,-0.05482454,0.67634183,0
86764000,-0.040742353,-0.03223722,-0.05476784,0.67634183,0
86768000,-0.04078861,-0.03204831,-0.05470599,0.67634183,0
86772000,-0.04080486,-0.03187134,-0.054644033,0.67634183,0
86776000,-0.040868755,-0.031668562,-0.05461933,0.67634183,0
86780000,-0.040073216,-0.031467803,-0.05462186,0.67476815,0
86784000,-0.04037603,-0.031330176,-0.05461648,0.67476815,0
86788000,-0.04049722,-0.031116862,-0.054659277,0.67476815,0
86792000,-0.040433995,-0.03094522,-0.054665387,0.67476815,0
86796000,-0.04032265,-0.030807896,-0.054711744,0.67476815,0
86800000,-0.04019434,-0.030676417,-0.054742463,0.67476815,0
86804000,-0.038634494,-0.030484907,-0.054694947,0.67323637,0
86808000,-0.038566086,-0.030272815,-0.0546168,0.67323637,0
86812000,-0.038416535,-0.030042816,-0.054581285,0.67323637,0
86820000,-0.03823546,-0.029668521,-0.05459369,0.67323637,0
86824000,-0.038117252,-0.029587248,-0.054660928,0.67323637,0
86828000,-0.037114315,-0.029460633,-0.05471019,0.67167366,0
86832000,-0.03739252,-0.029337656,-0.054701023,0.67167366,0
86836000,-0.03774524,-0.029196868,-0.054666065,0.67167366,0
86840000,-0.037967835,-0.028970387,-0.054654445,0.67167366,0
86844000,-0.03809532,-0.028621787,-0.054619823,0.67167366,0
86848000,-0.038210414,-0.028291915,-0.054548398,0.67167366,0
86852000,-0.03670257,-0.02808683,-0.054513864,0.6700602,0
86860000,-0.036597632,-0.027860904,-0.054567695,0.6700602,0
86868000,-0.03676189,-0.027727876,-0.05463889,0.6700602,0
86872000,-0.037029363,-0.027554438,-0.054563563,0.6700602,0
86876000,-0.03602174,-0.027328685,-0.054486405,0.66842717,0
86880000,-0.03621305,-0.027139371,-0.05447907,0.66842717,0
86884000,-0.036549173,-0.027013492,-0.054531734,0.66842717,0
86888000,-0.03683933,-0.027005998,-0.05449631,0.66842717,0
86892000,-0.036780063,-0.026859619,-0.05449228,0.66842717,0
86896000,-0.03693556,-0.026745554,-0.05462112,0.66842717,0
86900000,-0.035075188,-0.026599266,-0.054593336,0.6666125,0
86904000,-0.03490668,-0.026509026,-0.054504823,0.6666125,0
86908000,-0.03494835,-0.026397936,-0.054431506,0.6666125,0
86916000,-0.03490446,-0.026070224,-0.054436043,0.6666125,0
86920000,-0.034769315,-0.025909213,-0.05443978,0.6666125,0
86924000,-0.033646945,-0.0257037,-0.05436255,0.66479623,0
86928000,-0.03380932,-0.02554259,-0.054300684,0.66479623,0
86932000,-0.034047022,-0.025434671,-0.05427699,0.66479623,0
86936000,-0.034151386,-0.025375452,-0.05428026,0.66479623,0
86940000,-0.034205604,-0.025264427,-0.054302193,0.66479623,0
86944000,-0.034437418,-0.025097612,-0.05430889,0.66479623,0
86948000,-0.033071283,-0.024918875,-0.05430697,0.6629861,0
86952000,-0.03319577,-0.024799246,-0.05434798,0.6629861,0
86956000,-0.033236355,-0.02475351,-0.054406688,0.6629861,0
86960000,-0.033300266,-0.024770489,-0.054469235,0.6629861,0
86968000,-0.033818197,-0.024596998,-0.054556653,0.6629861,0
86972000,-0.03294465,-0.024341322,-0.0545469,0.6611621,0
86976000,-0.032876927,-0.024140473,-0.054542206,0.6611621,0
86980000,-0.032644488,-0.02407122,-0.0545198,0.6611621,0
86984000,-0.03253116,-0.024019763,-0.05445337,0.6611621,0
86988000,-0.032456104,-0.02389922,-0.054418053,0.6611621,0
86992000,-0.032378208,-0.023801096,-0.054391343,0.6611621,0
86996000,-0.030807888,-0.023642832,-0.054385398,0.6593969,0
87000000,-0.031079229,-0.023449618,-0.05440453,0.6593969,0
87004000,-0.031203035,-0.023262857,-0.054416366,0.6593969,0
87008000,-0.031101247,-0.023139846,-0.054457616,0.6593969,0
87012000,-0.030991174,-0.023047002,-0.054478526,0.6593969,0
87016000,-0.030989472,-0.022941642,-0.054445077,0.6593969,0
87020000,-0.030095693,-0.022808999,-0.054411143,0.6576076,0
