timestamp,gyro_rad[0],gyro_rad[1],gyro_rad[2],accelerometer_m_s2[0],accelerometer_m_s2[1],accelerometer_m_s2[2]
82000000,-0.008567889,-0.012778039,-0.002015932,-0.18183668,0.10254044,-9.748247
82004000,-0.007004784,0.000214256,-0.006073678,-0.1964139,0.11392667,-9.803434
82012000,-0.004055925,-0.008421917,-0.004078484,-0.23096645,0.18687852,-9.798699
82020000,-0.0007749,-0.00589484,0.01076365,-0.19901046,0.19425347,-9.811961
82024000,-0.003517261,-0.000573582,-0.002192547,-0.29174778,0.23099014,-9.806708
82032000,0.005184148,-0.009554043,0.001676858,-0.26011702,0.2236903,-9.793801
82036000,-0.004243633,-0.006246146,-0.003163843,-0.2788782,0.12776811,-9.816507
82040000,-0.010488303,-0.000991677,-0.005571938,-0.22339585,0.16047046,-9.782662
82044000,-0.005965123,-0.00301802,-0.000915304,-0.23276646,0.22128826,-9.782705
82048000,0.000679086,-0.005653581,0.001788422,-0.22329037,0.14568958,-9.719911
82052000,0.003904408,-0.001799506,0.000395366,-0.15431522,0.2326209,-9.750786
82056000,0.003440857,-0.009247836,-0.002572113,-0.19470572,0.25028244,-9.844532
82060000,-0.004579559,-0.01088526,-0.009283979,-0.2035058,0.17605709,-9.819975
82064000,-0.006475531,-0.006688627,-0.004377884,-0.13284194,0.20951335,-9.78182
82068000,-0.002852225,-0.003233709,0.005065603,-0.18228751,0.22674498,-9.753356
82072000,-0.004570248,0.00021207,0.004397216,-0.2734077,0.18948995,-9.75689
82076000,-0.002672869,-0.008434748,-0.000448528,-0.22549653,0.1100108,-9.7783575
82080000,0.000432734,-0.013149004,-0.002929997,-0.22980072,0.08106759,-9.798752
82084000,0.001377459,-0.011602091,0.000352904,-0.29229313,0.11352447,-9.801823
82088000,-0.004477636,-0.006667477,0.007482399,-0.2672194,0.040436048,-9.836756
82092000,-0.009596756,-0.002802844,0.001936053,-0.31533557,0.042510167,-9.81582
82096000,-0.003166197,-0.008862829,-0.000725013,-0.22842593,0.14450067,-9.745014
82100000,-0.00119578,-0.01162486,0.003807391,-0.14641403,0.22426529,-9.776224
82108000,-0.000871399,0.003921882,0.006236057,-0.25673345,0.09817907,-9.716517
82116000,-0.005014658,-0.002940041,-0.001779447,-0.24938828,0.12250285,-9.860941
82120000,-0.004966621,-0.002651279,-0.000480025,-0.21180055,0.1587735,-9.84263
82124000,-0.0014568,-0.008097971,0.000606131,-0.27330562,0.21469657,-9.813772
82132000,-0.003733362,-0.005780529,-0.002197455,-0.22093055,0.08526672,-9.849406
82136000,-0.005061415,-0.008663026,-0.002742876,-0.23149124,0.13543302,-9.840197
82140000,-0.00594099,-0.004272782,0.001772986,-0.2622851,0.10356925,-9.8174
82148000,-0.002289119,-0.014572423,-0.005707922,-0.23949836,0.19138433,-9.772428
82156000,-0.002077369,0.0001257,-0.002130153,-0.24106257,0.08109545,-9.888916
82160000,-0.010074518,-0.007644633,-0.006723037,-0.263437,0.15843128,-9.850323
82164000,-0.003380274,-0.002790854,-0.007781652,-0.2756456,0.18069005,-9.789585
82172000,-0.007635057,-0.001910903,0.001516796,-0.28064138,0.1538654,-9.798864
82176000,-0.006760592,-0.001225695,0.004375024,-0.24486557,0.18739022,-9.800884
82180000,-0.0022886,-0.005149028,0.005548864,-0.269942,0.09655084,-9.829638
82184000,-0.002654762,-0.005607782,0.005152381,-0.23137657,0.08564326,-9.801306
82192000,-0.005332479,-0.003586421,0.001605369,-0.22223458,0.09462084,-9.819937
82196000,-0.006399484,-0.010362887,-0.000797476,-0.20348185,0.18764561,-9.778175
82200000,-0.005299779,-0.004838564,-0.002057645,-0.2904675,0.1857426,-9.717663
82204000,-0.005636985,0.000923733,0.001483546,-0.3037309,0.08378357,-9.683373
82208000,4.59E-05,-0.006635175,0.001323835,-0.23250383,0.09036579,-9.756173
82216000,-0.004582348,8.78E-05,-0.004101508,-0.28717244,0.18094078,-9.734299
82220000,-0.007845323,0.001205743,-0.003454377,-0.2568309,0.15203725,-9.723744
82224000,-0.007450298,-0.004958946,-0.00145215,-0.18660621,0.1147373,-9.782144
82228000,-0.007661019,-0.008127088,0.001492041,-0.2125843,0.12547338,-9.873288
82232000,-0.003168517,-0.004271026,-0.000812613,-0.26309267,0.1857714,-9.831962
82240000,-0.005888051,-0.005679754,0.001150614,-0.26631185,0.10114201,-9.88364
82248000,-0.003890421,-0.008907966,-0.000722735,-0.25324485,0.16352698,-9.778565
82256000,-0.0054496,-0.006639119,-3.05E-08,-0.21970752,0.118270054,-9.782875
82260000,-0.010995553,-0.009904729,0.00066542,-0.22705248,0.07336893,-9.764848
82264000,-0.002729909,-0.008191489,-0.002921847,-0.1874388,0.08141454,-9.767657
82268000,0.000198123,-0.006575142,-0.003080416,-0.19829686,0.12717657,-9.757382
82272000,-0.002057119,-0.00199701,-0.002160117,-0.22583832,0.10482158,-9.795166
82276000,0.001563372,-0.006518937,-0.00230241,-0.22238202,0.08063836,-9.82496
82284000,-0.000231644,-0.005484585,0.000283542,-0.3099845,0.13284738,-9.882462
82288000,-0.005337739,-0.005214051,0.006244472,-0.31873736,0.108612806,-9.801629
82292000,-0.006269767,-0.005966502,0.004863655,-0.27744392,0.11832376,-9.789465
82296000,-0.004674177,-0.002493176,-0.000550129,-0.18576948,0.139278,-9.8172
82300000,-0.00149596,-0.002801227,0.001869037,-0.18822882,0.13558707,-9.733076
82304000,-0.002512126,-0.006447091,-0.000167391,-0.22659586,0.10562658,-9.752892
82308000,-0.004609825,-0.00760353,-0.002068068,-0.18885311,0.10334256,-9.823012
82312000,0.000105284,-0.003914525,-0.003689517,-0.20223609,0.10671379,-9.833952
82316000,0.004814195,-0.003053301,-0.001031851,-0.28370717,0.12276301,-9.810977
82324000,-0.002148408,0.001790121,-0.003132835,1.1064912,0.09798882,-9.7961235
82328000,-0.00538967,-0.006076345,-0.003628724,7.847145,0.06927844,-9.752203
82332000,-1.06E-05,-0.00825486,0.004295206,18.297573,0.16056478,-9.709698
82340000,-0.004604987,-0.006140363,0.00670114,34.804264,0.1335069,-9.767575
82344000,-0.003142363,-0.008272359,0.003339271,40.44506,0.1576237,-9.845424
82352000,-0.000239128,-0.004072072,0.004277184,47.669918,0.15163158,-9.6629715
82356000,0.003417001,-0.002527697,0.003925133,47.669918,0.15163158,-9.6629715
82360000,0.003654382,0.002897305,-0.000742791,50.851154,0.14431353,-9.7217865
82364000,6.41E-05,0.006372177,-0.004217449,51.667904,0.16390915,-9.735072
82368000,-0.001125001,-0.005563517,0.001731023,52.19201,0.20908938,-9.718121
82376000,-0.006215491,-0.00463459,-0.003070086,52.30696,0.20101474,-9.738149
82380000,-0.005857195,-0.00331414,-0.000740873,52.052612,0.1534094,-9.78298
82384000,0.00052194,-0.007229418,-0.003397233,51.690487,0.19528416,-9.733247
82388000,-0.002993125,-0.008800125,-0.004098404,51.426075,0.17499009,-9.67523
82392000,-0.005831335,-0.004532141,-0.000475656,51.045853,0.15717667,-9.714796
82396000,-0.001075146,-0.006543467,-0.003362877,50.611416,0.18391062,-9.656296
82404000,-0.002070927,-0.009831332,-0.003920959,49.380478,0.113622874,-9.721701
82412000,-0.002900681,-0.003157022,-0.002871181,48.67304,0.15284792,-9.732229
82416000,-0.009797791,-0.006068448,0.003819355,48.156708,0.12155969,-9.7387
82420000,-0.011918789,-0.007891889,0.005918362,47.55454,0.1624881,-9.743767
82424000,-0.007129995,-0.003462615,-0.001233767,47.016575,0.15959717,-9.775812
82428000,-0.006057228,-0.002366115,0.001113677,46.583282,0.060882375,-9.758511
82432000,-0.002294145,-0.004538795,0.002149835,46.17713,0.06010827,-9.758346
82440000,-0.00156546,-0.008299935,-0.001543218,45.249813,0.10167688,-9.74217
82444000,-0.000850332,-0.010323286,0.001060646,44.749096,0.14913651,-9.715565
82448000,-0.000732984,-0.005705908,-9.23E-05,44.381165,0.14152876,-9.732197
82452000,-0.003311938,-0.005856815,-0.00017252,44.038063,0.08252426,-9.696148
82456000,-0.005091121,-0.002309842,0.000685946,43.688736,0.12902395,-9.679002
82460000,-0.000674932,-0.002099152,0.001986896,43.15306,0.20510198,-9.726862
82464000,0.003558315,-0.000922017,-0.004343896,42.645687,0.15024395,-9.792931
82468000,0.001219672,-0.001676185,-0.006026188,42.27988,0.099464245,-9.752225
82472000,-0.000242147,-0.003255239,-0.00341374,42.008423,0.0898694,-9.745394
82476000,-0.002178313,-0.003470948,-0.003470604,41.60438,0.0662795,-9.836701
82480000,-0.00330691,-0.009041348,0.000837351,41.060905,0.15073098,-9.789561
82488000,0.005748651,-0.006022384,-0.000301743,40.202385,0.0878261,-9.760342
82492000,0.005124331,-0.006300063,0.005883913,39.88664,0.12671858,-9.733755
82496000,-0.000371064,-0.001879247,0.003017803,39.554703,0.060598455,-9.668637
82500000,0.001051894,-0.006543752,0.001457382,39.118607,0.034272574,-9.67726
82508000,-0.006751338,-0.003630452,0.004411969,38.251255,0.12223235,-9.710126
82512000,-0.002072732,-0.006645676,0.005905687,37.89713,0.07840948,-9.6924515
82516000,-0.001994325,-0.010819786,0.003251668,37.622124,0.06320175,-9.710075
82520000,-0.001736463,-0.010472168,0.004773251,37.223717,0.13878036,-9.675465
82524000,0.002522448,-0.002241747,0.001174662,36.696236,0.15977558,-9.670284
82528000,0.001694589,-0.003783031,-0.003574209,36.277958,0.19770858,-9.674738
82532000,-7.87E-05,-0.007268972,5.21E-05,35.986286,0.1703216,-9.72544
82536000,-0.002999281,-0.004929079,0.002825561,35.681084,0.1380851,-9.738107
82540000,-0.008564302,-0.002844523,0.004533439,35.336414,0.17620233,-9.684164
82544000,-0.003104069,-0.003067822,0.002305591,34.87768,0.15836228,-9.72219
82548000,-0.001388322,-0.009783185,-0.001417809,34.471848,0.16025019,-9.72725
82552000,-0.002687559,-0.01419761,-0.002895312,34.23211,0.14647116,-9.673369
82556000,0.00362744,-0.012512144,-0.000732596,33.977707,0.10626753,-9.710064
82560000,0.003985526,-0.010236362,0.003633264,33.580093,0.079060696,-9.71403
82564000,-0.003842533,-0.011552839,0.005599463,33.171654,0.13493751,-9.719022
82568000,-0.002577406,-0.006398657,0.003476095,32.893963,0.17973173,-9.733449
82572000,-0.004189323,-0.001529747,0.001044592,32.647915,0.15525083,-9.751345
82576000,-0.006367101,0.001035623,0.00725537,32.35205,0.1218782,-9.769376
82584000,-0.000467445,-0.003051134,-0.004624859,31.648598,0.16195153,-9.700012
82588000,0.000609785,-0.004223867,-0.000616181,31.30959,0.15587436,-9.702132
82592000,-0.001569048,-0.00719177,-0.004260333,31.099606,0.08792151,-9.710885
82596000,0.000702563,-0.006653648,-0.002881129,30.953962,0.062470656,-9.718478
82600000,0.002528751,-0.00877657,-0.001097897,30.647543,0.06133274,-9.728673
82604000,-0.005372453,-0.004232453,0.004485218,30.24292,-0.01537971,-9.697568
82608000,-0.007251956,-0.003603827,0.004068938,29.974733,0.05705735,-9.697127
82612000,-0.002574143,-0.008516717,0.001079734,29.70548,0.16909492,-9.728189
82616000,-0.000192876,-0.009250509,-0.003828134,29.526384,0.19154637,-9.7651005
82620000,-0.004246486,-0.013324319,-0.002722131,29.351019,0.16252999,-9.708697
82624000,-0.004780074,-0.011806942,4.02E-05,28.984432,0.12050408,-9.692639
82632000,-0.001419666,0.001502994,-0.004671662,28.388508,0.06912147,-9.765773
82636000,0.005680698,-0.00109908,-0.00351467,28.233534,0.19599164,-9.692475
82640000,0.001601839,-0.000267961,-0.00671438,28.003939,0.16969664,-9.736018
82644000,-0.002056502,-0.005720387,-0.008598655,27.694254,0.07770765,-9.782575
82648000,-0.000217528,-0.005999642,-0.003156096,27.33171,0.09426281,-9.742014
82652000,0.003590048,-0.009190208,-0.0045031,27.024178,0.14398511,-9.77216
82656000,-0.000404821,-0.011437651,-0.00458705,26.954712,0.1394216,-9.725108
82664000,0.000571109,-0.005053983,-0.003442354,26.422195,0.13551223,-9.774556
82668000,-0.000422455,-0.00706812,-1.42E-05,26.129927,0.14067471,-9.791072
82672000,-0.00426304,-0.012617451,0.0081276,25.86038,0.14571127,-9.769516
82676000,-0.00512367,-0.013700813,0.00456035,25.646431,0.14379157,-9.754335
82684000,0.00116987,-0.011925195,0.003376121,25.13521,0.015333127,-9.753548
82688000,-0.002819768,-0.003675166,-0.001163879,24.872553,0.10405284,-9.797882
82692000,-0.003636389,-0.001208035,0.001171297,24.610226,0.121279694,-9.881404
82700000,0.00184001,-0.008158956,-0.005251369,24.274916,0.0858431,-9.844781
82704000,-0.003431623,-0.007858842,-0.001232653,24.07607,0.14609687,-9.810324
82712000,0.004123069,-0.005364762,0.003386146,23.564062,0.033961605,-9.76943
82716000,0.003086716,-0.007668219,-0.002274699,23.454216,0.08604881,-9.731922
82724000,0.00607147,-0.008783446,-4.61E-05,23.001484,0.09424283,-9.745829
82732000,0.000383745,-0.007244619,0.004424446,22.617235,0.07094221,-9.763294
82736000,0.000378412,-0.013423338,0.023186523,22.92025,-0.52996254,-9.855898
82744000,0.005350219,-0.015718147,0.04920252,23.093554,-1.0838534,-9.981106
82748000,0.008743976,-0.012986378,0.0747321,22.832607,-1.0891331,-9.993595
82752000,0.012356399,-0.010843518,0.09880571,22.60953,-1.057209,-10.111845
82760000,0.013364798,-0.02872296,0.13388954,22.344599,-0.88277495,-10.144593
82764000,0.014772934,-0.033331435,0.1565157,22.125235,-0.87535757,-10.108059
82772000,0.023735056,-0.03598935,0.1894545,21.597803,-0.7658381,-10.181657
82776000,0.025832469,-0.043964483,0.205308,21.356638,-0.83667266,-10.169018
82780000,0.033812862,-0.04455501,0.2203102,21.228888,-0.827978,-10.268749
82788000,0.033970017,-0.044954054,0.24435012,20.881954,-0.6433943,-10.242196
82792000,0.04391636,-0.051256143,0.25876948,20.632853,-0.647933,-10.229149
82796000,0.054915387,-0.05554494,0.2690258,20.381432,-0.66414934,-10.26679
82800000,0.057656284,-0.054211073,0.28080902,20.296944,-0.64693815,-10.194463
82804000,0.063807346,-0.056708984,0.29843885,20.1613,-0.5372969,-10.018898
82808000,0.069160745,-0.05457444,0.30745557,19.934563,-0.56410664,-10.117754
82816000,0.08524063,-0.05077565,0.32477465,19.452808,-0.6067214,-10.075731
82820000,0.09383215,-0.050421793,0.3356371,19.38057,-0.51962864,-10.075756
82824000,0.09796848,-0.04483373,0.3426154,19.294155,-0.4012662,-10.081939
82832000,0.11183411,-0.04065888,0.34324718,18.899178,-0.37859264,-10.118065
82840000,0.118570335,-0.034761038,0.34943917,18.5659,-0.2817532,-10.083033
82844000,0.13134974,-0.037467085,0.35715038,18.474913,-0.22777486,-10.107966
82852000,0.13842316,-0.03521616,0.3525515,18.162006,-0.24732773,-10.164213
82856000,0.14539622,-0.029065533,0.35440382,18.081089,-0.2161492,-10.100954
82864000,0.17031476,-0.023517333,0.34932593,17.620842,-0.17658754,-10.210761
82868000,0.17936572,-0.0228841,0.34575737,17.4047,-0.1732034,-10.240656
82872000,0.1843736,-0.019269373,0.33810085,17.251183,-0.1515385,-10.153749
82880000,0.18986765,-0.020727023,0.34276158,17.071527,-0.07581336,-10.1545925
82888000,0.20398264,-0.02108053,0.3122169,16.915771,0.061164506,-10.186763
82892000,0.21719086,-0.013303841,0.29598504,16.785664,0.09522822,-10.23011
82896000,0.22191732,-0.009712512,0.28980732,16.647692,0.049256157,-10.216749
82900000,0.22869119,-0.015933905,0.2848075,16.370361,0.04296626,-10.194566
82904000,0.2383613,-0.014253687,0.2738904,16.23404,0.14121827,-10.121765
82908000,0.24914955,-0.006776109,0.25968683,16.246452,0.22397116,-10.033794
82916000,0.2549306,0.003209355,0.22727434,15.766363,0.5581231,-10.182854
82920000,0.26277897,-0.001393829,0.20830849,15.5784025,0.5362339,-10.213223
82924000,0.26713234,-0.003592899,0.19685307,15.460841,0.55220795,-10.277865
82928000,0.27481437,-0.000969198,0.18800355,15.467546,0.8114659,-10.248974
82932000,0.28379208,0.002232136,0.17565525,15.363925,0.65662074,-10.236312
82936000,0.28559476,-0.000585321,0.15871644,15.131655,0.46147618,-10.132525
82940000,0.29086888,-0.001471499,0.14956704,14.9167,0.43002203,-10.088973
82944000,0.29997915,-0.006861027,0.14159642,14.7910385,0.52470446,-10.140885
82948000,0.31159753,-0.008934915,0.12277155,14.764882,0.7157889,-10.0538435
82956000,0.30886436,-0.004958598,0.09686679,14.327433,0.553254,-10.129264
82960000,0.30873984,-0.001563519,0.08146771,14.288164,0.5926049,-10.073964
82968000,0.31671798,-0.005487283,0.05140688,14.032349,0.83680207,-10.076538
82972000,0.3218774,-0.006602016,0.037637223,13.927717,0.74545014,-10.054462
82976000,0.32647064,-0.008158203,0.031964954,13.744809,0.61909425,-10.054255
82980000,0.3302311,-0.010916944,0.015661499,13.570459,0.701273,-10.009752
82984000,0.33360565,-0.018609783,-6.10E-05,13.47487,0.8232146,-10.061962
82988000,0.33090654,-0.02065702,-0.011090874,13.410769,0.9309082,-10.105535
82996000,0.326386,-0.01925282,-0.036542084,13.092158,0.78946763,-10.1369095
83004000,0.3341029,-0.025285223,-0.06060955,12.86355,0.7563447,-9.912265
83012000,0.33212817,-0.030879486,-0.09315282,12.550036,0.71027255,-9.991043
83016000,0.33982247,-0.028834902,-0.106181346,12.302948,0.73220676,-10.011705
83020000,0.3440654,-0.030960435,-0.1200508,12.058636,0.7414982,-9.950721
83024000,0.33944,-0.035517264,-0.1275804,11.988901,0.7578367,-9.887041
83032000,0.34184495,-0.039222147,-0.14552021,11.849973,0.67643505,-9.977846
83036000,0.34187692,-0.038548667,-0.15704656,11.6069765,0.6418184,-10.054134
83044000,0.34718958,-0.04792489,-0.17384031,11.374717,0.60537213,-9.950006
83048000,0.34367964,-0.052749798,-0.18409899,11.278795,0.661658,-9.9408655
83052000,0.34122226,-0.04409621,-0.19174393,11.14718,0.59600407,-9.911809
83060000,0.34088346,-0.04813407,-0.21208721,10.893602,0.54562145,-9.8675165
83064000,0.3371104,-0.050482824,-0.2164879,10.759174,0.4655185,-9.830226
83068000,0.33353785,-0.054852907,-0.22435057,10.59177,0.47736824,-9.877884
83072000,0.3272417,-0.05571765,-0.23329282,10.411107,0.5018832,-9.864475
83076000,0.32351992,-0.055890717,-0.23863502,10.231849,0.40607905,-9.78771
83080000,0.32194972,-0.06572781,-0.24883434,10.113341,0.34225735,-9.75799
83084000,0.3208788,-0.0699601,-0.2547294,9.919154,0.2869123,-9.738162
83088000,0.3220895,-0.065989874,-0.2523309,9.736434,0.2621907,-9.725273
83092000,0.3222077,-0.06442866,-0.25257868,9.602648,0.23485798,-9.722395
83100000,0.31123576,-0.06432884,-0.25948912,9.440118,-0.023594838,-9.662156
83104000,0.3110394,-0.061427116,-0.25852427,9.168047,-0.06575106,-9.759208
83108000,0.30677512,-0.06332047,-0.25773376,8.9963045,-0.019044487,-9.701455
83112000,0.30922088,-0.06418309,-0.26504657,8.934892,-0.09278462,-9.714991
83116000,0.31034586,-0.06070185,-0.26922578,8.880946,-0.21392918,-9.692419
83120000,0.299961,-0.058782984,-0.2720435,8.657228,-0.30095458,-9.604894
83124000,0.29674384,-0.055385623,-0.2730333,8.506633,-0.41158894,-9.616571
83132000,0.29263732,-0.05332246,-0.27508098,8.345208,-0.5462953,-9.615362
83136000,0.29045832,-0.054734647,-0.2742798,8.288871,-0.57042354,-9.626699
83140000,0.29622704,-0.05157998,-0.27882156,8.191103,-0.5846574,-9.566456
83144000,0.29857153,-0.050569095,-0.27972388,8.0094,-0.6364405,-9.536418
83148000,0.29123265,-0.05109494,-0.27965042,7.936149,-0.62750477,-9.488273
83156000,0.2804255,-0.046696637,-0.27250373,7.8370867,-0.5984508,-9.530077
83160000,0.27658436,-0.043159902,-0.27272236,7.598439,-0.7015989,-9.501883
83164000,0.26568475,-0.038023543,-0.27148086,7.4806757,-0.8238118,-9.530231
83172000,0.27060008,-0.029765818,-0.26603588,7.444205,-0.76747173,-9.559904
83176000,0.26486793,-0.02926434,-0.26564094,7.444205,-0.76747173,-9.559904
83180000,0.2576874,-0.030343134,-0.26663846,7.192728,-0.80649596,-9.443894
83184000,0.25638545,-0.025280332,-0.26052275,7.153264,-0.9161639,-9.477006
83188000,0.25870103,-0.01457339,-0.25984588,7.135464,-0.85473984,-9.452235
83196000,0.2530753,-0.011668177,-0.25453585,6.938135,-0.9862813,-9.478437
83200000,0.2535806,-0.007163487,-0.24659981,6.765681,-0.94214815,-9.519665
83204000,0.25066018,-0.005887927,-0.23624307,6.65821,-0.9519306,-9.47848
83208000,0.25397405,-0.005286374,-0.23416781,6.712635,-0.89792824,-9.490595
83212000,0.25126716,0.002932624,-0.2283954,6.735258,-0.83249104,-9.498639
83220000,0.24809423,0.013488119,-0.21632287,6.592601,-0.7903469,-9.540396
83224000,0.24745768,0.014443033,-0.21120939,6.5923977,-0.7444676,-9.431012
83228000,0.24349084,0.018770678,-0.20515893,6.492605,-0.7631439,-9.506975
83236000,0.24254872,0.035520718,-0.19638944,6.336777,-0.76499325,-9.548458
83240000,0.2292826,0.010704188,-0.14953312,4.8021965,-2.4952557,-10.954756
83244000,0.21614605,-0.018201841,-0.10077548,4.703003,-2.6070776,-10.945022
83248000,0.21639092,-0.015829038,-0.09697871,5.967832,-1.0059639,-9.690974
83252000,0.21654336,-0.012887312,-0.086544454,5.8058057,-1.0355233,-9.66531
83260000,0.21495408,-0.013901823,-0.064940624,5.768026,-0.9708694,-9.6299095
83264000,0.21809524,-0.013309636,-0.050655376,5.6744075,-0.97230464,-9.7272835
83268000,0.21904631,-0.00757764,-0.038047913,5.5918465,-0.978819,-9.717699
83272000,0.22005871,-0.006117221,-0.026096951,5.6300807,-1.004937,-9.689973
83276000,0.21792658,-0.010409397,-0.01799155,5.6520305,-1.0127299,-9.721621
83280000,0.21865116,-0.0131974,-0.006441812,5.4961596,-0.9104188,-9.691724
83288000,0.20674387,-0.002742681,0.031522837,5.4752207,-0.90010893,-9.678989
83292000,0.20717508,0.002593551,0.036671218,5.469175,-0.88044125,-9.784563
83296000,0.2106291,-0.000917697,0.043933872,5.4099045,-0.8930662,-9.768943
83300000,0.20962156,-0.005726859,0.061414227,5.3893237,-0.8016916,-9.666581
83308000,0.20862593,0.001610416,0.08355345,5.270882,-0.76671207,-9.7651825
83312000,0.21069676,0.004225799,0.087549746,5.2011013,-0.741664,-9.785912
83316000,0.20787922,0.0090768,0.10103245,5.138989,-0.73125,-9.771063
83320000,0.2035408,0.013714966,0.11465087,5.1012206,-0.71301264,-9.814894
83324000,0.20027345,0.013464573,0.121741086,5.0505843,-0.61553913,-9.8930435
83328000,0.19927405,0.01309119,0.13158858,4.984628,-0.49071822,-9.946431
83336000,0.1909885,0.028689096,0.16322702,4.9437785,-0.5063531,-9.991063
83340000,0.194157,0.033620723,0.1657189,4.8741574,-0.47005066,-9.979978
83344000,0.19337736,0.0436053,0.16943806,4.8707895,-0.35150126,-9.97016
83348000,0.19444971,0.04674428,0.17816406,4.6962247,-0.29059592,-10.034544
83352000,0.2025497,0.048893802,0.1838801,4.607461,-0.31431785,-10.163905
83356000,0.20378059,0.06060457,0.19114998,4.686422,-0.33024397,-10.276082
83360000,0.19647072,0.070487395,0.19531415,4.677003,-0.32303295,-10.236239
83368000,0.19971931,0.08602739,0.19689451,4.597802,-0.118780464,-10.32521
83376000,0.19275782,0.10293692,0.1947426,4.598795,0.00766062,-10.447185
83380000,0.19086377,0.11773139,0.19183259,4.4828486,0.022312777,-10.616961
83384000,0.18793891,0.13086298,0.19515729,4.462452,0.002211621,-10.69626
83388000,0.18627946,0.13479695,0.19070008,4.4053245,0.002098934,-10.821234
83396000,0.1925245,0.15647157,0.19576478,4.181375,0.06552317,-11.153504
83400000,0.1933816,0.15879956,0.19061644,4.183799,0.056820247,-11.2499695
83404000,0.19423527,0.16418868,0.18064354,4.136894,-0.013122621,-11.380284
83408000,0.1921683,0.17432575,0.17737737,4.0510902,-0.037547927,-11.466938
83412000,0.18978098,0.18672052,0.17713045,4.0479074,0.03376822,-11.594714
83420000,0.18014827,0.19429335,0.17057995,3.879596,0.045703653,-11.876796
83424000,0.17781152,0.19995263,0.16676316,3.8913734,0.117952004,-12.006425
83428000,0.17684479,0.20920941,0.16004914,3.8129854,0.17363808,-12.077733
83432000,0.17667755,0.21467176,0.15773487,3.6898293,0.14409664,-12.268112
83436000,0.17880511,0.21588095,0.15285237,3.64138,0.17153701,-12.389305
83440000,0.16875991,0.2211129,0.14785188,3.5835292,0.17435177,-12.507222
83448000,0.17220126,0.23582098,0.13690038,3.4922254,0.08064002,-12.774941
83456000,0.16295776,0.24537821,0.1323223,3.3638868,0.10910816,-13.025909
83460000,0.16400853,0.25127682,0.12009447,3.341923,0.13975565,-13.205158
83468000,0.16093296,0.25349253,0.11522788,3.2364776,0.14821935,-13.468083
83472000,0.16447452,0.25569588,0.10853169,3.1876051,0.13410597,-13.559927
83476000,0.16526158,0.2572738,0.104310624,3.0965862,0.12433179,-13.678149
83480000,0.15707861,0.25914645,0.1003599,3.0944088,0.12650776,-13.796992
83484000,0.15784521,0.26862448,0.09068506,3.0617795,0.15025395,-13.975057
83492000,0.15337586,0.26974922,0.08753049,2.9835205,0.13935138,-14.136684
83496000,0.14829068,0.27141714,0.08222253,2.9874992,0.20514898,-14.2076845
83500000,0.14572886,0.26872176,0.07399354,2.8923798,0.20851779,-14.26122
83508000,0.14112341,0.2670263,0.06442785,2.9269605,0.15034132,-14.378166
83516000,0.13788584,0.27266535,0.05865893,2.6955357,0.111528486,-14.6652565
83520000,0.13820465,0.27539712,0.051581077,2.7526574,0.09808782,-14.795987
83528000,0.13707149,0.27186242,0.040868215,2.5690515,0.15622735,-14.722363
83532000,0.13164204,0.27138072,0.04219019,2.5766695,0.13787694,-14.793584
83536000,0.1300941,0.2572214,0.042074207,2.5587819,0.08957731,-14.919448
83540000,0.12612087,0.25410718,0.030855583,2.5117638,0.1039915,-14.904338
83544000,0.12377514,0.26103383,0.018872077,2.51867,0.09576624,-14.950474
83548000,0.12155175,0.25956404,0.022488194,2.4725306,0.054431073,-15.062587
83552000,0.123286724,0.2577802,0.0196916,2.4554012,0.10368904,-15.042752
83556000,0.12581526,0.2561625,0.016981713,2.4636896,0.115228504,-15.055349
83560000,0.122027285,0.24637705,0.016750414,2.3989458,0.005397923,-15.099765
83564000,0.12439184,0.24040234,0.004909099,2.3851285,0.01154544,-15.101612
83568000,0.12348348,0.24098353,0.002575767,2.3451605,0.019137127,-15.163889
83572000,0.11737409,0.23802105,0.003496448,2.2772274,-0.035294373,-15.186663
83576000,0.115452185,0.23444423,-0.001748001,2.2393904,0.032860637,-15.104347
83580000,0.11940774,0.23351404,-0.011525696,2.225043,0.057620317,-15.057569
83588000,0.12094484,0.22744621,-0.017563554,2.2368047,0.00797848,-15.129985
83592000,0.111741595,0.22402067,-0.020944243,2.220826,-0.054169826,-15.101242
83600000,0.11294529,0.21211004,-0.023553306,2.0924578,-0.071935244,-15.128498
83604000,0.104976706,0.2093147,-0.03050892,2.1387043,-0.059861936,-15.058589
83608000,0.09804587,0.21271534,-0.033654045,2.117374,-0.11748884,-15.00968
83612000,0.097825475,0.20937252,-0.02880334,2.0399184,-0.1281513,-15.009432
83620000,0.10314736,0.19893247,-0.034816578,2.0310638,0.007063239,-14.964946
83624000,0.102097124,0.19315414,-0.036789495,1.997528,-0.024515005,-14.873056
83628000,0.10021368,0.19382223,-0.041048035,1.9467462,-0.0794783,-14.821796
83632000,0.09977708,0.18764654,-0.041876737,1.9387921,-0.10041398,-14.791626
83636000,0.10277408,0.1820279,-0.036638245,1.9729528,-0.14343823,-14.74645
83640000,0.10647103,0.18206158,-0.031507116,1.934334,-0.16233595,-14.769587
83644000,0.0985326,0.18136705,-0.03151362,1.9488971,-0.1440112,-14.762689
83648000,0.09343547,0.17647621,-0.033946693,1.9596151,-0.21417196,-14.674151
83656000,0.09270867,0.17791376,-0.034549687,1.9214287,-0.13251054,-14.556196
83660000,0.09678172,0.17034253,-0.034604833,1.8862454,-0.14911649,-14.446287
83664000,0.09175603,0.16638206,-0.0283552,1.791408,-0.16594459,-14.432171
83668000,0.09142119,0.16418748,-0.026491564,1.8005334,-0.23328312,-14.387732
83672000,0.085795484,0.16347103,-0.02916062,1.8423907,-0.2516106,-14.307496
83676000,0.07779496,0.15626228,-0.031405598,1.8311856,-0.22603849,-14.297448
83680000,0.08321781,0.14809372,-0.026275707,1.7656164,-0.29486626,-14.306744
83684000,0.08321185,0.15147558,-0.023436213,1.7927551,-0.3049124,-14.257818
83688000,0.083302476,0.1500398,-0.02595846,1.7755827,-0.23122202,-14.197986
83692000,0.08475148,0.15234092,-0.023941984,1.7282033,-0.27393305,-14.133607
83696000,0.08970142,0.15426147,-0.012593311,1.7765188,-0.2689694,-14.024497
83700000,0.08690617,0.14798431,-0.011821855,1.7240838,-0.21529657,-13.994512
83708000,0.07814544,0.14391261,-0.012712994,1.626588,-0.23449105,-13.850266
83716000,0.080805846,0.13971628,-0.006126978,1.6287007,-0.24876842,-13.788956
83720000,0.0805316,0.14430955,-0.001662507,1.5947077,-0.3543859,-13.74269
83724000,0.07564139,0.1451521,-0.001218626,1.5609248,-0.37720883,-13.696792
83728000,0.07007548,0.14567344,0.003228132,1.609207,-0.3207109,-13.681126
83736000,0.074971594,0.13980278,0.008296311,1.5727704,-0.38578552,-13.705266
83740000,0.07441839,0.1393587,0.002104877,1.5700387,-0.3506216,-13.6206455
83748000,0.07073392,0.13911502,0.01799836,1.6171131,-0.32431272,-13.5665655
83752000,0.075019926,0.1334174,0.022833114,1.5871505,-0.38726562,-13.535719
83756000,0.075616896,0.13527802,0.025775468,1.5512456,-0.38587764,-13.494797
83760000,0.07774559,0.13949578,0.023519637,1.5674142,-0.37796134,-13.502727
83764000,0.06940483,0.13970837,0.024881655,1.5196354,-0.42161092,-13.494771
83768000,0.06575024,0.14253156,0.030884055,1.5214562,-0.4405067,-13.40156
83772000,0.06960856,0.14156961,0.034152508,1.4671214,-0.36948544,-13.300041
83776000,0.06870431,0.13943987,0.040484693,1.4134086,-0.3158288,-13.245807
83780000,0.0693295,0.13924332,0.043357898,1.4786233,-0.33347493,-13.248991
83784000,0.070369504,0.13877551,0.047411308,1.4803879,-0.3402559,-13.29003
83792000,0.06528526,0.14169963,0.045980845,1.4466194,-0.29479337,-13.295703
83796000,0.067205206,0.14817664,0.047738183,1.446269,-0.30010554,-13.294869
83800000,0.06308532,0.1459057,0.05113462,1.4998994,-0.40862375,-13.199204
83804000,0.061815277,0.1384686,0.056195512,1.4592497,-0.42457175,-13.168677
83808000,0.06087636,0.13905129,0.05992801,1.395207,-0.4255486,-13.256913
83812000,0.060290698,0.14744107,0.063846014,1.4179074,-0.47502345,-13.363702
83816000,0.058779344,0.14297415,0.07209202,1.4308972,-0.43822715,-13.287341
83820000,0.054623317,0.1412281,0.07552587,1.3289483,-0.40821123,-13.190054
83824000,0.05596315,0.14335154,0.071579084,1.2602143,-0.4323613,-13.147978
83828000,0.06206655,0.14613652,0.07392982,1.3384014,-0.36870265,-13.192355
83836000,0.059112836,0.1488366,0.079001375,1.2354734,-0.33842525,-13.232262
83840000,0.059033755,0.1555215,0.08497637,1.2520797,-0.36407495,-13.248618
83844000,0.05416923,0.15781656,0.08647274,1.2640067,-0.3757374,-13.230425
83852000,0.06014595,0.15514,0.084821485,1.1958263,-0.39241603,-13.266979
83856000,0.05869284,0.15777692,0.08742488,1.2475888,-0.3252935,-13.322354
83860000,0.056511406,0.15849793,0.089560814,1.264421,-0.34180242,-13.275238
83864000,0.054740425,0.15739693,0.09354873,1.2469152,-0.33438528,-13.23776
83868000,0.05406382,0.15848017,0.09452242,1.21495,-0.35813773,-13.233195
83872000,0.056342967,0.16119027,0.09593891,1.1783682,-0.3268304,-13.261148
83880000,0.055567186,0.16296332,0.10125521,1.1393278,-0.38166168,-13.321777
83884000,0.054851398,0.16716816,0.10378724,1.1775439,-0.31199503,-13.23865
83888000,0.05035813,0.1766819,0.0988725,1.1914577,-0.31184477,-13.278143
83892000,0.052691773,0.17534474,0.09918248,1.0871991,-0.36503068,-13.289901
83900000,0.052867316,0.17411044,0.09816341,1.1157112,-0.3462121,-13.428945
83908000,0.052322634,0.17596996,0.10378812,1.1215701,-0.2892834,-13.435922
83916000,0.04744028,0.17660797,0.10693958,1.1160287,-0.27632022,-13.459929
83920000,0.04873619,0.18277527,0.10857933,1.1611005,-0.24540983,-13.445848
83928000,0.05586984,0.18366529,0.11090222,1.1178083,-0.26812103,-13.471761
83932000,0.052561544,0.18840799,0.10836085,1.1388252,-0.3061524,-13.558146
83936000,0.048459537,0.18646002,0.10590439,1.0514054,-0.28387725,-13.588555
83940000,0.04661474,0.18563634,0.10428657,1.0192459,-0.25930038,-13.536518
83948000,0.04702976,0.17697355,0.11307435,1.1299925,-0.27223945,-13.656996
83952000,0.044639576,0.17956944,0.11001845,1.1525545,-0.23329452,-13.680525
83960000,0.047693964,0.18408842,0.1133154,1.0048106,-0.12881829,-13.662908
83964000,0.049945354,0.18226653,0.11115141,0.9515473,-0.14651965,-13.612145
83968000,0.04794076,0.18721502,0.11362094,0.97619253,-0.2385852,-13.686851
83972000,0.04049158,0.18927734,0.11805315,0.99787533,-0.26790035,-13.794276
83976000,0.040498096,0.18239681,0.11066952,1.0425752,-0.22041766,-13.836367
83984000,0.046896797,0.1960543,0.09818984,1.0434092,-0.29333758,-13.838263
83988000,0.040110882,0.19419919,0.10082672,0.97993064,-0.31693652,-13.824886
83992000,0.038840745,0.18952928,0.09498357,0.9643386,-0.31351915,-13.853811
84000000,0.04506785,0.19570322,0.09799406,1.0332001,-0.2582791,-13.865287
84004000,0.0411563,0.19794795,0.098254405,0.9561452,-0.27437124,-13.826889
84008000,0.040772106,0.19118331,0.100808956,0.94358265,-0.27508134,-13.865411
84016000,0.035472505,0.18703416,0.088500045,0.9145874,-0.29718915,-13.849518
84020000,0.036086667,0.18351896,0.087792836,0.9207327,-0.29204288,-14.003591
84024000,0.038850367,0.18886712,0.08791463,0.909107,-0.26324493,-14.014617
84032000,0.035555176,0.19446836,0.085584626,0.9790941,-0.30520004,-14.021889
84036000,0.041523162,0.18925636,0.079432085,0.9517656,-0.29660273,-13.977024
84040000,0.038049866,0.19467467,0.07981108,0.9396059,-0.21686845,-13.959807
84044000,0.032441974,0.19432186,0.083739676,0.91658413,-0.24045007,-14.009682
84048000,0.03243649,0.19416338,0.08346625,0.91016597,-0.28773996,-14.0622015
84052000,0.035549227,0.19643411,0.07882423,0.8893869,-0.2050897,-14.053517
84056000,0.03482085,0.19525486,0.076148994,0.84028584,-0.18181878,-14.028123
84060000,0.0380279,0.19401595,0.07309123,0.867557,-0.28102535,-13.99389
84064000,0.040645547,0.19219486,0.070345394,0.9399603,-0.2719124,-13.977733
84068000,0.03334848,0.19217433,0.07070707,0.9334832,-0.20514223,-13.984283
84076000,0.041509785,0.19665202,0.06623825,0.90566623,-0.29572767,-14.048559
84080000,0.040759876,0.19814283,0.06239882,0.930916,-0.30692428,-14.017472
84084000,0.03575184,0.19466281,0.066042654,0.8859214,-0.29728702,-14.031772
84088000,0.030524815,0.1888097,0.06743215,0.9095677,-0.31479976,-13.998902
84096000,0.03458326,0.18930314,0.059077054,0.95016366,-0.28345525,-14.004989
84100000,0.030185577,0.19179071,0.058286577,0.89732194,-0.22475101,-14.05857
84104000,0.019857572,0.19286686,0.059761267,0.8584995,-0.21206619,-14.073577
84108000,0.020757819,0.19161668,0.061345983,0.91824853,-0.2827287,-14.011076
84116000,0.024134088,0.19497909,0.050422516,0.8613008,-0.27108252,-14.023065
84120000,0.02578533,0.18899074,0.055828914,0.85943645,-0.29857907,-13.99479
84128000,0.018228486,0.18252996,0.051761623,0.9258277,-0.20485811,-14.022699
84132000,0.015904883,0.18190347,0.053298943,0.9603223,-0.22487153,-13.9777355
84136000,0.02235249,0.1887613,0.048850846,0.8980899,-0.27348804,-13.937023
84140000,0.024457585,0.1888564,0.038874388,0.89435416,-0.28307086,-13.943273
84144000,0.021716157,0.18768781,0.04232875,0.9589725,-0.26275313,-13.982736
84148000,0.021521512,0.18347676,0.045725446,0.92410344,-0.22282355,-13.9769335
84156000,0.02301066,0.18190046,0.03734047,0.8857574,-0.3045954,-13.912642
84160000,0.026202345,0.18352541,0.04004338,0.87524354,-0.29066384,-13.898887
84164000,0.026920062,0.18446931,0.037605785,0.8940392,-0.29557657,-13.944959
84168000,0.026644472,0.18360497,0.035162743,0.91541666,-0.30208433,-13.894387
84172000,0.023870666,0.18368831,0.03978434,0.9353984,-0.35966682,-13.86588
84180000,0.020641977,0.1817978,0.04006964,0.9145617,-0.3454314,-13.866608
84184000,0.02178058,0.17718105,0.039853424,0.9286642,-0.414399,-13.856272
84188000,0.021419879,0.1757154,0.036253963,0.93306303,-0.34539947,-13.861645
84196000,0.016966688,0.17778404,0.038709234,0.9476569,-0.30421975,-13.8627405
84200000,0.015011947,0.17578436,0.03768248,0.8597682,-0.3426007,-13.888744
84204000,0.018768283,0.17220366,0.036005788,0.84062064,-0.32619938,-13.756687
84212000,0.007875625,0.18200135,0.027587406,0.887164,-0.39070284,-13.718794
84216000,0.014345195,0.18286864,0.036021616,0.9182432,-0.36582896,-13.728612
84220000,0.017299654,0.1761664,0.04742384,0.8888173,-0.39952114,-13.788528
84228000,0.01626839,0.18103307,0.033758495,0.84178007,-0.36306038,-13.658776
84232000,0.018585589,0.18073496,0.03754709,0.88711685,-0.3849526,-13.601138
84236000,0.01739184,0.17802078,0.035920706,0.91552323,-0.5217775,-13.688627
84240000,0.01374826,0.178716,0.033685047,0.87699574,-0.4240018,-13.7406225
84248000,0.013252799,0.17695604,0.040504936,0.9070753,-0.3372418,-13.712787
84252000,0.010960134,0.18132864,0.040977348,0.9132002,-0.3877541,-13.706697
84256000,0.015924726,0.18095185,0.040307626,0.93391794,-0.39724973,-13.77207
84260000,0.018188292,0.17400861,0.037579745,1.0140404,-0.4225149,-13.733554
84268000,0.009898928,0.17107184,0.03696629,0.9519481,-0.42322397,-13.612449
84272000,0.004180507,0.16808327,0.03990041,0.9894414,-0.44566372,-13.576397
84276000,0.001976528,0.16877538,0.03719796,0.98129743,-0.42009288,-13.64124
84284000,0.006847791,0.17540722,0.03659263,0.9358602,-0.4757071,-13.642784
84288000,0.008216167,0.17178841,0.03836909,0.9895903,-0.4633071,-13.633276
84292000,0.011869154,0.1704605,0.041858185,0.9370196,-0.49948883,-13.612117
84296000,0.007255342,0.1677092,0.041535605,0.97243893,-0.48572436,-13.569833
84300000,0.010031085,0.16743019,0.04075893,0.9896471,-0.5053037,-13.558234
84308000,0.010830087,0.16798677,0.046443522,0.900787,-0.47693837,-13.60014
84312000,0.012426983,0.16965075,0.04895838,0.87729126,-0.43327472,-13.571366
84316000,0.013921258,0.17309828,0.042277936,0.90845233,-0.43503296,-13.518601
84320000,0.013061255,0.17253837,0.042350523,0.94869125,-0.4053649,-13.558242
84324000,0.010297529,0.16978787,0.047853265,0.9209605,-0.45627922,-13.560655
84328000,0.008599281,0.1696049,0.048231598,0.97805643,-0.5701901,-13.53053
84336000,0.010432221,0.17043072,0.04027544,0.911177,-0.524619,-13.540708
84340000,0.008824328,0.16450086,0.045783356,0.94222826,-0.56899714,-13.539578
84344000,0.005766755,0.16559248,0.044423524,0.9584988,-0.5527108,-13.521928
84352000,0.010629966,0.17186138,0.046669304,1.059285,-0.56535333,-13.545496
84356000,0.011594657,0.17121352,0.04998692,0.95399064,-0.49382645,-13.502873
84364000,0.012153132,0.1759876,0.051834375,0.9532149,-0.49057394,-13.562153
84368000,0.014638924,0.17373514,0.051109213,0.94538945,-0.47508594,-13.452926
84376000,0.006954512,0.18010534,0.04989492,0.988502,-0.53365475,-13.463576
84380000,0.00979009,0.18051222,0.055531517,1.0205323,-0.49518874,-13.498399
84384000,0.007395017,0.17553109,0.059508733,1.031874,-0.5136451,-13.455325
84388000,0.011444985,0.17074697,0.059274543,1.000356,-0.47581753,-13.490107
84396000,0.014346808,0.17380856,0.06009157,0.99551886,-0.4526593,-13.562111
84400000,0.009704199,0.17190374,0.059515946,1.0809476,-0.46739393,-13.501168
84408000,0.006904555,0.17147006,0.057645306,1.0476972,-0.54881585,-13.428773
84412000,0.005891354,0.17115334,0.06280351,1.0380322,-0.53171086,-13.490535
84416000,0.000112481,0.17526095,0.068010695,0.9912858,-0.51248866,-13.473364
84424000,0.009279128,0.17950065,0.06758676,1.0203341,-0.49503386,-13.4123
84432000,-0.000828806,0.17295071,0.0708373,1.0355458,-0.55017203,-13.571464
84440000,0.004414553,0.17475617,0.06896232,1.0185115,-0.5155796,-13.522663
84444000,0.001823491,0.18026514,0.068767235,1.0438586,-0.56524587,-13.571568
84452000,0.008533683,0.17692809,0.0702338,1.0367404,-0.5516425,-13.570096
84460000,0.010886593,0.17677589,0.06776352,1.0044283,-0.63886577,-13.513883
84468000,0.005441483,0.18164682,0.06730929,1.0438246,-0.52406794,-13.619652
84472000,0.008924612,0.18780383,0.07073943,1.0095279,-0.50026345,-13.550999
84476000,0.011074499,0.18365888,0.0773842,1.0462391,-0.5039048,-13.5003805
84480000,0.009636213,0.18153743,0.07250968,1.0598768,-0.44856104,-13.540876
84484000,0.008092987,0.18213159,0.06850553,1.0703646,-0.48319668,-13.585294
84488000,0.007437396,0.18842366,0.07070871,1.1173091,-0.52432644,-13.641738
84492000,0.007844657,0.18896869,0.0684415,1.0686291,-0.5480874,-13.637229
84496000,0.00775501,0.1823894,0.07210904,1.0387079,-0.54013133,-13.58073
84500000,0.005493403,0.18171683,0.07002399,1.0786561,-0.5261171,-13.57674
84504000,0.003840186,0.18330625,0.06859036,1.0586677,-0.48521098,-13.615044
84512000,0.008281099,0.18304066,0.07363725,0.96617645,-0.54826874,-13.577424
84516000,0.006066593,0.18324299,0.07280398,1.0260274,-0.51029843,-13.532455
84520000,0.011566785,0.18683523,0.07148546,1.0820092,-0.47172335,-13.597277
84524000,0.006603983,0.1820196,0.06916514,1.0622958,-0.5069012,-13.615216
84532000,-0.00231406,0.1781867,0.067199506,1.1454388,-0.5864265,-13.683001
84536000,-0.001651231,0.18454853,0.07084736,1.1573488,-0.50293475,-13.596356
84544000,0.007609294,0.1896366,0.071830064,1.1087066,-0.5383264,-13.666627
84548000,0.002739001,0.19253911,0.0710468,1.1200104,-0.53741276,-13.65194
84552000,0.005226475,0.19369732,0.07195952,1.1887629,-0.5008704,-13.630817
84556000,0.005814823,0.18654983,0.07877299,1.1887629,-0.5008704,-13.630817
84560000,0.004035662,0.1834746,0.07199749,1.0724324,-0.48970255,-13.623536
84564000,0.006103696,0.19032077,0.065508194,1.06592,-0.49258146,-13.6669855
84572000,0.00647257,0.19154617,0.06519559,1.1859847,-0.51579344,-13.6811285
84576000,0.011107599,0.19363871,0.067491256,1.188735,-0.53758085,-13.701909
84580000,0.002365894,0.19614261,0.06610355,1.1517651,-0.56480515,-13.772761
84584000,0.001369893,0.18887788,0.06794799,1.1454931,-0.46107608,-13.787477
84592000,0.002911336,0.19122858,0.06898553,1.1452266,-0.56330013,-13.680175
84596000,-0.001183312,0.19317551,0.06909901,1.171091,-0.5191305,-13.747639
84600000,-0.000234161,0.187483,0.06682616,1.1870201,-0.529526,-13.761107
84608000,0.001271169,0.1982573,0.06486545,1.1913245,-0.5671807,-13.71661
84612000,0.002107898,0.19535747,0.06820196,1.2101464,-0.61390185,-13.706442
84616000,-0.004568562,0.19146575,0.061944444,1.1871065,-0.59255856,-13.681226
84620000,-0.003205222,0.19172427,0.064094625,1.157655,-0.5501454,-13.71561
84624000,-0.001558253,0.19657716,0.06361094,1.1751922,-0.5369505,-13.739701
84628000,-0.000264693,0.19582772,0.062357232,1.1999433,-0.5689838,-13.748806
84636000,0.000323633,0.1941219,0.063637115,1.2082052,-0.5262307,-13.759965
84640000,-0.007465922,0.1932145,0.05506835,1.1883817,-0.6142933,-13.825213
84644000,-0.005701853,0.19744647,0.05887551,1.2154984,-0.5658052,-13.853087
84648000,-0.010876369,0.19920929,0.06143407,1.2178953,-0.51226544,-13.832145
84656000,-0.006319826,0.19790632,0.06284112,1.2527896,-0.5088303,-13.801078
84660000,-0.007035645,0.19744685,0.06366125,1.2391219,-0.52159154,-13.77537
84664000,0.001917328,0.19768783,0.059748292,1.178186,-0.5880992,-13.732446
84672000,-0.000997201,0.1946038,0.05852746,1.2428193,-0.59335935,-13.755352
84676000,-0.008618246,0.19699575,0.052717507,1.3123757,-0.5928635,-13.774579
84680000,-4.98E-05,0.20014152,0.05455608,1.2007067,-0.5460868,-13.779878
84684000,0.001969277,0.19884475,0.06135408,1.1691548,-0.5612102,-13.747787
84688000,-0.005542471,0.19901887,0.06045927,1.2809827,-0.61941504,-13.796365
84692000,-0.003914761,0.19811125,0.061253577,1.3416806,-0.5649304,-13.840888
84696000,0.005219792,0.19261007,0.061327305,1.3024422,-0.46043867,-13.810988
84704000,-0.000109583,0.19660781,0.05018279,1.2610077,-0.57936895,-13.788915
84708000,-0.003084163,0.19668841,0.053378437,1.2204322,-0.5483374,-13.792109
84712000,-0.001367027,0.20136905,0.05747202,1.1929084,-0.5028111,-13.827343
84716000,-0.000372379,0.19772708,0.06260294,1.2262905,-0.57744944,-13.785051
84720000,0.000374619,0.19473144,0.060064543,1.262129,-0.6823766,-13.734573
84724000,-0.006864851,0.19411607,0.053875223,1.3057402,-0.64188707,-13.795466
84728000,-0.007567445,0.19481905,0.05576717,1.355889,-0.62714386,-13.818129
84736000,-0.001368735,0.18905897,0.054871306,1.3723016,-0.5796673,-13.808644
84740000,-0.002600937,0.19477454,0.049391665,1.2724458,-0.608929,-13.845423
84744000,-0.005322409,0.2004871,0.052427813,1.2822287,-0.64653903,-13.8624115
84748000,-0.007664655,0.2022351,0.054030526,1.3110315,-0.63537306,-13.860523
84756000,-0.012280781,0.19911666,0.051380374,1.359018,-0.6260934,-13.847257
84760000,-0.010009442,0.19526741,0.055713624,1.3307301,-0.560967,-13.839383
84764000,-0.008604862,0.1944186,0.054926053,1.2607212,-0.57741266,-13.87157
84768000,-0.00571269,0.20120504,0.05412052,1.2971269,-0.59785205,-13.852264
84772000,-0.003126937,0.20272203,0.057518754,1.3205049,-0.5900816,-13.819047
84776000,-0.004941824,0.20550871,0.052473523,1.3205049,-0.5900816,-13.819047
84784000,-0.006258417,0.20114379,0.048616245,1.4304758,-0.5999944,-13.781993
84788000,-0.005078855,0.20976402,0.04908612,1.3367256,-0.6059766,-13.757192
84792000,-0.008276002,0.20399812,0.053255524,1.3952075,-0.64365417,-13.751706
84796000,-0.010038456,0.20220871,0.055843648,1.3530227,-0.61088693,-13.810918
84804000,-0.00399965,0.20303813,0.05333664,1.4152565,-0.65447354,-13.7400675
84812000,-0.006897667,0.2014343,0.04730529,1.4181769,-0.6178102,-13.727534
84816000,-0.014637317,0.20123287,0.049643498,1.4560267,-0.55119026,-13.82913
84820000,-0.012044355,0.19885476,0.05459679,1.5127351,-0.54848135,-13.898994
84828000,-0.012966503,0.19664718,0.055502094,1.491002,-0.61223626,-13.77505
84836000,-0.007388846,0.19476639,0.04699693,1.4211046,-0.6225747,-13.788026
84840000,-0.003469095,0.19817652,0.045470443,1.4406235,-0.6195445,-13.71521
84848000,-0.008045459,0.20621686,0.053057726,1.4771916,-0.66315013,-13.780257
84852000,-0.005150641,0.20074882,0.055187747,1.4882499,-0.64094394,-13.855224
84856000,-0.007674586,0.19837272,0.051305417,1.474319,-0.6747454,-13.756563
84860000,-0.01204888,0.19706778,0.047739804,1.4941653,-0.7170751,-13.739487
84864000,-0.007454206,0.1973579,0.047976803,1.5033786,-0.72338796,-13.864952
84868000,-0.004071996,0.1985833,0.054783262,1.4465889,-0.70517236,-13.862114
84872000,-0.009678781,0.19342282,0.0538213,1.4497088,-0.7001182,-13.827638
84880000,-0.008371492,0.195654,0.05070392,1.5964512,-0.64089435,-13.810301
84888000,-0.010775869,0.20363037,0.0437814,1.5049722,-0.69647634,-13.850209
84896000,-0.003928958,0.20381446,0.054980084,1.4837801,-0.6379917,-13.801935
84900000,-0.003619769,0.20642743,0.05283336,1.4758126,-0.6741446,-13.806024
84904000,-0.010830483,0.20904475,0.048527643,1.5033144,-0.6991255,-13.824087
84912000,-0.005551266,0.20761286,0.04721033,1.5968165,-0.6241616,-13.851293
84916000,-0.008766287,0.20862898,0.052502874,1.6691014,-0.6262416,-13.801308
84924000,-0.008240679,0.20420143,0.043655083,1.6495687,-0.63038063,-13.890867
84928000,-0.008690857,0.2092163,0.049574222,1.5612245,-0.62389165,-13.896927
84932000,-0.010654472,0.20958176,0.05651705,1.576485,-0.68431664,-13.911482
84940000,-0.006729611,0.20262165,0.059400413,1.6309212,-0.76962423,-13.791062
84944000,-0.011550287,0.20441648,0.058383763,1.6088735,-0.6868553,-13.8037
84948000,-0.010116955,0.20737705,0.06034817,1.6473142,-0.7436757,-13.849877
84952000,-0.00203564,0.20658964,0.05588968,1.6064682,-0.7682994,-13.832175
84960000,-0.011266814,0.21121486,0.05617928,1.6099628,-0.7192932,-13.8503
84964000,-0.009867667,0.20402128,0.054813877,1.6452615,-0.6801547,-13.886825
84968000,-0.001586477,0.1977036,0.05503861,1.6905018,-0.7087947,-13.868426
84972000,-0.00651332,0.20030116,0.05804414,1.684834,-0.70548326,-13.839262
84976000,-0.011354622,0.20493864,0.06128687,1.6771533,-0.6470493,-13.833171
84980000,-0.010032855,0.20442966,0.062201083,1.6127517,-0.67756826,-13.8389635
84988000,-0.020287389,0.19362153,0.05928444,1.7314514,-0.68714404,-13.967663
84996000,-0.008965016,0.19383465,0.05519468,1.6977681,-0.74788576,-13.809581
85000000,-0.009830304,0.19534402,0.05423297,1.7133713,-0.7739922,-13.829334
85004000,-0.009379356,0.19408311,0.057250243,1.7246635,-0.7225784,-13.858021
85012000,-0.013489485,0.1823667,0.052626837,1.7130033,-0.66241765,-13.844226
85020000,-0.07059395,0.1889333,0.069358304,1.6891357,-0.68863636,-13.739863
85024000,-0.107312135,0.18592219,0.0638432,1.7362618,-0.619358,-13.746981
85028000,-0.15164304,0.18610139,0.055949952,1.7857561,-0.736651,-13.755687
85032000,-0.1877328,0.17869687,0.053241085,1.7772118,-0.8035494,-13.739345
85036000,-0.21893881,0.1780344,0.04564184,1.7326949,-0.71085805,-13.728478
85040000,-0.2510478,0.18402582,0.048938654,1.7706169,-0.6158655,-13.701434
85048000,-0.30763197,0.18727127,0.04626014,1.7559602,-0.6409809,-13.773633
85052000,-0.33182672,0.18521792,0.046460614,1.8235911,-0.7172234,-13.691646
85056000,-0.35731456,0.1784132,0.047909666,1.8461028,-0.74972266,-13.668197
85060000,-0.3845338,0.18235514,0.046640243,1.8196694,-0.6966538,-13.728833
85064000,-0.41008678,0.18074308,0.04188116,1.7981206,-0.6897925,-13.686337
85068000,-0.42343408,0.17498767,0.043327898,1.7823503,-0.73265433,-13.671184
85072000,-0.439179,0.17479801,0.046848442,1.7669073,-0.76285374,-13.702865
85076000,-0.46325216,0.17146489,0.04572484,1.762638,-0.7422383,-13.636598
85080000,-0.48300323,0.17263953,0.04652835,1.8053049,-0.6569742,-13.607294
85088000,-0.5112738,0.16147383,0.037556097,1.834748,-0.66334414,-13.658063
85092000,-0.5217694,0.15922222,0.037934758,1.8464882,-0.60364544,-13.564139
85096000,-0.5359206,0.15768869,0.033034768,1.8973049,-0.68203413,-13.5851
85100000,-0.54072,0.16183197,0.029182216,1.8732779,-0.79256314,-13.534541
85108000,-0.5605275,0.15538976,0.02798744,1.8318899,-0.7123252,-13.586828
85112000,-0.5694661,0.15510991,0.029681712,1.8495029,-0.73593247,-13.511677
85116000,-0.57687736,0.14915639,0.031296138,1.8261632,-0.7817958,-13.531215
85120000,-0.5846591,0.14539343,0.02785891,1.8991972,-0.759089,-13.467641
85124000,-0.58993936,0.15126345,0.023294082,1.9372205,-0.7236407,-13.3817625
85128000,-0.5929402,0.14704387,0.019678246,1.9147596,-0.76561004,-13.386853
85132000,-0.5983794,0.13710399,0.01970759,1.9487103,-0.7104119,-13.37535
85136000,-0.6064007,0.13355778,0.01992503,1.9677696,-0.7407881,-13.293275
85144000,-0.6086176,0.13240787,0.012874685,1.911259,-0.74896216,-13.373063
85148000,-0.6176683,0.12762439,0.010437666,1.9862221,-0.79376113,-13.362053
85152000,-0.61300963,0.13069059,0.008924555,1.9973079,-0.83816284,-13.265396
85156000,-0.6102964,0.12883271,0.005911943,1.9600496,-0.7991614,-13.232514
85160000,-0.61561006,0.124913484,0.002588783,1.9798552,-0.7544521,-13.176907
85164000,-0.6202951,0.11855376,0.006766974,2.0164142,-0.8010442,-13.171054
85168000,-0.6257007,0.11897376,0.005907027,2.0344458,-0.7828909,-13.175539
85172000,-0.6238675,0.12594873,0.005170629,2.0116377,-0.754165,-13.153389
85180000,-0.6206583,0.11761422,0.003032509,1.962638,-0.71709347,-13.056178
85184000,-0.6193393,0.118589245,-0.001344437,1.9960604,-0.78478736,-13.069232
85188000,-0.62365,0.112681285,-0.005128098,2.0805,-0.8242778,-13.006627
85192000,-0.6231283,0.10743696,-0.009038162,2.0300686,-0.8032079,-12.940796
85196000,-0.61849856,0.11261704,-0.007774374,1.9935209,-0.78442633,-12.886925
85200000,-0.6161748,0.10738214,-0.005140618,2.0388744,-0.8001898,-12.87366
85208000,-0.6135665,0.10403898,-0.006504187,2.1349566,-0.78734726,-12.7977
85212000,-0.61156654,0.103279084,-0.005546797,2.1871436,-0.8678153,-12.691697
85216000,-0.61664766,0.096856676,-0.011867296,2.1545382,-0.79876596,-12.627456
85224000,-0.6010131,0.09501939,-0.011097731,2.1020098,-0.7314999,-12.620478
85228000,-0.60486275,0.09941185,-0.013305552,2.1917005,-0.768848,-12.597687
85236000,-0.601586,0.09199025,-0.011152734,2.1847582,-0.7717596,-12.433759
85240000,-0.6030487,0.09007632,-0.015050626,2.2305412,-0.7935392,-12.380672
85244000,-0.6003069,0.088031754,-0.013005157,2.258055,-0.888527,-12.351847
85252000,-0.5868437,0.079624444,-0.020774126,2.280217,-0.8434178,-12.309307
85256000,-0.5859574,0.08360471,-0.012005306,2.2984624,-0.8555897,-12.283618
85260000,-0.584255,0.08024629,-0.007991483,2.2032328,-0.8534536,-12.192467
85264000,-0.58383083,0.071501344,-0.017724514,2.2153442,-0.86624235,-12.200194
85268000,-0.5831957,0.069096066,-0.020035911,2.2573946,-0.8135217,-12.216566
85272000,-0.57813436,0.065550044,-0.01760506,2.2306752,-0.87299186,-12.180746
85276000,-0.56910783,0.06730819,-0.019236624,2.2241154,-0.9019942,-12.128289
85284000,-0.56849295,0.06447949,-0.0190952,2.29095,-0.8693546,-11.982746
85288000,-0.5660119,0.0706204,-0.018231763,2.2873523,-0.873938,-12.018523
85296000,-0.5524018,0.060672645,-0.022182113,2.389177,-0.9082915,-11.911881
85300000,-0.5513302,0.063294426,-0.023693908,2.3573148,-0.8749294,-11.817766
85304000,-0.5501714,0.059182826,-0.023764024,2.3155608,-0.9069746,-11.791955
85308000,-0.54724985,0.054461934,-0.023860916,2.3446774,-0.9845178,-11.822623
85316000,-0.5358084,0.056570303,-0.019329436,2.3726017,-0.9669896,-11.745063
85320000,-0.5378213,0.055238303,-0.030645331,2.3278584,-0.97196907,-11.753095
85324000,-0.53286463,0.051670674,-0.037675906,2.3285522,-0.9170705,-11.730772
85328000,-0.5275905,0.055175122,-0.031970516,2.344099,-0.93296885,-11.65151
85336000,-0.5222067,0.055583093,-0.033424564,2.35101,-0.87984544,-11.551748
85344000,-0.5117596,0.054707445,-0.02919394,2.4289975,-0.8781318,-11.509624
85348000,-0.511617,0.056662984,-0.029489372,2.4012835,-0.8135057,-11.438824
85352000,-0.50882655,0.053852726,-0.024554668,2.392973,-0.89220375,-11.483918
85356000,-0.5004072,0.049311478,-0.02272207,2.4334514,-0.9205867,-11.512582
85364000,-0.48616725,0.041160107,-0.026332332,2.5024118,-0.92586523,-11.41879
85368000,-0.48392016,0.047801152,-0.02373068,2.4601727,-0.93182105,-11.335276
85372000,-0.48843735,0.04972149,-0.026438644,2.4127717,-0.9347701,-11.32306
85376000,-0.48306563,0.045861192,-0.027448386,2.4649136,-0.96977735,-11.35147
85384000,-0.47131103,0.04814176,-0.03153562,2.449477,-0.8851992,-11.242544
85388000,-0.4654759,0.052254565,-0.025749031,2.4337904,-0.9440921,-11.178624
85392000,-0.46747288,0.054206725,-0.025878636,2.4941654,-0.9470896,-11.177967
85396000,-0.4680282,0.056248043,-0.032026615,2.495577,-0.923537,-11.190918
85400000,-0.45894018,0.052393414,-0.037194,2.5179994,-0.94221735,-11.1218605
85408000,-0.45305797,0.04911955,-0.027911374,2.4278007,-0.933192,-11.119292
85412000,-0.4542417,0.04863584,-0.028113352,2.4551544,-0.9648874,-11.1451235
85416000,-0.4504539,0.049137916,-0.028608466,2.5034173,-0.9538135,-11.137021
85420000,-0.44537216,0.047416672,-0.028376298,2.5133226,-1.0103284,-11.074386
85424000,-0.43992817,0.041749895,-0.028480954,2.5017874,-1.0246851,-11.038085
85428000,-0.43655592,0.0428597,-0.030426247,2.5613298,-1.0125542,-11.036086
85432000,-0.43891358,0.04422348,-0.03230256,2.5360367,-0.97469604,-11.023748
85436000,-0.4352005,0.046424527,-0.028849289,2.477078,-0.91735655,-10.998012
85440000,-0.43467474,0.049318556,-0.025479365,2.5755866,-0.9566862,-10.987027
85444000,-0.435568,0.050717644,-0.025030706,2.582397,-0.96622795,-10.944014
85448000,-0.42165586,0.04889945,-0.031074243,2.5510547,-0.97893757,-10.9520445
85452000,-0.4136107,0.04483711,-0.03344066,2.6213984,-0.9772143,-10.992892
85456000,-0.4159266,0.03893434,-0.032850366,2.5811403,-0.96217674,-11.020877
85460000,-0.41265985,0.045247175,-0.034954496,2.501539,-0.9509439,-10.897462
85464000,-0.40769723,0.048778668,-0.03760856,2.5565677,-0.94947916,-10.793201
85468000,-0.40404597,0.047889877,-0.041241698,2.5807018,-0.962473,-10.815829
85476000,-0.3966274,0.056629807,-0.038713954,2.5843134,-0.9250998,-10.913845
85480000,-0.39589974,0.051852353,-0.03667618,2.6273963,-0.9354077,-10.895728
85484000,-0.39273044,0.0486364,-0.037414245,2.5851884,-0.9384533,-10.947501
85488000,-0.39462134,0.04888681,-0.039110232,2.5786753,-0.9577039,-10.912417
85492000,-0.3961106,0.043728102,-0.036818378,2.6643178,-0.9477047,-10.898785
85496000,-0.39120916,0.043467615,-0.03347651,2.6826212,-0.96194196,-10.932323
85500000,-0.38918513,0.0466215,-0.036633942,2.6630867,-0.9756004,-10.825663
85508000,-0.37594357,0.046718538,-0.0372848,2.6586773,-1.034676,-10.848151
85512000,-0.3700309,0.049724936,-0.04337175,2.571197,-0.9448294,-10.8320055
85516000,-0.3672383,0.04569717,-0.04415382,2.608102,-0.8778721,-10.781124
85520000,-0.3675948,0.043869592,-0.041942336,2.6017072,-0.94429207,-10.814064
85524000,-0.36539966,0.05063376,-0.041648544,2.547092,-0.9199683,-10.826884
85528000,-0.3612401,0.05298679,-0.03800706,2.6114092,-0.9229773,-10.776959
85532000,-0.36382273,0.04803966,-0.03335116,2.652661,-1.0151162,-10.710602
85536000,-0.35888082,0.04478812,-0.038313817,2.6720092,-1.0121008,-10.751168
85544000,-0.35014927,0.051438954,-0.036416173,2.7069955,-0.9813108,-10.782227
85548000,-0.34895146,0.05120907,-0.041562717,2.70344,-0.937058,-10.803009
85552000,-0.33974597,0.04832321,-0.037434332,2.7196567,-0.9842893,-10.762796
85560000,-0.33490187,0.054946747,-0.051445294,2.7110822,-0.91786295,-10.674976
85564000,-0.33613938,0.05207253,-0.050072927,2.723159,-0.97953135,-10.773573
85568000,-0.33476564,0.041125342,-0.03632453,2.7330902,-1.0052711,-10.717456
85572000,-0.32963827,0.04301729,-0.043522686,2.7445939,-0.95500904,-10.691464
85576000,-0.3266046,0.04323791,-0.050456185,2.7102969,-0.9174699,-10.738474
85580000,-0.32443923,0.044670615,-0.04426817,2.7415178,-1.0109633,-10.792238
85584000,-0.3249587,0.050856818,-0.04721821,2.738868,-1.0421994,-10.8137455
85588000,-0.32220492,0.04539949,-0.04807832,2.6860795,-0.9694134,-10.741446
85592000,-0.31495616,0.03773342,-0.04718433,2.7423213,-0.97638893,-10.681866
85596000,-0.31055257,0.040539492,-0.0481755,2.7619958,-0.97254467,-10.5933075
85604000,-0.30831593,0.041027762,-0.061771367,2.6844995,-1.1335804,-10.663491
85612000,-0.3010426,0.051201392,-0.061452627,2.709162,-0.8865259,-10.672976
85616000,-0.30635136,0.047861636,-0.0580371,2.7514944,-0.853961,-10.636753
85620000,-0.30658203,0.049868,-0.058718145,2.7819908,-0.9682835,-10.690956
85624000,-0.30618927,0.04766204,-0.058792055,2.7728658,-0.99587005,-10.729886
85632000,-0.29398638,0.055271283,-0.0572086,2.7563043,-0.9750848,-10.628494
85636000,-0.2896852,0.04512915,-0.064482115,2.8294547,-0.94467103,-10.675401
85644000,-0.2790447,0.04037395,-0.06255095,2.8035676,-0.91097915,-10.728628
85652000,-0.27811024,0.04547391,-0.06824953,2.819901,-0.96119505,-10.625089
85656000,-0.26952907,0.048157483,-0.068360135,2.7502165,-0.9653298,-10.678932
85660000,-0.27288705,0.047843672,-0.06291711,2.7486212,-0.96162844,-10.697901
85664000,-0.27723175,0.047379863,-0.061109487,2.777226,-0.9858719,-10.676582
85672000,-0.27065873,0.044698663,-0.07175307,2.7672198,-0.98529404,-10.565563
85676000,-0.26399794,0.045992486,-0.070330255,2.7032692,-0.9672282,-10.56654
85684000,-0.2600954,0.051000416,-0.065373994,2.8981068,-0.9256607,-10.63885
85688000,-0.25594646,0.046225663,-0.061035804,2.8644927,-0.95590824,-10.62741
85696000,-0.25592571,0.04903449,-0.07655918,2.8698306,-0.9250765,-10.516628
85704000,-0.25321546,0.042612955,-0.07038521,2.8856294,-0.9719168,-10.501328
85712000,-0.26015854,0.040093087,-0.07011553,2.869407,-1.0835596,-10.585082
85716000,-0.28185707,0.038243588,-0.07267185,2.3722713,-0.9278631,-10.608349
85720000,-0.30831763,0.040967166,-0.07235033,1.5462557,-0.88759464,-10.606796
85724000,-0.33271432,0.04369893,-0.06984698,0.8736679,-0.91669124,-10.714203
85728000,-0.36477715,0.04205381,-0.066776626,0.37661517,-0.8822737,-10.853189
85732000,-0.39859268,0.045700107,-0.065602824,-0.055529226,-0.8016848,-10.763862
85736000,-0.42745814,0.053918574,-0.06663726,-0.36760163,-0.6600478,-10.823589
85740000,-0.4564058,0.052879393,-0.07002688,-0.60220325,-0.6074453,-10.962573
85748000,-0.50783014,0.057545587,-0.06185088,-0.8457171,-0.56252396,-10.862171
85752000,-0.5280408,0.060877737,-0.06154688,-1.0308143,-0.54373884,-10.856858
85756000,-0.55587906,0.063611105,-0.05863953,-1.147774,-0.56017274,-10.826459
85760000,-0.57603407,0.06802817,-0.05598353,-1.1400433,-0.6334501,-10.901739
85768000,-0.61614126,0.09006553,-0.053023603,-1.2707658,-0.51970637,-11.030426
85772000,-0.6361492,0.08791719,-0.050601915,-1.2115885,-0.58628166,-11.019377
85780000,-0.6643766,0.08393422,-0.04898887,-1.2803264,-0.61472875,-10.973773
85788000,-0.69750786,0.095901325,-0.0431717,-1.3974967,-0.5054856,-11.144095
85796000,-0.71665674,0.10342966,-0.044428214,-1.2531086,-0.5556169,-11.150221
85800000,-0.72715616,0.10009128,-0.039092872,-1.2154251,-0.58380103,-11.220515
85804000,-0.7375385,0.10144947,-0.041765034,-1.148362,-0.5863477,-11.163602
85808000,-0.74551654,0.10507239,-0.03994883,-1.1875281,-0.5429868,-11.208823
85812000,-0.7506201,0.10062063,-0.034413613,-1.1934619,-0.50135267,-11.244791
85820000,-0.7652234,0.10512636,-0.038790442,-1.1474077,-0.46795294,-11.313858
85824000,-0.7688443,0.10462842,-0.033220045,-1.1527219,-0.4862081,-11.383426
85828000,-0.77151805,0.104473636,-0.033977024,-1.1195517,-0.54530066,-11.321759
85832000,-0.7720678,0.10713457,-0.038156845,-1.0136174,-0.546668,-11.338115
85836000,-0.77054334,0.10966969,-0.041843418,-0.96727896,-0.6101491,-11.377553
85840000,-0.7751602,0.10636348,-0.048520103,-0.9735204,-0.5986582,-11.390327
85844000,-0.7778195,0.10225394,-0.044071704,-0.9454107,-0.53957903,-11.400488
