timestamp,roll,pitch,yaw,thrust_body[0]
82820000,0.016461454,-0.5239222,6.88E-05,1
82824000,0.015963513,-0.5236585,6.88E-05,1
82828000,0.015422601,-0.52344215,6.88E-05,1
82832000,0.014846002,-0.52320987,6.88E-05,1
82836000,0.014247301,-0.5229867,6.88E-05,1
82844000,0.012948509,-0.49895293,6.88E-05,1
82848000,0.012213315,-0.49872023,6.88E-05,1
82852000,0.011487396,-0.49852526,6.88E-05,1
82856000,0.01072212,-0.49837813,6.88E-05,1
82860000,0.009887658,-0.49826047,6.88E-05,1
82864000,0.008979397,-0.49815407,6.88E-05,1
82868000,0.008018904,-0.47544834,6.88E-05,1
82872000,0.007028587,-0.4753715,6.88E-05,1
82876000,0.006028004,-0.47528735,6.88E-05,1
82880000,0.005007246,-0.47519463,6.88E-05,1
82884000,0.003965418,-0.47510618,6.88E-05,1
82888000,0.002858916,-0.4750055,6.88E-05,1
82892000,0.001673925,-0.45347127,6.88E-05,1
82896000,0.000460895,-0.45345667,6.88E-05,1
82900000,-0.000791989,-0.45338959,6.88E-05,1
82904000,-0.002101964,-0.45333365,6.88E-05,1
82908000,-0.003476286,-0.453335,6.88E-05,1
82912000,-0.004871476,-0.45340377,6.88E-05,1
82916000,-0.006284771,-0.4329301,6.88E-05,1
82920000,-0.007746232,-0.43296894,6.88E-05,1
82924000,-0.009214887,-0.43302703,6.88E-05,1
82928000,-0.010729169,-0.4331044,6.88E-05,1
82932000,-0.012297218,-0.43320566,6.88E-05,1
82936000,-0.013878519,-0.43328372,6.88E-05,1
82940000,-0.015491883,-0.41360915,6.88E-05,1
82944000,-0.017158713,-0.4136348,6.88E-05,1
82948000,-0.01889549,-0.41364342,6.88E-05,1
82952000,-0.020658746,-0.41368565,6.88E-05,1
82960000,-0.024112387,-0.41379312,6.88E-05,1
82964000,-0.025866691,-0.39481533,6.88E-05,1
82968000,-0.027645549,-0.39485353,6.88E-05,1
82972000,-0.02945658,-0.3948835,6.88E-05,1
82976000,-0.03129483,-0.39490104,6.88E-05,1
82980000,-0.033157673,-0.3948981,6.88E-05,1
82988000,-0.036914192,-0.37630913,6.88E-05,1
82996000,-0.040612966,-0.37621433,6.88E-05,1
83000000,-0.04250503,-0.3761436,6.88E-05,1
83004000,-0.04440416,-0.3760398,6.88E-05,1
83012000,-0.0481733,-0.35791755,6.88E-05,1
83016000,-0.050113417,-0.35779873,6.88E-05,1
83020000,-0.05208061,-0.3576669,6.88E-05,1
83024000,-0.05402274,-0.357502,6.88E-05,1
83028000,-0.05595941,-0.35731658,6.88E-05,1
83036000,-0.05988113,-0.33965456,6.88E-05,1
83040000,-0.06186837,-0.33948794,6.88E-05,1
83044000,-0.0638645,-0.33924466,6.88E-05,1
83048000,-0.065842554,-0.3389683,6.88E-05,1
83052000,-0.06780829,-0.3387651,6.88E-05,1
83060000,-0.07174076,-0.32151684,6.88E-05,1
83068000,-0.07561722,-0.32101154,6.88E-05,1
83072000,-0.077512026,-0.32074332,6.88E-05,1
83076000,-0.07938706,-0.32047793,6.88E-05,1
83080000,-0.08125532,-0.3201408,6.88E-05,1
83084000,-0.083119184,-0.30334902,6.88E-05,1
83088000,-0.084989734,-0.30301747,6.88E-05,1
83092000,-0.08686159,-0.30270034,6.88E-05,1
83096000,-0.08869929,-0.30239004,6.88E-05,1
83100000,-0.09051095,-0.302081,6.88E-05,1
83104000,-0.09232148,-0.30179694,6.88E-05,1
83108000,-0.09410854,-0.28548768,6.88E-05,1
83112000,-0.095911175,-0.28519014,6.88E-05,1
83116000,-0.09772194,-0.28492332,6.88E-05,1
83120000,-0.09947406,-0.2846765,6.88E-05,1
83124000,-0.10118612,-0.28450167,6.88E-05,1
83128000,-0.10289399,-0.2843433,6.88E-05,1
83132000,-0.10458412,-0.26854023,6.88E-05,1
83136000,-0.10626181,-0.26837885,6.88E-05,1
83140000,-0.107974075,-0.2682455,6.88E-05,1
83144000,-0.10970001,-0.26812315,6.88E-05,1
83148000,-0.11138472,-0.26799777,6.88E-05,1
83156000,-0.11465311,-0.25246876,6.88E-05,1
83160000,-0.11625356,-0.25241092,6.88E-05,1
83164000,-0.11779206,-0.25239438,6.88E-05,1
83168000,-0.11931862,-0.2524065,6.88E-05,1
83172000,-0.12088461,-0.25245416,6.88E-05,1
83176000,-0.12241768,-0.25250822,6.88E-05,1
83180000,-0.12391051,-0.23749688,6.88E-05,1
83184000,-0.12539457,-0.23758408,6.88E-05,1
83188000,-0.12689196,-0.2377558,6.88E-05,1
83196000,-0.12984507,-0.23814799,6.88E-05,1
83200000,-0.13131054,-0.23837352,6.88E-05,1
83204000,-0.13275774,-0.22382076,6.88E-05,1
83208000,-0.13422325,-0.22405583,6.88E-05,1
83212000,-0.13567244,-0.22435188,6.88E-05,1
83220000,-0.13852479,-0.22510935,6.88E-05,1
83224000,-0.13994843,-0.2254868,6.88E-05,1
83228000,-0.14134847,-0.21135455,6.88E-05,1
83236000,-0.14413048,-0.21235539,6.88E-05,1
83240000,-0.1454392,-0.21265912,6.88E-05,1
83244000,-0.14666525,-0.21269473,6.88E-05,1
83248000,-0.14789192,-0.2127467,6.88E-05,1
83252000,-0.14911802,-0.19848311,6.88E-05,1
83260000,-0.1515187,-0.1985848,6.88E-05,1
83264000,-0.15274777,-0.19861834,6.88E-05,1
83268000,-0.15398033,-0.19868493,6.88E-05,1
83272000,-0.15521656,-0.19875292,6.88E-05,1
83276000,-0.15643972,-0.18463172,6.88E-05,1
83280000,-0.15766507,-0.18462743,6.88E-05,1
83284000,-0.15884781,-0.18464313,6.88E-05,1
83292000,-0.1611514,-0.18476698,6.88E-05,1
83296000,-0.16232269,-0.18481196,6.88E-05,1
83300000,-0.16348624,-0.17083515,6.88E-05,1
83308000,-0.16578135,-0.1708694,6.88E-05,1
83312000,-0.16694717,-0.17090993,6.88E-05,1
83316000,-0.16809537,-0.17097324,6.88E-05,1
83324000,-0.17031829,-0.15732907,6.88E-05,1
83328000,-0.17141293,-0.15739375,6.88E-05,1
83332000,-0.17245325,-0.15753062,6.88E-05,1
83336000,-0.17347148,-0.1577202,6.88E-05,1
83340000,-0.17450812,-0.15794234,6.88E-05,1
83344000,-0.17553958,-0.1582387,6.88E-05,1
83348000,-0.17657654,-0.14487699,6.88E-05,1
83352000,-0.17765893,-0.1451974,6.88E-05,1
83356000,-0.17874783,-0.14559902,6.88E-05,1
83360000,-0.17979427,-0.14607367,6.88E-05,1
83364000,-0.18083811,-0.1466084,6.88E-05,1
83368000,-0.18190387,-0.1471985,6.88E-05,1
83372000,-0.18295795,-0.13430941,6.88E-05,1
83376000,-0.18398537,-0.13503224,6.88E-05,1
83380000,-0.18500334,-0.1358708,6.88E-05,1
83384000,-0.18600422,-0.1368082,6.88E-05,1
83388000,-0.1869976,-0.13777755,6.88E-05,1
83392000,-0.18801023,-0.13884485,6.88E-05,1
83396000,-0.18903998,-0.12653929,6.88E-05,1
83400000,-0.19007595,-0.12769248,6.88E-05,1
83404000,-0.19111948,-0.12889475,6.88E-05,1
83408000,-0.19215208,-0.13017894,6.88E-05,1
83412000,-0.19317234,-0.13155735,6.88E-05,1
83420000,-0.19514424,-0.121097,6.88E-05,1
83424000,-0.19610007,-0.12258756,6.88E-05,1
83428000,-0.19705251,-0.124154806,6.88E-05,1
83432000,-0.19800495,-0.12576626,6.88E-05,1
83436000,-0.19897158,-0.1273891,6.88E-05,1
83440000,-0.19988199,-0.129058,6.88E-05,1
83444000,-0.20079209,-0.11756068,6.88E-05,1
83448000,-0.2017253,-0.11935438,6.88E-05,1
83456000,-0.20350519,-0.123057716,6.88E-05,1
83460000,-0.20439659,-0.12498483,6.88E-05,1
83468000,-0.20616932,-0.11572313,6.88E-05,1
83472000,-0.20706707,-0.117694855,6.88E-05,1
83476000,-0.20797105,-0.11968097,6.88E-05,1
83480000,-0.20882912,-0.12168582,6.88E-05,1
83484000,-0.20969333,-0.12377335,6.88E-05,1
83492000,-0.21138775,-0.11489739,6.88E-05,1
83496000,-0.21220033,-0.11701493,6.88E-05,1
83500000,-0.21299984,-0.11911881,6.88E-05,1
83508000,-0.2145627,-0.12329965,6.88E-05,1
83512000,-0.21534747,-0.12542199,6.88E-05,1
83516000,-0.21610709,-0.1145297,6.88E-05,1
83520000,-0.21686897,-0.1167069,6.88E-05,1
83524000,-0.2176452,-0.11886668,6.88E-05,1
83528000,-0.21840264,-0.121025585,6.88E-05,1
83532000,-0.21910837,-0.12320178,6.88E-05,1
83536000,-0.21980569,-0.12526697,6.88E-05,1
83540000,-0.2204815,-0.11432929,6.88E-05,1
83544000,-0.22114363,-0.11645082,6.88E-05,1
83548000,-0.2217949,-0.11855406,6.88E-05,1
83552000,-0.22245613,-0.1206462,6.88E-05,1
83556000,-0.22313325,-0.12272634,6.88E-05,1
83560000,-0.22378877,-0.1247302,6.88E-05,1
83564000,-0.22445843,-0.113748625,6.88E-05,1
83568000,-0.22512282,-0.11572673,6.88E-05,1
83572000,-0.22575389,-0.11767867,6.88E-05,1
83576000,-0.22637351,-0.119609006,6.88E-05,1
83580000,-0.22701617,-0.12154182,6.88E-05,1
83584000,-0.22769444,-0.12345917,6.88E-05,1
83588000,-0.22834663,-0.11242804,6.88E-05,1
83592000,-0.22894579,-0.11429901,6.88E-05,1
83596000,-0.22954209,-0.11612967,6.88E-05,1
83600000,-0.23014893,-0.117908716,6.88E-05,1
83604000,-0.23071049,-0.11967341,6.88E-05,1
83608000,-0.23123199,-0.12146894,6.88E-05,1
83612000,-0.23175417,-0.11034079,6.88E-05,1
83620000,-0.23284677,-0.11375577,6.88E-05,1
83628000,-0.23392878,-0.11705564,6.88E-05,1
83632000,-0.23446174,-0.118663006,6.88E-05,1
83636000,-0.2350138,-0.10735033,6.88E-05,1
83640000,-0.23558788,-0.108900286,6.88E-05,1
83644000,-0.23611777,-0.110443704,6.88E-05,1
83648000,-0.23661779,-0.11195244,6.88E-05,1
83656000,-0.2376157,-0.11496978,6.88E-05,1
83660000,-0.23813684,-0.10357548,6.88E-05,1
83664000,-0.23863034,-0.10499723,6.88E-05,1
83668000,-0.23912342,-0.106397934,6.88E-05,1
83672000,-0.23958372,-0.10779684,6.88E-05,1
83676000,-0.23999864,-0.109141715,6.88E-05,1
83680000,-0.24044542,-0.110415794,6.88E-05,1
83684000,-0.24089397,-0.09886479,6.88E-05,1
83688000,-0.24134241,-0.10015392,6.88E-05,1
83692000,-0.24180073,-0.10145677,6.88E-05,1
83696000,-0.24229011,-0.10275896,6.88E-05,1
83700000,-0.24276447,-0.10401008,6.88E-05,1
83704000,-0.2432015,-0.10524538,6.88E-05,1
83708000,-0.24362709,-0.09362114,6.88E-05,1
83716000,-0.24449469,-0.09598281,6.88E-05,1
83720000,-0.24493834,-0.09719059,6.88E-05,1
83724000,-0.24535574,-0.09840275,6.88E-05,1
83728000,-0.24574254,-0.09961316,6.88E-05,1
83732000,-0.2461561,-0.08793204,6.88E-05,1
83736000,-0.24657363,-0.089090094,6.88E-05,1
83740000,-0.24696878,-0.0902734,6.88E-05,1
83744000,-0.2473342,-0.09145538,6.88E-05,1
83748000,-0.24771427,-0.09261341,6.88E-05,1
83756000,-0.24853171,-0.081977,6.88E-05,1
83760000,-0.2489552,-0.08313068,6.88E-05,1
83764000,-0.24933298,-0.08428284,6.88E-05,1
83772000,-0.2500752,-0.08660069,6.88E-05,1
83780000,-0.25084132,-0.075971484,6.88E-05,1
83784000,-0.25123462,-0.077083394,6.88E-05,1
83788000,-0.2516053,-0.07817678,6.88E-05,1
83792000,-0.25197095,-0.07931173,6.88E-05,1
83796000,-0.25234985,-0.080492675,6.88E-05,1
83800000,-0.25270635,-0.081651285,6.88E-05,1
83804000,-0.25305825,-0.069854386,6.88E-05,1
83808000,-0.25340635,-0.07094815,6.88E-05,1
83812000,-0.25375414,-0.07209993,6.88E-05,1
83816000,-0.25409612,-0.073205344,6.88E-05,1
83820000,-0.2544168,-0.07429113,6.88E-05,1
83824000,-0.25474408,-0.07539852,6.88E-05,1
83828000,-0.2551087,-0.06361403,6.88E-05,1
83836000,-0.25582236,-0.06589449,6.88E-05,1
83840000,-0.25617602,-0.06707576,6.88E-05,1
83844000,-0.25650385,-0.06827134,6.88E-05,1
83852000,-0.25721464,-0.057685282,6.88E-05,1
83856000,-0.25757074,-0.058879104,6.88E-05,1
83860000,-0.25791654,-0.060074013,6.88E-05,1
83864000,-0.25825402,-0.061254483,6.88E-05,1
83868000,-0.2585893,-0.06244055,6.88E-05,1
83872000,-0.2589387,-0.06364514,6.88E-05,1
83880000,-0.259637,-0.053116813,6.88E-05,1
83884000,-0.2599843,-0.054356154,6.88E-05,1
83888000,-0.26030523,-0.055675983,6.88E-05,1
83892000,-0.2606407,-0.05698346,6.88E-05,1
83900000,-0.26132914,-0.04656844,6.88E-05,1
83904000,-0.2616612,-0.047871947,6.88E-05,1
83908000,-0.2619999,-0.04917662,6.88E-05,1
83912000,-0.26231632,-0.050482057,6.88E-05,1
83916000,-0.26263055,-0.051785067,6.88E-05,1
83920000,-0.2629539,-0.053132985,6.88E-05,1
83924000,-0.2632989,-0.04147428,6.88E-05,1
83928000,-0.2636664,-0.042825196,6.88E-05,1
83932000,-0.26401573,-0.044214647,6.88E-05,1
83936000,-0.264341,-0.045592334,6.88E-05,1
83940000,-0.26464137,-0.04697447,6.88E-05,1
83948000,-0.26525724,-0.036598906,6.88E-05,1
83952000,-0.26555115,-0.037925955,6.88E-05,1
83956000,-0.2658473,-0.03929941,6.88E-05,1
83960000,-0.26616263,-0.04065438,6.88E-05,1
83964000,-0.2664912,-0.04199658,6.88E-05,1
83968000,-0.26681042,-0.043373063,6.88E-05,1
83972000,-0.26709092,-0.031673033,6.88E-05,1
83976000,-0.26736793,-0.03301661,6.88E-05,1
83980000,-0.26767775,-0.034391355,6.88E-05,1
83984000,-0.2679885,-0.03585657,6.88E-05,1
83988000,-0.26826304,-0.037302032,6.88E-05,1
83992000,-0.26852754,-0.038719818,6.88E-05,1
83996000,-0.26882803,-0.027026398,6.88E-05,1
84000000,-0.26913217,-0.028487628,6.88E-05,1
84004000,-0.2694157,-0.029964278,6.88E-05,1
84008000,-0.26969835,-0.031384617,6.88E-05,1
84012000,-0.26998514,-0.032776892,6.88E-05,1
84016000,-0.27023256,-0.03418166,6.88E-05,1
84020000,-0.27048403,-0.022392556,6.88E-05,1
84024000,-0.2707524,-0.023812413,6.88E-05,1
84028000,-0.2709934,-0.025317634,6.88E-05,1
84036000,-0.2715262,-0.028214496,6.88E-05,1
84040000,-0.2717898,-0.02968764,6.88E-05,1
84044000,-0.27202463,-0.017940551,6.88E-05,1
84048000,-0.27225986,-0.019404143,6.88E-05,1
84052000,-0.2725117,-0.020890677,6.88E-05,1
84056000,-0.27275825,-0.022371884,6.88E-05,1
84060000,-0.27302244,-0.023846593,6.88E-05,1
84064000,-0.2733003,-0.025311047,6.88E-05,1
84068000,-0.27353784,-0.013518921,6.88E-05,1
84076000,-0.2740666,-0.016499167,6.88E-05,1
84080000,-0.27434433,-0.018020308,6.88E-05,1
84084000,-0.27459624,-0.019507837,6.88E-05,1
84088000,-0.2748189,-0.02094803,6.88E-05,1
84096000,-0.27528223,-0.010547285,6.88E-05,1
84100000,-0.27550024,-0.012023377,6.88E-05,1
84104000,-0.27566075,-0.013505457,6.88E-05,1
84108000,-0.27582815,-0.014974252,6.88E-05,1
84116000,-0.2761987,-0.004645395,6.88E-05,1
84120000,-0.27639326,-0.006102681,6.88E-05,1
84124000,-0.27658516,-0.007533701,6.88E-05,1
84128000,-0.2767348,-0.008945785,6.88E-05,1
84132000,-0.27687323,-0.01034937,6.88E-05,1
84136000,-0.2770468,-0.011812327,6.88E-05,1
84140000,-0.27722716,0.000105069,6.88E-05,1
84144000,-0.27739435,-0.001360258,6.88E-05,1
84148000,-0.27755147,-0.002791435,6.88E-05,1
84156000,-0.27787232,-0.00562619,6.88E-05,1
84160000,-0.27805418,-0.007064842,6.88E-05,1
84164000,-0.27823973,0.004930622,6.88E-05,1
84168000,-0.27842227,0.003483808,6.88E-05,1
84172000,-0.2785931,0.002044649,6.88E-05,1
84176000,-0.2787287,0.000618033,6.88E-05,1
84180000,-0.27888235,-0.00080472,6.88E-05,1
84184000,-0.27904212,-0.002192084,6.88E-05,1
84188000,-0.27919814,0.009919978,6.88E-05,1
84192000,-0.27935275,0.008519056,6.88E-05,1
84196000,-0.2794866,0.007126572,6.88E-05,1
84200000,-0.27960852,0.005748012,6.88E-05,1
84204000,-0.27975112,0.00439555,6.88E-05,1
84212000,-0.27995393,0.015116427,6.88E-05,1
84216000,-0.28007436,0.013681644,6.88E-05,1
84220000,-0.28022006,0.012316887,6.88E-05,1
84224000,-0.28035104,0.010958413,6.88E-05,1
84228000,-0.28048262,0.009536559,6.88E-05,1
84232000,-0.28063056,0.008122887,6.88E-05,1
84236000,-0.28077096,0.02032001,6.88E-05,1
84240000,-0.2808892,0.01891509,6.88E-05,1
84244000,-0.28103405,0.01754007,6.88E-05,1
84248000,-0.28115562,0.016160373,6.88E-05,1
84252000,-0.28126585,0.014748897,6.88E-05,1
84260000,-0.2815533,0.025620237,6.88E-05,1
84264000,-0.28165808,0.024273535,6.88E-05,1
84268000,-0.28175998,0.022934742,6.88E-05,1
84272000,-0.28183126,0.021623567,6.88E-05,1
84276000,-0.28188872,0.020304047,6.88E-05,1
84284000,-0.28208894,0.031263996,6.88E-05,1
84288000,-0.28218484,0.029922437,6.88E-05,1
84292000,-0.28230494,0.028597401,6.88E-05,1
84296000,-0.28239825,0.027293276,6.88E-05,1
84300000,-0.28250748,0.02599093,6.88E-05,1
84308000,-0.2827661,0.037110258,6.88E-05,1
84312000,-0.2828975,0.035802737,6.88E-05,1
84316000,-0.28303316,0.034459393,6.88E-05,1
84320000,-0.2831642,0.03312056,6.88E-05,1
84324000,-0.2832845,0.031812575,6.88E-05,1
84328000,-0.28339562,0.030506713,6.88E-05,1
84332000,-0.28351468,0.042964254,6.88E-05,1
84340000,-0.28374285,0.040369514,6.88E-05,1
84344000,-0.28383654,0.039089475,6.88E-05,1
84348000,-0.2839261,0.037757993,6.88E-05,1
84352000,-0.28404444,0.03643234,6.88E-05,1
84356000,-0.28417212,0.04896035,6.88E-05,1
84364000,-0.28442106,0.0462689,6.88E-05,1
84368000,-0.2845691,0.044935722,6.88E-05,1
84372000,-0.28468394,0.043587394,6.88E-05,1
84376000,-0.28478938,0.042204704,6.88E-05,1
84380000,-0.2849171,0.054719307,6.88E-05,1
84388000,-0.2851741,0.05208848,6.88E-05,1
84396000,-0.28551564,0.049470216,6.88E-05,1
84400000,-0.2856478,0.048166145,6.88E-05,1
84404000,-0.2857474,0.06079339,6.88E-05,1
84408000,-0.28586307,0.05948892,6.88E-05,1
84412000,-0.28597853,0.058195703,6.88E-05,1
84416000,-0.28606686,0.056879483,6.88E-05,1
84420000,-0.28619307,0.055538163,6.88E-05,1
84424000,-0.28633547,0.05418919,6.88E-05,1
84428000,-0.286453,0.0668597,6.88E-05,1
84432000,-0.28654087,0.0655659,6.88E-05,1
84436000,-0.28664958,0.0642516,6.88E-05,1
84440000,-0.28676724,0.06294173,6.88E-05,1
84444000,-0.28687173,0.061590195,6.88E-05,1
84452000,-0.28716186,0.07291773,6.88E-05,1
84456000,-0.28728262,0.071594514,6.88E-05,1
84460000,-0.28743985,0.070268184,6.88E-05,1
84468000,-0.28771862,0.06758395,6.88E-05,1
84472000,-0.2878714,0.06617882,6.88E-05,1
84476000,-0.28804308,0.07887647,6.88E-05,1
84480000,-0.28820175,0.077520944,6.88E-05,1
84484000,-0.28834862,0.07615559,6.88E-05,1
84488000,-0.28849566,0.07474556,6.88E-05,1
84492000,-0.2886437,0.0733286,6.88E-05,1
84496000,-0.28879404,0.07196802,6.88E-05,1
84500000,-0.28893006,0.08471185,6.88E-05,1
84504000,-0.289056,0.083337925,6.88E-05,1
84508000,-0.28921625,0.08194716,6.88E-05,1
84512000,-0.28937384,0.08058385,6.88E-05,1
84516000,-0.2895188,0.07921864,6.88E-05,1
84520000,-0.28969502,0.077823594,6.88E-05,1
84524000,-0.28984046,0.09060452,6.88E-05,1
84532000,-0.29003322,0.08794059,6.88E-05,1
84536000,-0.29013556,0.086563095,6.88E-05,1
84540000,-0.29028308,0.08514858,6.88E-05,1
84544000,-0.29044184,0.0837339,6.88E-05,1
84548000,-0.29057354,0.09647653,6.88E-05,1
84552000,-0.29072115,0.0950299,6.88E-05,1
84556000,-0.29087636,0.09365097,6.88E-05,1
84560000,-0.29101396,0.0922853,6.88E-05,1
84564000,-0.29115885,0.090857506,6.88E-05,1
84572000,-0.29143247,0.10216528,6.88E-05,1
84576000,-0.29161072,0.100714505,6.88E-05,1
84580000,-0.29173887,0.099243924,6.88E-05,1
84584000,-0.29186216,0.09783211,6.88E-05,1
84588000,-0.29202113,0.09643849,6.88E-05,1
84596000,-0.29226944,0.10782501,6.88E-05,1
84600000,-0.29238465,0.10642218,6.88E-05,1
84604000,-0.29248694,0.104976036,6.88E-05,1
84612000,-0.29274645,0.10202848,6.88E-05,1
84616000,-0.29283494,0.10058952,6.88E-05,1
84620000,-0.29293457,0.113445066,6.88E-05,1
84624000,-0.29304463,0.111968435,6.88E-05,1
84628000,-0.29316124,0.11049616,6.88E-05,1
84636000,-0.29344645,0.10757779,6.88E-05,1
84640000,-0.29351464,0.106115684,6.88E-05,1
84644000,-0.29359904,0.11895572,6.88E-05,1
84648000,-0.2936578,0.117457345,6.88E-05,1
84652000,-0.29373103,0.115961045,6.88E-05,1
84656000,-0.29381835,0.11447515,6.88E-05,1
84660000,-0.2939032,0.11299486,6.88E-05,1
84664000,-0.29403514,0.11150587,6.88E-05,1
84672000,-0.2943015,0.12291879,6.88E-05,1
84676000,-0.2943667,0.12142441,6.88E-05,1
84680000,-0.2944842,0.11990805,6.88E-05,1
84684000,-0.2946218,0.11841287,6.88E-05,1
84688000,-0.29471594,0.116915956,6.88E-05,1
84692000,-0.29482093,0.1298266,6.88E-05,1
84696000,-0.29497728,0.12837785,6.88E-05,1
84700000,-0.29513925,0.12689528,6.88E-05,1
84708000,-0.29535574,0.12390945,6.88E-05,1
84716000,-0.2956046,0.1353408,6.88E-05,1
84724000,-0.2958183,0.13240474,6.88E-05,1
84728000,-0.29589996,0.13093273,6.88E-05,1
84732000,-0.29601318,0.12947877,6.88E-05,1
84736000,-0.2961287,0.1280495,6.88E-05,1
84740000,-0.2962324,0.14103654,6.88E-05,1
84744000,-0.29632637,0.13951531,6.88E-05,1
84748000,-0.29641017,0.13798408,6.88E-05,1
84756000,-0.29651922,0.13495138,6.88E-05,1
84760000,-0.29659545,0.13348188,6.88E-05,1
84764000,-0.29667914,0.14651743,6.88E-05,1
84768000,-0.29678065,0.14499784,6.88E-05,1
84772000,-0.2969024,0.14347234,6.88E-05,1
84776000,-0.2970084,0.14191774,6.88E-05,1
84780000,-0.2970955,0.1403934,6.88E-05,1
84784000,-0.29718888,0.13886704,6.88E-05,1
84788000,-0.29729265,0.15180494,6.88E-05,1
84792000,-0.29738256,0.15026313,6.88E-05,1
84796000,-0.297466,0.14873996,6.88E-05,1
84804000,-0.2976916,0.14565462,6.88E-05,1
84812000,-0.29789636,0.15717277,6.88E-05,1
84816000,-0.29794762,0.15564775,6.88E-05,1
84820000,-0.29802033,0.15414906,6.88E-05,1
84824000,-0.29811436,0.1526634,6.88E-05,1
84828000,-0.29818335,0.15118383,6.88E-05,1
84836000,-0.2983384,0.16281857,6.88E-05,1
84840000,-0.29844987,0.16130836,6.88E-05,1
84844000,-0.29855767,0.15976423,6.88E-05,1
84852000,-0.29877454,0.15669304,6.88E-05,1
84856000,-0.2988722,0.15519275,6.88E-05,1
84860000,-0.2989401,0.16830812,6.88E-05,1
84864000,-0.29903507,0.16680902,6.88E-05,1
84868000,-0.29915988,0.16531147,6.88E-05,1
84872000,-0.29925022,0.16385294,6.88E-05,1
84876000,-0.29932392,0.16240188,6.88E-05,1
84880000,-0.2994189,0.16092171,6.88E-05,1
84884000,-0.2994957,0.17401896,6.88E-05,1
84888000,-0.29957056,0.17246546,6.88E-05,1
84892000,-0.29965112,0.17093012,6.88E-05,1
84896000,-0.29978222,0.16939273,6.88E-05,1
84900000,-0.2999134,0.16783255,6.88E-05,1
84904000,-0.2999984,0.16624662,6.88E-05,1
84908000,-0.30009988,0.17933966,6.88E-05,1
84912000,-0.30021375,0.17776044,6.88E-05,1
84916000,-0.30031788,0.17618302,6.88E-05,1
84924000,-0.30050159,0.1731044,6.88E-05,1
84928000,-0.30060345,0.17151868,6.88E-05,1
84932000,-0.30070505,0.17425993,6.88E-05,1
84936000,-0.3008214,0.17270142,6.88E-05,1
84940000,-0.30094853,0.1711812,6.88E-05,1
84944000,-0.30104762,0.16964638,6.88E-05,1
84948000,-0.30115932,0.1680923,6.88E-05,1
84952000,-0.30131063,0.16653608,6.88E-05,1
84960000,-0.30155692,0.16335207,6.88E-05,1
84964000,-0.30166903,0.16182168,6.88E-05,1
84968000,-0.30182722,0.16033897,6.88E-05,1
84972000,-0.3019631,0.15884244,6.88E-05,1
84976000,-0.30207837,0.15731639,6.88E-05,1
84980000,-0.30220294,0.15579465,6.88E-05,1
84988000,-0.30233684,0.15287834,6.88E-05,1
84992000,-0.30244416,0.15143478,6.88E-05,1
85000000,-0.3026748,0.14851995,6.88E-05,1
85004000,-0.95051503,0.16535076,0.05255677,1
85008000,-0.9506825,0.16395575,0.052841455,1
85012000,-0.9508315,0.1625924,0.05311717,1
85020000,-0.95069474,0.15976143,0.053610694,1
85028000,-0.94958776,0.15687257,0.05393987,1
85032000,-0.9486578,0.15543786,0.054033432,1
85036000,-0.94752103,0.15397683,0.05409292,1
85040000,-0.9461947,0.15245725,0.05412673,1
85048000,-0.9429973,0.14933807,0.05410258,1
85052000,-0.9411657,0.14775737,0.054047648,1
85056000,-0.9391734,0.14621702,0.053953126,1
85060000,-0.93701214,0.14462931,0.05383262,1
85064000,-0.93468255,0.14303175,0.053679273,1
85068000,-0.93226796,0.14147408,0.053499684,1
85072000,-0.9297609,0.1399155,0.05329942,1
85076000,-0.9270995,0.13836646,0.053065028,1
85080000,-0.92431694,0.1367995,0.052807055,1
85084000,-0.92142975,0.13524711,0.05252301,1
85088000,-0.918447,0.13373812,0.05220975,1
85092000,-0.9155001,0.13230787,0.052217342,1
85096000,-0.91235095,0.13080898,0.05185896,1
85100000,-0.90916663,0.12926954,0.05149606,1
85104000,-0.9059407,0.12774564,0.051118396,1
85108000,-0.90262485,0.12624747,0.05071515,1
85112000,-0.8992553,0.12475126,0.050296873,1
85120000,-0.8923624,0.12187544,0.0494001,1
85124000,-0.8888481,0.120394126,0.04893847,1
85128000,-0.88530505,0.118941166,0.048462614,1
85132000,-0.8817213,0.11756539,0.04796349,1
85136000,-0.8780851,0.11621645,0.047446176,1
85140000,-0.87444246,0.11487079,0.04692301,1
85144000,-0.8707762,0.113525175,0.046391062,1
85148000,-0.8670453,0.112210765,0.04583808,1
85152000,-0.86334103,0.11087531,0.04528897,1
85156000,-0.85964537,0.10955483,0.044735406,1
85160000,-0.8559074,0.10826109,0.044165943,1
85164000,-0.8521548,0.107031226,0.04358153,1
85168000,-0.84836614,0.10579762,0.042986576,1
85172000,-0.84458935,0.10451136,0.042396434,1
85180000,-0.8370606,0.10205431,0.04119513,1
85188000,-0.8294912,0.09965148,0.039980106,1
85192000,-0.82567704,0.09851151,0.03934574,1
85196000,-0.8218949,0.09733663,0.038717892,1
85200000,-0.8181287,0.09621072,0.038084287,1
85204000,-0.8143538,0.09513925,0.037439667,1
85208000,-0.81059736,0.09404646,0.03679757,1
85212000,-0.8068535,0.09296543,0.036153324,1
85216000,-0.8030623,0.09193045,0.0354916,1
85220000,-0.7992984,0.090910815,0.034830622,1
85224000,-0.7956029,0.089902684,0.034179155,1
85228000,-0.79187953,0.08886035,0.03352198,1
85236000,-0.7844473,0.08684876,0.0321942,1
85240000,-0.78072506,0.08589111,0.031520106,1
85244000,-0.7770218,0.08495554,0.030845024,1
85248000,-0.7733794,0.08407124,0.03017519,1
85252000,-0.76973987,0.083207496,0.029501598,1
85256000,-0.7661233,0.08232365,0.028831577,1
85260000,-0.76252323,0.08147406,0.02815958,1
85264000,-0.7589029,0.080690004,0.027476016,1
85268000,-0.75528044,0.0799263,0.026788142,1
85272000,-0.7516924,0.07919766,0.026102576,1
85276000,-0.7481568,0.07846004,0.025426187,1
85280000,-0.74462885,0.07770336,0.024750402,1
85284000,-0.74109477,0.07699636,0.024067879,1
85288000,-0.73763895,0.07625922,0.023575876,1
85292000,-0.7341534,0.07551952,0.022895552,1
85300000,-0.72726643,0.07417036,0.021538325,1
85304000,-0.72383,0.073523745,0.020856638,1
85308000,-0.72040963,0.072919376,0.020174153,1
85312000,-0.7170375,0.072303906,0.019500533,1
85316000,-0.71369654,0.071692996,0.018831369,1
85324000,-0.70695716,0.07051708,0.017473502,1
85328000,-0.70363945,0.06992357,0.01680307,1
85336000,-0.69705355,0.068701364,0.015468646,1
85340000,-0.69380474,0.06814077,0.014806055,1
85348000,-0.6873706,0.06698283,0.013490499,1
85356000,-0.68104315,0.06591037,0.01218789,1
85364000,-0.6748771,0.06500585,0.01090846,1
85368000,-0.67183906,0.0645125,0.010277407,1
85372000,-0.6687814,0.06401363,0.00964086,1
85376000,-0.665754,0.06354914,0.009008531,1
85384000,-0.6598046,0.06263629,0.007761864,1
85388000,-0.65689075,0.06213033,0.007156583,1
85396000,-0.651015,0.06107838,0.005918476,1
85400000,-0.6481138,0.060578845,0.005304595,1
85404000,-0.64525265,0.060120463,0.004697355,1
85408000,-0.64240557,0.059654646,0.004091856,1
85412000,-0.63954973,0.05919407,0.003483079,1
85416000,-0.63671595,0.05873244,0.002877702,1
85420000,-0.63391334,0.05828785,0.002277577,1
85428000,-0.62839055,0.05748889,0.001090974,1
85432000,-0.62561816,0.057078253,0.000493565,1
85436000,-0.6228753,0.056651264,-9.87E-05,1
85440000,-0.62014216,0.056204062,-0.0006901,1
85444000,-0.6174033,0.055748504,-0.001284074,1
85452000,-0.61211777,0.05490705,-0.002433983,1
85456000,-0.6094836,0.0545537,-0.003008366,1
85460000,-0.6068646,0.05415153,-0.003580939,1
85464000,-0.6042703,0.053723752,-0.004149539,1
85468000,-0.6016904,0.053306445,-0.004716112,1
85476000,-0.59661144,0.05235004,-0.005836933,1
85484000,-0.5915854,0.051492516,-0.006949912,1
85488000,-0.58905727,0.05107886,-0.00753349,1
85492000,-0.5865317,0.050708223,-0.008096276,1
85496000,-0.5840432,0.05034094,-0.008651889,1
85500000,-0.58155966,0.04995177,-0.009207957,1
85504000,-0.5791062,0.04957982,-0.009758106,1
85508000,-0.5767027,0.04919274,-0.010298648,1
85512000,-0.5743225,0.048784804,-0.010835655,1
85516000,-0.57195777,0.048411857,-0.01136944,1
85520000,-0.5695951,0.04805507,-0.01190332,1
85524000,-0.56724524,0.04764659,-0.01243692,1
85528000,-0.5649282,0.047219675,-0.012964916,1
85536000,-0.5603015,0.04647454,-0.014019107,1
85540000,-0.5580533,0.046099856,-0.014533312,1
85548000,-0.55355525,0.04528892,-0.015567398,1
85552000,-0.55137026,0.044908445,-0.016070794,1
85556000,-0.5492194,0.04453417,-0.016567305,1
85564000,-0.5448398,0.043708347,-0.017583974,1
85568000,-0.54268646,0.04339051,-0.018081695,1
85572000,-0.5405634,0.043067925,-0.018573651,1
85576000,-0.5384442,0.0427482,-0.019065483,1
85580000,-0.5363503,0.04241492,-0.01955308,1
85584000,-0.53424525,0.04203567,-0.020046253,1
85588000,-0.5321443,0.04170393,-0.020568032,1
85592000,-0.53010285,0.04143171,-0.021044131,1
85596000,-0.5280853,0.041138723,-0.021516582,1
85600000,-0.526044,0.040844213,-0.021995269,1
85604000,-0.5240102,0.040557276,-0.022472668,1
85608000,-0.5220329,0.04021344,-0.022940982,1
85612000,-0.5200414,0.03984796,-0.023414599,1
85616000,-0.5180244,0.0395098,-0.023893446,1
85620000,-0.51600295,0.03915837,-0.024374925,1
85624000,-0.5139839,0.038826372,-0.024855658,1
85628000,-0.5120125,0.038459755,-0.025328394,1
85632000,-0.5100698,0.038066067,-0.025797075,1
85636000,-0.50814,0.03775882,-0.026258487,1
85644000,-0.50438887,0.037203614,-0.027155017,1
85648000,-0.50251687,0.036935672,-0.027602907,1
85652000,-0.500649,0.036632404,-0.028052837,1
85656000,-0.49883333,0.03630778,-0.028492853,1
85660000,-0.49700737,0.035984427,-0.028935922,1
85664000,-0.49515793,0.03566629,-0.02938488,1
85668000,-0.49332762,0.035340212,-0.02983072,1
85672000,-0.49149597,0.035053223,-0.030274954,1
85676000,-0.48970774,0.034754038,-0.030710673,1
85684000,-0.48619562,0.0340814,-0.03157472,1
85688000,-0.4844501,0.033782907,-0.03207177,1
85696000,-0.48094785,0.03316854,-0.03293545,1
85700000,-0.883464,0.017718043,-0.034764096,0.3977798
85704000,-0.88173985,0.017455615,-0.035204735,0.3977798
85708000,-0.88003546,0.017209776,-0.035639904,0.3977798
85716000,-0.8763591,0.01676096,-0.03657413,0.3977798
85724000,-0.87064683,0.001131752,-0.03917648,0.42022908
85728000,-0.86822796,0.000917969,-0.03981117,0.42022908
85732000,-0.8655974,0.000688255,-0.04050218,0.42022908
85736000,-0.86278033,0.000407333,-0.041246403,0.42022908
85740000,-0.85977364,0.000151708,-0.04203829,0.42022908
85744000,-0.85659194,-6.58E-05,-0.042873085,0.42022908
85748000,-0.851889,-0.015488464,-0.0454278,0.44142908
85752000,-0.84844536,-0.015774451,-0.046372734,0.44142908
85756000,-0.8448307,-0.016069423,-0.047366098,0.44142908
85760000,-0.84109265,-0.016388614,-0.048396885,0.44142908
85764000,-0.83724666,-0.016787373,-0.049466632,0.44142908
85772000,-0.8335059,-0.032816347,-0.05363689,0.46152133
85780000,-0.8250176,-0.03358179,-0.05609082,0.46152133
85788000,-0.81616074,-0.034467317,-0.0586743,0.46152133
85792000,-0.8113972,-0.034843147,-0.060576312,0.46152133
85796000,-0.8045843,-0.05041808,-0.06410009,0.48124355
85800000,-0.79991,-0.050851543,-0.06553007,0.48124355
85804000,-0.7951612,-0.051276956,-0.06698524,0.48124355
85808000,-0.7903621,-0.051719505,-0.06846155,0.48124355
85812000,-0.7855427,-0.05212185,-0.06994328,0.48124355
85820000,-0.7733151,-0.06798096,-0.075392984,0.49971825
85824000,-0.7683742,-0.068369344,-0.07697024,0.49971825
85828000,-0.763412,-0.06874287,-0.07855661,0.49971825
85832000,-0.7584336,-0.069119565,-0.08015298,0.49971825
85836000,-0.7534521,-0.06950006,-0.08175541,0.49971825
85840000,-0.74842674,-0.06983009,-0.083369024,0.49971825
85844000,-0.7390438,-0.08516523,-0.08770377,0.51691103
85848000,-0.7339852,-0.08546682,-0.089381985,0.51691103
85852000,-0.72889644,-0.085714616,-0.09106645,0.51691103
85856000,-0.7238204,-0.085952766,-0.09274968,0.51691103
85860000,-0.71878934,-0.08624065,-0.09443032,0.51691103
85864000,-0.71378106,-0.08646111,-0.09609754,0.51691103
85868000,-0.7058412,-0.10163911,-0.10077616,0.5328499
85872000,-0.70078623,-0.101793036,-0.10250577,0.5328499
85876000,-0.69573265,-0.10189588,-0.104230635,0.5328499
85880000,-0.69071585,-0.10197311,-0.105942674,0.5328499
85884000,-0.68570334,-0.1020474,-0.10765655,0.5328499
85888000,-0.68007606,-0.10170205,-0.11101712,0.5328499
85892000,-0.67845994,-0.11664826,-0.11603343,0.54890025
85896000,-0.67350066,-0.11657102,-0.11778398,0.54890025
85900000,-0.6685502,-0.116446555,-0.11952618,0.54890025
85908000,-0.6587194,-0.11612895,-0.122981936,0.54890025
85912000,-0.6538333,-0.11589492,-0.124689646,0.54890025
85916000,-0.64583963,-0.13059452,-0.12997535,0.5636052
85920000,-0.6409914,-0.13030353,-0.1317113,0.5636052
85924000,-0.6361481,-0.12997952,-0.13344143,0.5636052
85932000,-0.62660664,-0.12920673,-0.13682984,0.5636052
85940000,-0.61233693,-0.14306629,-0.14399284,0.5770331
85944000,-0.60764134,-0.14247976,-0.14567067,0.5770331
85948000,-0.6029796,-0.14188619,-0.14733514,0.5770331
85956000,-0.593807,-0.14061795,-0.15059215,0.5770331
85960000,-0.58929616,-0.13990158,-0.15217535,0.5770331
85964000,-0.5816362,-0.1540095,-0.15786001,0.58923244
85968000,-0.5771913,-0.1531989,-0.15944232,0.58923244
85972000,-0.5727503,-0.15238108,-0.16102156,0.58923244
85976000,-0.56837994,-0.15148374,-0.16255523,0.58923244
85980000,-0.56408495,-0.15054423,-0.16404936,0.58923244
85984000,-0.5598101,-0.14960764,-0.1655356,0.58923244
85988000,-0.55024266,-0.16291922,-0.17331788,0.600225
85992000,-0.54597634,-0.16183804,-0.17482659,0.600225
85996000,-0.54171586,-0.16073872,-0.1763278,0.600225
86004000,-0.53333235,-0.15858784,-0.17928185,0.600225
86012000,-0.5224722,-0.1711006,-0.18669984,0.61124194
86020000,-0.5144293,-0.16864204,-0.18951184,0.61124194
86024000,-0.5104376,-0.16736048,-0.19089028,0.61124194
86028000,-0.50647354,-0.16603327,-0.19224414,0.61124194
86032000,-0.5025793,-0.16469961,-0.19356498,0.61124194
86036000,-0.5026885,-0.17811619,-0.19973609,0.6211226
86040000,-0.4988535,-0.17666698,-0.20103788,0.6211226
86044000,-0.4950457,-0.17522606,-0.20232773,0.6211226
86048000,-0.4912663,-0.17377049,-0.20359927,0.6211226
86052000,-0.4875354,-0.1723154,-0.20484772,0.6211226
86056000,-0.4838726,-0.17084762,-0.206061,0.6211226
86060000,-0.47626776,-0.18408662,-0.21231838,0.6299329
86064000,-0.47272047,-0.18250524,-0.21348324,0.6299329
86068000,-0.46917,-0.18096058,-0.21465668,0.6299329
86072000,-0.4655844,-0.17938098,-0.21583396,0.6299329
86076000,-0.46202004,-0.17771597,-0.21697637,0.6299329
86080000,-0.4585859,-0.17610261,-0.21807182,0.6299329
86084000,-0.45304602,-0.18925297,-0.22445437,0.63774556
86088000,-0.44916803,-0.18711132,-0.2268211,0.63774556
86092000,-0.44578975,-0.18538028,-0.22789466,0.63774556
86096000,-0.4424311,-0.18363452,-0.22895226,0.63774556
86100000,-0.43914488,-0.18190345,-0.22997776,0.63774556
86108000,-0.4289693,-0.19312426,-0.23748145,0.64526296
86116000,-0.42263517,-0.18952881,-0.23943105,0.64526296
86124000,-0.41637716,-0.18592083,-0.2413292,0.64526296
86128000,-0.4132626,-0.18406948,-0.2422533,0.64526296
86132000,-0.40829062,-0.19691557,-0.24887058,0.6518763
86136000,-0.4052168,-0.19507149,-0.24980365,0.6518763
86140000,-0.40217134,-0.19320312,-0.250713,0.6518763
86144000,-0.3992197,-0.19127509,-0.25155678,0.6518763
86148000,-0.39628124,-0.18933335,-0.25238687,0.6518763
86152000,-0.39334905,-0.18739884,-0.2532128,0.6518763
86156000,-0.38702288,-0.19909756,-0.25947,0.65766555
86160000,-0.3841671,-0.19722785,-0.26030037,0.65766555
86164000,-0.38131803,-0.1953438,-0.2611201,0.65766555
86168000,-0.37850827,-0.19344619,-0.2619136,0.65766555
86172000,-0.37571326,-0.19152373,-0.26268917,0.65766555
86180000,-0.37700537,-0.18521786,-0.2631418,0.66268337
86184000,-0.37433976,-0.18328565,-0.26383728,0.66268337
86188000,-0.3711543,-0.18073091,-0.26605257,0.66268337
86192000,-0.36852965,-0.17880815,-0.26673278,0.66268337
86196000,-0.36592513,-0.17687091,-0.26739562,0.66268337
86204000,-0.35783172,-0.17106223,-0.26786733,0.6675922
86208000,-0.35531577,-0.16913691,-0.26847804,0.6675922
86212000,-0.35284358,-0.16721438,-0.26906544,0.6675922
86216000,-0.3503791,-0.16529751,-0.26964793,0.6675922
86220000,-0.34791046,-0.16337314,-0.27022704,0.6675922
86224000,-0.3455013,-0.16145803,-0.27077734,0.6675922
86228000,-0.3420628,-0.15785308,-0.2705594,0.67179453
86232000,-0.33968565,-0.15598783,-0.27110153,0.67179453
86236000,-0.33733207,-0.15412572,-0.27163064,0.67179453
86240000,-0.335061,-0.15221712,-0.2721019,0.67179453
86244000,-0.33281007,-0.15031469,-0.27256262,0.67179453
86252000,-0.32538503,-0.14513125,-0.27287292,0.6753443
86256000,-0.32313022,-0.14323527,-0.2733268,0.6753443
86260000,-0.3209284,-0.14144872,-0.273789,0.6753443
86264000,-0.31874448,-0.13967925,-0.27424577,0.6753443
86268000,-0.31658247,-0.13791734,-0.27469215,0.6753443
86276000,-0.31121266,-0.13313033,-0.27494723,0.67830735
86280000,-0.30916733,-0.13145977,-0.27535948,0.67830735
86284000,-0.30712366,-0.12980033,-0.27577257,0.67830735
86288000,-0.30484745,-0.12780096,-0.276874,0.67830735
86292000,-0.30283225,-0.12613504,-0.27726975,0.67830735
86296000,-0.30080664,-0.124482885,-0.277673,0.67830735
86300000,-0.29601133,-0.12178155,-0.27756357,0.6809825
86308000,-0.29208577,-0.118560866,-0.2783255,0.6809825
86316000,-0.2882872,-0.11539567,-0.2790382,0.6809825
86320000,-0.28638557,-0.11384099,-0.2794026,0.6809825
86324000,-0.283202,-0.11136772,-0.27931327,0.6831418
86328000,-0.28135726,-0.10985878,-0.2796617,0.6831418
86332000,-0.2795419,-0.10839665,-0.28001094,0.6831418
86336000,-0.27774355,-0.10692016,-0.28034538,0.6831418
86340000,-0.2759529,-0.10543862,-0.28067267,0.6831418
86344000,-0.2741681,-0.10402659,-0.2810204,0.6831418
86348000,-0.26929998,-0.1018017,-0.28095633,0.6848504
86356000,-0.26587147,-0.09907196,-0.2816088,0.6848504
86360000,-0.2641695,-0.09771575,-0.28193027,0.6848504
86364000,-0.26247895,-0.0964148,-0.28226492,0.6848504
86368000,-0.26082596,-0.09518832,-0.28260753,0.6848504
86372000,-0.26611966,-0.09325378,-0.2825832,0.68613994
86376000,-0.2644616,-0.09199595,-0.28291357,0.68613994
86380000,-0.26279393,-0.09073484,-0.28324622,0.68613994
86388000,-0.25964737,-0.08832612,-0.2838598,0.68613994
86392000,-0.25771722,-0.0866286,-0.2852133,0.68613994
86396000,-0.25279048,-0.08491419,-0.28524742,0.68738484
86404000,-0.24971037,-0.082684,-0.28589192,0.68738484
86408000,-0.24817677,-0.08156718,-0.28620914,0.68738484
86412000,-0.24665457,-0.08043833,-0.28651547,0.68738484
86416000,-0.24517643,-0.07936,-0.28681877,0.68738484
86420000,-0.2418995,-0.077855386,-0.28689533,0.68825763
86424000,-0.24040164,-0.07681093,-0.28721863,0.68825763
86428000,-0.23889753,-0.07575821,-0.287541,0.68825763
86432000,-0.23745084,-0.07475125,-0.2878524,0.68825763
86436000,-0.23605764,-0.07375385,-0.28814122,0.68825763
86440000,-0.2346361,-0.07276703,-0.28844684,0.68825763
86444000,-0.2295336,-0.071365565,-0.28853744,0.6888186
86448000,-0.228187,-0.07038143,-0.28880647,0.6888186
86452000,-0.22689381,-0.069411926,-0.28905493,0.6888186
86456000,-0.22557926,-0.068470016,-0.28932345,0.6888186
86460000,-0.22426626,-0.06752576,-0.28958976,0.6888186
86464000,-0.22298026,-0.066580765,-0.28984225,0.6888186
86468000,-0.21786273,-0.06528049,-0.2899006,0.6890621
86472000,-0.21661139,-0.06438689,-0.2901547,0.6890621
86476000,-0.21536693,-0.06353554,-0.29042125,0.6890621
86480000,-0.2141392,-0.06263786,-0.29066145,0.6890621
86484000,-0.21290396,-0.06171427,-0.29089463,0.6890621
86492000,-0.20844641,-0.060008354,-0.2905289,0.6888371
86500000,-0.20610759,-0.058418162,-0.2910253,0.6888371
86504000,-0.20490855,-0.057549573,-0.2912583,0.6888371
86508000,-0.20373578,-0.05670269,-0.29148674,0.6888371
86512000,-0.20262384,-0.055921264,-0.29171133,0.6888371
86516000,-0.19725484,-0.05481247,-0.29176205,0.68834245
86520000,-0.19610837,-0.054014176,-0.29199538,0.68834245
86524000,-0.194998,-0.053195477,-0.292203,0.68834245
86528000,-0.19390978,-0.05237031,-0.29239705,0.68834245
86532000,-0.1928064,-0.051564403,-0.29260546,0.68834245
86536000,-0.1917107,-0.050782174,-0.2928192,0.68834245
86540000,-0.18789579,-0.04968808,-0.29286954,0.68765485
86544000,-0.1867936,-0.048959017,-0.2931064,0.68765485
86548000,-0.18572712,-0.048248835,-0.29333338,0.68765485
86552000,-0.18469265,-0.047461227,-0.2935139,0.68765485
86556000,-0.18366426,-0.04669334,-0.2936989,0.68765485
86560000,-0.18261993,-0.04597132,-0.29390955,0.68765485
86564000,-0.17698422,-0.044996828,-0.2939689,0.68677676
86572000,-0.174998,-0.04355233,-0.29433888,0.68677676
86576000,-0.17403975,-0.04282614,-0.2945051,0.68677676
86580000,-0.1731111,-0.042079546,-0.29464865,0.68677676
86584000,-0.17217639,-0.04137723,-0.2948125,0.68677676
86588000,-0.16816756,-0.040255748,-0.29517817,0.6857463
86592000,-0.16724768,-0.03959214,-0.29535028,0.6857463
86596000,-0.16630079,-0.0389383,-0.29553905,0.6857463
86604000,-0.16452369,-0.03758557,-0.29584163,0.6857463
86608000,-0.16365564,-0.036887378,-0.29597378,0.6857463
86612000,-0.15813929,-0.03600104,-0.29598337,0.6846815
86616000,-0.15729862,-0.035237387,-0.29607502,0.6846815
86620000,-0.15646237,-0.03450373,-0.29617634,0.6846815
86624000,-0.15565297,-0.033829726,-0.29628885,0.6846815
86628000,-0.1548353,-0.03317914,-0.29641452,0.6846815
86636000,-0.15034375,-0.03166312,-0.2965008,0.68346447
86640000,-0.14962196,-0.030996583,-0.2965731,0.68346447
86644000,-0.14887553,-0.03031589,-0.29665104,0.68346447
86648000,-0.14812422,-0.029628858,-0.2967285,0.68346447
86652000,-0.14741704,-0.028980277,-0.29680026,0.68346447
86656000,-0.14669755,-0.028334998,-0.296879,0.68346447
86660000,-0.14099915,-0.02754616,-0.29687166,0.682116
86664000,-0.14033088,-0.026916698,-0.2969318,0.682116
86668000,-0.1396507,-0.02629625,-0.29700112,0.682116
86672000,-0.13898683,-0.025669053,-0.29705954,0.682116
86676000,-0.13828912,-0.025018021,-0.297124,0.682116
86680000,-0.13758896,-0.024328656,-0.2971735,0.682116
86684000,-0.13379326,-0.023534007,-0.2971262,0.68068033
86688000,-0.13298842,-0.02265498,-0.29769993,0.68068033
86692000,-0.13234976,-0.022046626,-0.2977534,0.68068033
86696000,-0.13174194,-0.021431707,-0.29778907,0.68068033
86700000,-0.13115728,-0.020825058,-0.29781687,0.68068033
86708000,-0.12475906,-0.019454956,-0.2978408,0.67929965
86716000,-0.123506606,-0.018211745,-0.29792184,0.67929965
86720000,-0.122916,-0.01759845,-0.29794836,0.67929965
86724000,-0.122329906,-0.016979799,-0.29797032,0.67929965
86728000,-0.12175639,-0.01634042,-0.29797727,0.67929965
86732000,-0.1178255,-0.015575416,-0.2979218,0.6778534
86740000,-0.11668284,-0.0143843,-0.29796898,0.6778534
86748000,-0.115590036,-0.013204575,-0.2979962,0.6778534
86752000,-0.11505604,-0.012637749,-0.2980132,0.6778534
86756000,-0.10911332,-0.011980385,-0.29798326,0.67634183
86760000,-0.108609684,-0.011373118,-0.29796818,0.67634183
86764000,-0.108109646,-0.010759071,-0.2979483,0.67634183
86768000,-0.1075871,-0.010161564,-0.29794598,0.67634183
86772000,-0.107097276,-0.009542927,-0.2979188,0.67634183
86776000,-0.106618635,-0.008930087,-0.29788858,0.67634183
86780000,-0.10265106,-0.008280575,-0.29781756,0.67476815
86784000,-0.10221263,-0.007705301,-0.29778352,0.67476815
86788000,-0.10164359,-0.006922767,-0.2980677,0.67476815
86792000,-0.10119465,-0.006343186,-0.2980367,0.67476815
86796000,-0.10074792,-0.005807176,-0.29802293,0.67476815
86800000,-0.10029799,-0.005239278,-0.29799697,0.67476815
86804000,-0.094488636,-0.004595265,-0.29792807,0.67323637
86808000,-0.094044104,-0.00398609,-0.2978815,0.67323637
86812000,-0.09359506,-0.003372967,-0.29783517,0.67323637
86820000,-0.09272436,-0.002227932,-0.2977634,0.67323637
86824000,-0.09226134,-0.001670003,-0.2977467,0.67323637
86828000,-0.088377945,-0.001094863,-0.29768658,0.67167366
86832000,-0.08798398,-0.000547424,-0.29764092,0.67167366
86836000,-0.08760818,-1.36E-05,-0.2975922,0.67167366
86840000,-0.08723953,0.000574455,-0.2975167,0.67167366
86844000,-0.08690582,0.001231104,-0.29739496,0.67167366
86848000,-0.086561225,0.001855835,-0.29729185,0.67167366
86852000,-0.08071366,0.002464309,-0.2971963,0.6700602
86860000,-0.080034874,0.003488004,-0.2970809,0.6700602
86868000,-0.079406925,0.004571304,-0.29691505,0.6700602
86872000,-0.07907704,0.005136251,-0.2968294,0.6700602
86876000,-0.07505597,0.005758807,-0.29669613,0.66842717
86880000,-0.07479773,0.006269947,-0.29659915,0.66842717
86884000,-0.074543454,0.006748855,-0.29651403,0.66842717
86888000,-0.07445807,0.006930396,-0.29590604,0.66842717
86892000,-0.07422163,0.007408358,-0.2958122,0.66842717
86896000,-0.07395198,0.007879384,-0.29573706,0.66842717
86900000,-0.06786235,0.008466497,-0.2956147,0.6666125
86904000,-0.06760446,0.008939616,-0.29553276,0.6666125
86908000,-0.06734383,0.009426244,-0.2954461,0.6666125
86916000,-0.06681897,0.01039014,-0.29527825,0.6666125
86920000,-0.06653379,0.010905176,-0.29519063,0.6666125
86924000,-0.062456667,0.011518613,-0.29503077,0.66479623
86928000,-0.062231652,0.012004621,-0.29492685,0.66479623
86932000,-0.061991498,0.012466587,-0.2948404,0.66479623
86936000,-0.06174106,0.012910269,-0.29476663,0.66479623
86940000,-0.061527975,0.013385743,-0.2946612,0.66479623
86944000,-0.061351217,0.013851084,-0.2945429,0.66479623
86948000,-0.055182286,0.014378749,-0.29439092,0.6629861
86952000,-0.054995283,0.014800474,-0.2942962,0.6629861
86956000,-0.054798044,0.0151641,-0.29423147,0.6629861
86964000,-0.054478288,0.015854523,-0.29408252,0.6629861
86968000,-0.05436083,0.016231634,-0.29397392,0.6629861
86972000,-0.050146714,0.016738877,-0.29379562,0.6611621
86976000,-0.049977757,0.017126895,-0.29370654,0.6611621
86980000,-0.049807645,0.017474785,-0.29363537,0.6611621
86984000,-0.049657494,0.017876796,-0.29353112,0.6611621
86988000,-0.049448594,0.018350855,-0.29357558,0.6611621
86992000,-0.049284108,0.018729523,-0.2934882,0.6611621
86996000,-0.043074176,0.019194692,-0.293325,0.6593969
87000000,-0.042972878,0.019602478,-0.2931949,0.6593969
87004000,-0.042844318,0.020003952,-0.29308027,0.6593969
87008000,-0.042715453,0.020362385,-0.29298463,0.6593969
87012000,-0.042591363,0.020749256,-0.29287416,0.6593969
87016000,-0.04248265,0.02114547,-0.29275233,0.6593969
87020000,-0.03840117,0.021577902,-0.2925853,0.6576076
87028000,-0.038282767,0.02218417,-0.29237598,0.6576076
87032000,-0.03820332,0.02246394,-0.29229105,0.6576076
87036000,-0.0381198,0.02277834,-0.29219285,0.6576076
87040000,-0.038044512,0.02310776,-0.2920841,0.6576076
87044000,-0.031883188,0.023528911,-0.29189962,0.65584797
87048000,-0.0318558,0.023867495,-0.2917642,0.65584797
87052000,-0.03178131,0.0241891,-0.2916584,0.65584797
87056000,-0.031729147,0.02446834,-0.2915606,0.65584797
87060000,-0.03168167,0.024750412,-0.29145932,0.65584797
87064000,-0.031635627,0.025066532,-0.29134244,0.65584797
87068000,-0.027525216,0.025426075,-0.2911814,0.6540862
87072000,-0.027527861,0.025693305,-0.29106292,0.6540862
87076000,-0.027530856,0.025960855,-0.29094413,0.6540862
87080000,-0.027548611,0.026242174,-0.29081237,0.6540862
87084000,-0.02757503,0.026521914,-0.2906772,0.6540862
87088000,-0.027304664,0.027304187,-0.2913993,0.6540862
87092000,-0.021089718,0.027603276,-0.2912593,0.65257686
87096000,-0.021105766,0.027865924,-0.29113665,0.65257686
87100000,-0.021147683,0.028094783,-0.29101658,0.65257686
87108000,-0.021230437,0.028534368,-0.2907849,0.65257686
87116000,-0.017157435,0.028937161,-0.29053396,0.651075
87120000,-0.017262243,0.029108338,-0.2904096,0.651075
87124000,-0.01732178,0.029321447,-0.29028815,0.651075
87132000,-0.017484538,0.029711075,-0.29004082,0.651075
87136000,-0.017620735,0.029924393,-0.2898833,0.651075
87140000,-0.011277482,0.030144155,-0.28971654,0.64956933
87148000,-0.011504583,0.030512616,-0.28944832,0.64956933
87152000,-0.011609681,0.030685298,-0.28932324,0.64956933
87156000,-0.011746027,0.030877404,-0.28917506,0.64956933
87160000,-0.01188951,0.03104937,-0.28903237,0.64956933
87164000,0.0029983,0.031218283,-0.28889126,0.6480777
87168000,0.002864219,0.03133914,-0.2887754,0.6480777
87172000,0.0027202,0.031524748,-0.28862652,0.6480777
87176000,0.002576664,0.031727277,-0.28847045,0.6480777
87180000,0.002420515,0.03187552,-0.28833237,0.6480777
87184000,0.002276562,0.032045513,-0.28819042,0.6480777
87188000,0.008998178,0.032875985,-0.28903964,0.6466105
87192000,0.008781247,0.033014365,-0.2888773,0.6466105
87196000,0.008555941,0.03313387,-0.28871936,0.6466105
87200000,0.008320861,0.033266023,-0.28855136,0.6466105
87204000,0.008066736,0.03337036,-0.28838664,0.6466105
87208000,0.007823788,0.03345613,-0.28823534,0.6466105
87212000,0.011904359,0.033519335,-0.28810093,0.64540917
87216000,0.011641335,0.03361945,-0.28793404,0.64540917
87220000,0.011393204,0.033716448,-0.28777552,0.64540917
87224000,0.01113062,0.033789553,-0.28762066,0.64540917
87228000,0.010827705,0.033829853,-0.2874614,0.64540917
87232000,0.010529265,0.033853523,-0.28731143,0.64540917
87236000,0.01676941,0.033861347,-0.28718695,0.6441919
87240000,0.016511504,0.033914812,-0.28704306,0.6441919
87244000,0.016255021,0.033981442,-0.2868941,0.6441919
87252000,0.015638214,0.03413131,-0.2865407,0.6441919
87260000,0.019290209,0.0341959,-0.2861985,0.6429594
87268000,0.018671364,0.03424059,-0.28589037,0.6429594
87276000,0.017980326,0.034250878,-0.28556377,0.6429594
87284000,0.023994744,0.034314044,-0.28523335,0.6417284
87288000,0.023454372,0.03402438,-0.28449938,0.6417284
87292000,0.023092981,0.0340902,-0.2843028,0.6417284
87296000,0.022773921,0.034124404,-0.2841397,0.6417284
87300000,0.022405192,0.034117922,-0.28397125,0.6417284
87304000,0.021995325,0.03415986,-0.28376272,0.6417284
87308000,0.025936328,0.034211278,-0.2835445,0.6403533
87316000,0.025168825,0.034202754,-0.2831923,0.6403533
87320000,0.024810955,0.0342232,-0.28301746,0.6403533
87324000,0.024421457,0.03424128,-0.28282917,0.6403533
87328000,0.024022665,0.03423263,-0.28264815,0.6403533
87336000,0.041158646,0.034265682,-0.2822404,0.63899994
87340000,0.040741835,0.03424205,-0.2820578,0.63899994
87348000,0.039990902,0.034197897,-0.28172967,0.63899994
87356000,0.043789208,0.034188762,-0.28139764,0.6376603
87364000,0.042915218,0.034181572,-0.2809972,0.6376603
87368000,0.04245553,0.034173444,-0.2807886,0.6376603
87372000,0.041988246,0.034174785,-0.2805724,0.6376603
87380000,0.04787633,0.034195475,-0.2801286,0.6363347
87384000,0.047368996,0.034171194,-0.27990538,0.6363347
87388000,0.04690425,0.03414136,-0.2797327,0.6363347
87396000,0.04589513,0.034025356,-0.27931827,0.6363347
87400000,0.045377463,0.03397782,-0.2791007,0.6363347
87404000,0.049276426,0.03400413,-0.27885994,0.63502467
87412000,0.048221014,0.034041412,-0.27835917,0.63502467
87416000,0.04771349,0.034003064,-0.2781427,0.63502467
87420000,0.047197822,0.03392583,-0.27793926,0.63502467
87428000,0.052863844,0.03396494,-0.2774491,0.633707
87432000,0.052347276,0.03394156,-0.27722248,0.633707
87436000,0.05181124,0.03391663,-0.27698767,0.633707
87440000,0.051288225,0.03390918,-0.27675146,0.633707
87444000,0.050765395,0.033865884,-0.27653086,0.633707
87452000,0.05646485,0.03384252,-0.276047,0.6324205
87456000,0.05592577,0.033821747,-0.27580965,0.6324205
87460000,0.055394664,0.033823416,-0.27556637,0.6324205
87464000,0.054841664,0.03383884,-0.27530748,0.6324205
87468000,0.054265503,0.033805177,-0.275059,0.6324205
87472000,0.053658064,0.03371892,-0.27481887,0.6324205
87476000,0.06920411,0.033295743,-0.27385655,0.63115036
87480000,0.068640806,0.033369772,-0.2737829,0.63115036
87484000,0.06803643,0.033397637,-0.2737286,0.63115036
87488000,0.06783678,0.034102425,-0.27486616,0.63115036
87492000,0.06729456,0.03412527,-0.27471626,0.63115036
87500000,0.07212252,0.03293349,-0.27224874,0.63024276
87504000,0.07156192,0.03296773,-0.27219474,0.63024276
87508000,0.07101135,0.0330334,-0.27212656,0.63024276
87512000,0.07042542,0.033128835,-0.27204204,0.63024276
87516000,0.06982404,0.03320606,-0.2719652,0.63024276
87520000,0.06922012,0.033284865,-0.2718876,0.63024276
87524000,0.07246216,0.03247533,-0.2702657,0.6293287
87532000,0.0712831,0.03259377,-0.27013117,0.6293287
87536000,0.07071023,0.032628886,-0.2700766,0.6293287
87540000,0.07012308,0.032678142,-0.27001455,0.6293287
87548000,0.074788034,0.031453528,-0.2674729,0.6284064
87552000,0.074106954,0.031486444,-0.2674123,0.6284064
87556000,0.07346958,0.03150837,-0.26735994,0.6284064
87564000,0.072176225,0.031667665,-0.2672001,0.6284064
87568000,0.07156704,0.03172899,-0.26713145,0.6284064
87572000,0.07469594,0.030900568,-0.26560268,0.62746894
87576000,0.07406339,0.030923389,-0.2655506,0.62746894
87580000,0.07342314,0.030988254,-0.26547846,0.62746894
87584000,0.072790295,0.03105726,-0.2654049,0.62746894
87588000,0.07222959,0.03123656,-0.26556796,0.62746894
87592000,0.07160126,0.03128221,-0.26550594,0.62746894
87596000,0.08807482,0.027522974,-0.25865048,0.6266223
87600000,0.0874428,0.027595967,-0.25857493,0.6266223
87604000,0.08681211,0.027640611,-0.25851285,0.6266223
87612000,0.08545937,0.02776561,-0.25836647,0.6266223
87620000,0.08758433,0.026988417,-0.25685927,0.62575907
87624000,0.08686521,0.027037263,-0.25678995,0.62575907
87628000,0.0861534,0.027097315,-0.25671604,0.62575907
87632000,0.085476965,0.027182117,-0.25663307,0.62575907
87636000,0.084803924,0.02727963,-0.25654453,0.62575907
87640000,0.08408061,0.027293839,-0.25649157,0.62575907
87644000,0.089081995,0.026025966,-0.25420144,0.624868
87648000,0.08836259,0.0260652,-0.25413713,0.624868
87652000,0.08763253,0.026122093,-0.25406405,0.624868
87656000,0.08687116,0.02615016,-0.2540024,0.624868
87660000,0.08612464,0.026169926,-0.25394574,0.624868
87664000,0.085387796,0.026180327,-0.2538941,0.624868
87668000,0.08806797,0.02548632,-0.25247234,0.6239769
87672000,0.08730148,0.025509894,-0.25241286,0.6239769
87676000,0.08655248,0.025492378,-0.25237343,0.6239769
87680000,0.08580704,0.0255047,-0.25232065,0.6239769
87684000,0.0850276,0.025519997,-0.2522644,0.6239769
87688000,0.08439206,0.025768682,-0.2526613,0.6239769
87692000,0.10087843,0.022106834,-0.24588871,0.62321234
87696000,0.10011217,0.022151604,-0.24581952,0.62321234
87700000,0.099353746,0.02220264,-0.24574807,0.62321234
87708000,0.09782105,0.022209764,-0.24564804,0.62321234
87712000,0.09705366,0.022232682,-0.24558926,0.62321234
87716000,0.09962083,0.021512687,-0.24426028,0.6224516
87720000,0.09886682,0.02155567,-0.24419329,0.6224516
87724000,0.09810984,0.02159559,-0.2441276,0.6224516
87728000,0.09737054,0.021626428,-0.24406736,0.6224516
87732000,0.096633464,0.021651983,-0.24400973,0.6224516
87736000,0.09587948,0.02166278,-0.24395783,0.6224516
87740000,0.10080175,0.020494938,-0.24170905,0.6216862
87744000,0.10004083,0.020534538,-0.24164368,0.6216862
87748000,0.09926791,0.020577446,-0.24157621,0.6216862
87752000,0.09847928,0.020600237,-0.24151699,0.6216862
87756000,0.09768641,0.020633668,-0.24145284,0.6216862
87764000,0.10175446,0.019606829,-0.23912881,0.6209039
87768000,0.10094814,0.019646853,-0.23906109,0.6209039
87772000,0.10015999,0.019670844,-0.23900181,0.6209039
87776000,0.099356264,0.019676857,-0.2389498,0.6209039
87780000,0.09850588,0.019678503,-0.23889698,0.6209039
87784000,0.09764766,0.019669324,-0.23884863,0.6209039
87788000,0.112017065,0.01650776,-0.23281808,0.6200983
87792000,0.111208245,0.016496517,-0.23277336,0.6200983
87796000,0.11033866,0.01649122,-0.23272228,0.6200983
87800000,0.10949518,0.01647681,-0.232677,0.6200983
87804000,0.10865776,0.016443014,-0.2326408,0.6200983
87808000,0.107787214,0.016415857,-0.2325997,0.6200983
87812000,0.11252183,0.01533702,-0.23042579,0.619241
87820000,0.11081961,0.015317336,-0.23033063,0.619241
87824000,0.10998306,0.015312463,-0.23028183,0.619241
87828000,0.109135255,0.015334055,-0.23022075,0.619241
87832000,0.10824841,0.015406668,-0.23013487,0.619241
87836000,0.11032917,0.014892504,-0.22891928,0.6183504
87840000,0.10945171,0.014938787,-0.22884585,0.6183504
87844000,0.10859449,0.014976837,-0.22877747,0.6183504
87848000,0.10771367,0.014972717,-0.22872639,0.6183504
87852000,0.10679336,0.014946751,-0.22868264,0.6183504
87856000,0.10588676,0.01491341,-0.22864304,0.6183504
87860000,0.12260029,0.011532307,-0.22193557,0.6174458
87864000,0.12167838,0.011527099,-0.22188227,0.6174458
87868000,0.12074976,0.011503764,-0.22183664,0.6174458
87872000,0.11985405,0.011462927,-0.22180077,0.6174458
87876000,0.11897443,0.011440486,-0.22175783,0.6174458
87880000,0.118060514,0.011458591,-0.22169524,0.6174458
87884000,0.11991604,0.010968044,-0.22058864,0.6165429
87888000,0.11931476,0.011434972,-0.22153747,0.6165429
87892000,0.11840099,0.01141306,-0.22149265,0.6165429
87896000,0.11746598,0.01135657,-0.22146168,0.6165429
87900000,0.11652165,0.011349611,-0.22140874,0.6165429
87904000,0.115555756,0.011379711,-0.22133863,0.6165429
87908000,0.119784504,0.010355204,-0.21935856,0.61596835
87912000,0.11885892,0.010389142,-0.2192893,0.61596835
87916000,0.11792272,0.010397233,-0.21923062,0.61596835
87920000,0.11698403,0.010391474,-0.2191779,0.61596835
87924000,0.11602906,0.010386281,-0.2191241,0.61596835
87932000,0.119292974,0.009337992,-0.21711333,0.61534876
87936000,0.11831717,0.009288333,-0.21707746,0.61534876
87940000,0.11735323,0.009236872,-0.21704313,0.61534876
87944000,0.11640978,0.009208955,-0.21699998,0.61534876
87948000,0.11545693,0.009191491,-0.2169519,0.61534876
87956000,0.12866464,0.006344169,-0.21118984,0.6147117
87960000,0.12767391,0.006334215,-0.21113615,0.6147117
87964000,0.12667876,0.006339967,-0.21107563,0.6147117
87968000,0.12572654,0.006340355,-0.21102001,0.6147117
87972000,0.124789625,0.006316051,-0.21097587,0.6147117
87976000,0.12381172,0.006324522,-0.2109156,0.6147117
87980000,0.12789413,0.00538034,-0.20897862,0.6140716
87984000,0.12688646,0.00535588,-0.20893058,0.6140716
87988000,0.12600406,0.005517118,-0.20931631,0.6140716
87992000,0.12501174,0.005467303,-0.20928001,0.6140716
87996000,0.12401618,0.005443931,-0.20923245,0.6140716
88000000,0.12300637,0.005449146,-0.20917226,0.6140716
88004000,0.12439974,0.004964009,-0.20823614,0.61354375
88008000,0.12338427,0.004911199,-0.20819992,0.61354375
88012000,0.12237362,0.004836619,-0.2081731,0.61354375
88020000,0.12037481,0.004690357,-0.20811962,0.61354375
88028000,0.13611072,0.001521178,-0.20140721,0.61297303
88036000,0.13412146,0.001560882,-0.20127676,0.61297303
88040000,0.13309751,0.001583323,-0.20120904,0.61297303
88044000,0.13203368,0.001566649,-0.20115533,0.61297303
88048000,0.13100198,0.001518719,-0.20111638,0.61297303
88052000,0.13212818,0.001063846,-0.20030455,0.6123882
88056000,0.13110882,0.001032844,-0.2002594,0.6123882
88060000,0.13011311,0.001018614,-0.20020886,0.6123882
88064000,0.12911585,0.000961781,-0.20017564,0.6123882
88068000,0.12808752,0.0008846,-0.20014907,0.6123882
88072000,0.12706023,0.000828236,-0.20011406,0.6123882
88076000,0.13075139,-3.83E-05,-0.19834043,0.6117844
88080000,0.12974623,-9.66E-05,-0.1983074,0.6117844
88084000,0.12872809,-0.000183702,-0.19828537,0.6117844
88088000,0.12770732,-0.00017684,-0.1983534,0.6117844
88092000,0.12665501,-0.000226557,-0.19831438,0.6117844
88100000,0.14246339,-0.00333783,-0.19165948,0.61120856
88104000,0.14140132,-0.003374286,-0.19161427,0.61120856
88108000,0.14035434,-0.003392436,-0.1915626,0.61120856
88116000,0.13824427,-0.003373332,-0.1914365,0.61120856
88120000,0.13721281,-0.003385067,-0.1913835,0.61120856
88124000,0.13803595,-0.003755011,-0.19066617,0.6105948
88128000,0.13697886,-0.003825806,-0.19063534,0.6105948
88132000,0.1358957,-0.003875807,-0.19059482,0.6105948
88136000,0.1348012,-0.003913619,-0.19054891,0.6105948
88140000,0.13372838,-0.003952213,-0.19050461,0.6105948
88144000,0.1326614,-0.003954694,-0.19044645,0.6105948
88148000,0.1361987,-0.004698254,-0.18869476,0.60997355
88152000,0.1350889,-0.004727289,-0.1886448,0.60997355
88156000,0.1339833,-0.004761532,-0.18859725,0.60997355
88160000,0.13292097,-0.004803717,-0.1885552,0.60997355
88164000,0.13184847,-0.004835822,-0.18850876,0.60997355
88168000,0.1307578,-0.004847519,-0.18845345,0.60997355
88172000,0.14479446,-0.00734736,-0.18290633,0.60932696
88176000,0.14372298,-0.007377282,-0.1828589,0.60932696
88180000,0.14263028,-0.007371604,-0.18279655,0.60932696
88184000,0.14151993,-0.007410534,-0.18275067,0.60932696
88188000,0.14051309,-0.007321656,-0.18309775,0.60932696
88192000,0.13940643,-0.007399872,-0.18306744,0.60932696
88196000,0.14274605,-0.008162513,-0.18140693,0.60881907
88200000,0.14163026,-0.008145131,-0.1813392,0.60881907
88204000,0.14052932,-0.008117288,-0.18126841,0.60881907
88208000,0.13945284,-0.008124918,-0.18121278,0.60881907
88212000,0.13836437,-0.008131512,-0.18115617,0.60881907
88220000,0.1540003,-0.011033576,-0.17459993,0.60827273
88224000,0.15289898,-0.011041939,-0.17454311,0.60827273
88228000,0.15178287,-0.011055157,-0.17448741,0.60827273
88232000,0.15066402,-0.0110729,-0.17443343,0.60827273
88240000,0.14837785,-0.011155382,-0.17434098,0.60827273
88244000,0.14850616,-0.011354826,-0.17380896,0.607689
88252000,0.1461916,-0.011383586,-0.1736952,0.607689
88256000,0.14501494,-0.011439901,-0.17365319,0.607689
88260000,0.14384845,-0.011459757,-0.17359811,0.607689
88264000,0.14270975,-0.011490095,-0.17354853,0.607689
88268000,0.1454702,-0.012115698,-0.1720925,0.60705674
88272000,0.14431012,-0.01212766,-0.17203501,0.60705674
