timestamp,roll_body,pitch_body,yaw_body,yaw_sp_move_rate,q_d[0],q_d[1],q_d[2],q_d[3],thrust_body[0]
82792000,0,-0.30316722,1.6126659,0,0.6842131,0.10898756,-0.10451724,0.7134777,1
82816000,0,-0.29073837,1.6126659,0,0.6848494,0.104551636,-0.10026325,0.7141412,1
82840000,0,-0.27891925,1.6126659,0,0.6854299,0.10032956,-0.09621436,0.71474653,1
82864000,0,-0.26761788,1.6126659,0,0.6859626,0.09628918,-0.0923397,0.71530205,1
82888000,0,-0.25687128,1.6126659,0,0.68644893,0.09244428,-0.08865251,0.71580917,1
82912000,0,-0.24659577,1.6126659,0,0.6868953,0.08876542,-0.085124545,0.7162747,1
82936000,0,-0.23672305,1.6126659,0,0.6873071,0.08522856,-0.08173276,0.7167041,1
82960000,0,-0.22719648,1.6126659,0,0.68768865,0.081813745,-0.078458,0.71710193,1
82984000,0,-0.21796861,1.6126659,0,0.68804336,0.07850422,-0.07528423,0.7174718,1
83008000,0,-0.20904723,1.6126659,0,0.6883723,0.07530303,-0.07221434,0.7178148,1
83032000,0,-0.20039092,1.6126659,0,0.68867844,0.07219552,-0.06923429,0.71813405,1
83056000,0,-0.1919644,1.6126659,0,0.688964,0.06916921,-0.06633211,0.71843183,1
83080000,0,-0.18373732,1.6126659,0,0.68923104,0.06621333,-0.06349747,0.7187103,1
83104000,0,-0.1757143,1.6126659,0,0.68948025,0.0633297,-0.06073211,0.7189701,1
83128000,0,-0.16786858,1.6126659,0,0.6897132,0.060508795,-0.058026914,0.719213,1
83152000,0,-0.16017696,1.6126659,0,0.6899312,0.0577424,-0.055373985,0.7194404,1
83176000,0,-0.15261908,1.6126659,0,0.69013554,0.05502327,-0.05276639,0.7196535,1
83200000,0,-0.14519621,1.6126659,0,0.69032663,0.05235195,-0.05020464,0.71985275,1
83224000,0,-0.13789074,1.6126659,0,0.69050545,0.04972218,-0.047682732,0.7200392,1
83248000,0,-0.1306867,1.6126659,0,0.6906727,0.047128264,-0.045195207,0.7202136,1
83272000,0,-0.12357024,1.6126659,0,0.69082916,0.044565286,-0.042737357,0.72037673,1
83296000,0,-0.11654149,1.6126659,0,0.69097507,0.04203334,-0.040309265,0.7205289,1
83320000,0,-0.109588444,1.6126659,0,0.691111,0.039528158,-0.037906837,0.72067064,1
83344000,0,-0.10270032,1.6126659,0,0.69123745,0.037045892,-0.035526387,0.7208025,1
83368000,0,-0.095867425,1.6126659,0,0.6913548,0.034583095,-0.033164605,0.7209249,1
83392000,0,-0.08909059,1.6126659,0,0.69146323,0.03214011,-0.030821824,0.7210379,1
83416000,0,-0.082361214,1.6126659,0,0.691563,0.029713864,-0.028495094,0.721142,1
83440000,0,-0.07567142,1.6126659,0,0.69165444,0.027301555,-0.026181731,0.72123736,1
83464000,0,-0.069014,1.6126659,0,0.6917378,0.024900619,-0.023879275,0.7213242,1
83488000,0,-0.062391005,1.6126659,0,0.69181305,0.022511825,-0.02158846,0.7214027,1
83512000,0,-0.05579596,1.6126659,0,0.6918805,0.020132864,-0.019307077,0.72147304,1
83536000,0,-0.049222887,1.6126659,0,0.6919402,0.017761612,-0.017033085,0.7215353,1
83560000,0,-0.04266633,1.6126659,0,0.6919923,0.015396128,-0.014764627,0.7215896,1
83584000,0,-0.03612127,1.6126659,0,0.6920369,0.013034626,-0.012499986,0.7216362,1
83608000,0,-0.029589813,1.6126659,0,0.69207406,0.010677892,-0.010239918,0.7216749,1
83632000,0,-0.023067448,1.6126659,0,0.6921038,0.008324325,-0.007982888,0.7217059,1
83656000,0,-0.016550073,1.6126659,0,0.69212615,0.005972472,-0.0057275,0.7217292,1
83680000,0,-0.010033917,1.6126659,0,0.6921411,0.003620994,-0.003472472,0.72174484,1
83704000,0,-0.003516605,1.6126659,0,0.69214875,0.001269061,-0.001217008,0.72175276,1
83728000,0,0.003005073,1.6126659,0,0.69214904,-0.001084461,0.00103998,0.72175306,1
83752000,0,0.009534027,1.6126659,0,0.69214195,-0.003440598,0.003299475,0.72174567,1
83776000,0,0.016072927,1.6126659,0,0.69212747,-0.005800286,0.005562377,0.7217306,1
83800000,0,0.022620905,1.6126659,0,0.69210553,-0.00816319,0.00782836,0.72170776,1
83824000,0,0.029180266,1.6126659,0,0.69207615,-0.010530111,0.010098199,0.72167706,1
83848000,0,0.03575312,1.6126659,0,0.6920392,-0.01290179,0.012372599,0.72163856,1
83872000,0,0.042341366,1.6126659,0,0.6919947,-0.015278881,0.01465219,0.7215921,1
83896000,0,0.048945084,1.6126659,0,0.6919426,-0.01766139,0.016936975,0.72153777,1
83920000,0,0.055565853,1.6126659,0,0.69188267,-0.020049855,0.019227473,0.72147536,1
83944000,0,0.062205095,1.6126659,0,0.6918151,-0.022444766,0.021524152,0.72140485,1
83968000,0,0.06886408,1.6126659,0,0.69173956,-0.024846548,0.02382742,0.7213261,1
83992000,0,0.075544946,1.6126659,0,0.6916561,-0.027255947,0.026137993,0.7212391,1
84016000,0,0.08224865,1.6126659,0,0.6915646,-0.029673276,0.028456172,0.72114366,1
84040000,0,0.08897599,1.6126659,0,0.69146496,-0.032098792,0.0307822,0.7210398,1
84064000,0,0.09572765,1.6126659,0,0.69135714,-0.034532715,0.033116292,0.7209273,1
84088000,0,0.10250388,1.6126659,0,0.69124097,-0.036975097,0.035458494,0.7208062,1
84112000,0,0.10930512,1.6126659,0,0.6911164,-0.039426066,0.037808932,0.72067624,1
84136000,0,0.11613169,1.6126659,0,0.6909833,-0.041885704,0.040167686,0.7205375,1
84160000,0,0.122983806,1.6126659,0,0.6908417,-0.044354055,0.04253479,0.7203898,1
84184000,0,0.12986158,1.6126659,0,0.6906913,-0.046831127,0.044910263,0.72023296,1
84208000,0,0.13676551,1.6126659,0,0.6905321,-0.049317066,0.047294233,0.720067,1
84232000,0,0.14369555,1.6126659,0,0.6903641,-0.05181181,0.04968665,0.71989185,1
84256000,0,0.15065151,1.6126659,0,0.69018716,-0.05431526,0.05208742,0.71970725,1
84280000,0,0.15763316,1.6126659,0,0.6900011,-0.056827296,0.05449642,0.71951324,1
84304000,0,0.16464189,1.6126659,0,0.6898059,-0.05934838,0.056914095,0.71930975,1
84328000,0,0.17167728,1.6126659,0,0.6896014,-0.061878316,0.059340265,0.7190965,1
84352000,0,0.17873882,1.6126659,0,0.6893876,-0.064416885,0.061774712,0.71887356,1
84376000,0,0.18582596,1.6126659,0,0.6891644,-0.06696386,0.06421721,0.71864074,1
84400000,0,0.1929364,1.6126659,0,0.6889317,-0.06951836,0.06666693,0.71839815,1
84424000,0,0.20006953,1.6126659,0,0.6886896,-0.07208012,0.069123626,0.71814567,1
84448000,0,0.20722465,1.6126659,0,0.6884379,-0.074648865,0.071587004,0.71788317,1
84472000,0,0.21440107,1.6126659,0,0.6881766,-0.0772243,0.0740568,0.7176107,1
84496000,0,0.22159952,1.6126659,0,0.68790555,-0.07980663,0.07653321,0.7173281,1
84520000,0,0.2288192,1.6126659,0,0.6876248,-0.082395546,0.07901594,0.71703535,1
84544000,0,0.2360593,1.6126659,0,0.68733424,-0.0849907,0.08150465,0.7167324,1
84568000,0,0.24331892,1.6126659,0,0.6870339,-0.08759174,0.083999,0.7164191,1
84592000,0,0.25059924,1.6126659,0,0.68672353,-0.09019903,0.086499356,0.7160955,1
84616000,0,0.25789928,1.6126659,0,0.6864032,-0.092812195,0.08900533,0.71576154,1
84640000,0,0.2652181,1.6126659,0,0.68607295,-0.09543083,0.091516554,0.7154171,1
84664000,0,0.27255473,1.6126659,0,0.6857326,-0.09805456,0.09403267,0.71506226,1
84688000,0,0.2799113,1.6126659,0,0.68538207,-0.10068409,0.09655435,0.7146967,1
84712000,0,0.2872868,1.6126659,0,0.6850214,-0.10331902,0.099081196,0.7143206,1
84736000,0,0.2946801,1.6126659,0,0.6846504,-0.1059589,0.1016128,0.71393377,1
84760000,0,0.30209017,1.6126659,0,0.68426925,-0.10860332,0.10414875,0.71353626,1
84784000,0,0.30951592,1.6126659,0,0.6838778,-0.11125184,0.10668864,0.7131281,1
84808000,0,0.3169572,1.6126659,0,0.68347615,-0.11390435,0.10923235,0.71270925,1
84832000,0,0.3244129,1.6126659,0,0.6830642,-0.11656043,0.11177949,0.7122797,1
84856000,0,0.33188197,1.6126659,0,0.682642,-0.11921964,0.11432963,0.7118394,1
84880000,0,0.33936334,1.6126659,0,0.68220955,-0.121881574,0.11688237,0.71138847,1
84904000,0,0.3468573,1.6126659,0,0.6817668,-0.12454627,0.11943777,0.7109268,1
84928000,0,0.34906584,1.6126659,0,0.6816345,-0.12533125,0.12019055,0.7107888,1
84952000,0,0.34906584,1.6126659,0,0.6816345,-0.12533125,0.12019055,0.7107888,1
84976000,0,0.34906584,1.6126659,0,0.6816345,-0.12533125,0.12019055,0.7107888,1
85000000,-0.43633232,0.34906584,1.3138463,0,0.738407,-0.27231964,0.004080162,0.616912,1
85024000,-0.43633232,0.34906584,1.3112258,0,0.7392147,-0.27231407,0.00443697,0.61594397,1
85048000,-0.43633232,0.34906584,1.309907,0,0.7396207,-0.2723111,0.004616559,0.6154564,1
85072000,-0.43633232,0.34906584,1.3007405,0,0.7424337,-0.27228707,0.005864561,0.61206007,1
85096000,-0.43633232,0.34906584,1.2980735,0,0.74324924,-0.272279,0.006227657,0.61106944,1
85120000,-0.43633232,0.34906584,1.2967161,0,0.7436638,-0.2722747,0.006412447,0.6105649,1
85144000,-0.43633232,0.34906584,1.2940292,0,0.7444834,-0.27226585,0.00677821,0.6095653,1
85168000,-0.43633232,0.34906584,1.2860768,0,0.7469012,-0.27223673,0.00786075,0.6066003,1
85192000,-0.43633232,0.34906584,1.2833602,0,0.7477245,-0.2722258,0.008230507,0.6055852,1
85216000,-0.43633232,0.34906584,1.2806365,0,0.7485485,-0.27221435,0.008601233,0.60456634,1
85240000,-0.43633232,0.34906584,1.2792419,0,0.74897,-0.27220827,0.008791059,0.6040442,1
85264000,-0.43633232,0.34906584,1.2698733,0,0.75179124,-0.2721641,0.010066062,0.6005292,1
85288000,-0.43633232,0.34906584,1.2684618,0,0.75221485,-0.27215695,0.010258138,0.5999985,1
85312000,-0.43633232,0.34906584,1.2657098,0,0.7530397,-0.2721426,0.010632619,0.5989629,1
85336000,-0.43633232,0.34906584,1.2642951,0,0.7534632,-0.272135,0.010825112,0.59843004,1
85360000,-0.43633232,0.34906584,1.2548566,0,0.75627893,-0.27208084,0.01210925,0.59486765,1
85384000,-0.43633232,0.34906584,1.2520932,0,0.75710016,-0.27206388,0.012485176,0.5938221,1
85408000,-0.43633232,0.34906584,1.2506763,0,0.7575207,-0.27205494,0.012677915,0.59328556,1
85432000,-0.43633232,0.34906584,1.2479062,0,0.75834167,-0.27203715,0.013054721,0.5922358,1
85456000,-0.43633232,0.34906584,1.2397739,0,0.7607435,-0.2719818,0.014160767,0.5891473,1
85480000,-0.43633232,0.34906584,1.236991,0,0.7615625,-0.27196184,0.014539182,0.5880883,1
85504000,-0.43633232,0.34906584,1.2355634,0,0.7619821,-0.27195138,0.014733307,0.5875445,1
85528000,-0.43633232,0.34906584,1.2327709,0,0.7628017,-0.27193058,0.015112989,0.5864801,1
85552000,-0.43633232,0.34906584,1.2299805,0,0.7636193,-0.2719092,0.015492395,0.58541524,1
85576000,-0.43633232,0.34906584,1.2218022,0,0.76600677,-0.2718436,0.01660414,0.5822878,1
85600000,-0.43633232,0.34906584,1.2190083,0,0.7668194,-0.27182013,0.016983882,0.5812171,1
85624000,-0.43633232,0.34906584,1.2175744,0,0.7672359,-0.27180788,0.017178752,0.58066726,1
85648000,-0.43633232,0.34906584,1.214777,0,0.7680473,-0.2717836,0.017558903,0.57959354,1
85672000,-0.43633232,0.34906584,1.2065549,0,0.7704236,-0.2717091,0.01867608,0.57643116,1
85696000,-0.7193099,0.34144306,1.2037446,0,0.7264674,-0.37592486,-0.06529397,0.5715439,0.3977798
85720000,-0.71832126,0.33382216,1.2022684,0,0.7283158,-0.37381026,-0.06776157,0.5702896,0.42022908
85744000,-0.71734995,0.32620215,1.1990716,0,0.7306362,-0.3717596,-0.069916904,0.56839883,0.44142908
85768000,-0.72041076,0.31858188,1.1902281,0,0.7337891,-0.37139213,-0.0721724,0.56428057,0.46152133
85792000,-0.7188756,0.3109546,1.1867803,0,0.7362504,-0.3691547,-0.07414055,0.56228405,0.48124355
85816000,-0.71716666,0.3033197,1.1832976,0,0.738736,-0.36685306,-0.07606464,0.5602698,0.49971825
85840000,-0.7141215,0.2956767,1.181194,0,0.7410619,-0.36400083,-0.07787843,0.5588075,0.51691103
85864000,-0.71207905,0.28802535,1.177665,0,0.74358445,-0.36157054,-0.07972452,0.55677,0.5328499
85888000,-0.7144343,0.2803547,1.168482,0,0.746863,-0.36100772,-0.081786856,0.5524309,0.54890025
85912000,-0.71224016,0.2726652,1.1649207,0,0.7493863,-0.35852307,-0.083621494,0.55035335,0.5636052
85936000,-0.7088517,0.26495734,1.1628113,0,0.7517055,-0.3555226,-0.08540383,0.5488612,0.5770331
85960000,-0.7066107,0.25723177,1.1592889,0,0.7541896,-0.35300627,-0.087265685,0.5467808,0.58923244
85984000,-0.70340824,0.24948932,1.1572671,0,0.75641423,-0.3500548,-0.08914478,0.5453001,0.600225
86008000,-0.701453,0.24172167,1.1538397,0,0.7587865,-0.34762904,-0.09113605,0.543223,0.61124194
86032000,-0.70423955,0.2339301,1.1446644,0,0.7618722,-0.34727132,-0.093430884,0.5387245,0.6211226
86056000,-0.7014233,0.22611602,1.142798,0,0.7639383,-0.3444428,-0.0954983,0.5372499,0.6299329
86080000,-0.69990754,0.21828088,1.1395123,0,0.76614445,-0.34217197,-0.09768606,0.53516203,0.63774556
86104000,-0.69732,0.21042114,1.1377554,0,0.7681084,-0.33940837,-0.099865094,0.5337025,0.64526296
86128000,-0.69600135,0.2025385,1.1345832,0,0.770218,-0.33719578,-0.10215803,0.53162664,0.6518763
86152000,-0.6935702,0.19521199,1.1329472,0,0.7720156,-0.33460677,-0.104195654,0.53025806,0.65766555
86176000,-0.6982751,0.19649993,1.1225283,0,0.77381015,-0.33726898,-0.10316745,0.52614075,0.66268337
86200000,-0.69622463,0.1975434,1.1210128,0,0.774419,-0.33679777,-0.10195035,0.52578384,0.6675922
86224000,-0.6954666,0.1984655,1.1180612,0,0.77520263,-0.33686963,-0.10088039,0.5247886,0.67179453
86248000,-0.6934608,0.19927903,1.1166344,0,0.77580917,-0.33635354,-0.09978411,0.5244326,0.6753443
86272000,-0.69266117,0.19999528,1.113756,0,0.7766052,-0.33635318,-0.09879975,0.5234401,0.67830735
86296000,-0.690698,0.20058653,1.1123886,0,0.77721655,-0.33579546,-0.09781612,0.52307546,0.6809825
86320000,-0.68978626,0.20111036,1.1095544,0,0.7780426,-0.3357007,-0.09688904,0.5220797,0.6831418
86344000,-0.6876098,0.2015737,1.1082155,0,0.7786974,-0.33502573,-0.09590796,0.52171814,0.6848504
86368000,-0.6924548,0.20198414,1.0980344,0,0.7804753,-0.33749565,-0.09528774,0.5175667,0.68613994
86392000,-0.6900903,0.2022915,1.0967176,0,0.781175,-0.3367055,-0.09432865,0.51720124,0.68738484
86416000,-0.68883026,0.20256397,1.093916,0,0.78207594,-0.336407,-0.09342035,0.51619786,0.68825763
86440000,-0.6862557,0.20280372,1.0925919,0,0.78281945,-0.33551618,-0.092435606,0.5158278,0.6888186
86464000,-0.6835654,0.20301208,1.0912784,0,0.78358215,-0.33457068,-0.09143668,0.5154617,0.6890621
86488000,-0.6819266,0.20322272,1.0884697,0,0.7845525,-0.3341041,-0.09045892,0.51445997,0.6888371
86512000,-0.6789499,0.20341004,1.0871521,0,0.7853641,-0.33303776,-0.08939693,0.51409864,0.68834245
86536000,-0.67705035,0.20357533,1.0843369,0,0.7863821,-0.33245414,-0.08837293,0.51309615,0.68765485
86560000,-0.6738181,0.20372151,1.0829974,0,0.7872435,-0.33127463,-0.08726167,0.51272815,0.68677676
86584000,-0.6717415,0.20385472,1.0801628,0,0.7882964,-0.33060992,-0.086206034,0.51171714,0.6857463
86608000,-0.6684576,0.20395151,1.0788133,0,0.7891712,-0.3293946,-0.085103616,0.5113368,0.6846815
86632000,-0.66638184,0.2040432,1.0759891,0,0.79022264,-0.3287152,-0.08407101,0.51032,0.68346447
86656000,-0.6628897,0.20412636,1.0746372,0,0.79112995,-0.32740995,-0.08292424,0.50994086,0.682116
86680000,-0.66067535,0.20420319,1.0717958,0,0.7922062,-0.32666788,-0.08186386,0.50891614,0.68068033
86704000,-0.65708476,0.20425266,1.0704546,0,0.7931266,-0.32531053,-0.08071153,0.50853616,0.67929965
86728000,-0.65473956,0.2043005,1.0676192,0,0.79422194,-0.3245043,-0.0796354,0.50751036,0.6778534
86752000,-0.65095884,0.20434621,1.0662594,0,0.7951733,-0.32306606,-0.078437306,0.5071246,0.67634183
86776000,-0.64849746,0.20439,1.0634198,0,0.7962842,-0.32220724,-0.0773376,0.5060956,0.67476815
86800000,-0.64473885,0.20441055,1.0620694,0,0.79722756,-0.32076633,-0.076161265,0.50570416,0.67323637
86824000,-0.6423024,0.20443636,1.0592247,0,0.7983331,-0.31990778,-0.07507949,0.5046644,0.67167366
86848000,-0.638462,0.20446262,1.057874,0,0.79928356,-0.31843016,-0.07388437,0.5042709,0.6700602
86872000,-0.6358564,0.20449166,1.0550323,0,0.80041015,-0.31749877,-0.07276419,0.5032332,0.66842717
86896000,-0.63180614,0.20453984,1.0536761,0,0.80138683,-0.31593657,-0.07151065,0.5028415,0.6666125
86920000,-0.6291288,0.2045906,1.0508173,0,0.80252105,-0.3149758,-0.07036614,0.5017956,0.66479623
86944000,-0.6249461,0.20464362,1.0494251,0,0.8035209,-0.31335676,-0.06907634,0.50138825,0.6629861
86968000,-0.6220801,0.20469525,1.0465466,0,0.804684,-0.31231457,-0.06788675,0.5003346,0.6611621
86992000,-0.6178099,0.20473954,1.045146,0,0.80569404,-0.31065235,-0.06658229,0.49991903,0.6593969
87016000,-0.61500216,0.20478068,1.0422544,0,0.8068466,-0.30962506,-0.065415606,0.49885038,0.6576076
87040000,-0.61070657,0.2048238,1.0408279,0,0.8078604,-0.3079468,-0.06410631,0.49841812,0.65584797
87064000,-0.6078424,0.20486894,1.0379266,0,0.80901766,-0.30689123,-0.06292843,0.49734107,0.6540862
87088000,-0.6034846,0.20488359,1.0364947,0,0.81003875,-0.3051752,-0.061620004,0.49689877,0.65257686
87112000,-0.6005295,0.20490003,1.0335622,0,0.8112146,-0.3040706,-0.06043306,0.49580204,0.651075
87136000,-0.5959923,0.20491984,1.0321152,0,0.81225866,-0.3022767,-0.059081107,0.49535236,0.64956933
87160000,-0.58547837,0.20493877,1.0365344,0,0.8127372,-0.29788122,-0.057126597,0.49745506,0.6480777
87184000,-0.5808856,0.20495859,1.0350538,0,0.8137851,-0.29605985,-0.055756606,0.49698463,0.6466105
87208000,-0.5778607,0.20493643,1.0321007,0,0.81496745,-0.29490468,-0.05457882,0.49586335,0.64540917
87232000,-0.5733053,0.20492142,1.0306219,0,0.8160052,-0.2930838,-0.05323893,0.4953817,0.6441919
87256000,-0.5702731,0.20490935,1.0276585,0,0.8171832,-0.29192108,-0.052060418,0.49425036,0.6429594
87280000,-0.56560427,0.20490056,1.0261798,0,0.81822866,-0.29004824,-0.050695777,0.49376488,0.6417284
87304000,-0.5625572,0.20491834,1.0232017,0,0.8194021,-0.28887928,-0.049505822,0.49262366,0.6403533
87328000,-0.54997593,0.20494062,1.0290852,0,0.81974703,-0.28358626,-0.047230937,0.49534103,0.63899994
87352000,-0.54681855,0.20496689,1.0260847,0,0.8209332,-0.28236705,-0.04601419,0.4941864,0.6376603
87376000,-0.54204774,0.20499541,1.0245675,0,0.82197607,-0.28044826,-0.044610396,0.49367395,0.6363347
87400000,-0.5389787,0.20501962,1.0215476,0,0.8231475,-0.27925786,-0.043420874,0.49250168,0.63502467
87424000,-0.5343003,0.20504662,1.0200254,0,0.82417023,-0.2773697,-0.04204613,0.4919772,0.633707
87448000,-0.5295663,0.2050765,1.0184867,0,0.8251996,-0.27545613,-0.040656887,0.49144337,0.6324205
87472000,-0.51812303,0.2051065,1.0228543,0,0.82568324,-0.27065358,-0.03842274,0.4934748,0.63115036
87496000,-0.5134426,0.2050908,1.0212877,0,0.8267024,-0.26874617,-0.03706398,0.49291462,0.63024276
87520000,-0.51042396,0.20508343,1.0182424,0,0.82785755,-0.26755145,-0.03591577,0.4917094,0.6293287
87544000,-0.5057445,0.20508014,1.0167083,0,0.8288586,-0.2656396,-0.03456287,0.49115622,0.6284064
87568000,-0.50283176,0.20507771,1.0136664,0,0.829991,-0.26448286,-0.033446334,0.48994404,0.62746894
87592000,-0.48943645,0.2050669,1.0195255,0,0.83030534,-0.25882605,-0.030927144,0.49259067,0.6266223
87616000,-0.4866373,0.2050626,1.0164647,0,0.8314202,-0.25770873,-0.029845163,0.49136132,0.62575907
87640000,-0.482154,0.20505764,1.0149052,0,0.8323792,-0.25586554,-0.028546266,0.4907777,0.624868
87664000,-0.47946104,0.20505531,1.0118277,0,0.8334775,-0.25478664,-0.027494378,0.48953357,0.6239769
87688000,-0.4660008,0.2050335,1.0176861,0,0.8337375,-0.2490946,-0.02493827,0.49215016,0.62321234
87712000,-0.46339974,0.20502366,1.0146147,0,0.8348166,-0.24804492,-0.02392152,0.49089998,0.6224516
87736000,-0.45896786,0.20501104,1.0130359,0,0.83575267,-0.24620952,-0.022644728,0.49029124,0.6216862
87760000,-0.45458123,0.20500591,1.0114708,0,0.83667463,-0.2443915,-0.021380268,0.48968473,0.6209039
87784000,-0.44273898,0.2050027,1.0158457,0,0.837034,-0.23939148,-0.019005492,0.49163467,0.6200983
87808000,-0.43841934,0.20500945,1.0142729,0,0.83793473,-0.23759863,-0.017753884,0.49101627,0.619241
87832000,-0.4361071,0.20501636,1.011183,0,0.83896583,-0.23665754,-0.016817622,0.48974136,0.6183504
87856000,-0.42244038,0.20503117,1.0170469,0,0.83912224,-0.23088199,-0.014141291,0.49230826,0.6174458
87880000,-0.42029926,0.20504601,1.013948,0,0.8401294,-0.23000772,-0.013251469,0.49102288,0.6165429
87904000,-0.41629183,0.20502073,1.0123656,0,0.8409792,-0.22832778,-0.012097821,0.49038157,0.61596835
87928000,-0.4122978,0.20500153,1.0107856,0,0.8418224,-0.22665223,-0.010947712,0.4897386,0.61534876
87952000,-0.40055552,0.2049893,1.015145,0,0.8420701,-0.22168499,-0.008560717,0.49163035,0.6147117
87976000,-0.3966254,0.20497826,1.0135372,0,0.8429001,-0.22003336,-0.007422492,0.49096808,0.6140716
88000000,-0.3947552,0.20495147,1.0104332,0,0.8438689,-0.21924955,-0.00663469,0.4896641,0.61354375
88024000,-0.38099515,0.20492916,1.0163054,0,0.84391797,-0.21342292,-0.003901936,0.49217683,0.61297303
88048000,-0.379343,0.20491289,1.01319,0,0.84486103,-0.21272719,-0.003171027,0.49086347,0.6123882
88072000,-0.37570336,0.2048946,1.0115746,0,0.8456446,-0.21118695,-0.002115063,0.49018455,0.6117844
88096000,-0.3619026,0.20487784,1.0174412,0,0.8456417,-0.20534566,0.000657842,0.49266917,0.61120856
88120000,-0.36046275,0.2048693,1.0143297,0,0.8465555,-0.20473304,0.001327358,0.49135166,0.6105948
88144000,-0.35691005,0.20486592,1.0127062,0,0.8473167,-0.2032263,0.002363667,0.49066076,0.60997355
88168000,-0.34526888,0.20486861,1.0170588,0,0.8474152,-0.1983025,0.004789166,0.4924842,0.60932696
88192000,-0.3418408,0.2048547,1.0154297,0,0.8481559,-0.19684184,0.005787611,0.4917839,0.60881907
88216000,-0.32809696,0.20484571,1.0212934,0,0.8480439,-0.19103275,0.008603007,0.4942205,0.60827273
88240000,-0.32709828,0.20483838,1.0181544,0,0.8489145,-0.19059345,0.009145789,0.49288404,0.607689
88264000,-0.32410312,0.20482925,1.0165278,0,0.8496003,-0.1893117,0.01003392,0.49217856,0.60705674
88288000,-0.31272924,0.20478524,1.0208645,0,0.8495977,-0.1844942,0.012413666,0.49395508,0.6067356
88312000,-0.30979386,0.2047468,1.0192505,0,0.8502691,-0.18322742,0.013269857,0.49324873,0.6063405
88336000,-0.30693474,0.20472196,1.0176227,0,0.85093325,-0.1819945,0.014112346,0.49253577,0.6059405
88360000,-0.2956206,0.20469834,1.0219747,0,0.8508774,-0.17720865,0.016502611,0.49429974,0.6054939
88384000,-0.29288474,0.20468621,1.0203483,0,0.8515217,-0.17602769,0.01731667,0.49358398,0.6050207
88408000,-0.28153417,0.20465554,1.0246824,0,0.85143805,-0.17122823,0.019733295,0.49532294,0.6046341
88432000,-0.2789924,0.20463708,1.0230527,0,0.8520597,-0.17012504,0.020493425,0.49460265,0.60421014
88456000,-0.27658907,0.20461687,1.0214205,0,0.85266846,-0.169079,0.021217003,0.49388126,0.6037251
88480000,-0.2654716,0.20460966,1.0257779,0,0.85251796,-0.16438678,0.023600787,0.49561405,0.6032144
88504000,-0.26321438,0.2046004,1.0241528,0,0.8531061,-0.16340265,0.024288908,0.4948937,0.60268235
88528000,-0.24987921,0.20459972,1.0300257,0,0.8527202,-0.15779106,0.027124569,0.49722692,0.6021048
88552000,-0.24995305,0.20460452,1.0268804,0,0.8534948,-0.15778086,0.027356457,0.49588636,0.60150534
88576000,-0.24799955,0.2046146,1.025247,0,0.8540526,-0.15692672,0.027973339,0.49516237,0.6008866
88600000,-0.23495673,0.20463988,1.0311073,0,0.85360193,-0.1514506,0.030769203,0.4974734,0.6001476
88624000,-0.23535125,0.20467083,1.0279542,0,0.85435295,-0.1515778,0.030923456,0.49613395,0.59938335
88648000,-0.22249517,0.20470142,1.0337973,0,0.853855,-0.14618924,0.033698272,0.49842227,0.5985986
88672000,-0.22313868,0.20473595,1.0306214,0,0.85459584,-0.14641877,0.033785377,0.49707752,0.5978101
88696000,-0.21032394,0.20470813,1.0364531,0,0.8540661,-0.14104061,0.03654648,0.49934277,0.59748495
88720000,-0.20889185,0.20468765,1.034792,0,0.8545826,-0.1403934,0.037011784,0.49860635,0.5971189
88744000,-0.20980476,0.20467313,1.0316043,0,0.8553132,-0.14072117,0.037002236,0.49726036,0.5967287
88768000,-0.19733137,0.20466481,1.0374484,0,0.8547187,-0.13549875,0.03970339,0.4995194,0.5963028
88792000,-0.19622098,0.20463552,1.0357869,0,0.8552105,-0.13498387,0.0400802,0.49878648,0.5960098
88816000,-0.18610595,0.20462288,1.040128,0,0.85479885,-0.13074604,0.042313144,0.5004338,0.5956838
88840000,-0.18520984,0.20460995,1.038455,0,0.85527647,-0.13032427,0.04264079,0.49969932,0.59532285
88864000,-0.17302173,0.20460138,1.0442975,0,0.85459286,-0.12524062,0.045315817,0.5019287,0.59492826
88888000,-0.17467776,0.20461309,1.0411224,0,0.8552838,-0.12587959,0.04510515,0.50060904,0.59436804
88912000,-0.17411,0.20463194,1.0394799,0,0.8557291,-0.12560415,0.04535857,0.49989378,0.593746
88936000,-0.16202144,0.20465477,1.0453316,0,0.85500574,-0.12057622,0.048036516,0.50211453,0.5931176
88960000,-0.16391869,0.20468082,1.042151,0,0.85568684,-0.121317804,0.04776441,0.50079995,0.5924656
88984000,-0.15211482,0.20471005,1.0480051,0,0.8549174,-0.116420634,0.050391328,0.50301415,0.5918066
89008000,-0.15179318,0.20471744,1.0463617,0,0.8553487,-0.11624343,0.050570935,0.50230336,0.5913033
89032000,-0.14235586,0.2047324,1.0507226,0,0.85479003,-0.11232489,0.052702233,0.50392425,0.5907539
89056000,-0.14233625,0.20474775,1.0490608,0,0.8552085,-0.11227645,0.05280709,0.5032134,0.59015566
89080000,-0.1307736,0.20476735,1.0549175,0,0.8543659,-0.10749789,0.055409335,0.5054038,0.58954066
89104000,-0.13096361,0.20474334,1.0532401,0,0.8547807,-0.10752667,0.05544119,0.50469226,0.58923197
89128000,-0.121930666,0.20473064,1.0575752,0,0.85416293,-0.10378672,0.05748975,0.5062893,0.588884
89152000,-0.122271426,0.20472328,1.0559088,0,0.8545673,-0.10388256,0.05748689,0.5055873,0.5884991
89176000,-0.12271694,0.20472066,1.0542526,0,0.85496265,-0.10402472,0.057459295,0.50489223,0.5880768
89200000,-0.11403607,0.20471507,1.0586025,0,0.8543069,-0.10044096,0.059429497,0.5064974,0.5876664
89224000,-0.11468317,0.20471558,1.0569324,0,0.85469687,-0.10066797,0.059349895,0.505803,0.58722085
89248000,-0.10377218,0.20471813,1.062803,0,0.8537459,-0.09618622,0.061827447,0.5079799,0.58674085
89272000,-0.106996246,0.20472337,1.0596133,0,0.85439867,-0.097466245,0.06116625,0.5067169,0.586226
89296000,-0.09634709,0.20473984,1.0655032,0,0.8534095,-0.09310737,0.06359659,0.5088994,0.5856114
89320000,-0.09738503,0.20476276,1.0638461,0,0.8537812,-0.09350347,0.06341981,0.508225,0.58497506
89344000,-0.08917068,0.20478842,1.0682079,0,0.85304683,-0.09014514,0.06532121,0.50982165,0.58432025
89368000,-0.09035372,0.20481764,1.066561,0,0.85341126,-0.09060347,0.06510679,0.5091574,0.5836437
89392000,-0.07984774,0.20483105,1.0724634,0,0.85236937,-0.08632232,0.06753177,0.5113261,0.583059
89416000,-0.08123035,0.20485032,1.0708253,0,0.8527271,-0.08686136,0.0672577,0.51067424,0.5824385
89440000,-0.07329235,0.20487356,1.0752044,0,0.8519442,-0.08363358,0.069111034,0.51226956,0.5818037
89464000,-0.074903704,0.2049001,1.0735482,0,0.85229915,-0.084269725,0.068779446,0.5116192,0.5811466
89488000,-0.06482345,0.2049033,1.0794399,0,0.85120296,-0.080183655,0.07112266,0.5137757,0.58067447
89512000,-0.06894693,0.2049144,1.076261,0,0.85185105,-0.08182979,0.070198126,0.5125679,0.5801715
89536000,-0.059040938,0.2049293,1.0821493,0,0.8507334,-0.07782719,0.07251356,0.51472056,0.5796565
89560000,-0.060941007,0.2049482,1.0804961,0,0.85108346,-0.07858063,0.07209758,0.5140857,0.57912314
89584000,-0.06291423,0.20497078,1.0788417,0,0.8514293,-0.07936676,0.07166566,0.5134521,0.5785676
89608000,-0.055587374,0.20498113,1.0832179,0,0.8505889,-0.07641047,0.07338357,0.51504844,0.5780917
89632000,-0.057698056,0.20499778,1.0815701,0,0.85093105,-0.0772523,0.072910756,0.51442444,0.5775683
89656000,-0.04824507,0.20501545,1.0874773,0,0.84976363,-0.07345626,0.075132266,0.5165859,0.577019
89680000,-0.05295339,0.20503695,1.0843015,0,0.8504069,-0.07534456,0.07404484,0.5154113,0.57644165
89704000,-0.043659013,0.20501485,1.0902088,0,0.8492239,-0.07161155,0.076218635,0.51757264,0.5762053
89728000,-0.046207774,0.20500004,1.0885597,0,0.8495592,-0.072627604,0.07561258,0.5169692,0.5759318
89752000,-0.03696977,0.20498963,1.0944858,0,0.8483516,-0.06893085,0.07779132,0.5191306,0.57561207
89776000,-0.04196704,0.20498297,1.0913059,0,0.8490017,-0.07092693,0.07660399,0.51797426,0.5752798
89800000,-0.03294366,0.20494802,1.0972183,0,0.8477808,-0.067319825,0.078726605,0.52013254,0.57514864
89824000,-0.035602972,0.20492172,1.0955923,0,0.84811455,-0.068376765,0.07807939,0.5195479,0.5749516
89848000,-0.029048057,0.20490102,1.1000017,0,0.84718806,-0.06576711,0.07962816,0.5211587,0.5747175
89872000,-0.032035958,0.20488565,1.0983697,0,0.8475146,-0.06696435,0.07889762,0.520586,0.57443637
89896000,-0.023354843,0.20492081,1.1043136,0,0.8462459,-0.06353511,0.08098297,0.52275515,0.5737404
89920000,-0.026438482,0.2049614,1.1026869,0,0.84656996,-0.06478511,0.080246806,0.52219015,0.5730153
89944000,-0.02014529,0.20500486,1.1071098,0,0.84561133,-0.062313266,0.08177034,0.5238054,0.57227093
89968000,-0.023301182,0.20505239,1.1054945,0,0.8459326,-0.063594505,0.08101522,0.5232497,0.5714994
89992000,-0.014787507,0.20506532,1.1114628,0,0.84463084,-0.06024447,0.08306793,0.5254226,0.5709917
90016000,-0.0204176,0.20508662,1.1083217,0,0.84528154,-0.062499255,0.08169578,0.524327,0.57044834
90040000,-0.023809997,0.20511171,1.106705,0,0.8455968,-0.06387413,0.08086859,0.5237809,0.5698863
90064000,-0.015550087,0.20514104,1.1126555,0,0.8442909,-0.060635787,0.08286345,0.52595603,0.56931883
90088000,-0.019155394,0.20516074,1.1110376,0,0.8446046,-0.06209652,0.081973776,0.525421,0.56881404
90112000,-0.01335694,0.2051882,1.1154661,0,0.843615,-0.059839528,0.08337607,0.5270498,0.56827724
90136000,-0.016908608,0.20521952,1.113844,0,0.8439332,-0.061278887,0.08250294,0.52651197,0.5677299
90160000,-0.008889026,0.20525461,1.1198195,0,0.84259474,-0.058156215,0.08445491,0.5286959,0.56716454
90184000,-0.012621801,0.20529236,1.1181922,0,0.8429131,-0.05967073,0.08353251,0.52816594,0.5666043
90208000,-0.006983875,0.20532769,1.1226445,0,0.8418991,-0.057492834,0.08490817,0.52980304,0.5660352
90232000,-0.010795221,0.2053693,1.1210358,0,0.8422121,-0.05904061,0.08396344,0.52928555,0.5654428
90256000,-0.002945011,0.20541018,1.1270155,0,0.8408503,-0.056002244,0.08589045,0.5314672,0.56483096
90280000,-0.009237242,0.20545994,1.1238611,0,0.84150535,-0.058527652,0.08433131,0.53040695,0.56422603
90304000,-0.001450656,0.20546125,1.1298373,0,0.8401391,-0.05550925,0.08623078,0.53258735,0.56393164
90328000,-0.005462395,0.20547727,1.128225,0,0.84045446,-0.057129927,0.08521511,0.5320814,0.56361836
90352000,0.002100519,0.20549108,1.1342152,0,0.8390676,-0.054216094,0.08707035,0.5342705,0.5632591
90376000,-0.004336337,0.20551254,1.1310682,0,0.83972794,-0.056787632,0.08544886,0.5332268,0.56289387
90400000,-0.008425376,0.20552948,1.1294599,0,0.84003794,-0.058441002,0.08441263,0.5327246,0.562559
90424000,-0.000973742,0.20555261,1.135459,0,0.838648,-0.055575855,0.08624027,0.5349237,0.56218714
90448000,-0.007513806,0.20557854,1.132324,0,0.83929867,-0.05819237,0.0845928,0.53388727,0.5618009
90472000,-7.98E-05,0.20560886,1.1383188,0,0.8379047,-0.05533968,0.08642391,0.53608227,0.56139845
90496000,-0.004398074,0.20564213,1.1367182,0,0.8382107,-0.057089347,0.08532589,0.535596,0.5609795
90520000,0.002917165,0.2056836,1.1427209,0,0.83680177,-0.054296,0.08713912,0.53779316,0.56053525
90544000,-0.003814865,0.2057281,1.1395874,0,0.8374543,-0.056990553,0.08543644,0.53677076,0.5600662
90568000,0.003496333,0.20577498,1.1456112,0,0.8360356,-0.05420441,0.08725485,0.53897405,0.55954456
90592000,-0.000941254,0.20578808,1.1440171,0,0.83634216,-0.05599418,0.086108886,0.53849953,0.55926436
90616000,-0.005414557,0.20580901,1.1424252,0,0.8366424,-0.057802677,0.08495904,0.5380245,0.55894285
90640000,-0.000590841,0.20583253,1.1469125,0,0.83556956,-0.05598438,0.08614087,0.5396934,0.55860007
90664000,-0.005081364,0.20585933,1.1453205,0,0.8358701,-0.057799917,0.08498614,0.53921956,0.5582419
90688000,0.001940079,0.20583257,1.151331,0,0.83444566,-0.055118646,0.08670222,0.5414288,0.55830723
90712000,-0.00492208,0.20581439,1.1482062,0,0.8350978,-0.057843834,0.08492692,0.5404195,0.5583264
90736000,0.002134138,0.2058004,1.1542244,0,0.8336681,-0.055154406,0.08666163,0.54262793,0.5583029
90760000,-0.002467225,0.20579123,1.1526476,0,0.8339672,-0.057002414,0.08545413,0.5421688,0.5582255
90784000,0.004481942,0.20578736,1.1586695,0,0.8325251,-0.05436606,0.087172516,0.54437786,0.55811983
90808000,-0.002499881,0.20581052,1.1555555,0,0.83317626,-0.057145443,0.085370325,0.54338163,0.55777985
90832000,-0.007068575,0.20584106,1.1539813,0,0.8334698,-0.05899061,0.08418803,0.5429186,0.5574046
90856000,-9.80E-05,0.20587628,1.1600229,0,0.8320259,-0.056354724,0.08592457,0.54513675,0.5569995
90880000,-0.007152917,0.20591468,1.1569028,0,0.8326701,-0.059168644,0.08410948,0.5441371,0.5565835
90904000,-0.000342517,0.20594212,1.1629415,0,0.8312198,-0.05659968,0.085802816,0.54635894,0.5562179
90928000,-0.005137192,0.205976,1.1613603,0,0.8315121,-0.058534652,0.084553145,0.54590493,0.5558218
90952000,0.001679262,0.20601416,1.1674051,0,0.8300522,-0.05597172,0.086260304,0.5481238,0.55539364
90976000,-0.005409896,0.2060569,1.164304,0,0.8306961,-0.058794424,0.08442591,0.54713756,0.5549585
91000000,-0.010258983,0.20611864,1.1627322,0,0.8309783,-0.06075983,0.08317254,0.5466862,0.5543762
91024000,-0.003517753,0.20618694,1.1687856,0,0.82951784,-0.058234364,0.08486726,0.54891396,0.5537629
91048000,-0.04121687,0.19754168,1.1174458,0,0.8425437,-0.06965077,0.072726585,0.5291311,0.61309254
91072000,-0.07891598,0.18889591,1.1210718,0,0.84056133,-0.08336085,0.058935024,0.53200966,0.6126707
91096000,-0.08810092,0.18292625,1.1179265,0,0.8413097,-0.08556709,0.05410462,0.5309886,0.6121346
91120000,-0.095489964,0.18295857,1.1147631,0,0.8418253,-0.08860059,0.052296374,0.5298539,0.6113803
91144000,-0.097447775,0.18299901,1.1152087,0,0.841618,-0.08944672,0.05177486,0.5300922,0.6104537
91168000,-0.10487143,0.18304567,1.1120424,0,0.84211624,-0.09250322,0.049973153,0.5289481,0.60939825
91192000,-0.10218895,0.18311034,1.1155555,0,0.8413059,-0.091479436,0.050549343,0.530359,0.6082107
91216000,-0.11420942,0.18317235,1.1093266,0,0.8423861,-0.09640232,0.04768756,0.52803224,0.6069535
91240000,-0.12156711,0.18324749,1.1061789,0,0.842852,-0.099447995,0.04593313,0.5268784,0.6056804
91264000,-0.118820496,0.18332824,1.1096886,0,0.84205747,-0.09839308,0.04651831,0.5282934,0.6044014
91288000,-0.13065152,0.18348041,1.1034935,0,0.8430855,-0.10327687,0.04377702,0.5259509,0.60268843
91312000,-0.1278506,0.1836398,1.1070035,0,0.8422961,-0.10221526,0.044401906,0.5273686,0.601012
91336000,-0.1350319,0.18380181,1.1038777,0,0.84273803,-0.10521419,0.042741265,0.5262089,0.59937334
91360000,-0.1421811,0.18396428,1.1007601,0,0.8431666,-0.108203895,0.041097708,0.52504563,0.597779
91384000,-0.14392273,0.18412565,1.101224,0,0.842941,-0.10898899,0.040683776,0.5252778,0.5962486
91408000,-0.15092976,0.18429193,1.0981205,0,0.8433585,-0.111923754,0.03908759,0.5241104,0.594718
91432000,-0.1478913,0.18446328,1.1016355,0,0.84259516,-0.11075632,0.039762065,0.5255333,0.59323657
91456000,-0.15924181,0.18463346,1.0955045,0,0.8435507,-0.115466624,0.037205346,0.52316874,0.5918201
91480000,-0.16597442,0.18480211,1.0924256,0,0.84395146,-0.11829382,0.035697907,0.5219943,0.59047574
91504000,-0.16270831,0.18500468,1.0959513,0,0.84321,-0.117031425,0.036430348,0.52342474,0.5889562
91528000,-0.17382406,0.1852068,1.0898513,0,0.8441271,-0.12166451,0.033977892,0.52104956,0.5874904
91552000,-0.17047484,0.18540399,1.0933763,0,0.84339803,-0.12036218,0.034722365,0.5224817,0.5860987
91576000,-0.17693223,0.18559591,1.0903201,0,0.8437906,-0.123082675,0.03330509,0.5213049,0.5847893
91600000,-0.18770902,0.18576337,1.0842377,0,0.84468645,-0.12757641,0.030955102,0.518913,0.5836606
91624000,-0.18408012,0.18593074,1.0877652,0,0.84398955,-0.12614195,0.031745598,0.520348,0.582581
91648000,-0.19013536,0.18609352,1.0847158,0,0.84438586,-0.12869152,0.030435681,0.5191576,0.5815591
91672000,-0.19079044,0.18625288,1.0852164,0,0.84420353,-0.12901583,0.030301351,0.51938146,0.58061355
91696000,-0.19667791,0.18641181,1.0821722,0,0.8445995,-0.13149637,0.029040303,0.5181863,0.57970035
91720000,-0.20244226,0.18656936,1.0791354,0,0.8449926,-0.13392757,0.02781732,0.51698846,0.57884544
91744000,-0.20282592,0.18672256,1.0796404,0,0.84482634,-0.13413504,0.027749747,0.5172101,0.5780463
91768000,-0.20843808,0.18687244,1.0766048,0,0.8452208,-0.1365025,0.026569542,0.51600677,0.57730055
91792000,-0.2139246,0.18701832,1.0735708,0,0.8456153,-0.13881864,0.025426902,0.5147987,0.57658595
91816000,-0.2141792,0.18716556,1.0740774,0,0.8454573,-0.13896935,0.025389165,0.51501936,0.57591444
91840000,-0.21948636,0.18730934,1.0710485,0,0.8458549,-0.14121148,0.024297819,0.51380783,0.5753028
91864000,-0.21506892,0.18745169,1.0745751,0,0.8452479,-0.13942295,0.025247768,0.5152472,0.57474256
91888000,-0.22455469,0.18759672,1.0685275,0,0.8461218,-0.14339654,0.02329949,0.5128085,0.5741734
91912000,-0.22964737,0.18774696,1.0655032,0,0.84651804,-0.14555421,0.022278082,0.51159054,0.5736419
91936000,-0.22510602,0.18789387,1.0690306,0,0.8459327,-0.14370915,0.02324925,0.51303506,0.5731424
91960000,-0.23445053,0.18803833,1.0629901,0,0.846788,-0.14763184,0.021359816,0.5105867,0.57268184
91984000,-0.22975159,0.1881804,1.0665184,0,0.84622073,-0.14571655,0.02236329,0.5120324,0.57227176
92008000,-0.23448582,0.18831794,1.0634971,0,0.84663635,-0.14772095,0.021433305,0.51080906,0.57190275
92032000,-0.24354534,0.18845679,1.0574605,0,0.8474869,-0.15153,0.019636236,0.50834924,0.5715411
92056000,-0.2386751,0.18859342,1.0609858,0,0.8469466,-0.1495359,0.020669214,0.5097974,0.5712049
92080000,-0.24320787,0.18872905,1.0579655,0,0.84736484,-0.15145853,0.019800708,0.5085677,0.57088697
92104000,-0.25191534,0.18885328,1.0519356,0,0.8482182,-0.15512271,0.018107474,0.5060978,0.57066643
92128000,-0.2468867,0.1889815,1.0554619,0,0.8477028,-0.15305471,0.01916521,0.5075499,0.57046014
92152000,-0.2512863,0.18910931,1.0524462,0,0.8481193,-0.15492278,0.018337198,0.5063165,0.57027495
92176000,-0.25052333,0.18923694,1.0529577,0,0.8480397,-0.15463497,0.01854568,0.50653017,0.5701004
92200000,-0.2547748,0.18939683,1.0499425,0,0.8484602,-0.15644956,0.017773502,0.5052948,0.5696971
92224000,-0.25881988,0.18956219,1.0469276,0,0.8488909,-0.15817976,0.017061114,0.504056,0.5693053
92248000,-0.2578187,0.18972634,1.0474411,0,0.84882855,-0.15779892,0.017343588,0.50427055,0.5689569
92272000,-0.26180804,0.18988734,1.0444283,0,0.849259,-0.1595057,0.016647302,0.50303066,0.56862366
92296000,-0.2656918,0.19000308,1.041416,0,0.8496959,-0.16115853,0.015963048,0.5017868,0.56858635
92320000,-0.26446065,0.1901231,1.0419296,0,0.8496573,-0.16066846,0.016282402,0.5019991,0.56855685
92344000,-0.26823366,0.19024271,1.0389177,0,0.85009885,-0.1622764,0.015631318,0.5007533,0.5685366
92368000,-0.26256165,0.1903619,1.0424416,0,0.8496633,-0.15992332,0.016821072,0.50220877,0.5685143
92392000,-0.27051154,0.19051819,1.0364189,0,0.8505181,-0.16329134,0.01538381,0.49971822,0.5682226
92416000,-0.27418667,0.1906746,1.033408,0,0.85095626,-0.16486919,0.014781244,0.49847072,0.5679427
92440000,-0.26847678,0.1908306,1.0369314,0,0.85053265,-0.16250464,0.01598543,0.49993107,0.5676791
92464000,-0.27624005,0.19098617,1.030911,0,0.851385,-0.16579877,0.014611036,0.49743438,0.56743467
92488000,-0.2796493,0.1911417,1.027901,0,0.8518371,-0.1672657,0.014082022,0.4961829,0.5671985
92512000,-0.2737427,0.19130419,1.0314243,0,0.8514399,-0.16481496,0.015327305,0.49764562,0.56696284
92536000,-0.2811744,0.1914673,1.0254047,0,0.85230345,-0.16797478,0.014054127,0.49514225,0.56675303
92560000,-0.27524054,0.19163093,1.0289279,0,0.8519123,-0.16551118,0.015302397,0.4966058,0.5665637
92584000,-0.27843633,0.19179335,1.0259182,0,0.85238093,-0.16688856,0.014830239,0.4953535,0.5663945
92608000,-0.2858006,0.19193418,1.0198994,0,0.853237,-0.17001912,0.013578817,0.49284464,0.56635106
92632000,-0.27969563,0.19207785,1.0234224,0,0.8528718,-0.16747399,0.014850438,0.49430934,0.5663046
92656000,-0.28272486,0.19222307,1.0204133,0,0.85334885,-0.16877824,0.014418557,0.4930534,0.5662587
92680000,-0.2807981,0.1923709,1.020927,0,0.8533733,-0.16799462,0.014914461,0.49326402,0.56620693
92704000,-0.28379756,0.19252326,1.0179176,0,0.85385007,-0.16928841,0.01449541,0.4920075,0.566126
92728000,-0.29093114,0.19268206,1.0118982,0,0.8547058,-0.17233062,0.013327986,0.48949218,0.5660637
92752000,-0.28455752,0.1928409,1.0154212,0,0.85437506,-0.16966902,0.014657974,0.49095908,0.5660069
92776000,-0.28733486,0.19300002,1.0124116,0,0.85486436,-0.17087112,0.014302328,0.48969933,0.5659461
92800000,-0.2851829,0.19312303,1.0129254,0,0.8549125,-0.16998367,0.014838979,0.48990807,0.5661203
92824000,-0.28786734,0.1932535,1.0099158,0,0.8554099,-0.17113978,0.014495567,0.48864603,0.56626827
92848000,-0.29049298,0.19338438,1.0069058,0,0.85590893,-0.17227188,0.014170185,0.48738226,0.5664156
92872000,-0.2838483,0.19351748,1.0104289,0,0.8556067,-0.16948578,0.015548691,0.4888456,0.5665633
92896000,-0.29070723,0.19367088,1.0044088,0,0.85647637,-0.17241195,0.01445777,0.48632637,0.5665513
92920000,-0.28414026,0.19382617,1.0079322,0,0.85616815,-0.16966283,0.015823245,0.48779133,0.56653297
92944000,-0.28662816,0.1939817,1.0049205,0,0.85667807,-0.17074056,0.015541181,0.4865272,0.56651336
92968000,-0.29337627,0.19413693,0.99889904,0,0.85754627,-0.17362307,0.014489822,0.48400354,0.5664829
92992000,-0.28669128,0.19424191,1.0024241,0,0.8572595,-0.17080809,0.01585222,0.48546827,0.56679463
93016000,-0.28914055,0.19435175,0.9994136,0,0.85777116,-0.17185989,0.015564203,0.48420107,0.5670915
93040000,-0.28657052,0.19446526,0.99992716,0,0.8578582,-0.17078775,0.016191997,0.48440546,0.56737113
93064000,-0.28897676,0.19458193,0.99691886,0,0.85837084,-0.17182282,0.015918441,0.48313865,0.56762475
93088000,-0.2913698,0.19475031,0.99390954,0,0.8588778,-0.17286494,0.015673868,0.4818724,0.56746083
93112000,-0.288789,0.19492577,0.9944244,0,0.85896266,-0.17180085,0.01632797,0.48207995,0.5672724
93136000,-0.2911436,0.19510436,0.99141216,0,0.8594712,-0.17282875,0.016098619,0.48081213,0.56709146
93160000,-0.2842581,0.19528595,0.9949384,0,0.85919833,-0.16994141,0.017533518,0.48227656,0.5669103
93184000,-0.29070407,0.19546807,0.988915,0,0.8600809,-0.17270222,0.016578674,0.47974977,0.566734
93208000,-0.29286614,0.19563666,0.98590237,0,0.86060244,-0.17364573,0.016395241,0.47847855,0.5666355
93232000,-0.2859007,0.19580923,0.9894247,0,0.860345,-0.1707183,0.017836355,0.47994134,0.56654096
93256000,-0.2923385,0.19598314,0.9834015,0,0.8612193,-0.17347622,0.016889848,0.47741187,0.566442
93280000,-0.285265,0.19615848,0.98692656,0,0.8609714,-0.17050156,0.018354438,0.4788743,0.5663554
93304000,-0.28743747,0.1963389,0.9839146,0,0.86149216,-0.17145048,0.01817134,0.4776043,0.5662123
93328000,-0.28464523,0.1965262,0.98442763,0,0.8615939,-0.17029485,0.018876351,0.47780684,0.5660541
93352000,-0.2868105,0.19671385,0.9814126,0,0.862114,-0.17124204,0.018699303,0.47653532,0.56589735
93376000,-0.28888637,0.19690262,0.9784004,0,0.8626381,-0.17215167,0.018546581,0.47526342,0.5657379
93400000,-0.28592885,0.19708094,0.9789097,0,0.86275715,-0.17092092,0.01928395,0.47546226,0.5656601
93424000,-0.28792694,0.19726053,0.97589046,0,0.86328894,-0.1717945,0.019146934,0.47418576,0.5655788
93448000,-0.2807736,0.19744009,0.9794168,0,0.86304706,-0.16878274,0.02062399,0.47564366,0.5654855
93472000,-0.28694114,0.19761923,0.9733848,0,0.8639396,-0.17142496,0.019752659,0.47310868,0.56538236
93496000,-0.27966732,0.19778869,0.9769086,0,0.8637097,-0.16835748,0.021250926,0.4745627,0.56534314
93520000,-0.28152832,0.19796208,0.9738861,0,0.8642557,-0.16916835,0.021141015,0.4732834,0.5652968
93544000,-0.2876799,0.19813696,0.9678442,0,0.8651439,-0.17180455,0.020280972,0.4707418,0.56525433
93568000,-0.28037608,0.19831237,0.97136855,0,0.86492145,-0.16872174,0.02177973,0.47219625,0.56521213
93592000,-0.28226626,0.1984761,0.96834284,0,0.86546266,-0.16954315,0.021661818,0.47091424,0.5652286
93616000,-0.27496395,0.19864652,0.9718698,0,0.8652314,-0.16646127,0.02316241,0.47236496,0.56522876
93640000,-0.2811435,0.19881928,0.9658265,0,0.86612344,-0.16910595,0.022289693,0.46982598,0.56522155
93664000,-0.2737169,0.19899283,0.969352,0,0.86590296,-0.16596954,0.023817927,0.47127357,0.5652071
93688000,-0.27562064,0.19916093,0.9663282,0,0.8664435,-0.16679563,0.023695372,0.46999288,0.5652098
93712000,-0.27245817,0.19933316,0.9668377,0,0.8665735,-0.16547002,0.024472065,0.47018197,0.56519836
93736000,-0.27430385,0.19950715,0.96380806,0,0.86711866,-0.16627175,0.02436652,0.46889785,0.56518734
93760000,-0.27619,0.19967555,0.96077615,0,0.8676586,-0.16709031,0.0242517,0.46761218,0.56516266
93784000,-0.27305207,0.19985783,0.96128356,0,0.86778736,-0.16577555,0.025023527,0.46780056,0.5651469
93808000,-0.27487916,0.2000396,0.9582468,0,0.8683313,-0.1665709,0.024929114,0.46651214,0.56508243
93832000,-0.2673694,0.20021573,0.96177524,0,0.86811316,-0.1633952,0.02647001,0.46795383,0.56499934
93856000,-0.26911318,0.2004058,0.9587419,0,0.868665,-0.16415441,0.02639465,0.46666673,0.56492287
93880000,-0.26584142,0.20058922,0.9592456,0,0.86880124,-0.16278064,0.027197849,0.4668483,0.56483907
93904000,-0.26766655,0.2007346,0.9562139,0,0.8693481,-0.16356477,0.027083818,0.46556082,0.56500566
93928000,-0.26012662,0.20088935,0.9597438,0,0.8691243,-0.1603712,0.028624002,0.46699542,0.56516373
93952000,-0.2661865,0.20104809,0.95367837,0,0.87003505,-0.16295557,0.027773153,0.46444926,0.5653056
93976000,-0.2587111,0.20120855,0.95721066,0,0.8698048,-0.15978992,0.029297568,0.4658846,0.56542647
94000000,-0.26047772,0.20138206,0.9541686,0,0.8703581,-0.16055232,0.029206757,0.464593,0.56542027
94024000,-0.25734007,0.2015588,0.9546732,0,0.8704787,-0.15923329,0.029973395,0.4647722,0.5653875
94048000,-0.2592451,0.20173553,0.9516323,0,0.8710193,-0.16005619,0.029852036,0.46348277,0.56533414
94072000,-0.2517388,0.20191191,0.9551669,0,0.87078077,-0.15688059,0.03139203,0.4649129,0.5652644
94096000,-0.2536306,0.20210113,0.95212674,0,0.8713238,-0.15769869,0.03127549,0.46362463,0.5650504
94120000,-0.25986305,0.20229496,0.9460598,0,0.87221646,-0.16036434,0.030402735,0.46108282,0.56478953
94144000,-0.25231162,0.20248844,0.9495944,0,0.8719856,-0.1571691,0.031951267,0.46251285,0.56453747
94168000,-0.25410366,0.2026822,0.94654435,0,0.8725346,-0.15794456,0.03186333,0.4612176,0.56429565
94192000,-0.24646696,0.20284097,0.9500769,0,0.872304,-0.15470588,0.033421207,0.46263906,0.56431824
94216000,-0.25270498,0.20300297,0.9439889,0,0.87320983,-0.1573632,0.032528795,0.4600904,0.5643404
94240000,-0.24524279,0.20316474,0.94752413,0,0.8729648,-0.15419993,0.034044288,0.4615147,0.56434876
94264000,-0.24714899,0.20332618,0.9444705,0,0.87350935,-0.15501574,0.033912484,0.46021888,0.5643462
94288000,-0.24403436,0.2034681,0.9449713,0,0.87362415,-0.153695,0.03465347,0.46038872,0.5644789
94312000,-0.24596213,0.2036151,0.9419174,0,0.874167,-0.1545167,0.034510702,0.45909226,0.56458014
94336000,-0.23841396,0.20376462,0.9454517,0,0.87392074,-0.15131305,0.036041986,0.46050823,0.56466734
94360000,-0.24040152,0.20391688,0.9423918,0,0.87446254,-0.15216014,0.035884522,0.45921108,0.56475085
94384000,-0.23715404,0.20407094,0.9428933,0,0.8745823,-0.15078296,0.03666053,0.45937607,0.56481993
94408000,-0.2391248,0.20424482,0.9398298,0,0.8751234,-0.15162697,0.036517132,0.45807722,0.56468195
94432000,-0.23153916,0.20442335,0.9433716,0,0.87486726,-0.14841338,0.038070638,0.4594905,0.5645175
94456000,-0.23357758,0.20460242,0.940308,0,0.87540567,-0.14928631,0.037910305,0.45819378,0.5643482
94480000,-0.23048119,0.20478229,0.9408084,0,0.8755081,-0.14797983,0.038662314,0.45835862,0.56416607
94504000,-0.23250529,0.20494999,0.9377473,0,0.87604654,-0.14884372,0.03850057,0.45706195,0.56405866
94528000,-0.22507884,0.20512411,0.94129163,0,0.87576985,-0.14569889,0.04001655,0.45847327,0.56393147
94552000,-0.23156425,0.20530121,0.93518233,0,0.8766769,-0.1484581,0.03906178,0.4559298,0.5638037
94576000,-0.22408372,0.20547993,0.9387319,0,0.87640315,-0.14528923,0.040588316,0.45734143,0.5636683
94600000,-0.22619414,0.20562224,0.9356634,0,0.87694,-0.14618321,0.04039313,0.45604292,0.5638385
94624000,-0.2187597,0.20576936,0.9392166,0,0.87665564,-0.14302915,0.04189931,0.45745158,0.56397676
94648000,-0.22531785,0.20591849,0.9331015,0,0.8775664,-0.14581119,0.040911194,0.4549094,0.5640968
94672000,-0.21785222,0.20606737,0.93664527,0,0.87728703,-0.14264214,0.042422425,0.45631248,0.5642136
94696000,-0.22000432,0.20619035,0.93358016,0,0.8778227,-0.14354837,0.042205993,0.45501623,0.5645045
94720000,-0.21259458,0.20632191,0.93713766,0,0.8775289,-0.14040175,0.043700233,0.45642152,0.5647509
94744000,-0.21916796,0.20645544,0.93101877,0,0.8784461,-0.14318433,0.04269739,0.4538807,0.5649725
94768000,-0.21169832,0.20659441,0.9345661,0,0.8781589,-0.14001131,0.044205733,0.45527962,0.5651879
94792000,-0.21389347,0.20674397,0.93148655,0,0.87869436,-0.14094009,0.043989472,0.45397907,0.56530046
94816000,-0.20642945,0.20689936,0.9350452,0,0.8783947,-0.1377748,0.0455074,0.45537892,0.5653752
94840000,-0.20342742,0.20705645,0.93555236,0,0.8784742,-0.13650218,0.046226017,0.45553634,0.56542647
94864000,-0.20569824,0.20721355,0.93247575,0,0.8790076,-0.13746321,0.045990016,0.4542404,0.56545824
94888000,-0.19833359,0.20738916,0.93603027,0,0.8786876,-0.1343484,0.047501706,0.45563403,0.56528556
94912000,-0.2007105,0.20756866,0.9329562,0,0.87921435,-0.13535938,0.047247965,0.45434314,0.5650884
94936000,-0.19347058,0.20774737,0.9365122,0,0.8788776,-0.13230161,0.048736613,0.45573595,0.56487817
94960000,-0.20036003,0.207927,0.93037206,0,0.8797998,-0.1352219,0.047661543,0.45320603,0.56467307
94984000,-0.193011,0.20810746,0.9339212,0,0.87947315,-0.13211489,0.049172398,0.4545928,0.56447333
95008000,-0.19541502,0.20826101,0.9308435,0,0.8800019,-0.13313036,0.048899073,0.45330098,0.564453
95032000,-0.18814695,0.20841862,0.9343987,0,0.8796625,-0.13005564,0.050385024,0.45468763,0.5644058
95056000,-0.19511448,0.2085761,0.9282487,0,0.8805878,-0.13300285,0.049279857,0.45215783,0.5643536
95080000,-0.1878212,0.20873456,0.9318087,0,0.8802505,-0.1299158,0.05076772,0.45354566,0.56428975
95104000,-0.19031246,0.20889309,0.9287247,0,0.8807757,-0.13096905,0.050475206,0.4522539,0.5641988
95128000,-0.18304613,0.20905524,0.93228424,0,0.88042885,-0.12789613,0.051962573,0.45363802,0.5640902
95152000,-0.1901116,0.20921811,0.9261374,0,0.8813512,-0.13088554,0.05083457,0.45111522,0.5639492
95176000,-0.18283804,0.20938174,0.9296967,0,0.88100654,-0.12780821,0.0523203,0.4524988,0.5638019
95200000,-0.17569262,0.20955014,0.9332583,0,0.88063955,-0.124792516,0.05378938,0.45388058,0.56360847
95224000,-0.17834836,0.20972154,0.93016624,0,0.8811624,-0.12591676,0.053457547,0.45259258,0.5634102
95248000,-0.17111997,0.20989342,0.9337295,0,0.8807931,-0.122866854,0.054950587,0.45396897,0.56320596
95272000,-0.1783714,0.21006544,0.92757165,0,0.8817245,-0.12593222,0.05376869,0.4514553,0.5629895
95296000,-0.17124642,0.21021499,0.9311437,0,0.8813503,-0.12292166,0.055223767,0.4528379,0.5629165
95320000,-0.17405698,0.21037064,0.92805386,0,0.8818651,-0.12410948,0.054848377,0.45155555,0.5628173
95344000,-0.16703033,0.21052718,0.93162364,0,0.8814784,-0.1211452,0.056288023,0.45293626,0.5627032
95368000,-0.16978772,0.210686,0.9285272,0,0.88200045,-0.12230865,0.055923562,0.45165068,0.56258804
95392000,-0.16723868,0.21084026,0.92902416,0,0.88203317,-0.121232085,0.05653767,0.45180032,0.5624999
95416000,-0.16999005,0.21099883,0.92592597,0,0.8825542,-0.122393064,0.056176305,0.45051336,0.5623909
95440000,-0.16300115,0.21115889,0.92949843,0,0.88216037,-0.11944619,0.05760826,0.45189282,0.5622674
95464000,-0.15596932,0.21131793,0.9330658,0,0.8817575,-0.116484135,0.059059814,0.45326272,0.562147
95488000,-0.16348618,0.21143104,0.92688966,0,0.8827023,-0.119644254,0.057775866,0.45075923,0.56239194
95512000,-0.15652253,0.21155064,0.93046933,0,0.88229793,-0.11670231,0.059189443,0.45213658,0.56259143
95536000,-0.15944496,0.21167205,0.9273674,0,0.88281894,-0.117926955,0.058765702,0.4508553,0.56276786
95560000,-0.1524424,0.21179563,0.93094504,0,0.882411,-0.11497004,0.06019336,0.45222726,0.5629215
95584000,-0.15533623,0.2119232,0.927838,0,0.88293713,-0.116181895,0.059776258,0.45094422,0.5630639
95608000,-0.15310217,0.21207806,0.9283352,0,0.8829443,-0.11524435,0.060320232,0.45109826,0.56292546
95632000,-0.15610929,0.21223746,0.9252292,0,0.8834593,-0.116513684,0.05989388,0.4498187,0.5627705
95656000,-0.14925046,0.2123984,0.9288051,0,0.88303816,-0.11362809,0.061304767,0.45119175,0.5626142
95680000,-0.14244784,0.21255991,0.9323882,0,0.88259995,-0.11077181,0.06271258,0.45256388,0.5624398
95704000,-0.14558487,0.2127274,0.92928064,0,0.8831167,-0.112096205,0.062251378,0.45129147,0.56216043
95728000,-0.14343627,0.21290065,0.9297809,0,0.88311285,-0.11120103,0.06278546,0.45144665,0.5618545
95752000,-0.14667699,0.21307415,0.9266703,0,0.8836217,-0.11257304,0.062306233,0.45017558,0.5615542
95776000,-0.13993807,0.21324958,0.93025887,0,0.88317615,-0.10974786,0.06370403,0.45154977,0.56125283
95800000,-0.14315532,0.2134162,0.9271422,0,0.88369054,-0.111106515,0.06322491,0.45027643,0.56102306
95824000,-0.13647404,0.21358487,0.93073285,0,0.8832368,-0.10830684,0.064609535,0.45165023,0.56077933
95848000,-0.13440314,0.21375309,0.9312376,0,0.88322395,-0.10744558,0.065124884,0.451807,0.560529
95872000,-0.13763128,0.21392073,0.92812806,0,0.8837404,-0.108807445,0.06463936,0.45053923,0.5602635
95896000,-0.13093826,0.21406381,0.93171847,0,0.8832809,-0.1059994,0.06602025,0.45190755,0.5601876
95920000,-0.13438725,0.21421255,0.92860144,0,0.88379085,-0.10745321,0.06547455,0.45064473,0.56009
95944000,-0.12784639,0.21436149,0.93219644,0,0.88331723,-0.104715176,0.066826165,0.45201734,0.55997896
95968000,-0.13131337,0.21451169,0.929079,0,0.88382864,-0.10617608,0.06627488,0.45075616,0.55987054
95992000,-0.12945247,0.21464962,0.9295832,0,0.88380486,-0.10540074,0.06672908,0.4509178,0.5598852
96016000,-0.12294486,0.21479146,0.9331748,0,0.88332367,-0.102678,0.06807476,0.45228577,0.55988455
96040000,-0.12640052,0.21493375,0.93005514,0,0.8838407,-0.10413021,0.06751897,0.45102516,0.5598768
96064000,-0.11990215,0.21507712,0.9336545,0,0.8833528,-0.10141349,0.06886546,0.45239425,0.5598497
96088000,-0.12352636,0.21521002,0.93053716,0,0.8838636,-0.10293706,0.06826517,0.45114166,0.5598835
96112000,-0.121766314,0.2153498,0.9310402,0,0.8838318,-0.102207184,0.068698645,0.45130414,0.5598856
96136000,-0.12541834,0.21549022,0.92791486,0,0.8843394,-0.103745475,0.06809911,0.45004797,0.55988353
96160000,-0.119144246,0.21563247,0.93151045,0,0.88384163,-0.10112685,0.069392234,0.45142218,0.5598807
96184000,-0.11277805,0.21577731,0.9351107,0,0.8833367,-0.09847233,0.070716076,0.45279,0.5598625
96208000,-0.116432734,0.21591295,0.9319873,0,0.8838532,-0.10000692,0.070105106,0.4515389,0.55989206
96232000,-0.11016073,0.21605368,0.9355916,0,0.8833392,-0.097394526,0.071407974,0.45290953,0.559893
96256000,-0.11847569,0.2161963,0.9293737,0,0.8843227,-0.10088082,0.069901735,0.45045564,0.55987424
96280000,-0.11216509,0.21633981,0.93298364,0,0.88381374,-0.09825024,0.07120935,0.45182896,0.55984503
96304000,-0.11599144,0.21648778,0.9298628,0,0.8843193,-0.09986357,0.070566505,0.45058522,0.55973613
96328000,-0.1097957,0.21664031,0.9334767,0,0.8838,-0.09728711,0.071854204,0.45196217,0.55959165
96352000,-0.10357112,0.21679345,0.9370882,0,0.8832722,-0.094702095,0.07315768,0.4533319,0.55943537
96376000,-0.11213781,0.21694767,0.9308642,0,0.8842565,-0.098296404,0.07158999,0.45089152,0.55927134
96400000,-0.10604929,0.21708234,0.9344789,0,0.88372755,-0.095765516,0.07284923,0.45226932,0.55929637
96424000,-0.11001384,0.21722294,0.931353,0,0.8842335,-0.097435504,0.07216743,0.4510314,0.5593099
96448000,-0.10383875,0.21736442,0.93496764,0,0.88370544,-0.09486901,0.07345126,0.45240414,0.5593039
96472000,-0.107835285,0.21750708,0.9318451,0,0.88421094,-0.09655276,0.07276131,0.45116997,0.5592784
96496000,-0.1018244,0.21763086,0.9354642,0,0.8836723,-0.09405625,0.07400192,0.45254883,0.55940795
96520000,-0.100415505,0.21776001,0.93597454,0,0.8836151,-0.09348129,0.07435423,0.45272177,0.55951667
96544000,-0.10449607,0.21789137,0.93284416,0,0.8841225,-0.09519786,0.07363785,0.45148915,0.55962336
96568000,-0.09849649,0.218025,0.9364614,0,0.8835784,-0.092710346,0.074883744,0.45286468,0.5597057
96592000,-0.10264171,0.21817829,0.93334156,0,0.8840808,-0.09445985,0.07416051,0.45164007,0.5595616
96616000,-0.096743174,0.21833669,0.93696445,0,0.883527,-0.09202378,0.07539603,0.4530201,0.559389
96640000,-0.090847306,0.21850236,0.94058263,0,0.88296413,-0.08959438,0.0766428,0.45439324,0.55921793
96664000,-0.09965694,0.21866237,0.9343517,0,0.88396364,-0.09328519,0.075002536,0.45197424,0.55902684
96688000,-0.09374101,0.21880373,0.9379763,0,0.8834072,-0.090839654,0.07623745,0.45335165,0.55890155
96712000,-0.09796006,0.21895711,0.93485427,0,0.88391125,-0.09261933,0.07549369,0.45213172,0.55875885
96736000,-0.09214548,0.21911818,0.9384779,0,0.88334715,-0.09022397,0.07671608,0.4535109,0.55861795
96760000,-0.09637631,0.2192735,0.93534964,0,0.88385355,-0.0920082,0.07596951,0.45228976,0.55847174
96784000,-0.090550825,0.21942885,0.93897,0,0.88328886,-0.089607686,0.077193536,0.45366547,0.5583228
96808000,-0.08938187,0.21957536,0.93947685,0,0.8832175,-0.08914364,0.07750112,0.4538434,0.5582666
96832000,-0.09373871,0.21972725,0.936349,0,0.8837211,-0.09098136,0.07672208,0.45262903,0.5581776
96856000,-0.08798454,0.21987905,0.939974,0,0.8831489,-0.08861351,0.077930935,0.4540071,0.5580758
96880000,-0.09242557,0.22003073,0.93684435,0,0.88365054,-0.09048752,0.07713163,0.45279616,0.5579665
96904000,-0.08680505,0.22019309,0.9404721,0,0.8830695,-0.08818213,0.07831608,0.45417923,0.5577055
96928000,-0.08120154,0.22036062,0.94409966,0,0.88247854,-0.085889354,0.07950694,0.45555824,0.5574261
96952000,-0.090309806,0.22052853,0.93784904,0,0.8834889,-0.08970223,0.07778662,0.4531558,0.557161
96976000,-0.08465164,0.22069599,0.94147587,0,0.88290644,-0.08738302,0.07898433,0.4545347,0.5568967
97000000,-0.0891399,0.22086748,0.9383375,0,0.8834105,-0.08927982,0.078180365,0.45332426,0.5565882
97024000,-0.08348338,0.22104381,0.94197047,0,0.88282466,-0.086964525,0.0793826,0.45470458,0.5562723
97048000,-0.08801456,0.2212201,0.9388338,0,0.8833272,-0.08888063,0.078569904,0.45349744,0.55596477
97072000,-0.08247163,0.22139432,0.9424573,0,0.88273734,-0.086615585,0.07974698,0.45487687,0.5556759
97096000,-0.081638426,0.22150879,0.9429675,0,0.8826507,-0.0862938,0.07996523,0.455068,0.5559454
97120000,-0.08625374,0.22163159,0.9398292,0,0.88315517,-0.08823383,0.079107866,0.45386535,0.55617344
97144000,-0.08075501,0.22175528,0.94346297,0,0.8825615,-0.085978895,0.08025421,0.4552495,0.5563699
97168000,-0.085439764,0.22188076,0.94032925,0,0.88306284,-0.08794974,0.07938117,0.45405236,0.5565346
97192000,-0.07992536,0.22204016,0.943966,0,0.8824659,-0.08569677,0.080547795,0.455436,0.55631495
97216000,-0.084577195,0.22220376,0.9408257,0,0.88296896,-0.08766064,0.079698525,0.45423526,0.556098
97240000,-0.08381195,0.22236657,0.9413464,0,0.88287455,-0.087379895,0.07992179,0.45443353,0.5558574
97264000,-0.07835071,0.22252798,0.944987,0,0.88227224,-0.08515254,0.0810791,0.4558191,0.55560035
97288000,-0.08308137,0.22265929,0.9418467,0,0.8827755,-0.08714275,0.08019582,0.45462316,0.55564475
97312000,-0.07761123,0.2227956,0.9454817,0,0.8821752,-0.08490641,0.08134522,0.4560051,0.5556781
97336000,-0.08234177,0.222933,0.9423417,0,0.882679,-0.086897306,0.08046382,0.45481002,0.55570674
97360000,-0.07704368,0.223071,0.94597787,0,0.88207006,-0.084738046,0.08157561,0.45619857,0.5557392
97384000,-0.0763724,0.22321028,0.9464926,0,0.88197297,-0.08449426,0.08176868,0.45639703,0.5557636
97408000,-0.081209615,0.22334954,0.94335043,0,0.8824741,-0.08653146,0.08086233,0.4552065,0.5557559
97432000,-0.0759352,0.22349569,0.9469925,0,0.88186073,-0.084386006,0.08197377,0.45659712,0.5557165
97456000,-0.080773264,0.22364195,0.9438511,0,0.88236177,-0.0864246,0.081069626,0.4554076,0.5556656
97480000,-0.07540917,0.22378829,0.94749737,0,0.8817507,-0.08424052,0.082202174,0.4567956,0.55560076
97504000,-0.08025832,0.22393984,0.94435287,0,0.8822523,-0.086284444,0.081297256,0.4556058,0.5554362
97528000,-0.07501841,0.2240967,0.947998,0,0.8816348,-0.08415815,0.082406916,0.45699742,0.55524886
97552000,-0.07445495,0.2242545,0.94851905,0,0.8815302,-0.08396676,0.082583666,0.4572025,0.55504656
97576000,-0.079376124,0.22441116,0.9453734,0,0.88202995,-0.086042464,0.081663206,0.4560163,0.5548402
97600000,-0.0741712,0.2245398,0.94902515,0,0.88140976,-0.0839268,0.08275358,0.4574112,0.5548994
97624000,-0.07915222,0.22467649,0.94588184,0,0.88190806,-0.086023964,0.08180994,0.45622927,0.55495256
