timestamp,control[0],control[1],control[2],control[3],control[4]
12000000,0.026351975,0.015836097,-0.003152699,0.15,0.11000018
12004000,0.025357544,0.015893975,-0.003078315,0.15,0.10000018
12008000,0.024333706,0.015867589,-0.002813333,0.15,0.09000018
12012000,0.024542704,0.01585418,-0.002951215,0.15,0.080000184
12016000,0.024445713,0.01577443,-0.002860825,0.15,0.07000019
12020000,0.024714632,0.015913839,-0.003423214,0.15,0.06000019
12024000,0.024410008,0.016050214,-0.003434742,0.15,0.05000019
12028000,0.024801366,0.016192308,-0.003212481,0.15,0.040000193
12032000,0.025085937,0.016189763,-0.003106779,0.15,0.030000193
12036000,0.02495651,0.015938444,-0.003186667,0.15,0.020000193
12040000,0.0247688,0.015767785,-0.003479434,0.15,0.010000194
12044000,0.024886362,0.015763134,-0.003588757,0.15,1.94E-07
12048000,0.025855124,0.015874026,-0.003385964,0.15,0
12052000,0.027316147,0.016014379,-0.002994168,0.15,0
12056000,0.028438997,0.015907338,-0.002753623,0.15,0
12060000,0.02870895,0.01575984,-0.00269602,0.15,0
12064000,0.028597789,0.015832452,-0.002906645,0.15,0
12068000,0.02788523,0.01587182,-0.003034637,0.15,0
12072000,0.026764255,0.015742913,-0.003113517,0.15,0
12076000,0.026755763,0.015720392,-0.003114141,0.15,0
12080000,0.02578241,0.015403261,-0.003214672,0.15,0
12084000,0.026358016,0.015272149,-0.002985433,0.15,0
12088000,0.026647516,0.015284818,-0.00288628,0.15,0
12092000,0.026637133,0.015299069,-0.002864481,0.15,0
12096000,0.026271705,0.015359395,-0.00293076,0.15,0
12100000,0.025526995,0.015491265,-0.003161024,0.15,0
12104000,0.024888495,0.015505529,-0.003363598,0.15,0
12108000,0.024660693,0.015507583,-0.003304114,0.15,0
12112000,0.025345549,0.01556102,-0.003224679,0.15,0
12116000,0.025747493,0.015525505,-0.002927161,0.15,0
12120000,0.025460016,0.015450891,-0.002666573,0.15,0
12124000,0.025553467,0.015294999,-0.002445069,0.15,0
12128000,0.026415851,0.015138267,-0.002441302,0.15,0
12132000,0.027064018,0.015162362,-0.002703656,0.15,0
12136000,0.027383223,0.015186833,-0.002908238,0.15,0
12140000,0.027944868,0.015147343,-0.002995038,0.15,0
12144000,0.028557548,0.01515575,-0.003017127,0.15,0
12148000,0.028113605,0.015078861,-0.002831923,0.15,0
12152000,0.02692118,0.014921536,-0.002483371,0.15,0
12156000,0.025278036,0.01483159,-0.001913555,0.15,0
12160000,0.024184957,0.014869661,-0.001921559,0.15,0
12164000,0.02427251,0.014962024,-0.002215029,0.15,0
12168000,0.025267504,0.014947487,-0.002662402,0.15,0
12172000,0.025257817,0.01491625,-0.002663228,0.15,0
12176000,0.02554698,0.014831775,-0.002895313,0.15,0
12180000,0.024753196,0.014946759,-0.002472079,0.15,0
12184000,0.02422026,0.01509359,-0.002337386,0.15,0
12188000,0.02494226,0.015327571,-0.002581933,0.15,0
12192000,0.02610468,0.015503367,-0.002757026,0.15,0
12196000,0.02633946,0.015368347,-0.00264116,0.15,0
12200000,0.025683668,0.015033032,-0.002400638,0.15,0
12204000,0.025916005,0.01480409,-0.002530476,0.15,0
12212000,0.026018633,0.01516372,-0.00258453,0.15,0
12216000,0.024756944,0.01513546,-0.002843387,0.15,0
12220000,0.023938127,0.014940324,-0.002992592,0.15,0
12224000,0.023922132,0.014877711,-0.00298068,0.15,0
12228000,0.024879063,0.014993499,-0.002954284,0.15,0
12232000,0.026093276,0.014893555,-0.002553296,0.15,0
12236000,0.02716671,0.01463573,-0.002329944,0.15,0
12240000,0.027528647,0.014686073,-0.002314069,0.15,0
12244000,0.027569136,0.014851948,-0.002510883,0.15,0
12248000,0.027501319,0.014854154,-0.002825643,0.15,0
12252000,0.028425232,0.014907215,-0.003471011,0.15,0
12256000,0.029051248,0.015051363,-0.00342066,0.15,0
12260000,0.02924882,0.015051715,-0.003390708,0.15,0
12264000,0.028282793,0.014830533,-0.003428704,0.15,0
12268000,0.02827141,0.014796903,-0.003429605,0.15,0
12272000,0.026463868,0.014579663,-0.003556742,0.15,0
12276000,0.021049088,0.014869597,5.30E-05,0,0
12280000,0.021242619,0.015196359,0.000769831,0,0
12284000,0.020635027,0.015416893,0.001422052,0,0
12288000,0.019885916,0.015583491,0.000994159,0,0
12292000,0.019563187,0.015660167,-0.000187304,0,0
12296000,0.019708792,0.015584408,-0.000833065,0,0
12300000,0.0209101,0.015373301,-0.000731174,1,0
12304000,0.022474766,0.014994129,-0.000804069,1,0
12308000,0.022751853,0.014558653,-0.000650218,1,0
12312000,0.022293182,0.014341373,6.96E-05,1,0
12316000,0.022267636,0.014328563,0.001663443,1,0
12320000,0.022339256,0.014417086,0.003992589,1,0
12324000,0.022315223,0.014746676,0.005112712,1,0
12328000,0.022428915,0.015015227,0.004638947,1,0
12332000,0.022670897,0.014847605,0.00332837,1,0
12336000,0.022375772,0.014518308,0.001666702,1,0
12340000,0.021238472,0.014291632,0.000376189,1,0
12344000,0.020554094,0.01413052,-0.000192625,1,0
12348000,0.021525634,0.014110576,0.000120424,1,0
12352000,0.022888327,0.014304969,0.00100379,1,0
12356000,0.02309627,0.01462413,0.001511286,1,0
12360000,0.02253905,0.014937612,0.00147324,1,0
12364000,0.021612471,0.015010398,0.001714568,1,0
12368000,0.020377036,0.014759934,0.002159816,1,0
12376000,0.019005597,0.014566795,0.002471077,1,0
12380000,0.018546022,0.014601762,0.003020898,1,0
12384000,0.018899309,0.01455775,0.002433474,1,0
12388000,0.020259686,0.014512884,0.000386835,1,0
12392000,0.021097941,0.014392349,-0.000638313,1,0
12396000,0.020888325,0.014290398,-0.000346176,1,0
12400000,0.020642422,0.014465775,0.000746322,1,0
12404000,0.021208098,0.014760654,0.002404178,1,0
12408000,0.021902941,0.014854748,0.003519472,1,0
12412000,0.02217351,0.014701251,0.003886867,1,0
12420000,0.022425953,0.014366306,0.002974081,1,0
12428000,0.021233873,0.014632003,0.001899989,1,0
12432000,0.021417795,0.014486497,0.002954164,1,0
12436000,0.021677166,0.014239882,0.003056814,1,0
12440000,0.021864807,0.014159425,0.00303429,1,0
12444000,0.020795975,0.014287379,0.003695259,1,0
12452000,0.018295461,0.014423908,0.005554128,1,0
12456000,0.01870748,0.014535549,0.004918795,1,0
12460000,0.019848512,0.014572118,0.003875366,1,0
12464000,0.02072884,0.014494584,0.004001752,1,0
12468000,0.021062996,0.014500067,0.005094006,1,0
12472000,0.020987684,0.01455756,0.005159888,1,0
12480000,0.020033274,0.014433915,0.004684369,1,0
12484000,0.020623066,0.014356049,0.004377658,1,0
12488000,0.021269402,0.014439303,0.004011772,1,0
12492000,0.021041539,0.014448788,0.004209235,1,0
12496000,0.020939782,0.014399145,0.004181089,1,0
12500000,0.02119575,0.01434993,0.004133154,1,0
12504000,0.021180805,0.014226734,0.003214127,1,0
12508000,0.021183774,0.014207992,0.003213339,1,0
12512000,0.021558614,0.014029567,0.002431792,1,0
12516000,0.022108791,0.013976347,0.002733305,1,0
12524000,0.021446962,0.014047969,0.002813287,1,0
12528000,0.021781597,0.013820875,0.003269386,1,0
12531999,0.022190416,0.013613364,0.003848266,1,0
12536000,0.022239767,0.013750399,0.003861757,1,0
12540000,0.021838054,0.01409597,0.003692471,1,0
12544000,0.021351987,0.014295103,0.003031558,1,0
12548000,0.021889392,0.01411951,0.00273502,1,0
12551999,0.023245277,0.013788593,0.002555551,1,0
12556000,0.02326746,0.013785718,0.002537351,1,0
12560000,0.024095593,0.013857311,0.002048058,1,0
12563999,0.023317227,0.014019954,0.001968883,1,0
12568000,0.022913635,0.014053223,0.002165719,1,0
12572000,0.02292251,0.014055437,0.002202666,1,0
12576000,0.02212761,0.014217472,0.002395943,1,0
12583999,0.021050313,0.014310602,0.002138512,1,0
12588000,0.020447373,0.01334341,0.002076421,1,0
12592000,0.021370128,0.01300506,0.001948312,1,0
12595999,0.021793522,0.012699428,0.001838272,1,0
12600000,0.021450462,0.012686681,0.001587766,1,0
12604000,0.020871997,0.013006095,0.001465361,1,0
12608000,0.020333854,0.013280934,0.001372023,1,0
12612000,0.01991226,0.013312012,0.001344767,1,0
12615999,0.019817345,0.01327859,0.001305546,1,0
12620000,0.019824069,0.013287344,0.001320969,1,0
12624000,0.020339696,0.013400425,0.001473121,1,0
12627999,0.019820139,0.013351738,0.001347413,1,0
12632000,0.019006558,0.013140788,0.001058816,1,0
12636000,0.019549444,0.012977622,0.000676046,1,0
12640000,0.02104953,0.013072314,0.000229745,1,0
12644000,0.0215802,0.013143275,-0.000143169,1,0
12647999,0.020656133,0.012962092,-0.000392207,1,0
12652000,0.01984302,0.012659172,-0.000563788,1,0
12656000,0.019641265,0.012383338,-0.000676539,1,0
12659999,0.019919623,0.012217188,-0.00085617,1,0
12668000,0.020880604,0.012212606,-0.001282399,1,0
12672000,0.022243956,0.012214863,-0.002277795,1,0
12676000,0.022257661,0.012023128,-0.003073497,1,0
12684000,0.020506835,0.01212475,-0.004772803,1,0
12688000,0.013275269,0.00925378,-0.005697162,1,0
12691999,0.013291097,0.009131006,-0.006844301,1,0
12700000,0.014244084,0.008846753,-0.008890558,1,0
12704000,0.014200152,0.008849658,-0.009876546,1,0
12708000,0.013806155,0.008947106,-0.011035725,1,0
12711999,0.013792505,0.008887596,-0.01166499,1,0
12716000,0.014224171,0.008690531,-0.012677435,1,0
12720000,0.014472873,0.008581177,-0.013521381,1,0
12723999,0.014265473,0.008488156,-0.014650116,1,0
12732000,0.013638881,-0.39099547,-0.01651449,1,0
12736000,0.013125178,-0.39130995,-0.017324066,1,0
12740000,0.012445448,-0.391542,-0.018560378,1,0
12743999,0.012016613,-0.39152497,-0.019159727,1,0
12748000,0.011368701,-0.3911687,-0.02020683,1,0
12752000,0.009762201,-0.39046264,-0.021176506,1,0
12755999,0.0076354,-0.3743735,-0.022875654,1,0
12760000,0.005243189,-0.37338206,-0.024273427,1,0
12764000,0.002758172,-0.3725019,-0.026321378,1,0
12768000,0.000456224,-0.37172437,-0.02785836,1,0
12772000,-0.002118593,-0.37081304,-0.02982603,1,0
12775999,-0.005114546,-0.3695328,-0.03098433,1,0
12780000,-0.008343277,-0.35381672,-0.03264205,1,0
12784000,-0.007784803,-0.296972,-0.033761133,1,0
12787999,-0.009970666,-0.2960011,-0.03547622,1,0
12792000,-0.0120705,-0.295042,-0.036545243,1,0
12796000,-0.014177042,-0.2941186,-0.038316548,1,0
12800000,-0.01597541,-0.29334497,-0.03932712,1,0
12804000,-0.017601123,-0.28143913,-0.04095455,1,0
12807999,-0.01946087,-0.28078288,-0.0418687,1,0
12812000,-0.021722013,-0.28011465,-0.043508694,1,0
12816000,-0.02389174,-0.27935517,-0.044552222,1,0
12819999,-0.025580082,-0.27852884,-0.0462242,1,0
12824000,-0.027037054,-0.27775383,-0.047068607,1,0
12828000,-0.028059537,-0.26649913,-0.048765898,1,0
12832000,-0.028683187,-0.26592955,-0.04979767,1,0
12836000,-0.02955931,-0.26543728,-0.051425274,1,0
12839999,-0.030605236,-0.264953,-0.052288853,1,0
12844000,-0.031529594,-0.2644024,-0.053889975,1,0
12848000,-0.03257614,-0.26386294,-0.054627646,1,0
12851999,-0.033735897,-0.2532301,-0.05586289,1,0
12856000,-0.034929488,-0.25261578,-0.05635904,1,0
12860000,-0.036468204,-0.25202215,-0.05755408,1,0
12864000,-0.03827235,-0.25145587,-0.057939634,1,0
12868000,-0.039647136,-0.25098285,-0.05905604,1,0
12876000,-0.040519875,-0.2405818,-0.0603444,1,0
12880000,-0.040760532,-0.2402792,-0.06060134,1,0
12883999,-0.03286324,-0.21341479,-0.061714917,1,0
12888000,-0.03338533,-0.21330364,-0.062121473,1,0
12892000,-0.033878133,-0.21326083,-0.06310525,1,0
12900000,-0.034537364,-0.2049457,-0.06424968,1,0
12908000,-0.035608247,-0.20472689,-0.065394185,1,0
12912000,-0.036355138,-0.20476986,-0.06555867,1,0
12920000,-0.037485283,-0.2051842,-0.06612843,1,0
12924000,-0.037657212,-0.19772132,-0.06679038,1,0
12932000,-0.038382474,-0.19799528,-0.06762524,1,0
12935999,-0.039033018,-0.1987095,-0.067183554,1,0
12940000,-0.03916384,-0.19904955,-0.06758334,1,0
12944000,-0.03945114,-0.19950001,-0.067300364,1,0
12947999,-0.040086,-0.19252643,-0.06754247,1,0
12952000,-0.040919226,-0.1930041,-0.06720743,1,0
12956000,-0.04172955,-0.19349626,-0.06745185,1,0
12960000,-0.04251715,-0.19399741,-0.067049146,1,0
12964000,-0.043493606,-0.1944869,-0.0669359,1,0
12967999,-0.044386595,-0.19502088,-0.06598182,1,0
12972000,-0.04460441,-0.1883602,-0.06552959,1,0
12976000,-0.044326775,-0.18884906,-0.064506575,1,0
12980000,-0.04435588,-0.18929496,-0.06393183,1,0
12984000,-0.039415423,-0.1761285,-0.06281441,1,0
12988000,-0.04019127,-0.17659551,-0.062146492,1,0
12992000,-0.040894274,-0.17705552,-0.061022773,1,0
12996000,-0.041497543,-0.17112266,-0.060318984,1,0
12999999,-0.042338178,-0.17169102,-0.059154816,1,0
13004000,-0.04338701,-0.17223647,-0.058462,1,0
13008000,-0.04429346,-0.17271523,-0.05748251,1,0
13012000,-0.04493941,-0.17314388,-0.056951076,1,0
13016000,-0.04551746,-0.1735593,-0.05589799,1,0
13019999,-0.046179134,-0.16770823,-0.055097602,1,0
13024000,-0.046935637,-0.16807206,-0.05395753,1,0
13028000,-0.04767793,-0.1684617,-0.053234857,1,0
13036000,-0.048823584,-0.16924497,-0.05148553,1,0
13040000,-0.050382026,-0.16963439,-0.048782945,1,0
13044000,-0.05146807,-0.16394639,-0.047343567,1,0
13048000,-0.052398197,-0.16435668,-0.045661945,1,0
13052000,-0.053216364,-0.1647295,-0.044197585,1,0
13056000,-0.053910036,-0.16498499,-0.04231337,1,0
13060000,-0.054373927,-0.16533555,-0.041252386,1,0
13063999,-0.055253886,-0.16537254,-0.03832256,1,0
13068000,-0.056205936,-0.15966098,-0.03636685,1,0
13072000,-0.057029963,-0.1598109,-0.03429731,1,0
13076000,-0.057543352,-0.15991092,-0.032403093,1,0
13080000,-0.057873268,-0.16003981,-0.030378582,1,0
13083999,-0.051941726,-0.14992377,-0.028591648,1,0
13088000,-0.052367274,-0.1500369,-0.026586367,1,0
13092000,-0.052922994,-0.1447494,-0.024622463,1,0
13095999,-0.05337234,-0.14479737,-0.022561835,1,0
13100000,-0.053759158,-0.14482534,-0.020682683,1,0
13104000,-0.054301977,-0.14487918,-0.018760001,1,0
13108000,-0.05490955,-0.1449462,-0.016850565,1,0
13112000,-0.05553001,-0.14492218,-0.014870888,1,0
13115999,-0.056208733,-0.13961947,-0.012923366,1,0
13120000,-0.056857612,-0.1396273,-0.010905596,1,0
13124000,-0.057414588,-0.13969332,-0.00894756,1,0
13127999,-0.05793749,-0.13969405,-0.006986101,1,0
13132000,-0.058391485,-0.13961014,-0.005069683,1,0
13136000,-0.058803003,-0.13955875,-0.003232162,1,0
13140000,-0.059259035,-0.13453506,-0.001544474,1,0
13144000,-0.059472386,-0.13445814,0.000359646,1,0
13147999,-0.05976126,-0.13435957,0.002184256,1,0
13152000,-0.060137533,-0.13419536,0.00389068,1,0
13156000,-0.06049755,-0.13398954,0.005598269,1,0
13159999,-0.060937386,-0.13374266,0.007251345,1,0
13164000,-0.061404966,-0.12853959,0.00893882,1,0
13168000,-0.061808325,-0.12848131,0.010656745,1,0
13172000,-0.06205984,-0.12841788,0.012547242,1,0
13176000,-0.0621252,-0.12827273,0.014238325,1,0
13179999,-0.062226333,-0.12813666,0.015816325,1,0
13184000,-0.062470734,-0.12804101,0.017205052,1,0
13188000,-0.06262956,-0.12301481,0.01869343,1,0
13191999,-0.06257148,-0.12289262,0.020111779,1,0
13196000,-0.062423404,-0.12281783,0.021556364,1,0
13200000,-0.062304728,-0.12278365,0.022801576,1,0
13204000,-0.062299684,-0.122772835,0.024121776,1,0
13208000,-0.06255695,-0.1227786,0.025343947,1,0
13211999,-0.06296453,-0.11789227,0.026851045,1,0
13216000,-0.06312023,-0.11780255,0.027877191,1,0
13220000,-0.06325143,-0.117814936,0.0291624,1,0
13223999,-0.063334964,-0.11791786,0.030315444,1,0
13228000,-0.06323778,-0.117993966,0.031530045,1,0
13232000,-0.0631366,-0.11800998,0.032514807,1,0
13236000,-0.06334205,-0.113273755,0.03351126,1,0
13240000,-0.06377756,-0.11331813,0.034348477,1,0
13243999,-0.06405647,-0.113418326,0.035295457,1,0
13248000,-0.06404101,-0.11356594,0.036050152,1,0
13252000,-0.06390514,-0.113723114,0.036841862,1,0
13255999,-0.06379293,-0.11390431,0.03748662,1,0
13260000,-0.06389261,-0.10945076,0.038293205,1,0
13268000,-0.06462263,-0.1098197,0.04001181,1,0
13272000,-0.064614706,-0.11029556,0.04028125,1,0
13275999,-0.06429814,-0.11051656,0.040899046,1,0
13280000,-0.064023405,-0.110728115,0.04128874,1,0
13284000,-0.06410858,-0.10634244,0.041720364,1,0
13288000,-0.06445816,-0.10660254,0.042030677,1,0
13292000,-0.064828396,-0.10689555,0.042451087,1,0
13300000,-0.064789474,-0.10748022,0.043131188,1,0
13308000,-0.06485388,-0.1035874,0.04351899,1,0
13312000,-0.06493222,-0.10388485,0.043599844,1,0
13320000,-0.06524767,-0.10453091,0.043719117,1,0
13324000,-0.06560542,-0.10493446,0.04382004,1,0
13328000,-0.06594287,-0.1053156,0.043748528,1,0
13332000,-0.066327006,-0.10113585,0.043750845,1,0
13336000,-0.06658151,-0.101457566,0.043612126,1,0
13340000,-0.06672198,-0.1018299,0.043529168,1,0
13344000,-0.06695728,-0.10223599,0.043249823,1,0
13348000,-0.067408875,-0.10266231,0.04303907,1,0
13352000,-0.06801694,-0.10314689,0.04269197,1,0
13356000,-0.06833159,-0.09896782,0.042799518,1,0
13360000,-0.068982676,-0.09951022,0.04187008,1,0
13364000,-0.06922796,-0.09989905,0.041520238,1,0
13368000,-0.06939061,-0.10031749,0.041153975,1,0
13372000,-0.06970191,-0.100712895,0.04080674,1,0
13376000,-0.0700441,-0.10104376,0.040202994,1,0
13380000,-0.07031287,-0.096922666,0.03959465,1,0
13388000,-0.07097459,-0.09759485,0.038621034,1,0
13392000,-0.071500346,-0.09800819,0.037366644,1,0
13400000,-0.072360285,-0.09864119,0.035985295,1,0
13404000,-0.07261927,-0.094521455,0.03526068,1,0
13408000,-0.07283474,-0.09476051,0.03444389,1,0
13412000,-0.07309471,-0.09507692,0.033701073,1,0
13416000,-0.07336855,-0.095516756,0.032894082,1,0
13420000,-0.07373513,-0.095970996,0.032093216,1,0
13424000,-0.07401371,-0.09637624,0.031112066,1,0
13428000,-0.07409066,-0.09236345,0.030170858,1,0
13432000,-0.07427184,-0.09271223,0.029201895,1,0
13436000,-0.0746081,-0.09309236,0.028280905,1,0
13440000,-0.074907534,-0.09345128,0.027316796,1,0
13444000,-0.075082734,-0.09382033,0.026432665,1,0
13448000,-0.07519245,-0.094211675,0.025457986,1,0
13452000,-0.07546887,-0.090276346,0.024457373,1,0
13456000,-0.07584899,-0.0906832,0.023474744,1,0
13460000,-0.07606622,-0.09104898,0.02260282,1,0
13468000,-0.07651121,-0.091642044,0.02092617,1,0
13472000,-0.07675836,-0.091929935,0.019847864,1,0
13476000,-0.077085525,-0.08806683,0.018880365,1,0
13480000,-0.07733569,-0.088500425,0.017947104,1,0
13484000,-0.077403456,-0.08886532,0.017099813,1,0
13488000,-0.07728867,-0.08924822,0.016183626,1,0
13492000,-0.07717118,-0.089658596,0.015236523,1,0
13496000,-0.07722945,-0.0900724,0.014209162,1,0
13500000,-0.07759274,-0.086266354,0.013225381,1,0
13504000,-0.07811791,-0.08678415,0.012353798,1,0
13508000,-0.07835496,-0.087243244,0.011564582,1,0
13512000,-0.07826569,-0.087632254,0.01077152,1,0
13516000,-0.077999964,-0.08799786,0.009946128,1,0
13520000,-0.07763703,-0.08838512,0.009050872,1,0
13524000,-0.077633195,-0.08452278,0.008167021,1,0
13528000,-0.07813072,-0.084945776,0.007327478,1,0
13532000,-0.07865038,-0.085410394,0.006514239,1,0
13536000,-0.078934655,-0.08585412,0.005710059,1,0
13540000,-0.07921155,-0.08628569,0.004910367,1,0
13544000,-0.07954283,-0.0867572,0.004101066,1,0
13548000,-0.079724565,-0.08299255,0.003309441,1,0
13552000,-0.07982413,-0.083452486,0.002547936,1,0
13556000,-0.07982713,-0.083901614,0.001809215,1,0
13564000,-0.078981005,-0.0847238,0.00050588,1,0
13568000,-0.07892938,-0.08511936,-8.53E-05,1,0
13572000,-0.079144344,-0.0813341,-0.000636411,1,0
13576000,-0.07938184,-0.08185202,-0.00117673,1,0
13580000,-0.079572536,-0.082377434,-0.001719012,1,0
13584000,-0.07976122,-0.08284368,-0.002258183,1,0
13588000,-0.0800638,-0.08328996,-0.002764242,1,0
13592000,-0.08024882,-0.08376097,-0.00322389,1,0
13596000,-0.080493,-0.080009684,-0.003878526,1,0
13600000,-0.080171116,-0.08059034,-0.004175028,1,0
13604000,-0.08010228,-0.081061676,-0.004680194,1,0
13608000,-0.07999002,-0.081498116,-0.00511845,1,0
13612000,-0.0799371,-0.08186642,-0.005432253,1,0
13616000,-0.07996955,-0.08220928,-0.005698053,1,0
13620000,-0.07996537,-0.07842128,-0.005961224,1,0
13624000,-0.07989945,-0.07890803,-0.006181948,1,0
13628000,-0.07978742,-0.07938178,-0.006417877,1,0
13632000,-0.0796763,-0.07984933,-0.006636433,1,0
13636000,-0.079896726,-0.08032836,-0.007069733,1,0
13640000,-0.0800122,-0.08088842,-0.00706557,1,0
13644000,-0.080244005,-0.077212214,-0.007284071,1,0
13648000,-0.0803944,-0.07774061,-0.00739002,1,0
13652000,-0.08041835,-0.07823858,-0.007450878,1,0
13656000,-0.08030118,-0.07870114,-0.007533241,1,0
13660000,-0.08014884,-0.07915952,-0.007661576,1,0
13664000,-0.080063544,-0.07961938,-0.007832971,1,0
13668000,-0.08025875,-0.07592464,-0.008110752,1,0
13672000,-0.08004345,-0.076455235,-0.008025792,1,0
13676000,-0.08003648,-0.07686593,-0.007987979,1,0
13680000,-0.080228254,-0.07719782,-0.007940314,1,0
13684000,-0.08040611,-0.07768662,-0.008137926,1,0
13688000,-0.080006294,-0.07820143,-0.008003781,1,0
13692000,-0.08018687,-0.07450174,-0.008179788,1,0
13696000,-0.07995193,-0.075036235,-0.008102797,1,0
13700000,-0.080027014,-0.07541643,-0.008056618,1,0
13704000,-0.07988736,-0.07584357,-0.007920016,1,0
13708000,-0.0797939,-0.0762631,-0.007742598,1,0
13712000,-0.079894274,-0.076625966,-0.007550595,1,0
13720000,-0.08021081,-0.07329924,-0.007437345,1,0
13724000,-0.07983411,-0.07380815,-0.007273058,1,0
13728000,-0.079548426,-0.074268535,-0.007252606,1,0
13732000,-0.079381995,-0.07466866,-0.007174717,1,0
13740000,-0.07946712,-0.071317285,-0.006859705,1,0
13744000,-0.07974987,-0.07177038,-0.006722653,1,0
13748000,-0.079889,-0.07218271,-0.006557563,1,0
13752000,-0.079804435,-0.072598115,-0.006348179,1,0
13756000,-0.07975246,-0.07300952,-0.006186518,1,0
13760000,-0.07973699,-0.07343229,-0.00612129,1,0
13764000,-0.07971151,-0.069714345,-0.006050137,1,0
13768000,-0.07976906,-0.07014329,-0.005890203,1,0
13772000,-0.07987801,-0.07049064,-0.005694084,1,0
13776000,-0.07992114,-0.07082494,-0.005526587,1,0
13780000,-0.07986186,-0.0711987,-0.005375911,1,0
13784000,-0.07973603,-0.0716327,-0.005152721,1,0
13788000,-0.07966422,-0.06790277,-0.004957638,1,0
13792000,-0.07977732,-0.06835397,-0.004878765,1,0
13796000,-0.080067486,-0.06877142,-0.004806333,1,0
13804000,-0.080650434,-0.06952936,-0.004558486,1,0
13808000,-0.08049309,-0.069873415,-0.00449108,1,0
13812000,-0.08012695,-0.06599986,-0.004403847,1,0
13816000,-0.079939745,-0.066386536,-0.0042881,1,0
13820000,-0.079909414,-0.06682278,-0.004222303,1,0
13824000,-0.07995745,-0.06728858,-0.004196268,1,0
13828000,-0.080078386,-0.06770618,-0.00411428,1,0
13832000,-0.08013292,-0.0681526,-0.004132881,1,0
13836000,-0.080123805,-0.06429337,-0.004092844,1,0
13840000,-0.08019877,-0.0646033,-0.0040323,1,0
13844000,-0.080379695,-0.0649129,-0.003947036,1,0
13848000,-0.08059386,-0.06520445,-0.003889249,1,0
13852000,-0.08072806,-0.06550425,-0.003941392,1,0
13856000,-0.08065066,-0.06579983,-0.004032918,1,0
13860000,-0.080294,-0.06191816,-0.004089122,1,0
13864000,-0.07983974,-0.062324338,-0.004205914,1,0
13868000,-0.079583034,-0.0626888,-0.004384498,1,0
13872000,-0.07949882,-0.062976286,-0.004535961,1,0
13876000,-0.07953402,-0.06328103,-0.004624241,1,0
13880000,-0.079800546,-0.06367527,-0.004643061,1,0
13884000,-0.07991432,-0.059820488,-0.004660869,1,0
13892000,-0.08083062,-0.060674362,-0.004855059,1,0
13896000,-0.08062891,-0.061069366,-0.005053096,1,0
13900000,-0.080724254,-0.061406307,-0.005122838,1,0
13908000,-0.08021759,-0.05769037,-0.005602544,1,0
13912000,-0.08061076,-0.057946056,-0.005969174,1,0
13916000,-0.08075243,-0.058334794,-0.006122802,1,0
13920000,-0.080786794,-0.058759727,-0.006277399,1,0
13924000,-0.08070265,-0.05922769,-0.00645141,1,0
13928000,-0.08060217,-0.05968807,-0.00660567,1,0
13932000,-0.08061199,-0.055863947,-0.006814217,1,0
13940000,-0.08067203,-0.056607656,-0.007563399,1,0
13944000,-0.08069236,-0.05700616,-0.007954815,1,0
13948000,-0.08070728,-0.057356916,-0.008330815,1,0
13952000,-0.08062874,-0.057677057,-0.008725833,1,0
13956000,-0.08054951,-0.05378352,-0.00913603,1,0
13960000,-0.080591515,-0.054165117,-0.00955355,1,0
13964000,-0.08070157,-0.054567873,-0.009949332,1,0
13968000,-0.080736436,-0.054937355,-0.010324339,1,0
13972000,-0.08082318,-0.05523797,-0.010722389,1,0
13976000,-0.08118119,-0.055537134,-0.0111278,1,0
13980000,-0.08155879,-0.051629595,-0.011501031,1,0
13984000,-0.08167098,-0.05202697,-0.011846695,1,0
13988000,-0.08158654,-0.05245261,-0.012208541,1,0
13992000,-0.08146003,-0.0528658,-0.012619345,1,0
13996000,-0.08146922,-0.05321669,-0.013076532,1,0
14000000,-0.08163501,-0.053482313,-0.013557773,1,0
14004000,-0.08165443,-0.049483053,-0.014055779,1,0
14008000,-0.08142832,-0.04979854,-0.014533823,1,0
14012000,-0.081309505,-0.050130457,-0.015007043,1,0
14016000,-0.08135091,-0.0505139,-0.015505387,1,0
14020000,-0.08144657,-0.05097098,-0.016037438,1,0
14024000,-0.08180671,-0.05143901,-0.016506243,1,0
14028000,-0.08190523,-0.047517426,-0.016883327,1,0
14032000,-0.082422644,-0.047973566,-0.017150883,1,0
14036000,-0.08278382,-0.048376042,-0.017593645,1,0
14040000,-0.08315717,-0.048739597,-0.018122174,1,0
14044000,-0.083310716,-0.04906974,-0.018682314,1,0
14048000,-0.08321244,-0.04941015,-0.019207936,1,0
14052000,-0.08306846,-0.04552164,-0.019693779,1,0
14056000,-0.08304363,-0.04595744,-0.020236583,1,0
14060000,-0.083151184,-0.046312958,-0.020690434,1,0
14064000,-0.08328673,-0.046680223,-0.021241728,1,0
14068000,-0.08338275,-0.047061242,-0.02170058,1,0
14076000,-0.083205424,-0.043688737,-0.022510175,1,0
14084000,-0.08327007,-0.044539772,-0.023373926,1,0
14088000,-0.08316148,-0.04488713,-0.023810983,1,0
14092000,-0.08330444,-0.04524851,-0.024266941,1,0
14096000,-0.083551824,-0.045660436,-0.024762949,1,0
14100000,-0.08385312,-0.041789085,-0.025302306,1,0
14104000,-0.084136054,-0.042247027,-0.025804292,1,0
14108000,-0.08446328,-0.04275679,-0.026231973,1,0
14112000,-0.08459991,-0.043296233,-0.026621103,1,0
14116000,-0.084505916,-0.0437196,-0.02697255,1,0
14120000,-0.08447102,-0.044064175,-0.027404722,1,0
14124000,-0.084395066,-0.040128738,-0.027910758,1,0
14128000,-0.08416009,-0.040506225,-0.028362881,1,0
14132000,-0.08398083,-0.040856965,-0.028791172,1,0
14136000,-0.084059335,-0.04125856,-0.02924548,1,0
14140000,-0.08425967,-0.041701257,-0.029701468,1,0
14148000,-0.08424166,-0.038185794,-0.030455321,1,0
14152000,-0.08427507,-0.038536713,-0.030834276,1,0
14156000,-0.08437572,-0.03893938,-0.031246208,1,0
14160000,-0.08425148,-0.0393899,-0.03162222,1,0
14164000,-0.08397096,-0.039864004,-0.03197269,1,0
14168000,-0.08394017,-0.040307492,-0.03235127,1,0
14172000,-0.08407408,-0.036305703,-0.032727424,1,0
14176000,-0.08410984,-0.03665135,-0.033078726,1,0
14180000,-0.084148094,-0.03709179,-0.033369463,1,0
14184000,-0.08443416,-0.037612583,-0.03361581,1,0
14188000,-0.08484751,-0.03811796,-0.033825703,1,0
14192000,-0.08494911,-0.03856665,-0.03407607,1,0
14196000,-0.08466411,-0.0345904,-0.034373663,1,0
14200000,-0.08422245,-0.03494329,-0.034700885,1,0
14204000,-0.08386211,-0.03531064,-0.035021216,1,0
14208000,-0.083781034,-0.035734624,-0.035343785,1,0
14212000,-0.083983466,-0.03619555,-0.03561585,1,0
14220000,-0.084227815,-0.03268627,-0.036186423,1,0
14224000,-0.083856024,-0.033138826,-0.03639721,1,0
14228000,-0.08402571,-0.033518553,-0.036603928,1,0
14236000,-0.08468141,-0.0342932,-0.03692836,1,0
14240000,-0.08462843,-0.034773126,-0.037141524,1,0
14244000,-0.08468716,-0.030808821,-0.037441283,1,0
14248000,-0.08418444,-0.031345878,-0.037782855,1,0
14252000,-0.08440614,-0.03180872,-0.038070846,1,0
14256000,-0.08455647,-0.032247175,-0.038389057,1,0
14260000,-0.08431882,-0.03269223,-0.038713947,1,0
14264000,-0.08399172,-0.033137526,-0.038959198,1,0
14268000,-0.08405085,-0.029191447,-0.03912665,1,0
14272000,-0.08435382,-0.029643169,-0.039287064,1,0
14276000,-0.08448986,-0.030032953,-0.039436832,1,0
14280000,-0.0844537,-0.030422395,-0.039673112,1,0
14284000,-0.08442074,-0.030895084,-0.03991849,1,0
14292000,-0.08463488,-0.027313951,-0.04026679,1,0
14296000,-0.0846931,-0.027729895,-0.040533863,1,0
14300000,-0.08451449,-0.027995698,-0.04078384,1,0
14304000,-0.08442181,-0.028376639,-0.040903226,1,0
14308000,-0.08445121,-0.028782945,-0.040979587,1,0
14312000,-0.084421955,-0.029216316,-0.04109829,1,0
14316000,-0.084239155,-0.025238711,-0.04124148,1,0
14320000,-0.084030434,-0.02565676,-0.041427173,1,0
14324000,-0.08406874,-0.025998892,-0.041596778,1,0
14328000,-0.084347576,-0.02637007,-0.041813955,1,0
14332000,-0.08455887,-0.026816081,-0.04210073,1,0
14336000,-0.08452343,-0.027270764,-0.04234954,1,0
14340000,-0.08444576,-0.02324364,-0.042441882,1,0
14344000,-0.084448084,-0.023640238,-0.042508107,1,0
14348000,-0.08436109,-0.024005014,-0.042613402,1,0
14352000,-0.08415194,-0.024374561,-0.04280234,1,0
14356000,-0.084040776,-0.024744654,-0.04302393,1,0
14360000,-0.08418361,-0.025118329,-0.04323259,1,0
14364000,-0.08436221,-0.021078268,-0.043402363,1,0
14372000,-0.084551364,-0.022071684,-0.04373754,1,0
14376000,-0.08480787,-0.02247461,-0.043975152,1,0
14384000,-0.08453917,-0.023144776,-0.04443647,1,0
14388000,-0.08445741,-0.019033724,-0.04457677,1,0
14392000,-0.084388755,-0.019422684,-0.044719856,1,0
14396000,-0.08423054,-0.01985206,-0.044842765,1,0
14400000,-0.08420506,-0.020339083,-0.044885706,1,0
14404000,-0.084173486,-0.020849593,-0.044970684,1,0
14408000,-0.08400789,-0.021293964,-0.04508603,1,0
14416000,-0.08432354,-0.01747871,-0.04517829,1,0
14420000,-0.084551245,-0.017767953,-0.045234613,1,0
14424000,-0.08454497,-0.018085217,-0.045299888,1,0
14428000,-0.08440774,-0.018475082,-0.0453254,1,0
14432000,-0.08440499,-0.018892422,-0.045355365,1,0
14436000,-0.08456122,-0.014788345,-0.045354966,1,0
14440000,-0.08467823,-0.015201936,-0.045361046,1,0
14444000,-0.08472313,-0.015593204,-0.04536474,1,0
14448000,-0.08493931,-0.015983619,-0.045258336,1,0
14452000,-0.084992036,-0.016380876,-0.0452687,1,0
14456000,-0.08494328,-0.016749067,-0.04537112,1,0
14460000,-0.08481321,-0.012522467,-0.045391656,1,0
14468000,-0.08463617,-0.013265758,-0.045533262,1,0
14472000,-0.084834516,-0.013732327,-0.045721967,1,0
14476000,-0.08531915,-0.014137407,-0.045829277,1,0
14484000,-0.08551663,-0.010288865,-0.04581667,1,0
14488000,-0.08540213,-0.010659124,-0.04583779,1,0
14492000,-0.085442506,-0.011022212,-0.045827985,1,0
14496000,-0.08556805,-0.011383602,-0.045808706,1,0
14500000,-0.085779555,-0.011729972,-0.045803227,1,0
14504000,-0.08589087,-0.012116794,-0.045867488,1,0
14508000,-0.08572252,-0.008026715,-0.045942187,1,0
14512000,-0.08556422,-0.008476125,-0.046018533,1,0
14520000,-0.08551258,-0.009168912,-0.04607592,1,0
14524000,-0.085648574,-0.009546282,-0.046108834,1,0
14532000,-0.08571674,-0.005696422,-0.046224527,1,0
14536000,-0.085842006,-0.006107807,-0.046315916,1,0
14540000,-0.08605541,-0.006561333,-0.046411812,1,0
14544000,-0.08626293,-0.006972894,-0.046515048,1,0
14548000,-0.08639859,-0.007346587,-0.046549596,1,0
14556000,-0.086278096,-0.003573244,-0.046474602,1,0
14560000,-0.08595813,-0.003907848,-0.04650303,1,0
14564000,-0.08600166,-0.004288338,-0.046506926,1,0
14568000,-0.08553581,-0.004692409,-0.046625093,1,0
14572000,-0.08570015,-0.005126007,-0.04667356,1,0
14576000,-0.085979424,-0.005539138,-0.046712834,1,0
14584000,-0.0864431,-0.001772519,-0.046830118,1,0
14588000,-0.08650258,-0.002179142,-0.046921194,1,0
14592000,-0.08647176,-0.002588918,-0.04699163,1,0
14596000,-0.08634283,-0.002950035,-0.046987116,1,0
14604000,-0.08642188,0.000950191,-0.04680883,1,0
14612000,-0.086490385,8.71E-05,-0.04670893,1,0
14616000,-0.08636465,-0.000218332,-0.046814308,1,0
14620000,-0.08608875,-0.000502033,-0.04691418,1,0
14628000,-0.08595672,0.00326859,-0.047132693,1,0
14632000,-0.0860018,0.002898537,-0.047159858,1,0
14636000,-0.086328804,0.002492676,-0.04717533,1,0
14640000,-0.08658148,0.002077889,-0.04708888,1,0
14648000,-0.08659781,0.001152823,-0.047006756,1,0
14652000,-0.086587496,0.005359894,-0.0470407,1,0
14656000,-0.086548306,0.004988158,-0.047150485,1,0
14660000,-0.08651732,0.00460111,-0.047220767,1,0
14664000,-0.08654958,0.004220327,-0.047269,1,0
14668000,-0.08659555,0.003826857,-0.047273025,1,0
14676000,-0.08650983,0.007668957,-0.047284488,1,0
14684000,-0.08664112,0.006877575,-0.04723148,1,0
14692000,-0.086974904,0.006072315,-0.0472913,1,0
14700000,-0.08689295,0.00972531,-0.047373302,1,0
14704000,-0.08670766,0.009295899,-0.047413196,1,0
14708000,-0.08687606,0.008883923,-0.04744473,1,0
14716000,-0.08738729,0.008057479,-0.047509216,1,0
14720000,-0.08783683,0.007654475,-0.04742746,1,0
14724000,-0.087803885,0.011928337,-0.04730541,1,0
14728000,-0.08762433,0.011568356,-0.047273375,1,0
14732000,-0.08754626,0.011216085,-0.047295637,1,0
14736000,-0.087586984,0.010824245,-0.047362328,1,0
14740000,-0.08773261,0.01037802,-0.04739324,1,0
14744000,-0.08794701,0.009934934,-0.04741949,1,0
14748000,-0.088043064,0.014172703,-0.0473615,1,0
14756000,-0.08824846,0.013503157,-0.047209665,1,0
14760000,-0.088318616,0.013049603,-0.047240138,1,0
14764000,-0.088202,0.012527406,-0.047278173,1,0
14768000,-0.08789425,0.012045424,-0.047331598,1,0
14772000,-0.087632105,0.01630525,-0.04729732,1,0
14776000,-0.08755413,0.015957382,-0.0472496,1,0
14780000,-0.08762613,0.015562186,-0.047184456,1,0
14788000,-0.08821435,0.014546989,-0.047142804,1,0
14792000,-0.08843261,0.014047546,-0.04720417,1,0
14796000,-0.08847615,0.018248389,-0.04722158,1,0
14800000,-0.08842285,0.017812181,-0.047248602,1,0
14804000,-0.08828044,0.017425137,-0.047281507,1,0
14808000,-0.08803209,0.017073672,-0.047343746,1,0
14812000,-0.08777789,0.016749104,-0.047352336,1,0
14816000,-0.087486856,0.016380398,-0.047420155,1,0
14820000,-0.08714363,0.020570258,-0.047473744,1,0
14824000,-0.08691284,0.020044923,-0.047480397,1,0
14828000,-0.087020844,0.019570539,-0.047389917,1,0
14832000,-0.08753981,0.019119015,-0.04729908,1,0
14836000,-0.08813138,0.018704645,-0.047219828,1,0
14840000,-0.08845231,0.018326314,-0.047263213,1,0
14844000,-0.08862793,0.022631714,-0.047289178,1,0
14848000,-0.08884082,0.022253223,-0.04731527,1,0
14852000,-0.08889566,0.021862458,-0.04732596,1,0
14856000,-0.08868517,0.021425864,-0.04738144,1,0
14860000,-0.0885402,0.02095764,-0.047381014,1,0
14864000,-0.08842269,0.020490393,-0.047379114,1,0
14868000,-0.08828024,0.024744498,-0.047373064,1,0
14872000,-0.08831225,0.02433858,-0.047421522,1,0
14876000,-0.08836083,0.023957826,-0.047406886,1,0
14880000,-0.08840899,0.02354216,-0.04741983,1,0
14884000,-0.08853375,0.023082184,-0.047419846,1,0
14892000,-0.08882585,0.026947467,-0.047400825,1,0
14896000,-0.08872899,0.026550187,-0.0474068,1,0
14900000,-0.08869977,0.026210677,-0.047364738,1,0
14904000,-0.08895466,0.025851157,-0.047348835,1,0
14908000,-0.0890087,0.025444416,-0.047352802,1,0
14912000,-0.0894147,0.025059016,-0.04735864,1,0
14916000,-0.08922169,0.02929113,-0.047311887,1,0
14924000,-0.08864946,0.028261673,-0.04723873,1,0
14928000,-0.08878908,0.027788442,-0.047262788,1,0
14932000,-0.08896557,0.027384646,-0.04729686,1,0
14936000,-0.08900242,0.026969766,-0.04733065,1,0
14940000,-0.08879891,0.031398714,-0.047441028,1,0
14944000,-0.08878477,0.031003773,-0.047508173,1,0
14948000,-0.08894849,0.030560758,-0.04749114,1,0
14952000,-0.0891708,0.030089492,-0.047478415,1,0
14956000,-0.089340664,0.029610172,-0.047485784,1,0
14964000,-0.08947137,0.033459034,-0.04754924,1,0
14972000,-0.0892557,0.032648787,-0.047500867,1,0
14976000,-0.088994056,0.032325532,-0.047585964,1,0
14980000,-0.08897994,0.03195691,-0.047626622,1,0
14984000,-0.088991806,0.031573348,-0.047654383,1,0
14988000,-0.08884059,0.035863332,-0.04768364,1,0
14996000,-0.08864953,0.034901053,-0.0477523,1,0
15000000,-0.08881298,0.0345214,-0.047790896,1,0
15004000,-0.08895176,0.034204103,-0.047830414,1,0
15008000,-0.089043565,0.03387132,-0.0479177,1,0
15012000,-0.08920402,0.038220175,-0.04796735,1,0
15020000,-0.089814395,0.03738394,-0.048065007,1,0
15024000,-0.09007809,0.037027396,-0.04810504,1,0
15028000,-0.09003877,0.036689483,-0.048052907,1,0
15032000,-0.089721695,0.03629529,-0.048033908,1,0
15036000,-0.08935335,0.040589586,-0.048004657,1,0
15040000,-0.08928308,0.04011462,-0.047987975,1,0
15044000,-0.089570835,0.039621595,-0.04792757,1,0
15048000,-0.08991639,0.039193027,-0.047972552,1,0
15052000,-0.089899346,0.03886128,-0.048097335,1,0
15056000,-0.08947694,0.03851165,-0.048257895,1,0
15060000,-0.0890846,0.042803876,-0.048244275,1,0
15068000,-0.0890801,0.041913852,-0.048184626,1,0
15072000,-0.0894468,0.041473456,-0.048085995,1,0
15076000,-0.089597024,0.04102478,-0.048069328,1,0
15080000,-0.0896347,0.040603362,-0.048109055,1,0
15084000,-0.08992888,0.044847064,-0.048215665,1,0
15088000,-0.09000878,0.044350743,-0.048328526,1,0
15092000,-0.09003999,0.043922316,-0.04833264,1,0
15096000,-0.08969687,0.043404594,-0.048547424,1,0
15100000,-0.08963079,0.042973973,-0.048573762,1,0
15104000,-0.08975217,0.04261528,-0.048584387,1,0
15108000,-0.08986247,0.04411203,-0.04857323,1,0
15116000,-0.08996128,0.04324673,-0.04873131,1,0
15120000,-0.09006306,0.042804137,-0.048801944,1,0
15124000,-0.08996962,0.04240688,-0.048834994,1,0
15128000,-0.08963142,0.042046484,-0.04891964,1,0
15132000,-0.089525506,0.04169566,-0.04889599,1,0
15136000,-0.08992535,0.04134734,-0.04889825,1,0
15140000,-0.09045512,0.040938836,-0.048915032,1,0
15148000,-0.09063654,0.04004828,-0.04893864,1,0
15156000,-0.0901255,0.03917702,-0.04897278,1,0
15160000,-0.090175115,0.03880202,-0.048975155,1,0
15164000,-0.090387106,0.03847323,-0.048922084,1,0
15168000,-0.0905783,0.0381594,-0.048914157,1,0
15172000,-0.09081728,0.037781056,-0.048915476,1,0
15176000,-0.090985715,0.037386417,-0.04902789,1,0
15180000,-0.09089857,0.036994554,-0.04911671,1,0
15184000,-0.090658136,0.036620755,-0.049164705,1,0
15188000,-0.09048723,0.036263384,-0.0490937,1,0
15192000,-0.09051142,0.035921454,-0.049089897,1,0
15200000,-0.09044344,0.035277516,-0.049212456,1,0
15204000,-0.090249546,0.03494986,-0.049224667,1,0
15212000,-0.09053947,0.03438521,-0.049116854,1,0
15216000,-0.09059602,0.03408741,-0.049111307,1,0
15220000,-0.090505324,0.033758353,-0.049166523,1,0
15224000,-0.09045599,0.03345612,-0.049291156,1,0
15228000,-0.26748934,0.03929247,0.007223163,1,0
15232000,-0.26752907,0.0390439,0.007227244,1,0
15236000,-0.26766425,0.038822055,0.007266033,1,0
15240000,-0.26744932,0.038547963,0.007312971,1,0
15244000,-0.26576746,0.03820724,0.007378515,1,0
15248000,-0.26245248,0.037861854,0.007444952,1,0
15252000,-0.25809142,0.037529834,0.007484468,1,0
15256000,-0.25314078,0.03720187,0.007521624,1,0
15260000,-0.24799646,0.036881797,0.007543758,1,0
15264000,-0.24271984,0.036586203,0.007510564,1,0
15268000,-0.2374318,0.036311354,0.007472192,1,0
15272000,-0.23264913,0.036006883,0.007483082,1,0
15276000,-0.22863631,0.035641566,0.007537864,1,0
15284000,-0.22133757,0.034900937,0.007628645,1,0
15288000,-0.21786764,0.034622476,0.007657529,1,0
15292000,-0.2145479,0.0343558,0.007634873,1,0
15300000,-0.21065105,0.033709295,0.007548743,1,0
15308000,-0.20239025,0.03323149,0.00757869,1,0
15312000,-0.19989747,0.03292899,0.007582807,1,0
15316000,-0.1974524,0.032583863,0.007570651,1,0
15320000,-0.19489568,0.032214515,0.007566908,1,0
15324000,-0.19240114,0.03187526,0.007556597,1,0
15328000,-0.19016549,0.03158723,0.007579925,1,0
15332000,-0.18804066,0.03128138,0.007639662,1,0
15336000,-0.18592206,0.030920792,0.007682544,1,0
15340000,-0.18404558,0.030552493,0.00769441,1,0
15344000,-0.18232395,0.030228117,0.00765661,1,0
15348000,-0.18137151,0.029885827,0.007583095,1,0
15352000,-0.17896563,0.0296681,0.00756683,1,0
15356000,-0.17732781,0.02941655,0.007533283,1,0
15364000,-0.17394069,0.028870687,0.007411794,1,0
15368000,-0.17251526,0.028571984,0.007390887,1,0
15372000,-0.17101873,0.028251013,0.007420334,1,0
15376000,-0.16938215,0.027962016,0.007471135,1,0
15380000,-0.16803493,0.027739566,0.007490126,1,0
15384000,-0.16717333,0.027548132,0.007490499,1,0
15388000,-0.16616373,0.02724918,0.00740479,1,0
15392000,-0.16561523,0.027080445,0.007351211,1,0
15396000,-0.16429238,0.026857827,0.007221817,1,0
15400000,-0.16280389,0.026689693,0.00709929,1,0
15404000,-0.16136627,0.02652506,0.007061786,1,0
15408000,-0.16033359,0.02628534,0.007089067,1,0
15412000,-0.15963937,0.026016615,0.007078011,1,0
15416000,-0.15892239,0.025761051,0.007022452,1,0
15420000,-0.15807462,0.0255189,0.006945406,1,0
15428000,-0.15576556,0.025166312,0.006764906,1,0
15432000,-0.15462165,0.02501599,0.006736512,1,0
15436000,-0.15374728,0.024850873,0.006660909,1,0
15444000,-0.1525363,0.024539864,0.006396861,1,0
15448000,-0.1518494,0.024453904,0.006413161,1,0
15452000,-0.15098953,0.024408113,0.006426327,1,0
15456000,-0.15011396,0.02433837,0.006366574,1,0
15460000,-0.14942303,0.024171526,0.006339239,1,0
15464000,-0.14897905,0.023948586,0.006363543,1,0
15468000,-0.14864051,0.02374578,0.00635196,1,0
15472000,-0.14805438,0.023570936,0.00629089,1,0
15476000,-0.14716189,0.023387847,0.006208135,1,0
15480000,-0.14633553,0.023172602,0.006130584,1,0
15484000,-0.14572054,0.022989491,0.006078713,1,0
15488000,-0.14505802,0.022907298,0.005990077,1,0
15492000,-0.14433624,0.0229064,0.005872916,1,0
15496000,-0.14381237,0.022916317,0.005774621,1,0
15500000,-0.14284575,0.022786032,0.005677839,1,0
15504000,-0.14314221,0.02277436,0.005702774,1,0
15508000,-0.1426673,0.022583636,0.005646695,1,0
15512000,-0.14215936,0.022394493,0.005545112,1,0
15516000,-0.14161648,0.022241138,0.005395114,1,0
15520000,-0.14089935,0.022133311,0.005260167,1,0
15524000,-0.14022624,0.02204515,0.005147881,1,0
15528000,-0.13984057,0.021940622,0.005046292,1,0
15532000,-0.13934638,0.021813316,0.004994522,1,0
15536000,-0.13867564,0.021656798,0.004955885,1,0
15540000,-0.1380006,0.021502456,0.004874424,1,0
15544000,-0.1372142,0.021389093,0.004758002,1,0
15548000,-0.13654286,0.021328637,0.004650116,1,0
15556000,-0.13575116,0.02122858,0.004572204,1,0
15560000,-0.13537401,0.021185962,0.004517566,1,0
15564000,-0.13516088,0.021130955,0.004435912,1,0
15572000,-0.1340937,0.020950621,0.00427881,1,0
15576000,-0.13465664,0.020824153,0.004309756,1,0
15580000,-0.13441098,0.020799031,0.004216588,1,0
15588000,-0.13367495,0.020714581,0.003849428,1,0
15592000,-0.13316292,0.0206874,0.003702463,1,0
15596000,-0.13259636,0.020675862,0.003612554,1,0
15604000,-0.1315659,0.02062014,0.003548321,1,0
15608000,-0.13096982,0.02052466,0.003488097,1,0
15612000,-0.13053031,0.020383444,0.003415529,1,0
15620000,-0.13013592,0.020289129,0.003255,1,0
15624000,-0.1299711,0.020313475,0.003133364,1,0
15632000,-0.12899072,0.02018403,0.002924815,1,0
15636000,-0.12853722,0.02008113,0.002878759,1,0
15640000,-0.1282995,0.019975904,0.002813335,1,0
15644000,-0.1282132,0.019914707,0.002732681,1,0
15648000,-0.12791815,0.019916125,0.002670466,1,0
15652000,-0.12745127,0.019933103,0.002618751,1,0
15660000,-0.12674253,0.019761844,0.002382214,1,0
15664000,-0.12647952,0.01964067,0.002267536,1,0
15668000,-0.12575442,0.019596988,0.002188155,1,0
15672000,-0.12588838,0.019558627,0.002072258,1,0
15676000,-0.12538218,0.019465122,0.002010994,1,0
15684000,-0.12443246,0.01927081,0.001954792,1,0
15692000,-0.12414642,0.019057905,0.001843938,1,0
15700000,-0.1234547,0.018878937,0.001678751,1,0
15704000,-0.123231985,0.018890178,0.001643773,1,0
15708000,-0.12305652,0.0189591,0.001571219,1,0
15712000,-0.12292968,0.019025898,0.001432808,1,0
15716000,-0.12272445,0.01902546,0.001274305,1,0
15720000,-0.12248489,0.018926112,0.001175832,1,0
15724000,-0.12230582,0.018784469,0.001124813,1,0
15728000,-0.12205128,0.018674593,0.001074587,1,0
15732000,-0.12165972,0.018573277,0.00102061,1,0
15736000,-0.121246085,0.018479519,0.000981399,1,0
15740000,-0.12105144,0.018441359,0.000976128,1,0
15744000,-0.12105866,0.018421194,0.000960122,1,0
15748000,-0.12098701,0.018344717,0.000902636,1,0
15752000,-0.120699845,0.018270079,0.000828111,1,0
15756000,-0.12033972,0.018239217,0.000749304,1,0
15760000,-0.12004498,0.018160604,0.000642917,1,0
15764000,-0.11980561,0.018039618,0.000529828,1,0
15768000,-0.119428456,0.017991284,0.000477406,1,0
15772000,-0.11870465,0.017992571,0.000460896,1,0
15780000,-0.11769438,0.01784921,0.000372931,1,0
15784000,-0.11773267,0.017781163,0.000365347,1,0
15788000,-0.11776836,0.017685318,0.000362563,1,0
15796000,-0.11700504,0.017513908,0.000287275,1,0
15800000,-0.11716432,0.017385669,0.000355686,1,0
15804000,-0.116918385,0.017305657,0.000323997,1,0
15808000,-0.1166297,0.01725907,0.000270989,1,0
15812000,-0.11649503,0.017199112,0.000224902,1,0
15816000,-0.11645924,0.017119529,0.000193702,1,0
15820000,-0.11625078,0.017030083,0.000131552,1,0
15824000,-0.115908116,0.016925594,2.37E-05,1,0
15828000,-0.115569405,0.016820839,-0.000106617,1,0
15832000,-0.11524474,0.016751125,-0.000221174,1,0
15836000,-0.11503445,0.016702497,-0.000271321,1,0
15840000,-0.11482859,0.016635155,-0.000271666,1,0
15844000,-0.1146024,0.016607508,-0.000280692,1,0
15848000,-0.11448988,0.016622502,-0.000308908,1,0
15852000,-0.11437834,0.016612269,-0.000363803,1,0
15856000,-0.11426899,0.01655993,-0.000456063,1,0
15860000,-0.114045724,0.016477691,-0.000568427,1,0
15864000,-0.113709934,0.016404936,-0.000660432,1,0
15868000,-0.113474235,0.016393736,-0.000680954,1,0
15872000,-0.11314569,0.016402539,-0.00066594,1,0
15876000,-0.11273159,0.016360534,-0.000678231,1,0
15880000,-0.1125176,0.016258292,-0.000688985,1,0
15884000,-0.11269336,0.016117902,-0.000698276,1,0
15888000,-0.11301564,0.016005455,-0.000712095,1,0
15892000,-0.11290592,0.015928973,-0.000736286,1,0
15896000,-0.11238326,0.01589605,-0.000754369,1,0
15900000,-0.111881286,0.015901908,-0.000735281,1,0
15904000,-0.11148763,0.015900027,-0.000714037,1,0
15908000,-0.11124366,0.015904147,-0.000729974,1,0
15912000,-0.11137248,0.01589123,-0.000783662,1,0
15916000,-0.11146897,0.015857643,-0.000853494,1,0
15920000,-0.111048885,0.015845908,-0.000905761,1,0
15924000,-0.11046608,0.015830139,-0.000943352,1,0
15928000,-0.11014693,0.015781756,-0.000970585,1,0
15932000,-0.11003339,0.015739623,-0.000997077,1,0
15936000,-0.10988742,0.015697308,-0.001074143,1,0
15940000,-0.10954115,0.015679443,-0.001182757,1,0
15944000,-0.109017655,0.01567249,-0.001256819,1,0
15948000,-0.108609766,0.015592128,-0.001269344,1,0
15952000,-0.108521536,0.015497278,-0.001242953,1,0
15956000,-0.108709045,0.015430968,-0.001225187,1,0
15960000,-0.1088721,0.015364455,-0.00120162,1,0
15964000,-0.108442046,0.015327346,-0.001248365,1,0
15968000,-0.108730644,0.015312541,-0.001230436,1,0
15972000,-0.10878076,0.015340984,-0.001269916,1,0
15980000,-0.108507514,0.015355861,-0.001356355,1,0
15984000,-0.10809027,0.015344994,-0.001457495,1,0
15988000,-0.10779008,0.015319316,-0.0015252,1,0
15992000,-0.107577905,0.015265552,-0.001580543,1,0
15996000,-0.107355796,0.015245911,-0.001625995,1,0
16000000,-0.10710098,0.015276063,-0.001665449,1,0
16004000,-0.10671573,0.01526425,-0.001706288,1,0
16008000,-0.10704783,0.01534277,-0.001801022,1,0
16012000,-0.106821075,0.015347457,-0.001878173,1,0
16020000,-0.27669623,0.010528816,-0.00233786,0.37686124,0
16024000,-0.27698913,0.010446543,-0.002243368,0.37686124,0
16028000,-0.27715534,0.010355908,-0.002162453,0.37686124,0
16032000,-0.27664253,0.010324726,-0.002131471,0.37686124,0
16036000,-0.27471945,0.010341512,-0.002152567,0.37686124,0
16040000,-0.27103618,0.010403188,-0.002222301,0.37686124,0
16044000,-0.2658412,0.005588416,-0.002743384,0.39962077,0
16048000,-0.25968176,0.005500849,-0.002950512,0.39962077,0
16052000,-0.2532067,0.005394749,-0.003149752,0.39962077,0
16056000,-0.24692419,0.0053498,-0.003302764,0.39962077,0
16060000,-0.24099953,0.005334307,-0.003455549,0.39962077,0
16064000,-0.23533966,0.00527269,-0.003635329,0.39962077,0
16068000,-0.22976774,0.000354664,-0.004257337,0.42113012,0
16072000,-0.22439723,0.00023216,-0.004482811,0.42113012,0
16076000,-0.21938926,7.83E-05,-0.00468809,0.42113012,0
16080000,-0.21453047,-0.000102606,-0.004906815,0.42113012,0
16084000,-0.20949659,-0.000289179,-0.005253283,0.42113012,0
16088000,-0.20438914,-0.000518397,-0.005513368,0.42113012,0
16092000,-0.19951548,-0.005534496,-0.00621877,0.44206655,0
16096000,-0.19498014,-0.005690867,-0.006469837,0.44206655,0
16100000,-0.19059424,-0.005881826,-0.006737971,0.44206655,0
16104000,-0.18632814,-0.0060689,-0.006976987,0.44206655,0
16108000,-0.18245156,-0.006205749,-0.007214096,0.44206655,0
16112000,-0.17903608,-0.006353189,-0.007541953,0.44206655,0
16116000,-0.17564875,-0.011365308,-0.008391254,0.4618128,0
16120000,-0.17224611,-0.011623695,-0.008641917,0.4618128,0
16124000,-0.16914283,-0.011787322,-0.008884132,0.4618128,0
16128000,-0.16609506,-0.011802003,-0.009203637,0.4618128,0
16132000,-0.1629105,-0.011803977,-0.00958648,0.4618128,0
16140000,-0.1582307,-0.016717844,-0.010827292,0.48036835,0
16144000,-0.15460347,-0.0168207,-0.011100973,0.48036835,0
16148000,-0.15295713,-0.01684867,-0.011417361,0.48036835,0
16156000,-0.14825167,-0.016902499,-0.011915071,0.48036835,0
16160000,-0.14523478,-0.016983636,-0.012089854,0.48036835,0
16164000,-0.1429129,-0.02177627,-0.013081019,0.49770594,0
16168000,-0.14071725,-0.021765381,-0.013444268,0.49770594,0
16172000,-0.13854368,-0.021707414,-0.013785912,0.49770594,0
16176000,-0.13631251,-0.021643078,-0.014113957,0.49770594,0
16180000,-0.1342749,-0.021592587,-0.014480758,0.49770594,0
16184000,-0.13245475,-0.021430032,-0.015071396,0.49770594,0
16188000,-0.13087362,-0.026084647,-0.016082298,0.51469713,0
16192000,-0.12932298,-0.02598993,-0.016360153,0.51469713,0
16196000,-0.12775995,-0.025905158,-0.01663531,0.51469713,0
16200000,-0.1261791,-0.025804296,-0.016909666,0.51469713,0
16204000,-0.12459024,-0.02564094,-0.017192649,0.51469713,0
16208000,-0.12316436,-0.025423344,-0.017464325,0.51469713,0
16212000,-0.1219936,-0.029899612,-0.01850896,0.53042215,0
16216000,-0.12068106,-0.029662808,-0.018778186,0.53042215,0
16220000,-0.119176485,-0.02940961,-0.019093458,0.53042215,0
16224000,-0.11790531,-0.029111998,-0.019430956,0.53042215,0
16228000,-0.11685457,-0.028818298,-0.019740425,0.53042215,0
16232000,-0.115721084,-0.028552748,-0.020035017,0.53042215,0
16236000,-0.114575066,-0.03295007,-0.021167578,0.5449018,0
16240000,-0.11376429,-0.032595593,-0.021407977,0.5449018,0
16248000,-0.11234699,-0.031867184,-0.021852277,0.5449018,0
16252000,-0.11121695,-0.031481892,-0.022148624,0.5449018,0
16260000,-0.10866308,-0.03533973,-0.023700282,0.55818695,0
16264000,-0.10769122,-0.034970645,-0.024022892,0.55818695,0
16268000,-0.10674719,-0.0345819,-0.02436052,0.55818695,0
16272000,-0.1057639,-0.03412184,-0.02458778,0.55818695,0
16280000,-0.10424216,-0.03305698,-0.024940247,0.55818695,0
16284000,-0.103310905,-0.03694198,-0.026620846,0.5703315,0
16292000,-0.10141021,-0.03597096,-0.02707034,0.5703315,0
16296000,-0.10059972,-0.03545844,-0.027240276,0.5703315,0
16300000,-0.10002777,-0.03493032,-0.027445603,0.5703315,0
16304000,-0.09952863,-0.034399044,-0.027614325,0.5703315,0
16308000,-0.099038444,-0.038477577,-0.028799733,0.58253646,0
16316000,-0.09808347,-0.03732413,-0.029308766,0.58253646,0
16320000,-0.09741328,-0.036644936,-0.029523069,0.58253646,0
16324000,-0.09658213,-0.035952516,-0.02971204,0.58253646,0
16328000,-0.095632546,-0.035302423,-0.029911285,0.58253646,0
16332000,-0.09481682,-0.039279066,-0.031166134,0.5936515,0
16336000,-0.09431687,-0.038665753,-0.031294532,0.5936515,0
16340000,-0.093984686,-0.03801499,-0.031448785,0.5936515,0
16344000,-0.09361261,-0.03734516,-0.031640716,0.5936515,0
16348000,-0.092986174,-0.036702454,-0.03186315,0.5936515,0
16352000,-0.09225358,-0.036055103,-0.032074884,0.5936515,0
16356000,-0.09162834,-0.03992222,-0.033415318,0.60373145,0
16360000,-0.09107808,-0.039209194,-0.033600017,0.60373145,0
16364000,-0.08974827,-0.03857503,-0.033852685,0.60373145,0
16368000,-0.09040842,-0.037846684,-0.03400545,0.60373145,0
16372000,-0.08982618,-0.03711856,-0.034145698,0.60373145,0
16376000,-0.089142606,-0.036360428,-0.03426168,0.60373145,0
16380000,-0.08843413,-0.040172406,-0.035595406,0.61281675,0
16384000,-0.08745617,-0.039212726,-0.036124017,0.61281675,0
16388000,-0.086735874,-0.038517404,-0.036289744,0.61281675,0
16396000,-0.08586384,-0.03714535,-0.036664248,0.61281675,0
16400000,-0.085622914,-0.03645614,-0.036859713,0.61281675,0
16404000,-0.08564678,-0.040277522,-0.0382866,0.6218001,0
16408000,-0.08586688,-0.03955865,-0.038429737,0.6218001,0
16412000,-0.08574977,-0.038805284,-0.03854176,0.6218001,0
16420000,-0.084099285,-0.03729112,-0.038756527,0.6218001,0
16424000,-0.083431475,-0.036523532,-0.038881764,0.6218001,0
16428000,-0.083130464,-0.0401856,-0.040361773,0.6298698,0
16432000,-0.082938045,-0.03934267,-0.0405671,0.6298698,0
16436000,-0.082499966,-0.0385537,-0.040729262,0.6298698,0
16440000,-0.0818118,-0.037796356,-0.04082959,0.6298698,0
16444000,-0.08129217,-0.037031993,-0.040904246,0.6298698,0
16448000,-0.08086403,-0.036271796,-0.041026294,0.6298698,0
16452000,-0.08032254,-0.039978813,-0.04253993,0.6371044,0
16456000,-0.079962775,-0.039219625,-0.042642854,0.6371044,0
16460000,-0.079806425,-0.038446136,-0.04272507,0.6371044,0
16464000,-0.079484336,-0.037660986,-0.042845514,0.6371044,0
16468000,-0.0788649,-0.036940657,-0.042985618,0.6371044,0
16472000,-0.07823075,-0.03628751,-0.04313209,0.6371044,0
16476000,-0.07796648,-0.03996198,-0.044646107,0.64356685,0
16480000,-0.077959605,-0.039185695,-0.04477167,0.64356685,0
16484000,-0.07771147,-0.038184956,-0.045142457,0.64356685,0
16488000,-0.0773788,-0.037361704,-0.045316763,0.64356685,0
16496000,-0.077039294,-0.035846274,-0.04554209,0.64356685,0
16500000,-0.07711051,-0.03430877,-0.045356594,0.649676,0
16508000,-0.07678992,-0.03279953,-0.04556323,0.649676,0
16512000,-0.0762277,-0.03204117,-0.045761116,0.649676,0
16516000,-0.07564404,-0.031251125,-0.04597205,0.649676,0
16524000,-0.074152514,-0.028989099,-0.04601624,0.6550811,0
16528000,-0.074242204,-0.028392961,-0.046069723,0.6550811,0
16532000,-0.07386874,-0.027725182,-0.0461099,0.6550811,0
16536000,-0.07343219,-0.026989035,-0.046136245,0.6550811,0
16540000,-0.07296885,-0.026270812,-0.046184495,0.6550811,0
16544000,-0.072479755,-0.025637643,-0.04628294,0.6550811,0
16548000,-0.07205099,-0.02439587,-0.046207443,0.65985477,0
16552000,-0.07181603,-0.02380275,-0.046362154,0.65985477,0
16556000,-0.07175291,-0.023178533,-0.046507463,0.65985477,0
16560000,-0.07182883,-0.022494895,-0.046660036,0.65985477,0
16564000,-0.07183103,-0.021833327,-0.046773516,0.65985477,0
16568000,-0.071606435,-0.021267297,-0.046869263,0.65985477,0
16572000,-0.07143537,-0.020136662,-0.046806503,0.66404366,0
16580000,-0.07055699,-0.018872475,-0.04707455,0.66404366,0
16584000,-0.07079217,-0.017853778,-0.047580726,0.66404366,0
16588000,-0.07031436,-0.017227186,-0.047744952,0.66404366,0
16592000,-0.06978762,-0.016705433,-0.047885444,0.66404366,0
16596000,-0.06942288,-0.015708972,-0.04775358,0.668176,0
16600000,-0.069219194,-0.015180146,-0.047793668,0.668176,0
16604000,-0.06890424,-0.014649323,-0.047875553,0.668176,0
16612000,-0.06749354,-0.013508317,-0.048072897,0.668176,0
16616000,-0.06740261,-0.01304528,-0.048278756,0.668176,0
16620000,-0.06727073,-0.012047229,-0.048245005,0.67178035,0
16624000,-0.06726021,-0.011492325,-0.048340358,0.67178035,0
16628000,-0.06715788,-0.010964669,-0.048465762,0.67178035,0
16632000,-0.06689826,-0.01044642,-0.048576783,0.67178035,0
16636000,-0.06691552,-0.009976117,-0.048659083,0.67178035,0
16640000,-0.06703472,-0.009574609,-0.04878508,0.67178035,0
16644000,-0.06685689,-0.008768628,-0.04877501,0.6748786,0
16648000,-0.06654051,-0.00827148,-0.048871726,0.6748786,0
16652000,-0.06617847,-0.007739067,-0.048991498,0.6748786,0
16656000,-0.06584971,-0.007269362,-0.04918895,0.6748786,0
16660000,-0.06565221,-0.006890646,-0.049348794,0.6748786,0
16664000,-0.06548166,-0.006525112,-0.049401365,0.6748786,0
16668000,-0.064795546,-0.005662205,-0.049357824,0.67753273,0
16676000,-0.064340055,-0.004968088,-0.049628645,0.67753273,0
16680000,-0.06413444,-0.004514489,-0.049883064,0.67753273,0
16684000,-0.06423446,-0.004128128,-0.04995041,0.67753273,0
16692000,-0.063673,-0.002850637,-0.0499718,0.679651,0
16696000,-0.064513125,-0.002606705,-0.0499505,0.679651,0
16700000,-0.06449307,-0.002304638,-0.05004062,0.679651,0
16704000,-0.06429287,-0.00198896,-0.050222173,0.679651,0
16708000,-0.06390795,-0.00169253,-0.050469004,0.679651,0
16712000,-0.06339878,-0.001358805,-0.050679684,0.679651,0
16716000,-0.06278663,-0.000635562,-0.050653763,0.6813843,0
16720000,-0.06275311,-0.000262294,-0.05075782,0.6813843,0
16724000,-0.062642485,0.000111591,-0.05084218,0.6813843,0
16728000,-0.06271641,0.00048407,-0.050938204,0.6813843,0
16732000,-0.062860176,0.000889165,-0.05102224,0.6813843,0
16740000,-0.062468424,0.00189022,-0.051129416,0.6827685,0
16744000,-0.062011894,0.002258133,-0.051213518,0.6827685,0
16748000,-0.06141509,0.002624776,-0.05128246,0.6827685,0
16752000,-0.060887378,0.002947453,-0.051417064,0.6827685,0
16756000,-0.060678326,0.003242893,-0.0515672,0.6827685,0
16764000,-0.060464013,0.00414901,-0.05173151,0.68386215,0
16768000,-0.060490154,0.004504086,-0.051891916,0.68386215,0
16772000,-0.060462084,0.00483443,-0.052055202,0.68386215,0
16776000,-0.060253028,0.005111918,-0.052170876,0.68386215,0
16784000,-0.059748664,0.005891243,-0.05239739,0.68386215,0
16788000,-0.059431937,0.006490896,-0.052330535,0.6848778,0
16792000,-0.05919329,0.006812681,-0.052391544,0.6848778,0
16796000,-0.058674507,0.007146591,-0.052486025,0.6848778,0
16800000,-0.058797657,0.007328354,-0.052694805,0.6848778,0
16804000,-0.0586082,0.007540908,-0.05285263,0.6848778,0
16808000,-0.05836735,0.007848799,-0.052911855,0.6848778,0
16812000,-0.058303416,0.008431289,-0.05281673,0.6856167,0
16816000,-0.05841548,0.008800663,-0.05284664,0.6856167,0
16820000,-0.05835714,0.009170223,-0.05292771,0.6856167,0
16824000,-0.05800473,0.009536173,-0.05302956,0.6856167,0
16828000,-0.057477757,0.009876398,-0.053138863,0.6856167,0
16832000,-0.057120234,0.010204364,-0.053246666,0.6856167,0
16836000,-0.05713549,0.010731561,-0.053287238,0.6861309,0
16840000,-0.057287157,0.011070259,-0.05338657,0.6861309,0
16844000,-0.05717335,0.011410099,-0.053418495,0.6861309,0
16848000,-0.056801073,0.011714637,-0.053433113,0.6861309,0
16852000,-0.05638418,0.011960648,-0.053474113,0.6861309,0
16856000,-0.055999465,0.012148596,-0.053536795,0.6861309,0
16860000,-0.055547956,0.012647133,-0.053531513,0.6864517,0
16864000,-0.055786267,0.012876567,-0.053587824,0.6864517,0
16868000,-0.055341713,0.013184503,-0.053664632,0.6864517,0
16872000,-0.056046814,0.013425561,-0.053687017,0.6864517,0
16876000,-0.056455217,0.013685942,-0.053721406,0.6864517,0
16880000,-0.05659918,0.013988202,-0.05378069,0.6864517,0
16884000,-0.05631487,0.014802573,-0.05406454,0.6865721,0
16888000,-0.055906206,0.01513388,-0.05415248,0.6865721,0
16892000,-0.05528287,0.015461555,-0.054225437,0.6865721,0
16896000,-0.05483554,0.01575729,-0.054307178,0.6865721,0
16900000,-0.054766245,0.016047848,-0.054356404,0.6865721,0
16908000,-0.05490017,0.01689573,-0.054285847,0.68687344,0
16912000,-0.05484384,0.017172778,-0.054342013,0.68687344,0
16916000,-0.054433577,0.01748257,-0.054406486,0.68687344,0
16920000,-0.054073565,0.017632933,-0.05441537,0.68687344,0
16924000,-0.05394052,0.01790409,-0.054464303,0.68687344,0
16928000,-0.053765703,0.018222315,-0.054544166,0.68687344,0
16936000,-0.0533606,0.018950135,-0.05459593,0.6870179,0
16940000,-0.053146813,0.019171191,-0.054616638,0.6870179,0
16944000,-0.053003483,0.019455396,-0.054593,0.6870179,0
16948000,-0.053013626,0.019829238,-0.054542907,0.6870179,0
16952000,-0.053003572,0.020201853,-0.05450338,0.6870179,0
16956000,-0.052759524,0.020644907,-0.05444405,0.6870297,0
16960000,-0.05247749,0.020948399,-0.054480996,0.6870297,0
16964000,-0.052109577,0.021252705,-0.05452895,0.6870297,0
16972000,-0.051657222,0.02170764,-0.054604,0.6870297,0
16976000,-0.051636808,0.021876985,-0.054593958,0.6870297,0
16980000,-0.05142914,0.02232685,-0.054554444,0.6869135,0
16984000,-0.051402748,0.022249348,-0.054307647,0.6869135,0
16988000,-0.05140921,0.02259025,-0.054426193,0.6869135,0
16992000,-0.051404122,0.022930028,-0.054501962,0.6869135,0
16996000,-0.051174447,0.023251079,-0.054486506,0.6869135,0
17000000,-0.05098743,0.02355602,-0.054398447,0.6869135,0
17004000,-0.051039547,0.024002412,-0.054246657,0.6863037,0
17008000,-0.051082626,0.024288049,-0.054219447,0.6863037,0
17012000,-0.051101364,0.024556385,-0.05424937,0.6863037,0
17016000,-0.05113232,0.02484866,-0.05429494,0.6863037,0
17020000,-0.050991736,0.025149463,-0.05430824,0.6863037,0
17024000,-0.050793793,0.025457364,-0.05432279,0.6863037,0
17028000,-0.050749533,0.025881054,-0.054290198,0.68561065,0
17032000,-0.05082211,0.026137443,-0.05426702,0.68561065,0
17036000,-0.050853293,0.026427267,-0.05421266,0.68561065,0
17040000,-0.050841555,0.026717223,-0.054207474,0.68561065,0
17044000,-0.050857276,0.026976706,-0.054211013,0.68561065,0
17048000,-0.050687827,0.027248336,-0.054223582,0.68561065,0
17052000,-0.050207824,0.027714066,-0.054209396,0.6848233,0
17056000,-0.04971636,0.028077569,-0.05424598,0.6848233,0
17060000,-0.04930228,0.028409842,-0.054223012,0.6848233,0
17064000,-0.04868813,0.028699249,-0.054175504,0.6848233,0
17068000,-0.048118137,0.028989246,-0.054132443,0.6848233,0
17072000,-0.04802733,0.029309236,-0.054097503,0.6848233,0
17076000,-0.04821117,0.029766629,-0.05401103,0.68401414,0
