timestamp,roll_body,pitch_body,yaw_body,q_d[0],q_d[1],q_d[2],q_d[3],thrust_body[0]
12080000,0.004470215,0,1.6673522,0.6721568,0.001502345,0.001654889,0.74040544,0.15
12104000,0.004204785,0,1.6673522,0.672157,0.00141314,0.001556625,0.7404057,0.15
12128000,0.004188887,0,1.6673522,0.672157,0.001407797,0.00155074,0.7404057,0.15
12152000,0.003774464,0,1.6673522,0.6721573,0.001268518,0.00139732,0.740406,0.15
12176000,0.003678297,0,1.6673522,0.67215735,0.001236199,0.001361718,0.74040604,0.15
12200000,0.004073083,0,1.6673522,0.67215705,0.001368878,0.001507869,0.74040574,0.15
12224000,0.00437985,0,1.6673522,0.6721569,0.001471975,0.001621435,0.7404055,0.15
12248000,0.005031941,0,1.6673522,0.67215633,0.001691129,0.001862841,0.74040496,0.15
12272000,0,0,1.611618,0.69252783,0,0,0.72139114,0
12296000,0,0,1.611618,0.69252783,0,0,0.72139114,1
12320000,0,0,1.611618,0.69252783,0,0,0.72139114,1
12344000,0,0,1.611618,0.69252783,0,0,0.72139114,1
12368000,0,0,1.611618,0.69252783,0,0,0.72139114,1
12392000,0,0,1.611618,0.69252783,0,0,0.72139114,1
12416000,0,0,1.611618,0.69252783,0,0,0.72139114,1
12440000,0,0,1.611618,0.69252783,0,0,0.72139114,1
12464000,0,0,1.611618,0.69252783,0,0,0.72139114,1
12488000,0,0,1.611618,0.69252783,0,0,0.72139114,1
12512000,0,0,1.611618,0.69252783,0,0,0.72139114,1
12536000,0,0,1.611618,0.69252783,0,0,0.72139114,1
12560000,0,0,1.611618,0.69252783,0,0,0.72139114,1
12583999,0,0,1.611618,0.69252783,0,0,0.72139114,1
12608000,0,0,1.611618,0.69252783,0,0,0.72139114,1
12632000,0,0,1.611618,0.69252783,0,0,0.72139114,1
12656000,0,0,1.611618,0.69252783,0,0,0.72139114,1
12679999,0,0,1.611618,0.69252783,0,0,0.72139114,1
12704000,0,0,1.611618,0.69252783,0,0,0.72139114,1
12728000,0,-0.38978168,1.611618,0.67941743,0.1397042,-0.13411455,0.70773435,1
12752000,0,-0.3750071,1.611618,0.68038964,0.13447219,-0.12909187,0.7087471,1
12775999,0,-0.36107087,1.611618,0.6812727,0.12953036,-0.12434776,0.7096669,1
12800000,0,-0.3480069,1.611618,0.6820704,0.124892086,-0.11989508,0.71049786,1
12824000,0,-0.33567137,1.611618,0.68279684,0.12050755,-0.11568597,0.7112546,1
12848000,0,-0.32394814,1.611618,0.6834633,0.11633641,-0.11168172,0.71194875,1
12871999,0,-0.31274456,1.611618,0.6840781,0.11234641,-0.107851356,0.71258926,1
12896000,0,-0.30207366,1.611618,0.68464386,0.108542845,-0.10419998,0.7131786,1
12920000,0,-0.2918566,1.611618,0.6851672,0.104898155,-0.100701116,0.7137237,1
12944000,0,-0.28202716,1.611618,0.6856538,0.10138915,-0.09733251,0.71423066,1
12967999,0,-0.27253118,1.611618,0.68610823,0.09799685,-0.09407594,0.71470404,1
12992000,0,-0.2633674,1.611618,0.6865321,0.09472115,-0.0909313,0.7151455,1
13016000,0,-0.25449142,1.611618,0.68692887,0.09154642,-0.08788359,0.7155588,1
13040000,0,-0.24586436,1.611618,0.6873016,0.088458985,-0.08491969,0.71594703,1
13063999,0,-0.23745388,1.611618,0.6876526,0.08544748,-0.08202868,0.7163127,1
13088000,0,-0.22927205,1.611618,0.6879824,0.08251641,-0.07921487,0.71665627,1
13112000,0,-0.22129023,1.611618,0.6882931,0.07965565,-0.07646857,0.7169799,1
13136000,0,-0.21348235,1.611618,0.68858635,0.076855995,-0.07378094,0.7172854,1
13159999,0,-0.20582625,1.611618,0.68886375,0.074109636,-0.07114447,0.71757436,1
13184000,0,-0.19832158,1.611618,0.6891259,0.07141654,-0.068559125,0.7178474,1
13208000,0,-0.1909497,1.611618,0.68937385,0.06877012,-0.06601859,0.71810573,1
13232000,0,-0.18369296,1.611618,0.6896089,0.06616412,-0.063516855,0.7183505,1
13255999,0,-0.17653638,1.611618,0.68983173,0.06359324,-0.06104883,0.7185827,1
13280000,0,-0.1694654,1.611618,0.6900433,0.061052296,-0.058609556,0.71880305,1
13304000,0,-0.16248068,1.611618,0.6902438,0.05854162,-0.05619933,0.7190119,1
13328000,0,-0.1555702,1.611618,0.6904338,0.05605691,-0.05381404,0.71920985,1
13352000,0,-0.1487235,1.611618,0.690614,0.05359448,-0.051450133,0.71939754,1
13376000,0,-0.1419313,1.611618,0.69078475,0.05115103,-0.049104445,0.7195754,1
13400000,0,-0.13519523,1.611618,0.69094616,0.04872719,-0.046777584,0.71974355,1
13424000,0,-0.12850691,1.611618,0.69109875,0.046319988,-0.044466693,0.7199025,1
13448000,0,-0.121858686,1.611618,0.69124275,0.043926697,-0.04216916,0.72005254,1
13472000,0,-0.115243524,1.611618,0.6913785,0.04154483,-0.039882597,0.72019386,1
13496000,0,-0.108662434,1.611618,0.69150597,0.03917478,-0.03760737,0.72032666,1
13520000,0,-0.10210913,1.611618,0.6916255,0.036814313,-0.03534135,0.7204512,1
13544000,0,-0.09557782,1.611618,0.6917372,0.034461375,-0.033082556,0.7205675,1
13568000,0,-0.08906321,1.611618,0.6918413,0.032114092,-0.030829186,0.720676,1
13592000,0,-0.08256612,1.611618,0.69193774,0.029772773,-0.028581547,0.7207765,1
13616000,0,-0.07608178,1.611618,0.6920268,0.027435742,-0.026338022,0.72086924,1
13640000,0,-0.06960582,1.611618,0.69210845,0.025101442,-0.024097119,0.7209543,1
13664000,0,-0.06313419,1.611618,0.69218284,0.022768443,-0.021857463,0.7210318,1
13688000,0,-0.056667697,1.611618,0.6922499,0.020437052,-0.019619353,0.7211016,1
13712000,0,-0.050202787,1.611618,0.6923097,0.018106021,-0.017381588,0.72116387,1
13736000,0,-0.0437362,1.611618,0.69236225,0.015774196,-0.015143061,0.7212187,1
13760000,0,-0.03726494,1.611618,0.6924076,0.013440521,-0.012902757,0.7212659,1
13784000,0,-0.030788144,1.611618,0.69244576,0.011104709,-0.010660403,0.72130567,1
13808000,0,-0.024303267,1.611618,0.6924767,0.008765865,-0.008415137,0.72133785,1
13832000,0,-0.017807966,1.611618,0.69250035,0.00642317,-0.006166175,0.72136253,1
13856000,0,-0.011300133,1.611618,0.69251674,0.004075886,-0.003912807,0.72137964,1
13880000,0,-0.004777854,1.611618,0.69252586,0.001723349,-0.001654397,0.72138906,1
13904000,0,0.001758545,1.611618,0.6925276,-0.000634299,0.00060892,0.7213909,1
13928000,0,0.008310685,1.611618,0.69252187,-0.002997618,0.002877682,0.7213849,1
13952000,0,0.014880016,1.611618,0.6925087,-0.005367107,0.005152365,0.7213712,1
13976000,0,0.02146785,1.611618,0.6924879,-0.00774321,0.007433399,0.72134954,1
14000000,0,0.028073922,1.611618,0.6924596,-0.010125807,0.009720667,0.7213201,1
14024000,0,0.034699287,1.611618,0.6924236,-0.012515252,0.012014508,0.72128254,1
14048000,0,0.041344844,1.611618,0.69237983,-0.014911841,0.014315208,0.721237,1
14072000,0,0.048011374,1.611618,0.6923283,-0.017315825,0.016623009,0.7211833,1
14096000,0,0.054699358,1.611618,0.69226885,-0.019727357,0.018938053,0.7211214,1
14120000,0,0.061409358,1.611618,0.6922014,-0.022146603,0.021260504,0.7210511,1
14144000,0,0.06814181,1.611618,0.6921259,-0.024573695,0.023590486,0.7209725,1
14168000,0,0.074897066,1.611618,0.6920423,-0.027008727,0.025928091,0.72088534,1
14192000,0,0.081674695,1.611618,0.69195044,-0.029451512,0.02827314,0.7207897,1
14216000,0,0.08847489,1.611618,0.69185036,-0.031902093,0.030625671,0.7206854,1
14240000,0,0.0952977,1.611618,0.6917418,-0.034360453,0.032985672,0.72057235,1
14264000,0,0.10214314,1.611618,0.6916249,-0.036826562,0.03535311,0.7204506,1
14288000,0,0.109012455,1.611618,0.69149935,-0.03930084,0.03772839,0.7203198,1
14312000,0,0.11590543,1.611618,0.69136524,-0.041783176,0.040111408,0.7201801,1
14336000,0,0.122821815,1.611618,0.69122237,-0.044273444,0.042502034,0.72003126,1
14360000,0,0.12976131,1.611618,0.69107074,-0.0467715,0.04490014,0.71987337,1
14384000,0,0.13672382,1.611618,0.6909102,-0.049277272,0.04730566,0.7197061,1
14408000,0,0.1437089,1.611618,0.6907408,-0.05179057,0.049718395,0.7195297,1
14432000,0,0.15071604,1.611618,0.69056237,-0.05431117,0.052138146,0.7193438,1
14456000,0,0.15774466,1.611618,0.6903749,-0.05683883,0.05456467,0.71914846,1
14480000,0,0.16479416,1.611618,0.6901783,-0.059373286,0.056997724,0.71894366,1
14504000,0,0.17186405,1.611618,0.68997246,-0.06191434,0.059437107,0.7187293,1
14528000,0,0.17895366,1.611618,0.68975747,-0.0644617,0.061882548,0.7185053,1
14552000,0,0.18606229,1.611618,0.6895332,-0.06701508,0.06433377,0.7182717,1
14576000,0,0.19318919,1.611618,0.6892995,-0.06957417,0.06679047,0.7180283,1
14600000,0,0.20033415,1.611618,0.6890565,-0.07213886,0.06925254,0.71777517,1
14624000,0,0.20749637,1.611618,0.6888041,-0.074708834,0.07171968,0.71751225,1
14648000,0,0.21467508,1.611618,0.68854225,-0.07728375,0.07419158,0.71723944,1
14672000,0,0.22186942,1.611618,0.68827087,-0.07986327,0.0766679,0.7169568,1
14696000,0,0.22908033,1.611618,0.68799,-0.08244771,0.079148926,0.7166642,1
14720000,0,0.23630692,1.611618,0.6876995,-0.08503668,0.08163431,0.7163616,1
14744000,0,0.24354829,1.611618,0.68739945,-0.08762983,0.08412371,0.716049,1
14768000,0,0.25080356,1.611618,0.68708974,-0.09022682,0.08661679,0.71572644,1
14792000,0,0.25807247,1.611618,0.6867704,-0.092827484,0.0891134,0.7153937,1
14816000,0,0.26535413,1.611618,0.6864414,-0.09543149,0.09161322,0.71505105,1
14840000,0,0.27264768,1.611618,0.68610275,-0.09803849,0.094115905,0.7146983,1
14864000,0,0.27995223,1.611618,0.6857545,-0.100648105,0.09662111,0.71433544,1
14888000,0,0.2872704,1.611618,0.6853963,-0.10326124,0.09912969,0.7139624,1
14912000,0,0.29460123,1.611618,0.6850283,-0.10587751,0.10164129,0.71357906,1
14936000,0,0.3019438,1.611618,0.68465054,-0.10849655,0.10415553,0.71318555,1
14960000,0,0.3092972,1.611618,0.684263,-0.111117974,0.10667207,0.71278185,1
14984000,0,0.31666043,1.611618,0.6838656,-0.113741405,0.10919054,0.7123679,1
15008000,0,0.32403266,1.611618,0.6834585,-0.11636649,0.11171059,0.7119438,1
15032000,0,0.33141303,1.611618,0.68304163,-0.118992895,0.114231914,0.7115096,1
15056000,0,0.3388007,1.611618,0.68261504,-0.121620275,0.116754174,0.7110652,1
15080000,0,0.34619486,1.611618,0.6821787,-0.1242483,0.11927705,0.7106107,1
15104000,0,0.34906584,1.611618,0.6820068,-0.12526825,0.12025619,0.7104316,1
15128000,0,0.34906584,1.611618,0.6820068,-0.12526825,0.12025619,0.7104316,1
15152000,0,0.34906584,1.611618,0.6820068,-0.12526825,0.12025619,0.7104316,1
15176000,0,0.34906584,1.611618,0.6820068,-0.12526825,0.12025619,0.7104316,1
15200000,0,0.34906584,1.611618,0.6820068,-0.12526825,0.12025619,0.7104316,1
15224000,-0.43633232,0.34906584,-0.31321755,0.9555594,-0.18410105,0.20070237,-0.11283454,1
15248000,-0.43633232,0.34906584,-0.32281828,0.9550067,-0.18313546,0.2015838,-0.117420256,1
15272000,-0.43633232,0.34906584,-0.32561222,0.95484173,-0.18285368,0.20183945,-0.11875426,1
15296000,-0.43633232,0.34906584,-0.33526254,0.95425767,-0.18187766,0.2027194,-0.12336013,1
15320000,-0.43633232,0.34906584,-0.3449384,0.9536497,-0.18089479,0.20359693,-0.1279753,1
15344000,-0.43633232,0.34906584,-0.34981433,0.9533348,-0.18039788,0.20403734,-0.13029988,1
15368000,-0.43633232,0.34906584,-0.35750046,0.95282704,-0.17961243,0.20472911,-0.13396263,1
15392000,-0.43633232,0.34906584,-0.3672557,0.9521623,-0.1786117,0.20560275,-0.13860855,1
15416000,-0.43633232,0.34906584,-0.37217903,0.9518182,-0.17810504,0.20604181,-0.14095204,1
15440000,-0.43633232,0.34906584,-0.3819752,0.9511164,-0.1770937,0.20691171,-0.14561242,1
15464000,-0.43633232,0.34906584,-0.38486862,0.9509047,-0.17679417,0.2071677,-0.14698824,1
15488000,-0.43633232,0.34906584,-0.39470226,0.9501706,-0.17577344,0.20803446,-0.15166187,1
15512000,-0.43633232,0.34906584,-0.40455848,0.9494116,-0.17474608,0.20889816,-0.15634258,1
15536000,-0.43633232,0.34906584,-0.4095344,0.9490197,-0.1742258,0.20933226,-0.15870416,1
15560000,-0.43633232,0.34906584,-0.41735238,0.94839203,-0.1734062,0.2100117,-0.16241266,1
15584000,-0.43633232,0.34906584,-0.42725438,0.94757634,-0.17236431,0.21086767,-0.16710614,1
15608000,-0.43633232,0.34906584,-0.4322515,0.94715583,-0.17183691,0.21129766,-0.1694732,1
15632000,-0.43633232,0.34906584,-0.44218603,0.9463024,-0.17078523,0.21214864,-0.17417586,1
15656000,-0.43633232,0.34906584,-0.4451222,0.94604564,-0.17047359,0.21239913,-0.17556491,1
15680000,-0.43633232,0.34906584,-0.455083,0.9451595,-0.16941364,0.21324551,-0.18027443,1
15704000,-0.43633232,0.34906584,-0.46505517,0.9442489,-0.16834828,0.21408758,-0.18498479,1
15728000,-0.43633232,0.34906584,-0.47008884,0.94378036,-0.16780894,0.21451059,-0.18736072,1
15752000,-0.43633232,0.34906584,-0.4779906,0.94303274,-0.16696012,0.21517192,-0.19108802,1
15776000,-0.43633232,0.34906584,-0.48303807,0.94254744,-0.16641654,0.2155926,-0.19346738,1
15800000,-0.43633232,0.34906584,-0.4930809,0.9415641,-0.16533187,0.21642551,-0.19819784,1
15824000,-0.43633232,0.34906584,-0.5031525,0.9405541,-0.16423991,0.21725535,-0.20293683,1
15848000,-0.43633232,0.34906584,-0.5082491,0.9400339,-0.16368574,0.21767317,-0.20533298,1
15872000,-0.43633232,0.34906584,-0.51625663,0.9392043,-0.16281292,0.21832679,-0.209095,1
15896000,-0.43633232,0.34906584,-0.5264083,0.93813086,-0.16170263,0.21915038,-0.21385956,1
15920000,-0.43633232,0.34906584,-0.53153706,0.93757933,-0.16114013,0.21956433,-0.21626453,1
15944000,-0.43633232,0.34906584,-0.54170644,0.9364676,-0.16002162,0.22038083,-0.22102906,1
15968000,-0.43633232,0.34906584,-0.54471314,0.9361342,-0.15969014,0.22062115,-0.22243664,1
15992000,-0.43633232,0.34906584,-0.5549299,0.93498576,-0.15856105,0.22143403,-0.22721586,1
16016000,-0.87266463,0.34163937,-0.56517625,0.8777257,-0.35698965,0.2640814,-0.1800471,0.37686124
16040000,-0.87266463,0.33421588,-0.5704307,0.8773574,-0.35748076,0.2619105,-0.18399546,0.39962077
16064000,-0.87266463,0.32679433,-0.5815189,0.8764103,-0.35722136,0.26078427,-0.19049728,0.42113012
16088000,-0.87266463,0.3193698,-0.58566606,0.8760847,-0.35788003,0.25841796,-0.19395298,0.44206655
16112000,-0.87266463,0.31194142,-0.597291,0.874992,-0.35758585,0.25738916,-0.2006791,0.4618128
16136000,-0.87266463,0.30450845,-0.6090646,0.8738234,-0.35729247,0.2563868,-0.20746212,0.48036835
16160000,-0.87266463,0.2970703,-0.61570597,0.8731401,-0.35767335,0.2544673,-0.21199667,0.49770594
16184000,-0.87266463,0.2896202,-0.6276722,0.8718446,-0.3573943,0.2534971,-0.21885054,0.51469713
16208000,-0.87266463,0.2821581,-0.6321527,0.87132484,-0.35807943,0.25118577,-0.2224363,0.53042215
16232000,-0.87266463,0.2746841,-0.64423645,0.86991566,-0.35782495,0.2502324,-0.22932903,0.5449018
16256000,-0.87266463,0.2671984,-0.6509743,0.86907095,-0.35825709,0.24832018,-0.23388988,0.55818695
16280000,-0.87266463,0.25970134,-0.6631293,0.8675442,-0.3580344,0.24737616,-0.24079752,0.5703315
16304000,-0.87266463,0.25218508,-0.67530715,0.8659502,-0.35783187,0.24643132,-0.24770574,0.58253646
16328000,-0.87266463,0.24465038,-0.68189776,0.86499965,-0.3583367,0.24448207,-0.25218835,0.5936515
16352000,-0.87266463,0.23709814,-0.6915989,0.863616,-0.35847852,0.24308589,-0.25801098,0.60373145
16376000,-0.87266463,0.22952938,-0.6979891,0.86261916,-0.35903978,0.24109253,-0.26239824,0.61281675
16400000,-0.87266463,0.22193915,-0.7099327,0.86084616,-0.3589509,0.24009053,-0.26917386,0.6218001
16424000,-0.87266463,0.21432872,-0.7161566,0.8597957,-0.35956746,0.23805699,-0.27348027,0.6298698
16448000,-0.87266463,0.20669946,-0.7279617,0.8579352,-0.35953826,0.23702264,-0.28017798,0.6371044
16472000,-0.87266463,0.19917502,-0.7340164,0.85683775,-0.3601866,0.2350015,-0.2843743,0.64356685
16496000,-0.87266463,0.20058891,-0.7457291,0.8552065,-0.3585442,0.2376897,-0.2890872,0.649676
16520000,-0.87266463,0.20186518,-0.7516488,0.8543916,-0.35760272,0.2392752,-0.2913463,0.6550811
16544000,-0.87266463,0.20301397,-0.763242,0.8527295,-0.35599408,0.24181558,-0.29605025,0.65985477
16568000,-0.87266463,0.20405476,-0.7665684,0.8522734,-0.35539523,0.24283412,-0.29724726,0.66404366
16592000,-0.87266463,0.20492414,-0.7780943,0.8505783,-0.35382387,0.24523371,-0.30196953,0.668176
16616000,-0.87266463,0.20571433,-0.7896494,0.8488495,-0.3522483,0.24759606,-0.30671132,0.67178035
16640000,-0.87266463,0.20643198,-0.7953425,0.8480006,-0.35140246,0.24888995,-0.30897436,0.6748786
16664000,-0.87266463,0.20708682,-0.80697083,0.8462157,-0.3498204,0.2511947,-0.3137609,0.67753273
16688000,-0.87266463,0.20770107,-0.8127304,0.8453332,-0.34897378,0.25245005,-0.31606656,0.679651
16712000,-0.87266463,0.2082694,-0.82447267,0.84348625,-0.3473716,0.25472426,-0.32090396,0.6813843
16736000,-0.87266463,0.20878935,-0.8302814,0.8425724,-0.3465253,0.25594187,-0.32324252,0.6827685
16760000,-0.87266463,0.20927103,-0.8421072,0.8406669,-0.34490746,0.25818014,-0.3281172,0.68386215
16784000,-0.87266463,0.2096875,-0.8479998,0.8397145,-0.34405974,0.25936252,-0.33050472,0.6848778
16808000,-0.87266463,0.21008046,-0.8599695,0.837739,-0.3424196,0.26157436,-0.33544153,0.6856167
16832000,-0.87266463,0.21044894,-0.8659234,0.83675325,-0.34156227,0.26273987,-0.3378563,0.6861309
16856000,-0.87266463,0.21079683,-0.8780849,0.8346995,-0.33988473,0.2649506,-0.3428649,0.6864517
16880000,-0.87266463,0.21112426,-0.8841028,0.8336793,-0.33901626,0.2661023,-0.345306,0.6865721
16904000,-0.87266463,0.21138805,-0.8963752,0.83155745,-0.3373202,0.26828215,-0.35035968,0.68687344
16928000,-0.87266463,0.21163931,-0.90877426,0.8293818,-0.3355958,0.2704675,-0.3554555,0.6870179
16952000,-0.87266463,0.21188,-0.91487813,0.8283051,-0.33471602,0.27158535,-0.35793456,0.6870297
16976000,-0.87266463,0.21211293,-0.92730606,0.82607687,-0.33297038,0.27375162,-0.36302593,0.6869135
17000000,-0.87266463,0.21238665,-0.93347645,0.824967,-0.33206326,0.27488494,-0.3655155,0.6863037
17024000,-0.87266463,0.21265869,-0.9461415,0.82265025,-0.33025458,0.27708855,-0.37067544,0.68561065
17048000,-0.87266463,0.2129255,-0.9523802,0.8215043,-0.32932824,0.2782215,-0.37318408,0.6848233
17072000,-0.87266463,0.21318963,-0.96517205,0.81911516,-0.3274815,0.28042483,-0.3783756,0.68401414
17096000,-0.87266463,0.21338324,-0.97430074,0.8173904,-0.32615346,0.28199166,-0.38207006,0.6836569
17120000,-0.87266463,0.21358155,-0.98731685,0.8148979,-0.32426512,0.28418487,-0.3873403,0.6832261
17144000,-0.87266463,0.21377502,-0.9937383,0.8136612,-0.3233056,0.2852991,-0.38991454,0.6827375
17168000,-0.87266463,0.21396765,-1.0069321,0.8110826,-0.32137078,0.2874996,-0.39523372,0.68219095
17192000,-0.87266463,0.21416926,-1.0202866,0.80843765,-0.31939563,0.28971612,-0.40059894,0.6815258
17216000,-0.87266463,0.21437228,-1.026915,0.807118,-0.31838477,0.2908505,-0.40323403,0.6808224
17240000,-0.87266463,0.2145788,-1.0405133,0.8043705,-0.3163496,0.2930869,-0.40866977,0.68011665
17264000,-0.87266463,0.21478498,-1.0502625,0.80238193,-0.31486657,0.29470354,-0.41254342,0.6793978
17288000,-0.87266463,0.21500292,-1.0642068,0.7995003,-0.31275013,0.29697376,-0.41808283,0.678583
17312000,-0.87266463,0.21522439,-1.0711802,0.7980521,-0.3116575,0.29814565,-0.42082244,0.6777627
17336000,-0.87266463,0.21544784,-1.0853635,0.7950627,-0.309479,0.3004319,-0.4264255,0.67692566
17360000,-0.87266463,0.21567145,-1.0924412,0.7935638,-0.3083572,0.30160865,-0.42919058,0.6760899
17384000,-0.87266463,0.21590595,-1.0986061,0.7922529,-0.30736634,0.30264503,-0.43158662,0.6751784
17408000,-0.87266463,0.21614332,-1.0986061,0.7922692,-0.3073059,0.30273342,-0.4315381,0.6742843
17432000,-0.87266463,0.21638258,-1.0986061,0.7922854,-0.30724496,0.3028225,-0.4314891,0.67339224
17456000,-0.87266463,0.21662329,-1.0986061,0.7923017,-0.30718368,0.30291212,-0.43143982,0.6725195
17480000,-0.87266463,0.2168686,-1.0986061,0.79231834,-0.3071212,0.30300343,-0.43138957,0.67168266
17504000,-0.87266463,0.21707788,-1.0986061,0.7923326,-0.30706787,0.30308133,-0.43134674,0.67109704
17528000,-0.87266463,0.21729253,-1.0986061,0.79234713,-0.3070132,0.30316126,-0.4313028,0.67052156
17552000,-0.87266463,0.21751195,-1.0986061,0.792362,-0.3069573,0.30324292,-0.43125784,0.66997635
17576000,-0.87266463,0.21773258,-1.0986061,0.7923769,-0.3069011,0.30332506,-0.43121263,0.6694468
17600000,-0.87266463,0.21792522,-1.0986061,0.79239,-0.30685204,0.30339676,-0.43117318,0.66915506
17624000,-0.87266463,0.2181259,-1.0986061,0.7924035,-0.30680093,0.30347145,-0.43113208,0.66886306
17648000,-0.87266463,0.21833245,-1.0986061,0.79241747,-0.30674827,0.3035483,-0.43108973,0.66859514
17672000,-0.87266463,0.21853822,-1.0986061,0.7924314,-0.30669582,0.3036249,-0.4310476,0.66831875
17696000,-0.87266463,0.21876152,-1.0986061,0.7924465,-0.30663893,0.30370802,-0.43100178,0.6679832
17720000,-0.87266463,0.21898992,-1.0986061,0.7924619,-0.3065807,0.30379298,-0.43095496,0.6676691
17744000,-0.87266463,0.2192214,-1.0986061,0.7924775,-0.3065217,0.30387914,-0.43090752,0.6673821
17768000,-0.87266463,0.21945551,-1.0986061,0.79249316,-0.30646205,0.30396622,-0.4308595,0.6671057
17792000,-0.87266463,0.21963876,-1.0986061,0.7925056,-0.30641532,0.30403444,-0.43082196,0.66725063
17816000,-0.87266463,0.21982896,-1.0986061,0.7925184,-0.3063669,0.3041052,-0.43078297,0.66739976
17840000,-0.87266463,0.22002363,-1.0986061,0.79253143,-0.3063172,0.3041776,-0.430743,0.6675334
17864000,-0.87266463,0.22022319,-1.0986061,0.7925449,-0.30626637,0.30425188,-0.43070212,0.6676587
17888000,-0.87266463,0.22045532,-1.0986061,0.79256046,-0.30620712,0.30433822,-0.43065447,0.66751295
17912000,-0.87266463,0.22069865,-1.0986061,0.7925768,-0.3061451,0.30442876,-0.43060455,0.66738236
17936000,-0.87266463,0.22094324,-1.0986061,0.7925932,-0.30608273,0.30451974,-0.43055436,0.6672565
17960000,-0.87266463,0.22118673,-1.0986061,0.79260945,-0.30602062,0.30461028,-0.43050438,0.66712976
17984000,-0.87266463,0.22139567,-1.0986061,0.7926235,-0.30596736,0.304688,-0.4304615,0.66728437
18008000,-0.87266463,0.22161183,-1.0986061,0.79263794,-0.3059122,0.3047684,-0.43041712,0.66743815
18032000,-0.87266463,0.221829,-1.0986061,0.79265255,-0.30585682,0.30484918,-0.43037254,0.66756856
18056000,-0.87266463,0.22205724,-1.0986061,0.7926678,-0.30579862,0.30493405,-0.43032572,0.66769695
18080000,-0.87266463,0.22228417,-1.0986061,0.7926829,-0.3057407,0.30501842,-0.43027908,0.66782236
18104000,-0.87266463,0.22246656,-1.0986061,0.7926951,-0.30569416,0.30508626,-0.4302416,0.66839474
18128000,-0.87266463,0.22265652,-1.0986061,0.79270774,-0.3056457,0.3051569,-0.4302026,0.6689275
18152000,-0.87266463,0.22285438,-1.0986061,0.792721,-0.30559522,0.30523047,-0.43016198,0.6694687
18176000,-0.87266463,0.22305427,-1.0986061,0.7927343,-0.3055442,0.3053048,-0.43012092,0.66995955
18200000,-0.87266463,0.2232785,-1.0986061,0.7927492,-0.305487,0.30538818,-0.43007484,0.6702874
18224000,-0.87266463,0.22350216,-1.0986061,0.7927641,-0.30542994,0.3054713,-0.4300289,0.67056924
18248000,-0.87266463,0.22373654,-1.0986061,0.79277974,-0.3053701,0.30555844,-0.42998075,0.6708172
18272000,-0.87266463,0.22397338,-1.0986061,0.79279536,-0.30530962,0.30564648,-0.42993203,0.67106634
18296000,-0.87266463,0.22418264,-1.0986061,0.79280937,-0.30525625,0.3057243,-0.42988905,0.67159754
18320000,-0.87266463,0.22439608,-1.0986061,0.7928235,-0.30520177,0.30580366,-0.42984515,0.6720603
18344000,-0.87266463,0.22461487,-1.0986061,0.79283804,-0.30514592,0.30588496,-0.42980018,0.6724893
18368000,-0.87266463,0.2248396,-1.0986061,0.7928529,-0.30508852,0.30596846,-0.42975396,0.6728882
18392000,-0.87266463,0.22508556,-1.0986061,0.7928692,-0.30502573,0.3060599,-0.42970338,0.6731407
18416000,-0.87266463,0.22533487,-1.0986061,0.79288566,-0.30496207,0.30615255,-0.42965212,0.67335105
18440000,-0.87266463,0.22559589,-1.0986061,0.79290295,-0.30489543,0.30624956,-0.42959842,0.6735576
18464000,-0.87266463,0.225858,-1.0986061,0.79292035,-0.30482846,0.30634695,-0.4295445,0.67376137
18488000,-0.87266463,0.22607687,-1.0986061,0.7929348,-0.3047726,0.30642828,-0.42949948,0.67434466
18512000,-0.87266463,0.22630441,-1.0986061,0.7929498,-0.30471444,0.30651283,-0.42945266,0.674865
18536000,-0.87266463,0.22653702,-1.0986061,0.7929651,-0.30465502,0.30659923,-0.4294048,0.67537177
18560000,-0.87266463,0.22677435,-1.0986061,0.7929808,-0.3045944,0.3066874,-0.42935592,0.67582226
18584000,-0.87266463,0.22699925,-1.0986061,0.7929956,-0.30453694,0.30677098,-0.42930967,0.67640376
18608000,-0.87266463,0.22722612,-1.0986061,0.79301053,-0.304479,0.30685526,-0.42926294,0.67693716
18632000,-0.87266463,0.2274651,-1.0986061,0.79302615,-0.30441794,0.306944,-0.4292137,0.6774639
18656000,-0.87266463,0.22770455,-1.0986061,0.79304194,-0.30435675,0.30703297,-0.42916444,0.67791474
18680000,-0.87266463,0.22795637,-1.0986061,0.79305845,-0.30429238,0.30712652,-0.42911255,0.6783376
18704000,-0.87266463,0.22821847,-1.0986061,0.7930757,-0.30422541,0.30722386,-0.42905858,0.6785774
18728000,-0.87266463,0.22849426,-1.0986061,0.7930938,-0.30415496,0.30732632,-0.42900178,0.6787807
18752000,-0.87266463,0.22876863,-1.0986061,0.79311174,-0.30408478,0.30742818,-0.42894524,0.6789405
18776000,-0.87266463,0.2290537,-1.0986061,0.7931304,-0.30401194,0.3075341,-0.4288865,0.6790613
18800000,-0.87266463,0.22930233,-1.0986061,0.7931466,-0.30394837,0.3076264,-0.4288352,0.6794677
18824000,-0.87266463,0.22955836,-1.0986061,0.7931634,-0.30388293,0.3077215,-0.4287825,0.6798166
18848000,-0.87266463,0.22981907,-1.0986061,0.79318047,-0.30381626,0.30781826,-0.42872873,0.6801257
18872000,-0.87266463,0.23008507,-1.0986061,0.7931978,-0.30374822,0.30791703,-0.42867386,0.68041664
18896000,-0.87266463,0.230355,-1.0986061,0.7932154,-0.30367923,0.30801725,-0.42861825,0.68063825
18920000,-0.87266463,0.23063073,-1.0986061,0.7932334,-0.30360872,0.30811962,-0.42856136,0.6808174
18944000,-0.87266463,0.23091032,-1.0986061,0.7932516,-0.30353716,0.3082234,-0.42850372,0.6809735
18968000,-0.87266463,0.2311953,-1.0986061,0.7932701,-0.3034643,0.30832916,-0.4284449,0.68105745
18992000,-0.87266463,0.23144673,-1.0986061,0.79328644,-0.30339998,0.3084225,-0.42839304,0.681456
19016000,-0.87266463,0.23170759,-1.0986061,0.7933034,-0.30333322,0.30851933,-0.42833918,0.6817873
19040000,-0.87266463,0.23197055,-1.0986061,0.7933204,-0.30326596,0.3086169,-0.4282849,0.6820472
19064000,-0.87266463,0.23224364,-1.0986061,0.7933381,-0.30319607,0.30871826,-0.42822856,0.68227124
19088000,-0.87266463,0.23252848,-1.0986061,0.7933566,-0.30312324,0.30882394,-0.4281698,0.68234146
19112000,-0.87266463,0.23281816,-1.0986061,0.7933754,-0.3030491,0.30893147,-0.42810994,0.6823489
19136000,-0.87266463,0.23311019,-1.0986061,0.7933942,-0.30297434,0.30903983,-0.42804965,0.68231076
19160000,-0.87266463,0.23340583,-1.0986061,0.7934133,-0.30289868,0.3091495,-0.42798856,0.68221235
19184000,-0.87266463,0.2336851,-1.0986061,0.7934313,-0.30282718,0.3092531,-0.4279309,0.6822111
19208000,-0.87266463,0.23397164,-1.0986061,0.7934498,-0.30275384,0.30935943,-0.4278717,0.6821662
19232000,-0.87266463,0.23426262,-1.0986061,0.7934686,-0.3026793,0.30946735,-0.4278116,0.6820681
19256000,-0.87266463,0.2345561,-1.0986061,0.7934874,-0.3026042,0.3095762,-0.42775095,0.681951
19280000,-0.87266463,0.23485157,-1.0986061,0.7935065,-0.30252853,0.30968583,-0.42768988,0.6817953
19304000,-0.87266463,0.23515616,-1.0986061,0.793526,-0.3024505,0.30979878,-0.4276269,0.6815206
19328000,-0.87266463,0.23546714,-1.0986061,0.793546,-0.30237088,0.3099141,-0.4275626,0.6811766
19352000,-0.87266463,0.23578107,-1.0986061,0.79356617,-0.30229047,0.31003052,-0.4274977,0.68082976
19376000,-0.87266463,0.23609613,-1.0986061,0.7935863,-0.3022098,0.31014737,-0.42743257,0.6804465
19400000,-0.87266463,0.236373,-1.0986061,0.793604,-0.30213884,0.31025004,-0.42737526,0.6803722
19424000,-0.87266463,0.23665565,-1.0986061,0.79362214,-0.30206642,0.31035483,-0.42731678,0.6802328
19448000,-0.87266463,0.2369403,-1.0986061,0.7936403,-0.3019935,0.31046036,-0.4272579,0.68006724
19472000,-0.87266463,0.23722757,-1.0986061,0.7936587,-0.30191988,0.31056687,-0.42719847,0.6798521
19496000,-0.87266463,0.23754433,-1.0986061,0.7936788,-0.3018387,0.3106843,-0.42713287,0.6792811
19520000,-0.87266463,0.23786582,-1.0986061,0.7936993,-0.30175632,0.31080347,-0.42706633,0.6786746
19544000,-0.87266463,0.23818827,-1.0986061,0.79371977,-0.30167365,0.31092298,-0.42699954,0.67806745
19568000,-0.87266463,0.23851202,-1.0986061,0.7937404,-0.30159068,0.31104296,-0.4269325,0.67744386
19592000,-0.87266463,0.23882523,-1.0986061,0.79376036,-0.3015104,0.31115904,-0.4268677,0.6769027
19616000,-0.87266463,0.23914206,-1.0986061,0.7937804,-0.30142915,0.31127644,-0.426802,0.67632097
19640000,-0.87266463,0.23945838,-1.0986061,0.7938005,-0.30134803,0.31139368,-0.4267365,0.67571145
19664000,-0.87266463,0.23977523,-1.0986061,0.7938206,-0.3012668,0.31151107,-0.42667088,0.67507046
19688000,-0.87266463,0.2400878,-1.0986061,0.79384035,-0.30118662,0.3116269,-0.42660606,0.674443
19712000,-0.87266463,0.24040508,-1.0986061,0.7938604,-0.30110526,0.31174442,-0.42654032,0.6737936
19736000,-0.87266463,0.24072324,-1.0986061,0.7938805,-0.30102366,0.3118623,-0.42647436,0.6731162
19760000,-0.87266463,0.24104135,-1.0986061,0.79390055,-0.30094203,0.31198013,-0.42640838,0.672441
19784000,-0.87266463,0.24135315,-1.0986061,0.7939202,-0.30086204,0.3120956,-0.42634374,0.6718195
19808000,-0.87266463,0.24166876,-1.0986061,0.79394007,-0.30078107,0.31221253,-0.4262783,0.67119277
19832000,-0.87266463,0.2419851,-1.0986061,0.79396,-0.3006999,0.31232968,-0.42621267,0.67055506
19856000,-0.87266463,0.2423024,-1.0986061,0.79397994,-0.30061847,0.3124472,-0.42614684,0.6699074
19880000,-0.87266463,0.24262024,-1.0986061,0.79399985,-0.3005369,0.3125649,-0.42608085,0.6692599
19904000,-0.87266463,0.24293682,-1.0986061,0.7940197,-0.30045566,0.31268215,-0.42601517,0.66863203
19928000,-0.87266463,0.24325527,-1.0986061,0.79403967,-0.3003739,0.31280005,-0.42594904,0.6679784
19952000,-0.87266463,0.24357347,-1.0986061,0.79405963,-0.3002922,0.31291783,-0.425883,0.6673336
19976000,-0.87266463,0.24389139,-1.0986061,0.7940795,-0.3002106,0.31303555,-0.42581698,0.66670066
20000000,-0.87266463,0.244224,-1.0986061,0.7941002,-0.30012518,0.3131587,-0.42574787,0.66587937
20024000,-0.87266463,0.24455974,-1.0986061,0.7941212,-0.300039,0.31328297,-0.42567816,0.66507095
20048000,-0.87266463,0.24489558,-1.0986061,0.7941421,-0.29995272,0.31340724,-0.4256084,0.664294
20072000,-0.87266463,0.24523017,-1.0986061,0.7941629,-0.2998668,0.3135311,-0.42553884,0.6635239
20096000,-0.87266463,0.24554574,-1.0986061,0.7941826,-0.2997857,0.31364787,-0.42547327,0.66294706
20120000,-0.87266463,0.24586642,-1.0986061,0.7942025,-0.29970336,0.31376654,-0.42540663,0.6623681
20144000,-0.87266463,0.24618787,-1.0986061,0.7942224,-0.29962075,0.31388545,-0.42533982,0.6618444
20168000,-0.87266463,0.24651028,-1.0986061,0.79424244,-0.29953793,0.31400478,-0.4252728,0.66132313
20192000,-0.87266463,0.24685358,-1.0986061,0.7942637,-0.29944974,0.3141318,-0.42520136,0.66055405
20216000,-0.87266463,0.24719793,-1.0986061,0.794285,-0.29936123,0.31425917,-0.42512974,0.65980697
20240000,-0.87266463,0.24754155,-1.0986061,0.7943062,-0.2992729,0.3143863,-0.42505828,0.6590942
20264000,-0.87266463,0.24788433,-1.0986061,0.79432744,-0.2991848,0.31451312,-0.42498696,0.65840036
20288000,-0.87266463,0.24823771,-1.0986061,0.7943492,-0.29909393,0.3146438,-0.42491338,0.65758795
20312000,-0.87266463,0.24859141,-1.0986061,0.794371,-0.299003,0.3147746,-0.4248398,0.65680236
20336000,-0.87266463,0.24894391,-1.0986061,0.7943927,-0.29891238,0.314905,-0.42476642,0.65606254
20360000,-0.87266463,0.24929571,-1.0986061,0.7944143,-0.2988219,0.31503507,-0.42469317,0.65536314
20384000,-0.87266463,0.24964769,-1.0986061,0.79443586,-0.29873142,0.31516522,-0.42461985,0.654662
20408000,-0.87266463,0.2500078,-1.0986061,0.7944579,-0.29863876,0.31529835,-0.4245448,0.6539992
20432000,-0.87266463,0.25036785,-1.0986061,0.79448,-0.29854614,0.31543148,-0.4244698,0.65338206
20456000,-0.87266463,0.25072402,-1.0986061,0.79450184,-0.29845452,0.31556314,-0.4243956,0.65279895
20480000,-0.87266463,0.2510863,-1.0986061,0.7945239,-0.2983613,0.31569707,-0.4243201,0.6522728
20504000,-0.87266463,0.25144506,-1.0986061,0.7945458,-0.298269,0.31582966,-0.4242453,0.6517296
20528000,-0.87266463,0.25180984,-1.0986061,0.79456806,-0.29817516,0.3159645,-0.42416924,0.651246
20552000,-0.87266463,0.25216672,-1.0986061,0.7945898,-0.2980833,0.3160964,-0.42409486,0.6507933
20576000,-0.87266463,0.25252685,-1.0986061,0.7946117,-0.29799062,0.31622946,-0.42401975,0.6503773
20600000,-0.87266463,0.25289062,-1.0986061,0.79463375,-0.29789695,0.31636387,-0.42394385,0.65000784
20624000,-0.87266463,0.2532608,-1.0986061,0.7946562,-0.29780164,0.31650063,-0.42386663,0.6496871
20648000,-0.87266463,0.2536296,-1.0986061,0.79467857,-0.29770672,0.31663692,-0.42378965,0.64938396
20672000,-0.87266463,0.25399828,-1.0986061,0.7947009,-0.2976118,0.3167731,-0.42371273,0.6491521
20696000,-0.87266463,0.2543609,-1.0986061,0.7947228,-0.2975184,0.31690705,-0.42363697,0.6489778
20720000,-0.87266463,0.25472498,-1.0986061,0.7947448,-0.29742464,0.31704152,-0.42356104,0.64885134
20744000,-0.87266463,0.25508878,-1.0986061,0.7947667,-0.29733095,0.3171759,-0.423485,0.64874554
20768000,-0.87266463,0.2554531,-1.0986061,0.7947887,-0.29723707,0.31731045,-0.42340896,0.6487106
20792000,-0.87266463,0.25579375,-1.0986061,0.79480916,-0.2971493,0.31743622,-0.42333776,0.6489575
20816000,-0.87266463,0.25614437,-1.0986061,0.79483026,-0.29705894,0.31756568,-0.4232645,0.6492067
20840000,-0.87266463,0.2564986,-1.0986061,0.7948515,-0.2969677,0.31769645,-0.42319044,0.6495178
20864000,-0.87266463,0.25685233,-1.0986061,0.7948727,-0.29687652,0.31782705,-0.4231165,0.6498612
20888000,-0.87266463,0.2572233,-1.0986061,0.79489493,-0.2967809,0.31796402,-0.42303896,0.6499361
20912000,-0.87266463,0.2575983,-1.0986061,0.79491735,-0.29668427,0.31810242,-0.42296055,0.65003157
20936000,-0.87266463,0.25797236,-1.0986061,0.79493964,-0.29658782,0.3182405,-0.42288232,0.65016073
20960000,-0.87266463,0.25834602,-1.0986061,0.794962,-0.29649147,0.31837842,-0.42280418,0.65028465
20984000,-0.87266463,0.2586996,-1.0986061,0.7949831,-0.2964003,0.3185089,-0.42273024,0.6506781
21008000,-0.87266463,0.25905567,-1.0986061,0.79500425,-0.2963085,0.3186403,-0.42265567,0.65109116
21032000,-0.87266463,0.25941563,-1.0986061,0.79502565,-0.29621565,0.31877312,-0.42258036,0.65155137
21056000,-0.87266463,0.25977495,-1.0986061,0.795047,-0.296123,0.31890568,-0.42250514,0.65200883
21080000,-0.87266463,0.260134,-1.0986061,0.79506826,-0.29603034,0.31903815,-0.42242995,0.6524649
21104000,-0.87266463,0.26050442,-1.0986061,0.7950902,-0.2959348,0.31917483,-0.42235237,0.65274477
21128000,-0.87266463,0.2608773,-1.0986061,0.7951122,-0.29583862,0.31931233,-0.42227426,0.65301037
21152000,-0.87266463,0.26125067,-1.0986061,0.7951343,-0.29574224,0.31945005,-0.42219612,0.65329665
21176000,-0.87266463,0.2616241,-1.0986061,0.79515636,-0.2956459,0.31958777,-0.42211783,0.65360105
21200000,-0.87266463,0.26198986,-1.0986061,0.7951779,-0.2955515,0.31972268,-0.42204118,0.65394944
21224000,-0.87266463,0.26236618,-1.0986061,0.7952,-0.29545435,0.31986144,-0.42196232,0.654332
21248000,-0.87266463,0.26274693,-1.0986061,0.7952224,-0.29535604,0.32000184,-0.42188248,0.6547233
21272000,-0.87266463,0.2631269,-1.0986061,0.7952447,-0.29525796,0.3201419,-0.4218028,0.65513307
21296000,-0.8695413,0.26349318,-1.0986061,0.7957262,-0.29392108,0.31961796,-0.42222565,0.6556828
21320000,-0.86470306,0.2638635,-1.0986061,0.7964562,-0.29189962,0.31873247,-0.4229205,0.65622526
21344000,-0.8597806,0.26423445,-1.0986061,0.7971933,-0.2898425,0.31782782,-0.42362672,0.6567825
21368000,-0.85480124,0.26460525,-1.0986061,0.7979333,-0.28776085,0.3169095,-0.42434013,0.6572747
21392000,-0.8496601,0.2649591,-1.0986061,0.7986899,-0.2856171,0.3159489,-0.4250806,0.65798527
21416000,-0.8444096,0.26532033,-1.0986061,0.7994568,-0.2834258,0.31496605,-0.4258347,0.65865135
21440000,-0.8389739,0.265691,-1.0986061,0.80024403,-0.28115582,0.3139454,-0.4266136,0.65931845
21464000,-0.8334627,0.2660625,-1.0986061,0.80103546,-0.2788532,0.31290704,-0.42740178,0.65994483
21488000,-0.82779753,0.26641476,-1.0986061,0.8018405,-0.27649164,0.31182653,-0.42821532,0.660802
21512000,-0.82200426,0.26677695,-1.0986061,0.80265665,-0.27407372,0.31072015,-0.4290441,0.66161656
21536000,-0.81607944,0.26712716,-1.0986061,0.8034828,-0.27160367,0.3095788,-0.4298928,0.66234607
21560000,-0.81003124,0.2674844,-1.0986061,0.8043182,-0.2690797,0.30841124,-0.4307561,0.6630132
21584000,-0.8038655,0.26783612,-1.0986061,0.80516106,-0.26650724,0.30721384,-0.43163544,0.663649
21608000,-0.7975893,0.26819146,-1.0986061,0.80601054,-0.2638867,0.30599138,-0.43252763,0.664193
21632000,-0.7911048,0.26855898,-1.0986061,0.8068791,-0.26117617,0.30472577,-0.43344575,0.6647234
21656000,-0.7844606,0.26893106,-1.0986061,0.80775946,-0.25839713,0.30342448,-0.43438357,0.6651938
21680000,-0.77768326,0.26930198,-1.0986061,0.8086472,-0.2555616,0.30209088,-0.43533784,0.66559625
21704000,-0.77076495,0.26968426,-1.0986061,0.80954325,-0.25266296,0.30072784,-0.43630704,0.6657349
21728000,-0.7637364,0.2700659,-1.0986061,0.8104427,-0.24971671,0.29933733,-0.43728867,0.6658322
21752000,-0.7565474,0.2704446,-1.0986061,0.811351,-0.24670288,0.29790735,-0.43829033,0.665879
21776000,-0.7492608,0.27082112,-1.0986061,0.81226,-0.2436467,0.29645178,-0.43930224,0.6658836
21800000,-0.74179834,0.27116472,-1.0986061,0.81317717,-0.24052428,0.2949415,-0.4403414,0.6663617
21824000,-0.7342349,0.271519,-1.0986061,0.8140947,-0.23735452,0.29340938,-0.4413882,0.6667995
21848000,-0.72645557,0.27188572,-1.0986061,0.8150257,-0.23408994,0.29183054,-0.442459,0.6672213
21872000,-0.71856695,0.27225175,-1.0986061,0.8159561,-0.23077735,0.2902233,-0.4435401,0.66757005
21896000,-0.7105688,0.27260238,-1.0986061,0.816885,-0.22742036,0.2885818,-0.444634,0.6680725
21920000,-0.70250106,0.2729522,-1.0986061,0.8178078,-0.22403139,0.28692034,-0.4457319,0.668498
21944000,-0.6943086,0.27329913,-1.0986061,0.81873024,-0.22058839,0.28522578,-0.446842,0.66883105
21968000,-0.685974,0.2736436,-1.0986061,0.81965345,-0.21708393,0.28349409,-0.44796628,0.6691082
21992000,-0.67755735,0.27398244,-1.0986061,0.8205703,-0.21354349,0.2817374,-0.44909638,0.66934705
22016000,-0.6690185,0.27431998,-1.0986061,0.8214847,-0.20994928,0.27994817,-0.450237,0.66950786
22040000,-0.6602345,0.27466917,-1.0986061,0.8224088,-0.20624729,0.27810356,-0.45140254,0.6696238
22064000,-0.6512763,0.27502105,-1.0986061,0.823334,-0.20246874,0.27621567,-0.45258418,0.6697158
22088000,-0.64221007,0.2753683,-1.0986061,0.82425237,-0.19864282,0.27429652,-0.45377356,0.6696869
22112000,-0.6330422,0.27571526,-1.0986061,0.8251629,-0.19477084,0.27234894,-0.4549687,0.6695948
22136000,-0.6237805,0.27605972,-1.0986061,0.8260641,-0.1908566,0.27037385,-0.45616862,0.66943324
22160000,-0.61435956,0.27640206,-1.0986061,0.8269615,-0.1868729,0.26835617,-0.45738167,0.6691964
22184000,-0.6048188,0.27673846,-1.0986061,0.8278506,-0.18283693,0.2663033,-0.4586028,0.6689116
22208000,-0.5951807,0.27707323,-1.0986061,0.8287287,-0.17875686,0.26422185,-0.45982778,0.66857487
22232000,-0.5853295,0.27741012,-1.0986061,0.82960516,-0.17458358,0.26208642,-0.46107095,0.66821444
22256000,-0.5752994,0.27775618,-1.0986061,0.83047616,-0.17032933,0.25990748,-0.4623261,0.66784036
22280000,-0.56519634,0.2780959,-1.0986061,0.83133113,-0.16604206,0.25770307,-0.4635813,0.6674056
22304000,-0.55500484,0.2784027,-1.0986061,0.8321707,-0.16172242,0.25545898,-0.4648423,0.6674226
22328000,-0.544708,0.27870756,-1.0986061,0.8329962,-0.15735516,0.25318345,-0.4661061,0.66732985
22352000,-0.53425133,0.27900687,-1.0986061,0.83381075,-0.15291855,0.2508621,-0.46737957,0.66715854
22376000,-0.5236969,0.27930093,-1.0986061,0.8346089,-0.14843827,0.24850932,-0.46865442,0.66693467
22400000,-0.51304495,0.27957267,-1.0986061,0.83539,-0.14391905,0.24611828,-0.4699327,0.6670115
22424000,-0.50240844,0.27984142,-1.0986061,0.83614534,-0.13940296,0.24372308,-0.47119728,0.6669781
22448000,-0.4915455,0.28011847,-1.0986061,0.8368916,-0.13478595,0.24127123,-0.47247583,0.666896
22472000,-0.48057806,0.28039676,-1.0986061,0.8376191,-0.13012084,0.23878841,-0.47375393,0.66675913
22496000,-0.46953171,0.28066888,-1.0986061,0.83832556,-0.12542039,0.23627761,-0.4750292,0.6664049
22520000,-0.45841947,0.2809373,-1.0986061,0.8390097,-0.120689444,0.2337428,-0.4762994,0.66596377
22544000,-0.44717348,0.28119975,-1.0986061,0.8396748,-0.11590019,0.23116681,-0.4775722,0.6654377
22568000,-0.43596548,0.2814546,-1.0986061,0.8403105,-0.11112525,0.22858992,-0.47882786,0.6648375
22592000,-0.42475444,0.28169623,-1.0986061,0.84091926,-0.106349036,0.22600013,-0.4800715,0.6642299
22616000,-0.41345146,0.28193194,-1.0986061,0.84150547,-0.10153241,0.22337903,-0.48131216,0.66353726
22640000,-0.40213022,0.28216684,-1.0986061,0.84206504,-0.096705064,0.2207464,-0.4825406,0.6627917
22664000,-0.39071763,0.28240836,-1.0986061,0.84260106,-0.091834396,0.21808761,-0.48376393,0.6620199
22688000,-0.37920395,0.28262335,-1.0986061,0.84311366,-0.08692518,0.21538673,-0.4849866,0.66161114
22712000,-0.36771592,0.2828325,-1.0986061,0.8435965,-0.08202548,0.21268281,-0.48619202,0.6611254
22736000,-0.3563051,0.28303283,-1.0986061,0.84404814,-0.07715801,0.20998737,-0.48737532,0.6605326
22760000,-0.3448898,0.28322628,-1.0986061,0.8444718,-0.07228799,0.20728144,-0.48854485,0.6598639
22784000,-0.3335108,0.28339714,-1.0986061,0.84486663,-0.06743698,0.20456861,-0.48969808,0.65948105
22808000,-0.32226768,0.28356254,-1.0986061,0.84522945,-0.06264271,0.20188047,-0.4908231,0.658984
22832000,-0.31101587,0.28371873,-1.0986061,0.84556544,-0.057845205,0.19918022,-0.4919352,0.6584246
22856000,-0.29961145,0.2838823,-1.0986061,0.8458781,-0.052979425,0.19643925,-0.4930467,0.6578177
22880000,-0.28829172,0.28404495,-1.0986061,0.84616077,-0.04814805,0.19371264,-0.4941348,0.6571656
22904000,-0.2769957,0.2841908,-1.0986061,0.84641564,-0.04332965,0.19097891,-0.49520716,0.65660936
22928000,-0.26585862,0.28433335,-1.0986061,0.8466401,-0.038578026,0.18827733,-0.49624974,0.6559671
22952000,-0.25483093,0.2844674,-1.0986061,0.8468364,-0.03387384,0.18559374,-0.49726823,0.65524894
22976000,-0.2438998,0.28459227,-1.0986061,0.84700525,-0.029211976,0.18292488,-0.49826416,0.6544675
23000000,-0.23315728,0.2846985,-1.0986061,0.8471468,-0.024634078,0.18029004,-0.49923038,0.65378785
23024000,-0.2225658,0.28479877,-1.0986061,0.84726226,-0.020121068,0.17768538,-0.50016975,0.65302885
23048000,-0.21211638,0.2848984,-1.0986061,0.8473525,-0.01566787,0.17511116,-0.5010832,0.6522312
23072000,-0.20154814,0.28500512,-1.0986061,0.8474198,-0.01116208,0.17250536,-0.501993,0.6514158
23096000,-0.19122495,0.2851006,-1.0986061,0.8474627,-0.006762788,0.16995177,-0.50286937,0.65042007
23120000,-0.18106037,0.2851881,-1.0986061,0.84748286,-0.002432674,0.16743036,-0.50372005,0.6493626
23144000,-0.17110723,0.2852648,-1.0986061,0.8474816,0.001805037,0.16495351,-0.5045414,0.6482338
23168000,-0.16142152,0.2853308,-1.0986061,0.8474603,0.005926535,0.16253573,-0.50532967,0.6470454
23192000,-0.151898,0.2853718,-1.0986061,0.8474208,0.009972625,0.16014479,-0.50609505,0.64619315
23216000,-0.14264046,0.28540552,-1.0986061,0.8473642,0.01390386,0.15781459,-0.50682867,0.6452747
23240000,-0.1335868,0.28542924,-1.0986061,0.84729147,0.017745782,0.15552859,-0.5075363,0.6442855
23264000,-0.12459883,0.28545702,-1.0986061,0.84720194,0.021560576,0.15325779,-0.5082283,0.64325875
23288000,-0.11580015,0.28547364,-1.0986061,0.8470982,0.025291838,0.15102743,-0.50889665,0.6423511
23312000,-0.10721817,0.2854824,-1.0986061,0.8469814,0.028928764,0.14884605,-0.5095394,0.64137244
23336000,-0.09893966,0.2854794,-1.0986061,0.84685457,0.032433603,0.1467344,-0.5101514,0.6403382
23360000,-0.09082195,0.2854656,-1.0986061,0.8467166,0.035866976,0.14465678,-0.51074356,0.63924384
23384000,-0.083035685,0.2854336,-1.0986061,0.8465721,0.039154727,0.14265382,-0.51130456,0.6382696
23408000,-0.07543828,0.2853955,-1.0986061,0.8464192,0.042360403,0.1406945,-0.5118448,0.6372284
23432000,-0.06808384,0.28534758,-1.0986061,0.84626025,0.045460105,0.13879125,-0.51236117,0.636131
23456000,-0.06090643,0.28529677,-1.0986061,0.8460943,0.04848356,0.13693026,-0.5128585,0.63499725
23480000,-0.053812448,0.28524852,-1.0986061,0.84591967,0.051471796,0.13508996,-0.51334333,0.63385344
23504000,-0.046983663,0.28518236,-1.0986061,0.8457426,0.054342613,0.13330857,-0.5138047,0.63283944
23528000,-0.040430866,0.28511065,-1.0986061,0.8455639,0.057094686,0.13159423,-0.51424193,0.6317729
23552000,-0.034065787,0.28502968,-1.0986061,0.8453825,0.05976443,0.12992284,-0.5146618,0.6306683
23576000,-0.027923854,0.2849392,-1.0986061,0.8452001,0.062336832,0.12830357,-0.51506215,0.6295142
23600000,-0.02205148,0.28483215,-1.0986061,0.8450196,0.064790495,0.12674557,-0.5154412,0.6285129
23624000,-0.016562754,0.2847197,-1.0986061,0.84484524,0.067080185,0.1252831,-0.51579165,0.62746215
23648000,-0.011234401,0.2845991,-1.0986061,0.8446706,0.06929954,0.12385762,-0.5161283,0.6263673
23672000,-0.005910178,0.28448445,-1.0986061,0.84449,0.071518265,0.12243481,-0.51646066,0.62526643
23696000,-0.000726243,0.28435594,-1.0986061,0.8443095,0.073673695,0.1210415,-0.516781,0.62444437
23720000,0.004193649,0.28422388,-1.0986061,0.84413373,0.07571632,0.11971412,-0.5170819,0.6235567
23744000,0.008953366,0.28408554,-1.0986061,0.84395975,0.07768931,0.11842479,-0.5173702,0.62263757
23768000,0.013407333,0.283939,-1.0986061,0.84379375,0.0795308,0.117210425,-0.51763767,0.62165856
23792000,0.017722342,0.28377664,-1.0986061,0.8436303,0.08130922,0.11602474,-0.5178947,0.6207628
23816000,0.02179876,0.28361017,-1.0986061,0.8434733,0.08298563,0.11489858,-0.5181355,0.61980647
23840000,0.02560158,0.2834297,-1.0986061,0.8433255,0.08454278,0.11383692,-0.5183587,0.61878455
23864000,0.029271822,0.28326118,-1.0986061,0.8431797,0.086046845,0.112814255,-0.5185719,0.6177515
23888000,0.0328417,0.2830865,-1.0986061,0.84303606,0.08750677,0.11181462,-0.5187777,0.6167608
23912000,0.036248572,0.28290194,-1.0986061,0.8428978,0.0888952,0.11085272,-0.5189728,0.6157144
23936000,0.039435986,0.28272334,-1.0986061,0.84276664,0.09019249,0.10994997,-0.51915383,0.6146467
23960000,0.04247397,0.28253055,-1.0986061,0.8426413,0.091422975,0.10907973,-0.5193257,0.6135384
23984000,0.045316,0.28231922,-1.0986061,0.84252447,0.092565976,0.10825227,-0.5194859,0.6126646
24008000,0.047926728,0.28210664,-1.0986061,0.84241694,0.09361107,0.10748415,-0.5196324,0.6117355
24032000,0.050322555,0.2734403,-1.0986061,0.8428721,0.0923932,0.10319475,-0.5199818,0.58732486
24056000,0.052563734,0.26476815,-1.0986061,0.8433229,0.0911081,0.09894054,-0.5203044,0.5550935
24080000,0.05485576,0.2560905,-1.0986061,0.84375983,0.089842424,0.0946683,-0.5206108,0.5252679
24104000,0.056930047,0.24740441,-1.0986061,0.84419507,0.08848209,0.09044687,-0.5208887,0.49804783
24128000,0.05883015,0.23870985,-1.0986061,0.8446261,0.08704533,0.08626505,-0.5211411,0.47309184
24152000,0.060257085,0.23000662,-1.0986061,0.8450655,0.08540565,0.0822009,-0.521357,0.45027536
24176000,0.061520025,0.2212944,-1.0986061,0.84549904,0.08369337,0.07817389,-0.52155125,0.42951345
24200000,0.06258023,0.21256728,-1.0986061,0.8459281,0.08189048,0.07419174,-0.52172333,0.41112858
24224000,0.06337076,0.20382509,-1.0986061,0.8463547,0.07996848,0.070271984,-0.52187216,0.39446694
24248000,0.06398636,0.19506763,-1.0986061,0.8467744,0.0779673,0.066389956,-0.5220024,0.37939736
24272000,0.06447878,0.18629473,-1.0986061,0.8471846,0.07590872,0.06253219,-0.5221166,0.36580944
24296000,0.065010786,0.17749567,-1.0986061,0.84757936,0.07385889,0.058651693,-0.52222025,0.3544771
24320000,0.065216474,0.16867064,-1.0986061,0.84797174,0.07166276,0.054844193,-0.5223031,0.3442904
24344000,0.06537,0.1598199,-1.0986061,0.8483509,0.069436535,0.051038288,-0.5223738,0.33514792
24368000,0.065385,0.1509438,-1.0986061,0.84871954,0.06714365,0.04725676,-0.52243054,0.32692373
24392000,0.06523193,0.14203192,-1.0986061,0.84907824,0.06476882,0.043502986,-0.5224735,0.32041568
24416000,0.06499525,0.133085,-1.0986061,0.84942377,0.062348053,0.039755266,-0.5225051,0.3145901
24440000,0.064610966,0.12410387,-1.0986061,0.8497572,0.059854366,0.036030754,-0.5225246,0.3093535
24464000,0.06418553,0.11508946,-1.0986061,0.8500749,0.05733321,0.032302104,-0.52253425,0.30463994
24488000,0.06376292,0.10602898,-1.0986061,0.85037565,0.054799996,0.028552428,-0.52253515,0.30145437
24512000,0.06330424,0.096923776,-1.0986061,0.85066015,0.052238572,0.024792533,-0.5225263,0.2986247
24536000,0.06277087,0.08777531,-1.0986061,0.85092896,0.049632914,0.021033188,-0.52250755,0.2960549
24560000,0.062196843,0.07858515,-1.0986061,0.8511805,0.046997923,0.017266246,-0.5224794,0.29373384
24584000,0.061640143,0.06934326,-1.0986061,0.8514135,0.04435572,0.013472347,-0.5224424,0.29244113
24608000,0.060942445,0.060051575,-1.0986061,0.8516309,0.041639447,0.009693738,-0.5223955,0.28755185
24632000,0.060243912,0.050712116,-1.0986061,0.851829,0.038909324,0.005894737,-0.5223396,0.27946275
24656000,0.059497282,0.045111585,-1.0986061,0.85194415,0.03713209,0.003702122,-0.5223013,0.27203572
24680000,0.058764104,0.04155174,-1.0986061,0.8520179,0.035892077,0.002375935,-0.5222755,0.26522803
24704000,0.058206853,0.03794863,-1.0986061,0.85208565,0.034715574,0.000985339,-0.52224874,0.25980222
24728000,0.057473972,0.034527384,-1.0986061,0.85215044,0.033511505,-0.000281882,-0.5222227,0.25479588
24752000,0.056748237,0.03128389,-1.0986061,0.8522093,0.032356683,-0.001475204,-0.5221974,0.25019923
24776000,0.055964783,0.028200582,-1.0986061,0.852264,0.031218912,-0.002585181,-0.52217317,0.2459006
24800000,0.055225007,0.024841066,-1.0986061,0.85231864,0.030027615,-0.003824328,-0.52214617,0.24326827
24824000,0.054377083,0.021652807,-1.0986061,0.8523697,0.028834771,-0.004962243,-0.52212036,0.24085233
24848000,0.053596713,0.018618746,-1.0986061,0.85241514,0.027710829,-0.006052059,-0.52209556,0.23859647
24872000,0.052799277,0.015734978,-1.0986061,0.85245657,0.026618727,-0.007073354,-0.522072,0.2364622
24896000,0.05211129,0.012719175,-1.0986061,0.8524954,0.025538744,-0.008179512,-0.5220465,0.23522426
24920000,0.05139968,0.009865677,-1.0986061,0.8525304,0.02449096,-0.009210309,-0.5220223,0.23410335
24944000,0.05064675,0.007141272,-1.0986061,0.8525625,0.023459174,-0.010175286,-0.52199936,0.23292878
24968000,0.049914908,0.004562471,-1.0986061,0.852591,0.022474308,-0.011083692,-0.52197754,0.23179865
24992000,0.049147394,0.001859931,-1.0986061,0.8526188,0.021441888,-0.012035539,-0.5219546,0.2313778
25016000,0.048308067,-0.000702583,-1.0986061,0.85264415,0.020415341,-0.012908949,-0.5219334,0.23088501
25040000,0.047523383,-0.003134718,-1.0986061,0.8526662,0.019446068,-0.013741034,-0.5219131,0.23032576
25064000,0.046664823,-0.005436125,-1.0986061,0.85268635,0.018479375,-0.014498107,-0.5218948,0.22969846
25088000,0.04579597,-0.008056125,-1.0986061,0.85270625,0.0174251,-0.015388314,-0.5218732,0.23016107
25112000,0.0450565,-0.010527205,-1.0986061,0.8527223,0.016464818,-0.016248789,-0.5218521,0.23054221
25136000,0.044241264,-0.012865962,-1.0986061,0.85273653,0.015506736,-0.01703308,-0.52183306,0.23079564
25160000,0.043482315,-0.015080296,-1.0986061,0.85274833,0.014605105,-0.017779013,-0.5218149,0.23089167
25184000,0.042583056,-0.017389838,-1.0986061,0.85275966,0.013618773,-0.01852892,-0.52179694,0.23138505
25208000,0.041735876,-0.019569077,-1.0986061,0.85276866,0.012688639,-0.019236863,-0.5217802,0.23171984
25232000,0.040788334,-0.021610294,-1.0986061,0.85277647,0.011751724,-0.019859781,-0.52176595,0.23195447
25256000,0.039894715,-0.023537826,-1.0986061,0.85278237,0.010867465,-0.020448305,-0.5217527,0.23198476
25280000,0.038996585,-0.025331099,-1.0986061,0.85278696,0.010016323,-0.02097842,-0.5217412,0.23195499
25304000,0.038098607,-0.027070003,-1.0986061,0.8527903,0.009179432,-0.021485396,-0.5217305,0.23197015
25328000,0.037181005,-0.028686974,-1.0986061,0.8527926,0.008366,-0.021935277,-0.5217216,0.23187447
25352000,0.036357135,-0.03018741,-1.0986061,0.85279375,0.007622956,-0.02235993,-0.5217132,0.23167312
25376000,0.035494123,-0.03157374,-1.0986061,0.85279423,0.006893014,-0.022725735,-0.5217067,0.23137766
25400000,0.034613453,-0.033158973,-1.0986061,0.8527934,0.006103603,-0.023171715,-0.5216983,0.23168659
25424000,0.033694465,-0.034622762,-1.0986061,0.85279197,0.005329563,-0.023555934,-0.52169186,0.23186426
25448000,0.032688733,-0.03597939,-1.0986061,0.8527901,0.004546515,-0.023871846,-0.521688,0.23191208
25472000,0.031672824,-0.037220653,-1.0986061,0.8527878,0.003789253,-0.02413593,-0.5216857,0.23187679
25496000,0.030855654,-0.03851116,-1.0986061,0.85278404,0.003103872,-0.024472842,-0.5216807,0.23211914
25520000,0.030014038,-0.039681777,-1.0986061,0.85278016,0.002439374,-0.024752274,-0.5216775,0.23228121
25544000,0.02918227,-0.040760957,-1.0986061,0.85277593,0.001802952,-0.0249953,-0.52167535,0.23227969
25568000,0.028150648,-0.041734893,-1.0986061,0.8527717,0.001108796,-0.025141336,-0.5216771,0.2322128
25592000,0.027216483,-0.042761803,-1.0986061,0.8527666,0.000442368,-0.025335373,-0.52167714,0.23241197
25616000,0.026264107,-0.043690145,-1.0986061,0.8527613,-0.000206082,-0.025482645,-0.52167875,0.23250163
25640000,0.025303993,-0.044524625,-1.0986061,0.852756,-0.000833323,-0.025587888,-0.52168155,0.23249751
25664000,0.024275163,-0.04525765,-1.0986061,0.85275084,-0.00146337,-0.025631964,-0.52168655,0.23244011
25688000,0.023227517,-0.04608407,-1.0986061,0.8527444,-0.002125816,-0.02571094,-0.5216909,0.23263937
25712000,0.022191292,-0.0468076,-1.0986061,0.852738,-0.002756527,-0.025749033,-0.5216964,0.23279208
25736000,0.021215502,-0.047435533,-1.0986061,0.85273206,-0.003336506,-0.025762148,-0.5217021,0.23291379
25760000,0.020229291,-0.047988858,-1.0986061,0.8527262,-0.003901443,-0.025740739,-0.521709,0.23292565
25784000,0.019328615,-0.048466172,-1.0986061,0.8527206,-0.004410067,-0.025709242,-0.5217155,0.23288411
25808000,0.0183895,-0.048859056,-1.0986061,0.8527153,-0.004913029,-0.025631726,-0.5217235,0.23284246
25832000,0.017359262,-0.049179986,-1.0986061,0.85271,-0.005436057,-0.025499769,-0.5217334,0.23276068
25856000,0.016375877,-0.049431417,-1.0986061,0.8527051,-0.005920962,-0.025350405,-0.5217434,0.23262435
25880000,0.015521158,-0.04961743,-1.0986061,0.85270095,-0.00633393,-0.025206719,-0.52175236,0.23245981
25904000,0.014614118,-0.049585637,-1.0986061,0.85269827,-0.006712347,-0.02495654,-0.52176404,0.23196138
25928000,0.013773098,-0.049494624,-1.0986061,0.8526962,-0.007047158,-0.024698334,-0.52177536,0.23144215
25952000,0.012926558,-0.049351938,-1.0986061,0.8526944,-0.007370834,-0.024416659,-0.52178705,0.23090741
25976000,0.012016269,-0.049148478,-1.0986061,0.8526927,-0.007705823,-0.02409244,-0.5218,0.23040134
26000000,0.01112284,-0.049218282,-1.0986061,0.8526886,-0.008104952,-0.023889095,-0.5218101,0.23048632
26024000,0.010115245,-0.049228553,-1.0986061,0.85268426,-0.008537214,-0.023630586,-0.5218219,0.23059648
26048000,0.009130411,-0.049198955,-1.0986061,0.85268027,-0.008949365,-0.02336101,-0.5218337,0.23065668
26072000,0.008073965,-0.04911177,-1.0986061,0.8526762,-0.009377012,-0.023048196,-0.5218468,0.23073614
26096000,0.006952791,-0.048983213,-1.0986061,0.8526721,-0.009821457,-0.022700852,-0.5218606,0.23076382
26120000,0.006007171,-0.048798308,-1.0986061,0.8526691,-0.010176347,-0.022375284,-0.52187264,0.2308305
26144000,0.005046204,-0.048570223,-1.0986061,0.85266644,-0.010526511,-0.022027295,-0.5218851,0.23089156
26168000,0.004184111,-0.048313115,-1.0986061,0.8526643,-0.010826946,-0.02169273,-0.52189636,0.23092197
26192000,0.00327822,-0.048011053,-1.0986061,0.85266227,-0.01113432,-0.021327564,-0.5219082,0.2309909
26216000,0.00235664,-0.047676936,-1.0986061,0.8526603,-0.011440019,-0.020944634,-0.52192026,0.23108076
26240000,0.001449474,-0.047313448,-1.0986061,0.8526587,-0.011731906,-0.020552935,-0.5219321,0.23118271
26264000,0.000517983,-0.046920765,-1.0986061,0.85265696,-0.012026547,-0.020142436,-0.52194405,0.23129065
26288000,-0.000427993,-0.046592936,-1.0986061,0.8526545,-0.012344287,-0.0197558,-0.5219555,0.23153591
26312000,-0.001311854,-0.04622766,-1.0986061,0.85265267,-0.012625773,-0.019369397,-0.5219663,0.23184226
26336000,-0.002176225,-0.045834266,-1.0986061,0.8526511,-0.012891614,-0.018976092,-0.5219768,0.23216857
26360000,-0.003010059,-0.045417782,-1.0986061,0.85264987,-0.01313841,-0.018580904,-0.5219869,0.23250304
26384000,-0.003890071,-0.04478681,-1.0986061,0.8526504,-0.01334892,-0.018082213,-0.52199817,0.23244953
26408000,-0.00485378,-0.044144236,-1.0986061,0.85265034,-0.013592088,-0.017556721,-0.5220099,0.23244834
26432000,-0.005804217,-0.04349108,-1.0986061,0.85265034,-0.013826837,-0.017030172,-0.5220211,0.23247845
26456000,-0.006678438,-0.04283099,-1.0986061,0.85265094,-0.014027284,-0.016520552,-0.52203125,0.2325402
26480000,-0.007580881,-0.042164475,-1.0986061,0.8526512,-0.01423809,-0.01600082,-0.52204126,0.23262629
26504000,-0.008579658,-0.041413285,-1.0986061,0.85265154,-0.014467872,-0.015419833,-0.522052,0.23257878
26528000,-0.009460715,-0.04066351,-1.0986061,0.85265255,-0.014647835,-0.014870168,-0.52206117,0.23253882
26552000,-0.010347135,-0.039901305,-1.0986061,0.8526535,-0.014826842,-0.014313791,-0.52207005,0.23259212
26576000,-0.011233015,-0.03914002,-1.0986061,0.8526544,-0.015005862,-0.013757946,-0.52207845,0.23269641
26600000,-0.012059796,-0.038475763,-1.0986061,0.85265476,-0.015185008,-0.013258894,-0.5220858,0.23303534
26624000,-0.01284993,-0.03781116,-1.0986061,0.8526552,-0.01534844,-0.012769254,-0.52209246,0.23339878
26648000,-0.01370879,-0.037144024,-1.0986061,0.85265505,-0.015540513,-0.012260588,-0.5220992,0.23379412
26672000,-0.014541817,-0.0364759,-1.0986061,0.85265505,-0.015721314,-0.01175824,-0.5221054,0.23423053
26696000,-0.015407435,-0.035640933,-1.0986061,0.8526562,-0.015872475,-0.01117624,-0.5221116,0.23433049
26720000,-0.016184412,-0.034811486,-1.0986061,0.852658,-0.015987288,-0.010619726,-0.5221169,0.23447156
26744000,-0.016855922,-0.033987142,-1.0986061,0.8526604,-0.016058471,-0.010092918,-0.52212113,0.23466088
26768000,-0.017579582,-0.033170644,-1.0986061,0.85266227,-0.016153933,-0.00955584,-0.5221253,0.23490238
26792000,-0.018356716,-0.032344762,-1.0986061,0.85266364,-0.016269745,-0.009000795,-0.52212924,0.23514824
26816000,-0.018999308,-0.031529725,-1.0986061,0.8526659,-0.016331028,-0.008485495,-0.5221322,0.23545066
26840000,-0.019739881,-0.03072487,-1.0986061,0.8526672,-0.016436743,-0.007948957,-0.52213526,0.23579715
26864000,-0.020428265,-0.029930377,-1.0986061,0.85266876,-0.01652291,-0.00743046,-0.5221376,0.23619603
26888000,-0.021134982,-0.02906914,-1.0986061,0.8526707,-0.01659948,-0.006878713,-0.52213967,0.23646508
26912000,-0.02180347,-0.028224014,-1.0986061,0.8526726,-0.016663952,-0.006343816,-0.5221411,0.23678952
26936000,-0.022493651,-0.027389593,-1.0986061,0.85267425,-0.016740467,-0.005807818,-0.52214235,0.23715015
26960000,-0.023152761,-0.026566168,-1.0986061,0.8526759,-0.016806608,-0.00528462,-0.522143,0.23756415
26984000,-0.023829736,-0.02566179,-1.0986061,0.852678,-0.016859239,-0.004722238,-0.52214324,0.23781134
27008000,-0.024424234,-0.024777079,-1.0986061,0.85268056,-0.016881838,-0.004189773,-0.522143,0.23810835
27032000,-0.025004871,-0.023908323,-1.0986061,0.85268295,-0.016902693,-0.003667731,-0.5221423,0.23846717
27056000,-0.025617126,-0.023056624,-1.0986061,0.85268486,-0.016941477,-0.003144709,-0.52214134,0.23888354
27080000,-0.026244722,-0.022222932,-1.0986061,0.8526864,-0.0169915,-0.002625359,-0.5221401,0.23935957
27104000,-0.026775785,-0.021344196,-1.0986061,0.852689,-0.01698861,-0.002112004,-0.52213824,0.23973614
27128000,-0.027337953,-0.020484848,-1.0986061,0.8526911,-0.017004043,-0.001598798,-0.52213615,0.24016723
27152000,-0.027884653,-0.01964297,-1.0986061,0.8526931,-0.017017439,-0.001097079,-0.52213377,0.24065672
27176000,-0.02834662,-0.018819097,-1.0986061,0.8526955,-0.016999407,-0.000625163,-0.5221311,0.24120069
27200000,-0.028767256,-0.017967595,-1.0986061,0.8526985,-0.016956542,-0.000152254,-0.5221281,0.24169773
27224000,-0.029335087,-0.017136207,-1.0986061,0.8526999,-0.016981684,0.000350504,-0.52212477,0.24224167
27248000,-0.029824136,-0.016322564,-1.0986061,0.85270184,-0.016977865,0.000825124,-0.52212125,0.2428334
27272000,-0.03032387,-0.01552636,-1.0986061,0.8527034,-0.016983151,0.001295097,-0.52211756,0.24347071
27296000,-0.030812195,-0.014691941,-1.0986061,0.8527053,-0.0169736,0.001778385,-0.5221134,0.24401365
27320000,-0.031309683,-0.013877731,-1.0986061,0.85270685,-0.01697323,0.002255446,-0.52210903,0.24459688
27344000,-0.031760626,-0.013082443,-1.0986061,0.8527086,-0.01695795,0.002712284,-0.5221045,0.24524298
27368000,-0.03210828,-0.012305535,-1.0986061,0.85271096,-0.016903428,0.00313432,-0.5221,0.24593174
27392000,-0.03255875,-0.011446033,-1.0986061,0.8527129,-0.016871188,0.00361841,-0.52209467,0.24639513
27416000,-0.033012174,-0.010606859,-1.0986061,0.8527147,-0.01684551,0.004094602,-0.5220892,0.24691473
27440000,-0.03337656,-0.009789372,-1.0986061,0.852717,-0.016787527,0.0045383,-0.52208364,0.2474917
27464000,-0.03385552,-0.00899218,-1.0986061,0.852718,-0.01678369,0.005003251,-0.52207774,0.24810974
