timestamp,ref_timestamp,ref_lat,ref_lon,x,y,z,vx,vy,vz,ax,ay,az,dist_bottom
1944000,756000,39.8714137,32.7364371,-1.89E-06,4.53E-07,-1.78E-06,-0.00034735,5.65E-05,-0.000852704,-0.038336597,-4.65E-05,-0.21061672,0.1
2048000,756000,39.8714137,32.7364371,7.73E-05,0.000120104,-0.034224864,0.00091332,0.002057531,-0.0181117,0.008980554,0.03871066,-0.15971902,0.1
2144000,756000,39.8714137,32.7364371,0.00038079,0.000440401,-0.05470763,0.003943439,0.005452917,-0.038485024,-0.043330856,0.044265278,-0.10960548,0.1
2240000,756000,39.8714137,32.7364371,0.000876296,0.001204861,-0.07232964,0.007121651,0.010637304,-0.056770846,0.086093694,0.005055292,-0.1342045,0.1
2344000,756000,39.8714137,32.7364371,0.001773899,0.002532059,-0.08893213,0.010639613,0.014003707,-0.07494471,0.005352776,0.052460603,-0.14668237,0.100466564
2440000,756000,39.8714137,32.7364371,0.002805439,0.003981018,-0.09609979,0.013745076,0.0201408,-0.08713365,0.012615651,0.021460945,-0.22166874,0.12598345
2544000,756000,39.8714137,32.7364371,0.004304173,0.006175961,-0.103827946,0.017781984,0.026192473,-0.10069888,0.014748816,0.046585932,-0.10380614,0.11930171
2640000,756000,39.8714137,32.7364371,0.005617996,0.008311902,-0.11387182,0.01877546,0.031973362,-0.11450093,-0.046174984,0.04375452,-0.21715555,0.12531467
2744000,756000,39.8714137,32.7364371,0.00723837,0.011140861,-0.12425271,0.022844758,0.037152942,-0.12865086,0.041165546,0.07832049,-0.11187977,0.13144645
2840000,756000,39.8714137,32.7364371,0.008627357,0.013630495,-0.13422185,0.0256383,0.042677194,-0.13730451,0.055052467,-0.002561443,-0.09851343,0.1341716
2944000,756000,39.8714137,32.7364371,0.010366745,0.01671294,-0.14340584,0.027029112,0.04484395,-0.14877373,0.01590565,0.044494823,-0.06417464,0.14106233
3040000,756000,39.8714137,32.7364371,0.011726848,0.019099724,-0.1497278,0.030064214,0.049122885,-0.15477271,0.03614403,0.08466298,-0.20176916,0.14934218
3144000,756000,39.8714137,32.7364371,0.013491947,0.022211125,-0.15398602,0.03233916,0.056774147,-0.15681675,0.030665103,0.16982692,-0.14221853,0.15480703
3240000,756000,39.8714137,32.7364371,0.014931024,0.025096659,-0.15889423,0.034988284,0.06338896,-0.16274378,0.055862516,0.15381584,-0.15929806,0.15804175
3344000,756000,39.8714137,32.7364371,0.016588528,0.028813502,-0.16551226,0.035321534,0.06983713,-0.17037667,0.030825218,0.12317372,-0.08238758,0.15477163
3448000,756000,39.8714137,32.7364371,0.017946849,0.032665025,-0.17070499,0.03683164,0.07955094,-0.17243682,0.001965789,0.17756791,-0.2006199,0.15642259
3544000,756000,39.8714137,32.7364371,0.01924711,0.03687831,-0.17627917,0.03597912,0.0867811,-0.17542423,-0.024426509,0.118960485,-0.1669554,0.1544582
3640000,756000,39.8714137,32.7364371,0.020310938,0.041405614,-0.1813508,0.036095545,0.094835825,-0.18122342,0.048674975,0.16672777,-0.14635454,0.15837103
3744000,756000,39.8714137,32.7364371,0.021180721,0.046710152,-0.18339503,0.035123866,0.10552,-0.18194401,0.000437169,0.09408232,-0.11734012,0.16342896
3840000,756000,39.8714137,32.7364371,0.022006223,0.052337524,-0.18483146,0.036784273,0.11375392,-0.18316042,0.048552636,0.15320103,-0.1608366,0.16710408
3944000,756000,39.8714137,32.7364371,0.022541564,0.05832682,-0.18503837,0.03656315,0.12431593,-0.18498942,0.01328501,0.20069377,-0.2426505,0.17101052
4040000,756000,39.8714137,32.7364371,0.023357468,0.06510052,-0.18369024,0.03731957,0.13514706,-0.18196413,0.09781845,0.1444203,-0.10512582,0.16666427
4144000,756000,39.8714137,32.7364371,0.023881475,0.071584895,-0.18294911,0.040804986,0.14428917,-0.18257445,0.051493157,0.14397153,-0.14879553,0.16494223
4248000,756000,39.8714137,32.7364371,0.025095338,0.079650864,-0.18279816,0.042051066,0.15417896,-0.18109441,0.040153693,0.1585582,-0.1798002,0.16165468
4344000,756000,39.8714137,32.7364371,0.025759717,0.08566765,-0.18494454,0.043710336,0.16339202,-0.18500678,0.043733478,0.12706201,-0.11364463,0.15581971
4440000,756000,39.8714137,32.7364371,0.027226863,0.094005354,-0.1878175,0.044737153,0.17091961,-0.18699388,-0.015260374,0.14250022,-0.1327507,0.15554708
4544000,756000,39.8714137,32.7364371,0.027687974,0.09951555,-0.19276488,0.044775486,0.17748554,-0.19135602,0.014017466,0.2029214,-0.070835456,0.14909318
4647999,756000,39.8714137,32.7364371,0.029204521,0.10829467,-0.1982662,0.048262887,0.185408,-0.19412854,0.06078948,0.19823852,-0.13391297,0.14713204
4743999,756000,39.8714137,32.7364371,0.029618913,0.11219827,-0.20283024,0.048482347,0.18837608,-0.19792616,0.06516114,0.17541341,-0.17814508,0.15319183
4848000,756000,39.8714137,32.7364371,0.030927306,0.11965926,-0.20709392,0.04758654,0.1926098,-0.20160528,0.04016954,0.12131195,-0.11286325,0.15223122
4944000,756000,39.8714137,32.7364371,0.030810073,0.12187198,-0.21359304,0.0472357,0.19507676,-0.20355831,0.03196839,0.1911047,-0.11368747,0.14621338
5048000,756000,39.8714137,32.7364371,0,0,-0.21848698,0.04841924,0.20074302,-0.20455913,0.027779808,0.21571332,-0.11408887,0.15300584
5152000,756000,39.8714137,32.7364371,0,0,-0.22616543,0.047109287,0.19911012,-0.20522097,0.027732734,0.14423028,-0.13873632,0.14670897
5248000,756000,39.8714137,32.7364371,0,0,-0.23233937,0.045023277,0.20290743,-0.20796302,0.011127834,0.13275926,-0.068116926,0.14765334
5344000,756000,39.8714137,32.7364371,0.024504252,0.06442915,-0.22754799,-0.000853414,0.060964286,-0.02678201,-0.06431348,0.1847898,-0.07573235,0.14682189
5448000,756000,39.8714137,32.7364371,0.018327286,0.0481664,-0.20742467,-0.002422412,0.062512666,-0.028810054,0.03312404,0.18052791,-0.10411906,0.14643776
5544000,756000,39.8714137,32.7364371,0.013270811,0.036400925,-0.18839043,-0.004474808,0.066922665,-0.033008125,-0.034942072,0.14927158,-0.07961876,0.13879246
5648000,756000,39.8714137,32.7364371,0.009422732,0.02949773,-0.16999003,-0.003250057,0.075454794,-0.036353644,-0.05384329,0.18217312,-0.069983296,0.12550235
5744000,756000,39.8714137,32.7364371,0.00714758,0.027095003,-0.15763159,-0.000799997,0.08366086,-0.04093286,-0.002147324,0.19232501,-0.0918135,0.11599421
5848000,756000,39.8714137,32.7364371,0.005696973,0.027936181,-0.14887665,-0.001518271,0.09400424,-0.04805369,0.028991807,0.20670119,-0.10316166,0.105549775
5944000,756000,39.8714137,32.7364371,0.005025554,0.030404745,-0.14402352,0.001255281,0.10100707,-0.05288659,0.021389801,0.19859955,-0.011284835,0.10405836
6048000,756000,39.8714137,32.7364371,0.004892586,0.033750866,-0.13967773,0.0014305,0.1062855,-0.057934586,-0.036713183,0.12407856,-0.07815286,0.10641263
6144000,756000,39.8714137,32.7364371,0.005078274,0.03759643,-0.13609447,0.003434901,0.1134341,-0.06131818,0.09332427,0.19709824,-0.09916536,0.10914943
6248000,756000,39.8714137,32.7364371,0.005636999,0.04183826,-0.13232724,0.00536515,0.11904927,-0.06388745,-0.028061839,0.15329354,-0.011036172,0.10790699
6344000,756000,39.8714137,32.7364371,0.006205902,0.04591715,-0.13034245,0.004437755,0.12266498,-0.06719302,0.022667896,0.14223711,-0.0729002,0.107399955
6448000,756000,39.8714137,32.7364371,0.006842534,0.048259787,-0.12742673,0.006614283,0.12161958,-0.067414664,0.06382612,0.16660015,-0.10128784,0.10705726
6544000,756000,39.8714137,32.7364371,0.007598644,0.050704885,-0.1250462,0.008532659,0.11959416,-0.07112138,0.022581762,0.18703145,-0.06428919,0.106815755
6648000,756000,39.8714137,32.7364371,0.008429674,0.051695753,-0.124605395,0.008961324,0.114630155,-0.07381657,-0.06360438,0.091347255,0.001445413,0.1033519
6744000,756000,39.8714137,32.7364371,0.009115954,0.053436194,-0.12383562,0.008277636,0.11325289,-0.07526315,0.06757718,0.07781138,-0.04344247,0.11003162
6848000,756000,39.8714137,32.7364371,0.009694118,0.054104768,-0.12318474,0.010252608,0.109381415,-0.07651288,0.034453433,0.15951203,-0.001573004,0.106261976
6952000,756000,39.8714137,32.7364371,0.010225655,0.055096053,-0.12303112,0.011126215,0.10599625,-0.07903014,0.036399532,0.16831182,-0.024350358,0.10999598
7048000,756000,39.8714137,32.7364371,0.010237549,0.054090485,-0.123885356,0.010547009,0.101085514,-0.082288325,0.014074321,0.16252962,-0.09911134,0.10413343
7152000,756000,39.8714137,32.7364371,0.010312664,0.0538192,-0.12434915,0.009341651,0.094724044,-0.07999871,-0.006131667,0.086334236,-0.012367032,0.11090004
7248000,756000,39.8714137,32.7364371,0.010183162,0.05153727,-0.12433171,0.009007121,0.09036118,-0.08142577,-0.00432189,0.13230729,-0.00038743,0.10891813
7344000,756000,39.8714137,32.7364371,0.010145283,0.05057163,-0.12490987,0.009537078,0.08757851,-0.08098071,0.08347781,0.069695406,0.006117858,0.111914985
7448000,756000,39.8714137,32.7364371,0.01024671,0.047132634,-0.12379204,0.011375484,0.08209405,-0.07804957,0.030945752,0.050103027,0.001622364,0.11452667
7544000,756000,39.8714137,32.7364371,0.01064996,0.045841042,-0.12206403,0.010994606,0.07793109,-0.07546066,-0.040654395,0.036003895,-0.001573935,0.11621115
7648000,756000,39.8714137,32.7364371,0.011516833,0.04088136,-0.11944046,0.013374181,0.06818389,-0.07340341,-0.02478098,0.028896755,0.041800547,0.10724817
7752000,756000,39.8714137,32.7364371,0.01264994,0.037603296,-0.1192869,0.01536587,0.060597967,-0.07253768,-0.00388248,0.055305686,-0.07425527,0.10581254
7848000,756000,39.8714137,32.7364371,0.013215546,0.0331021,-0.11863954,0.01579394,0.055575218,-0.07074393,0.07050372,0.039371748,0.005094334,0.107247114
7944000,756000,39.8714137,32.7364371,0.014176721,0.030649237,-0.11936299,0.017954828,0.05119418,-0.0704951,0.015914163,0.06704732,-0.067805864,0.10225751
8048000,756000,39.8714137,32.7364371,0.014648262,0.025250174,-0.11778558,0.01929777,0.043737054,-0.06726849,0.000948261,0.030107882,0.004935078,0.11004637
8144000,756000,39.8714137,32.7364371,0.015526529,0.022518363,-0.11648501,0.019985743,0.040731687,-0.064229056,0.020036152,0.045085818,-0.012442469,0.10550021
8248000,756000,39.8714137,32.7364371,0.015051133,0.018268524,-0.11377266,0.021254372,0.034652434,-0.060528934,0.0749835,-0.00187532,-0.04406273,0.1092367
8344000,756000,39.8714137,32.7364371,0.014396294,0.030263904,-0.11142499,-0.04119767,1.1542149,-0.028345617,-2.7737625,50.74379,1.3599907,0.10666914
8448000,756000,39.8714137,32.7364371,-0.006563481,0.42072824,-0.09755375,-0.3167898,6.2976875,0.11698322,-2.2848632,44.031914,1.1827284,0.1
8544000,756000,39.8714137,32.7364371,-0.04818211,1.2085966,-0.07457896,-0.5167588,10.054375,0.21919872,-1.9114401,35.02106,0.8349204,0.1
8648000,756000,39.8714137,32.7364371,-0.10160606,2.4174092,-0.04304349,-0.65991336,13.270392,0.3003153,-1.2093014,27.898893,0.7257582,0.1
8744000,756000,39.8714137,32.7364371,-0.16096172,3.8029306,-0.008869251,-0.7450857,15.665367,0.3471612,-1.287275,22.614878,0.24170613,0.1
8848000,756000,39.8714137,32.7364371,-0.20250006,5.535714,0.019257065,-0.7724719,17.765606,0.29061097,-1.1561587,17.80905,0.07257517,0.1
8944000,756000,39.8714137,32.7364371,-0.24007624,7.3072085,0.039419938,-0.79673976,19.23792,0.3077687,-0.9327332,13.435427,0.5530035,0.1
9048000,756000,39.8714137,32.7364371,-0.25597492,9.367599,0.054743916,-0.7730919,20.462027,0.31499678,-1.3191055,10.6940365,0.18942635,0.1
9144000,756000,39.8714137,32.7364371,-0.27153718,11.372643,0.06644443,-0.8051233,21.369982,0.2974219,-1.180399,8.366358,0.02254173,0.1
9248000,756000,39.8714137,32.7364371,-0.2769151,13.635207,0.06943325,-0.7844991,22.114796,0.2506248,-0.9215751,6.2307725,-0.3468869,0.1
9344000,756000,39.8714137,32.7364371,-0.2847871,15.784213,0.064842254,-0.78850436,22.621614,0.13741043,-1.2837842,4.5216675,-1.6461693,0.1
9448000,756000,39.8714137,32.7364371,-0.2965154,18.16319,0.034854576,-0.8607034,23.000912,-0.1773521,-1.931275,2.9272835,-3.7577317,0.1
9552000,756000,39.8714137,32.7364371,-0.3305625,20.573774,-0.03592362,-1.021422,23.23381,-0.6553302,-2.3773165,1.700376,-4.6532106,0.1
9648000,756000,39.8714137,32.7364371,-0.38525233,22.819754,-0.1483576,-1.1964155,23.355593,-1.1170993,-2.3581018,1.043438,-4.246907,0.2076569
9744000,756000,39.8714137,32.7364371,-0.4660052,25.074398,-0.2998214,-1.365369,23.426598,-1.5148082,-2.0628667,0.49521294,-3.6363432,0.35912073
9848000,756000,39.8714137,32.7364371,-0.58153164,27.52625,-0.5029217,-1.5398396,23.461044,-1.8794577,-1.954666,0.11365127,-3.1638005,0.562221
9944000,756000,39.8714137,32.7364371,-0.7131586,29.790354,-0.7197461,-1.7092432,23.454914,-2.1979644,-2.0238914,-0.32839072,-3.2087636,0.7790454
10048000,756000,39.8714137,32.7364371,-0.8860971,32.24455,-0.9853798,-1.9099015,23.413498,-2.551674,-2.0436947,-0.64347064,-3.3874583,1.0446792
10144000,756000,39.8714137,32.7364371,-1.0725346,34.50473,-1.2618368,-2.112833,23.34576,-2.8911183,-2.1816597,-0.97118026,-3.5070133,1.3211361
10248000,756000,39.8714137,32.7364371,-1.3067052,36.948,-1.5966955,-2.3354762,23.251123,-3.2555103,-2.0606413,-1.1185582,-3.299493,1.6559949
10344000,756000,39.8714137,32.7364371,-1.548587,39.19333,-1.9386916,-2.5348852,23.149298,-3.5755477,-1.9511032,-1.2169454,-3.2002263,1.997991
10448000,756000,39.8714137,32.7364371,-1.8403677,41.6152,-2.3434966,-2.7517452,23.023249,-3.908884,-1.8990189,-1.4568604,-3.0730457,2.4027958
10544000,756000,39.8714137,32.7364371,-2.1345325,43.838287,-2.7469082,-2.951685,22.895754,-4.2164154,-1.793665,-1.5699276,-3.2483404,2.8062074
10648000,756000,39.8714137,32.7364371,-2.4807792,46.232224,-3.2160683,-3.173908,22.741367,-4.5545855,-1.9127742,-1.654407,-3.315685,3.2753675
10752000,756000,39.8714137,32.7364371,-2.8533523,48.607967,-3.7198215,-3.3972335,22.569971,-4.901644,-1.7390226,-1.7644019,-3.3631175,3.7791207
10848000,756000,39.8714137,32.7364371,-3.2209532,50.78423,-4.2159047,-3.603534,22.398184,-5.2267165,-1.7908603,-1.9532399,-3.3994594,4.275204
10944000,756000,39.8714137,32.7364371,-3.6103885,52.943024,-4.741083,-3.8065894,22.216572,-5.551275,-1.7900465,-1.9922932,-3.3995674,4.8003826
11048000,756000,39.8714137,32.7364371,-4.0568504,55.2623,-5.340939,-4.020542,22.020628,-5.877357,-1.6449336,-1.8568184,-2.777024,5.4002385
11144000,756000,39.8714137,32.7364371,-4.4922843,57.38653,-5.918479,-4.244913,21.859354,-6.1026883,-2.1721065,-1.727824,-2.0848289,5.9777784
11248000,756000,39.8714137,32.7364371,-4.9905405,59.66968,-6.56477,-4.5512776,21.69341,-6.2775755,-2.891592,-1.7018346,-1.4362158,6.6240697
11344000,756000,39.8714137,32.7364371,-5.4835978,61.76215,-7.1767273,-4.8925624,21.53582,-6.4050746,-3.4336495,-1.9250461,-1.124558,7.236027
11448000,756000,39.8714137,32.7364371,-6.0552077,64.01028,-7.853719,-5.309434,21.35386,-6.51041,-3.7705321,-1.8838205,-1.0156305,7.9130187
11544000,756000,39.8714137,32.7364371,-6.6234016,66.0694,-8.488378,-5.721743,21.185957,-6.578842,-4.016667,-1.8315184,-0.46957374,8.547677
11648000,756000,39.8714137,32.7364371,-7.279584,68.280205,-9.182509,-6.1755853,21.006983,-6.614056,-4.062721,-1.8712763,-0.17174704,9.241809
11744000,756000,39.8714137,32.7364371,-7.92772,70.30621,-9.82433,-6.600657,20.846378,-6.616482,-4.1910214,-1.8276881,0.0901604,9.88363
11848000,756000,39.8714137,32.7364371,-8.67117,72.47966,-10.518346,-7.047851,20.553562,-6.5680914,-3.817708,-5.1320395,1.1051735,10.577645
11944000,756000,39.8714137,32.7364371,-9.397608,74.4461,-11.150903,-7.47093,20.048195,-6.476305,-4.604818,-5.4256,0.8629225,11.210202
12048000,756000,39.8714137,32.7364371,-10.230395,76.518715,-11.826752,-8.006566,19.510654,-6.3849993,-5.1804457,-4.987467,1.081447,11.886051
12144000,756000,39.8714137,32.7364371,-11.052891,78.38747,-12.437596,-8.529728,19.091133,-6.238915,-5.2666907,-4.044883,1.8386188,12.496896
12248000,756000,39.8714137,32.7364371,-11.995196,80.36858,-13.080703,-9.080579,18.728981,-6.001155,-5.0784345,-3.2342184,2.6039302,13.140002
12344000,756000,39.8714137,32.7364371,-12.916306,82.169106,-13.649937,-9.585977,18.461246,-5.7286468,-5.1008673,-2.6670418,2.9688005,13.709236
12448000,756000,39.8714137,32.7364371,-13.964554,84.08878,-14.234584,-10.151619,18.186487,-5.433145,-5.466796,-2.8888543,2.6826835,14.293883
12543999,756000,39.8714137,32.7364371,-14.988331,85.836395,-14.745048,-10.723891,17.899317,-5.192788,-6.0039606,-3.3987308,2.333104,14.804347
12648000,756000,39.8714137,32.7364371,-16.157444,87.69178,-15.274091,-11.393506,17.516844,-4.968496,-6.5708146,-4.0419183,1.9922358,15.33339
12752000,756000,39.8714137,32.7364371,-17.401344,89.50582,-15.780426,-12.119721,17.058794,-4.781959,-7.0148807,-4.861511,1.5473186,15.8397255
12856000,756000,39.8714137,32.7364371,-18.717827,91.2651,-16.269962,-12.876217,16.515894,-4.627342,-7.313096,-5.7084203,1.3186586,16.329262
12952000,756000,39.8714137,32.7364371,-20.005304,92.83977,-16.706236,-13.595616,15.944636,-4.506257,-7.4212284,-6.3989286,1.2060841,16.765535
13055999,756000,39.8714137,32.7364371,-21.475182,94.47653,-17.16563,-14.378602,15.247823,-4.389393,-7.434718,-7.1585646,1.0356922,17.22493
13151999,756000,39.8714137,32.7364371,-22.909153,95.922676,-17.57767,-15.110121,14.535631,-4.2914367,-7.491715,-7.9326634,0.9290766,17.636969
13256000,756000,39.8714137,32.7364371,-24.536911,97.40354,-18.015112,-15.898972,13.6757345,-4.199298,-7.4254584,-8.760783,0.7819831,18.074411
13352000,756000,39.8714137,32.7364371,-26.113558,98.68874,-18.409409,-16.622656,12.7961855,-4.1314783,-7.320888,-9.732097,0.5314182,18.468708
13456000,756000,39.8714137,32.7364371,-27.895042,99.97696,-18.831396,-17.386824,11.7466545,-4.079202,-7.1206703,-10.705453,0.34661123,18.890696
13552000,756000,39.8714137,32.7364371,-29.610762,101.06571,-19.216072,-18.069902,10.695461,-4.0437875,-6.8802323,-11.445437,0.29506347,19.275372
13656000,756000,39.8714137,32.7364371,-31.536894,102.12336,-19.630768,-18.75758,9.472732,-4.016303,-6.1811957,-12.100501,0.27979162,19.690067
13752000,756000,39.8714137,32.7364371,-33.37426,102.98798,-20.006304,-19.33935,8.293915,-3.9857175,-5.6513104,-12.549924,0.27532968,20.065603
13856000,756000,39.8714137,32.7364371,-35.421425,103.79095,-20.409271,-19.895367,6.9741416,-3.9461448,-4.9187493,-12.906749,0.3738403,20.46857
13952000,756000,39.8714137,32.7364371,-37.367924,104.41104,-20.775673,-20.343292,5.736621,-3.8933012,-4.174565,-12.989225,0.49440652,20.834972
14056000,756000,39.8714137,32.7364371,-39.516487,104.944984,-21.16855,-20.742285,4.390795,-3.8190157,-3.3571844,-12.929917,0.73956877,21.22785
14152000,756000,39.8714137,32.7364371,-41.533905,105.31695,-21.523615,-21.034233,3.1718886,-3.7329855,-2.5427706,-12.598898,0.9112404,21.582914
14256000,756000,39.8714137,32.7364371,-43.743416,105.586716,-21.900368,-21.265238,1.8865128,-3.6208389,-1.8150448,-12.134802,1.226291,21.959667
14352000,756000,39.8714137,32.7364371,-45.801918,105.722885,-22.235485,-21.41163,0.7472872,-3.4957337,-1.028118,-11.657291,1.3266019,22.294785
14456000,756000,39.8714137,32.7364371,-48.04162,105.74641,-22.583368,-21.501144,-0.4398355,-3.3442261,-0.4575273,-11.219156,1.5107607,22.642668
14552000,756000,39.8714137,32.7364371,-50.11544,105.66491,-22.889061,-21.53204,-1.4840719,-3.1901348,0.08314592,-10.780787,1.5734555,22.94836
14656000,756000,39.8714137,32.7364371,-52.360546,105.463295,-23.20284,-21.506107,-2.5706425,-3.0148532,0.5112865,-10.269606,1.7381244,23.26214
14752000,756000,39.8714137,32.7364371,-54.43393,105.18085,-23.476978,-21.44061,-3.5318162,-2.8489637,0.98355746,-9.915769,1.6789408,23.536278
14856000,756000,39.8714137,32.7364371,-56.668087,104.76993,-23.758585,-21.315472,-4.537653,-2.6720781,1.5267473,-9.51867,1.687996,23.817884
14952000,756000,39.8714137,32.7364371,-58.71778,104.30317,-24.00548,-21.158356,-5.432994,-2.5155578,1.9558293,-9.34926,1.5725074,24.06478
15056000,756000,39.8714137,32.7364371,-60.916798,103.69992,-24.256094,-20.93982,-6.3774705,-2.3471248,2.4244723,-9.032855,1.5916972,24.315393
15152000,756000,39.8714137,32.7364371,-62.926235,103.06136,-24.475039,-20.698715,-7.2261987,-2.2061758,2.7607598,-8.892494,1.4832131,24.534338
15256000,756000,39.8714137,32.7364371,-65.072716,102.27644,-24.698074,-20.390617,-8.130044,-2.0676289,3.33001,-8.689763,1.2740352,24.757374
15352000,756000,39.8714137,32.7364371,-67.02465,101.47434,-24.894602,-20.062027,-8.952559,-1.9580898,3.7892106,-8.649227,1.1801178,24.953901
15456000,756000,39.8714137,32.7364371,-69.09954,100.51552,-25.098127,-19.651201,-9.8399105,-1.8592447,4.4097686,-8.545873,0.9848363,25.157427
15552000,756000,39.8714137,32.7364371,-70.9789,99.54821,-25.2829,-19.217104,-10.656689,-1.7931784,4.9385514,-8.662501,0.648031,25.3422
15656000,756000,39.8714137,32.7364371,-72.96378,98.40866,-25.47896,-18.680271,-11.551095,-1.7473245,5.562739,-8.763581,0.43110734,25.53826
15752000,756000,39.8714137,32.7364371,-74.745316,97.27663,-25.66022,-18.119251,-12.38518,-1.7368677,6.311517,-8.887477,0.17731076,25.719519
15856000,756000,39.8714137,32.7364371,-76.60978,95.9589,-25.856487,-17.423296,-13.302294,-1.7599211,7.3198185,-9.090376,-0.18493737,25.915787
15960000,756000,39.8714137,32.7364371,-78.399055,94.54704,-26.060148,-16.622583,-14.23832,-1.8292303,8.415975,-9.26559,-0.72374934,26.119448
16056000,756000,39.8714137,32.7364371,-79.97066,93.1553,-26.256544,-15.769499,-15.122533,-1.9369621,9.70053,-9.446289,-1.0629678,26.315844
16152000,756000,39.8714137,32.7364371,-81.455376,91.681496,-26.468475,-14.792177,-16.016922,-2.0875075,11.072012,-9.512035,-1.5270197,26.527775
16256000,756000,39.8714137,32.7364371,-82.95118,89.99063,-26.720308,-13.589049,-16.976038,-2.3088217,12.61963,-9.330158,-2.0655048,26.779608
16352000,756000,39.8714137,32.7364371,-84.21514,88.34043,-26.979559,-12.315283,-17.84906,-2.5624228,14.326843,-9.257316,-2.524846,27.038858
16456000,756000,39.8714137,32.7364371,-85.43768,86.45808,-27.29403,-10.742573,-18.763468,-2.8866532,16.281681,-8.716066,-2.9453392,27.353329
16552000,756000,39.8714137,32.7364371,-86.41349,84.640076,-27.617477,-9.128665,-19.534487,-3.206966,17.674656,-7.787834,-3.0731502,27.676777
16656000,756000,39.8714137,32.7364371,-87.29177,82.59537,-28.00486,-7.265569,-20.242208,-3.562296,18.488853,-6.323822,-2.8608654,28.06416
16752000,756000,39.8714137,32.7364371,-87.928085,80.650955,-28.39678,-5.5223274,-20.731977,-3.8806007,18.219975,-4.4713554,-2.7779925,28.45608
16856000,756000,39.8714137,32.7364371,-88.432365,78.50343,-28.857931,-3.6978405,-21.07338,-4.2046485,17.301088,-2.83745,-2.4571502,28.91723
16952000,756000,39.8714137,32.7364371,-88.73382,76.497955,-29.311289,-2.120885,-21.233652,-4.465393,16.088942,-1.4285088,-1.9263372,29.370588
17056000,756000,39.8714137,32.7364371,-88.90084,74.321266,-29.832254,-0.56031,-21.268208,-4.7040696,14.556208,-0.1488421,-1.5214756,29.891554
17152000,756000,39.8714137,32.7364371,-88.914764,72.30936,-30.329102,0.73532706,-21.202536,-4.8796782,13.048601,0.8334566,-1.240801,30.388401
17256000,756000,39.8714137,32.7364371,-88.79644,70.14138,-30.890015,1.9974725,-21.0349,-5.0653367,11.71304,1.734773,-1.2601697,30.949314
17352000,756000,39.8714137,32.7364371,-88.57442,68.15602,-31.422613,3.0322738,-20.808336,-5.250509,10.368738,2.364679,-1.6037849,31.481913
17456000,756000,39.8714137,32.7364371,-88.23235,66.03477,-32.02237,3.9954734,-20.503069,-5.471592,8.7009325,2.8120508,-1.5966583,32.08167
17552000,756000,39.8714137,32.7364371,-87.83166,64.10244,-32.591637,4.742067,-20.198793,-5.673562,7.370532,2.9683714,-1.7469124,32.650936
17656000,756000,39.8714137,32.7364371,-87.32599,62.043995,-33.229977,5.410323,-19.853409,-5.897124,6.1194954,3.1610644,-1.8798139,33.289276
17752000,756000,39.8714137,32.7364371,-86.79905,60.171547,-33.833206,5.9249496,-19.529402,-6.106508,5.140433,3.2193413,-2.0866094,33.892506
17856000,756000,39.8714137,32.7364371,-86.18246,58.180805,-34.51154,6.3832946,-19.163668,-6.3730917,4.192854,3.393177,-2.5237722,34.57084
17952000,756000,39.8714137,32.7364371,-85.57031,56.372284,-35.158123,6.722642,-18.818838,-6.6439147,3.208112,3.4491715,-2.607909,35.217422
18056000,756000,39.8714137,32.7364371,-84.878044,54.448627,-35.891308,6.987898,-18.456984,-6.9473147,2.2488015,3.2130077,-2.6174755,35.950607
18152000,756000,39.8714137,32.7364371,-84.21373,52.700672,-36.58841,7.14926,-18.152937,-7.202052,1.4726975,3.035421,-2.3775957,36.64771
18256000,756000,39.8714137,32.7364371,-83.48384,50.83736,-37.370445,7.2423882,-17.862223,-7.448493,0.7068982,2.525006,-2.0094047,37.429745
18352000,756000,39.8714137,32.7364371,-82.7997,49.139114,-38.10966,7.275564,-17.631605,-7.635693,0.20518121,2.1888688,-1.6923797,38.16896
18456000,756000,39.8714137,32.7364371,-82.059265,47.32066,-38.926308,7.263218,-17.41875,-7.799406,-0.2022106,1.8421066,-1.2753959,38.985607
18552000,756000,39.8714137,32.7364371,-81.37373,45.657833,-39.688847,7.220319,-17.253292,-7.9161987,-0.45236564,1.5532376,-1.064131,39.748146
18656000,756000,39.8714137,32.7364371,-80.64314,43.87254,-40.527756,7.1405616,-17.105719,-8.013121,-0.7277887,1.3068541,-0.7124347,40.587055
18760000,756000,39.8714137,32.7364371,-79.91691,42.098507,-41.371048,7.03987,-16.991022,-8.075347,-0.9844769,0.84168947,-0.42546725,41.430347
18856000,756000,39.8714137,32.7364371,-79.25758,40.465603,-42.15344,6.9319296,-16.908646,-8.106475,-1.1309912,0.7970349,-0.1494549,42.212738
18952000,756000,39.8714137,32.7364371,-78.60521,38.839973,-42.936226,6.816117,-16.841541,-8.115359,-1.116617,0.6300453,-0.03117509,42.995525
19056000,756000,39.8714137,32.7364371,-77.91439,37.081974,-43.78338,6.680847,-16.789335,-8.107821,-1.3134094,0.51295197,0.15072803,43.842678
19152000,756000,39.8714137,32.7364371,-77.28609,35.46404,-44.562717,6.5519867,-16.753168,-8.088843,-1.2566651,0.2959268,0.28615722,44.622017
19256000,756000,39.8714137,32.7364371,-76.621056,33.708813,-45.404663,6.4074874,-16.729198,-8.049999,-1.3397021,0.28051412,0.42298898,45.463963
19352000,756000,39.8714137,32.7364371,-76.01771,32.092167,-46.177334,6.274936,-16.713755,-8.002651,-1.2762892,0.22274208,0.54249257,46.236633
19456000,756000,39.8714137,32.7364371,-75.38127,30.341469,-47.010105,6.1309443,-16.706549,-7.941851,-1.2569778,0.06717653,0.64687985,47.069405
19552000,756000,39.8714137,32.7364371,-74.80476,28.7273,-47.772186,6.0003986,-16.704786,-7.8745093,-1.2390211,0.03934442,0.74756885,47.831486
19656000,756000,39.8714137,32.7364371,-74.19336,26.975325,-48.58927,5.861943,-16.709885,-7.7926626,-1.2889917,0.000468222,0.7734838,48.64857
19752000,756000,39.8714137,32.7364371,-73.63948,25.35893,-49.335182,5.7386174,-16.72019,-7.7100306,-1.3425825,-0.059274256,0.968907,49.39448
19856000,756000,39.8714137,32.7364371,-73.052536,23.603735,-50.13402,5.605639,-16.71835,-7.6084056,-1.3685919,0.5932324,1.260383,50.19332
19952000,756000,39.8714137,32.7364371,-72.522804,21.990171,-50.859108,5.4591117,-16.605623,-7.453038,-1.5072129,1.7954347,2.0349393,50.918407
20056000,756000,39.8714137,32.7364371,-71.96498,20.254274,-51.623672,5.293722,-16.408838,-7.197068,-1.525738,2.1533308,2.921554,51.682972
20152000,756000,39.8714137,32.7364371,-71.46373,18.673197,-52.300858,5.152807,-16.206049,-6.8859653,-1.3656837,2.2554486,3.6169596,52.360157
20256000,756000,39.8714137,32.7364371,-70.93561,16.98117,-52.997173,5.01922,-15.999157,-6.4788675,-1.056705,1.9344556,4.2224145,53.056473
20352000,756000,39.8714137,32.7364371,-70.458664,15.439031,-53.59968,4.91919,-15.83281,-6.045493,-0.90855414,1.7142802,4.7939734,53.65898
20456000,756000,39.8714137,32.7364371,-69.95161,13.781353,-54.202106,4.828074,-15.685063,-5.5180683,-0.840801,1.442945,5.447378,54.261406
20552000,756000,39.8714137,32.7364371,-69.49065,12.265742,-54.705803,4.756978,-15.558426,-4.9793706,-0.7033316,1.3063034,5.8589835,54.765102
20656000,756000,39.8714137,32.7364371,-68.9985,10.63545,-55.191063,4.6837845,-15.433835,-4.3763967,-0.6709483,1.3417404,5.800735,55.250362
20752000,756000,39.8714137,32.7364371,-68.55052,9.143219,-55.582977,4.6159844,-15.321393,-3.8324907,-0.65338856,1.2739316,5.6195936,55.642277
20856000,756000,39.8714137,32.7364371,-68.07214,7.536333,-55.949142,4.5421224,-15.205297,-3.2678382,-0.6926797,1.2095698,5.3424115,56.008442
20952000,756000,39.8714137,32.7364371,-67.63688,6.064516,-56.23559,4.474923,-15.108735,-2.7676318,-0.6920822,1.0039266,5.0484705,56.29489
21056000,756000,39.8714137,32.7364371,-67.17289,4.4806223,-56.494495,4.402991,-15.019014,-2.2447226,-0.73344445,0.89061093,4.9545245,56.553795
21152000,756000,39.8714137,32.7364371,-66.75146,3.0275016,-56.68758,4.334253,-14.952376,-1.7799793,-0.81254154,0.6820654,4.65739,56.74688
21256000,756000,39.8714137,32.7364371,-66.302505,1.4577454,-56.847923,4.255982,-14.897299,-1.2960111,-0.7705561,0.5321507,4.5733747,56.907223
21352000,756000,39.8714137,32.7364371,-65.89542,0.013060748,-56.952045,4.180174,-14.86139,-0.87525165,-0.8243402,0.32817706,4.3393507,57.011345
21456000,756000,39.8714137,32.7364371,-65.46252,-1.5494561,-57.020897,4.085061,-14.840116,-0.4441893,-0.99684376,0.22195831,4.076901,57.080196
21552000,756000,39.8714137,32.7364371,-65.07185,-2.9908938,-57.046124,3.9848545,-14.834691,-0.07520575,-1.1404637,0.023457192,3.7353358,57.105423
21656000,756000,39.8714137,32.7364371,-64.660126,-4.553852,-57.035458,3.8617592,-14.847222,0.2932722,-1.2495251,-0.1017283,3.3207269,57.094757
21752000,756000,39.8714137,32.7364371,-64.29209,-5.999385,-56.99229,3.7319772,-14.875059,0.6070039,-1.3987335,-0.2898824,3.116069,57.05159
21856000,756000,39.8714137,32.7364371,-63.90822,-7.56616,-56.91152,3.5699692,-14.917367,0.91543204,-1.6360391,-0.4173189,2.7482579,56.970818
21952000,756000,39.8714137,32.7364371,-63.56953,-9.016012,-56.8089,3.3998892,-14.97402,1.1707488,-1.9321342,-0.5778524,2.5084836,56.8682
22056000,756000,39.8714137,32.7364371,-63.221767,-10.592739,-56.672745,3.1898,-15.047807,1.4140177,-2.183502,-0.6502149,2.228909,56.732044
22152000,756000,39.8714137,32.7364371,-62.92052,-12.056499,-56.526352,2.9725661,-15.129007,1.6115006,-2.381455,-0.8361152,1.977778,56.58565
22256000,756000,39.8714137,32.7364371,-62.61954,-13.649958,-56.34632,2.7072744,-15.224071,1.8011564,-2.6690817,-0.8700507,1.7180032,56.40562
22352000,756000,39.8714137,32.7364371,-62.367264,-15.131785,-56.165337,2.4367945,-15.322341,1.9461949,-2.951033,-0.9475601,1.3157455,56.224636
22456000,756000,39.8714137,32.7364371,-62.125324,-16.747307,-55.954823,2.1115022,-15.432821,2.0767243,-3.3267548,-1.0136412,1.146852,56.014122
22552000,756000,39.8714137,32.7364371,-61.933178,-18.252333,-55.75032,1.7835445,-15.539796,2.1717927,-3.5201836,-1.0354698,0.8481545,55.80962
22656000,756000,39.8714137,32.7364371,-61.762257,-19.890648,-55.52045,1.4015055,-15.653319,2.2480361,-3.8013518,-1.0089859,0.66413635,55.57975
22752000,756000,39.8714137,32.7364371,-61.64043,-21.41411,-55.30286,1.0214201,-15.7555895,2.2984102,-4.0791035,-0.9802038,0.50795543,55.36216
22856000,756000,39.8714137,32.7364371,-61.552082,-23.073414,-55.061726,0.58241713,-15.860978,2.3293295,-4.32713,-0.84509856,0.21376832,55.121025
22952000,756000,39.8714137,32.7364371,-61.513474,-24.617714,-54.83561,0.15151046,-15.950462,2.3403802,-4.625515,-0.70837486,0.013609416,54.89491
23056000,756000,39.8714137,32.7364371,-61.52014,-26.296494,-54.589226,-0.3375255,-16.032969,2.3326821,-4.7797976,-0.68245244,-0.15819257,54.648525
23152000,756000,39.8714137,32.7364371,-61.573177,-27.858305,-54.363773,-0.8057843,-16.096594,2.3081002,-4.964761,-0.45242673,-0.36528426,54.423073
23256000,756000,39.8714137,32.7364371,-61.68214,-29.552784,-54.12365,-1.3237627,-16.14588,2.269461,-5.0310583,-0.38089836,-0.35646927,54.18295
23352000,756000,39.8714137,32.7364371,-61.83113,-31.127016,-53.90702,-1.8076013,-16.17443,2.2277944,-5.1147923,-0.101784356,-0.46192852,53.96632
23456000,756000,39.8714137,32.7364371,-62.045216,-32.828506,-53.67803,-2.3354657,-16.180056,2.1692913,-5.037992,0.11127418,-0.5943998,53.737328
23552000,756000,39.8714137,32.7364371,-62.29195,-34.403004,-53.472656,-2.8230677,-16.168028,2.1077015,-5.071655,0.3959711,-0.78081614,53.531956
23656000,756000,39.8714137,32.7364371,-62.612198,-36.100956,-53.256725,-3.3483243,-16.12991,2.0291543,-5.081792,0.52179116,-0.8036391,53.316025
23752000,756000,39.8714137,32.7364371,-62.957874,-37.67105,-53.0638,-3.8277562,-16.078295,1.9547546,-4.891878,0.84503895,-0.8201645,53.1231
23856000,756000,39.8714137,32.7364371,-63.38343,-39.35836,-52.862896,-4.3385863,-16.00194,1.8653879,-4.796601,0.9199848,-0.90054697,52.922195
23952000,756000,39.8714137,32.7364371,-63.825825,-40.91638,-52.684853,-4.794899,-15.916514,1.7788568,-4.665716,1.0991522,-0.9404206,52.744152
24056000,756000,39.8714137,32.7364371,-64.35245,-42.586193,-52.50128,-5.2700853,-15.800546,1.6839876,-4.50176,1.2669517,-0.95384467,52.56058
24152000,756000,39.8714137,32.7364371,-64.888535,-44.125748,-52.338715,-5.6971936,-15.685605,1.599302,-4.3613834,1.4047524,-0.95807385,52.398014
24256000,756000,39.8714137,32.7364371,-65.51166,-45.771717,-52.171608,-6.133798,-15.540458,1.5063881,-4.0772614,1.6513549,-0.93862593,52.230907
24352000,756000,39.8714137,32.7364371,-66.12925,-47.282364,-52.023922,-6.5190387,-15.400282,1.4212065,-3.9072082,1.6771213,-0.9859036,52.08322
24456000,756000,39.8714137,32.7364371,-66.83648,-48.896576,-51.874096,-6.9128747,-15.236787,1.3264959,-3.6980977,1.6815234,-0.9615533,51.933395
24552000,756000,39.8714137,32.7364371,-67.53102,-50.379047,-51.74419,-7.2569404,-15.085703,1.2407925,-3.35559,1.7769462,-0.9199753,51.80349
24656000,756000,39.8714137,32.7364371,-68.316246,-51.961338,-51.61391,-7.602277,-14.912756,1.153832,-3.1277387,1.7769817,-0.87408715,51.67321
24752000,756000,39.8714137,32.7364371,-69.076645,-53.411976,-51.500153,-7.900933,-14.7589655,1.0797081,-2.894363,1.7421545,-0.8640065,51.559452
24856000,756000,39.8714137,32.7364371,-69.928665,-54.960987,-51.38422,-8.1972685,-14.588794,1.0062604,-2.6028774,1.7310658,-0.6384635,51.44352
24952000,756000,39.8714137,32.7364371,-70.74732,-56.382072,-51.281948,-8.452748,-14.438868,0.945505,-2.4475625,1.6765436,-0.6281463,51.341248
25056000,756000,39.8714137,32.7364371,-71.65714,-57.899128,-51.17841,-8.704215,-14.27611,0.8846303,-2.2225697,1.6665995,-0.615742,51.23771
25152000,756000,39.8714137,32.7364371,-72.52274,-59.28646,-51.088745,-8.916484,-14.133995,0.83357817,-2.0201385,1.5876429,-0.48504955,51.148045
25256000,756000,39.8714137,32.7364371,-73.47946,-60.769566,-50.998142,-9.123918,-13.989442,0.7893246,-1.8451284,1.4470412,-0.49035156,51.05744
25352000,756000,39.8714137,32.7364371,-74.38586,-62.12845,-50.91803,-9.29764,-13.862471,0.7528314,-1.5973709,1.385362,-0.46654695,50.97733
25456000,756000,39.8714137,32.7364371,-75.38259,-63.58275,-50.835342,-9.465396,-13.732232,0.7184466,-1.3144681,1.2681601,-0.31375417,50.89464
25552000,756000,39.8714137,32.7364371,-76.32095,-64.9162,-50.760914,-9.611173,-13.624189,0.6939148,-1.2055932,1.1651438,-0.26840064,50.820213
25656000,756000,39.8714137,32.7364371,-77.34971,-66.346725,-50.684166,-9.746712,-13.519504,0.6738864,-1.1332172,0.9838413,-0.19992049,50.743465
25752000,756000,39.8714137,32.7364371,-78.31484,-67.66021,-50.61474,-9.857587,-13.435809,0.66211617,-1.0351804,0.9007617,-0.12670642,50.674038
25856000,756000,39.8714137,32.7364371,-79.36934,-69.0715,-50.540867,-9.964636,-13.3530035,0.6585967,-0.80995446,0.8848293,0.0806963,50.600166
25952000,756000,39.8714137,32.7364371,-80.35283,-70.36604,-50.47362,-10.0546665,-13.285787,0.6643037,-0.80734795,0.6827634,0.039770264,50.53292
26056000,756000,39.8714137,32.7364371,-81.42522,-71.75943,-50.400105,-10.1343,-13.227708,0.6791932,-0.5366607,0.52124435,0.10285433,50.459404
26160000,756000,39.8714137,32.7364371,-82.507515,-73.14822,-50.324593,-10.202843,-13.184594,0.69561493,-0.5015892,0.45357355,0.15677604,50.383892
26256000,756000,39.8714137,32.7364371,-83.510826,-74.42462,-50.25254,-10.256494,-13.152229,0.71421105,-0.4361252,0.37227616,0.16828811,50.31184
26352000,756000,39.8714137,32.7364371,-84.519485,-75.698555,-50.178726,-10.302112,-13.130773,0.7332375,-0.33116803,0.29467365,0.23403203,50.238026
26456000,756000,39.8714137,32.7364371,-85.61579,-77.07626,-50.096237,-10.337934,-13.119533,0.75591636,-0.10401214,0.105521865,0.16276164,50.155537
26552000,756000,39.8714137,32.7364371,-86.631676,-78.34767,-50.018654,-10.361703,-13.1203985,0.7784401,-0.013369018,0.017769227,0.16137491,50.077953
26656000,756000,39.8714137,32.7364371,-87.734116,-79.72498,-49.932762,-10.379018,-13.1302595,0.8011026,0.024636915,-0.068602614,0.21273921,49.99206
26752000,756000,39.8714137,32.7364371,-88.75148,-80.995766,-49.85251,-10.38774,-13.149639,0.81712335,0.069933936,-0.24847539,0.20328256,49.911808
26856000,756000,39.8714137,32.7364371,-89.85416,-82.37387,-49.76398,-10.387371,-13.178202,0.83159024,0.16085558,-0.23799987,0.10609347,49.82328
26952000,756000,39.8714137,32.7364371,-90.87084,-83.64839,-49.682175,-10.379792,-13.215142,0.8409192,0.2631701,-0.3864092,0.122514546,49.741474
27056000,756000,39.8714137,32.7364371,-91.97126,-85.03357,-49.593517,-10.359473,-13.260399,0.846724,0.3778691,-0.45600745,0.030818393,49.652817
27152000,756000,39.8714137,32.7364371,-92.98305,-86.31583,-49.511906,-10.332038,-13.308717,0.8491586,0.39160725,-0.45192805,-0.06330385,49.571205
27256000,756000,39.8714137,32.7364371,-94.07784,-87.71153,-49.423203,-10.293536,-13.3679,0.8474909,0.55382615,-0.5806747,-0.065193504,49.482502
27352000,756000,39.8714137,32.7364371,-95.082375,-89.00556,-49.342655,-10.247889,-13.4298115,0.838465,0.59436154,-0.6421063,-0.16525573,49.401955
27456000,756000,39.8714137,32.7364371,-96.166985,-90.41697,-49.25735,-10.19042,-13.50609,0.82222354,0.67578125,-0.78718615,-0.15680212,49.31665
27552000,756000,39.8714137,32.7364371,-97.15902,-91.72438,-49.180557,-10.129004,-13.579021,0.80381113,0.7921749,-0.7348504,-0.241152,49.239857
27656000,756000,39.8714137,32.7364371,-98.22888,-93.14846,-49.10137,-10.056087,-13.660536,0.77626705,0.85882396,-0.7784689,-0.23390073,49.16067
27760000,756000,39.8714137,32.7364371,-99.28821,-94.58051,-49.02516,-9.976028,-13.747112,0.7439498,0.9541641,-0.7380442,-0.32814312,49.08446
27856000,756000,39.8714137,32.7364371,-100.260284,-95.91206,-48.957867,-9.895843,-13.82659,0.7084506,0.9903147,-0.80569315,-0.39296502,49.017166
27952000,756000,39.8714137,32.7364371,-101.220985,-97.249535,-48.89378,-9.808883,-13.907143,0.6692859,0.98803705,-0.82416236,-0.38539243,48.95308
28056000,756000,39.8714137,32.7364371,-102.25738,-98.7098,-48.82863,-9.711658,-13.996332,0.61927396,1.0705587,-0.8756607,-0.4626354,48.887928
28152000,756000,39.8714137,32.7364371,-103.20059,-100.06441,-48.7737,-9.61381,-14.07802,0.57105905,1.1260911,-0.7565524,-0.5784686,48.833
28256000,756000,39.8714137,32.7364371,-104.216415,-101.54487,-48.719006,-9.507685,-14.166916,0.5155714,1.1252456,-0.7849215,-0.6058253,48.778305
28352000,756000,39.8714137,32.7364371,-105.13853,-102.91597,-48.6745,-9.403932,-14.243182,0.46071994,1.1904297,-0.744015,-0.60530096,48.7338
28456000,756000,39.8714137,32.7364371,-106.12893,-104.40899,-48.633568,-9.290329,-14.324058,0.3989382,1.2767165,-0.7170145,-0.5745468,48.692867
28551999,756000,39.8714137,32.7364371,-107.02794,-105.79203,-48.60081,-9.180784,-14.389492,0.34041172,1.1561522,-0.66102535,-0.58898807,48.66011
28655999,756000,39.8714137,32.7364371,-107.99517,-107.29997,-48.571583,-9.061991,-14.458083,0.2783093,1.2225554,-0.60462177,-0.6016609,48.630882
28752000,756000,39.8714137,32.7364371,-108.8715,-108.69544,-48.551247,-8.9498205,-14.516574,0.22102448,1.1846844,-0.57980114,-0.50593257,48.610546
28856000,756000,39.8714137,32.7364371,-109.81364,-110.21424,-48.53584,-8.833618,-14.573125,0.15794769,1.2135912,-0.5226558,-0.64148843,48.59514
28960000,756000,39.8714137,32.7364371,-110.73891,-111.736855,-48.52848,-8.721096,-14.621416,0.097947374,1.107338,-0.39090544,-0.5717659,48.58778
29063999,756000,39.8714137,32.7364371,-111.65754,-113.26927,-48.52849,-8.612364,-14.666986,0.035746,1.1059312,-0.28260478,-0.55957323,48.587788
29167999,756000,39.8714137,32.7364371,-112.559654,-114.803185,-48.533672,-8.504533,-14.706809,-0.022492962,1.0405025,-0.27780002,-0.5183398,48.59297
29264000,756000,39.8714137,32.7364371,-113.386734,-116.224205,-48.544086,-8.411501,-14.737738,-0.0755537,1.0348858,-0.21795492,-0.51151866,48.603386
29368000,756000,39.8714137,32.7364371,-114.268105,-117.76439,-48.560493,-8.311459,-14.7652235,-0.12792157,0.97940737,-0.17842193,-0.5233278,48.619793
29472000,756000,39.8714137,32.7364371,-115.14464,-119.30837,-48.581932,-8.222939,-14.78775,-0.1753916,0.8742154,-0.02776172,-0.35111326,48.64123
29576000,756000,39.8714137,32.7364371,-116.00727,-120.85187,-48.60811,-8.1375,-14.801452,-0.21957394,0.8818377,-0.05193624,-0.44370347,48.667408
29679999,756000,39.8714137,32.7364371,-116.8655,-122.39753,-48.640186,-8.0587015,-14.809524,-0.2646936,0.76081115,-0.078101024,-0.3901168,48.699486
29783999,756000,39.8714137,32.7364371,-117.71185,-123.94207,-48.67767,-7.98307,-14.810931,-0.3041779,0.7987634,0.12378053,-0.35077256,48.73697
29888000,756000,39.8714137,32.7364371,-118.55309,-125.486946,-48.719982,-7.914756,-14.80771,-0.34054032,0.6663464,-0.009219038,-0.20346382,48.77928
29984000,756000,39.8714137,32.7364371,-119.31968,-126.910736,-48.762825,-7.858688,-14.798028,-0.36991748,0.5831602,0.1257817,-0.25429574,48.822124
30088000,756000,39.8714137,32.7364371,-120.14724,-128.45042,-48.812122,-7.805387,-14.783761,-0.3991871,0.5488557,0.11287513,-0.302433,48.87142
30184000,756000,39.8714137,32.7364371,-120.903275,-129.86983,-48.858448,-7.759627,-14.767823,-0.42204478,0.51539606,0.22147144,-0.1651421,48.917747
30288000,756000,39.8714137,32.7364371,-121.72273,-131.40988,-48.910934,-7.718471,-14.745333,-0.44156203,0.3748803,0.24369872,-0.080911435,48.970234
30384000,756000,39.8714137,32.7364371,-122.47114,-132.82736,-48.959854,-7.685213,-14.720904,-0.4519625,0.42107186,0.3267096,-0.06606988,49.019154
30488000,756000,39.8714137,32.7364371,-123.281586,-134.35895,-49.01315,-7.655703,-14.691823,-0.46025568,0.3725911,0.3172157,0.026757827,49.07245
30584000,756000,39.8714137,32.7364371,-124.02308,-135.76886,-49.063007,-7.6314716,-14.660512,-0.46680397,0.26665837,0.34313092,-0.035966743,49.122307
30688000,756000,39.8714137,32.7364371,-124.82997,-137.29807,-49.118477,-7.615134,-14.626432,-0.46949375,0.13301718,0.3380148,0.039638016,49.177776
30784000,756000,39.8714137,32.7364371,-125.56916,-138.70433,-49.169735,-7.6021175,-14.590719,-0.46980166,0.19898026,0.4985217,0.07168762,49.229034
30888000,756000,39.8714137,32.7364371,-126.37275,-140.22417,-49.225235,-7.5940185,-14.549748,-0.46421546,0.09890436,0.34504613,0.10923854,49.284534
30984000,756000,39.8714137,32.7364371,-127.110176,-141.62172,-49.27484,-7.590182,-14.510653,-0.45789954,0.10668171,0.4461395,0.0915965,49.33414
31088000,756000,39.8714137,32.7364371,-127.91256,-143.13338,-49.328194,-7.592208,-14.466058,-0.44954893,0.09615465,0.47884285,0.17280224,49.387493
31184000,756000,39.8714137,32.7364371,-128.64992,-144.5232,-49.376873,-7.594979,-14.425547,-0.4394016,0.030829307,0.48856843,0.1351973,49.436172
31288000,756000,39.8714137,32.7364371,-129.45224,-146.02585,-49.427567,-7.603723,-14.377824,-0.4228671,-0.13931799,0.46363097,0.17099361,49.486866
31384000,756000,39.8714137,32.7364371,-130.19081,-147.4074,-49.47268,-7.6133537,-14.334236,-0.40738326,-0.08674655,0.4246189,0.17171073,49.53198
31488000,756000,39.8714137,32.7364371,-130.99559,-148.9015,-49.519608,-7.6271234,-14.286721,-0.389424,-0.073518075,0.55933106,0.16409996,49.578907
31584000,756000,39.8714137,32.7364371,-131.73703,-150.27516,-49.56045,-7.6414695,-14.244127,-0.36767867,-0.06412112,0.497381,0.2871584,49.61975
31688000,756000,39.8714137,32.7364371,-132.54402,-151.759,-49.602657,-7.6622334,-14.197066,-0.34369013,-0.20271733,0.48582417,0.25277305,49.661957
31784000,756000,39.8714137,32.7364371,-133.28865,-153.12306,-49.639694,-7.6842723,-14.151718,-0.31938702,-0.21663886,0.4131954,0.2584513,49.698994
31888000,756000,39.8714137,32.7364371,-134.10146,-154.59917,-49.677074,-7.708924,-14.103445,-0.29543823,-0.2164285,0.5127684,0.2525253,49.736374
31984000,756000,39.8714137,32.7364371,-134.85184,-155.95624,-49.70921,-7.7330313,-14.058676,-0.26758733,-0.22049601,0.50947857,0.3007939,49.76851
32088000,756000,39.8714137,32.7364371,-135.66867,-157.422,-49.74163,-7.7615275,-14.014337,-0.24032815,-0.25426775,0.5044558,0.23045856,49.80093
32184000,756000,39.8714137,32.7364371,-136.42343,-158.76988,-49.769363,-7.789302,-13.972458,-0.2137448,-0.27918735,0.43196917,0.26118287,49.828663
32288000,756000,39.8714137,32.7364371,-137.2483,-160.22787,-49.797543,-7.822448,-13.926835,-0.18517908,-0.18352412,0.53148,0.32906976,49.856842
32384000,756000,39.8714137,32.7364371,-138.01137,-161.56874,-49.820305,-7.8509507,-13.88469,-0.15962659,-0.26693198,0.472247,0.2662111,49.879604
32488000,756000,39.8714137,32.7364371,-138.84183,-163.017,-49.841003,-7.8849707,-13.842114,-0.1322124,-0.23978685,0.3275293,0.30358228,49.900303
32592000,756000,39.8714137,32.7364371,-139.67381,-164.45982,-49.857895,-7.917102,-13.798351,-0.10294321,-0.34341264,0.43734607,0.32663438,49.917194
32688000,756000,39.8714137,32.7364371,-140.44637,-165.78885,-49.871502,-7.9489727,-13.760004,-0.079605296,-0.30371788,0.40140158,0.20230746,49.9308
32784000,756000,39.8714137,32.7364371,-141.22073,-167.11371,-49.882755,-7.984328,-13.726525,-0.05566513,-0.5466909,-0.08484473,0.24105701,49.942055
32888000,756000,39.8714137,32.7364371,-142.06941,-168.55576,-49.89255,-8.148471,-13.90846,-0.046016738,-2.134296,-2.758016,0.01449231,49.95185
32984000,756000,39.8714137,32.7364371,-142.872,-169.91278,-49.90268,-8.380104,-14.243695,-0.093094185,-2.5169337,-4.064531,-1.0182345,49.96198
33088000,756000,39.8714137,32.7364371,-143.767,-171.42441,-49.924515,-8.622535,-14.706287,-0.27292377,-1.9632041,-4.640966,-2.5053349,49.983814
33192000,756000,39.8714137,32.7364371,-144.681,-172.98569,-49.97266,-8.751657,-15.206039,-0.6278165,-0.4336275,-4.7677855,-4.165756,50.03196
33288000,756000,39.8714137,32.7364371,-145.52902,-174.47287,-50.057964,-8.708771,-15.672241,-1.095509,1.4416523,-4.7399187,-5.3407145,50.117264
33384000,756000,39.8714137,32.7364371,-146.36375,-176.00346,-50.19341,-8.479052,-16.119684,-1.6502521,3.3835444,-4.474808,-5.9935994,50.25271
33488000,756000,39.8714137,32.7364371,-147.23422,-177.71031,-50.401592,-8.040366,-16.569838,-2.262156,5.030722,-4.1333833,-5.719871,50.46089
33584000,756000,39.8714137,32.7364371,-147.99057,-179.3271,-50.647934,-7.4929433,-16.953657,-2.7796223,6.3155146,-3.8211055,-5.1675315,50.707233
33688000,756000,39.8714137,32.7364371,-148.74284,-181.11665,-50.967422,-6.7674007,-17.32579,-3.2790666,7.588691,-3.3844783,-4.467611,51.026722
33784000,756000,39.8714137,32.7364371,-149.3652,-182.80063,-51.306816,-5.990577,-17.631636,-3.700869,8.710489,-2.9393373,-4.117541,51.366116
33888000,756000,39.8714137,32.7364371,-149.94897,-184.65685,-51.717968,-5.043174,-17.91095,-4.1221094,9.555858,-2.3243067,-3.9152734,51.777267
33984000,756000,39.8714137,32.7364371,-150.39656,-186.39546,-52.133884,-4.094263,-18.116228,-4.483731,10.242983,-1.8399802,-3.5691621,52.193184
34088000,756000,39.8714137,32.7364371,-150.77432,-188.29637,-52.621662,-3.0130033,-18.271807,-4.844747,10.598254,-1.1333822,-3.300903,52.68096
34184000,756000,39.8714137,32.7364371,-151.0227,-190.06207,-53.103508,-1.9941254,-18.349615,-5.1451855,10.747067,-0.40309152,-3.0376062,53.162807
34288000,756000,39.8714137,32.7364371,-151.17989,-191.97746,-53.657223,-0.8878729,-18.36313,-5.433461,10.571608,0.1705766,-2.5746765,53.716522
34384000,756000,39.8714137,32.7364371,-151.22415,-193.74286,-54.193172,0.11060687,-18.319504,-5.662157,10.163232,0.7109628,-2.1562548,54.252472
34488000,756000,39.8714137,32.7364371,-151.16408,-195.64641,-54.79635,1.1574124,-18.2167,-5.8717074,9.977326,1.2192746,-1.8157762,54.855648
34584000,756000,39.8714137,32.7364371,-151.01468,-197.39091,-55.371635,2.0869975,-18.072605,-6.034904,9.530824,1.7664341,-1.5552509,55.430935
34688000,756000,39.8714137,32.7364371,-150.75275,-199.26138,-56.01152,3.0522282,-17.868614,-6.18851,9.051134,2.1154737,-1.4308355,56.07082
34784000,756000,39.8714137,32.7364371,-150.4257,-200.96568,-56.615986,3.8996642,-17.63445,-6.318315,8.691957,2.6147056,-1.239526,56.675285
34888000,756000,39.8714137,32.7364371,-149.98001,-202.78323,-57.285046,4.773411,-17.334467,-6.4505143,8.164754,3.0497766,-1.1623855,57.344345
34984000,756000,39.8714137,32.7364371,-149.49246,-204.42899,-57.916035,5.5342803,-17.019588,-6.568323,7.704686,3.3941803,-1.184266,57.975334
35088000,756000,39.8714137,32.7364371,-148.88179,-206.17595,-58.611897,6.3088007,-16.635635,-6.692217,7.1722503,3.784748,-1.2002093,58.671196
35184000,756000,39.8714137,32.7364371,-148.24768,-207.7519,-59.2663,6.9812584,-16.247759,-6.8090634,6.7419724,4.1660275,-1.1303182,59.3256
35288000,756000,39.8714137,32.7364371,-147.48872,-209.41476,-59.9881,7.6616073,-15.789368,-6.939668,6.2709756,4.5287223,-1.251866,60.047398
35384000,756000,39.8714137,32.7364371,-146.73065,-210.90262,-60.665337,8.244407,-15.335481,-7.064303,5.826215,4.849132,-1.2787198,60.724636
35488000,756000,39.8714137,32.7364371,-145.8466,-212.46504,-61.41079,8.8259325,-14.8217125,-7.2007003,5.282573,5.012436,-1.2561464,61.47009
35584000,756000,39.8714137,32.7364371,-144.97845,-213.85855,-62.112534,9.315798,-14.323075,-7.3331795,4.873733,5.190348,-1.416374,62.171833
35688000,756000,39.8714137,32.7364371,-143.98598,-215.31412,-62.888527,9.796964,-13.768772,-7.4796352,4.396445,5.399931,-1.4091384,62.947826
35784000,756000,39.8714137,32.7364371,-143.02946,-216.60663,-63.61781,10.1927185,-13.249445,-7.610959,3.8888304,5.466103,-1.2720665,63.67711
35888000,756000,39.8714137,32.7364371,-141.95126,-217.95146,-64.42008,10.574135,-12.694354,-7.738823,3.5499415,5.279652,-1.1790589,64.47938
35984000,756000,39.8714137,32.7364371,-140.92532,-219.14069,-65.173935,10.8833885,-12.188274,-7.844791,3.0360034,5.171994,-1.0046967,65.23323
36088000,756000,39.8714137,32.7364371,-139.781,-220.37573,-66.000885,11.1755085,-11.655299,-7.945402,2.5759265,4.9293714,-0.82752943,66.06018
36184000,756000,39.8714137,32.7364371,-138.70113,-221.46645,-66.77301,11.406615,-11.1745,-8.02687,2.2346458,4.861609,-0.82695574,66.832306
36288000,756000,39.8714137,32.7364371,-137.50647,-222.59796,-67.61823,11.621962,-10.6783,-8.107309,1.9463884,4.599842,-0.7741563,67.67753
36384000,756000,39.8714137,32.7364371,-136.38701,-223.59648,-68.40713,11.78359,-10.235404,-8.175745,1.571722,4.3972464,-0.47649348,68.46642
36488000,756000,39.8714137,32.7364371,-135.15712,-224.63297,-69.26888,11.92689,-9.792885,-8.223021,1.3936988,3.9623494,-0.26659107,69.32818
36584000,756000,39.8714137,32.7364371,-134.01233,-225.55168,-70.06692,12.03943,-9.424006,-8.2341585,1.164819,3.6246393,0.12577045,70.12621
36688000,756000,39.8714137,32.7364371,-132.7594,-226.51001,-70.93042,12.147788,-9.070455,-8.204988,0.99284196,3.1694283,0.520234,70.989716
36784000,756000,39.8714137,32.7364371,-131.59131,-227.36588,-71.72405,12.2443695,-8.786683,-8.142787,1.0677282,2.7410467,0.88253146,71.78335
36888000,756000,39.8714137,32.7364371,-130.31395,-228.26476,-72.57372,12.357091,-8.522308,-8.02836,1.148381,2.3055325,1.3633183,72.63302
36984000,756000,39.8714137,32.7364371,-129.12639,-229.07166,-73.34696,12.472242,-8.319431,-7.88257,1.3333071,1.9310575,1.7437291,73.40626
37088000,756000,39.8714137,32.7364371,-127.826324,-229.92574,-74.166336,12.610897,-8.135454,-7.685942,1.4244353,1.6253912,2.0586243,74.22563
37184000,756000,39.8714137,32.7364371,-126.612274,-230.69862,-74.90176,12.749625,-7.988479,-7.473707,1.5104109,1.3113835,2.3798993,74.96105
37288000,756000,39.8714137,32.7364371,-125.280754,-231.52159,-75.67342,12.9111185,-7.8546896,-7.220816,1.6283963,1.2284032,2.4607167,75.73272
37384000,756000,39.8714137,32.7364371,-124.03563,-232.27055,-76.36148,13.066294,-7.7486386,-6.974897,1.6343248,0.998099,2.6924887,76.42078
37488000,756000,39.8714137,32.7364371,-122.6694,-233.07181,-77.0802,13.234326,-7.654168,-6.6951637,1.6663753,0.8780142,2.7715282,77.139496
37584000,756000,39.8714137,32.7364371,-121.39234,-233.80331,-77.7173,13.390652,-7.581947,-6.4286256,1.625233,0.7167707,2.8362124,77.776596
37688000,756000,39.8714137,32.7364371,-119.99175,-234.58891,-78.3801,13.559104,-7.5230703,-6.1397495,1.6055951,0.42356417,2.8099291,78.43939
37784000,756000,39.8714137,32.7364371,-118.68402,-235.30998,-78.96634,13.708778,-7.4814596,-5.8773737,1.5550594,0.35287258,2.741551,79.025635
37888000,756000,39.8714137,32.7364371,-117.25137,-236.08769,-79.57249,13.862784,-7.4520693,-5.597961,1.4644953,0.2159528,2.6889992,79.63178
37984000,756000,39.8714137,32.7364371,-115.9139,-236.80405,-80.10792,13.994543,-7.4424915,-5.353555,1.3353083,0.040708456,2.494432,80.16721
38088000,756000,39.8714137,32.7364371,-114.4504,-237.58012,-80.6616,14.129775,-7.450592,-5.1017437,1.2916417,-0.16707402,2.4178596,80.720894
38184000,756000,39.8714137,32.7364371,-113.08828,-238.29764,-81.1517,14.238885,-7.475595,-4.8822823,1.1364007,-0.27916485,2.3237805,81.211
38288000,756000,39.8714137,32.7364371,-111.601906,-239.07806,-81.65928,14.342876,-7.517494,-4.6619763,0.9214654,-0.5127566,2.0933905,81.718575
38384000,756000,39.8714137,32.7364371,-110.21949,-239.80473,-82.10922,14.426562,-7.577735,-4.4763856,0.8861934,-0.7318773,1.9475323,82.16852
38488000,756000,39.8714137,32.7364371,-108.712585,-240.60039,-82.57602,14.500713,-7.663436,-4.2907033,0.6026842,-0.94907176,1.7852372,82.635315
38584000,756000,39.8714137,32.7364371,-107.316025,-241.3433,-82.99089,14.555393,-7.761097,-4.1371536,0.45765865,-1.0613043,1.5707667,83.050186
38688000,756000,39.8714137,32.7364371,-105.79828,-242.15941,-83.4264,14.598594,-7.886292,-3.9896593,0.40593228,-1.3411331,1.3862801,83.485695
38784000,756000,39.8714137,32.7364371,-104.39198,-242.92624,-83.814896,14.622825,-8.017736,-3.870575,0.19796796,-1.441984,1.1997939,83.87419
38888000,756000,39.8714137,32.7364371,-102.86471,-243.77351,-84.22379,14.632745,-8.18085,-3.757308,-0.13827881,-1.643663,1.0660057,84.28309
38984000,756000,39.8714137,32.7364371,-101.45562,-244.57109,-84.59143,14.622903,-8.345186,-3.671273,-0.26249674,-1.7431053,0.88345903,84.65073
39088000,756000,39.8714137,32.7364371,-99.930824,-245.45415,-84.97942,14.593591,-8.538398,-3.5929585,-0.4232123,-1.8995299,0.715225,85.03872
39184000,756000,39.8714137,32.7364371,-98.52676,-246.28749,-85.3308,14.548342,-8.72643,-3.5334535,-0.61050355,-2.0076802,0.5482929,85.3901
39288000,756000,39.8714137,32.7364371,-97.00987,-247.21228,-85.706055,14.485749,-8.943947,-3.4840233,-0.68350273,-2.1602268,0.4176022,85.76535
39384000,756000,39.8714137,32.7364371,-95.61681,-248.08623,-86.04858,14.409537,-9.155386,-3.4509406,-0.9736744,-2.1948817,0.29762927,86.10787
39488000,756000,39.8714137,32.7364371,-94.114845,-249.05754,-86.41768,14.3110895,-9.391486,-3.4325454,-1.0678972,-2.3618588,0.09651295,86.476974
39584000,756000,39.8714137,32.7364371,-92.739235,-249.97542,-86.75685,14.203527,-9.616286,-3.4245412,-1.2254611,-2.3425853,0.040631738,86.81615
39688000,756000,39.8714137,32.7364371,-91.25992,-250.99521,-87.12443,14.072835,-9.864094,-3.4286935,-1.3910071,-2.392465,-0.008895061,87.18372
39784000,756000,39.8714137,32.7364371,-89.908966,-251.95833,-87.464,13.933894,-10.095916,-3.4418204,-1.5267226,-2.3725963,-0.17169769,87.52329
39888000,756000,39.8714137,32.7364371,-88.46032,-253.02728,-87.83339,13.770939,-10.348623,-3.4689593,-1.6784012,-2.3557525,-0.38350463,87.892685
39984000,756000,39.8714137,32.7364371,-87.13967,-254.03688,-88.178055,13.606257,-10.579892,-3.5091317,-1.7815659,-2.3847551,-0.4354296,88.23735
40088000,756000,39.8714137,32.7364371,-85.723885,-255.15968,-88.557915,13.417848,-10.831534,-3.5614772,-1.9046057,-2.3570127,-0.46080628,88.61721
40192000,756000,39.8714137,32.7364371,-84.33078,-256.306,-88.94363,13.217833,-11.071393,-3.6199007,-2.0095541,-2.2216191,-0.5246345,89.00292
40288000,756000,39.8714137,32.7364371,-83.06329,-257.38702,-89.305916,13.022914,-11.287401,-3.677417,-2.090675,-2.238818,-0.6471108,89.36521
40384000,756000,39.8714137,32.7364371,-81.8165,-258.48703,-89.67294,12.822468,-11.494324,-3.738261,-2.0606842,-2.0480154,-0.6116861,89.73224
40488000,756000,39.8714137,32.7364371,-80.48469,-259.7054,-90.07772,12.601864,-11.710129,-3.8114574,-2.2170918,-1.9788382,-0.6527565,90.13702
40584000,756000,39.8714137,32.7364371,-79.27824,-260.84665,-90.45587,12.39594,-11.895827,-3.8805554,-2.1850293,-1.827438,-0.7197782,90.51517
40688000,756000,39.8714137,32.7364371,-77.99145,-262.1054,-90.87368,12.1709585,-12.086448,-3.9598398,-2.1449685,-1.7597475,-0.72303504,90.932976
40784000,756000,39.8714137,32.7364371,-76.827,-263.2814,-91.26637,11.961428,-12.25113,-4.0357804,-2.1668277,-1.5811577,-0.7572397,91.32567
40888000,756000,39.8714137,32.7364371,-75.58441,-264.5755,-91.70087,11.738309,-12.418523,-4.1256394,-2.184602,-1.472609,-0.81510276,91.76016
40984000,756000,39.8714137,32.7364371,-74.46069,-265.78198,-92.111206,11.533861,-12.55853,-4.2087235,-2.1284227,-1.3786546,-0.8404273,92.1705
41088000,756000,39.8714137,32.7364371,-73.26243,-267.10724,-92.566376,11.322066,-12.6982355,-4.2991147,-2.0450084,-1.1972879,-0.7993224,92.62567
41184000,756000,39.8714137,32.7364371,-72.17802,-268.34033,-92.99381,11.129298,-12.81391,-4.3863626,-1.9788169,-1.1128894,-0.87987906,93.05311
41288000,756000,39.8714137,32.7364371,-71.021194,-269.69168,-93.46619,10.930312,-12.923027,-4.4787817,-1.9675401,-0.89352167,-0.8135745,93.52548
41392000,756000,39.8714137,32.7364371,-69.88709,-271.05026,-93.946724,10.742762,-13.014187,-4.572529,-1.842501,-0.7499321,-0.93561965,94.00602
41488000,756000,39.8714137,32.7364371,-68.85634,-272.31442,-94.39852,10.578588,-13.086646,-4.6573534,-1.7178307,-0.6805686,-0.90224665,94.45782
41584000,756000,39.8714137,32.7364371,-67.842804,-273.58206,-94.858505,10.425235,-13.142398,-4.7419314,-1.5136585,-0.52064943,-0.7307734,94.9178
41688000,756000,39.8714137,32.7364371,-66.757355,-274.96646,-95.36729,10.273929,-13.189528,-4.832328,-1.3850361,-0.31631905,-0.8346196,95.42658
41784000,756000,39.8714137,32.7364371,-65.77063,-276.2458,-95.844955,10.145515,-13.222019,-4.9128466,-1.2326342,-0.14049047,-0.7412368,95.90425
41888000,756000,39.8714137,32.7364371,-64.71459,-277.6353,-96.37135,10.024475,-13.242341,-4.99475,-1.1181372,-0.025796702,-0.6664292,96.43065
41984000,756000,39.8714137,32.7364371,-63.751823,-278.91672,-96.86476,9.925526,-13.246884,-5.065055,-0.96633327,0.15936884,-0.69832426,96.92406
42088000,756000,39.8714137,32.7364371,-62.717487,-280.30896,-97.40683,9.830611,-13.236737,-5.138536,-0.8728369,0.20612134,-0.64026004,97.466125
42184000,756000,39.8714137,32.7364371,-61.772106,-281.5905,-97.91355,9.757228,-13.217274,-5.2025356,-0.7821731,0.32606056,-0.5809031,97.97285
42288000,756000,39.8714137,32.7364371,-60.754276,-282.97754,-98.46957,9.69306,-13.1834345,-5.267962,-0.5737815,0.41948652,-0.62312645,98.52886
42384000,756000,39.8714137,32.7364371,-59.820827,-284.25238,-98.98823,9.648971,-13.141866,-5.3250456,-0.40341306,0.5698425,-0.49741748,99.04752
42488000,756000,39.8714137,32.7364371,-58.81284,-285.63055,-99.555405,9.615835,-13.088109,-5.3791413,-0.23831426,0.6188191,-0.42520648,99.6147
42584000,756000,39.8714137,32.7364371,-57.885685,-286.8956,-100.08353,9.59808,-13.027159,-5.4294453,-0.058411617,0.7651764,-0.44276282,100.14282
42688000,756000,39.8714137,32.7364371,-56.882576,-288.26086,-100.660065,9.5912485,-12.953465,-5.478171,-0.014012911,0.7694505,-0.4105167,100.71936
42784000,756000,39.8714137,32.7364371,-55.95744,-289.51257,-101.19614,9.594608,-12.870725,-5.5185447,0.091721766,1.0933235,-0.31904408,101.25543
42888000,756000,39.8714137,32.7364371,-54.95638,-290.85803,-101.777275,9.548149,-12.693679,-5.5060534,-0.8664184,2.3807983,0.6264727,101.83657
42984000,756000,39.8714137,32.7364371,-54.04055,-292.07758,-102.30771,9.449836,-12.4462385,-5.3863106,-1.1038578,2.790022,1.7452761,102.367004
43088000,756000,39.8714137,32.7364371,-53.05949,-293.37033,-102.86458,9.332343,-12.1570215,-5.1397896,-1.14763,2.760544,2.9361427,102.923874
43184000,756000,39.8714137,32.7364371,-52.164593,-294.5363,-103.35208,9.234631,-11.899206,-4.824121,-0.91716796,2.672496,3.6790237,103.41138
