timestamp,roll,pitch,yaw,thrust_body[0]
7712000,0.034590375,0.037087854,-0.001512142,0.15
7716000,0.034596156,0.037061468,-0.001512571,0.15
7720000,0.03458697,0.037044488,-0.001513182,0.15
7724000,0.034572348,0.03700941,-0.00151433,0.15
7728000,0.03459604,0.036989275,-0.001514159,0.15
7732000,0.034248725,0.0369433,-0.001240187,0.15
7736000,0.034283206,0.036883518,-0.001240611,0.15
7740000,0.034299027,0.036874413,-0.001240403,0.15
7744000,0.034334246,0.03685425,-0.001239939,0.15
7748000,0.034366544,0.036811322,-0.001240054,0.15
7752000,0.03435812,0.036792453,-0.001240687,0.15
7756000,0.034466874,0.03675681,-0.001315284,0.15
7760000,0.03448463,0.036704656,-0.001315979,0.15
7764000,0.03450828,0.03665678,-0.001316429,0.15
7768000,0.034514632,0.036610182,-0.001317296,0.15
7772000,0.034508344,0.036577035,-0.001318189,0.15
7776000,0.034525946,0.036587324,-0.001317511,0.15
7780000,0.034605872,0.03657424,-0.001361232,0.15
7784000,0.034619275,0.03651707,-0.001362154,0.15
7788000,0.03463275,0.03651705,-0.00136181,0.15
7792000,0.034647755,0.03649602,-0.001361892,0.15
7796000,0.034649346,0.036434863,-0.001363206,0.15
7800000,0.034621593,0.036394875,-0.001364798,0.15
7804000,0.033999536,0.0363472,-0.000966009,0.15
7808000,0.033958845,0.03629041,-0.000968296,0.15
7812000,0.033918492,0.036233075,-0.000970583,0.15
7816000,0.033916723,0.036215585,-0.000971013,0.15
7820000,0.03393112,0.036202744,-0.000970932,0.15
7824000,0.03391471,0.036151834,-0.000972468,0.15
7828000,0.033492144,0.0360741,-0.00069151,0.15
7832000,0.033495005,0.036037356,-0.000692247,0.15
7836000,0.03351344,0.03601475,-0.000692279,0.15
7840000,0.033524007,0.0359966,-0.000692413,0.15
7844000,0.0335135,0.035964083,-0.000693393,0.15
7848000,0.033513788,0.03590213,-0.00069475,0.15
7852000,0.03316679,0.035816487,-0.000447704,0.15
7856000,0.033148564,0.03570228,-0.000450674,0.15
7860000,0.03315293,0.035619467,-0.000452386,0.15
7864000,0.033164285,0.035555344,-0.000453515,0.15
7868000,0.033168346,0.035471864,-0.000455252,0.15
7876000,0.03292093,0.035335947,-0.00027146,0.15
7880000,0.032936323,0.03534628,-0.000270852,0.15
7884000,0.032939956,0.03533132,-0.000271092,0.15
7892000,0.032906506,0.03526274,-0.000273428,0.15
7896000,0.03289315,0.035240687,-0.000274243,0.15
7900000,0.032364327,0.035205603,8.54E-05,0.15
7908000,0.032361668,0.035165697,8.44E-05,0.15
7912000,0.032361344,0.035121765,8.35E-05,0.15
7916000,0.03235053,0.035065383,8.19E-05,0.15
7920000,0.03235811,0.03502268,8.12E-05,0.15
7924000,0.032584343,0.035004508,-7.36E-05,0.15
7928000,0.032571703,0.035006925,-7.39E-05,0.15
7932000,0.032548342,0.034995165,-7.47E-05,0.15
7936000,0.032543417,0.03492686,-7.64E-05,0.15
7940000,0.032567024,0.034852486,-7.74E-05,0.15
7948000,0.032194424,0.03473001,0.000213859,0.15
7952000,0.032161098,0.034641173,0.000211096,0.15
7956000,0.032137737,0.034545057,0.000208419,0.15
7960000,0.03213788,0.03450293,0.000207497,0.15
7964000,0.0321356,0.03447777,0.000206889,0.15
7968000,0.032083094,0.034468208,0.000205413,0.15
7972000,0.03210904,0.034467436,0.000151346,0.15
7976000,0.032102764,0.03440302,0.000149785,0.15
7980000,0.03209965,0.03432405,0.000147981,0.15
7984000,0.03208885,0.034218006,0.000145402,0.15
7988000,0.032093663,0.034130696,0.000143607,0.15
7996000,0.032496095,0.03405338,-0.000134067,0.15
8000000,0.032490946,0.03400215,-0.00013531,0.15
8004000,0.032492645,0.03400827,-0.000135136,0.15
8012000,0.032519195,0.033897676,-0.000136927,0.15
8020000,0.032855198,0.033807326,-0.000378244,0.15
8024000,0.032867067,0.033778816,-0.000378588,0.15
8028000,0.03287232,0.033800516,-0.000377989,0.15
8032000,0.032835234,0.033826876,-0.000378289,0.15
8036000,0.03278084,0.033804048,-0.000380075,0.15
8040000,0.032757547,0.033751957,-0.000381764,0.15
8044000,0.032884434,0.03368732,-0.000472115,0.15
8052000,0.0329028,0.03358868,-0.000473838,0.15
8056000,0.032862715,0.033525,-0.00047617,0.15
8060000,0.032862335,0.03352395,-0.000476202,0.15
8068000,0.032050014,0.033640802,5.91E-05,0.15
8076000,0.03204729,0.033561666,5.73E-05,0.15
8080000,0.03204908,0.033584435,5.78E-05,0.15
8084000,0.032061484,0.033586644,5.82E-05,0.15
8092000,0.03232542,0.033494197,-0.000117011,0.15
8096000,0.03232678,0.033449914,-0.000117944,0.15
8100000,0.032299235,0.033478893,-0.000117958,0.15
8104000,0.032293774,0.033508644,-0.000117438,0.15
8108000,0.032316633,0.03349935,-0.000117104,0.15
8112000,0.032303657,0.033453315,-0.000118412,0.15
8116000,0.03254807,0.03346482,-0.000304662,0.15
8120000,0.03254936,0.033504147,-0.000303775,0.15
8124000,0.03255459,0.033469126,-0.000304416,0.15
8128000,0.03255544,0.033427138,-0.00030531,0.15
8132000,0.032552138,0.033430077,-0.000305324,0.15
8136000,0.032556564,0.03344189,-0.000304963,0.15
8140000,0.03269846,0.03344407,-0.000375238,0.15
8144000,0.032717377,0.033425767,-0.000375194,0.15
8148000,0.032716434,0.033393517,-0.000375921,0.15
8152000,0.032705683,0.033351973,-0.000377078,0.15
8156000,0.03267932,0.03329865,-0.000378856,0.15
8160000,0.03269136,0.033274334,-0.000379105,0.15
8164000,0.032615595,0.033232942,-0.00032504,0.15
8168000,0.032604735,0.033162337,-0.000326832,0.15
8172000,0.032602977,0.03312522,-0.000327682,0.15
8176000,0.032593455,0.03310973,-0.00032824,0.15
8180000,0.032577895,0.033112165,-0.000328547,0.15
8184000,0.03254736,0.03311585,-0.000329175,0.15
8188000,0.03216603,0.033143166,-8.70E-05,0.15
8192000,0.03216517,0.033133943,-8.72E-05,0.15
8196000,0.032150537,0.03314108,-8.74E-05,0.15
8200000,0.03214413,0.03320772,-8.61E-05,0.15
8204000,0.03216804,0.03319997,-8.57E-05,0.15
8208000,0.032185856,0.033158638,-8.62E-05,0.15
8212000,0.032499045,0.033143997,-0.000308143,0.15
8216000,0.032487683,0.033148326,-0.000308312,0.15
8220000,0.03249547,0.03315849,-0.00030791,0.15
8224000,0.032487422,0.033114895,-0.000309045,0.15
8232000,0.032486364,0.033001896,-0.000311526,0.15
8236000,0.032074586,0.033009227,-3.06E-05,0.15
8240000,0.03203437,0.032978177,-3.22E-05,0.15
8244000,0.03199326,0.032887593,-3.51E-05,0.15
8252000,0.03195485,0.032936502,-3.50E-05,0.15
8256000,0.031936217,0.032931574,-3.55E-05,0.15
8260000,0.030816069,0.03290002,-3.55E-05,0
8264000,0.03080274,0.032897808,-3.55E-05,0
8268000,0.030781785,0.032910593,-3.55E-05,0
8272000,0.030769067,0.032909643,-3.55E-05,0
8276000,0.030791748,0.032915194,-3.55E-05,0
8284000,0.030776868,0.03291377,-3.55E-05,1
8288000,0.03074714,0.032853283,-3.55E-05,1
8292000,0.030724552,0.032801505,-3.55E-05,1
8296000,0.030670332,0.03272753,-3.55E-05,1
8300000,0.03062729,0.03266936,-3.55E-05,1
8304000,0.030647403,0.03266332,-3.55E-05,1
8308000,0.030658131,0.032680262,-3.55E-05,1
8316000,0.030628782,0.032683246,-3.55E-05,1
8324000,0.030569553,0.03262338,-3.55E-05,1
8328000,0.030545069,0.032594576,-3.55E-05,1
8332000,0.030553846,0.032585546,-3.55E-05,1
8336000,0.030559411,0.03256827,-3.55E-05,1
8340000,0.03052824,0.03257461,-3.55E-05,1
8344000,0.030502452,0.032556284,-3.55E-05,1
8348000,0.030512199,0.032555617,-3.55E-05,1
8352000,0.030494688,0.032540914,-3.55E-05,1
8356000,0.030486267,0.032478467,-3.55E-05,1
8360000,0.030526072,0.032441273,-3.55E-05,1
8364000,0.030560615,0.032421045,-3.55E-05,1
8368000,0.030550186,0.032385226,-3.55E-05,1
8372000,0.030565055,0.03230054,-3.55E-05,1
8380000,0.030574702,0.032264404,-3.55E-05,1
8384000,0.030595943,0.032219246,-3.55E-05,1
8388000,0.030606776,0.03222479,-3.55E-05,1
8396000,0.030631833,0.032209605,-3.55E-05,1
8400000,0.03061416,0.032178782,-3.55E-05,1
8404000,0.03058177,0.032131154,-3.55E-05,1
8408000,0.030593049,0.032084145,-3.55E-05,1
8412000,0.030616881,0.03209638,-3.55E-05,1
8416000,0.030621083,0.032080233,-3.55E-05,1
8420000,0.030618804,0.03201686,-3.55E-05,1
8424000,0.030615015,0.031968053,-3.55E-05,1
8428000,0.030647203,0.031947356,-3.55E-05,1
8436000,0.030649815,0.032007325,-3.55E-05,1
8440000,0.03062723,0.032018464,-3.55E-05,1
8444000,0.030595137,0.031964727,-3.55E-05,1
8448000,0.030539868,0.031874582,-3.55E-05,1
8452000,0.030541644,0.031782966,-3.55E-05,1
8456000,0.030517492,0.031686276,-3.55E-05,1
8460000,0.030460555,0.03160879,-3.55E-05,1
8464000,0.030430255,0.031565674,-3.55E-05,1
8472000,0.030458093,0.031493373,-3.55E-05,1
8476000,0.030469576,0.03141084,-3.55E-05,1
8480000,0.03047634,0.031325657,-3.55E-05,1
8484000,0.030475663,0.031313658,-3.55E-05,1
8492000,0.030481534,0.031270396,-3.55E-05,1
8496000,0.030481517,0.03119013,-3.55E-05,1
8500000,0.030481867,0.031175392,-3.55E-05,1
8504000,0.030499293,0.031154534,-3.55E-05,1
8508000,0.030502208,0.031158358,-3.55E-05,1
8512000,0.030498799,0.031169502,-3.55E-05,1
8516000,0.030501077,0.031140586,-3.55E-05,1
8520000,0.030519394,0.03117434,-3.55E-05,1
8524000,0.030514117,0.031170014,-3.55E-05,1
8528000,0.030493341,0.031139832,-3.55E-05,1
8532000,0.030475585,0.031141171,-3.55E-05,1
8536000,0.030442774,0.03111236,-3.55E-05,1
8540000,0.030433403,0.031061357,-3.55E-05,1
8544000,0.03042345,0.031003347,-3.55E-05,1
8548000,0.030401267,0.030962372,-3.55E-05,1
8552000,0.030398829,0.030934444,-3.55E-05,1
8556000,0.030400313,0.030894443,-3.55E-05,1
8564000,0.030401831,0.03078085,-3.55E-05,1
8568000,0.030439114,0.030751219,-3.55E-05,1
8572000,0.030488135,0.03070104,-3.55E-05,1
8576000,0.030526487,0.030596202,-3.55E-05,1
8580000,0.030554334,0.030520609,-3.55E-05,1
8584000,0.03057613,0.030471245,-3.55E-05,1
8588000,0.030611461,0.030448332,-3.55E-05,1
8592000,0.030675743,0.03044769,-3.55E-05,1
8596000,0.030714268,0.030381799,-3.55E-05,1
8600000,0.03074118,0.030322433,-3.55E-05,1
8604000,0.030780178,0.030300694,-3.55E-05,1
8608000,0.030814847,0.030242985,-3.55E-05,1
8612000,0.03084704,0.030207582,-3.55E-05,1
8616000,0.030871991,0.030145833,-3.55E-05,1
8620000,0.030880729,0.030041022,-3.55E-05,1
8624000,0.030870955,0.029980065,-3.55E-05,1
8628000,0.03088405,0.029940281,-3.55E-05,1
8632000,0.0309261,0.029867465,-3.55E-05,1
8636000,0.030959172,0.029792408,-3.55E-05,1
8640000,0.030946268,0.02973093,-3.55E-05,1
8644000,0.030961122,0.029655678,-3.55E-05,1
8648000,0.03100808,0.029608084,-3.55E-05,1
8652000,0.031034116,0.029590264,-3.55E-05,1
8660000,0.031102257,0.029451683,-3.55E-05,1
8664000,0.031174872,0.029388499,-3.55E-05,1
8668000,0.0312163,0.029257998,-3.55E-05,1
8672000,0.031241221,0.029120896,-3.55E-05,1
8676000,0.031299915,0.029012254,-3.55E-05,1
8680000,0.0313604,0.028905535,-3.55E-05,1
8684000,0.031406455,0.028806547,-3.55E-05,1
8688000,0.03145373,0.028715419,-3.55E-05,1
8692000,0.031502385,0.028649298,-3.55E-05,1
8700000,0.031540643,0.028537467,-3.55E-05,1
8704000,0.031549238,0.028449005,-3.55E-05,1
8708000,0.031569295,0.028388632,-3.55E-05,1
8712000,0.03158661,0.028301343,-3.55E-05,1
8716000,0.03158397,0.02824402,-3.55E-05,1
8720000,0.031562883,0.028210824,-3.55E-05,1
8724000,0.031499557,0.028147358,-3.55E-05,1
8728000,0.031446636,0.028064927,-3.55E-05,1
8736000,0.031298768,0.027844101,-3.55E-05,1
8740000,0.031168409,-0.58637637,-3.55E-05,1
8744000,0.03102522,-0.5863981,-3.55E-05,1
8748000,0.030858228,-0.5864414,-3.55E-05,1
8752000,0.030629205,-0.5864956,-3.55E-05,1
8756000,0.030352822,-0.5864395,-3.55E-05,1
8760000,0.030014599,-0.5863357,-3.55E-05,1
8764000,0.02960508,-0.5587166,-3.55E-05,1
8768000,0.029155867,-0.5585027,-3.55E-05,1
8772000,0.02874581,-0.55830866,-3.55E-05,1
8776000,0.028277019,-0.55800396,-3.55E-05,1
8780000,0.027739502,-0.5576449,-3.55E-05,1
8784000,0.027130507,-0.55727154,-3.55E-05,1
8792000,0.025805892,-0.5303922,-3.55E-05,1
8796000,0.025068162,-0.5297892,-3.55E-05,1
8804000,0.023429457,-0.52841806,-3.55E-05,1
8808000,0.022535421,-0.5276712,-3.55E-05,1
8812000,0.021592025,-0.5024511,-3.55E-05,1
8816000,0.020592878,-0.5016108,-3.55E-05,1
8820000,0.019557135,-0.50075895,-3.55E-05,1
8828000,0.017336385,-0.49900752,-3.55E-05,1
8832000,0.016148636,-0.4981616,-3.55E-05,1
8836000,0.014919316,-0.4741379,-3.55E-05,1
8840000,0.013696215,-0.4731885,-3.55E-05,1
8844000,0.01244167,-0.47224477,-3.55E-05,1
8848000,0.011133218,-0.4712864,-3.55E-05,1
8852000,0.009795495,-0.47036642,-3.55E-05,1
8856000,0.008454068,-0.46944913,-3.55E-05,1
8860000,0.007116375,-0.44649267,-3.55E-05,1
8864000,0.005744365,-0.44552994,-3.55E-05,1
8868000,0.004332,-0.44458708,-3.55E-05,1
8872000,0.002899007,-0.44363418,-3.55E-05,1
8876000,0.001466539,-0.44265994,-3.55E-05,1
8880000,3.86E-05,-0.441761,-3.55E-05,1
8884000,-0.001419739,-0.4197603,-3.55E-05,1
8888000,-0.002898747,-0.41883785,-3.55E-05,1
8892000,-0.004395049,-0.41797572,-3.55E-05,1
8896000,-0.005915012,-0.41709885,-3.55E-05,1
8900000,-0.007459695,-0.4162312,-3.55E-05,1
8908000,-0.010576414,-0.3946016,-3.55E-05,1
8912000,-0.012155868,-0.39390314,-3.55E-05,1
8916000,-0.013727534,-0.3933025,-3.55E-05,1
8920000,-0.015304919,-0.39275312,-3.55E-05,1
8928000,-0.018557811,-0.391737,-3.55E-05,1
8932000,-0.020172324,-0.37203357,-3.55E-05,1
8936000,-0.0217871,-0.37164742,-3.55E-05,1
8940000,-0.023416111,-0.37129605,-3.55E-05,1
8944000,-0.025030995,-0.37100175,-3.55E-05,1
8948000,-0.026661515,-0.37073436,-3.55E-05,1
8956000,-0.029997647,-0.35180843,-3.55E-05,1
8960000,-0.031656593,-0.3516344,-3.55E-05,1
8964000,-0.03330311,-0.3515089,-3.55E-05,1
8968000,-0.034972433,-0.3514454,-3.55E-05,1
8972000,-0.03656961,-0.35153365,-3.55E-05,1
8976000,-0.03818338,-0.35171124,-3.55E-05,1
8980000,-0.0398196,-0.333881,-3.55E-05,1
8984000,-0.041410226,-0.3340253,-3.55E-05,1
8988000,-0.04298719,-0.33417696,-3.55E-05,1
8996000,-0.04625871,-0.33465832,-3.55E-05,1
9000000,-0.04787739,-0.3349363,-3.55E-05,1
9004000,-0.04954276,-0.31787977,-3.55E-05,1
9008000,-0.051203284,-0.31830204,-3.55E-05,1
9012000,-0.052808378,-0.31869304,-3.55E-05,1
9020000,-0.056038097,-0.31941178,-3.55E-05,1
9028000,-0.059347533,-0.30330718,-3.55E-05,1
9032000,-0.060977213,-0.3037291,-3.55E-05,1
9036000,-0.06261925,-0.30415514,-3.55E-05,1
9040000,-0.06430442,-0.30466115,-3.55E-05,1
9044000,-0.06597948,-0.30516046,-3.55E-05,1
9052000,-0.069316536,-0.28975424,-3.55E-05,1
9056000,-0.07095644,-0.29031938,-3.55E-05,1
9060000,-0.07263246,-0.2908037,-3.55E-05,1
9068000,-0.07604761,-0.2917716,-3.55E-05,1
9072000,-0.07772536,-0.29226482,-3.55E-05,1
9076000,-0.07938821,-0.27668178,-3.55E-05,1
9080000,-0.08105023,-0.27718204,-3.55E-05,1
9084000,-0.08271955,-0.27763078,-3.55E-05,1
9092000,-0.08605602,-0.2785333,-3.55E-05,1
9096000,-0.0876842,-0.278995,-3.55E-05,1
9100000,-0.08931219,-0.26378787,-3.55E-05,1
9104000,-0.090984285,-0.26425406,-3.55E-05,1
9108000,-0.09261943,-0.2646789,-3.55E-05,1
9112000,-0.09423522,-0.2650478,-3.55E-05,1
9116000,-0.09587664,-0.2653763,-3.55E-05,1
9120000,-0.097499676,-0.26567087,-3.55E-05,1
9124000,-0.09910558,-0.2506089,-3.55E-05,1
9128000,-0.10072079,-0.25093228,-3.55E-05,1
9132000,-0.10234594,-0.2512293,-3.55E-05,1
9136000,-0.10396884,-0.25146502,-3.55E-05,1
9140000,-0.10559555,-0.25169894,-3.55E-05,1
9148000,-0.108785376,-0.23717184,-3.55E-05,1
9152000,-0.110369496,-0.23744558,-3.55E-05,1
9156000,-0.11193037,-0.2376436,-3.55E-05,1
9160000,-0.11348889,-0.23784226,-3.55E-05,1
9164000,-0.115054615,-0.23804916,-3.55E-05,1
9168000,-0.116574265,-0.23825796,-3.55E-05,1
9172000,-0.11811743,-0.22374499,-3.55E-05,1
9176000,-0.119682685,-0.22397822,-3.55E-05,1
9180000,-0.12115282,-0.22425228,-3.55E-05,1
9184000,-0.12260169,-0.2245725,-3.55E-05,1
9188000,-0.124052994,-0.22490852,-3.55E-05,1
9196000,-0.12689777,-0.21110256,-3.55E-05,1
9200000,-0.12831631,-0.21142934,-3.55E-05,1
9208000,-0.1312321,-0.21205445,-3.55E-05,1
9212000,-0.13264376,-0.21240328,-3.55E-05,1
9220000,-0.13541564,-0.19881065,-3.55E-05,1
9224000,-0.13682586,-0.19918288,-3.55E-05,1
9228000,-0.13821447,-0.19955055,-3.55E-05,1
9232000,-0.13958079,-0.19995023,-3.55E-05,1
9236000,-0.14090171,-0.20034242,-3.55E-05,1
9240000,-0.14222088,-0.20078498,-3.55E-05,1
9244000,-0.14356026,-0.18719238,-3.55E-05,1
9248000,-0.14489475,-0.1876475,-3.55E-05,1
9252000,-0.14620498,-0.18811214,-3.55E-05,1
9260000,-0.14879005,-0.18903573,-3.55E-05,1
9264000,-0.150078,-0.1895261,-3.55E-05,1
9268000,-0.15136445,-0.17617388,-3.55E-05,1
9276000,-0.15393807,-0.17731033,-3.55E-05,1
9280000,-0.15522192,-0.17789404,-3.55E-05,1
9284000,-0.1565095,-0.17846338,-3.55E-05,1
9288000,-0.15776888,-0.17907196,-3.55E-05,1
9292000,-0.1590262,-0.16603968,-3.55E-05,1
9296000,-0.1602703,-0.16678405,-3.55E-05,1
9300000,-0.16149849,-0.16752702,-3.55E-05,1
9304000,-0.16270952,-0.1682568,-3.55E-05,1
9308000,-0.16389762,-0.16900189,-3.55E-05,1
9312000,-0.16505642,-0.16980475,-3.55E-05,1
9316000,-0.1662152,-0.15706773,-3.55E-05,1
9320000,-0.16741654,-0.15791878,-3.55E-05,1
9324000,-0.16860975,-0.15879148,-3.55E-05,1
9328000,-0.16976215,-0.15968166,-3.55E-05,1
9332000,-0.1709077,-0.16058327,-3.55E-05,1
9336000,-0.1720305,-0.16152616,-3.55E-05,1
9340000,-0.17314212,-0.14910649,-3.55E-05,1
9348000,-0.17531466,-0.15118678,-3.55E-05,1
9352000,-0.17641455,-0.15225029,-3.55E-05,1
9356000,-0.17749953,-0.15330736,-3.55E-05,1
9364000,-0.17965084,-0.14229336,-3.55E-05,1
9372000,-0.18170324,-0.14468439,-3.55E-05,1
9380000,-0.18380359,-0.1470505,-3.55E-05,1
9384000,-0.18480746,-0.14826773,-3.55E-05,1
9388000,-0.18580656,-0.13630523,-3.55E-05,1
9396000,-0.18782099,-0.13895442,-3.55E-05,1
9400000,-0.18884306,-0.14032602,-3.55E-05,1
9408000,-0.19077042,-0.14312707,-3.55E-05,1
9412000,-0.1917253,-0.13144943,-3.55E-05,1
9420000,-0.19351599,-0.13434596,-3.55E-05,1
9424000,-0.1944286,-0.13583024,-3.55E-05,1
9428000,-0.19536957,-0.13731648,-3.55E-05,1
9432000,-0.1963182,-0.13884808,-3.55E-05,1
9436000,-0.19725193,-0.12732795,-3.55E-05,1
9440000,-0.1981547,-0.12882249,-3.55E-05,1
9444000,-0.1990624,-0.13032834,-3.55E-05,1
9448000,-0.19995087,-0.13178179,-3.55E-05,1
9452000,-0.20083766,-0.13325508,-3.55E-05,1
9456000,-0.2017275,-0.13481589,-3.55E-05,1
9460000,-0.20259205,-0.123451844,-3.55E-05,1
9464000,-0.20344655,-0.12503968,-3.55E-05,1
9468000,-0.2042899,-0.1266467,-3.55E-05,1
9476000,-0.20598674,-0.12981303,-3.55E-05,1
9480000,-0.20686273,-0.13136104,-3.55E-05,1
9484000,-0.20771676,-0.12005631,-3.55E-05,1
9488000,-0.20855784,-0.12164189,-3.55E-05,1
9492000,-0.20938112,-0.123263046,-3.55E-05,1
9496000,-0.21020906,-0.124948256,-3.55E-05,1
9500000,-0.21102929,-0.126616,-3.55E-05,1
9504000,-0.211839,-0.12825912,-3.55E-05,1
9508000,-0.2126218,-0.11706787,-3.55E-05,1
9512000,-0.21339022,-0.11869248,-3.55E-05,1
9516000,-0.2141586,-0.12030962,-3.55E-05,1
9520000,-0.21492809,-0.12190835,-3.55E-05,1
9524000,-0.21569909,-0.12352875,-3.55E-05,1
9528000,-0.21646202,-0.12517014,-3.55E-05,1
9532000,-0.21720625,-0.114025176,-3.55E-05,1
9536000,-0.21791098,-0.11560165,-3.55E-05,1
9540000,-0.21861722,-0.117115475,-3.55E-05,1
9544000,-0.21932402,-0.11865319,-3.55E-05,1
9548000,-0.22002403,-0.12022958,-3.55E-05,1
9556000,-0.221394,-0.1106031,-3.55E-05,1
9560000,-0.22202794,-0.11217894,-3.55E-05,1
9564000,-0.22271046,-0.11375566,-3.55E-05,1
9568000,-0.22337075,-0.11529658,-3.55E-05,1
9572000,-0.22401083,-0.11681349,-3.55E-05,1
9576000,-0.22468509,-0.11832974,-3.55E-05,1
9580000,-0.22533955,-0.107124045,-3.55E-05,1
9588000,-0.22651473,-0.110119246,-3.55E-05,1
9596000,-0.22773702,-0.11321172,-3.55E-05,1
9600000,-0.2283211,-0.11477269,-3.55E-05,1
9604000,-0.22889632,-0.10364319,-3.55E-05,1
9608000,-0.22945537,-0.10511299,-3.55E-05,1
9612000,-0.23001921,-0.10652335,-3.55E-05,1
9616000,-0.23056316,-0.10802588,-3.55E-05,1
9620000,-0.2310831,-0.10954987,-3.55E-05,1
9624000,-0.2316067,-0.11102028,-3.55E-05,1
9628000,-0.23213497,-0.099809155,-3.55E-05,1
9636000,-0.2331581,-0.10267394,-3.55E-05,1
9640000,-0.23364684,-0.10408059,-3.55E-05,1
9644000,-0.23410957,-0.10550026,-3.55E-05,1
9648000,-0.23455974,-0.10690627,-3.55E-05,1
9652000,-0.23503578,-0.095572926,-3.55E-05,1
9656000,-0.23551148,-0.09691075,-3.55E-05,1
9660000,-0.23595668,-0.0982827,-3.55E-05,1
9664000,-0.23637979,-0.09972208,-3.55E-05,1
9668000,-0.23682714,-0.10114835,-3.55E-05,1
9672000,-0.23730329,-0.10247281,-3.55E-05,1
9676000,-0.23774283,-0.09116582,-3.55E-05,1
9684000,-0.23860057,-0.09384791,-3.55E-05,1
9692000,-0.23947549,-0.09642243,-3.55E-05,1
9696000,-0.23988207,-0.09768429,-3.55E-05,1
9700000,-0.24026102,-0.08626411,-3.55E-05,1
9704000,-0.2406214,-0.08755057,-3.55E-05,1
9708000,-0.24099705,-0.08881752,-3.55E-05,1
9712000,-0.24135642,-0.09004676,-3.55E-05,1
9716000,-0.24170727,-0.09122356,-3.55E-05,1
9720000,-0.24210131,-0.092457145,-3.55E-05,1
9724000,-0.2425041,-0.08107826,-3.55E-05,1
9728000,-0.24288024,-0.08230911,-3.55E-05,1
9732000,-0.24326614,-0.08350444,-3.55E-05,1
9736000,-0.24364367,-0.084742956,-3.55E-05,1
9740000,-0.24399747,-0.08597553,-3.55E-05,1
9744000,-0.24436806,-0.08715604,-3.55E-05,1
9748000,-0.2447288,-0.07568598,-3.55E-05,1
9752000,-0.24506447,-0.07695125,-3.55E-05,1
9756000,-0.24541774,-0.078163125,-3.55E-05,1
9760000,-0.24578175,-0.07933611,-3.55E-05,1
9764000,-0.24613765,-0.080461726,-3.55E-05,1
9772000,-0.24684058,-0.07002763,-3.55E-05,1
9776000,-0.2472076,-0.071250185,-3.55E-05,1
9780000,-0.2476073,-0.07245584,-3.55E-05,1
9784000,-0.24799989,-0.07360971,-3.55E-05,1
9788000,-0.2483789,-0.07473087,-3.55E-05,1
9792000,-0.24872023,-0.0758569,-3.55E-05,1
9796000,-0.2490452,-0.06423914,-3.55E-05,1
9800000,-0.24939479,-0.06539086,-3.55E-05,1
9804000,-0.24975091,-0.06653775,-3.55E-05,1
9808000,-0.2501018,-0.067600004,-3.55E-05,1
9812000,-0.25042558,-0.06865868,-3.55E-05,1
9816000,-0.25073633,-0.069744036,-3.55E-05,1
9820000,-0.2510588,-0.05805924,-3.55E-05,1
9824000,-0.25140446,-0.059106022,-3.55E-05,1
9828000,-0.25175324,-0.0601806,-3.55E-05,1
9832000,-0.25209385,-0.06133049,-3.55E-05,1
9836000,-0.25242206,-0.06250465,-3.55E-05,1
9840000,-0.25273553,-0.06365369,-3.55E-05,1
9844000,-0.25306693,-0.051991466,-3.55E-05,1
9848000,-0.25341055,-0.053122766,-3.55E-05,1
9856000,-0.2540337,-0.05535589,-3.55E-05,1
9860000,-0.25438017,-0.056456313,-3.55E-05,1
9864000,-0.2547504,-0.05752639,-3.55E-05,1
9868000,-0.25508824,-0.0457932,-3.55E-05,1
9876000,-0.25570026,-0.048029397,-3.55E-05,1
9880000,-0.25601166,-0.049098264,-3.55E-05,1
9884000,-0.25632006,-0.050192293,-3.55E-05,1
9888000,-0.25664058,-0.05129116,-3.55E-05,1
9892000,-0.25696197,-0.039550632,-3.55E-05,1
9896000,-0.25723296,-0.040667705,-3.55E-05,1
9900000,-0.2575163,-0.041779775,-3.55E-05,1
9904000,-0.25786516,-0.042893108,-3.55E-05,1
9908000,-0.25820488,-0.04399907,-3.55E-05,1
9912000,-0.25853428,-0.04512888,-3.55E-05,1
9916000,-0.25883582,-0.03338173,-3.55E-05,1
9920000,-0.25912595,-0.034506563,-3.55E-05,1
9924000,-0.2594383,-0.035628412,-3.55E-05,1
9932000,-0.26006705,-0.03796806,-3.55E-05,1
9936000,-0.2603563,-0.039117217,-3.55E-05,1
9940000,-0.26065272,-0.02732771,-3.55E-05,1
9944000,-0.2609434,-0.028451823,-3.55E-05,1
9948000,-0.26122245,-0.02956515,-3.55E-05,1
9952000,-0.2615294,-0.030687762,-3.55E-05,1
9960000,-0.26218393,-0.032898013,-3.55E-05,1
9964000,-0.26247406,-0.021053987,-3.55E-05,1
9968000,-0.26274693,-0.022189606,-3.55E-05,1
9972000,-0.2630352,-0.023364643,-3.55E-05,1
9976000,-0.26333594,-0.02455574,-3.55E-05,1
9980000,-0.26364037,-0.025747294,-3.55E-05,1
9984000,-0.26394218,-0.026880343,-3.55E-05,1
9988000,-0.26424706,-0.015003791,-3.55E-05,1
9992000,-0.2645495,-0.01618111,-3.55E-05,1
9996000,-0.26484135,-0.01734252,-3.55E-05,1
10000000,-0.265113,-0.018516785,-3.55E-05,1
10004000,-0.2654049,-0.019700894,-3.55E-05,1
10008000,-0.26570752,-0.020858001,-3.55E-05,1
10012000,-0.26598877,-0.008971309,-3.55E-05,1
10020000,-0.26651055,-0.011301545,-3.55E-05,1
10024000,-0.26680976,-0.012479097,-3.55E-05,1
10028000,-0.26711175,-0.013631662,-3.55E-05,1
10032000,-0.26740226,-0.01480746,-3.55E-05,1
10036000,-0.26770172,-0.002902302,-3.55E-05,1
10040000,-0.26800975,-0.004086105,-3.55E-05,1
10044000,-0.26829973,-0.005288743,-3.55E-05,1
10048000,-0.26859438,-0.00647284,-3.55E-05,1
10052000,-0.2688777,-0.007702945,-3.55E-05,1
10060000,-0.26942283,0.002884189,-3.55E-05,1
10064000,-0.26968104,0.001603172,-3.55E-05,1
10068000,-0.26990864,0.00033012,-3.55E-05,1
10072000,-0.2701553,-0.000932384,-3.55E-05,1
10076000,-0.27044132,-0.002166362,-3.55E-05,1
10080000,-0.27072713,-0.003407739,-3.55E-05,1
10084000,-0.2710023,0.008576603,-3.55E-05,1
10088000,-0.27127206,0.007349886,-3.55E-05,1
10092000,-0.27153328,0.006109471,-3.55E-05,1
10096000,-0.2717638,0.004909038,-3.55E-05,1
10100000,-0.27195555,0.003664151,-3.55E-05,1
10104000,-0.27217072,0.002454249,-3.55E-05,1
10112000,-0.27267945,0.013277488,-3.55E-05,1
10116000,-0.2729056,0.012018858,-3.55E-05,1
10120000,-0.27313402,0.010769296,-3.55E-05,1
10124000,-0.27333203,0.009513329,-3.55E-05,1
10132000,-0.27371904,0.020284569,-3.55E-05,1
10136000,-0.27391353,0.019045731,-3.55E-05,1
10140000,-0.2741457,0.017761765,-3.55E-05,1
10144000,-0.27436608,0.016478747,-3.55E-05,1
10148000,-0.27458408,0.015274196,-3.55E-05,1
10156000,-0.2749532,0.026201043,-3.55E-05,1
10160000,-0.2751239,0.024977542,-3.55E-05,1
10164000,-0.27531692,0.023755742,-3.55E-05,1
10168000,-0.27553332,0.022536058,-3.55E-05,1
10172000,-0.27574244,0.021316526,-3.55E-05,1
10180000,-0.27610135,0.03220346,-3.55E-05,1
10184000,-0.27631226,0.030966278,-3.55E-05,1
10188000,-0.27652016,0.02976173,-3.55E-05,1
10192000,-0.27671894,0.028544307,-3.55E-05,1
10196000,-0.2769404,0.027369987,-3.55E-05,1
10200000,-0.27714446,0.026161449,-3.55E-05,1
10204000,-0.27732003,0.038368657,-3.55E-05,1
10212000,-0.27770615,0.035991948,-3.55E-05,1
10220000,-0.27809644,0.033580326,-3.55E-05,1
10224000,-0.27824202,0.032351304,-3.55E-05,1
10228000,-0.27841604,0.044578217,-3.55E-05,1
10236000,-0.27878848,0.04214048,-3.55E-05,1
10240000,-0.27899072,0.04092146,-3.55E-05,1
10244000,-0.27918854,0.039753348,-3.55E-05,1
10248000,-0.27938738,0.038574792,-3.55E-05,1
10252000,-0.27958158,0.050922554,-3.55E-05,1
10256000,-0.27977422,0.04970486,-3.55E-05,1
10260000,-0.27997687,0.04845764,-3.55E-05,1
10264000,-0.28017375,0.047233034,-3.55E-05,1
10268000,-0.2803731,0.046020877,-3.55E-05,1
10276000,-0.28075388,0.05718214,-3.55E-05,1
10280000,-0.28089628,0.05597413,-3.55E-05,1
10284000,-0.28106767,0.054813158,-3.55E-05,1
10288000,-0.28125405,0.053651482,-3.55E-05,1
10292000,-0.2814321,0.052456994,-3.55E-05,1
10296000,-0.28158197,0.051247206,-3.55E-05,1
10300000,-0.28176233,0.06371244,-3.55E-05,1
10304000,-0.28196862,0.06252982,-3.55E-05,1
10308000,-0.28211635,0.06135432,-3.55E-05,1
10312000,-0.2822505,0.060219172,-3.55E-05,1
10316000,-0.28235886,0.059083536,-3.55E-05,1
10324000,-0.2826623,0.07045097,-3.55E-05,1
10328000,-0.2827897,0.06921315,-3.55E-05,1
10332000,-0.28294578,0.06799072,-3.55E-05,1
10340000,-0.28322527,0.065623485,-3.55E-05,1
10344000,-0.28336552,0.06448749,-3.55E-05,1
10348000,-0.2835121,0.07703839,-3.55E-05,1
10352000,-0.28366598,0.07584433,-3.55E-05,1
10356000,-0.2838118,0.07469336,-3.55E-05,1
10360000,-0.28392157,0.07351954,-3.55E-05,1
10364000,-0.28402302,0.07229961,-3.55E-05,1
10368000,-0.28416124,0.07108633,-3.55E-05,1
10372000,-0.28430375,0.08373462,-3.55E-05,1
10376000,-0.28443447,0.082617514,-3.55E-05,1
10380000,-0.28456372,0.081442505,-3.55E-05,1
10384000,-0.2846587,0.08025868,-3.55E-05,1
10388000,-0.28474793,0.079094045,-3.55E-05,1
10392000,-0.28484854,0.07792214,-3.55E-05,1
10396000,-0.28496674,0.09058042,-3.55E-05,1
10400000,-0.2851265,0.08940934,-3.55E-05,1
10404000,-0.28531578,0.088260375,-3.55E-05,1
10412000,-0.28562948,0.085947365,-3.55E-05,1
10416000,-0.28578565,0.0847593,-3.55E-05,1
10420000,-0.28596988,0.09750201,-3.55E-05,1
10428000,-0.28626198,0.09520303,-3.55E-05,1
10436000,-0.2865572,0.09296337,-3.55E-05,1
10440000,-0.286696,0.091767095,-3.55E-05,1
10444000,-0.2868434,0.10453483,-3.55E-05,1
10452000,-0.2871316,0.10223113,-3.55E-05,1
10456000,-0.2872747,0.10108049,-3.55E-05,1
10460000,-0.28741434,0.0998761,-3.55E-05,1
10464000,-0.2875611,0.09869745,-3.55E-05,1
10468000,-0.28767985,0.11149925,-3.55E-05,1
10472000,-0.28777966,0.11033182,-3.55E-05,1
10476000,-0.28788555,0.10915204,-3.55E-05,1
10480000,-0.28803584,0.10795686,-3.55E-05,1
10484000,-0.28822136,0.10671444,-3.55E-05,1
10488000,-0.28837642,0.10549389,-3.55E-05,1
10492000,-0.28851628,0.11831081,-3.55E-05,1
10496000,-0.28867525,0.11712096,-3.55E-05,1
10500000,-0.28883278,0.115959786,-3.55E-05,1
10504000,-0.28898898,0.11477989,-3.55E-05,1
10508000,-0.28913954,0.1135798,-3.55E-05,1
10512000,-0.2892918,0.11240352,-3.55E-05,1
10516000,-0.28945568,0.12527087,-3.55E-05,1
10520000,-0.2896307,0.12405731,-3.55E-05,1
10524000,-0.2897868,0.12286125,-3.55E-05,1
10528000,-0.28994823,0.12164272,-3.55E-05,1
10536000,-0.29032004,0.11923895,-3.55E-05,1
10540000,-0.29046905,0.13213181,-3.55E-05,1
10544000,-0.29064044,0.1309079,-3.55E-05,1
10548000,-0.29079765,0.12968872,-3.55E-05,1
10552000,-0.29091087,0.12844528,-3.55E-05,1
10556000,-0.2910555,0.12718181,-3.55E-05,1
10564000,-0.2912918,0.13885093,-3.55E-05,1
10568000,-0.29140764,0.13766183,-3.55E-05,1
10572000,-0.29151747,0.13645859,-3.55E-05,1
10580000,-0.2917953,0.1340317,-3.55E-05,1
10584000,-0.29192358,0.13281941,-3.55E-05,1
10588000,-0.29201528,0.14575328,-3.55E-05,1
10592000,-0.29211015,0.14451677,-3.55E-05,1
10596000,-0.2922271,0.14332028,-3.55E-05,1
10600000,-0.2923561,0.14211982,-3.55E-05,1
10604000,-0.29255444,0.14088905,-3.55E-05,1
10608000,-0.29275253,0.13963386,-3.55E-05,1
10616000,-0.29317454,0.15128656,-3.55E-05,1
10620000,-0.29338124,0.1500757,-3.55E-05,1
10628000,-0.29377574,0.14762972,-3.55E-05,1
10632000,-0.29395437,0.14635664,-3.55E-05,1
10636000,-0.2941088,0.15933706,-3.55E-05,1
10640000,-0.29426768,0.15808561,-3.55E-05,1
10644000,-0.29439974,0.15680702,-3.55E-05,1
10648000,-0.2945351,0.1555235,-3.55E-05,1
10652000,-0.29471225,0.1542347,-3.55E-05,1
10656000,-0.2949048,0.15296566,-3.55E-05,1
10660000,-0.29508927,0.1659488,-3.55E-05,1
10664000,-0.29525426,0.16467243,-3.55E-05,1
10668000,-0.29536307,0.1633964,-3.55E-05,1
10672000,-0.29547328,0.16205375,-3.55E-05,1
10676000,-0.29563323,0.16070832,-3.55E-05,1
10680000,-0.2957759,0.15948354,-3.55E-05,1
10684000,-0.29595673,0.1725602,-3.55E-05,1
10688000,-0.29616293,0.17127047,-3.55E-05,1
10692000,-0.29632944,0.17000225,-3.55E-05,1
10696000,-0.2964923,0.16873169,-3.55E-05,1
10700000,-0.29664084,0.16745424,-3.55E-05,1
10704000,-0.29678467,0.16618131,-3.55E-05,1
10708000,-0.29694122,0.17919676,-3.55E-05,1
10712000,-0.29709604,0.177918,-3.55E-05,1
10716000,-0.29723164,0.17665417,-3.55E-05,1
10720000,-0.29733247,0.17538439,-3.55E-05,1
10724000,-0.29740113,0.17411704,-3.55E-05,1
10728000,-0.2974708,0.17285933,-3.55E-05,1
10732000,-0.29754844,0.18589465,-3.55E-05,1
10736000,-0.29765636,0.18457648,-3.55E-05,1
10740000,-0.2978106,0.18328966,-3.55E-05,1
10744000,-0.297951,0.1819703,-3.55E-05,1
10752000,-0.29820207,0.17925915,-3.55E-05,1
10756000,-0.29834425,0.19231917,-3.55E-05,1
10764000,-0.29851463,0.18975213,-3.55E-05,1
10768000,-0.29862064,0.18841071,-3.55E-05,1
10772000,-0.29873392,0.18710178,-3.55E-05,1
10776000,-0.29882127,0.18578483,-3.55E-05,1
10780000,-0.2989175,0.19880836,-3.55E-05,1
10788000,-0.29919103,0.19621687,-3.55E-05,1
10792000,-0.2993089,0.19491136,-3.55E-05,1
10796000,-0.2994057,0.19357747,-3.55E-05,1
10800000,-0.2994909,0.19225116,-3.55E-05,1
10804000,-0.29958445,0.20536315,-3.55E-05,1
10808000,-0.29966238,0.20401423,-3.55E-05,1
10812000,-0.29978216,0.20268247,-3.55E-05,1
10816000,-0.29987404,0.20138933,-3.55E-05,1
10820000,-0.29995248,0.20003685,-3.55E-05,1
10824000,-0.30010238,0.19870104,-3.55E-05,1
10828000,-0.30025458,0.2118051,-3.55E-05,1
10832000,-0.30037764,0.21046712,-3.55E-05,1
10836000,-0.30050933,0.20915549,-3.55E-05,1
10840000,-0.3006451,0.20786484,-3.55E-05,1
10844000,-0.30077735,0.20655623,-3.55E-05,1
10848000,-0.3008809,0.20521255,-3.55E-05,1
10852000,-0.30098835,0.21832387,-3.55E-05,1
10856000,-0.3010751,0.21703136,-3.55E-05,1
10860000,-0.30117157,0.21574633,-3.55E-05,1
10864000,-0.3012992,0.21443652,-3.55E-05,1
10868000,-0.30141014,0.21316594,-3.55E-05,1
10872000,-0.30153093,0.21188745,-3.55E-05,1
10876000,-0.30166376,0.21690927,-3.55E-05,1
10880000,-0.3017956,0.21556816,-3.55E-05,1
10884000,-0.30189472,0.21419942,-3.55E-05,1
10888000,-0.3020104,0.21289153,-3.55E-05,1
10892000,-0.3021043,0.21161032,-3.55E-05,1
10896000,-0.30217546,0.21027173,-3.55E-05,1
10900000,-0.3022615,0.20891924,-3.55E-05,1
10908000,-0.30236557,0.20632388,-3.55E-05,1
10912000,-0.3023975,0.20502043,-3.55E-05,1
10916000,-0.30243662,0.20371297,-3.55E-05,1
10920000,-0.30246866,0.20239423,-3.55E-05,1
10924000,-0.30253133,0.20105626,-3.55E-05,1
10928000,-0.30264232,0.19975969,-3.55E-05,1
10932000,-0.30273724,0.19844282,-3.55E-05,1
10936000,-0.3028154,0.1971104,-3.55E-05,1
10940000,-0.3029165,0.1958398,-3.55E-05,1
10944000,-0.30297384,0.1946065,-3.55E-05,1
10948000,-0.30300057,0.19338462,-3.55E-05,1
10952000,-0.30305278,0.1921266,-3.55E-05,1
10956000,-0.30311546,0.19089705,-3.55E-05,1
10960000,-0.3031913,0.18969391,-3.55E-05,1
10964000,-0.30326393,0.18845734,-3.55E-05,1
10968000,-0.30333403,0.18728444,-3.55E-05,1
10972000,-0.30343315,0.18612722,-3.55E-05,1
10976000,-0.30355117,0.18496531,-3.55E-05,1
10980000,-0.30364487,0.18383114,-3.55E-05,1
10984000,-0.30370945,0.18272237,-3.55E-05,1
10988000,-0.3037704,0.18166533,-3.55E-05,1
10996000,0.29645076,0.19806872,0.045988988,1
11000000,0.2963653,0.19705822,0.046190143,1
11008000,0.29609367,0.19504358,0.04660704,1
11012000,0.29560512,0.19410706,0.04685779,1
11020000,0.29393265,0.19236138,0.04744683,1
11024000,0.29280642,0.19151989,0.04778279,1
11028000,0.29146948,0.19072703,0.048144355,1
11032000,0.28989953,0.18997552,0.048536763,1
11036000,0.28816953,0.18923156,0.04895508,1
11040000,0.28626552,0.18853499,0.049394198,1
11044000,0.28420815,0.18783528,0.04986069,1
11048000,0.28200322,0.18709713,0.050360795,1
11052000,0.27965626,0.18639514,0.0508795,1
11056000,0.27720135,0.18576697,0.051404044,1
11060000,0.2746486,0.18513058,0.05194886,1
11064000,0.27198103,0.1844788,0.05251844,1
11068000,0.26921627,0.18390045,0.053092398,1
11072000,0.26636314,0.1833793,0.053672433,1
11076000,0.26340923,0.18284774,0.054274295,1
11084000,0.25732908,0.18184642,0.05550335,1
11092000,0.25094697,0.18102325,0.056758665,1
11100000,0.24434087,0.18029606,0.058056373,1
11108000,0.23759754,0.17955974,0.05937957,1
11116000,0.23066522,0.17885007,0.060742497,1
11120000,0.22716317,0.17855299,0.06142226,1
11124000,0.22362512,0.17825754,0.06211114,1
11128000,0.22004312,0.1779733,0.06280841,1
11132000,0.21641213,0.17774975,0.0635037,1
11136000,0.21276173,0.17751706,0.06420767,1
11140000,0.20908527,0.17725271,0.06492682,1
11144000,0.20537375,0.17696644,0.06566081,1
11148000,0.2017071,0.17674941,0.06637378,1
11152000,0.19804844,0.17657031,0.06707938,1
11156000,0.19437976,0.17637262,0.06779437,1
11160000,0.19073972,0.17623167,0.068493426,1
11164000,0.18707845,0.17609219,0.06919895,1
11168000,0.18339616,0.17594543,0.06991309,1
11176000,0.17596842,0.17582394,0.071319,1
11180000,0.17223829,0.17576721,0.07202809,1
11184000,0.16852657,0.17567673,0.07274523,1
11188000,0.16480447,0.17555007,0.07347652,1
11192000,0.1609994,0.1755403,0.07459085,1
11196000,0.15733154,0.17544615,0.07531279,1
11200000,0.15366253,0.17534429,0.07603993,1
11204000,0.14999908,0.17526093,0.07676414,1
11208000,0.14631918,0.1752246,0.07748188,1
11212000,0.14263779,0.17519085,0.078202024,1
11216000,0.13897462,0.175129,0.078929126,1
11224000,0.13168612,0.1749151,0.080409616,1
11228000,0.1280339,0.17488155,0.08113575,1
11236000,0.12080179,0.17481966,0.082580894,1
11240000,0.117237344,0.17480226,0.08329364,1
11244000,0.113649175,0.17478916,0.08401263,1
11248000,0.11006743,0.17477143,0.08473448,1
11252000,0.10654134,0.17479232,0.08543675,1
11256000,0.103057116,0.17479125,0.086139575,1
11260000,0.09957348,0.17477214,0.08685024,1
11268000,0.0926053,0.17481488,0.0882559,1
11272000,0.08914197,0.17484525,0.08895573,1
11276000,0.08572115,0.17488143,0.08964765,1
11280000,0.08231969,0.17491879,0.09033771,1
11284000,0.07890006,0.17494035,0.09103885,1
11288000,0.07552968,0.17495759,0.091733694,1
11292000,0.07210961,0.17513779,0.09275908,1
11296000,0.06880364,0.17517751,0.09344074,1
11300000,0.06552112,0.17519745,0.09412604,1
11304000,0.062280905,0.17521837,0.09480457,1
11308000,0.059016287,0.17527306,0.09548003,1
11312000,0.055790965,0.17532855,0.09614926,1
11316000,0.05261857,0.17536554,0.09681538,1
11320000,0.049437452,0.17540655,0.09748438,1
11324000,0.046286322,0.17541853,0.09815866,1
11328000,0.04314996,0.17543803,0.0988297,1
11332000,0.04001656,0.1754879,0.09949255,1
11340000,0.033815913,0.17562725,0.100797646,1
11344000,0.03075058,0.17564018,0.1014646,1
11348000,0.027710002,0.17564239,0.10213202,1
11352000,0.024714604,0.17565495,0.102788374,1
11360000,0.018789671,0.17569733,0.1040874,1
11364000,0.015863497,0.1757198,0.104731694,1
11368000,0.012949869,0.17571053,0.10538623,1
11372000,0.010015447,0.1756951,0.106049776,1
11376000,0.007105999,0.17565516,0.10671844,1
11380000,0.004234973,0.17569005,0.10735498,1
11384000,0.001439355,0.17573225,0.10797393,1
11388000,-0.001334146,0.17572159,0.108608276,1
11392000,-0.004164103,0.17580174,0.109328926,1
11396000,-0.006970193,0.17584594,0.10995609,1
11400000,-0.009763792,0.17587364,0.110588275,1
11404000,-0.012519617,0.17591065,0.11121047,1
11408000,-0.015226867,0.17593211,0.11182898,1
11412000,-0.017869025,0.17593238,0.1124419,1
11416000,-0.02047081,0.17596506,0.113035716,1
11420000,-0.023132047,0.1760484,0.11362706,1
11424000,-0.025790984,0.17611629,0.114225164,1
11428000,-0.028383592,0.17620215,0.11480297,1
11432000,-0.030977508,0.17625803,0.11539367,1
11436000,-0.03355159,0.17628187,0.11599322,1
11440000,-0.036083594,0.17630917,0.11658333,1
11444000,-0.038606104,0.17630637,0.11718403,1
11448000,-0.041104794,0.17629464,0.11778428,1
11452000,-0.04359178,0.17633227,0.11836524,1
11456000,-0.04606263,0.17642006,0.11892532,1
11460000,-0.04850333,0.1764984,0.119483255,1
11464000,-0.05090394,0.17658877,0.120028526,1
11468000,-0.053260773,0.1766581,0.1205726,1
11472000,-0.055620532,0.17673585,0.1211157,1
11476000,-0.05778262,0.17654401,0.121125475,1
11480000,-0.059876718,0.17631757,0.121032454,1
11484000,-0.061970126,0.17611077,0.12093238,1
11488000,-0.064062685,0.17589086,0.12083863,1
11496000,-0.06842172,0.17580083,0.12123426,1
11500000,-0.07046757,0.17557599,0.1211492,1
11504000,-0.07251666,0.1753608,0.121060655,1
11508000,-0.074548885,0.1751442,0.12097504,1
11512000,-0.07660056,0.17493546,0.12088528,1
11516000,-0.07858601,0.17472276,0.12080379,1
11520000,-0.080527514,0.1745201,0.12072262,1
11524000,-0.08249571,0.17436013,0.1206217,1
11528000,-0.084473394,0.17419754,0.12052175,1
11532000,-0.08644092,0.17401826,0.120430514,1
11536000,-0.08834901,0.17383635,0.12034622,1
11540000,-0.09019938,0.1737014,0.12024717,1
11544000,-0.0920444,0.17358273,0.120142,1
11548000,-0.093873754,0.1734339,0.120051846,1
11552000,-0.095670834,0.17332026,0.11994958,1
11556000,-0.09746058,0.17323612,0.11983543,1
11560000,-0.09923208,0.17316538,0.11971726,1
11564000,-0.10101357,0.17304707,0.11961968,1
11572000,-0.10448794,0.17276935,0.11945158,1
11576000,-0.106218375,0.17265332,0.11935869,1
11580000,-0.10794957,0.17251103,0.11927794,1
11584000,-0.1096659,0.1723975,0.11918603,1
11588000,-0.11137824,0.17230113,0.11908716,1
11596000,-0.11495079,0.17217784,0.11917184,1
11604000,-0.11831413,0.17197222,0.11898783,1
11608000,-0.119981036,0.17188057,0.11889255,1
11612000,-0.12161553,0.17175683,0.11881505,1
11616000,-0.123235494,0.17163709,0.118737325,1
11620000,-0.12485207,0.17155391,0.11864343,1
11628000,-0.12806983,0.17145914,0.11842461,1
11636000,-0.13127182,0.17132404,0.118226856,1
11640000,-0.13286328,0.17124225,0.11813587,1
11644000,-0.13440722,0.17117062,0.11804428,1
11648000,-0.13591173,0.17110878,0.11795154,1
11652000,-0.13738745,0.17107314,0.11784899,1
11656000,-0.13886887,0.17103827,0.117745824,1
11660000,-0.14037982,0.17104536,0.11762054,1
11664000,-0.14190736,0.1710282,0.11750555,1
11668000,-0.14342576,0.17097555,0.117408365,1
11672000,-0.14492065,0.17094582,0.11730228,1
11676000,-0.146381,0.17090638,0.11720386,1
11680000,-0.14783728,0.1708888,0.117095426,1
11684000,-0.14928696,0.17091107,0.11696844,1
11692000,-0.15214354,0.17088337,0.11656532,1
11696000,-0.15354908,0.17091817,0.1164359,1
11700000,-0.15493755,0.17090254,0.11633238,1
11704000,-0.15632942,0.17094754,0.11619909,1
11708000,-0.15773368,0.17102867,0.116047144,1
11716000,-0.1604945,0.17110923,0.11578691,1
11720000,-0.16182867,0.17112501,0.11567253,1
11724000,-0.1631619,0.17109129,0.11558269,1
11732000,-0.16586438,0.17115441,0.11533582,1
11740000,-0.16850089,0.17128345,0.11506137,1
11744000,-0.16981585,0.171291,0.11495279,1
11748000,-0.17113411,0.17128974,0.114848346,1
11756000,-0.17368016,0.17136943,0.11460559,1
11760000,-0.17494673,0.17138979,0.11449452,1
11764000,-0.17625245,0.17139125,0.11438991,1
11768000,-0.17751035,0.17137569,0.11429776,1
11772000,-0.17873847,0.1713776,0.11419924,1
11776000,-0.17997548,0.17138088,0.11409938,1
11780000,-0.18118401,0.17141542,0.113985896,1
11784000,-0.1823895,0.17149094,0.11385171,1
11788000,0.42584428,0.1807297,0.15965854,0.40835232
11792000,0.42451042,0.18103777,0.1599108,0.40835232
11796000,0.42266008,0.18216127,0.16154729,0.40835232
11800000,0.42119253,0.18246756,0.16184345,0.40835232
11804000,0.41953588,0.18284197,0.1621651,0.40835232
11812000,0.41573858,0.17079028,0.1704829,0.4323142
11816000,0.41360447,0.1713272,0.17089598,0.4323142
11820000,0.41125733,0.17187083,0.17137247,0.4323142
11828000,0.40624803,0.17302419,0.17239541,0.4323142
11836000,0.4007428,0.16143812,0.1812307,0.45510513
11844000,0.39495414,0.1627396,0.18249676,0.45510513
11852000,0.38890865,0.16411784,0.18381631,0.45510513
11856000,0.38582498,0.16480926,0.18449736,0.45510513
11860000,0.38270995,0.15267794,0.19306725,0.47678584
11864000,0.3795236,0.15335889,0.1938231,0.47678584
11868000,0.37629887,0.15404244,0.19459282,0.47678584
11872000,0.37308687,0.15475386,0.19534703,0.47678584
11876000,0.36985365,0.1554688,0.19610877,0.47678584
11880000,0.36658204,0.15622582,0.19686568,0.47678584
11884000,0.36329514,0.14429894,0.20563954,0.49725854
11892000,0.35666165,0.14589687,0.207222,0.49725854
11896000,0.35287482,0.14750803,0.20920475,0.49725854
11900000,0.34951085,0.14836311,0.20999664,0.49725854
11908000,0.342727,0.13752677,0.21975724,0.51688707
11916000,0.33584517,0.13938002,0.22141172,0.51688707
11920000,0.33239818,0.14030468,0.2222454,0.51688707
11924000,0.3289603,0.14126153,0.2230618,0.51688707
11932000,0.32206804,0.1306275,0.23307188,0.53522605
11936000,0.31863692,0.13163331,0.23390289,0.53522605
11940000,0.31519592,0.13267699,0.2347208,0.53522605
11944000,0.3117876,0.13373476,0.23552078,0.53522605
11948000,0.3083943,0.13480619,0.23630974,0.53522605
11952000,0.3049876,0.13589202,0.23709846,0.53522605
11956000,0.30156103,0.12458804,0.24639522,0.55226254
11960000,0.29817644,0.12577552,0.24716194,0.55226254
11964000,0.29479614,0.12697527,0.24792215,0.55226254
11972000,0.28801763,0.12936835,0.24945754,0.55226254
11976000,0.28468904,0.13056083,0.2502048,0.55226254
11980000,0.28135228,0.119449325,0.25962263,0.5680224
11988000,0.2746704,0.122011,0.26111215,0.5680224
11992000,0.26962292,0.12652954,0.2662304,0.5680224
11996000,0.26628512,0.12789986,0.26695192,0.5680224
12004000,0.25964177,0.11841646,0.2772222,0.5839213
12008000,0.25638285,0.11985256,0.27791247,0.5839213
12012000,0.25311536,0.12135631,0.2785719,0.5839213
12020000,0.24663055,0.124355495,0.27987486,0.5839213
12024000,0.24344087,0.12585735,0.28050265,0.5839213
12028000,0.24025086,0.11521322,0.29013643,0.59855336
12032000,0.23706686,0.11677355,0.2907653,0.59855336
12040000,0.23075569,0.11996653,0.29195958,0.59855336
12044000,0.22768779,0.12153831,0.29253012,0.59855336
12048000,0.22465223,0.123104766,0.29308888,0.59855336
12052000,0.22160774,0.1125786,0.3028314,0.6119811
12056000,0.21859276,0.11421323,0.3033765,0.6119811
12060000,0.21559325,0.115872666,0.3039009,0.6119811
12064000,0.21258502,0.117513806,0.30443949,0.6119811
12068000,0.2095783,0.11917574,0.30496615,0.6119811
12072000,0.20659876,0.12085598,0.30546993,0.6119811
12076000,0.20367143,0.11045488,0.3153189,0.62424684
12080000,0.20075701,0.112117685,0.31583253,0.62424684
12084000,0.19785559,0.1138131,0.3163218,0.62424684
12088000,0.19497296,0.11547415,0.31682086,0.62424684
12092000,0.19102326,0.11933567,0.31997558,0.62424684
12096000,0.18815711,0.12109004,0.32042706,0.62424684
12100000,0.18531315,0.11088402,0.33036387,0.6361553
12104000,0.18252149,0.11265206,0.33080053,0.6361553
12108000,0.17976318,0.11437179,0.33124694,0.6361553
12112000,0.17699657,0.11609304,0.33169645,0.6361553
12116000,0.17424423,0.117821835,0.3321345,0.6361553
12120000,0.17155081,0.119493894,0.332574,0.6361553
12124000,0.16888152,0.109350815,0.34260124,0.64697254
12128000,0.16622442,0.11111981,0.3429964,0.64697254
12132000,0.1635913,0.11284251,0.34340477,0.64697254
12136000,0.16100131,0.11457638,0.3437841,0.64697254
12140000,0.15842688,0.11630975,0.3441552,0.64697254
12144000,0.15581593,0.11801227,0.3445627,0.64697254
12148000,0.15323702,0.10789874,0.3547306,0.65674216
12156000,0.14809191,0.11139884,0.35550654,0.65674216
12160000,0.14559728,0.11316026,0.3558458,0.65674216
12164000,0.14309606,0.114919916,0.3561893,0.65674216
12172000,0.1381314,0.10666807,0.36677864,0.66557884
12180000,0.13323161,0.11020274,0.36745298,0.66557884
12184000,0.13086998,0.111994736,0.36772668,0.66557884
12188000,0.12850508,0.11373797,0.36802983,0.66557884
12192000,0.12508935,0.117642306,0.37091905,0.66557884
12196000,0.12271101,0.107685655,0.38128874,0.67419666
12200000,0.1203957,0.10941532,0.38160664,0.67419666
12204000,0.11810531,0.11117199,0.38189444,0.67419666
12208000,0.11576244,0.112967096,0.38218954,0.67419666
12212000,0.1134282,0.11473199,0.38249683,0.67419666
12216000,0.111134246,0.11647592,0.3827931,0.67419666
12220000,0.10887317,0.1066083,0.39323008,0.6819662
12224000,0.10665364,0.10831985,0.39352655,0.6819662
12228000,0.104451776,0.10998067,0.39384198,0.6819662
12232000,0.10225324,0.11167009,0.39413863,0.6819662
12236000,0.10007164,0.113407806,0.39439678,0.6819662
12244000,0.0957286,0.11029638,0.4007608,0.6889498
12248000,0.09361257,0.11202121,0.40100068,0.6889498
12252000,0.091516584,0.11374363,0.40122974,0.6889498
12256000,0.08938982,0.11547509,0.4014714,0.6889498
12260000,0.08723481,0.11720939,0.4017277,0.6889498
12264000,0.08510823,0.118942544,0.40196753,0.6889498
12268000,0.083030894,0.12308915,0.3999999,0.69525224
12272000,0.0809771,0.12483202,0.40018514,0.69525224
12276000,0.07891387,0.1265629,0.4003827,0.69525224
12280000,0.07683664,0.12832174,0.4005716,0.69525224
12284000,0.07479381,0.13010193,0.40072688,0.69525224
12292000,0.06990013,0.13767232,0.4011408,0.7009086
12296000,0.06793921,0.13936427,0.40130156,0.7009086
12300000,0.065959156,0.14105698,0.40147302,0.7009086
12308000,0.061981224,0.14441173,0.40184405,0.7009086
12312000,0.060036227,0.14603639,0.40203458,0.7009086
12316000,0.058091104,0.14950624,0.40050223,0.706444
12320000,0.056175,0.1511885,0.40063667,0.706444
12324000,0.05425811,0.1528417,0.40078884,0.706444
12332000,0.05038824,0.15615255,0.40111148,0.706444
12336000,0.048430867,0.15783027,0.40127248,0.706444
12340000,0.046518184,0.16115658,0.3998336,0.7113837
12344000,0.044672795,0.16275792,0.39997,0.7113837
12348000,0.042809725,0.16438532,0.40010086,0.7113837
12352000,0.040934704,0.16604593,0.40021846,0.7113837
12356000,0.03907068,0.1677015,0.40033224,0.7113837
12360000,0.037179254,0.16932416,0.40048262,0.7113837
12364000,0.03526979,0.17248055,0.39917153,0.71578217
12368000,0.033392392,0.17411782,0.39930126,0.71578217
12372000,0.031516418,0.17575172,0.399432,0.71578217
12380000,0.02779843,0.17899317,0.3996888,0.71578217
12388000,0.024138406,0.18362482,0.398552,0.71973383
12396000,0.0201829,0.18763271,0.39958835,0.71973383
12400000,0.018425368,0.18918958,0.399694,0.71973383
12404000,0.016640514,0.19075677,0.39980978,0.71973383
12408000,0.014860973,0.19230677,0.3999329,0.71973383
12412000,0.013087682,0.19511595,0.39881358,0.72343516
12416000,0.011289999,0.19674188,0.39889807,0.72343516
12420000,0.009532824,0.19832298,0.39898556,0.72343516
12424000,0.007785827,0.19984403,0.39910457,0.72343516
12428000,0.006011464,0.20138769,0.39922613,0.72343516
12432000,0.004273899,0.2029266,0.39932808,0.72343516
12436000,0.002524644,0.20563172,0.3982748,0.7267149
12440000,0.000730477,0.20719767,0.3983925,0.7267149
12444000,-0.001064509,0.20874104,0.39852506,0.7267149
12448000,-0.002826937,0.21030188,0.3986265,0.7267149
12452000,-0.004554629,0.21188223,0.398694,0.7267149
12456000,-0.006276295,0.21342409,0.3987823,0.7267149
12460000,-0.008003272,0.21600604,0.3978086,0.72964084
12464000,-0.009709559,0.21753132,0.3978961,0.72964084
12468000,-0.011424482,0.21906956,0.3979807,0.72964084
12472000,-0.013149895,0.22060388,0.39807433,0.72964084
12476000,-0.014844894,0.22212645,0.39815664,0.72964084
12480000,-0.016502954,0.22363368,0.39822578,0.72964084
12484000,-0.018175207,0.22615024,0.397271,0.7322188
12488000,-0.019874722,0.22766031,0.39736256,0.7322188
12492000,-0.02162119,0.22941118,0.39769113,0.7322188
12496000,-0.023287624,0.23092738,0.39775914,0.7322188
12500000,-0.02495043,0.23245491,0.39781752,0.7322188
12504000,-0.026591435,0.23396543,0.39787337,0.7322188
12508000,-0.028219067,0.23635736,0.39698926,0.7345571
12511999,-0.029830277,0.23783585,0.39704555,0.7345571
12516000,-0.031478643,0.23936746,0.39709097,0.7345571
12520000,-0.033091888,0.24082075,0.39716518,0.7345571
12523999,-0.03469629,0.2422257,0.3972652,0.7345571
12528000,-0.03630323,0.2436719,0.3973404,0.7345571
12532000,-0.037883706,0.24600285,0.39647502,0.736606
12536000,-0.039482817,0.24749854,0.39651176,0.736606
12540000,-0.041064896,0.24898002,0.39654714,0.736606
12543999,-0.042611696,0.25038648,0.3966092,0.736606
12548000,-0.04414408,0.2517991,0.39665824,0.736606
12555999,-0.047214366,0.255551,0.3958188,0.73841083
12560000,-0.04875622,0.25699574,0.39585182,0.73841083
12564000,-0.050270863,0.25839272,0.39589906,0.73841083
12568000,-0.051788986,0.2598186,0.3959297,0.73841083
12572000,-0.053335115,0.2612977,0.39594334,0.73841083
12575999,-0.05485916,0.2627412,0.39596647,0.73841083
12580000,-0.05635932,0.26491576,0.3951653,0.7400079
12584000,-0.057853423,0.26631013,0.39520073,0.7400079
12587999,-0.05934082,0.26767865,0.39524898,0.7400079
12592000,-0.06127782,0.27023682,0.39636812,0.7400079
12596000,-0.06276556,0.27166373,0.3963814,0.7400079
12600000,-0.06422953,0.27307984,0.39638692,0.7400079
12604000,-0.065710604,0.27515095,0.3956841,0.7415957
12607999,-0.067184016,0.27653623,0.39571524,0.7415957
12612000,-0.06864124,0.27790874,0.39574465,0.7415957
12616000,-0.070076875,0.2792474,0.3957829,0.7415957
12619999,-0.07151416,0.28059837,0.3958141,0.7415957
12624000,-0.07300371,0.28197458,0.3958626,0.7415957
12628000,-0.07445863,0.28398168,0.39517555,0.74302745
12632000,-0.07583803,0.28530127,0.39519,0.74302745
12636000,-0.07720057,0.28662607,0.3951901,0.74302745
12644000,-0.08009148,0.2892643,0.39530638,0.74302745
12648000,-0.08150758,0.29056165,0.39536044,0.74302745
12651999,-0.08293713,0.29246596,0.394733,0.74427855
12660000,-0.08567065,0.29496372,0.39484125,0.74427855
12664000,-0.087035246,0.29620117,0.3949021,0.74427855
12668000,-0.088401556,0.29742533,0.39497334,0.74427855
12671999,-0.08976214,0.2986662,0.39502993,0.74427855
12676000,-0.09113012,0.30055845,0.39436957,0.74536574
12683999,-0.09388259,0.30311453,0.39445287,0.74536574
12688000,-0.09522693,0.30436224,0.39449453,0.74536574
12692000,-0.09679038,0.30623886,0.39511475,0.74536574
12696000,-0.09811248,0.30746987,0.39515504,0.74536574
12700000,-0.099454194,0.30931267,0.39453933,0.7464122
12703999,-0.100778565,0.31055355,0.39457428,0.7464122
12708000,-0.10208066,0.31169894,0.39465937,0.7464122
12715999,-0.104666956,0.31407216,0.3947632,0.7464122
12720000,-0.10597192,0.31522316,0.3948476,0.7464122
12724000,-0.10725525,0.31694186,0.39426383,0.7473405
12728000,-0.108532466,0.31807965,0.39433876,0.7473405
12732000,-0.10980786,0.31923613,0.3944001,0.7473405
12735999,-0.11106268,0.32039738,0.3944449,0.7473405
12740000,-0.11224757,0.32146364,0.39450812,0.7473405
12744000,-0.11345053,0.3225336,0.3945812,0.7473405
12747999,-0.11465158,0.32417566,0.39400113,0.74809873
12756000,-0.117015295,0.32629716,0.394132,0.74809873
12760000,-0.11819979,0.3273363,0.39421448,0.74809873
12764000,-0.119379416,0.32835168,0.3943102,0.74809873
12767999,-0.12057555,0.32939798,0.39439642,0.74809873
12772000,-0.1217429,0.33099565,0.3938203,0.748731
12779999,-0.12412865,0.3331256,0.39396295,0.748731
12788000,-0.12650381,0.33520147,0.3941372,0.748731
12796000,-0.12871252,0.33734548,0.39339238,0.7491969
12804000,-0.13106498,0.33930957,0.39362845,0.7491969
12808000,-0.13227661,0.3403311,0.39374405,0.7491969
12811999,-0.13342227,0.34135556,0.39381337,0.7491969
12816000,-0.13455142,0.3423353,0.39390263,0.7491969
12820000,-0.13569109,0.34383908,0.39336967,0.74959356
12824000,-0.13671461,0.34465557,0.39332542,0.74959356
12828000,-0.13759126,0.34506816,0.39295846,0.74959356
12831999,-0.13850036,0.34544644,0.39262235,0.74959356
12836000,-0.13937046,0.34584403,0.39226776,0.74959356
12840000,-0.14022358,0.34623617,0.39191735,0.74959356
12843999,-0.14110476,0.3471152,0.39097336,0.7498698
12852000,-0.14281778,0.34789765,0.39026976,0.7498698
12856000,-0.14372784,0.34828833,0.3899179,0.7498698
12860000,-0.1446399,0.3486715,0.3895722,0.7498698
12863999,-0.14552115,0.34904185,0.38923764,0.7498698
12868000,-0.14636578,0.34991395,0.38828757,0.7501123
12872000,-0.14720424,0.35024512,0.38798696,0.7501123
12875999,-0.14805341,0.35056394,0.38769725,0.7501123
12880000,-0.14890516,0.35090512,0.38738656,0.7501123
12888000,-0.15062529,0.3515127,0.38683274,0.7501123
12892000,-0.15180822,0.35335848,0.3867923,0.75024456
12895999,-0.15262586,0.35370833,0.3864707,0.75024456
12900000,-0.15343487,0.35405362,0.3861528,0.75024456
12904000,-0.15425485,0.3544187,0.38581604,0.75024456
12907999,-0.15508953,0.35476744,0.38549387,0.75024456
12912000,-0.15591314,0.35506946,0.38521475,0.75024456
12916000,-0.15670462,0.35589036,0.38430604,0.7505387
12924000,-0.15830006,0.3565427,0.383699,0.7505387
12927999,-0.1591012,0.35687608,0.383388,0.7505387
12932000,-0.15984386,0.35722014,0.38306648,0.7505387
12936000,-0.16059045,0.3575381,0.38276896,0.7505387
12939999,-0.1613603,0.3583326,0.38188082,0.750735
12944000,-0.16214158,0.35864833,0.38158405,0.750735
12948000,-0.16292337,0.35899255,0.38125986,0.750735
12952000,-0.16369751,0.35932925,0.38094217,0.750735
12956000,-0.16448586,0.3596661,0.3806239,0.750735
12959999,-0.16530354,0.36003292,0.3802767,0.750735
12964000,-0.16610087,0.36086679,0.37934017,0.75092894
12968000,-0.166819,0.36119145,0.37903136,0.75092894
12972000,-0.16751555,0.36153254,0.3787066,0.75092894
12980000,-0.1689991,0.3621874,0.37808123,0.75092894
12988000,-0.1704713,0.3632939,0.37688506,0.7510364
12991999,-0.17131692,0.3638699,0.37684736,0.7510364
12996000,-0.17209758,0.3641587,0.37656903,0.7510364
13004000,-0.17360012,0.36483127,0.37591997,0.7510364
13008000,-0.17430821,0.36517933,0.3755835,0.7510364
13011999,-0.17502552,0.36597145,0.37467623,0.75122637
13016000,-0.17573017,0.3663006,0.37435645,0.75122637
13020000,-0.17642644,0.3666468,0.3740197,0.75122637
13023999,-0.17710614,0.36698827,0.37368703,0.75122637
13028000,-0.17779122,0.3672909,0.3733915,0.75122637
13032000,-0.17850322,0.36759004,0.3730988,0.75122637
13036000,-0.17920911,0.3684084,0.37215936,0.7513533
13040000,-0.17991674,0.368739,0.3718347,0.7513533
13044000,-0.18062054,0.36907566,0.3715036,0.7513533
13048000,-0.18131845,0.3694077,0.37117663,0.7513533
13052000,-0.1819935,0.36973768,0.3708512,0.7513533
13055999,-0.18266585,0.37006605,0.3705269,0.7513533
13060000,-0.18337902,0.37086058,0.36959928,0.7515042
13064000,-0.18408363,0.3711789,0.36928302,0.7515042
13068000,-0.18475334,0.3715166,0.36894768,0.7515042
13072000,-0.18539758,0.37182382,0.3686419,0.7515042
13075999,-0.18604511,0.3721461,0.3683209,0.7515042
13084000,-0.1873313,0.3732579,0.3670774,0.75158656
13087999,-0.1879766,0.37357584,0.3667588,0.75158656
13092000,-0.18862358,0.3740367,0.36654252,0.75158656
13096000,-0.18923476,0.3743865,0.3661919,0.75158656
13100000,-0.18986319,0.37472093,0.36585563,0.75158656
13104000,-0.19047922,0.3750396,0.36553466,0.75158656
13107999,-0.19108139,0.37588412,0.36454624,0.7516925
13116000,-0.19234094,0.3765028,0.36391914,0.7516925
13119999,-0.19298191,0.37679362,0.36362332,0.7516925
13124000,-0.19361584,0.37709042,0.3633212,0.7516925
13132000,-0.19488299,0.37816733,0.36208883,0.7517725
13136000,-0.19553435,0.3784449,0.36180395,0.7517725
13139999,-0.19615206,0.37872073,0.36152074,0.7517725
13144000,-0.19678657,0.37903062,0.36120304,0.7517725
13148000,-0.19740328,0.3793577,0.36086774,0.7517725
13156000,-0.19863604,0.38053808,0.35951912,0.7518506
13164000,-0.19992098,0.38114265,0.35889354,0.7518506
13168000,-0.20054035,0.38140947,0.358616,0.7518506
13171999,-0.20113657,0.38171837,0.35829613,0.7518506
13176000,-0.20176229,0.38203228,0.35797036,0.7518506
13180000,-0.2023868,0.38281363,0.35703078,0.75188696
13183999,-0.20297405,0.38311943,0.3567124,0.75188696
13192000,-0.20437951,0.38451436,0.3566974,0.75188696
13196000,-0.20494384,0.38482994,0.35636833,0.75188696
13200000,-0.2055205,0.38513148,0.35605264,0.75188696
13203999,-0.2061321,0.38590223,0.3551139,0.7520591
13208000,-0.2067096,0.38621762,0.35478276,0.7520591
13212000,-0.20727898,0.38651708,0.35446742,0.7520591
13215999,-0.20788983,0.38677767,0.35419095,0.7520591
13220000,-0.20848203,0.3870201,0.35393274,0.7520591
13224000,-0.20904088,0.3872681,0.35366926,0.7520591
13228000,-0.2096051,0.3880079,0.3527594,0.7521896
13232000,-0.21020627,0.3883005,0.35244834,0.7521896
13235999,-0.21080782,0.3885823,0.3521478,0.7521896
13240000,-0.21138905,0.38884094,0.3518711,0.7521896
13244000,-0.21195191,0.3891133,0.35158044,0.7521896
13247999,-0.2125062,0.38939574,0.35127908,0.7521896
13252000,-0.21306372,0.39012995,0.35036555,0.75231177
13256000,-0.21366224,0.39038408,0.35009128,0.75231177
13260000,-0.21429682,0.39062983,0.3498245,0.75231177
13264000,-0.21490817,0.39085507,0.34957933,0.75231177
13272000,-0.21601018,0.3913101,0.3490856,0.75231177
13276000,-0.21656671,0.3920137,0.34820274,0.7524017
13280000,-0.21714576,0.39226338,0.3479312,0.7524017
13284000,-0.21773139,0.39250308,0.3476694,0.7524017
13288000,-0.21831515,0.39273736,0.34741318,0.7524017
13292000,-0.21908912,0.39369145,0.34771076,0.7524017
13296000,-0.21961638,0.3938895,0.34749293,0.7524017
13300000,-0.22017539,0.39458498,0.34661132,0.7526082
13308000,-0.22121927,0.3950362,0.3461161,0.7526082
13312000,-0.22173741,0.39527836,0.3458509,0.7526082
13316000,-0.2222932,0.39548516,0.3456215,0.7526082
13320000,-0.22282739,0.39567694,0.34540802,0.7526082
13324000,-0.2233622,0.39636582,0.34452885,0.75276136
13332000,-0.22440186,0.3967663,0.34408292,0.75276136
13336000,-0.22492298,0.39695084,0.34387618,0.75276136
13340000,-0.22545204,0.3971449,0.34365895,0.75276136
13344000,-0.22601476,0.39732498,0.34345537,0.75276136
13348000,-0.22659653,0.39795116,0.3426358,0.7528743
13352000,-0.22715169,0.3981437,0.34241855,0.7528743
13356000,-0.22770187,0.3983481,0.34218845,0.7528743
13360000,-0.2282443,0.39848003,0.34203508,0.7528743
13364000,-0.22880039,0.39859095,0.34190342,0.7528743
