timestamp,control[0],control[1],control[2],control[3],control[4],output[2],output[3],output[4],output[5],output[6],output[7],indicated_airspeed_m_s,true_airspeed_m_s,indicated_airspeed_m_s.1,equivalent_airspeed_m_s,true_airspeed_m_s.1,equivalent_ground_minus_wind_m_s,true_ground_minus_wind_m_s,differential_pressure_raw_pa,differential_pressure_filtered_pa,temperature,gyro_bias[0],gyro_bias[1],gyro_bias[2],accel_bias[0],accel_bias[1],accel_bias[2],instance_count,seq_reached,seq_current,seq_total,item_changed_index,item_do_jump_remaining,valid,warning,finished,failure,stay_in_failsafe,flight_termination,item_do_jump_changed,execution_mode,nav_roll,nav_pitch,nav_bearing,target_bearing,xtrack_error,wp_dist,acceptance_radius,rollspeed_integ,pitchspeed_integ,yawspeed_integ,additional_integ1,x,y,z,temperature.1,pressure,temperature.2,gyro_rad[0],gyro_rad[1],gyro_rad[2],accelerometer_m_s2[0],accelerometer_m_s2[1],accelerometer_m_s2[2],x.1,y.1,z.1,temperature.3,altitude_sp,altitude_filtered,height_rate_setpoint,height_rate,airspeed_sp,airspeed_filtered,airspeed_derivative_sp,airspeed_derivative,throttle_integ,pitch_integ,baro_alt_meter,baro_temp_celcius,baro_pressure_pa,rho,xyz[0],xyz[1],xyz[2],xyz[0].1,xyz[1].1,xyz[2].1,roll_body,pitch_body,yaw_body,q_d[0],q_d[1],q_d[2],q_d[3],thrust_body[0],lat,lon,alt,vel_m_s,vel_n_m_s,vel_e_m_s,vel_d_m_s,cog_rad,ground_contact,maybe_landed,landed,ref_lat,ref_lon,x.2,y.2,z.2,vx,vy,vz,ax,ay,az,yaw,dist_bottom,roll,pitch,yaw.1,thrust_body[0].1,timestamp.1,isTakeoff,isClimbing,isDescending,isCruise,isLand
60007317.0,-0.008502684,0.118547045,0.007083848,0.13538092,0.0,1500.0,1500.0,1235.0,1503.0,1496.0,1561.0,17.88304872,18.3213244,18.05684625,18.16010561,18.60523616,18.59244142,19.048169,198.4948968,198.4948968,11.75344466,-0.001581225,-0.005900292,0.000104404,-0.19183221600000006,0.19624784,-0.008877189,2.0,0.579715943,1.579715943,11.0,0.0,0.0,1.0,0.0,0.0,0.0,0.0,0.0,0.0,0.0,0.850122307,0.02554649,2.837885058,3.062462591,16.22757873,185.0933856,52.7728188,-0.021934581,0.017698066000000002,-0.118424166,0.0,-1.36317524,-0.340957425,-11.49577316,-1.05e+21,954.6322339,11.75292939,0.075761955,0.231612664,0.349870406,-1.262764646,-0.463511454,-11.68968515,0.050074316,0.225159719,0.379711289,-1.05e+21,96.77827133,100.0266671,-3.356540222,-1.4424058080000002,15.36745757,17.13307893,-0.035312422,-0.950529166,-0.122499948,75.31016016,499.8275264,11.75310231,95463.74675,1.13426724,-0.7086694579999999,-0.13410578,0.434204719,0.046292437,0.249662468,0.374189218,0.8412513890000001,-0.003673538,2.866012093,0.124638933,0.057747718,0.404230871,0.904281747,0.0,398750106.3,327392912.1,500243.8032,18.49808362,-5.974468675,17.48412837,-0.6106881239999999,1.900218253,0.0,0.0,0.0,39.8714138,32.7364372,398.6440539,246.94458390000003,-100.3224196,-7.31901728,16.78150841,-0.469046784,-6.298390402000001,-4.724918716,1.221711048,1.98533433,100.4055796,0.07139458900000001,0.273922918,0.469027709,0.0,60007317.0,0.0,0.0,1.0,0.0,0.0
60033348.0,-0.00803218458517034,0.11750252743687375,0.00899102345490982,0.10342712088176352,0.0,1501.7795591182364,1500.0,1175.681362725451,1503.5931863727455,1495.4068136272545,1559.8136272545091,17.84732802725451,18.284680317755512,18.021235640781565,18.123896902825653,18.568130970260523,18.550958253827655,19.00565992392786,197.71760186773548,197.71760186773548,11.753478833466934,-0.0015812795731462927,-0.005900271238476954,0.00010427171943887775,-0.19183924763126256,0.1962450846492986,-0.00881857862725451,2.0,0.581258536026052,1.5812585360260523,11.0,0.0,0.0,1.0,0.0,0.0,0.0,0.0,0.0,0.0,0.0,0.847262790991984,0.019841715811623247,2.8462309618877755,3.0648329678977957,15.776775374649299,184.82540072464928,52.63860595799599,-0.021938485945891782,0.017754715298597196,-0.11817292784368737,0.0,-1.3616269903486973,-0.3590571481743487,-11.440776632865731,-1.05e+21,954.6303931833667,11.752850419098197,0.06848403038276553,0.23466210048897795,0.35660614818837677,-1.30217752351503,-0.46544246309018034,-11.615156425190381,0.04165760997995992,0.22777283428657316,0.3818327037975952,-1.05e+21,96.67078731765531,99.9859946713026,-3.3908836065771544,-1.5167584768737477,15.367431457935872,17.10689978242485,-0.03478936271342685,-0.9311522158757515,-0.122801045250501,75.2960137149499,499.8501683238477,11.753010811002003,95463.4789738076,1.1342640486573148,-0.7159264105130261,0.20122747588777556,0.4018766163146293,0.03658429128456914,0.2508682100601203,0.38187066951102205,0.8377373464028056,-0.006709970657314629,2.8730385748116234,0.12094664798196392,0.05749266980761523,0.40265410450701405,0.9054949163466933,0.0,398750090.93647295,327392971.24068135,500263.80396152305,18.4924495951503,-6.178702009957916,17.408069182825653,-0.5980115728336673,1.9119935476372747,0.0,0.0,0.0,39.8714138,32.7364372,398.4380886174349,247.40420872565133,-100.33583860280561,-7.491152970517033,16.650678764949898,-0.43405554084168335,-6.255495155667335,-4.7939536155591185,1.2689609549819638,1.997358824012024,100.41899860280562,0.06580119148496995,0.27666602474148294,0.4696367387875751,0.0,60033347.79759519,0.0,0.0,1.0,0.0,0.0
60059378.0,-0.007842077374749498,0.11648016213827656,0.01127041920240481,0.0673855766533066,0.0,1503.372745490982,1500.0,1124.935871743487,1503.8136272545091,1495.1863727454909,1558.8136272545091,17.810405798737474,18.246843228156315,17.98562503156313,18.087688195651303,18.53102578238477,18.50947508765531,18.96315084971944,196.94030695410822,196.94030695410822,11.753513006933868,-0.0015813341462925852,-0.005900250663326653,0.00010413943887775551,-0.19184627926252507,0.19624232911222445,-0.008759968254509018,2.0,0.5828011290521041,1.5828011290521045,11.0,0.0,0.0,1.0,0.0,0.0,0.0,0.0,0.0,0.0,0.0,0.8444032749839679,0.014136941623246493,2.854576865961924,3.0672033446092186,15.325972019298597,184.55741586793587,52.50439311599198,-0.021940551206412823,0.017809071094188375,-0.11791817357915832,0.0,-1.3585386198817635,-0.36911510841883766,-11.38918040006012,-1.05e+21,954.6285435208416,11.752773634348697,0.05933626397995992,0.23740990983567134,0.36373849362925853,-1.3398807911623245,-0.43016597570941884,-11.555289273386775,0.033399914018036075,0.22962312685771544,0.38285167031663325,-1.05e+21,96.56330330531063,99.94532223887776,-3.425226990967936,-1.5911111455611222,15.367405345871743,17.080720632985972,-0.03426630361322645,-0.9117752655651302,-0.123102142501002,75.28186727176353,499.8876490965932,11.75292202,95463.05034116232,1.1342589525851705,-0.6897097708937876,0.3809480160300601,0.25661085120440874,0.027731726186372745,0.2514859841282565,0.3851974815671343,0.8347585480661323,-0.010869695893787576,2.8812961656492986,0.11645290089178356,0.057538005651302605,0.4012907288436874,0.9066821252745491,0.0,398750075.4611222,327393030.3440882,500283.69422264525,18.485498023086173,-6.382340327747495,17.33039493230461,-0.5849100066352706,1.9237777438096193,0.0,0.0,0.0,39.8714138,32.7364372,398.2276588130261,247.86683810360722,-100.34884557274549,-7.664216918076152,16.517907421543086,-0.3980281960521042,-6.211547952601203,-4.859253850192385,1.3174188318817635,2.009527794362725,100.4320055727455,0.06053592983967936,0.27882868754509016,0.4721635856873747,0.0,60059378.408817634,0.0,0.0,1.0,0.0,0.0
60085409.0,-0.008264009062124248,0.11550615070741482,0.014362295803607213,0.02242131997995992,0.0,1504.5591182364728,1500.0,1092.9038076152306,1503.2204408817636,1495.7795591182364,1558.2204408817636,17.770860863106215,18.20640204723447,17.95001442234469,18.051479488476954,18.493920598577155,18.467991921482966,18.920641779579157,196.16301208116232,196.16301208116232,11.753547180400801,-0.0015813887194388778,-0.00590023049498998,0.00010400715831663326,-0.1918533108937876,0.19623957316833668,-0.008701357881763527,2.0,0.5843437220781562,1.5843437220781564,11.0,0.0,0.0,1.0,0.0,0.0,0.0,0.0,0.0,0.0,0.0,0.8415437589759519,0.008432167434869738,2.8629227704428857,3.069573720913828,14.875168663947896,184.2894310519038,52.37018027398797,-0.02193860080961924,0.017858420641282565,-0.11765574436873748,0.0,-1.3520884803226452,-0.3616195431282565,-11.34500631509018,-1.05e+21,954.6266743312625,11.752701621523046,0.04610701496993988,0.23949932875350702,0.37173654294388775,-1.373852329743487,-0.31367312506412826,-11.52742534008016,0.02548930452705411,0.22980833328657313,0.3814642174749499,-1.05e+21,96.45581929296593,99.90464979831664,-3.459570374951904,-1.6654638138416835,15.367379233807615,17.05454147947896,-0.033743244919839675,-0.8923983148476954,-0.12340323975150301,75.2677208326453,499.9575200448898,11.752839139999999,95462.27059174348,1.1342496988777555,-0.5904271183406814,0.2209977895450902,-0.13517475769338672,0.02074671877955912,0.2508203441923848,0.37901900535070143,0.8329480785991984,-0.017481339340681364,2.892241015973948,0.11020972583767535,0.05823901847695391,0.4003931417655311,0.9078126679118237,0.0,398750059.74168336,327393089.36613226,500303.34328396793,18.475670514629257,-6.584679844621242,17.249195328456914,-0.5708807194529057,1.9355813702144289,0.0,0.0,0.0,39.8714138,32.7364372,398.0074838695391,248.33602580541083,-100.36095315911824,-7.839307061114228,16.38089774731463,-0.35973925307815635,-6.165304542901803,-4.916402074288577,1.3685134603226452,2.022012127044088,100.44411315911825,0.05598692175951904,0.27972435981763527,0.4788766355310621,0.0,60085408.61322645,0.0,0.0,1.0,0.0,0.0
60111439.0,-0.00804364920240481,0.11356886055911823,0.017035904252505008,0.0035826456713426843,0.0,1505.745490981964,1500.0,1052.6713426853707,1503.372745490982,1495.627254509018,1557.627254509018,17.70851354262525,18.142562196773547,17.914403813126256,18.015270785030058,18.456815411042083,18.42650875158317,18.878132705711423,195.3857171709419,195.3857171709419,11.75358135014028,-0.0015814429198396794,-0.005900209953907816,0.00010387487775551102,-0.1918603425250501,0.19623681759719439,-0.008642747881763526,2.0,0.5858863154769539,1.585886315476954,11.0,0.0,0.0,1.0,0.0,0.0,0.0,0.0,0.0,0.0,0.0,0.8386842425951904,0.0027273932464929847,2.8712686749238476,3.071944097218437,14.424365308597194,184.0214461985972,52.235967431983966,-0.021933012044088176,0.01789910236472946,-0.11738511513026052,0.0,-1.3409618873887776,-0.3297058035330661,-11.311156944749499,-1.05e+21,954.6247779312625,11.752636243567135,0.03561220936272545,0.2410769617755511,0.3793744515290581,-1.3660522429098196,-0.2628019488797595,-11.480252228657315,0.01806151525250501,0.22767728954308616,0.37672926858517036,-1.05e+21,96.34574171749499,99.8609135911022,-3.4900154978777556,-1.7409900168797596,15.36735109773547,17.029918337114232,-0.033251346258517035,-0.8718134167635271,-0.12371103896593186,75.25049581024048,499.9731811627255,11.75276241775551,95462.09035871744,1.134247518761523,-0.4451769603046092,0.10485723147695387,-0.4368085383707416,0.015832834791583168,0.24690577628056112,0.3718287237995992,0.8301206505911823,-0.02480151530861724,2.9007986916052104,0.10493683674348697,0.059700536845691383,0.39893652628256515,0.9089833037995992,0.0,398750041.748497,327393147.6054108,500320.912164529,18.441040782124247,-6.775818419503006,17.13759291755511,-0.5488507116012024,1.9475525636092184,0.0,0.0,0.0,39.8714138,32.7364372,397.77375276893787,248.81433649038075,-100.37180966252505,-8.017215782921843,16.237992260741482,-0.3183042706933868,-6.115866949983968,-4.962210285795591,1.423275993480962,2.0349351509759517,100.45496966252506,0.05085929600801603,0.2779937228997996,0.48649521239679355,0.0,60111439.19038076,0.0,0.0,1.0,0.0,0.0
60137470.0,-0.0074434395030060115,0.11106188944889779,0.019462149815631262,0.0001945845891783548,0.0,1506.9318637274548,1500.0,1007.5891783567134,1503.9659318637275,1495.0340681362725,1557.0340681362725,17.632680940781565,18.064884423466932,17.878793203907822,17.979062083787575,18.419710221302605,18.385025579478963,18.835623629639276,194.60842223867735,194.60842223867735,11.753615517675351,-0.0015814968997995991,-0.005900189192384771,0.00010374259719438877,-0.1918673741563126,0.19623406224649298,-0.00858413810220441,2.0,0.5874289090961924,1.5874289090961924,11.0,0.0,0.0,1.0,0.0,0.0,0.0,0.0,0.0,0.0,0.0,0.8358247259939879,-0.0029773809418837697,2.8796145794048096,3.074314473523046,13.973561953246493,183.7534613232465,52.101754589979954,-0.02192527155511022,0.01793465795591183,-0.11710963641282565,0.0,-1.327069649985972,-0.28335120816633264,-11.283413588436874,-1.05e+21,954.6228654390782,11.752574789458917,0.02673454770340681,0.2423519257194389,0.3867993736613226,-1.3335485066372745,-0.2507392898496994,-11.421659710821643,0.010919264815631258,0.22417642042885771,0.37001461773146294,-1.05e+21,96.23413031436873,99.81536547887775,-3.5181551975971943,-1.8172102458496995,15.36732176466934,17.00621541639279,-0.03277787557314629,-0.8505141412044088,-0.12402280170741482,75.2314501203006,499.9567827034068,11.75268933719439,95462.2646783968,1.1342495219519038,-0.27274171838076144,0.01462561709619234,-0.6851267217134269,0.012143808739478956,0.2410697993507014,0.364040062749499,0.8266917954889779,-0.03254071588577155,2.907944597256513,0.10023777267935871,0.06161181655711423,0.3971493026032064,0.910177650749499,0.0,398750022.4106212,327393205.3817635,500337.25083066133,18.391743067655312,-6.960332781378757,17.008010351943888,-0.522089094751503,1.9596228557615232,0.0,0.0,0.0,39.8714138,32.7364372,397.5320045861723,249.29804248797595,-100.38192627815631,-8.196791406152306,16.091600003426855,-0.27500872736673343,-6.064540323979961,-5.001312038244489,1.4802077176012023,2.04811761596994,100.46508627815632,0.04538947701002004,0.2747098923747495,0.494649315995992,0.0,60137469.987975955,0.0,0.0,1.0,0.0,0.0
60163500.0,-0.008275265795591184,0.11336107465731463,0.020138400587174348,0.0,0.0,1508.118236472946,1500.0,1002.2044088176352,1503.4408817635272,1495.5591182364728,1555.881763527054,17.611965348056113,18.04367887242485,17.84318259468938,17.942853376953913,18.382605031563127,18.343542412965935,18.793114553567133,193.83112736232465,193.83112736232465,11.753649690801604,-0.0015815514388777556,-0.005900168989979961,0.00010361031663326653,-0.19187440634669337,0.19623130633667332,-0.008525527763527054,2.0,0.5889715021563127,1.5889715021563127,11.0,0.0,0.0,1.0,0.0,0.0,0.0,0.0,0.0,0.0,0.0,0.8329652099519038,-0.008682155689378758,2.8879604833266534,3.0766848498276556,13.522758597895791,183.48547650380763,51.96754174797595,-0.021914254633266534,0.017976037322645293,-0.11684191825651302,0.0,-1.327187420507014,-0.25665687113426855,-11.226880138256513,-1.05e+21,954.6209045272545,11.752527061703407,0.02035974528256513,0.24100998092785572,0.3835806878917836,-1.3662570550981963,-0.2866956702685371,-11.351309596232465,0.005299281430861723,0.2194379475711423,0.362301457747495,-1.05e+21,96.10837494194388,99.75310914693387,-3.525035775527054,-1.8998303316953908,15.36728142256513,16.990998160460926,-0.032474336016032064,-0.8226273390561122,-0.12437111233066132,75.19561543482966,499.9662789106212,11.752625073927856,95462.16560044089,1.134248419240481,-0.16160509567935874,0.12465444547494992,-0.4037858916733467,0.005064411030060121,0.232670770749499,0.35546373661523045,0.8247174232985972,-0.032851950737474954,2.9185176533627253,0.09541840258517034,0.05956004272545091,0.3965469466352705,0.9110844286533066,0.0,398750003.12865734,327393263.1581162,500353.58949679363,18.34244535318637,-7.144847143254509,16.878427786332665,-0.4953274779018036,1.9716931473547095,0.0,0.0,0.0,39.8714138,32.7364372,397.28450475410824,249.7769074162325,-100.39052158897796,-8.374038834767536,15.944132863667335,-0.23032156223246494,-5.994802068078157,-5.02026395333467,1.5329372958016032,2.061000463478958,100.47368158897795,0.04057388281963928,0.26875426335871744,0.5023468620941883,0.0,60163500.22645291,0.0,0.0,1.0,0.0,0.0
60190140.0,-0.009005258476953909,0.11507341602004008,0.02102414338476954,0.0,0.0,1509.1523046092184,1500.0,1000.0,1503.1523046092184,1495.8476953907816,1555.4569138276554,17.58999736561122,18.021185987615233,17.807571985470943,17.906644669779563,18.34549984182365,18.30205924679359,18.750605479018034,193.0538324741483,193.0538324741483,11.753683864268536,-0.001581605859719439,-0.005900148669338677,0.00010347803607214428,-0.19188143841883767,0.19622855054509017,-0.008466917390781564,2.0,0.5905140951823648,1.5905140951823646,11.0,0.0,0.0,1.0,0.0,0.0,0.0,0.0,0.0,0.0,0.0,0.8301056939438878,-0.01438693031863728,2.896306387366734,3.0790552262845696,13.07195524254509,183.21749168777555,51.8333289044489,-0.021902524805611223,0.018016891831663325,-0.11656799593186372,0.0,-1.3358581593206413,-0.24196492326252508,-11.152770626753506,-1.05e+21,954.6189140422845,11.75248771244489,0.01444214895390781,0.2382468593967936,0.37867246441282576,-1.3917146186412825,-0.30295776056913826,-11.292563369539078,0.00060862655310621,0.21394393050501,0.35397871797194386,-1.05e+21,95.98175775212425,99.6898347529459,-3.530620994781563,-1.982840372977956,15.367240409659319,16.97629795220441,-0.032181150837675344,-0.7943391462464928,-0.12472164988577154,75.15875776549099,499.9754640016032,11.752568326513027,95462.06759058117,1.1342473086753506,-0.12010054080160334,0.0881608491703402,-0.13731356117234456,-0.0012180591342685404,0.22448010872945892,0.34722293143687377,0.8225050302565131,-0.034109460108216444,2.92847359258517,0.09069693429659319,0.05805712306212426,0.3957698916933868,0.9120078745290581,0.0,398749983.8501002,327393320.9192385,500369.9281781563,18.293147638717432,-7.329361505282566,16.748845220721442,-0.4685658610521042,1.9837634390661323,0.0,0.0,0.0,39.8714138,32.7364372,397.0334936398798,250.25281688156315,-100.39818814288577,-8.54986492409018,15.796009518897796,-0.18478482651302605,-5.9138236981142285,-5.0269145964048105,1.5831015063667335,2.0737003974509016,100.48134814288576,0.036539714250501,0.26500759082164327,0.5086829204108216,0.0,60190139.6492986,0.0,0.0,1.0,0.0,0.0
60218543.0,-0.00918788454509018,0.11423928030861723,0.022824977725450904,0.0,0.0,1509.745490981964,1500.0,1000.0,1503.745490981964,1495.254509018036,1557.2364729458918,17.554682406412827,17.98500593727455,17.771961376252506,17.870435962605214,18.308394652084168,18.26057608062124,18.708096408877754,192.27653754188378,192.27653754188378,11.75371803773547,-0.0015816598396793588,-0.0059001279078156315,0.00010334575551102205,-0.1918884700501002,0.19622579519438876,-0.008408307018036073,2.0,0.5920566882084168,1.5920566882084168,11.0,0.0,0.0,1.0,0.0,0.0,0.0,0.0,0.0,0.0,0.0,0.8272461779358717,-0.02009170450701403,2.904652291847696,3.081425603182365,12.621151887194388,182.94950687174347,51.69911605651303,-0.021889309206412827,0.01805519980761523,-0.1162747453507014,0.0,-1.3668163799378759,-0.25854902144288583,-11.032861092004008,-1.05e+21,954.6168464911823,11.752470195651304,0.009406585090180358,0.23183138031062125,0.3707508127575151,-1.3846802278757515,-0.25374037836472946,-11.269481170901804,-0.00166036708216433,0.2064811025771543,0.3440675239679359,-1.05e+21,95.85514056671343,99.62656036336674,-3.5362062140360724,-2.065850414260521,15.367199396753506,16.961597743947898,-0.0318879661002004,-0.766050952995992,-0.12507218744088175,75.12190010056112,499.9791811446894,11.7525317803006,95462.0208949499,1.1342467232004008,-0.2693505363446895,-0.4077989083767537,-0.0073038420541081395,-0.004595633867735473,0.21734468883366734,0.3400923009278557,0.8193470851503006,-0.039416343266533066,2.936038653811623,0.08628008576753507,0.05884200235671343,0.3942781400781563,0.913030291747495,0.0,398749964.5715431,327393378.63627255,500386.26690360723,18.243849924248497,-7.513875867751502,16.61926265511022,-0.44180424420240477,1.9958337312184369,0.0,0.0,0.0,39.8714138,32.7364372,396.7733327741483,250.72102493607215,-100.40343452044088,-8.721987261388778,15.646176223026051,-0.13703426430060117,-5.803555632559118,-5.001510359034069,1.6265808348476956,2.0859236919438877,100.48659452044087,0.034652173857715435,0.2681265226533066,0.5111583583266534,0.0,60218542.59919839,0.0,0.0,1.0,0.0,0.0
60252365.0,-0.009302840507014028,0.11346294835470942,0.025022455066132265,0.0,0.0,1510.3386773547095,1500.0,1000.0,1504.0,1495.0,1557.6613226452905,17.522463676232462,17.951974973326653,17.736350767034068,17.834227258817634,18.27128946234469,18.219092914448897,18.6655873353507,191.49924264348698,191.49924264348698,11.753752211202405,-0.0015817141583166334,-0.005900107146292586,0.0001032134749498998,-0.19189550168136274,0.19622303984368736,-0.008349696983967937,2.0,0.5935992812344689,1.5935992812344688,11.0,0.0,0.0,1.0,0.0,0.0,0.0,0.0,0.0,0.0,0.0,0.8243866619278557,-0.025796478695390784,2.9129981963286573,3.083795979741483,12.170348531843688,182.68152202184368,51.56490321196392,-0.021875482294589178,0.018089021324649297,-0.11593987233867736,0.0,-1.3877996928957916,-0.2801441528476954,-10.917125792905813,-1.05e+21,954.6151723138277,11.752456688797595,0.0034226016933867737,0.2238123171222445,0.36168904815430863,-1.3613953718456913,-0.2588271704268537,-11.208447241723446,-0.004293937406813627,0.1993464733266533,0.33482089960320643,-1.05e+21,95.72852337791583,99.56328597378757,-3.5417914336292586,-2.1488604555430864,15.367158383847695,16.946897535691384,-0.03159478102404809,-0.737762759745491,-0.12542272465731463,75.08504243224449,499.98793255731465,11.752495234088176,95461.91218749499,1.1342454292124249,-0.29331494161122246,-0.33583171897995995,-0.10021413446292587,-0.0073143873326653305,0.21073185961122246,0.3311179732164329,0.8161642506452905,-0.04573537352104208,2.9434772518977956,0.08172218794188377,0.060126946216432865,0.39272891152905814,0.914030597737475,0.0,398749945.292986,327393436.3871743,500402.60559519037,18.19455220977956,-7.698390229881762,16.489680089498997,-0.4150426273527054,2.0079040233707417,0.0,0.0,0.0,39.8714138,32.7364372,396.5138540723447,251.18172888256512,-100.40792859398798,-8.890430691875752,15.498134963867734,-0.08877299560320641,-5.68752287303006,-4.981435598641283,1.6762825479118237,2.0978392994148294,100.49108859398797,0.030658017645290584,0.2662619218617235,0.5157929961242484,0.0,60252364.7254509,0.0,0.0,1.0,0.0,0.0
60290259.0,-0.009366943785571142,0.1127300547274549,0.02751800140681363,0.0,0.0,1510.9318637274548,1500.0,1000.0,1504.0,1495.0,1557.0681362725452,17.492571698036073,17.92131048258517,17.70074015781563,17.79801855757515,18.23418427260521,18.177609748276552,18.623078259278557,190.72194777054108,190.72194777054108,11.753786384669338,-0.001581768731462926,-0.005900086384769539,0.00010308119438877756,-0.19190253331262525,0.19622028449298598,-0.008291087204408817,2.0,0.595141874260521,1.595141874260521,11.0,0.0,0.0,1.0,0.0,0.0,0.0,0.0,0.0,0.0,0.0,0.8215271459198397,-0.03150125288376754,2.9213441008096193,3.086166356046092,11.719545176492986,182.41353714649298,51.43069036995992,-0.021861195993987975,0.01811947136072144,-0.11557372093186373,0.0,-1.4012870693286572,-0.30550497194188375,-10.804527345450902,-1.05e+21,954.6137937486974,11.752446195330663,-0.0032740993406813685,0.21458819369138277,0.3517705122825651,-1.325898627717435,-0.30472242480761524,-11.118893373026053,-0.007201479563126255,0.19245847858517032,0.32607368555911825,-1.05e+21,95.60190618657315,99.50001158420841,-3.5473766534769537,-2.2318704968256515,15.367117370941884,16.93219732743487,-0.03130159569338677,-0.70947456649499,-0.1257732616192385,75.04818476138276,500.00046711923846,11.752458687875752,95461.75687943888,1.1342436027915832,-0.22312982045691382,0.16292080924448948,-0.36064419884769566,-0.009538050258517037,0.20451174645691383,0.32075814524048096,0.812962712272545,-0.05281501135671343,2.950820815553106,0.07705829449098196,0.06178767824048096,0.39113649025450914,0.9150142875971944,0.0,398749926.01442885,327393494.1635271,500418.9442613227,18.14525449531062,-7.882904591757515,16.360097523887777,-0.38828101050300595,2.0199743155230463,0.0,0.0,0.0,39.8714138,32.7364372,396.2548880026052,251.63679364729458,-100.4118573266533,-9.056109500084167,15.351440383186372,-0.04012794155911818,-5.567158065366733,-4.965365829823647,1.7306602541242484,2.109523686460922,100.4950173266533,0.025080783272545086,0.26065229951302604,0.5220502279158317,0.0,60290259.250501,0.0,0.0,1.0,0.0,0.0
60321062.0,-0.009994417420841683,0.11184425758517033,0.02949446116633267,0.0,0.0,1512.0501002004007,1500.0,1000.0,1504.0,1495.0,1556.4749498997996,17.397053686813624,17.823500631843686,17.665129548597193,17.761809851082166,18.19707908286573,18.136126582104207,18.58056918320641,189.9446528450902,189.9446528450902,11.75382055288577,-0.0015818233046092185,-0.005900066148296594,0.00010294891382765532,-0.19190956494388778,0.19621752861723446,-0.0082324768997996,2.0,0.5966844672865732,1.5966844672865732,11.0,0.0,0.0,1.0,0.0,0.0,0.0,0.0,0.0,0.0,0.0,0.8186676299118236,-0.03720602707214429,2.929690004765531,3.0885367323507014,11.268741821142283,182.1455523236473,51.29647752795591,-0.02184648335270541,0.018158928106212426,-0.11516822279559119,0.0,-1.372037849517034,-0.35233511378557114,-10.709813033747494,-1.05e+21,954.6141005418838,11.752452865751504,-0.005495677084168337,0.2076407568016032,0.34297445581763525,-1.3453804886392786,-0.2991668201302605,-11.025694044729459,-0.011671017939879763,0.18697662366733467,0.32017376255310626,-1.05e+21,95.47555274364728,99.43648608416834,-3.5535283026232465,-2.314528070925852,15.367076258276553,16.917984208156312,-0.03101815476753507,-0.6811782113406813,-0.12612306141082164,75.01107710891783,500.00421643787575,11.752447407074149,95461.7128557515,1.134243089521042,-0.16679467298997996,-0.24894728123647322,-0.3584941280260521,-0.013822005052104212,0.19611121889779562,0.31594138668336674,0.8098841248817635,-0.06021813780961924,2.958214514667335,0.07230851702004008,0.0636146337755511,0.3896038763867736,0.9159216288717434,0.0,398749904.8456914,327393547.686974,500426.9014476954,18.099265258036073,-8.055287715697395,16.219486590701404,-0.3449770071563126,2.0320060968256515,0.0,0.0,0.0,39.8714138,32.7364372,395.9988447817635,252.05970780921845,-100.4125627767535,-9.20602636256513,15.212423620621243,0.010705188945891814,-5.422094945094189,-4.972129726965932,1.811697208008016,2.119889815519038,100.49572277675351,0.02343428502004008,0.25884407244288576,0.5301820429298597,0.0,60321061.9238477,0.0,0.0,1.0,0.0,0.0
60350636.0,-0.010530238488977956,0.11130083200801603,0.031495972054108215,0.0,0.0,1513.3547094188377,1500.0,1000.0,1504.118236472946,1494.881763527054,1555.7635270541082,17.309493645410818,17.733847988316633,17.62951893937876,17.725601143907816,18.159973893126253,18.094643415931866,18.538060108316632,189.16735792464928,189.16735792464928,11.753854721603206,-0.0015818777595190381,-0.005900045861723447,0.00010281663326653307,-0.1919165965751503,0.19621477279158317,-0.008173866527054109,2.0,0.5982270603126253,1.5982270603126252,11.0,0.0,0.0,1.0,0.0,0.0,0.0,0.0,0.0,0.0,0.0,0.8158081137855712,-0.04291080137875752,2.938035908771543,3.0909071086553106,10.817938465791583,181.87756750761523,51.162264685951904,-0.021831236408817636,0.018203026503006012,-0.11474480814629259,0.0,-1.3386012979579156,-0.4004498379559118,-10.614671308617234,-1.05e+21,954.6145120302605,11.752463505170342,-0.006936296723446893,0.2004706981242485,0.3343647454148297,-1.3613950713066132,-0.283905335755511,-10.91846136765531,-0.01634126713226453,0.18159098927454909,0.314885018248497,-1.05e+21,95.35082608659319,99.37141174102204,-3.563173707961924,-2.395011613735471,15.367034561583166,16.906775480821643,-0.030794813324649298,-0.652831512735471,-0.12646831109819637,74.97242757853707,500.01321267915836,11.752441,95461.61319833666,1.1342419130921844,-0.13875089588777556,-0.6064807221603207,-0.3416899105511022,-0.01892261017234469,0.1881556064368738,0.311516826511022,0.8068566644108217,-0.06655202339478958,2.965629525953908,0.06775858290581162,0.06495785887975952,0.3881500416953908,0.9168007863847695,0.0,398749883.37254506,327393600.55210423,500433.5246981964,18.053802574428857,-8.225740116332666,16.077120458797594,-0.2990402328036072,2.044031749014028,0.0,0.0,0.0,39.8714138,32.7364372,395.7426334270541,252.47791835350705,-100.41263976112224,-9.353444480332666,15.07452980246493,0.06205654157915832,-5.275938665466934,-4.979433021212424,1.8949010431422844,2.1300550244869743,100.49579976112224,0.02187731669739479,0.25812341591583166,0.5364578302164329,0.0,60350635.56513026,0.0,0.0,1.0,0.0,0.0
60378969.0,-0.010404220196392784,0.11221240167535071,0.033868703308617236,0.0,0.0,1515.1342685370741,1500.0,1000.0,1504.7114228456915,1494.2885771543085,1554.5771543086173,17.28811013086172,17.711964198176354,17.59390833016032,17.689392436733467,18.12286870338677,18.053160249759518,18.49555103817635,188.3900630517034,188.3900630517034,11.75388889507014,-0.0015819317394789578,-0.005900025100200401,0.00010268435270541083,-0.19192362820641282,0.19621201744088176,-0.008115256154308617,2.0,0.5997696533386774,1.5997696533386774,11.0,0.0,0.0,1.0,0.0,0.0,0.0,0.0,0.0,0.0,0.0,0.8129485971843686,-0.048615576160320646,2.946381813252505,3.09327748495992,10.36713511044088,181.60958269158317,51.02805184394789,-0.021814065442885774,0.018261075128256515,-0.1142699345751503,0.0,-1.3106223292044088,-0.4425330607855712,-10.508489981002004,-1.05e+21,954.6144655244489,11.752481140601203,-0.007572655200400802,0.19121957996793587,0.3259184476993988,-1.3348223350821642,-0.25647630890180356,-10.75675775995992,-0.02100351864328658,0.1758588703807615,0.3105671019358717,-1.05e+21,95.23249665797594,99.30024667360722,-3.586558084042084,-2.466945918713427,15.366990570881764,16.907381331723446,-0.030807808851703408,-0.6242868417134269,-0.12679566752304608,74.9277147142485,500.0478651440882,11.752441,95461.23205236472,1.134237388266533,-0.21713235254509028,-0.2710631555070137,-0.40289941718036076,-0.02622966202004009,0.18312380930661323,0.3057781968036072,0.8039704858617235,-0.06842219351102205,2.9731040123667336,0.06405617931462926,0.06427131386973949,0.38698148233667334,0.9176065304168336,0.0,398749861.6619239,327393652.9897796,500439.1587230461,18.008730375631263,-8.394760713527054,15.933452688697395,-0.25115102395390776,2.056052855931864,0.0,0.0,0.0,39.8714138,32.7364372,395.48422305430864,252.89399428296593,-100.4118724745491,-9.499041709527054,14.93714447517034,0.11434895804408823,-5.138266042589178,-4.977000233396793,1.972912104737475,2.1401003337775553,100.4950324745491,0.01863095775551102,0.2597898704088177,0.534300859234469,0.0,60378969.11222445,0.0,0.0,1.0,0.0,0.0
60410270.0,-0.010844673615230463,0.11174604382364729,0.0363127231723447,0.0,0.0,1516.0,1500.0,1000.0,1505.0,1494.0,1554.0,17.26263798993988,17.685857643947895,17.558297720941884,17.65318373260521,18.085763516693387,18.01167708054108,18.45304196498998,187.6127681482966,187.6127681482966,11.753923068537075,-0.001581986024048096,-0.005900004338677355,0.00010255207214428858,-0.19193065983767535,0.19620926209018036,-0.008056646086172344,2.0,0.6013122463647295,1.6013122463647296,11.0,0.0,0.0,1.0,0.0,0.0,0.0,0.0,0.0,0.0,0.0,0.8100890808877754,-0.054320350637274556,2.954727717733467,3.095647861264529,9.916331753567134,181.34159784509018,50.89383900194389,-0.021797370276553107,0.018322073284569137,-0.11375562385771543,0.0,-1.296644249509018,-0.46914306315831666,-10.373987656993988,-1.05e+21,954.613244049499,11.752516705330661,-0.01185325358116234,0.1837945212745491,0.31994501513827656,-1.3336671576553105,-0.2755176748657316,-10.615278059919838,-0.025645253200400814,0.16923787894188375,0.30873974979158314,-1.05e+21,95.11416723240481,99.22908160923848,-3.6099424601222445,-2.538880223691383,15.36694657713427,16.907987182625252,-0.030820804378757515,-0.5957421706913827,-0.1271230239478958,74.88300185300601,500.0435344218437,11.752446888096191,95461.28829781563,1.1342380740861724,-0.2150601123366732,-0.26676225878557175,-0.21763911229859634,-0.02942464050501002,0.17639753993587173,0.30521071858316634,0.8020936278256513,-0.07207828899799601,2.9825878260741483,0.05904738659318636,0.06405286580561123,0.3862657160521042,0.9182513874749499,0.0,398749839.95130265,327393705.396994,500444.7927478958,17.96365817683367,-8.563781310721444,15.789784921643285,-0.2032618147995991,2.068073963154309,0.0,0.0,0.0,39.8714138,32.7364372,395.2201714406814,253.30459413066131,-100.40893929458917,-9.639967630857715,14.801063642945891,0.1690555816753508,-5.022357400200401,-4.949590492747495,2.037601621931864,2.1498380523346694,100.49209929458918,0.01715526295791583,0.2572213663927856,0.5376197117074148,0.0,60410269.85771543,0.0,0.0,1.0,0.0,0.0
60444382.0,-0.01182178444488978,0.10997428095390781,0.03882427961322646,0.0,0.0,1516.0,1500.0,1000.0,1505.0,1494.0,1554.0,17.233292413507012,17.655750576372746,17.52268711172345,17.616975031362728,18.048658332885772,17.970193908436872,18.410532888917835,186.83547321603209,186.83547321603209,11.75395724200401,-0.0015820405971943888,-0.005899983577154309,0.00010241979158316633,-0.19193769146893788,0.19620650673947895,-0.007998036306613226,2.0,0.6028548393907815,1.6028548393907815,11.0,0.0,0.0,1.0,0.0,0.0,0.0,0.0,0.0,0.0,0.0,0.8072295648797595,-0.06002512482565131,2.963073622214429,3.0980182375691383,9.4655283952505,181.07361296973946,50.75962615993988,-0.021781125867735476,0.018385865733466934,-0.11320395163326653,0.0,-1.295930169973948,-0.48109422509819644,-10.2126549153507,-1.05e+21,954.6109094458918,11.752569255711423,-0.019586289765531076,0.1780994136513026,0.31631429693386776,-1.356591772773547,-0.3385836234989981,-10.492957851342684,-0.03026755064328658,0.16177479772344688,0.30927187949098195,-1.05e+21,94.99583780971943,99.15791654775552,-3.6333268362024045,-2.6108145286693385,15.366902580501002,16.908593033527055,-0.030833799905811622,-0.5671974996693386,-0.1274503803727455,74.8382889946493,500.00227225911823,11.752458354388777,95461.75891408818,1.1342436963066131,-0.13676858036072131,-0.5761508388416838,0.20111890875150362,-0.028723970541082163,0.16806598107414827,0.30954222598196396,0.8011729681703406,-0.07742631378356714,2.993975213008016,0.05280096206412825,0.06427787800601203,0.3859789116272545,0.9187438252945892,0.0,398749818.24068135,327393757.7753507,500450.4267727455,17.918585978036074,-8.732801907915832,15.646117157474949,-0.15537260535671335,2.080095070665331,0.0,0.0,0.0,39.8714138,32.7364372,394.9507754935872,253.71000611142284,-100.40395421563126,-9.776468102633267,14.666218648156311,0.22604934893787582,-4.927067265643287,-4.898518375729458,2.089670728641283,2.1592843691442885,100.48711421563127,0.01735703945490982,0.2506407964208417,0.5461261864008017,0.0,60444381.63326653,0.0,0.0,1.0,0.0,0.0
60471804.0,-0.012092102188376754,0.10937124173146293,0.04279508649498999,0.0,0.0,1517.4729458917836,1500.0,1000.0,1505.0,1494.0,1554.4909819639279,17.181598516432864,17.60280237482966,17.487076502505012,17.580766325210423,18.01155314416834,17.92871074124248,18.36802381775551,186.05817833286574,186.05817833286574,11.753991415470942,-0.0015820946793587175,-0.005899963306613226,0.00010228751102204409,-0.1919447231002004,0.1962037508977956,-0.007939426036072145,2.0,0.6043974324168336,1.6043974324168337,11.0,0.0,0.0,1.0,0.0,0.0,0.0,0.0,0.0,0.0,0.0,0.8044681343026052,-0.06550173183967936,2.9713598748416836,3.1003667244248496,9.020888724348696,180.79961813146292,50.63096338296594,-0.021761681729458922,0.018458890607214427,-0.11254667164328656,0.0,-1.2960557766312626,-0.49268771060521044,-10.052661525861723,-1.05e+21,954.6100134685371,11.752628635651302,-0.024123220919839684,0.17303251646893786,0.3099710850420842,-1.3270098369298597,-0.3552116235450902,-10.438461969819638,-0.034396865370741485,0.15429150130460922,0.310370650002004,-1.05e+21,94.87750838212425,99.08675148136273,-3.656711211791583,-2.6827488336472944,15.366858583867735,16.909198884428857,-0.030846795923847696,-0.5386528281563125,-0.1277777367975952,74.79357613138276,500.0024589901804,11.752500050440881,95461.75096533066,1.1342435396693387,-0.3108110443366736,-0.45696958816633243,0.11299365968136255,-0.032057946338677354,0.16100667186172343,0.3107633621482966,0.7989105559498998,-0.08444037146492987,3.0022105094809617,0.04772135028056112,0.06585299535671343,0.38492413088977956,0.9193467473126252,0.0,398749796.5791583,327393810.15370744,500456.0607975952,17.873513784148297,-8.90182250511022,15.502449388396794,-0.10748339640480957,2.0921161776853707,0.0,0.0,0.0,39.8714138,32.7364372,394.6772608951904,254.11759535170341,-100.39822220581163,-9.912887176472946,14.53052776509018,0.2842462503186373,-4.8313449280100205,-4.849788727278557,2.143845575981964,2.1687709219258515,100.48138220581163,0.01676627630260521,0.2438687587034068,0.5519851729278558,0.0,60471804.27054108,0.0,0.0,1.0,0.0,0.0
60498171.0,-0.012237736492985972,0.10916014115831664,0.04650886329659319,0.0,0.0,1519.1683366733466,1500.0,1000.0,1505.0,1494.0,1554.8291041042085,17.132324573386775,17.5523354006012,17.451465893286574,17.544557618036073,17.974447954428857,17.887227575070135,18.325514746773546,185.280883451503,185.280883451503,11.754025588096193,-0.001582148743486974,-0.0058999430541082165,0.00010215523046092184,-0.19195175473146292,0.19620099503807617,-0.007880815663326653,2.0,0.6059400254428857,1.605940025442886,11.0,0.0,0.0,1.0,0.0,0.0,0.0,0.0,0.0,0.0,0.0,0.8018355115571143,-0.07067870580360722,2.979567791523046,3.102686465478958,8.584343317278558,180.5177308529058,50.509589057715445,-0.0217415118496994,0.018536941460921844,-0.11187118648096192,0.0,-1.2972840751322645,-0.5038114892024048,-9.894427002699398,-1.05e+21,954.6110067402806,11.752696986312625,-0.028086090086172348,0.1683066437274549,0.30427532265330665,-1.2882256724328658,-0.36993158879959925,-10.383317920801604,-0.03787878621242485,0.14678165728456913,0.3122135432244489,-1.05e+21,94.75917895350702,99.01558641478958,-3.6800955873627257,-2.7546831387094186,15.366814588076153,16.909804735330663,-0.03085979195991984,-0.5101081566252504,-0.1281050932224449,74.74886326709418,500.0125486130261,11.752549074488979,95461.63076156312,1.1342420486152305,-0.4672082124168336,-0.2847243253527054,-0.04162177090781559,-0.03605711178156312,0.1543676642785571,0.3117190085531062,0.7963955941342686,-0.09138351805010021,3.0097974034488977,0.0429620338997996,0.06751934648296593,0.3837409761843687,0.9199635021503006,0.0,398749774.54068136,327393862.3721443,500460.71276312624,17.828979688717435,-9.0685561547495,15.358512575891783,-0.05892154795991981,2.1040832837134267,0.0,0.0,0.0,39.8714138,32.7364372,394.39833759258516,254.52804382825653,-100.39150930721443,-10.049199359338678,14.393726049178357,0.3440231289639279,-4.735055013649299,-4.804135250432866,2.200785721004008,2.1783103127034065,100.47466930721443,0.01615354062725451,0.23768634999799598,0.5567462626152304,0.0,60498171.23246493,0.0,0.0,1.0,0.0,0.0
60526575.0,-0.012519109110220441,0.1098480392264529,0.04683118119639279,0.0,0.0,1520.3547094188377,1500.0,1000.0,1505.0,1494.0,1553.6246949338677,17.1258197153507,17.54562846769539,17.415855284068137,17.508348910861724,17.93734276468938,17.845744408897794,18.283005670701403,184.50358851923846,184.50358851923846,11.754059755631262,-0.0015822033166332666,-0.00589992229258517,0.0001020229498997996,-0.19195878636272545,0.19619823968737476,-0.007822205290581162,2.0,0.6074826184689378,1.607482618468938,11.0,0.0,0.0,1.0,0.0,0.0,0.0,0.0,0.0,0.0,0.0,0.7998583905310621,-0.07433085108617235,2.98737705749499,3.104859919330661,8.188989516765531,180.1956789971944,50.42530557875752,-0.021720981076152307,0.0186337648997996,-0.11121855215631261,0.0,-1.3041239594929859,-0.5125449353907816,-9.745143333152305,-1.05e+21,954.6216143955912,11.752810990801603,-0.03260080250300601,0.16485230771142284,0.3059098251623247,-1.2598900183406814,-0.43157285443486976,-10.23887049026052,-0.038066127519038075,0.13913671224248497,0.3178432674729459,-1.05e+21,94.64084952488977,98.94442135330661,-3.703479963442886,-2.826617444280561,15.36677059737475,16.910410586232466,-0.03087278748697395,-0.4815634856032064,-0.1284324496472946,74.70415040280561,500.03034746673353,11.752604359458918,95461.43414400802,1.13423976247495,-0.19923207173547097,-0.3310913183146293,0.03976686897995991,-0.038999907004008016,0.14866885576553107,0.3149846958797595,0.7940424303186373,-0.09580046564128256,3.0174311479458917,0.03867085071743487,0.06803780798196393,0.38274826395991984,0.9205248249238477,0.0,398749750.1607214,327393913.6234469,500459.425608016,17.787699801583166,-9.221459216793587,15.212948697414829,-0.006291831486973945,2.1157238129318636,0.0,0.0,0.0,39.8714138,32.7364372,394.09188944509015,254.95304294168338,-100.37980467234469,-10.184967577535069,14.251271321482966,0.41184049213827656,-4.635876708511022,-4.774136372340681,2.2717984326513028,2.188118594803607,100.46296467234468,0.016405645428857713,0.2353108301743487,0.5582005924749499,0.0,60526574.7755511,0.0,0.0,1.0,0.0,0.0
60553896.0,-0.011953379182364726,0.11057924253507015,0.047546494647294595,0.0,0.0,1521.0,1500.0,1000.0,1505.0,1494.0,1553.9139171062125,17.103835906112224,17.523094259238476,17.3802446748497,17.472140206392787,17.900237574949898,17.80426124272545,18.24049659462926,183.72629361402807,183.72629361402807,11.754093925871743,-0.001582257619238477,-0.0058999018016032065,0.00010189066933867735,-0.19196581799398799,0.19619548406613227,-0.007763595188376753,2.0,0.60902521149499,1.60902521149499,11.0,0.0,0.0,1.0,0.0,0.0,0.0,0.0,0.0,0.0,0.0,0.79788126950501,-0.07798299636873748,2.9951863234669336,3.107033373182365,7.793635716252504,179.87362716853707,50.341022102505015,-0.021698021925851706,0.01873359729659319,-0.110539473252505,0.0,-1.3105959163687375,-0.5217811575611223,-9.598350024567134,-1.05e+21,954.6318425088176,11.752926088276553,-0.03653796895791584,0.159369817997996,0.30792234363326654,-1.2486229769739479,-0.4662464545991984,-10.092480842044088,-0.03827174171142285,0.13169309359318634,0.32338283958717434,-1.05e+21,94.5199234348497,98.86810020895791,-3.7313569352645293,-2.897241105192385,15.366714578416833,16.91393396569138,-0.030944375448897797,-0.45214442715631253,-0.12876656337675352,74.65679654352705,500.03688686052107,11.752667757955912,95461.3550008016,1.1342388412144289,-0.11817943572344726,-0.4949049311362733,0.08103016146292583,-0.04022538832865731,0.14285051462725448,0.31994036650300606,0.7917737164428857,-0.09743213273146292,3.025087676330662,0.03490438818637274,0.06728022810821643,0.3818966126673347,0.9210863354529057,0.0,398749725.2126252,327393964.63126254,500456.6056212425,17.747259822765532,-9.370792629128257,15.066964879659318,0.04738779432464944,2.127280053723447,0.0,0.0,0.0,39.8714138,32.7364372,393.7858048507014,255.3766062935872,-100.36792594428859,-10.32010631967936,14.109303540681362,0.47968206468136293,-4.537231066839679,-4.7440653717835675,2.343154878917836,2.1978971566132266,100.45108594428858,0.0168022051002004,0.2373200502905812,0.5549460060020039,0.0,60553895.88376754,0.0,0.0,1.0,0.0,0.0
60579926.0,-0.010377401034068133,0.1113620913527054,0.04873049168136273,0.0,0.0,1521.0,1500.0,1000.0,1505.0,1494.0,1555.9844329539078,17.06339201432866,17.481684559198396,17.344634065631265,17.4359315051503,17.86313238521042,17.762778076553104,18.197987518557113,182.94899874108216,182.94899874108216,11.754128099338677,-0.0015823115991983967,-0.005899881633266533,0.00010175838877755511,-0.19197284962525052,0.1961927281222445,-0.007704985408817635,2.0,0.6105678045210421,1.610567804521042,11.0,0.0,0.0,1.0,0.0,0.0,0.0,0.0,0.0,0.0,0.0,0.7959041484789579,-0.08163514165130262,3.0029955894388776,3.1092068270340683,7.398281915739478,179.55157537214427,50.25673862947896,-0.021672166711422847,0.018837018154308615,-0.10982885673947895,0.0,-1.3166290856513025,-0.5316169866432866,-9.454526702018034,-1.05e+21,954.641617982966,11.753042489238476,-0.03978635837675351,0.15146856720841684,0.3103856811402806,-1.2577118367094189,-0.4687586166833667,-9.943774919414828,-0.038499148012024045,0.12448957530861722,0.32881489693386773,-1.05e+21,94.39590058563127,98.78562995837675,-3.7645917434889777,-2.966301700991984,15.366644214649298,16.920936768096194,-0.031085840314629257,-0.4216825807434869,-0.1291087358176353,74.60629305318638,500.02999830581166,11.752740832585172,95461.41595663327,1.1342395476993987,-0.2600503867615233,-0.7987845128276558,0.0744402618557114,-0.039402813819639275,0.13688961976553105,0.32691149868737474,0.7896057169398798,-0.09574209492785571,3.032771376611223,0.03176370361723446,0.06500085074549097,0.38121318959719447,0.9216480698977956,0.0,398749699.5869739,327394015.3486974,500451.95759078156,17.70782151238477,-9.515868903661325,14.920480245430861,0.10231953423647307,2.1387357727615233,0.0,0.0,0.0,39.8714138,32.7364372,393.4801538270541,255.7984573669339,-100.35583959398798,-10.454494353346695,13.967916489138275,0.5475525091382767,-4.439220675673347,-4.713908358509018,2.4149212605450905,2.207640274224449,100.43899959398797,0.017371040579158316,0.2445584787795592,0.5460756007915831,0.0,60579926.088176355,0.0,0.0,1.0,0.0,0.0
60605956.0,-0.009387580729458916,0.1107486339018036,0.04983396039478958,0.0,0.0,1521.9138276553106,1500.0,1000.0,1505.0,1494.0,1555.792955775551,17.040800115891784,17.45852959462926,17.309023456412827,17.39972279933868,17.826027195470942,17.72129491038076,18.155478447054108,182.1717038224449,182.1717038224449,11.75416227280561,-0.0015823660360721442,-0.0058998610080160325,0.00010162565130260521,-0.19197988125651302,0.19618997263527055,-0.007646375172344689,2.0,0.612110398004008,1.6121103980040081,11.0,0.0,0.0,1.0,0.0,0.0,0.0,0.0,0.0,0.0,0.0,0.7939270274529058,-0.08528728647695391,3.0108048554108215,3.1113802808857716,7.002928114769539,179.2295235300601,50.17245515188377,-0.021643094366733468,0.018945735557114228,-0.1090713512725451,0.0,-1.314224851751503,-0.5529825998136273,-9.367812999492985,-1.05e+21,954.6426891573146,11.753184029599197,-0.04224486624048097,0.14201452401803605,0.3141248029278557,-1.257415099290581,-0.482762856498998,-9.838851061402805,-0.039145595466933865,0.12190292132064127,0.33217955765531065,-1.05e+21,94.27114111364729,98.70169703068136,-3.7991010141422845,-3.034990492759519,15.366570442304608,16.928767224208418,-0.031243926791583165,-0.3909726872364729,-0.12945282455511023,74.55504036581162,499.95595200841683,11.752837698717435,95462.2586874549,1.134249558777555,-0.12046930474148262,-0.6424202820861719,0.03143184822845683,-0.040737392545090186,0.13288611724048097,0.3308348986713427,0.7875835318897796,-0.09933676357715432,3.040523585180361,0.027564816675350694,0.06515043551503007,0.38041843307615236,0.9220952322865731,0.0,398749673.96132267,327394066.06613225,500447.30951462925,17.66838319743487,-9.660945177737476,14.773995606633266,0.15725127414829668,2.1501914913426856,0.0,0.0,0.0,39.8714138,32.7364372,393.18284038416834,256.18738263587176,-100.33976059358717,-10.57444712216433,13.837696228777554,0.6159781372505011,-4.353425459897796,-4.682097412216433,2.4945702605851707,2.2167018436352706,100.42292059358716,0.017920981757515032,0.24417312459919843,0.5459949163346693,0.0,60605956.29258517,0.0,0.0,1.0,0.0,0.0
60632471.0,-0.008666730432865732,0.10950306318837674,0.05107384711022044,0.0,0.0,1523.1002004008017,1500.0,1000.0,1505.0,1494.0,1554.9498997995993,17.023920977134267,17.4412105253507,17.27341284719439,17.363514092665334,17.788922005731465,17.67981174420842,18.112969376412828,181.3944088951904,181.3944088951904,11.754196446272545,-0.0015824206092184367,-0.005899840246492986,0.00010149282765531062,-0.19198691288777553,0.19618721728456914,-0.007587764799599198,2.0,0.6136529915731462,1.6136529915731463,11.0,0.0,0.0,1.0,0.0,0.0,0.0,0.0,0.0,0.0,0.0,0.7919499064268537,-0.08893943121643287,3.0186141213827655,3.1135537347374753,6.607574313713426,178.90747167935874,50.08817167292585,-0.021613249851703407,0.019056391599198398,-0.1083034071222445,0.0,-1.3092898048697394,-0.5777748888056112,-9.298131578334669,-1.05e+21,954.6411659206412,11.753333076192384,-0.044092854763527055,0.13260507061122243,0.31841563560921843,-1.2510258491362722,-0.500442312252505,-9.744777558178356,-0.039916104026052106,0.12069247650901803,0.3349275985951904,-1.05e+21,94.1461619476553,98.6173278654509,-3.83399038762525,-3.1035683956052105,15.366495652865732,16.936844523907816,-0.031406970541082165,-0.3601888148216433,-0.12979748486973947,74.50356423370741,499.87007840320643,11.752943258256513,95463.242711503,1.1342612496192384,0.10510086144889805,-0.40176062073547125,-0.006173159338677212,-0.04230706262124249,0.12924734343486974,0.33387089172545087,0.7856167607114228,-0.10453877359919841,3.048296610615231,0.0230440053767535,0.06604007714629259,0.37959633421643285,0.9225013781703406,0.0,398749648.33567137,327394116.78356713,500442.6614248497,17.628944881623248,-9.806021451727455,14.627510966472945,0.21218301406012027,2.161647209787575,0.0,0.0,0.0,39.8714138,32.7364372,392.8880045751503,256.5664923418838,-100.32248861342686,-10.690094863507014,13.710804729539078,0.6845720440480962,-4.271271521066133,-4.649787697975952,2.5765491759118238,2.2255603336633265,100.40564861342685,0.01852951820440882,0.24132903081563126,0.5485554011883768,0.0,60632471.01603206,0.0,0.0,1.0,0.0,0.0
60664238.0,-0.008966476997995992,0.1059196183787575,0.05405285161523046,0.0,0.0,1524.2865731462925,1500.0,1000.0,1505.0,1494.0,1554.3567134268537,17.01125297200401,17.428135321503003,17.237802237975952,17.327305391422847,17.751816815991983,17.638328578036074,18.07046030034068,180.6171140222445,180.6171140222445,11.754230619739479,-0.0015824751823647293,-0.00589981948496994,0.00010136054709418837,-0.19199394451903806,0.19618446193386774,-0.0075291544268537075,2.0,0.6151955845991984,1.6151955845991983,11.0,0.0,0.0,1.0,0.0,0.0,0.0,0.0,0.0,0.0,0.0,0.7899727854008016,-0.092591576498998,3.0264233873547095,3.1157271885891786,6.212220513200401,178.58541988296594,50.00388819396794,-0.021585435935871745,0.019170938853707416,-0.10757389880961923,0.0,-1.3041987217274549,-0.6024367540240481,-9.228445687577153,-1.05e+21,954.639660117034,11.753482215110221,-0.041876486843687374,0.1286991210480962,0.32456242618236475,-1.2089372318697393,-0.5208074230821643,-9.6267752540501,-0.04067668225450902,0.11947389789579158,0.3376753381222445,-1.05e+21,94.02118278709418,98.53295869478958,-3.868879761108216,-3.172146298450902,15.366420857995992,16.944921818176354,-0.03157001374749499,-0.3294049429498998,-0.13014214572745492,74.45208810160321,499.87311658517035,11.753066136813628,95463.23088929859,1.134261067511022,0.3528632149238478,-0.735298662723447,0.13253517169138285,-0.03945108437675351,0.12323401386372745,0.3371406583947896,0.7837792603346694,-0.11007900085370742,3.0560738047795595,0.018454683757515026,0.0670991431983968,0.378837783498998,0.9228333145871743,0.0,398749622.71002007,327394167.501002,500438.01333507017,17.589506571242485,-9.951097726260521,14.481026326312625,0.2671147539719439,2.1731029282324648,0.0,0.0,0.0,39.8714138,32.7364372,392.59307106492986,256.9456498937876,-100.3051929004008,-10.805745065030061,13.583894960881763,0.7531951927775551,-4.1890975765691385,-4.617418475611222,2.6583000059078157,2.234420876557114,100.3883529004008,0.01983431230460922,0.2364797553527054,0.5513291483787575,0.0,60664237.9258517,0.0,0.0,1.0,0.0,0.0
60696161.0,-0.009071120613226452,0.10527092934068136,0.05500996608416834,0.0,0.0,1525.6770629539078,1500.0,1000.0,1504.9838219398798,1494.0161780601202,1553.1026421603206,16.979364263747495,17.395445211763526,17.202191628757515,17.29109668781563,17.714711628617234,17.596845409498997,18.027951226633267,179.8398191256513,179.8398191256513,11.754264790841683,-0.001582529519038076,-0.00589979895991984,0.00010122826653306613,-0.1920009761503006,0.19618170634669338,-0.007470544290581162,2.0,0.6167381776252505,1.6167381776252505,11.0,0.0,0.0,1.0,0.0,0.0,0.0,0.0,0.0,0.0,0.0,0.7879956643747495,-0.09624372178156312,3.034232653563126,3.117900642440882,5.816866712687375,178.26336806292585,49.919604715010024,-0.021556799567134268,0.019298852741482967,-0.10684752754709419,0.0,-1.2756871381042085,-0.6075223788056111,-9.158088911721443,-1.05e+21,954.6407659442885,11.753645164048097,-0.04119012867935872,0.1240771704228457,0.3292431502304609,-1.1958350029318636,-0.5280699855911823,-9.502783672162325,-0.039946749513026056,0.11703448324248497,0.3403778160180361,-1.05e+21,93.89620362416834,98.448589526493,-3.9037691345911822,-3.2407242012965933,15.366346065490982,16.95299911244489,-0.03173305719038076,-0.2986210708416834,-0.1304868063486974,74.40061196713427,499.8580236296594,11.753198294569138,95463.41079699398,1.1342631985811624,0.44041853881563126,-0.7743556500300601,0.21615525309018035,-0.037578773995991986,0.11914639841683367,0.3410237677815632,0.7819904260901804,-0.11351322890180361,3.063868113200401,0.01425889119238477,0.06718993814028056,0.37816718913026054,0.923179979721443,0.0,398749596.8242485,327394217.2961924,500431.1359202405,17.55188289513026,-10.092285581082164,14.337652426272545,0.32412030321042085,2.184314328741483,0.0,0.0,0.0,39.8714138,32.7364372,392.28346880681363,257.3319940004008,-100.28433242865731,-10.921764866673348,13.454242408737473,0.8262074207935871,-4.103920862424849,-4.5761172501042084,2.7058159950981966,2.243589587446894,100.36749242865731,0.021279215679358716,0.235567932503006,0.5501253839659318,0.0,60696160.671342686,0.0,0.0,1.0,0.0,0.0
60728318.0,-0.008881456388777553,0.1090492447715431,0.05291711083767535,0.0,0.0,1527.3754581603207,1500.0,1000.0,1504.9432396873747,1494.0567603126253,1550.8516428336673,16.918481613486975,17.33316651517034,17.166581019539077,17.254887980641282,17.67760644480962,17.55536223739479,17.985442156492986,179.06252419338676,179.06252419338676,11.754298958376753,-0.001582583498997996,-0.005899778791583167,0.00010109598597194388,-0.19200800778156313,0.1961789504028056,-0.0074119345110220435,2.0,0.6182807706513026,1.6182807706513027,11.0,0.0,0.0,1.0,0.0,0.0,0.0,0.0,0.0,0.0,0.0,0.7860185433486975,-0.09989586706412826,3.042041920128257,3.1200740962925853,5.4215129121743475,177.94131620721444,49.8353212360521,-0.021526922549098194,0.019446929855711424,-0.10612588844488978,0.0,-1.2118463249418836,-0.5830777425891782,-9.086720122751503,-1.05e+21,954.6458113503006,11.7538289450501,-0.042811751332665335,0.11837515039879759,0.3317123501983968,-1.2264580038456914,-0.5155676870741482,-9.369757417044088,-0.03696841886773546,0.11275346846092184,0.3430120178937876,-1.05e+21,93.77122445767534,98.36422036176353,-3.9386585080741487,-3.3093021041422848,15.366271276553109,16.961076406713424,-0.031896100989979956,-0.2678371983767534,-0.13083146661322645,74.34913582909819,499.8155803142285,11.753344449759519,95463.87992436874,1.134268819022044,0.2863056316412822,-0.36919545315631164,0.21667611046893787,-0.03719030157915832,0.11796367376753507,0.3458320890641283,0.7802750034689379,-0.11377061068937876,3.0716882380420842,0.010656727200400794,0.06582012072945892,0.3776292746773547,0.923548862751503,0.0,398749570.5460922,327394265.70020044,500420.89562525053,17.516996548677355,-10.227607853627255,14.198970998617234,0.38425414109418854,2.1951571818557114,0.0,0.0,0.0,39.8714138,32.7364372,391.9517391154309,257.7291788420842,-100.25809460901803,-11.038342200701404,13.320452437434868,0.9058404633266535,-4.014214546609218,-4.521342324941884,2.701689597310621,2.253223161923848,100.34125460901804,0.022935470332665332,0.24059565681563128,0.5429216444228456,0.0,60728318.490981966,0.0,0.0,1.0,0.0,0.0
60756108.0,-0.008586645663326651,0.10948500475951903,0.05305895278557115,0.0,0.0,1527.498184016032,1500.0,1000.0,1504.9605145651303,1494.0394854348697,1550.9641471102204,16.89926933208417,17.31345280206413,17.13097041032064,17.218679273466933,17.640501256773547,17.51387906951904,17.942933082124245,178.28522930340682,178.28522930340682,11.75433313014028,-0.0015826379018036073,-0.0058997582004008025,0.00010096370541082164,-0.19201503941282566,0.19617619488176352,-0.007353324308617234,2.0,0.6198233636773548,1.6198233636773547,11.0,0.0,0.0,1.0,0.0,0.0,0.0,0.0,0.0,0.0,0.0,0.7840414223226453,-0.1035480119238477,3.0498511862705415,3.1222475501442886,5.026159111661322,177.61926439378755,49.75103775709419,-0.021497006206412823,0.019591206855711422,-0.10546988302805611,0.0,-1.1480055113567131,-0.5586331063727454,-9.015351333358717,-1.05e+21,954.6508567563127,11.754012726052105,-0.043141437054108216,0.11106567867334668,0.33533852701603206,-1.2284660122685371,-0.5154881780440882,-9.279177686038077,-0.033990087799599195,0.10847245367935872,0.34564621934669343,-1.05e+21,93.63673939022044,98.26722378575151,-3.963760725206413,-3.379455685641283,15.366208940420844,16.979334801943885,-0.032262517076152304,-0.23500376155511016,-0.13050588051503006,74.29447509639279,499.7879429406814,11.75351336250501,95464.18881436874,1.1342724766132264,-0.08344701880561214,-0.3700884175250504,0.04466162554508968,-0.03344572785771542,0.11759943080360721,0.34831613202404815,0.778660359775551,-0.11714104926653308,3.0795333361503006,0.006446066693386765,0.06588857530460922,0.37705827973747497,0.9238118753687374,0.0,398749543.71823645,327394312.2436874,500406.0069452906,17.48589384238477,-10.3548224997996,14.066775685591182,0.4487120188917837,2.2054906141603206,0.0,0.0,0.0,39.8714138,32.7364372,391.62000942404813,258.1263636837675,-100.23185683166332,-11.154919534729459,13.186662466132265,0.9854735058597196,-3.9245082307935872,-4.466567399779559,2.6975631995230462,2.262856735977956,100.31501683166331,0.024790993977955915,0.24223594484368738,0.5412780605971943,0.0,60756108.31462926,0.0,0.0,1.0,0.0,0.0
60782139.0,-0.00825860414028056,0.1085786519258517,0.05409764692585171,0.0,0.0,1527.0,1500.0,1000.0,1504.9839679358718,1494.0160320641282,1552.0160320641282,16.896276559338677,17.310305867555112,17.095359801102205,17.182470566452906,17.60339606703407,17.472395903346694,17.9004240060521,177.5079344288577,177.5079344288577,11.754367303607214,-0.0015826924589178357,-0.00589973745490982,0.0001008314248496994,-0.19202207106012026,0.19617343951503005,-0.007294713951903807,2.0,0.6213659567034069,1.6213659567034067,11.0,0.0,0.0,1.0,0.0,0.0,0.0,0.0,0.0,0.0,0.0,0.7820643012965932,-0.10720015662925853,3.0576604522424855,3.124421003995992,4.630805311148295,177.29721259579154,49.66675427813627,-0.021466973853707414,0.019734844659318636,-0.10483940770941884,0.0,-1.0869801463226454,-0.5348549609458918,-8.9452412401002,-1.05e+21,954.6559538048097,11.754197845410822,-0.042862759555110215,0.10327962224048096,0.33941664926052106,-1.2192615046773547,-0.5215247050340681,-9.20583233057515,-0.0310420494509018,0.10423424462124249,0.3482490448697395,-1.05e+21,93.49825252112224,98.16491131216432,-3.9847427375190385,-3.450272597577155,15.366151846713427,17.00187924523046,-0.03271454899599198,-0.201307497507014,-0.12989813356513027,74.23847371026052,499.7685789374749,11.75369156755511,95464.40679368738,1.1342750315310621,-0.5188672380601198,-0.5268538197695388,-0.19531718437875778,-0.02844666584569138,0.11759520311623248,0.34984716092985974,0.7770900044248497,-0.12180809880561123,3.087390531517034,0.0019812505010019968,0.0665559683466934,0.3764752003146292,0.9240292163547095,0.0,398749516.66893786,327394358.0376754,500389.24569478957,17.456315351322647,-10.478771040561123,13.937193262184367,0.5149118084869742,2.215618829551102,0.0,0.0,0.0,39.8714138,32.7364372,391.2879828973948,258.5231958296593,-100.20539780801603,-11.271335496893787,13.052930116152305,1.065147444937876,-3.8354920049659316,-4.413157505847695,2.693926491707415,2.272494379440882,100.28855780801602,0.026746044158316638,0.24255381224248496,0.5417578424649299,0.0,60782138.51903807,0.0,0.0,1.0,0.0,0.0
