timestamp,control[0],control[1],control[2],control[3],control[4],output[2],output[3],output[4],output[5],output[6],output[7],indicated_airspeed_m_s,true_airspeed_m_s,indicated_airspeed_m_s.1,equivalent_airspeed_m_s,true_airspeed_m_s.1,equivalent_ground_minus_wind_m_s,true_ground_minus_wind_m_s,differential_pressure_raw_pa,differential_pressure_filtered_pa,temperature,gyro_bias[0],gyro_bias[1],gyro_bias[2],accel_bias[0],accel_bias[1],accel_bias[2],instance_count,seq_reached,seq_current,seq_total,item_changed_index,item_do_jump_remaining,valid,warning,finished,failure,stay_in_failsafe,flight_termination,item_do_jump_changed,execution_mode,nav_roll,nav_pitch,nav_bearing,target_bearing,xtrack_error,wp_dist,acceptance_radius,rollspeed_integ,pitchspeed_integ,yawspeed_integ,additional_integ1,x,y,z,temperature.1,pressure,temperature.2,gyro_rad[0],gyro_rad[1],gyro_rad[2],accelerometer_m_s2[0],accelerometer_m_s2[1],accelerometer_m_s2[2],x.1,y.1,z.1,temperature.3,altitude_sp,altitude_filtered,height_rate_setpoint,height_rate,airspeed_sp,airspeed_filtered,airspeed_derivative_sp,airspeed_derivative,throttle_integ,pitch_integ,baro_alt_meter,baro_temp_celcius,baro_pressure_pa,rho,xyz[0],xyz[1],xyz[2],xyz[0].1,xyz[1].1,xyz[2].1,roll_body,pitch_body,yaw_body,q_d[0],q_d[1],q_d[2],q_d[3],thrust_body[0],lat,lon,alt,vel_m_s,vel_n_m_s,vel_e_m_s,vel_d_m_s,cog_rad,ground_contact,maybe_landed,landed,ref_lat,ref_lon,x.2,y.2,z.2,vx,vy,vz,ax,ay,az,yaw,dist_bottom,roll,pitch,yaw.1,thrust_body[0].1,timestamp.1,isTakeoff,isClimbing,isDescending,isCruise,isLand
12000000.0,0.026351975,0.015836097,-0.003152699,0.15,0.11000018,900.0,900.0,900.0,900.0,900.0,900.0,0.9110749,0.92887896,-1.0059286,-1.0059286,-1.0255864,0.021081269,0.021493236,-0.6197842,-0.6197842,12.404602,-0.001184429,-0.005752765,0.000728276,0.020129848,-0.007450344,-0.1260645,2.0,-1.0,0.0,11.0,0.0,0.0,1.0,0.0,0.0,0.0,0.0,0.0,0.0,0.0,0.004590674,0.0,1.6673522,1.6131753,-0.015458107,,0.28647888,4.12e-06,5.58e-06,-9.2e-07,0.0,-0.055849906,0.18947838,-9.951324,-1.05e+21,966.161,12.404602,0.00321104,-0.003675312,-0.000695232,-0.06265762,0.16750672,-9.994848,-0.003654874,0.001131,-0.013134739,-1.05e+21,-0.04230026,-0.054300264,0.40060008,0.054432638,13.253934,25.72228,-0.24936692,9.537422,0.10999999,-32.866276,399.60654,12.404602,96616.42,1.1479629,0.43301103,-0.3705545,0.47543517,0.002231673,0.006412523000000001,-0.000233739,0.004470215,0.0,1.6673522,0.6721568,0.001502345,0.001654889,0.74040544,0.15,398714138.0,327364372.0,400127.0,0.0,0.0,-0.01,0.02,4.4235370000000005,0.0,0.0,1.0,39.8714138,32.7364372,0.011685322,-0.004540123,-0.075399265,0.008174651,0.015365482,-0.012677649,0.04481739,0.09679451,0.004236586,1.6122715,0.1,0.033807933,0.022716586,-0.003680883,0.15,12000000.0,1.0,0.0,0.0,0.0,0.0
12039221.0,0.025038938486973947,0.015771006026052106,-0.0035395686953907817,0.15,0.011946385527054099,900.0,900.0,900.0,900.0,900.0,900.0,0.4009948623647295,0.4088328181923848,-0.15041319919438878,-0.1504043721482966,-0.1533500131943888,0.8395507246432865,0.8559505984368737,9.123754013466932,9.123754013466932,12.404596717715432,-0.0011482020020040081,-0.005788689897795592,0.0008375915831663327,0.02002584151503006,-0.007349485434869739,-0.12608627713426854,2.0,-1.0,0.0,11.0,0.0,0.0,1.0,0.0,0.0,0.0,0.0,0.0,0.0,0.0,0.004193415811623247,0.0,1.5168412905611224,1.469252898300601,0.042160926162324655,,2.50629037109018,3.869739478957915e-06,4.605771543086173e-06,-1.4473346693386772e-06,0.0,-0.06970879023246493,0.17547205299398796,-9.903718846637275,-1.05e+21,966.1634663174349,12.404602,0.0015465608496993987,-0.005905413891783567,0.0032075808256513028,-0.03331634896993988,0.21171845957114227,-9.90747044448497,0.0006698807454909817,-0.0016492183126252504,-0.00860750740480962,-1.05e+21,-0.016090604336673347,-0.028090606549098195,0.40060002905410824,0.20973021517835672,13.253955173827656,25.777325856272547,-0.2504674093587174,8.983770627847695,0.10999999,-34.846339557394785,399.6809955438878,12.404602,96615.52059943888,1.1479522308577155,-0.5905507453667334,-0.27925310441282564,-0.6979404436192383,-0.0013892079418837675,0.0052504606152304605,-0.0031942253286573147,0.004211728058116233,0.0,1.6673522,0.6721569841202404,0.0014154733166332665,0.001559195633266533,0.7404056777474949,0.15,398714138.0,327364372.0,400127.8489194389,0.0,0.00212227625250501,-0.00787772374749499,0.01151089498997996,4.800278030921843,0.0,0.0,0.9565532344448897,39.8714138,32.7364372,0.01199452155511022,-0.004385255533066132,-0.07555962300400802,0.00783438607014028,0.016402189783567132,-0.012518302763527054,0.010788524008016033,0.056974143631262526,-0.04076727995991984,1.6121617294789579,0.1,0.03330178109619238,0.022342743258517036,-0.0033103821302605213,0.15,12039221.186372746,1.0,0.0,0.0,0.0,0.0
12078443.0,0.026259259519038076,0.015385866563126254,-0.003039412975951904,0.15,6.250664929859719e-05,900.0,900.0,900.0,900.0,900.0,900.0,1.1933505841382765,1.2166696221102202,0.7051022023987976,0.7051198557034069,0.7188863736112225,1.658020180286573,1.6904079600861723,18.86729222693387,18.86729222693387,12.404591443306613,-0.0011119757915831665,-0.005824615583166333,0.0009469071663326653,0.01992183503006012,-0.007248626869739478,-0.1261080534809619,2.0,-1.0,0.0,11.0,0.0,0.0,1.0,0.0,0.0,0.0,0.0,0.0,0.0,0.0,0.003796157623246493,0.0,1.3663303803346694,1.3253304973887774,0.09977995932464931,,4.726101861392786,4.021142284569138e-06,4.01745490981964e-06,-4.499238476953909e-07,0.0,-0.08356767525250501,0.16146572598797596,-9.856113692486973,-1.05e+21,966.1659325561122,12.404602,-0.0001907256853707416,-0.0042047809759519035,0.0018674751603206413,-0.04217719739278556,0.23700418626252506,-9.92923351831463,0.004994635490981964,-0.004429436625250501,-0.004080276597194389,-1.05e+21,0.010119051326653309,-0.0018809490981963918,0.4005999773206413,0.36502779314428857,13.253976339779559,25.832371712545093,-0.25156789871743485,8.43011925569539,0.10999999,-36.82640312266533,399.689191209018,12.404602,96615.42950300602,1.1479511323286573,-0.21658304277154306,-0.08545773884168337,0.015217643094188382,0.0024189799218436872,0.006142878581162326,0.0016715785511022046,0.003796903511022044,0.0,1.6673522,0.6721572682625251,0.001276060132264529,0.001405626519038076,0.7404059603867735,0.15,398714138.0,327364372.0,400128.69783887774,0.0,0.00424455250501002,-0.00575544749498998,0.00302179076753507,5.177019061056112,0.0,0.0,0.9131064688897795,39.8714138,32.7364372,0.01230372189779559,-0.0042303880661322645,-0.07571998022044088,0.00749412192785571,0.01743889756713427,-0.01235895652705411,-0.02324034119639279,0.017153778050100196,-0.08577114591983967,1.6120519581703407,0.1,0.033493353831663325,0.022168806779559118,-0.0035008103967935876,0.15,12078443.160320641,1.0,0.0,0.0,0.0,0.0
12117665.0,0.026886919498997994,0.015199695084168336,-0.0027479353286573144,0.15,0.0,900.0,900.0,900.0,900.0,900.0,900.0,1.158166493737475,1.180797801533066,1.560617603416834,1.5606440835551103,1.5911227604168339,2.47648963592986,2.5248653223106214,28.610830440400804,28.610830440400804,12.404586163146293,-0.001075749006012024,-0.005860540693386774,0.0010562227494989981,0.01981782854509018,-0.007147767623246493,-0.1261298304028056,2.0,-1.0,0.0,11.0,0.0,0.0,1.0,0.0,0.0,0.0,0.0,0.0,0.0,0.0,0.0033988994348697395,0.0,1.2158194706833667,1.1814080959018036,0.15739899248697395,,6.945913352270542,3.988236472945892e-06,4.830280561122245e-06,-1.074300601202405e-06,0.0,-0.10324287496793588,0.15204679413226452,-9.854656649653306,-1.05e+21,966.1705129164329,12.404602,-0.003937888863727456,-0.0037579635531062123,0.0009827004228456912,0.02183259028256515,0.21862320456312626,-9.954583032511023,0.005926005587174349,-0.00675860848496994,-0.0038274093827655314,-1.05e+21,0.036328706308617245,0.024328709034068145,0.40059992616232465,0.5203253705350702,13.253997511482966,25.887417568817636,-0.25266838807615233,7.876467883543086,0.10999999,-38.80646668218437,399.60477188517035,12.404602,96616.43000088177,1.1479629403647293,0.1789542420741484,0.051639716352705436,-0.22376184981963948,0.003525001080160321,0.008842588040080162,-0.002958042310621245,0.004186421238476954,0.0,1.6673522,0.6721570180781563,0.0014069678116232465,0.0015498271082164327,0.7404056474368738,0.15,398714138.0,327364372.0,400129.54675831663,0.0,0.0063668287575150305,-0.0036331712424849697,-0.005467314030060123,5.553760091765532,0.0,0.0,0.8696597033346694,39.8714138,32.7364372,0.012648722507014027,-0.003912059637274549,-0.07642904009619238,0.008403083983967935,0.01710002667334669,-0.012268614619238477,-0.041755420563126255,-0.029378659609218448,-0.07410302626853707,1.6119083496012023,0.1,0.034532722028056115,0.021964835721442887,-0.0042074186212424855,0.15,12117664.559118237,1.0,0.0,0.0,0.0,0.0
12156886.0,0.02614763822044088,0.014977036250501003,-0.0027883538316633267,0.15,0.0,900.0,900.0,900.0,900.0,900.0,900.0,1.187445494783567,1.210646579547094,2.4161330047975955,2.4161683114068135,2.463359147222445,3.2949590915731464,3.359322684747495,38.35436865386774,38.35436865386774,12.404580886613227,-0.0010395225831663327,-0.005896466166332666,0.0011655383326653306,0.01971382206012024,-0.007046908739478957,-0.12615160696192385,2.0,-1.0,0.0,11.0,0.0,0.0,1.0,0.0,0.0,0.0,0.0,0.0,0.0,0.0,0.0030016406713426853,0.0,1.0653085606693387,1.0374856942024047,0.21501802622444893,,9.16572484048497,4.076533066132264e-06,4.84438877755511e-06,-1.156060120240481e-06,0.0,-0.12507665729058118,0.14433036256312626,-9.870326346597194,-1.05e+21,966.1758778288577,12.404602,-0.0014875458296593185,-0.002158225613226453,-0.0008802593446893789,-0.03960374858717435,0.15477295117234469,-9.9225602108497,0.005598004376753507,-0.008920386158316633,-0.005160867699398797,-1.05e+21,0.06253836165330662,0.050538366803607224,0.40059987464128255,0.6756229482885772,13.254018679559119,25.942463430841684,-0.25376887801002,7.322816511390782,0.10999999,-40.78653024533066,399.5600821891784,12.404602,96616.95798897796,1.1479692605891783,0.13533972843687372,0.24754914611022044,-0.3846073281062124,0.002247457390781563,0.00912600708216433,-0.0039987707615230465,0.0018765725931863728,0.0,1.6352966581162325,0.6838732329178356,0.0006306762084168336,0.000694713378757515,0.7294693719599199,0.10744762176553106,398714138.0,327364372.0,400130.3956777555,0.0,0.00848910501002004,-0.00151089498997996,-0.01395641846492986,5.930501122687375,0.0,0.0,0.8262129377795592,39.8714138,32.7364372,0.013007009523046092,-0.0035330670641282565,-0.07734173688977955,0.009775665348697395,0.016250643659318637,-0.012203882621242486,-0.05451293912825652,-0.0784021181242485,-0.04140248904809619,1.6117521833767534,0.1,0.0308181618997996,0.02187340604008016,-0.004508799733466935,0.638877755511022,12156886.320641283,1.0,0.0,0.0,0.0,0.0
12197984.0,0.02476806768737475,0.014862909805611222,-0.00292166846492986,0.15,0.0,900.0,900.0,900.0,900.0,900.0,900.0,0.38580274137274595,0.39334292407615257,3.271648406028056,3.2716925392585168,3.335595534496994,4.113428546747495,4.193780046715431,48.097906867334665,48.097906867334665,12.404575608577154,-0.00100329601002004,-0.005932391488977956,0.0012748539158316634,0.0196098155751503,-0.006946050174348697,-0.1261733836713427,2.0,-1.0,0.0,11.0,0.0,0.0,1.0,0.0,0.0,0.0,0.0,0.0,0.0,0.0,0.002604382058116233,0.0,0.9147976508056113,0.8935632929719439,0.2726370598116233,,11.385536329919839,3.5134869739478963e-06,5.3975350701402805e-06,-4.790180360721445e-07,0.0,10.426107492424844,0.13770371590581162,-9.763249084781563,-1.05e+21,966.176023882966,12.404602,-0.0003127867314629252,-0.004770307913827654,-0.0025389484148296594,-0.1175105839539078,0.1092414050240481,-9.891372910681362,0.004715590841683367,-0.00837395812224449,-0.005270163450901803,-1.05e+21,0.10376455793386771,0.0917645644028056,0.4005998453106212,0.8256957462244489,13.254047853907815,25.93642889973948,-0.2536476026793587,6.797575373262525,0.10999999,-42.83862165178357,399.5771553755511,12.404602,96616.75856797595,1.147966940296593,-0.048462354376753475,0.09644076693987991,-0.11357377343286579,0.00023994458116232504,0.00778975686973948,-0.0022169326492985975,0.0,0.0,1.611618,0.69252783,0.0,0.0,0.72139114,0.5093066709318635,398714138.0,327364372.0,400130.0153234469,0.0,0.00973335370741483,-0.0011446733787575146,-0.017177359126252508,6.089711282755511,0.0,0.0,0.7827661722244489,39.8714138,32.7364372,0.013309350705410823,-0.002487939352705411,-0.07843716768737474,0.0060178342104208445,0.12210167366733463,-0.009739717899799601,-0.3810537554008015,8.11639103823647,0.1658305758937875,1.6116172845310623,0.1,0.027773720116232466,0.021710708761523045,-0.0045091770000000005,1.0,12197983.683366733,1.0,0.0,0.0,0.0,0.0
12239329.0,0.025501953046092186,0.014856419044088175,-0.00314457471743487,0.15,0.0,900.0,900.0,900.0,900.0,900.0,900.0,-0.25960904093386716,-0.26467814002605156,4.127163806833668,4.127216767110221,4.207831921833668,4.931898001859719,5.028237408621243,57.841445080801606,57.841445080801606,12.404570326292585,-0.000967069374749499,-0.005968316386773547,0.0013841694989979961,0.019505809090180362,-0.006845191609218437,-0.12619516080561125,2.0,-1.0,0.0,11.0,0.0,0.0,1.0,0.0,0.0,0.0,0.0,0.0,0.0,0.0,0.002207123869739479,0.0,0.764286741004008,0.7496408918036072,0.3302560929739479,,13.605347821903809,3.031162324649299e-06,5.621903807615229e-06,0.0,0.0,31.793706930601218,0.1320375882024048,-9.529048877172345,-1.05e+21,966.1707599336673,12.404602,-0.0012220010861723433,-0.009349077322645291,-0.0006936148517034039,-0.1286750840521042,0.12823066844689385,-9.895888983931863,0.0033801751402805606,-0.005072203849699397,-0.00398333686773547,-1.05e+21,0.1611411532865732,0.1491411606492986,0.40059984,0.9701492553607215,13.254085641282565,25.864701962685373,-0.2522123094809619,6.302889648701403,0.10999999,-44.9681795241483,399.5540682190381,12.404602,96617.02078388777,1.1479700309178356,0.02336017775951922,-0.21256615551703406,0.22170498561923857,0.0010078796352705436,0.004794012184368735,-0.00026769996593186177,0.0,0.0,1.611618,0.69252783,0.0,0.0,0.72139114,1.0,398714138.0,327364372.0,400128.26634468936,0.0,0.01,-0.0027336565150300612,-0.014532685969939878,6.006720904344689,0.0,0.0,0.7393194066693386,39.8714138,32.7364372,0.013553254941883768,-0.0007668528016032054,-0.07970107639078157,-0.0030304466352705467,0.33715372937474963,-0.004818606759519036,-1.0291174728296597,24.744851768637286,0.54970418392986,1.61150528051503,0.1,0.02774847122044088,0.021479705142284568,-0.0045091770000000005,1.0,12239329.118236473,1.0,0.0,0.0,0.0,0.0
12278551.0,0.026763627731462927,0.014695938018036071,-0.00256991035270541,0.3680360721442888,0.0,1054.275523719439,1053.9078156312626,1182.1643286573149,1050.8296593186374,1056.729458917836,1055.7034068136275,0.000917727150300196,0.000937619480961549,4.982679207895791,4.982740994961924,5.080068308639279,5.750367457503005,5.862694771058116,67.58498329426854,67.58498329426854,12.404565046573145,-0.0009308430140280562,-0.006004241541082165,0.0014934850821643289,0.019401802605210423,-0.006744333044088177,-0.12621693768336675,2.0,-1.0,0.0,11.0,0.0,0.0,1.0,0.0,0.0,0.0,0.0,0.0,0.0,0.0,0.0018098656813627253,0.0,0.6137758309278557,0.6057184901042084,0.38787512613627256,,15.825159313887776,3.374569138276553e-06,4.259218436873747e-06,0.0,9.593587174348707e-07,48.56776850699399,0.14216357158917836,-9.360595052523045,-1.05e+21,966.1657524306613,12.404602,0.0009957791062124252,-0.007581794945891782,0.0038194477174348703,2.5937093049779585,0.17330666423046096,-9.883763558192385,0.0018138485591182357,-0.0019936671162324644,-0.0022599094729458913,-1.05e+21,0.22224483450100205,0.21024484250100203,0.40059984,1.113305981420842,13.254125414829659,25.7778149597996,-0.25047377581763525,5.815255306741483,0.10999999,-47.11561460983968,399.49993040300603,12.404602,96617.63710733467,1.1479773519639278,0.17958409226052097,-0.20690715448697394,0.3923133953186373,0.004054657615230461,0.0034630326893787607,0.0023679947354709424,0.0,0.0,1.611618,0.69252783,0.0,0.0,0.72139114,1.0,398714138.0,327364372.0,400126.1441098196,0.0,0.01,-0.004855932767535071,-0.01028813346492986,5.85766897173547,0.0,0.0,0.6958726411142284,39.8714138,32.7364372,0.012453782577154307,0.03376800143086175,-0.08010755330861724,-0.03176579338076154,1.0351024896673353,0.010708398967935885,-1.5873093332024049,39.00702507072145,0.8701685773366734,1.611400360787575,0.1,0.0276100378256513,0.0213360164248497,-0.0045091770000000005,1.0,12278550.561122244,1.0,0.0,0.0,0.0,0.0
12317772.0,0.022486756873747495,0.014410589482965933,0.00014241688376753515,1.0,0.0,1501.356908543086,1500.0,2000.0,1488.1503006012024,1510.8496993987976,1507.0,-0.6416854143847693,-0.6542114889959918,5.838194609444891,5.838265222813628,5.95230469544489,6.568836913146293,6.697152133344689,77.32852150773546,77.32852150773546,12.404559771723447,-0.0008946161663326655,-0.006040167182364729,0.0016028006653306614,0.019297796120240483,-0.006643474478957916,-0.12623871407414827,2.0,-1.0,0.0,11.0,0.0,0.0,1.0,0.0,0.0,0.0,0.0,0.0,0.0,0.0,0.001412607492985972,0.0,0.46326492133867736,0.46179608855511023,0.4454941592985972,,18.044970805871742,3.0279759519038076e-06,4.228617234468938e-06,0.0,6.274068136272547e-06,48.50805472695391,0.193371927498998,-9.420891558468938,-1.05e+21,966.1638002316633,12.404602,0.0023326708797595194,-0.001724063869739479,0.004003851907815631,16.94358001915832,0.16563361390781564,-9.73698210919439,-0.00015997029458917846,-0.0007145736032064127,-3.5149438877754287e-06,-1.05e+21,0.2833485155651303,0.2713485238657315,0.40059984,1.256462707480962,13.254165188376755,25.690927955410825,-0.24873524264128258,5.327620965268538,0.10999999,-49.26304969553106,399.5840385557114,12.404602,96616.64623621243,1.1479656346973948,-0.07659612676553106,-0.12670783491983967,0.42869621844088174,0.002665812348697395,0.010382747943887776,0.002981455082164329,0.0,0.0,1.611618,0.69252783,0.0,0.0,0.72139114,1.0,398714138.0,327364372.0,400124.0218112224,0.0,0.01,-0.006978209020040081,-0.0060435811102204405,5.708617039126254,0.0,0.0,0.6524258755591182,39.8714138,32.7364372,0.007849340875751502,0.15424714890581162,-0.07818635275951905,-0.10991445526452906,2.9541445320501003,0.05302858940280561,-1.7677768717995992,43.33791688252505,0.946229610002004,1.611303983064128,0.1,0.027528504480961922,0.021181991126252506,-0.0045091770000000005,1.0,12317772.490981964,1.0,0.0,0.0,0.0,0.0
12357170.0,0.022959662292585174,0.01455493663727455,0.0014171845831663327,1.0,0.0,1500.9273363627253,1500.0,2000.0,1488.9559118236473,1510.0440881763527,1507.0,2.8031767333947895,2.8579473165150295,6.6937100102945895,6.693789450665331,6.824541082250501,7.387306368789579,7.531609494931864,87.0720597212024,87.0720597212024,12.40455448987976,-0.0008583900180360721,-0.006076092124248497,0.0017121162484969939,0.019193789635270544,-0.006542615869739479,-0.12626049116432864,2.0,-1.0,0.0,11.0,0.0,0.0,1.0,0.0,0.0,0.0,0.0,0.0,0.0,0.0,0.0010153493046092185,0.0,0.31275401105010026,0.31787368770541086,0.5031131924609218,,20.26478229785571,2.9661723446893786e-06,4.57058116232465e-06,0.0,2.2156312625250502e-05,43.91182939729459,0.2542670296633267,-9.537026823374749,-1.0334669338677355e+21,966.1626170921843,12.404602,0.00528355780961924,-0.004919878470941883,-0.002053562,53.24379942933868,0.14360153431663328,-9.29691066496593,-0.0021849281062124247,-7.893442885771495e-05,0.0021405278376753515,-1.0334669338677355e+21,0.34501019771342684,0.3330102078897796,0.40059983312224445,1.3989225706673347,13.254205360480963,25.60260004278557,-0.24696788268136277,4.845093604603207,0.10999999,-51.396584328997996,399.60203358777557,12.404602,96616.4431198998,1.147963212048096,-0.017126239446893815,-0.024142305424849624,0.05107295997194393,0.00216434103006012,0.008145817418837674,0.003899918028056114,0.0,0.0,1.611618,0.69252783,0.0,0.0,0.72139114,1.0,398714138.0,327364372.3262525,400121.95388657314,0.039510026260520886,0.009879174236472946,0.030469952062124092,-0.0017990294549098207,5.540105037555111,0.0,0.0,0.6089791100480961,39.8714138,32.7364372,0.0020299121062124273,0.3044748060961923,-0.07546024766533067,-0.2005572528316633,5.182989869388777,0.10214314768336673,-1.8363380560881764,44.771436505891785,0.9530674556372746,1.6112078783627255,0.1,0.027473693094188376,0.021006251955911822,-0.0045091770000000005,1.0,12357170.03006012,1.0,0.0,0.0,0.0,0.0
12399966.0,0.02118195276953908,0.014674315374749499,0.0019297923146292585,1.0,0.0,1500.9952776252505,1500.0,2000.0,1488.062124248497,1510.937875751503,1507.0,4.816906050216431,4.911029810683365,7.549225411993988,7.549313678517034,7.696777469056112,8.205775824432866,8.366066857368738,96.81559793466934,96.81559793466934,12.404549216533066,-0.0008221630200400802,-0.006112017915831663,0.0018214318316633266,0.019089783150300604,-0.006441756410821643,-0.1262822674048096,2.0,-1.0,0.0,11.0,0.0,0.0,1.0,0.0,0.0,0.0,0.0,0.0,0.0,0.0,0.0006180911162324651,0.0,0.16224310161122252,0.1739512860060121,0.5607322256232464,,22.48459378983968,3.0913026052104207e-06,4.785090180360721e-06,0.0,5.3707014028056094e-05,39.72062198699399,0.28749086029258514,-9.535744357971943,-6.98296593186373e+20,966.1603119246494,12.404602,-0.0013484863226452875,-0.00820198174549098,-0.0014639500000000003,49.26136060593187,0.11662409546292586,-9.363630176184369,-0.0030692468957915827,-0.0024555960320641274,-0.0006616731803607201,-6.98296593186373e+20,0.4174260969038076,0.4054261106553106,0.40059969369138276,1.527951985741483,13.254253213867736,25.486502041983968,-0.24464496631262525,4.460991706559119,0.10999999,-53.262219337775555,399.6862969308618,12.404602,96615.46495877756,1.1479514953867735,0.12621119794789573,-0.39836222258316617,-0.17780446914228448,0.0034791293667334666,0.00735439890981964,-0.0023837348577154275,0.0,0.0,1.611618,0.69252783,0.0,0.0,0.72139114,1.0,398714138.0,327364378.94028056,400120.9338961924,0.8404860131783564,0.00742970648496994,0.8305483599579154,0.002445523050100198,4.996544434172345,0.0,0.0,0.5655323453867735,39.8714138,32.7364372,-0.008917257104208412,0.579593678773547,-0.06936688751703407,-0.27416529214629254,7.011118698543086,0.14240112853707415,-1.7190641418757515,42.18454255987976,0.9010436363747494,1.6110724436252504,0.1,0.0275899185490982,0.020694051062124248,-0.0045091770000000005,1.0,12399966.366733467,1.0,0.0,0.0,0.0,0.0
12449417.0,0.01977313001002004,0.01458177548496994,0.0038090308076152287,1.0,0.0,1501.7526395090179,1500.0,2000.0,1488.9106871442887,1510.0893128557113,1507.0,6.83599115577555,6.96953652700601,8.404740812861723,8.404837906368737,8.569013855861723,9.024245280076151,9.200524218973948,106.55913614813628,106.55913614813628,12.40454393486974,-0.0007859368537074148,-0.006147942875751503,0.0019307474148296591,0.01898577666533066,-0.006340897783567135,-0.12630404447695393,2.0,-1.0,0.0,11.0,0.0,0.0,1.0,0.0,0.0,0.0,0.0,0.0,0.0,0.0,0.0002208329278557117,0.0,0.011732191340681458,0.030028884306613324,0.6183512587855711,,24.704405281823647,3.3578156312625246e-06,3.402805611222446e-06,0.0,8.109939879759517e-05,35.67073950835672,0.311059215260521,-9.493490738961924,-2.5251503006012054e+20,966.1576152931864,12.404602,0.0006751245450901788,-0.00739678993987976,-0.0015877870380761523,44.57821056649299,0.16718949310220438,-9.45045795103006,-0.003555556567134268,-0.005883314579158314,-0.005189791002004005,-2.5251503006012054e+20,0.49575081433066126,0.48375083498396787,0.4005994810741483,1.649602147759519,13.25430529210421,25.35514597985972,-0.2420168037214429,4.130968899296594,0.10999999,-54.980659019499,399.63497070881766,12.404602,96616.07297921844,1.1479587872224448,0.2134018590400801,-0.10458596585370766,-0.09818780347695398,0.0017446224529058128,0.005746525701402807,-0.002698266430861724,0.0,0.0,1.611618,0.69252783,0.0,0.0,0.72139114,1.0,398714138.0,327364390.0452906,400120.6654799599,2.1876546851362715,0.003309924444889782,2.1776545850881757,0.006690075555110218,4.183964841230462,0.0,0.0,0.5220855798937876,39.8714138,32.7364372,-0.021653674280561114,0.8982914644268534,-0.06209857421242485,-0.34182930891583163,8.699423521294587,0.17956873995190378,-1.5369458614008016,38.19478570765531,0.8284809240360722,1.6109232856112223,0.1,0.027699481549098195,0.02051015003807615,-0.0045091770000000005,1.0,12449416.841683367,1.0,0.0,0.0,0.0,0.0
12493560.0,0.020724362855711425,0.014309407921843688,0.0034795225310621236,1.0,0.0,1501.2484617174348,1500.0,2000.0,1489.0260873807615,1509.9739126192385,1507.0,8.505775764000003,8.671972538933868,9.260256213667336,9.260362134220442,9.441250242667335,9.84271473644489,10.034981582693387,116.3026743470942,116.3026743470942,12.40453865258517,-0.0007497100240480961,-0.006183868498997996,0.0020400629979959923,0.01888177018036072,-0.006240039218436874,-0.12632582161122247,2.0,-1.0,0.0,11.0,0.0,0.0,1.0,0.0,0.0,0.0,0.0,0.0,0.0,0.0,4.008773747494977e-05,-0.011595882885771559,-0.06278607864729464,-0.03727848370140286,1.027059894873748,,27.200043479058117,3.489799599198397e-06,3.388416833667335e-06,0.0,0.0001043768977955912,32.28076893853707,0.219104985785571,-9.512618330537075,-2.9322845691382782e+20,966.1567759549099,12.404602,-0.002832703482965937,-0.0015453175591182292,-0.003462708741482968,39.83435076941883,0.14741232562324647,-9.477153145166334,-0.0021549216412825633,-0.006896973412825652,0.009062233643286594,-2.9322845691382782e+20,0.5745169140861724,0.5625169411643287,0.40059926298997994,1.77070108846493,13.254357678677355,25.222650166192384,-0.23936583960521043,3.8049857356853702,0.10999999,-56.68810338763527,399.6122397356714,12.404602,96616.3601596994,1.1479621582004007,-0.006129398759519344,0.20935211365330691,-0.35089873780961955,2.201858116232286e-05,0.007726363873747499,-0.004373716222444892,0.0,0.0,1.611618,0.69252783,0.0,0.0,0.72139114,1.0,398714138.0,327364401.48577154,400120.4532779559,3.5756232926032077,-0.000934628060120245,3.5656231290961937,0.010934628060120246,3.3512898538877747,0.0,0.0,0.47863881433867733,39.8714138,32.7364372,-0.03796624352304611,1.3222180982785576,-0.05278797769939879,-0.40144374369338687,10.243717122080161,0.21357952523446896,-1.3389412766793585,34.60657434216433,0.7420453801603206,1.6109265498597194,0.1,0.027743435476953907,0.0202506671002004,-0.0045091770000000005,1.0,12493560.04008016,1.0,0.0,0.0,0.0,0.0
12536356.0,0.02246885961523046,0.01394944039478958,0.002798815064128256,1.0,0.0,1501.0,1500.0,2000.0,1487.83213047495,1511.16786952505,1506.3807615230462,10.019430905811625,10.215177809318638,10.115771615711424,10.115886364549098,10.313486627615232,10.661184191743487,10.869438941963928,126.04621254268537,126.04621254268537,12.404533376492987,-0.0007134836452905812,-0.006219793671342686,0.0021493792004008017,0.01877776369539078,-0.006139180653306614,-0.1263475981262525,2.0,-1.0,0.0,11.0,0.0,0.0,1.0,0.0,0.0,0.0,0.0,0.0,0.0,0.0,0.0,-0.030724999597194408,-0.08793593780961924,-0.054813105152304614,1.6638529282545096,208.75496541482966,29.874871747955915,3.154649298597194e-06,3.564308617234469e-06,0.0,0.00011903920841683366,29.31265012629258,0.052570385410821485,-9.573610300228458,-6.561923847695394e+20,966.1571622332665,12.404602,-0.0019267630420841653,-0.004875256050100206,-0.00036252105210420396,35.34962334326653,0.19086601580961932,-9.506706607927855,0.0004522465871743509,-0.006291338839679359,0.035598481300601226,-6.561923847695394e+20,0.6532830140100201,0.6412830473446894,0.4005990449058116,1.8918000291703407,13.254410069759519,25.090154348016032,-0.23671487548897796,3.4790025722424844,0.10999999,-58.39554774957916,399.6334416360722,12.404602,96616.09501883767,1.1479590201643286,0.1824398908937879,-0.05027510451102246,-0.20307220507615198,-0.00026092224048096166,0.007252654300601202,-0.0015211369539078119,0.0,0.0,1.611618,0.69252783,0.0,0.0,0.72139114,1.0,398714138.0,327364412.98817635,400120.24103086174,4.96359190068938,-0.005179179945891786,4.95359167310421,0.015179179945891786,2.5186148665450894,0.0,0.0,0.4351920487835671,39.8714138,32.7364372,-0.05651522235671344,1.8123915732484974,-0.04220763513026051,-0.45611723985370745,11.701239590881766,0.2456894559218437,-1.133762957264529,31.3473038597996,0.6475940979639279,1.6110295007174347,0.1,0.0281655392244489,0.019057046356713427,-0.0045091770000000005,1.0,12536356.376753507,1.0,0.0,0.0,0.0,0.0
12579153.0,0.022148160545090178,0.013323602835671342,0.002014525577154308,1.0,0.0,1500.4869739478959,1500.0,2000.0,1488.2747198176353,1510.7252801823647,1506.0,11.380495132865732,11.602842331202405,10.971287018817636,10.97141059238477,11.185723015330662,11.479653646492986,11.703896304168337,135.7897507895792,135.7897507895792,12.404528098016032,-0.0006772570280561122,-0.006255718569138277,0.0022586951643286573,0.01867375721042084,-0.006038322088176353,-0.12636937487975952,2.0,-1.0,0.0,11.0,0.0,0.0,1.0,0.0,0.0,0.0,0.0,0.0,0.0,0.0,0.0,-0.05200110425851705,-0.09901569376953909,-0.05816238588176353,2.365650507120241,208.81671661082166,32.600769575490986,2.935130260521042e-06,3.1739278557114223e-06,0.0,9.467229458917832e-05,26.66184514,-0.08777065677354716,-9.830834136148296,-9.526052104208418e+20,966.1591991623246,12.404602,0.0015865528336673365,-0.006588710599198395,0.004307855597194391,31.924356828476956,0.19755259297595187,-9.55313639765531,0.016836662314629276,-0.028927189729458944,0.08118434380160323,-9.526052104208418e+20,0.7387519424388779,0.7267519784388777,0.4005988842805611,2.017744994981964,13.254467722104208,24.95517001727455,-0.23401403651903807,3.173958986771543,0.10999999,-60.04449939214429,399.6925730016032,12.404602,96615.40327911824,1.1479508631022044,0.19962489060521027,-0.0930802143667333,-0.04150557899198396,0.0016433054949899816,0.00646015271743487,0.002390665987975954,0.0,-0.0494020150380762,1.611618,0.6908661811983967,0.01770649907815633,-0.016998051142284587,0.7196602403767535,1.0,398714138.0,327364433.1368737,400119.9842769539,6.3724940615310635,-0.00719675369739479,6.36338458803006,0.01764214957715431,1.860527619547094,0.0,0.0,0.3917452832284569,39.8714138,32.7364372,-0.07519596386372747,2.3657306762224453,-0.03102289805611222,-0.4981297684108216,13.033393985551104,0.268321312503006,-0.9276994976813626,28.473175051903805,0.3633149431623244,1.61240862852505,0.1,0.02840463970941884,-0.36669800684569176,-0.0045091770000000005,1.0,12579153.226452906,1.0,0.0,0.0,0.0,0.0
12620323.0,0.02107011511222445,0.012946107779559119,0.000779142561122244,1.0,0.0,1499.5931863727455,1500.0,2000.0,1489.6301334669338,1509.3698665330662,1506.0,12.68072938957916,12.928517092024048,11.826802418236472,11.826934817555111,12.057959405711424,12.298123101242485,12.538353670180362,145.53328903386776,145.53328903386776,12.404522819799599,-0.0006410300300601202,-0.006291643873747494,0.0023680107474949898,0.0185697507254509,-0.005937463116232465,-0.12639115160721442,2.0,-1.0,0.0,11.0,0.0,0.0,1.0,0.0,0.0,0.0,0.0,0.0,0.0,0.0,0.0,-0.0732772089198397,-0.11009545011022046,-0.06151166663727455,3.0674480859859723,208.87846776873747,35.32666740302605,5.283246492985974e-06,-0.00021094733466933883,0.0,-3.5986090180360796e-05,24.25901510727455,-0.16841063250300603,-10.319947016092184,-1.05e+21,966.162873498998,12.404602,8.463708817635016e-05,-0.003483880202404809,0.01765073919438879,29.346171458737476,0.07642693520040073,-9.603141633046093,0.05012312351503007,-0.08138642782965935,0.14633362493587176,-1.05e+21,0.8354175170040081,0.8234175489358717,0.40059882,2.1517849348857716,13.2545341549499,24.816028788717436,-0.2312298848517034,2.9038936230961925,0.10999999,-61.59574269214429,399.6871576513026,12.404602,96615.48062677354,1.1479517998957915,-0.1583319556372747,-0.1113243540901805,0.3487381989739482,0.0020468605190380753,0.00723092986973948,0.019947550362725462,0.0,-0.20817070346092192,1.611618,0.6857641446713426,0.07464338444889781,-0.07165685405210423,0.7143455733386773,1.0,398714138.0,327364471.64268535,400119.6332042084,7.825733624571143,-0.004497572637274547,7.819401664030059,0.016331715424849697,1.5722183499478957,0.0,0.0,0.3482985176733467,39.8714138,32.7364372,-0.09324052932865731,2.9747898768296595,-0.019533026052104205,-0.525983900004008,14.238924276613227,0.27970937464529055,-0.7230947961322645,25.965680233046093,-0.15693356497795613,1.615357711278557,0.1,0.026413629867735468,-0.717014330480962,-0.0045091770000000005,1.0,12620322.795591183,1.0,0.0,0.0,0.0,0.0
12663151.0,0.018987349088176352,0.011777672480961924,-0.003040770977955913,1.0,0.0,1497.690138977956,1500.0,2000.0,1490.7086586172345,1508.2913413827655,1505.3987975951904,13.904763797074148,14.176442964088176,12.682317815791583,12.682459042725451,12.930195793086172,13.116592555991984,13.372811033186373,155.27682722945892,155.27682722945892,12.404517543446895,-0.0006048033326653306,-0.006327569364729459,0.0024773263306613227,0.01846574424048096,-0.005836603957915831,-0.1264129281482966,2.0,-1.0,0.0,11.0,0.0,0.0,1.0,0.0,0.0,0.0,0.0,0.0,0.0,0.0,0.0,-0.09455331358116233,-0.1211752061503006,-0.06486094787975952,3.7692456651523045,208.9402189266533,38.05256523056112,8.54308617234467e-07,-0.0010779129058116235,0.0,-0.00035188346092184376,21.945161887635273,-0.23437731137675352,-10.723103888436874,-1.05e+21,966.1670609607214,12.404597205410822,-0.004758607973947896,-0.0011916848997995991,0.056137549899799605,26.936763073727455,-0.14442043703607216,-9.632404253539079,0.09305556465731463,-0.13800610738877758,0.2106509023987976,-1.05e+21,0.9395309704709418,0.9275309934649298,0.40059882,2.2912095570781563,13.254606429619239,24.674122439298596,-0.2283903145751503,2.6570953646032067,0.10999999,-63.08199153695391,399.6052448777555,12.404602,96616.43585018035,1.1479630962364729,-0.4281996656292585,-0.1389997143426853,0.9696990702845691,0.0008567977414829662,0.009124054715430862,0.06490795304408818,0.0,-0.36324057851503005,1.611618,0.68112144352505,0.13029713236472945,-0.1250838603527054,0.70950937852505,1.0,398714138.0,327364524.49559116,400119.20874448895,9.31344899990982,0.0018692558196392788,9.31136165382966,0.012087162919839679,1.5714404931783568,0.0,0.0,0.30485175211823645,39.8714138,32.7364372,-0.11081734877154309,3.6198810126052106,-0.008584008236472946,-0.5461650190420841,15.32725506527054,0.280832194753507,-0.5737552404128257,23.63159325933868,-0.5856513221683366,1.620218454549098,0.1,0.020678676773547094,-0.6749465472745491,-0.0045091770000000005,1.0,12663151.496993989,1.0,0.0,0.0,0.0,0.0
12711544.0,0.01350000382765531,-0.06883777882765525,-0.011634079236472944,1.0,0.0,1493.5456846853708,1500.0,2000.0,1492.8415960561122,1506.1584039438878,1465.122244488978,14.909625204288576,15.200881028577154,13.537833219278557,13.53798326983968,13.802432176472946,13.935062010741483,14.207268392204409,165.02036542505007,165.02036542505007,12.404512261162324,-0.0005685770340681363,-0.006363494456913828,0.0025866419138276552,0.01836173775551102,-0.005735745392785571,-0.12643470508817636,2.0,-1.0,0.0,11.0,0.0,0.0,1.0,0.0,0.0,0.0,0.0,0.0,0.0,0.0,0.0,-0.11582941824248497,-0.13225496179158316,-0.06821022912224449,4.471043244717435,209.00197010400802,40.77846305809619,-4.2874260521042066e-05,-0.0025934063386773547,0.0,-0.0009040333607214428,19.548612970480963,-0.3372860613246493,-10.62196473749499,-1.05e+21,966.1705144763527,12.4045803096994,0.0022216197995991935,-0.011468529448897789,0.11878523779759517,24.73344986751503,-0.3535133819779559,-9.90781570177956,0.13939068174148295,-0.16817159839679358,0.24862647396993987,-1.05e+21,1.043644423743487,1.031644437993988,0.40059882,2.4306341794649295,13.254678708276554,24.532216089879757,-0.2255507442985972,2.410297106509018,0.10999999,-64.56824038176353,399.572592604008,12.404602,96616.81024545089,1.1479675001503007,0.13656439922845653,-0.2542920839939874,1.5131273119619237,0.018219905324649288,-0.013954461182364711,0.13493325639278556,0.0,-0.3398351539719439,1.611618,0.6825443261382766,0.12198623800601202,-0.11710549603206413,0.7109915363446894,1.0,398714138.0,327364577.3883767,400118.78428476956,10.801164374869739,0.00823608387775551,10.803321643006013,0.00784261041482966,1.570662636807615,0.0,0.0,0.2614049865631263,39.8714138,32.7364372,-0.1280018787254509,4.286872541120241,0.0006217815110220427,-0.5645235108997996,16.27667699719439,0.26997797628056114,-0.5620981041382765,21.2808811354509,-0.4909462647194389,1.6279588691783566,0.1,0.011012819963927858,-0.6117378244208417,-0.0045091770000000005,1.0,12711543.723446894,1.0,0.0,0.0,0.0,0.0
12753987.0,0.008433381847695398,-0.38231098193787577,-0.022193775865731458,1.0,0.0,1488.2064128256513,1500.0,2000.0,1495.9194916833667,1503.0805083166333,1308.2623098036072,15.888500347174348,16.19898395026052,14.39334862276553,14.393507503066132,14.674668565971944,14.753531465490981,15.04172575733467,174.76390362064126,174.76390362064126,12.404506979759518,-0.000532350124248497,-0.006399420160320642,0.0026959574969939878,0.018257731270541082,-0.00563488682765531,-0.12645648141683366,2.0,-1.0,0.0,11.0,0.0,0.0,1.0,0.0,0.0,0.0,0.0,0.0,0.0,0.0,0.0,-0.13710552290380762,-0.14333471804408818,-0.07155951036472945,5.172840823583167,209.06372134248497,43.504360885631264,-0.00016432706212424843,-0.003602078527054108,0.0,-0.0016858081663326647,17.124627650641283,-0.45997343220641285,-10.146294476124249,-1.05e+21,966.17291691002,12.404553916152304,0.03868382316633263,-0.06581843584569134,0.17117746859519034,23.22442593717435,-0.41980293604208424,-11.00567751492986,0.18641925476753507,-0.17244574883767536,0.26120101198597195,-1.05e+21,1.1489192311863727,1.1369192375691382,0.40059882,2.570146072715431,13.254750606953909,24.39034969228457,-0.22271198030661327,2.164915127739479,0.10999999,-66.05278567442886,399.570730561523,12.40459935470942,96616.82508272545,1.1479677012885772,2.089701714230461,-2.867783580655311,2.9689464552284583,0.09099795231863725,-0.12400678901402802,0.2192272295310621,0.0,-0.3186220871062124,1.611618,0.6837527592925852,0.11443914966933869,-0.10986036834468939,0.7122503031102204,1.0,398714138.0,327364630.6785571,400118.41146993986,12.280810003486973,0.014506075601202402,12.287147335551103,0.0033721049478957943,1.5698977378697396,0.0,0.0,0.21795822100801607,39.8714138,32.7364372,-0.14455173258517032,4.977451539424849,0.00838687768336673,-0.5807091538697394,17.109271371302604,0.2515685371823647,-0.6597505711963928,18.93579533272545,-0.001227644911823783,1.6379138963046094,0.1,-0.0028517191823647244,-0.5375986368296594,-0.0045091770000000005,1.0,12753987.354709418,1.0,0.0,0.0,0.0,0.0
12793209.0,-0.01269757260521045,-0.29631554198997984,-0.03712967591382768,1.0,0.0,1480.1623246492986,1500.0,2000.0,1506.7808251102203,1492.2191748897797,1351.4666319038076,16.737191995350702,17.06419769971944,15.248864026252507,15.249031728236474,15.54690494741483,15.572000920240482,15.87618311440882,184.50744181623247,184.50744181623247,12.404501706412825,-0.0004961240200400801,-0.006435345058116233,0.002805273080160321,0.018153724785571142,-0.005534028262525051,-0.1264782585511022,2.0,-1.0,0.0,11.0,0.0,0.0,1.0,0.0,0.0,0.0,0.0,0.0,0.0,0.0,0.0,-0.1583816275651303,-0.15441447349098197,-0.07490879160721443,5.874638402448899,209.1254725004008,46.230258713166336,-0.00032528301002004035,-0.0044428242785571155,0.0,-0.002613641897795592,15.043060106232463,-0.4984199621623247,-9.865541390020038,-1.05e+21,966.1709809661322,12.40452752260521,0.1293843208977957,-0.1806506117815633,0.2465683111282566,20.843100845350698,-0.29789087387775537,-10.437291718537073,0.2153797758657315,-0.12989445832865726,0.2306230187074148,-1.05e+21,1.2648045990300603,1.2528045991563128,0.40059882,2.710455297921844,13.25481909789579,24.248848309078156,-0.2198805828236473,1.9324727982805607,0.10999999,-67.52176669523045,399.5736332260521,12.404572541082164,96616.79713398799,1.147967339304609,2.036939987521042,-0.9699183175250474,0.9693528349078133,0.16402116050300614,-0.19044496629258528,0.2626511025050101,0.0,-0.299165510501002,1.611618,0.6847919625310621,0.10750529581763527,-0.10320394347494989,0.7133328577274548,1.0,398714138.0,327364688.23847693,400118.51050160325,13.68672752701403,0.01989132896793588,13.696655078637278,-0.0031627889438877845,1.5692512291402807,0.0,0.0,0.17451145545290575,39.8714138,32.7364372,-0.15811642306212428,5.726466417004009,0.015491553110220449,-0.5901145931402806,17.870729718597197,0.2500301938036072,-0.7686483050961925,16.761347903987975,0.34353303198196444,1.647449663210421,0.1,-0.016148673803607235,-0.49639126587575144,-0.0045091770000000005,1.0,12793208.541082164,1.0,0.0,0.0,0.0,0.0
12832430.0,-0.027948387296593172,-0.2688586191983968,-0.050042492781563114,1.0,0.0,1473.8697394789579,1500.0,2000.0,1514.006012024048,1484.993987975952,1365.1783266853706,17.499961018797595,17.84177284192385,16.104379420981964,16.104555953406813,16.41914133761523,16.39047037498998,16.71064048024048,194.2509800993988,194.2509800993988,12.404496424308617,-0.00045989704008016035,-0.006471269955911824,0.0029145886633266532,0.018049718300601203,-0.005433169697394789,-0.12650003568537074,2.0,-1.0,0.0,11.0,0.0,0.0,1.0,0.0,0.0,0.0,0.0,0.0,0.0,0.0,0.0,-0.1796577322264529,-0.16549422981362724,-0.07825807284969939,6.576435981314629,209.18722365831664,48.9561565407014,-0.0005011206032064126,-0.005293510685370741,0.0,-0.003652317745490981,13.373928888156314,-0.43539984657314634,-9.819562704112226,-1.05e+21,966.1638195881764,12.404501129058117,0.19436492440681358,-0.20642576341082164,0.27875672151102204,17.800757879759523,-0.45094141247695374,-10.165842001242485,0.22257763741282566,-0.030942730525050186,0.14806854581162332,-1.05e+21,1.410212446809619,1.398212446809619,0.40059882,2.852982998729459,13.254878104448897,24.10836251737475,-0.2170696831803607,1.7360333321022046,0.10999999,-68.94744218078156,399.50425784208414,12.404544851703406,96617.58333639278,1.1479767831102203,0.9917702838857725,-0.11030586497795669,0.19386280848296655,0.2039463661362725,-0.19485333533066132,0.2745760575150301,0.0,-0.28126310994589176,1.611618,0.6856854556072144,0.10111546580561123,-0.09706977651703408,0.7142636323486974,1.0,398714138.0,327364770.84488976,400121.42376072146,14.652930194609217,0.02,14.662930194609219,-0.022009707699398785,1.5693107976873748,0.0,0.0,0.13106468989779563,39.8714138,32.7364372,-0.16808553446292585,6.5458663054949895,0.021800763304609214,-0.5913533948016032,18.54650594004008,0.26881279530661323,-0.891090769048096,14.792431471242487,0.5136943593086171,1.6564804411482967,0.1,-0.027618347517034056,-0.4667884272945892,-0.0045091770000000005,1.0,12832429.72745491,1.0,0.0,0.0,0.0,0.0
12874730.0,-0.03239256734068137,-0.22531366277354709,-0.0595752960721443,1.0,0.0,1469.1523046092184,1500.0,2000.0,1515.7695390781564,1483.2304609218436,1387.0080160320642,18.135113780160324,18.48941227402806,16.959894823226453,16.960080186272545,17.291377727995993,17.20893983743487,17.545097838557115,203.99451830741484,203.99451830741484,12.404491149719439,-0.0004236708116232465,-0.006507195623246493,0.0030239042464929857,0.01794571181563126,-0.0053323111322645285,-0.12652181205010019,2.0,-1.0,0.0,11.0,0.0,0.0,1.0,0.0,0.0,0.0,0.0,0.0,0.0,0.0,0.0,-0.20093383688777558,-0.1765739861543086,-0.08160735409218436,7.2782335609499,209.24897489318639,51.68205436823647,-0.00068840222244489,-0.006253822581162326,0.0,-0.004603366515030061,12.009119279619238,-0.24316651492985955,-9.88350146919038,-1.05e+21,966.1595346342685,12.404484023847695,0.20897293000601203,-0.1611251368657314,0.26222072168336674,15.456853127855709,-0.5197365683927856,-9.725614342861723,0.23586850610220442,0.030839254484969988,0.03419625923046081,-1.05e+21,1.5562283090501003,1.5442283090501003,0.40059882,2.995556388965932,13.254936907975951,23.967897641743487,-0.21425920491983969,1.5403353436573144,0.10999999,-70.37222579032064,399.66790315591186,12.404517529058117,96615.67825202405,1.1479540697474948,0.23337031614228398,1.6172107760320658,-0.4606051818977962,0.21092431569539077,-0.1518957984609218,0.25717776212024046,0.0,-0.2644528723346693,1.611618,0.6864757568777555,0.09510830877154308,-0.09130296831262524,0.7150868222925851,1.0,398714138.0,327364854.0440882,400124.39490180364,15.610076957535071,0.02,15.62007695753507,-0.04111019218436876,1.5693849078717437,0.0,0.0,0.08761792434268534,39.8714138,32.7364372,-0.17825093103607215,7.388777329635271,0.02854944201402806,-0.6006667764649298,19.16839560501002,0.2817997109258517,-1.0853423418577155,13.154719348156311,0.5074488099979959,1.6613755191683368,0.1,-0.04154914493186374,-0.442686697262525,-0.0045091770000000005,1.0,12874729.839679359,1.0,0.0,0.0,0.0,0.0
12925486.0,-0.03748418846492985,-0.20226296223046097,-0.06554644102805611,1.0,0.0,1466.6733466933867,1500.0,2000.0,1517.9899799599198,1481.0100200400802,1397.6432865731463,18.70654701729459,19.072067265951905,17.815410226713425,17.815604413747494,18.163614111743485,18.027409294488976,18.379555202264527,213.738056503006,213.738056503006,12.40448586973948,-0.0003874440440881765,-0.006543120751503007,0.0031332198296593183,0.017841705330661324,-0.005231451903807615,-0.12654358895390783,2.0,-1.0,0.0,11.0,0.0,0.0,1.0,0.0,0.0,0.0,0.0,0.0,0.0,0.0,0.0,-0.22220994154909815,-0.1876537418316633,-0.08495663533466934,7.980031140046091,209.3107260741483,54.40795219577154,-0.0008877994729458915,-0.0072211815110220425,0.0,-0.005324534995991983,11.061032943887776,0.1281418768276547,-10.095466474853707,-1.05e+21,966.1594530729459,12.40448,0.217630569258517,-0.055643527795591355,0.19936600253507025,13.657396675771546,-0.4089691277715433,-9.629786946813626,0.2583737771583166,0.03862508236873748,-0.12228457170541056,-1.05e+21,1.7022441712905811,1.6902441712905811,0.40059882,3.1381297785390783,13.254995710260522,23.82743277274549,-0.2114487271983968,1.3446373552124251,0.10999999,-71.79700939985972,399.62781988657315,12.404502566613226,96616.16588024049,1.1479598519458918,-0.08951540039478934,2.2798668919098195,-1.3470925247114214,0.2155950241222445,-0.060177518643286715,0.20566317939478965,0.0,-0.2485577681723447,1.611618,0.6871792551122244,0.08942211368336675,-0.0858442830501002,0.7158196087775551,1.0,398714138.0,327364937.25571144,400127.3660967936,16.56722371507014,0.02,16.57722371507014,-0.06021067666933866,1.5694590173927856,0.0,0.0,0.04417115878757521,39.8714138,32.7364372,-0.18879714189378755,8.262765805973947,0.035940262935871735,-0.6215915042004008,19.716862675711422,0.28603287954709417,-1.380356288396793,11.97760197713427,0.2577696047074153,1.6604594127935872,0.1,-0.05598881521643285,-0.4297975671222445,-0.0045091770000000005,1.0,12925486.326653307,1.0,0.0,0.0,0.0,0.0
12970095.0,-0.04012908481362725,-0.18556550891583165,-0.06423378723647294,1.0,0.0,1467.281618997996,1500.0,2000.0,1519.5571142284568,1479.4428857715432,1406.1282565130261,19.231503516012026,19.607294074008017,18.531158266633266,18.531214993867735,18.893209796272547,18.710837519378757,19.076339525230463,222.42616285170342,222.42616285170342,12.40444924977956,-0.00035589959118236474,-0.006573139124248497,0.0032258832685370742,0.017510622428857717,-0.005033734236472945,-0.12654465258116232,2.0,-1.0,0.0,11.0,0.0,0.0,1.0,0.0,0.0,0.0,0.0,0.0,0.0,0.0,0.0,-0.23615729711623246,-0.19905201953907817,-0.08852965253707415,8.7303242478497,209.38261576392784,56.71516342126253,-0.001112459741482966,-0.008140439286573146,0.0,-0.005727269372745492,10.130182650332666,0.30395207324048096,-10.24479865282565,-1.05e+21,966.1606340384769,12.404474356432866,0.23211427242084168,0.0345181026693387,0.08844136628657309,12.284316312164329,-0.24783643670140276,-9.81257388448497,0.2759704380601203,0.021276835651302596,-0.2629249966192385,-1.05e+21,1.8487678035951904,1.8367678058236474,0.40059876595991983,3.2796680195611225,13.255057832945893,23.68998371022044,-0.20869849938276552,1.1536223246793587,0.10999999,-73.20082391509018,399.6104961995992,12.404488211102205,96616.36575134269,1.1479622512725451,0.21298855384569165,1.9183931191963925,-2.7994660966873752,0.22996359899198396,0.03632549186973952,0.09172172790781558,0.0,-0.2334301874228457,1.611618,0.6878090462505011,0.0840053227014028,-0.08064421565531062,0.7164756643767535,1.0,398714138.0,327365020.4673347,400130.33731482964,17.524370475871745,0.02,17.534370475871743,-0.07931116115430863,1.5695331272404809,0.0,0.0,0.012314687336673338,39.8714138,32.7364372,-0.19839325534468938,9.14153915591383,0.04268640756112225,-0.6440319660561122,20.21410776160321,0.2837346478036072,-1.5280401278597193,10.92191771248497,0.018229914999999916,1.6548956806573147,0.1,-0.07077393572945892,-0.4105424449018036,-0.0045091770000000005,1.0,12970094.843687374,1.0,0.0,0.0,0.0,0.0
13011120.0,-0.044479343330661336,-0.1734397440821643,-0.05667319294388776,1.0,0.0,1471.227037254509,1500.0,2000.0,1522.1602516032065,1476.8397483967935,1412.803607214429,19.746120680120242,20.131967139078156,18.945740783466935,18.94534483795591,19.31544857737475,19.10328390719439,19.476471072885772,228.84006376533068,228.84006376533068,12.404345102765532,-0.0003344443967935871,-0.006590429368737475,0.003282666256513026,0.016690243951903806,-0.004627308450901802,-0.12650108501603205,2.0,-1.0,0.0,11.0,0.0,0.0,1.0,0.0,0.0,0.0,0.0,0.0,0.0,0.0,0.0,-0.23431293602404807,-0.2111366370721443,-0.09258476846492987,9.585113724821644,209.47635149458918,58.12020426645291,-0.0013571068156312631,-0.00893983697995992,0.0,-0.0057678016893787576,8.960256474565128,-0.06018579417835834,-10.161056144088176,-1.05e+21,966.1617492432865,12.40445655486974,0.25329442195791585,0.07492077311623248,-0.05879819388577187,11.34239103072144,-0.021965875072143676,-10.09940161785972,0.2768826529258517,-0.014439269725451006,-0.34119100639278566,-1.05e+21,1.9992494224669342,1.9872494481102208,0.40059829283967935,3.4131374327835675,13.25514581490982,23.57604240006012,-0.2064179106012024,0.9991102257855708,0.10999999,-74.44118758841684,399.61979500080156,12.40448,96616.25784679358,1.147960962036072,0.7523164774108226,0.8795492370100172,-4.162309487384772,0.252698929983968,0.08646487185571144,-0.05889144187975984,0.0,-0.2189600706573146,1.611618,0.6883751008136273,0.07881949957314628,-0.07566588010621242,0.7170653370761524,1.0,398714138.0,327365111.20901805,400132.6019697395,18.28671835426854,0.004860198647294527,18.29570903763527,-0.08024388491783564,1.5703470789078156,0.0,0.0,0.0,39.8714138,32.7364372,-0.2056897207975952,10.010023798312627,0.04761779703206414,-0.6620421628937876,20.64964809244489,0.273165017018036,-1.2914744847254498,9.82259833787575,-0.03810710674949884,1.6431692265971944,0.1,-0.08577166614028059,-0.38372787515030055,-0.0045091770000000005,1.0,13011120.08016032,1.0,0.0,0.0,0.0,0.0
13052538.0,-0.05164174671743487,-0.16503356605410824,-0.04338553253907816,1.0,0.0,1478.406921238477,1500.0,2000.0,1524.9600274509019,1474.0399725490981,1418.3498788937875,20.23818766480962,20.633674375470942,19.147473984028057,19.146402581923848,19.520462264348698,19.290078318857717,19.666942696452907,233.6466655941884,233.6466655941884,12.404193233827655,-0.0003201196633266533,-0.006598723717434869,0.0033140905891783567,0.015524054605210422,-0.004073377,-0.12642597433867736,2.0,-1.0,0.0,11.0,0.0,0.0,1.0,0.0,0.0,0.0,0.0,0.0,0.0,0.0,0.0,-0.22130774818036072,-0.2237063265751503,-0.09698060847294589,10.51375621220441,209.58552696633268,58.88763444100201,-0.0016113502985971944,-0.009583869452905812,0.0,-0.005465703064128256,7.6799121566252495,-0.7578736925631262,-9.91817535604008,-1.05e+21,966.1625477775551,12.404431550420842,0.27116777957715427,0.06136902442685371,-0.2133352130841683,10.621139281863726,0.24230425069539074,-10.312883455691383,0.26482479222444893,-0.053534022114228454,-0.36265727814829657,-1.05e+21,2.1533172650280563,2.1413173335731464,0.4005974398216433,3.5392959006192384,13.255257225531063,23.48340082975952,-0.2045628487815631,0.87767243948497,0.10999999,-75.53345290376754,399.6207566284569,12.404469314629258,96616.2554233467,1.147960899987976,0.5985924376112226,-0.3408823283086172,-4.081701857004009,0.27201519706613225,0.0750125654509018,-0.20980190822845687,0.0,-0.20504837344288576,1.611618,0.68888568351503,0.0738299316733467,-0.0708759543747495,0.7175972027635271,1.0,398714138.0,327365209.7260521,400134.1398082164,18.848681221763528,-0.025853559344689372,18.85562432028056,-0.062487861875751505,1.5719220882985971,0.0,0.0,0.0,39.8714138,32.7364372,-0.21136062034468936,10.882871758917835,0.05120128745290581,-0.669529634232465,21.031867070961923,0.25907194425651303,-0.7603362691583168,8.690733455326654,0.0458054749779559,1.626953777811623,0.1,-0.10036103339078156,-0.35506941806012027,-0.0045091770000000005,1.0,13052537.659318637,1.0,0.0,0.0,0.0,0.0
13091759.0,-0.05633858205010021,-0.152694309749499,-0.02468969318036069,1.0,0.0,1488.021674961924,1500.0,2000.0,1526.1138593306616,1472.8861406693384,1425.9780495390778,20.665108713066132,21.068947901643288,19.349207184589176,19.34746032278557,19.725475953707416,19.476872733627253,19.857414325511023,238.45326745410821,238.45326745410821,12.404041367995992,-0.0003057949298597194,-0.006607018304609218,0.003345514611222445,0.014357864709418836,-0.003519445238476953,-0.12635086311222446,2.0,-1.0,0.0,11.0,0.0,0.0,1.0,0.0,0.0,0.0,0.0,0.0,0.0,0.0,0.0,-0.20830256002605207,-0.23627601607815635,-0.10137644817034068,11.442398698677357,209.6947024691383,59.65506462104209,-0.001867079044088177,-0.010108546078156314,0.0,-0.004906192691382765,6.598424192462924,-1.292333068162325,-9.694272638336672,-1.05e+21,966.1624286248497,12.404411260460922,0.2777371443306613,0.010737469404809543,-0.3351228340300602,9.70046180838677,0.2562605709238468,-10.34075755729459,0.24876491917034066,-0.0600136028156312,-0.3409332664068135,-1.05e+21,2.3073851075891785,2.2953852190360724,0.400596586492986,3.6654543687655314,13.255368636152305,23.3907592649499,-0.2027077866513026,0.7562346529458916,0.10999999,-76.62571821911826,399.64817043787576,12.40444563509018,96615.93197791584,1.1479570676733466,-0.20739388196392755,-1.1288977842384773,-2.377217199811621,0.279596637993988,0.02604430563727446,-0.3352280203847696,0.0,-0.19160084379358716,1.611618,0.6893478518416833,0.06900346464128256,-0.06624259681362725,0.7180786192705411,1.0,398714138.0,327365308.8470942,400135.6253963928,19.396228474649302,-0.05768770200000005,19.401049288276553,-0.043387377152304576,1.573551848032064,0.0,0.0,0.0,39.8714138,32.7364372,-0.21703055036673347,11.795236408657317,0.05456293535070141,-0.6519122021763527,21.38110228296593,0.25286661431262525,-0.15106902011422726,7.553073265074147,0.1662998421022047,1.6102849813687372,0.1,-0.11389014427254511,-0.3269695763847695,-0.0045091770000000005,1.0,13091759.084168337,1.0,0.0,0.0,0.0,0.0
13130981.0,-0.05813805181362725,-0.1382083332965932,-0.005787543496993999,1.0,0.0,1498.1247616873743,1500.0,2000.0,1529.0666454549096,1469.9333545450904,1430.6613226452905,21.035922188937874,21.446908443767533,19.5509403851503,19.548518068877755,19.930489648296597,19.663667143166332,20.04788595456914,243.25986924849698,243.25986924849698,12.403889495611223,-0.00029147032865731463,-0.00661531341482966,0.0033769391563126254,0.013191674945891784,-0.0029655141322645294,-0.12627575188577153,2.0,-1.0,0.0,11.0,0.0,0.0,1.0,0.0,0.0,0.0,0.0,0.0,0.0,0.0,0.0,-0.19529737252705412,-0.2488457055811623,-0.10577228839078155,12.371041190380762,209.80387790641282,60.42249480108216,-0.002113909032064128,-0.010593022054108215,0.0,-0.004205182166332666,5.827881290150302,-1.5599479858496992,-9.518621280268537,-1.05e+21,966.1609673154309,12.404397859258516,0.2800563458977956,-0.03555731487174346,-0.3911140056973948,8.40613529160922,-0.31127257932064084,-10.192527639114228,0.2273707638517034,-0.01907240453106215,-0.25497551307615235,-1.05e+21,2.4614529501503006,2.449453104498998,0.4005957336873748,3.7916128363887776,13.255480045450902,23.29811770014028,-0.20085272517635272,0.6347968658837676,0.10999999,-77.71798353446894,399.62276783627254,12.404432788316633,96616.23073242485,1.1479607018416833,-0.10460548606412806,-1.1577177037334674,-0.8330982158998007,0.280481259248497,-0.02826688072745489,-0.39956266894589176,0.0,-0.17853991650300602,1.611618,0.6897671436573145,0.06431277212024049,-0.06173957705410822,0.7185153767855712,1.0,398714138.0,327365407.9681363,400137.1110368738,19.943775720981964,-0.08952184413226451,19.946474262825653,-0.024286891905811632,1.5751816072424847,0.0,0.0,0.0,39.8714138,32.7364372,-0.2223634510761523,12.766217151302603,0.057594002529058115,-0.5974002692104209,21.680170396873745,0.25818544886172345,0.5286801399218434,6.438714118925852,0.32906766769739476,1.5932957026392784,0.1,-0.12667525824448897,-0.3021682272184369,-0.0045091770000000005,1.0,13130981.032064129,1.0,0.0,0.0,0.0,0.0
13170202.0,-0.061904280182364727,-0.1281885305771543,0.011572594464929876,1.0,0.0,1507.2019806873748,1500.0,2000.0,1531.0,1468.0,1435.1563126252504,21.330359700861724,21.747145845450902,19.752673585711424,19.749575807615233,20.13550333553107,19.85046156006012,20.238357583627256,248.066471045491,248.066471045491,12.403737623226453,-0.0002771464629258517,-0.006623607763527054,0.00340836293987976,0.012025485917835671,-0.0024115830260521037,-0.12620064068537074,2.0,-1.0,0.0,11.0,0.0,0.0,1.0,0.0,0.0,0.0,0.0,0.0,0.0,0.0,0.0,-0.1822921850280561,-0.2614153950841684,-0.1101681278757515,13.29968367472946,209.9130533462926,61.189924980861726,-0.0023561761402805612,-0.01112043201002004,0.0,-0.0034536069839679355,5.192396523583166,-1.6413384220661316,-9.47644712338477,-1.05e+21,966.1594858963928,12.404384551462927,0.2636906214849699,-0.08029936934669338,-0.3879639017274549,7.156720760368736,-1.0024195883927862,-9.777131451158317,0.209253736755511,0.020790140923847737,-0.16111582352905796,-1.05e+21,2.616211315977956,2.6042115103366736,0.40059494892384767,3.9180125138336677,13.255591154569137,23.206127659378758,-0.19901070020040082,0.5142190939318636,0.10999999,-78.8069769868938,399.60678198557116,12.404418192384771,96616.39774232464,1.1479626702925854,-0.4346216051843693,-0.48632081171743335,1.0307240834709421,0.26486481205210416,-0.06605664790581162,-0.3942799572905811,0.0,-0.16578331339879757,1.611618,0.6901485683026053,0.05972872371543086,-0.05733893965531061,0.7189127029959921,1.0,398714137.98176354,327365507.2611222,400138.6418380762,20.486437533446896,-0.12063221900801605,20.486968563246492,-0.005593526909819634,1.5767734716152304,0.0,0.0,0.0,39.8714138,32.7364372,-0.22551767803006018,13.743426785531062,0.06058026149098197,-0.5411656881503004,21.965980393507014,0.2636056078356714,0.925968853452905,5.530506308452906,0.41977266514028033,1.5785198754609218,0.1,-0.14090551401803608,-0.279230287008016,-0.0045091770000000005,1.0,13170202.218436874,1.0,0.0,0.0,0.0,0.0
