timestamp,control[0],control[1],control[2],control[3],control[4],output[2],output[3],output[4],output[5],output[6],output[7],indicated_airspeed_m_s,true_airspeed_m_s,indicated_airspeed_m_s.1,equivalent_airspeed_m_s,true_airspeed_m_s.1,equivalent_ground_minus_wind_m_s,true_ground_minus_wind_m_s,differential_pressure_raw_pa,differential_pressure_filtered_pa,temperature,gyro_bias[0],gyro_bias[1],gyro_bias[2],accel_bias[0],accel_bias[1],accel_bias[2],instance_count,seq_reached,seq_current,seq_total,item_changed_index,item_do_jump_remaining,valid,warning,finished,failure,stay_in_failsafe,flight_termination,item_do_jump_changed,execution_mode,nav_roll,nav_pitch,nav_bearing,target_bearing,xtrack_error,wp_dist,acceptance_radius,rollspeed_integ,pitchspeed_integ,yawspeed_integ,additional_integ1,x,y,z,temperature.1,pressure,temperature.2,gyro_rad[0],gyro_rad[1],gyro_rad[2],accelerometer_m_s2[0],accelerometer_m_s2[1],accelerometer_m_s2[2],x.1,y.1,z.1,temperature.3,altitude_sp,altitude_filtered,height_rate_setpoint,height_rate,airspeed_sp,airspeed_filtered,airspeed_derivative_sp,airspeed_derivative,throttle_integ,pitch_integ,baro_alt_meter,baro_temp_celcius,baro_pressure_pa,rho,xyz[0],xyz[1],xyz[2],xyz[0].1,xyz[1].1,xyz[2].1,roll_body,pitch_body,yaw_body,q_d[0],q_d[1],q_d[2],q_d[3],thrust_body[0],lat,lon,alt,vel_m_s,vel_n_m_s,vel_e_m_s,vel_d_m_s,cog_rad,ground_contact,maybe_landed,landed,ref_timestamp,ref_lat,ref_lon,x.2,y.2,z.2,vx,vy,vz,ax,ay,az,dist_bottom,roll,pitch,yaw,thrust_body[0].1,timestamp.1,isTakeoff,isClimbing,isDescending,isCruise,isLand
44017585,-0.025569286,-0.101295922,-0.081925497,0.177893135,0.0,1455.0,1500.0,1180.0,1513.0,1486.0,1460.904781,13.23186085,13.55984198,13.39041983,13.27695378,13.6058617,12.81559022,13.13306806,109.78065729999999,109.78065729999999,11.71873856,-0.001698043,-0.005918071,0.000249794,-0.196124661,0.18734120699999998,-0.05687857599999999,2.0,0.48609721899999997,1.4860972190000001,11,0,0,1,0,0.0,0,0,0,0,0,0.002938135,-0.019946387,-0.840770755,-0.784748841,4.531713795,75.289273,39.04761851,-0.030423084,-0.034052793,-0.06667362,0.0,-0.769564818,1.3048307259999998,-5.901274725,82382296.0,953.9837969,11.716712,-0.033162766,-0.269407971,0.091950898,-0.686250455,1.2837422170000001,-5.580589159,-0.032577294,-0.264116767,0.095678315,82382296.0,100.1113287,104.8559772,-0.237221123,-2.070707261,15.37105755,13.3599147,0.04022287,0.085130129,-0.32350782,83.77864367,505.5402562,11.7167069,95398.3721,1.133490481,0.095274351,0.38679858100000003,0.280283231,-0.032742306,-0.236348623,0.09824191800000001,-0.003242408,-0.02457614,-0.837381232,0.913540612,-0.00647566,-0.010564278,-0.40655030200000003,0.18475962899999998,398710093.5,327328809.7,505816.6877,13.82607522,9.029073432999999,-10.47174235,-1.140486097,5.423985135,0,0,0.0,756000,39.871413700000005,32.7364371,-92.49421143,-250.144331,-86.81773342,14.18188008,-9.657331214,-3.425228958,-1.252881002,-2.350847031,0.032428459,86.87703177,-0.00960208,-0.088263005,0.003497096,0.18346474,44017585,0,0,0,1,0
44056051,-0.026666977999999997,-0.092875229,-0.08348989400000001,0.17878905,0.0,1454.0,1500.0,1182.0,1514.0,1485.0,1463.929786,13.19776431,13.52484478,13.37889205,13.26590326,13.59451472,12.81026798,13.12759196,109.6972395,109.6972395,11.71890674,-0.001697202,-0.005917085999999999,0.000249167,-0.196210771,0.18735920600000003,-0.056737009000000005,2.0,0.48869774,1.48869774,11,0,0,1,0,0.0,0,0,0,0,0,0.000502633,-0.020496009,-0.839799257,-0.784574232,4.48856696,74.76664366,38.99564275,-0.030407222999999997,-0.033711538,-0.067075152,0.0,-0.7671866620000001,1.268239793,-6.0420271229999996,79910333.08,953.9769859999999,11.71657844,-0.038501635,-0.27264980899999997,0.08757932199999999,-0.814500555,1.311609648,-5.631679667,-0.031171154,-0.254272433,0.097275728,79910333.08,100.11133000000001,104.7737246,-0.233119815,-2.106211276,15.37100155,13.40427102,0.039334623,0.13162821,-0.323631357,83.49196652,505.5841572,11.71658838,95397.90231,1.133484894,-0.36489538299999996,0.22739277300000002,-0.141249767,-0.028072468,-0.235642381,0.102707047,-0.002029156,-0.025309935,-0.833162713,0.914398315,-0.006048194000000001,-0.011161657,-0.404615641,0.18539728,398710125.2,327328761.9,505858.3433,13.78479496,9.038455122,-10.41357471,-0.9734886979999999,5.427260085,0,0,0.0,756000,39.871413700000005,32.7364371,-91.91213249,-250.5455966,-86.96236832,14.13045556,-9.754838382,-3.4268628,-1.318019826,-2.37047363,0.012940719,87.02166273,-0.005888462,-0.06944674299999999,0.004119395,0.18442413,44056051,0,0,0,1,0
44090517,-0.026693812999999997,-0.08633415,-0.08709113199999999,0.17959739,0.0,1454.0,1500.0,1183.9547910000001,1513.9547910000001,1485.0452089999999,1469.0,13.25215351,13.58069156,13.36736427,13.25485274,13.58316774,12.80494573,13.12211586,109.61382169999999,109.61382169999999,11.71907492,-0.001696361,-0.005916101,0.00024854099999999996,-0.19629688,0.18737720600000002,-0.056595442,2.0,0.49129826,1.49129826,11,0,0,1,0,0.0,0,0,0,0,0,-0.001932869,-0.02104563,-0.8388277590000001,-0.784399623,4.445420125,74.24401432,38.94366698,-0.030393095,-0.033407057000000004,-0.067418315,0.0,-0.7879632440000001,1.276263729,-6.110279442,48401045.71,953.9755326,11.7165203,-0.036674214,-0.271542454,0.093383198,-0.813931831,1.390514746,-5.649387542,-0.036731142,-0.245588805,0.100519596,48401045.71,100.11133000000001,104.687269,-0.228797035,-2.138625611,15.37094847,13.45099687,0.038399042,0.17664033399999998,-0.323756611,83.20381515,505.4735423,11.71649105,95399.12108,1.133499408,-0.04020007,0.24544377399999998,-0.574092328,-0.031984344,-0.22541524300000002,0.10072606699999999,0.000328667,-0.025916544,-0.827763465,0.915490447,-0.005060704,-0.011929755,-0.40213052299999996,0.18616300800000002,398710156.9,327328714.0,505899.9988,13.7435147,9.047836811,-10.35540708,-0.806491298,5.430535035,0,0,0.0,756000,39.871413700000005,32.7364371,-91.33005356,-250.94686230000002,-87.10700322,14.07903104,-9.852345551,-3.428496642,-1.38315865,-2.390100229,-0.006547021,87.1662937,-0.01864753,-0.053238916,0.0043929929999999996,0.18485078,44090517,0,0,0,1,0
44132983,-0.027307828,-0.077091319,-0.089699444,0.18075272,0.0,1454.0,1500.0,1184.0,1511.020204,1487.979796,1473.0,13.24561943,13.57387675,13.35583649,13.24380222,13.57182076,12.79962349,13.11663977,109.53040390000001,109.53040390000001,11.71924311,-0.00169552,-0.005915116999999999,0.000247914,-0.19638299,0.187395206,-0.05645387599999999,2.0,0.49389878,1.49389878,11,0,0,1,0,0.0,0,0,0,0,0,-0.004368370999999999,-0.021595252000000002,-0.837856261,-0.7842250140000001,4.40227329,73.72138498,38.89169122,-0.030378044,-0.033060126,-0.06778978599999999,0.0,-0.8087398259999999,1.284287665,-6.17853176,16891758.34,953.9740792000001,11.71646217,-0.038398796,-0.260422321,0.101282585,-0.765908441,1.3285006240000001,-5.721399279,-0.042291130999999996,-0.236905177,0.103763465,16891758.34,100.11133000000001,104.60081329999998,-0.224474255,-2.171039946,15.37089539,13.49772273,0.037463462,0.221652458,-0.32388186399999996,82.91566378,505.42288590000004,11.716431,95399.72609,1.1335066409999999,0.08722042199999999,-0.029875276,-0.227494639,-0.029693065,-0.219888312,0.10239003099999999,-0.007224755,-0.026319541000000002,-0.831459142,0.914715858,-0.008618091999999999,-0.010578097,-0.40386254200000005,0.186789691,398710188.6,327328666.2,505941.6543,13.70223445,9.057218499,-10.29723945,-0.639493899,5.433809986,0,0,0.0,756000,39.871413700000005,32.7364371,-90.79239641,-251.3285162,-87.24194472,14.0247518,-9.944320457,-3.4332363160000003,-1.4379740559999998,-2.385589055,-0.06523603900000001,87.30123472,-0.014597098000000001,-0.035130945,0.0032310090000000004,0.18568614,44132983,0,0,0,1,0
44171449,-0.029855994,-0.07008107400000001,-0.091717026,0.18262628,0.0,1453.0,1500.0,1185.0,1513.0,1486.0,1478.0,13.14938976,13.4753772,13.34430871,13.2327517,13.56047378,12.79430125,13.11116367,109.4469861,109.4469861,11.71941129,-0.0016946779999999998,-0.005914132,0.000247287,-0.1964691,0.187413205,-0.056312309000000005,2.0,0.4964992999999999,1.4964993,11,0,0,1,0,0.0,0,0,0,0,0,-0.0068038740000000006,-0.022144874,-0.8368847629999999,-0.784050405,4.359126455,73.19875565,38.83971545,-0.030360766,-0.032664467999999995,-0.06820622400000001,0.0,-0.802906125,1.304758417,-6.259602355,14617552.46,953.9778423,11.71644182,-0.038696096,-0.258345478,0.09104139300000001,-0.742410716,1.3007603970000001,-5.893729651,-0.042444732,-0.22909376399999998,0.105590165,14617552.46,100.11133000000001,104.51435759999998,-0.220151476,-2.20345428,15.370842300000001,13.54444858,0.036527882000000005,0.266664582,-0.324007117,82.62751242,505.6719267,11.716431,95396.84297,1.1334723340000001,0.008192811999999999,-0.6777181259999999,0.026475669,-0.02521592,-0.206537621,0.09971423,-0.010264687,-0.026776421,-0.831009055,0.91478841,-0.010098146,-0.010174648,-0.403671921,0.187856417,398710219.7,327328620.4,505959.5451,13.67019604,9.065280056,-10.24567307,-0.489659932,5.436739265,0,0,0.0,756000,39.871413700000005,32.7364371,-90.26082479,-251.70748340000003,-87.37555828,13.97008147,-10.03553748,-3.438401471,-1.491375214,-2.377771144,-0.129295405,87.43484828,-0.021183757999999997,-0.022330876,0.003876166,0.18654993,44171449,0,0,0,1,0
44215831,-0.029047376,-0.060078510999999994,-0.091112835,0.18401209,0.0,1453.0,1500.0,1186.0,1514.0,1485.0,1481.029806,13.21777427,13.54555733,13.33278092,13.22170118,13.549126800000002,12.78897901,13.10568757,109.3635683,109.3635683,11.71957947,-0.0016938370000000001,-0.005913147,0.00024666,-0.19655520899999998,0.187431205,-0.056170742,2.0,0.49909982,1.49909982,11,0,0,1,0,0.0,0,0,0,0,0,-0.009239376,-0.022694495,-0.835913265,-0.7838757959999999,4.31597962,72.67612631,38.78773969,-0.03034918,-0.032321645,-0.06854563,0.0,-0.766322095,1.339612467,-6.355485503,46126839.82,953.9876337000002,11.71646515,-0.037841478,-0.250347387,0.09711566699999999,-0.77579325,1.29931039,-5.959355593,-0.036350819,-0.222290264,0.105779212,46126839.82,100.11133000000001,104.427902,-0.21582869600000001,-2.235868615,15.37078922,13.59117443,0.035592302,0.311676706,-0.32413237100000003,82.33936105,505.59124299999996,11.71643982,95397.79697000001,1.13348371,-0.21479874399999999,-0.16528698,-0.677746327,-0.032101446,-0.19851959600000002,0.10426109300000001,-0.015356266,-0.027141119,-0.832452357,0.9144666570000001,-0.01250768,-0.009305941,-0.404357254,0.188970372,398710250.4,327328575.6,505967.4259,13.64205041,9.072785557000001,-10.19688722,-0.34705541100000004,5.439522942000001,0,0,0.0,756000,39.871413700000005,32.7364371,-89.71625754,-252.1005288,-87.5131387,13.91221665,-10.12953275,-3.4454305960000005,-1.546899889,-2.370355626,-0.19987364800000001,87.57242936,-0.013335768000000001,-0.005509244,0.002757455,0.18707426800000002,44215831,0,0,0,1,0
44256382,-0.024465373,-0.051408018,-0.090125969,0.18446484100000002,0.0,1453.0,1500.0,1186.0,1515.054811,1483.945189,1485.054811,13.26350498,13.59223703,13.32125314,13.21065066,13.53777982,12.78365676,13.10021147,109.28015049999999,109.28015049999999,11.71974766,-0.001692996,-0.0059121619999999995,0.000246034,-0.19664131899999998,0.18744920399999998,-0.056029175,2.0,0.50170034,1.50170034,11,0,0,1,0,0.0,0,0,0,0,0,-0.011674878,-0.023244117,-0.834941767,-0.783701187,4.272832785,72.15349697,38.73576392,-0.030337785,-0.031923744,-0.068923734,0.0,-0.729738065,1.3744665180000002,-6.45136865,77636127.19,953.9974251,11.71648849,-0.031924181,-0.246837704,0.098050981,-0.718712235,1.30772062,-6.018700819,-0.030256905,-0.215486765,0.10596825900000001,77636127.19,100.11133000000001,104.34416759999999,-0.21164197199999998,-2.259694332,15.37074274,13.634847400000002,0.034717911000000004,0.35009455899999997,-0.324247811,82.07787205,505.4112263,11.71648857,95399.86233999999,1.133508268,0.035748607,0.368959259,-0.142545876,-0.032634282,-0.19743793199999998,0.10230257400000001,-0.015860343,-0.027333177,-0.829732809,0.915010655,-0.012764208,-0.009308884,-0.403115834,0.190008487,398710281.2,327328530.8,505975.3067,13.61390478,9.080291058,-10.14810137,-0.20445089,5.44230662,0,0,0.0,756000,39.871413700000005,32.7364371,-89.14624620000001,-252.5211378,-87.65848579,13.84809733,-10.22896758,-3.456109175,-1.6065821869999999,-2.36372795,-0.283215167,87.71777843,-0.029973284,0.009003975,0.0016625610000000001,0.18839854,44256382,0,0,0,1,0
44298848,-0.02642144,-0.042649005999999996,-0.092967051,0.18522003,0.0,1451.920184,1500.0,1187.0,1514.0,1485.0,1489.0,13.13889836,13.464553200000001,13.30972536,13.19960014,13.52643284,12.77833452,13.09473538,109.1967327,109.1967327,11.71991584,-0.001692155,-0.0059111780000000004,0.000245407,-0.19672742899999998,0.187467204,-0.055887609000000005,2.0,0.50430086,1.50430086,11,0,0,1,0,0.0,0,0,0,0,0,-0.01411038,-0.023793738999999998,-0.833970269,-0.7835265779999999,4.22968595,71.63086763,38.68378816,-0.030328359,-0.031511211000000004,-0.069293141,0.0,-0.7456547490000001,1.371641721,-6.544151806,82382296.0,953.9942025,11.71658101,-0.038462208,-0.23927932100000002,0.104424664,-0.730471586,1.31763177,-6.158766505,-0.027556962999999997,-0.20428141600000002,0.105440152,82382296.0,100.11133000000001,104.2637656,-0.20762186,-2.273002545,15.37070434,13.67478182,0.033918451,0.380437158,-0.324351234,81.84903343,505.53752249999997,11.71658258,95398.40302,1.133490836,-0.357394371,-0.246625813,-0.114777189,-0.02671363,-0.18171763800000001,0.09936928099999999,-0.022428921,-0.027374665,-0.832600007,0.914385213,-0.015789411,-0.007981845999999999,-0.404455897,0.190962673,398710312.0,327328485.9,505983.1874,13.58575915,9.08779656,-10.09931552,-0.061846369000000005,5.445090297999999,0,0,0.0,756000,39.871413700000005,32.7364371,-88.57623486,-252.9417469,-87.80383289,13.78397801,-10.3284024,-3.466787754,-1.666264485,-2.357100274,-0.366556685,87.86312749,-0.025706462000000003,0.020824976999999998,0.000557409,0.18974798399999998,44298848,0,0,0,1,0
44341314,-0.027241084,-0.034319831,-0.093470515,0.18617564,0.0,1451.0,1500.0,1188.1048210000001,1517.6855369999998,1481.3144630000002,1492.1048210000001,12.98233438,13.30416664,13.29819758,13.18854962,13.51508586,12.77301228,13.08925928,109.11331489999999,109.11331489999999,11.72008403,-0.001691314,-0.005910193,0.00024478,-0.196813538,0.187485204,-0.055746042,2.0,0.50690138,1.50690138,11,0,0,1,0,0.0,0,0,0,0,0,-0.016545881999999998,-0.02434336,-0.832998771,-0.783351969,4.186539115,71.1082383,38.63181239,-0.030320307,-0.031095222000000002,-0.06967551599999999,0.0,-0.770881904,1.3621349619999998,-6.63638521,82382296.0,953.9886718,11.71668581,-0.030770427000000003,-0.228390299,0.10284363699999999,-0.675895273,1.267678055,-6.230604241,-0.025458909,-0.192295445,0.104784865,82382296.0,100.11133000000001,104.1833637,-0.203601747,-2.286310759,15.37066594,13.71471625,0.033118992,0.410779756,-0.324454658,81.6201948,505.43608489999997,11.71668232,95399.58069,1.1335049179999999,0.64633068,-0.3543007,-0.651248861,-0.036250875,-0.17683270399999998,0.102063216,-0.020143602,-0.02724078,-0.8272292640000001,0.915487087,-0.014695263,-0.008422991,-0.401989538,0.19195446100000002,398710342.7,327328441.1,505991.0682,13.55761352,9.095302061,-10.05052966,0.080758152,5.447873976,0,0,0.0,756000,39.871413700000005,32.7364371,-88.0463455,-253.34375189999997,-87.94142962,13.71931734,-10.4211172,-3.4815518489999997,-1.710739485,-2.3648437330000003,-0.399781171,88.00072462,-0.017439692,0.032381296000000004,-0.00048031699999999996,0.19040781,44341314,0,0,0,1,0
44379560,-0.029969528,-0.026525291,-0.092856466,0.18694874399999997,0.0,1450.0,1500.0,1189.0,1516.0,1483.0,1496.0,13.13000325,13.4554693,13.2866698,13.1774991,13.50373888,12.76769004,13.08378318,109.02989709999999,109.02989709999999,11.72025221,-0.0016904729999999998,-0.005909208000000001,0.000244153,-0.196899648,0.187503203,-0.055604475,2.0,0.5095019000000001,1.5095018999999998,11,0,0,1,0,0.0,0,0,0,0,0,-0.018981384,-0.024892982,-0.832027272,-0.78317736,4.14339228,70.58560896,38.57983663,-0.030307765,-0.030647315,-0.070071105,0.0,-0.7760840990000001,1.358760901,-6.731592513,82382296.0,953.9860405999999,11.71682088,-0.033732071,-0.215918731,0.104270727,-0.789511135,1.3624016780000001,-6.309384939,-0.02517073,-0.18176213100000002,0.103760205,82382296.0,100.11133000000001,104.10296170000001,-0.199581635,-2.2996189719999998,15.37062754,13.75465068,0.032319532000000005,0.441122355,-0.324558081,81.39135618,505.4592221,11.71684846,95399.31358,1.1335016070000001,-0.264837865,-0.098218406,0.269987908,-0.041694046,-0.161516735,0.099035168,-0.018438514,-0.026994517000000003,-0.8223246129999999,0.916482716,-0.013843188999999999,-0.00868518,-0.399734696,0.19285274,398710373.8,327328396.3,505989.0488,13.53438288,9.108424755,-10.00455245,0.214234843,5.45086595,0,0,0.0,756000,39.871413700000005,32.7364371,-87.52669786,-253.741008,-88.07704795,13.65451848,-10.51211663,-3.4973588319999998,-1.751332596,-2.376255638,-0.42021254,88.13634295,-0.022705912999999998,0.046534819000000005,-0.0017626229999999998,0.19164893,44379560,0,0,0,1,0
44422246,-0.030188963,-0.018146496,-0.09623406699999999,0.18775159,0.0,1450.0,1500.0,1190.0,1517.0,1482.0,1499.154831,13.09723767,13.42185822,13.27514202,13.16644858,13.4923919,12.76236779,13.07830709,108.9464794,108.9464794,11.72042039,-0.0016896320000000002,-0.005908223000000001,0.000243527,-0.196985758,0.187521203,-0.055462908,2.0,0.51210242,1.51210242,11,0,0,1,0,0.0,0,0,0,0,0,-0.021416887000000003,-0.025442604,-0.8310557740000001,-0.783002752,4.100245445,70.06297962,38.52786086,-0.030296411000000002,-0.03022658,-0.070436144,0.0,-0.7160379290000001,1.375369331,-6.8364898279999995,82382296.0,953.9928563,11.71705457,-0.03695068,-0.209840267,0.10527095800000001,-0.6739563059999999,1.38416965,-6.4780964999999995,-0.030779762999999998,-0.175962089,0.10153200000000001,82382296.0,100.11133000000001,104.0225598,-0.195561522,-2.312927186,15.37058914,13.79458511,0.031520072999999996,0.471464954,-0.324661505,81.16251755,505.48951339999996,11.71701312,95398.97297999999,1.1334976429999999,-0.15366842,0.014944238,-0.535182615,-0.034574733999999996,-0.163372649,0.097338165,-0.023938479,-0.026528789,-0.824113677,0.916087751,-0.016277448,-0.007358468000000001,-0.400575859,0.193717578,398710405.3,327328351.6,505970.4727,13.51937187,9.130941446,-9.963272283,0.332446476,5.454206274,0,0,0.0,756000,39.871413700000005,32.7364371,-86.99749675,-254.1496317,-88.21620057,13.58733695,-10.60516191,-3.51438824,-1.793921567,-2.381969206,-0.43797792799999996,88.27549557,-0.01789594,0.061316187,-0.00322291,0.192781,44422246,0,0,0,1,0
44456712,-0.03055895,-0.012240455,-0.097325205,0.18915498,0.0,1450.0,1500.0,1191.0,1514.820164,1484.179836,1503.0,13.13972035,13.46534555,13.26361424,13.15539806,13.48104492,12.75704555,13.07283099,108.8630616,108.8630616,11.72058858,-0.00168879,-0.005907238,0.00024290000000000002,-0.197071868,0.187539202,-0.055321342,2.0,0.514702941,1.514702941,11,0,0,1,0,0.0,0,0,0,0,0,-0.023852388999999998,-0.025992225,-0.8300842759999999,-0.7828281429999999,4.05709861,69.54035028,38.4758851,-0.030283946000000003,-0.029771874,-0.07080738,0.0,-0.655991758,1.391977761,-6.941387142999999,82382296.0,953.999672,11.71728827,-0.033803406,-0.20946304899999998,0.104124861,-0.787682806,1.350200799,-6.585315952999999,-0.036388795,-0.17016204699999998,0.099303795,82382296.0,100.11133000000001,103.9419966,-0.19153334800000002,-2.32456613,15.3705465,13.83517099,0.030707501,0.500638592,-0.324763877,80.93729278,505.3541704,11.71720777,95400.52005,1.1335159609999998,-0.662633965,0.267611898,0.387332571,-0.042833080999999995,-0.141737686,0.090669852,-0.026649854,-0.025981721,-0.823352902,0.916223252,-0.01740789,-0.006572786,-0.40023554899999997,0.194494941,398710436.8,327328307.0,505951.8966,13.50436087,9.153458137000001,-9.921992121,0.450658109,5.457546597,0,0,0.0,756000,39.871413700000005,32.7364371,-86.44041552,-254.5914295,-88.36566739,13.51320202,-10.70417768,-3.5349850789999997,-1.8423351069999998,-2.371053162,-0.447963111,88.42496239,-0.030125678,0.07310261,-0.00427019,0.19332603,44456712,0,0,0,1,0
44491178,-0.033372518999999996,-0.005893144,-0.098231969,0.18979359,0.0,1449.0,1500.0,1192.0,1514.0,1485.0,1506.204841,13.15110196,13.47699687,13.25208645,13.14434754,13.46969794,12.75172331,13.06735489,108.7796438,108.7796438,11.72075676,-0.001687949,-0.0059062540000000005,0.000242273,-0.19715797699999998,0.187557202,-0.055179775,2.0,0.517303461,1.517303461,11,0,0,1,0,0.0,0,0,0,0,0,-0.026287891,-0.026541847,-0.8291127779999999,-0.782653534,4.013951774,69.01772094,38.42390933,-0.030267906,-0.029319047,-0.071169796,0.0,-0.620600912,1.408660307,-7.113099437000001,82382296.0,954.0059231,11.71753619,-0.027924056000000003,-0.190593454,0.09963702,-0.722403392,1.408311575,-6.75161128,-0.038417794,-0.164676709,0.096249973,82382296.0,100.11133000000001,103.8604181,-0.18745442399999998,-2.32569774,15.37047723,13.87985748,0.029812387000000003,0.5224541229999999,-0.324859634,80.73481571,505.36923889999997,11.717447300000002,95400.33637,1.133513749,0.27104543,0.269945689,-0.09415307199999999,-0.035667245,-0.142428568,0.090397121,-0.031032365,-0.025391606,-0.82423451,0.916011647,-0.019299896,-0.005416818,-0.400650131,0.195460191,398710468.4,327328262.3,505933.3205,13.48934987,9.175974828,-9.880711959,0.5688697420000001,5.46088692,0,0,0.0,756000,39.871413700000005,32.7364371,-85.88333428,-255.03322740000002,-88.51513421,13.4390671,-10.80319344,-3.555581918,-1.890748647,-2.360137119,-0.457948294,88.57442921,-0.026004305,0.084979056,-0.0053030180000000005,0.19432467,44491178,0,0,0,1,0
44529644,-0.035093603,0.000757603,-0.099203624,0.19099572,0.0,1449.0,1500.0,1193.0,1515.7701539999998,1483.2298460000002,1510.0,13.13582504,13.4613465,13.24055867,13.13329702,13.45835097,12.74640107,13.06187879,108.696226,108.696226,11.72092494,-0.001686908,-0.005905362,0.00024172400000000002,-0.197232254,0.18757005300000001,-0.055055252,2.0,0.519903981,1.519903981,11,0,0,1,0,0.0,0,0,0,0,0,-0.028576035,-0.026188875,-0.8280101879999999,-0.78245584,3.970804582,68.49636693,38.41884059,-0.030260197000000003,-0.028851494,-0.07152417900000001,0.0,-0.600302616,1.4253882230000001,-7.325711963,82382296.0,954.0118285,11.71779283,-0.038477452999999995,-0.18970022600000003,0.103231936,-0.648405011,1.3662968130000002,-6.930757425,-0.038255305,-0.159384015,0.092690756,82382296.0,100.11133000000001,103.7788397,-0.18337550100000002,-2.326829349,15.37040796,13.92454397,0.028917274,0.5442696539999999,-0.32495539,80.53233864,505.4665318,11.71769262,95399.23068,1.133500623,0.248469713,0.095107305,0.146979524,-0.040476002999999997,-0.132092183,0.086910839,-0.028437436,-0.024778242000000002,-0.81841968,0.917201975,-0.017972026000000002,-0.005707828000000001,-0.39797514100000003,0.19645474899999998,398710499.9,327328217.7,505914.7443,13.47433887,9.198491519,-9.839431797,0.687081375,5.464227243,0,0,0.0,756000,39.871413700000005,32.7364371,-85.33262286,-255.481631,-88.66624544,13.36167255,-10.89889988,-3.5778858010000003,-1.934081106,-2.318986572,-0.47873282899999997,88.72553903,-0.027869664,0.09716468199999999,-0.006497946,0.195069193,44529644,0,0,0,1,0
44572221,-0.032057237999999995,0.008573749,-0.100123281,0.19221714,0.0,1448.745149,1500.0,1194.0,1515.254851,1483.745149,1513.254851,13.12976986,13.45512618,13.22903089,13.1222465,13.44700399,12.74107882,13.0564027,108.61280819999999,108.61280819999999,11.72109313,-0.001685737,-0.005904531,0.000241225,-0.19729888,0.18757957600000003,-0.054941748,2.0,0.522504501,1.522504501,11,0,0,1,0,0.0,0,0,0,0,0,-0.030768902999999997,-0.025252329,-0.82682284,-0.7822432220000001,3.927657159,67.97583749,38.44409966,-0.030247997999999998,-0.028375547,-0.071869769,0.0,-0.580457829,1.442270231,-7.537314062999999,82382296.0,954.0177539999999,11.71804975,-0.043557278,-0.174851192,0.102736236,-0.664341761,1.430909456,-7.047242536000001,-0.038137591,-0.154065316,0.08916744900000001,82382296.0,100.11133000000001,103.69726130000001,-0.17929657699999998,-2.327960959,15.37033869,13.96923045,0.028022161,0.566085185,-0.325051147,80.32986156,505.2508136,11.7179846,95401.70417000001,1.133530103,-0.632928782,-0.072352465,0.074686995,-0.03133352,-0.127438435,0.08194324,-0.032426321,-0.024061648999999997,-0.8189620390000001,0.9170628209999999,-0.019660137,-0.004580182,-0.398230966,0.197508725,398710531.5,327328173.0,505895.0928,13.45974794,9.221176235,-9.798571714,0.804032757,5.467552906,0,0,0.0,756000,39.871413700000005,32.7364371,-84.78446573,-255.9326835,-88.81801607,13.28297091,-10.99327929,-3.600874203,-1.975376065,-2.265712075,-0.503847874,88.8773077,-0.021854132000000002,0.107618517,-0.00765768,0.19611403,44572221,0,0,0,1,0
44617153,-0.033183763,0.015656062,-0.100640095,0.19313207,0.0,1448.0,1500.0,1195.0,1517.0,1482.0,1516.0,13.08010877,13.40418419,13.21750311,13.11119598,13.43565701,12.73575658,13.0509266,108.52939040000001,108.52939040000001,11.72126131,-0.001684566,-0.0059037,0.000240726,-0.197365505,0.187589098,-0.054828244000000005,2.0,0.525105021,1.525105021,11,0,0,1,0,0.0,0,0,0,0,0,-0.032961772,-0.024315784,-0.8256354909999999,-0.7820306029999999,3.884509735,67.45530804,38.46935873,-0.030239468,-0.027887454,-0.07221433299999999,0.0,-0.638987538,1.485782287,-7.574296136,82382296.0,954.02714,11.71835343,-0.039560477000000004,-0.177947579,0.09648094300000001,-0.7240984420000001,1.421600356,-7.132069725,-0.045757969,-0.14425259099999999,0.09184997199999999,82382296.0,100.11133000000001,103.6156828,-0.17521765399999997,-2.329092568,15.37026942,14.01391694,0.027127047999999997,0.587900716,-0.325146903,80.12738449,505.2610063,11.71827658,95401.56956,1.13352844,0.5403381979999999,-0.008313276999999999,0.23301052600000002,-0.048909348,-0.113008235,0.088955921,-0.037625441,-0.023145263,-0.820470382,0.9167163229999999,-0.021864038,-0.003108123,-0.398927164,0.19835157,398710564.3,327328128.5,505852.4991,13.45411863,9.247445489,-9.766673335,0.89409878,5.470565802,0,0,0.0,756000,39.871413700000005,32.7364371,-84.24482699,-256.37930780000005,-88.9681979,13.20461485,-11.08604127,-3.623801085,-2.0150551969999997,-2.222785419,-0.532940054,89.02748818,-0.026491811,0.119818732,-0.008812001,0.197456,44617153,0,0,0,1,0
44657043,-0.030829257000000002,0.021807421,-0.10118067,0.19386569,0.0,1447.0,1500.0,1196.0,1514.3048609999998,1484.6951390000002,1518.3048609999998,13.19792949,13.52479708,13.20597533,13.10014546,13.42431003,12.73043434,13.045450500000001,108.4459726,108.4459726,11.72142949,-0.001683395,-0.005902869,0.000240227,-0.197432131,0.18759862100000002,-0.054714741,2.0,0.527705541,1.527705541,11,0,0,1,0,0.0,0,0,0,0,0,-0.035154641,-0.023379237999999997,-0.824448143,-0.781817984,3.841362312,66.9347786,38.49461779999999,-0.030222512000000003,-0.027401102000000004,-0.07256474,0.0,-0.6975172470000001,1.5292943430000001,-7.611278209,82382296.0,954.0365259,11.71865712,-0.051965323,-0.155537286,0.086358466,-0.7121221240000001,1.40499367,-7.2941168339999995,-0.05337834599999999,-0.134439866,0.094532496,82382296.0,100.11133000000001,103.53410440000002,-0.17113873,-2.330224178,15.37020015,14.05860343,0.026231935,0.609716247,-0.32524266,79.92490742,505.21511,11.71859474,95402.09614,1.133534632,0.29734971600000004,-0.147300147,-0.004955668,-0.035834579,-0.102657335,0.080302204,-0.041691731,-0.022196133,-0.8209903820000001,0.916575142,-0.023539185,-0.001855823,-0.39916405299999996,0.19916181600000002,398710597.1,327328084.1,505809.9054,13.44848931,9.273714743,-9.734774955,0.984164802,5.473578697000001,0,0,0.0,756000,39.871413700000005,32.7364371,-83.74609668,-256.8046662,-89.11074973,13.12791837,-11.17103582,-3.6464325239999997,-2.046974543,-2.2295528190000002,-0.581131869,89.17004157,-0.033061065,0.131037176,-0.009904712,0.19851589,44657043,0,0,0,1,0
44691509,-0.032338909,0.027905997999999998,-0.10268866900000001,0.19479219600000003,0.0,1447.0,1500.0,1197.0,1515.0,1484.0,1521.0,13.16000577,13.48598411,13.19444755,13.08909494,13.41296305,12.7251121,13.03997441,108.3625548,108.3625548,11.72159768,-0.001682224,-0.005902038,0.00023972900000000002,-0.197498757,0.187608143,-0.054601237000000004,2.0,0.530306061,1.5303060609999999,11,0,0,1,0,0.0,0,0,0,0,0,-0.03734751,-0.022442692,-0.823260795,-0.781605366,3.798214888,66.41424915,38.51987688,-0.030212102999999997,-0.026912082,-0.072900655,0.0,-0.7135613040000001,1.543768826,-7.669280668,70055440.9,954.0441942,11.71898355,-0.036791651,-0.150983142,0.08982608800000001,-0.654765091,1.40805845,-7.4853977679999995,-0.056815502000000004,-0.12524940699999998,0.09375276199999999,70055440.9,100.11133000000001,103.4444794,-0.166657495,-2.322912243,15.37010355,14.10486373,0.025304797999999996,0.6239138679999999,-0.325342274,79.72849709,505.11304129999996,11.71894938,95403.25565,1.1335484820000001,-0.26648166100000004,0.172352237,-0.299976956,-0.041255901,-0.104300097,0.07519877,-0.039706381,-0.02126147,-0.815995502,0.91759982,-0.022438173999999998,-0.001879031,-0.39686504200000006,0.200245974,398710630.0,327328039.6,505767.3117,13.442860000000001,9.299983997,-9.702876575,1.074230825,5.476591592999999,0,0,0.0,756000,39.871413700000005,32.7364371,-83.24736636,-257.2300245,-89.25330155,13.0512219,-11.25603036,-3.669063963,-2.078893889,-2.23632022,-0.6293236839999999,89.31259497,-0.033338844,0.140551641,-0.010994779,0.1989964,44691509,0,0,0,1,0
44729975,-0.034813857999999996,0.033681807,-0.10382474400000001,0.19551733,0.0,1447.0,1500.0,1198.0,1517.0,1482.0,1524.0,13.13634612,13.46180291,13.20380562,13.09885945,13.42293377,12.7372921,13.05242144,108.5366293,108.5366293,11.72195061,-0.0016810529999999998,-0.005901206,0.00023923,-0.19756538199999998,0.18761766600000002,-0.054487732999999997,2.0,0.532906581,1.532906581,11,0,0,1,0,0.0,0,0,0,0,0,-0.039540378,-0.021506147000000003,-0.822073446,-0.781392747,3.755067465,65.8937197,38.54513595,-0.030203561,-0.026411648,-0.07322915099999999,0.0,-0.663491325,1.5130564990000002,-7.759993996,38546153.53,954.0491893,11.71934537,-0.041116005,-0.146503314,0.086491316,-0.649675152,1.398102213,-7.498295751000001,-0.053742938,-0.117027286,0.087585236,38546153.53,100.11133000000001,103.3531435,-0.162090716,-2.3138049659999997,15.37000115,14.15145866,0.024370851000000002,0.6364917,-0.325442708,79.53337672,505.160468,11.71930769,95402.74181,1.1335424040000002,0.21516742100000003,0.152479069,0.120968935,-0.041545515,-0.096346272,0.074450237,-0.043362812,-0.020345369,-0.8161391809999999,0.91753776,-0.023934421,-0.000732152,-0.396926657,0.20150827,398710662.8,327327995.1,505724.7179,13.43723069,9.326253251,-9.670978196,1.1642968470000001,5.479604489,0,0,0.0,756000,39.871413700000005,32.7364371,-82.75377482,-257.6600971,-89.39702958,12.97315335,-11.33876956,-3.692521502,-2.083229794,-2.1914513209999997,-0.638316631,89.45632507,-0.028565496,0.14973184,-0.011993456000000001,0.20033574,44729975,0,0,0,1,0
44764882,-0.031758497999999996,0.038682454,-0.10449295800000001,0.19678566,0.0,1447.0,1500.0,1198.0,1517.0,1482.0,1526.0,13.21642453,13.54383472,13.23318827,13.12858063,13.45334312,12.7662526,13.08205251,108.9575778,108.9575778,11.72248066,-0.0016798820000000002,-0.005900375,0.00023873099999999997,-0.197632008,0.187627188,-0.05437423,2.0,0.535507101,1.5355071009999999,11,0,0,1,0,0.0,0,0,0,0,0,-0.041733247,-0.020569601,-0.820886098,-0.7811801279999999,3.7119200410000004,65.37319026,38.57039502,-0.030197521,-0.025906317999999998,-0.07355636900000001,0.0,-0.613421346,1.482344172,-7.850707323,7036866.168,954.0541845,11.719707199999998,-0.046365073,-0.138837089,0.083780966,-0.595770767,1.4378651869999999,-7.571957011,-0.050670374000000004,-0.108805166,0.08141771099999999,7036866.168,100.11133000000001,103.26180759999998,-0.157523937,-2.30469769,15.36989875,14.1980536,0.023436905,0.6490695329999999,-0.325543142,79.33825635,505.01263059999997,11.71969763,95404.41969,1.1335623940000001,0.5234079629999999,-0.526158668,0.130252368,-0.037342393,-0.08587146300000001,0.070534713,-0.047230854,-0.019382486,-0.8165690090000001,0.917412938,-0.025517778999999997,0.00048330800000000006,-0.397115929,0.20278705600000002,398710695.7,327327950.7,505682.1242,13.43160137,9.352522505,-9.639079816,1.25436287,5.482617385,0,0,0.0,756000,39.871413700000005,32.7364371,-82.26318952,-258.0929276,-89.54144570000001,12.89428212,-11.42018935,-3.7164623189999997,-2.071429054,-2.116374563,-0.6243777660000001,89.60074355,-0.033054497,0.159103965,-0.013169587,0.20192927,44764882,0,0,0,1,0
44814907,-0.033927594,0.045068963,-0.10455006800000001,0.19797689,0.0,1446.0,1500.0,1200.0,1516.0,1483.0,1529.0,13.12196696,13.44685592,13.26257092,13.15830182,13.48375247,12.7952131,13.11168358,109.37852620000001,109.37852620000001,11.72301071,-0.001678711,-0.0058995440000000005,0.000238232,-0.19769863399999998,0.187636711,-0.054260725999999995,2.0,0.5381076220000001,1.5381076219999998,11,0,0,1,0,0.0,0,0,0,0,0,-0.043926115999999994,-0.019633055,-0.81969875,-0.78096751,3.668772618,64.85266081,38.59565409,-0.030190462,-0.025397059,-0.073871068,0.0,-0.600570669,1.502534372,-7.985613406000001,24472444.64,954.0590429,11.72009605,-0.050130615,-0.118679248,0.08591094,-0.5877877979999999,1.4159625359999999,-7.751410197,-0.048799329,-0.10470119800000001,0.07778982200000001,24472444.64,100.11133000000001,103.17047170000001,-0.152957158,-2.295590414,15.36979635,14.24464854,0.022502957999999997,0.661647365,-0.325643576,79.14313598,504.9841942,11.720094099999999,95404.72905,1.13356603,0.423673942,0.146258365,0.123305115,-0.047726818,-0.078801743,0.072161963,-0.049416749,-0.018142084,-0.8154342459999999,0.9176178420000001,-0.026273417,0.00147457,-0.39658081,0.203648795,398710727.8,327327907.9,505627.987,13.43402594,9.385503101,-9.611208242,1.336375262,5.485817715,0,0,0.0,756000,39.871413700000005,32.7364371,-81.76961091,-258.5299252,-89.68719111,12.81470119,-11.50192186,-3.740838029,-2.0661908490000003,-2.045579875,-0.613132067,89.74649111,-0.033699398,0.166135143,-0.014111163000000001,0.202808323,44814907,0,0,0,1,0
44857373,-0.035763732,0.05077309,-0.105216554,0.19868083399999997,0.0,1445.0,1500.0,1201.0,1516.429886,1482.570114,1531.0,13.15600397,13.48175244,13.29195357,13.188023000000001,13.51416182,12.824173599999998,13.14131464,109.79947469999999,109.79947469999999,11.72354077,-0.00167754,-0.005898713000000001,0.00023773299999999998,-0.19776526,0.187646233,-0.054147222,2.0,0.5407081420000001,1.540708142,11,0,0,1,0,0.0,0,0,0,0,0,-0.046118985,-0.01869651,-0.818511401,-0.780754891,3.625625195,64.33213137,38.62091316,-0.030176982999999998,-0.024882641,-0.074190233,0.0,-0.598422107,1.53736119,-8.133226768,55981732.0,954.0638622000001,11.72049268,-0.043399825999999996,-0.117735748,0.07935847,-0.685496689,1.4151313380000001,-7.861902971,-0.04727377,-0.10178137300000001,0.074892185,55981732.0,100.11133000000001,103.07913570000001,-0.14839037900000002,-2.286483138,15.36969395,14.29124347,0.021569011000000003,0.674225198,-0.32574401,78.94801561,504.7868989,11.72050743,95406.98432999999,1.133592785,0.43784338799999994,-0.198064315,-0.00735402,-0.049542029,-0.070095224,0.068188756,-0.048776484,-0.016897184,-0.811695974,0.918380408,-0.025738482000000003,0.0018673429999999998,-0.394855568,0.204573273,398710759.7,327327865.9,505569.2565,13.43965525,9.421154231000001,-9.584938988,1.415183004,5.489092628,0,0,0.0,756000,39.871413700000005,32.7364371,-81.24557205,-259.0093278,-89.84646341,12.72789821,-11.58683653,-3.7696392530000002,-2.127733907,-2.0183601209999997,-0.629292395,89.90576341,-0.038870554,0.174469409,-0.015162692,0.20383799,44857373,0,0,0,1,0
44891839,-0.037474116,0.05564497400000001,-0.10734400699999999,0.19956866,0.0,1446.0,1500.0,1202.0,1516.454891,1482.545109,1532.454891,13.20709913,13.533987400000001,13.32133622,13.21774418,13.54457117,12.8531341,13.17094571,110.22042320000001,110.22042320000001,11.72407082,-0.001676369,-0.005897881999999999,0.000237234,-0.197831885,0.187655756,-0.054033719,2.0,0.543308662,1.5433086619999998,11,0,0,1,0,0.0,0,0,0,0,0,-0.048311852999999995,-0.017759964,-0.817324053,-0.780542273,3.582477771,63.81160192,38.64617223,-0.030161877,-0.024329155,-0.074530871,0.0,-0.601566519,1.563789556,-8.277792467000001,77273572.63,954.0693858,11.72089501,-0.043781239000000007,-0.11793104800000001,0.07389491,-0.6139833920000001,1.499528257,-7.955901032000001,-0.046604089,-0.09775798,0.072852744,82382296.0,100.11133000000001,102.9940204,-0.144134619,-2.274044787,15.36963079,14.32805503,0.020831516,0.6830324190000001,-0.325833358,78.77749701,504.82061460000006,11.72093986,95406.58116,1.133587994,0.048289131,0.089200921,0.248969385,-0.042915975999999995,-0.059700762000000004,0.07222166,-0.059457552000000004,-0.015546265,-0.8185290690000001,0.916886675,-0.030359402999999997,0.004702013,-0.397957558,0.205343795,398710791.6,327327823.9,505510.5259,13.44528457,9.456805361,-9.558669734,1.4939907469999998,5.49236754,0,0,0.0,756000,39.871413700000005,32.7364371,-80.72153319,-259.48873050000003,-90.00573572,12.64109524,-11.6717512,-3.7984404769999998,-2.189276966,-1.9911403669999999,-0.645452722,90.06503572,-0.032787201,0.183693993,-0.016413427,0.20498696,44891839,0,0,0,1,0
44930305,-0.03237922,0.060379391,-0.107989399,0.200790291,0.0,1445.520104,1500.0,1203.0,1518.0,1481.0,1535.0,13.19025411,13.51679168,13.35071887,13.24746537,13.57498052,12.8820946,13.20057678,110.6413717,110.6413717,11.72460088,-0.001675198,-0.0058970509999999995,0.000236735,-0.19789851100000003,0.18766527800000002,-0.053920215,2.0,0.545909182,1.545909182,11,0,0,1,0,0.0,0,0,0,0,0,-0.050504722,-0.016823419,-0.816136705,-0.7803296540000001,3.539330348,63.29107247,38.67143131,-0.030152158,-0.023873232,-0.074826614,0.0,-0.632063653,1.546816894,-8.406608638,45764285.26,954.07855,11.72132683,-0.045302999000000004,-0.106030424,0.074032396,-0.643430184,1.432991761,-8.0940046,-0.05035736,-0.08803163300000001,0.075248232,82382296.0,100.11133000000001,102.9148288,-0.140175039,-2.258434315,15.369604999999998,14.35555006,0.020281098,0.688248955,-0.325912149,78.63040623,504.62955030000006,11.72137853,95408.82591,1.1336146520000001,-0.565772828,-0.119519721,0.5776015870000001,-0.046544272000000005,-0.059791555,0.062686652,-0.057292693,-0.014097944,-0.8135907720000001,0.9179137709999999,-0.029092136,0.004861725,-0.395681241,0.20610328,398710823.5,327327781.8,505451.7954,13.45091388,9.492456491,-9.53240048,1.57279849,5.495642452999999,0,0,0.0,756000,39.871413700000005,32.7364371,-80.22452735,-259.9515027,-90.15926545,12.5574579,-11.7501735,-3.826357909,-2.210177742,-1.9461897869999998,-0.667209269,90.21856545,-0.036921367000000004,0.191687259,-0.017140144,0.20587361,44930305,0,0,0,1,0
44972771,-0.033076275,0.06488611400000001,-0.108841439,0.20192927,0.0,1445.0,1500.0,1204.0,1516.504901,1482.495099,1537.0,13.25261586,13.58054342,13.38010152,13.27718655,13.60538987,12.911055099999999,13.23020785,111.0623201,111.0623201,11.72513093,-0.001674027,-0.005896219,0.000236236,-0.19796513699999999,0.187674801,-0.05380671099999999,2.0,0.548509702,1.5485097019999998,11,0,0,1,0,0.0,0,0,0,0,0,-0.052697590999999995,-0.015886873,-0.814949357,-0.780117035,3.4961829239999997,62.77054303,38.69669038,-0.030139119,-0.023311875,-0.075170674,0.0,-0.662560788,1.5298442319999999,-8.53542481,14254997.9,954.0877141000001,11.72175864,-0.040364265,-0.097377238,0.073439481,-0.6801952370000001,1.4383247719999999,-8.163855694,-0.054110632,-0.078305286,0.077643721,82382296.0,100.11133000000001,102.8356373,-0.136215458,-2.242823842,15.36957921,14.38304508,0.019730678999999997,0.693465491,-0.325990939,78.48331545,504.61844460000003,11.72184679,95408.92784,1.133615909,0.323694082,0.650308056,-0.062434961,-0.046448685999999996,-0.054011971,0.066717649,-0.061015237,-0.012660831,-0.81403512,0.917783363,-0.030515245,0.006264515,-0.39585745,0.20696826,398710855.4,327327739.8,505393.0648,13.45654319,9.528107622,-9.506131226,1.651606233,5.498917366000001,0,0,0.0,756000,39.871413700000005,32.7364371,-79.74981497,-260.4005603,-90.30805942,12.476431199999999,-11.823241699999999,-3.8535464999999998,-2.197561832,-1.8866170340000001,-0.69358088,90.36735942,-0.038652861000000004,0.196812933,-0.018009736999999998,0.20638800000000002,44972771,0,0,0,1,0
45018475,-0.031383581,0.068221645,-0.107881097,0.20327368,0.0,1446.0,1500.0,1205.0,1519.470094,1479.529906,1538.529906,13.20746306,13.53425299,13.40948417,13.30690774,13.63579922,12.9400156,13.25983892,111.4832686,111.4832686,11.72566098,-0.0016728560000000001,-0.0058953880000000005,0.000235737,-0.198031762,0.18768432300000001,-0.053693208,2.0,0.551110222,1.551110222,11,0,0,1,0,0.0,0,0,0,0,0,-0.05489046,-0.014950327,-0.813762008,-0.779904417,3.4530355010000005,62.25001358,38.72194945,-0.030134831,-0.022847227,-0.075459684,0.0,-0.6795917220000001,1.524818994,-8.625503656,17254312.91,954.0901091,11.72220973,-0.049149839,-0.091856478,0.072489131,-0.639965228,1.566732434,-8.27261252,-0.055320833,-0.070319804,0.075913333,82382296.0,100.11133000000001,102.7564457,-0.132255877,-2.227213369,15.36955342,14.41054011,0.019180261,0.698682027,-0.32606973,78.33622467,504.6042148,11.722321899999999,95409.097,1.133617824,0.5203308289999999,0.272249947,0.11932874199999999,-0.048823225,-0.052297910999999996,0.062216617,-0.060798173,-0.011241323000000001,-0.8108332309999999,0.9184298959999999,-0.03014543,0.006826564,-0.394369597,0.207965607,398710888.1,327327697.3,505328.3963,13.46651723,9.56593115,-9.482034407,1.718827666,5.502154384,0,0,0.0,756000,39.871413700000005,32.7364371,-79.27489368,-260.8499234,-90.45695652,12.39535493,-11.89632271,-3.8807615810000002,-2.184925121,-1.827261969,-0.7197866690000001,90.51625651,-0.042608784000000004,0.203763828,-0.018986001000000002,0.20755032,45018475,0,0,0,1,0
45061704,-0.032740873999999996,0.073191873,-0.108370245,0.20442894,0.0,1445.0,1500.0,1206.0,1518.0,1481.0,1540.0,13.35364874,13.68399695,13.43886682,13.33662892,13.66620857,12.968976099999999,13.28946999,111.90421709999998,111.90421709999998,11.72619104,-0.001671685,-0.005894557,0.00023523900000000002,-0.19809838800000001,0.18769384600000003,-0.053579704000000006,2.0,0.553710742,1.5537107419999998,11,0,0,1,0,0.0,0,0,0,0,0,-0.057113152,-0.013726766999999999,-0.812823018,-0.779879908,3.4210795089999997,61.72503042,38.77188468,-0.030125591,-0.022330026,-0.075769888,0.0,-0.685497285,1.529664359,-8.683578887000001,48763600.28,954.0869116,11.72267673,-0.053101015999999994,-0.083766792,0.067855396,-0.594747615,1.455192866,-8.283938043,-0.054430025,-0.063772571,0.07077427,82382296.0,100.11133000000001,102.6772541,-0.128296296,-2.211602896,15.36952764,14.43803514,0.018629843,0.703898563,-0.326148521,78.18913389,504.4996766,11.72280893,95410.30602999999,1.1336323,-0.645381855,0.106838999,0.060472809,-0.051735885999999995,-0.043926720999999995,0.063620458,-0.062368882,-0.009839676,-0.809355333,0.918710846,-0.030596767,0.007755626999999999,-0.393667186,0.20907471,398710922.1,327327654.2,505254.2795,13.48340442,9.607211312,-9.461394279,1.767613423,5.505331107000001,0,0,0.0,756000,39.871413700000005,32.7364371,-78.76856923,-261.3452147,-90.62135586,12.3068295,-11.97132802,-3.911958303,-2.16916205,-1.8006272,-0.721068167,90.68065427,-0.0340131,0.209953317,-0.020218743,0.20855752100000002,45061704,0,0,0,1,0
45104170,-0.039838794,0.076787695,-0.107592503,0.2054055,0.0,1445.0,1500.0,1206.0,1517.0,1482.0,1542.0,13.32350938,13.653163199999998,13.46824947,13.366350099999998,13.69661792,12.9979366,13.31910105,112.32516559999999,112.32516559999999,11.72672109,-0.001670514,-0.005893726,0.00023474,-0.19816501399999997,0.187703368,-0.05346619999999999,2.0,0.556311262,1.556311262,11,0,0,1,0,0.0,0,0,0,0,0,-0.059363270999999995,-0.01223927,-0.812112417,-0.7800283859999999,3.399415134,61.19595163,38.84451206,-0.030115512,-0.021779851,-0.076105883,0.0,-0.691402848,1.534509724,-8.741654118,80272887.64,954.0837141000001,11.72314374,-0.044919808,-0.07196842,0.07097141,-0.631116416,1.4867535809999999,-8.435743164,-0.053539218,-0.057225338,0.065635208,82382296.0,100.11133000000001,102.5988269,-0.124374934,-2.194797309,15.36948808,14.46383547,0.018113044,0.7082970040000001,-0.326224161,78.04611901,504.5443149,11.72329556,95409.75877,1.13362576,-0.14219233,0.564771673,0.405338536,-0.049444420999999995,-0.0341941,0.06297034,-0.06619006200000001,-0.008461834,-0.809996917,0.918536199,-0.03207799,0.009151081,-0.393926581,0.21028876300000002,398710956.0,327327611.0,505180.1626,13.50029161,9.648491474,-9.440754151,1.81639918,5.508507829,0,0,0.0,756000,39.871413700000005,32.7364371,-78.26224477,-261.840506,-90.78575519,12.21830408,-12.04633332,-3.943155025,-2.1533989780000002,-1.77399243,-0.7223496640000001,90.84505203,-0.035426727000000005,0.215017832,-0.021296662999999997,0.20964810000000003,45104170,0,0,0,1,0
45142636,-0.033739198,0.08005617799999999,-0.108115,0.20587361,0.0,1444.0,1500.0,1208.0,1515.0,1484.0,1544.0,13.29597594,13.6247937,13.49763212,13.39607129,13.72702727,13.0268971,13.34873212,112.74611409999999,112.74611409999999,11.72725115,-0.0016693429999999998,-0.005892895,0.000234241,-0.19823164,0.18771289100000002,-0.053352697000000004,2.0,0.558911782,1.5589117819999998,11,0,0,1,0,0.0,0,0,0,0,0,-0.06161339,-0.010751772,-0.8114018159999999,-0.7801768640000001,3.3777507589999995,60.66687285,38.91713944,-0.030104636,-0.021298541,-0.076403979,0.0,-0.670432418,1.524436902,-8.833537916000001,82382296.0,954.1001302000001,11.72375224,-0.050744759,-0.072548928,0.063100835,-0.6412384210000001,1.511224902,-8.498941286,-0.056328254,-0.053552608,0.064847982,82382296.0,100.11133000000001,102.5234615,-0.12060665,-2.1732049069999997,15.369393400000002,14.48284804,0.017730902,0.709418718,-0.326287183,77.91942943,504.4778767,11.72381291,95410.52292,1.133634854,0.50197028,-0.061457302000000005,-0.14469532699999998,-0.054187643,-0.033650291,0.063369824,-0.07025057900000001,-0.0068722769999999996,-0.810973133,0.918290684,-0.033624781,0.010697237,-0.394331015,0.21108731,398710990.0,327327567.9,505106.0458,13.5171788,9.689771637,-9.420114023,1.865184937,5.511684551,0,0,0.0,756000,39.871413700000005,32.7364371,-77.77831302,-262.3206511,-90.94555665,12.13260675,-12.11659083,-3.97373971,-2.148969534,-1.727059029,-0.729295745,91.00485338,-0.040206724,0.22169497300000002,-0.022202048,0.21102849399999998,45142636,0,0,0,1,0
45177102,-0.034996012,0.083820918,-0.108905031,0.20694375,0.0,1444.0,1500.0,1209.0,1517.0,1482.0,1545.0,13.39732439,13.72871981,13.52701477,13.42579247,13.75743662,13.0558576,13.37836319,113.1670625,113.1670625,11.727781199999999,-0.001668172,-0.005892064,0.000233742,-0.198298265,0.187722413,-0.053239193,2.0,0.561512302,1.561512302,11,0,0,1,0,0.0,0,0,0,0,0,-0.063863508,-0.009264274,-0.810691215,-0.780325342,3.356086385,60.13779406,38.98976681,-0.030088342,-0.020751362,-0.07674737400000001,0.0,-0.647533665,1.5132937169999998,-8.92784744,82382296.0,954.1179536000001,11.7243709,-0.050704855,-0.066661003,0.066381707,-0.657883048,1.548038505,-8.656894311,-0.059381314000000004,-0.050086121,0.064372996,82382296.0,100.11133000000001,102.44809599999999,-0.116838365,-2.151612505,15.36929872,14.50186061,0.01734876,0.710540432,-0.326350205,77.79273984,504.41296090000003,11.724317999999998,95411.25583,1.133643565,0.402807542,0.736723928,0.262617531,-0.047128897999999995,-0.023540214,0.066369338,-0.074051645,-0.005298669000000001,-0.8117132359999999,0.918092841,-0.035055357,0.012182258,-0.394624039,0.21196042699999998,398711024.0,327327524.7,505031.929,13.53406599,9.731051799,-9.399473895,1.913970694,5.514861272999999,0,0,0.0,756000,39.871413700000005,32.7364371,-77.32012676,-262.78338199999996,-91.10007179,12.05016096,-12.18138969,-4.0036207180000005,-2.157570663,-1.6567877469999999,-0.74275455,91.15937009999999,-0.042212785999999995,0.22663579600000003,-0.023383459,0.21195427,45177102,0,0,0,1,0
45227568,-0.03168158,0.087732307,-0.11034960199999999,0.20820501,0.0,1445.0,1500.0,1210.0,1517.654931,1481.345069,1546.0,13.28712078,13.61577227,13.55639742,13.45551366,13.78784597,13.0848181,13.40799426,113.58801100000001,113.58801100000001,11.72831125,-0.001667001,-0.005891232,0.000233243,-0.19836489100000002,0.18773193600000002,-0.053125689000000004,2.0,0.564112823,1.564112823,11,0,0,1,0,0.0,0,0,0,0,0,-0.06611362700000001,-0.007776776,-0.8099806140000001,-0.78047382,3.33442201,59.60871527,39.06239419,-0.030078231,-0.020254522,-0.07707082900000001,0.0,-0.6201931470000001,1.4977796330000002,-9.014945206,82382296.0,954.1329993999999,11.72495605,-0.04969147,-0.062119306,0.059831971,-0.643051969,1.516749806,-8.767258292000001,-0.060812844000000005,-0.045215242999999995,0.064761351,82382296.0,100.11133000000001,102.3727305,-0.113070081,-2.130020104,15.36920403,14.52087317,0.016966618,0.711662146,-0.326413227,77.66605026,504.2523848999999,11.72485351,95413.0931,1.133665409,0.289523143,0.22089535100000002,-0.02002293,-0.051867582,-0.017584788,0.06071163,-0.07489358,-0.0037922259999999997,-0.8097171190000001,0.918480445,-0.035155646,0.013008303,-0.39367482600000003,0.213002038,398711057.9,327327481.7,504957.5895,13.55116524,9.772544014,-9.379363872999999,1.962226344,5.518026888,0,0,0.0,756000,39.871413700000005,32.7364371,-76.86194049,-263.2461129,-91.25458694,11.96771517,-12.24618855,-4.033501726,-2.166171793,-1.586516466,-0.756213355,91.31388682,-0.043964381,0.23191560600000002,-0.024708826,0.21336093899999997,45227568,0,0,0,1,0
45262034,-0.032773178,0.08988297599999999,-0.110868365,0.20890513,0.0,1444.0,1500.0,1211.0,1518.0,1481.0,1548.0,13.43027743,13.762348699999999,13.58578007,13.48523484,13.81825532,13.1137786,13.43762533,114.0089595,114.0089595,11.72884131,-0.00166583,-0.005890401,0.000232744,-0.198431517,0.187741458,-0.053012185999999996,2.0,0.566713343,1.5667133430000002,11,0,0,1,0,0.0,0,0,0,0,0,-0.068363746,-0.006289279,-0.809270013,-0.7806222979999999,3.312757635,59.07963648,39.13502157,-0.030068701,-0.019758376,-0.077394053,0.0,-0.5833491479999999,1.4729136880000002,-9.086612887000001,82382296.0,954.1421024,11.72546952,-0.053028764000000006,-0.056737595999999994,0.064634807,-0.537049908,1.455529251,-8.855574543,-0.05877499,-0.037339568999999996,0.066996888,82382296.0,100.11133000000001,102.2973651,-0.10930179699999999,-2.1084277019999997,15.36910935,14.53988574,0.016584476,0.71278386,-0.326476249,77.53936067,504.12694689999995,11.72538919,95414.55551,1.133682715,0.128207635,-0.46433589,0.775230148,-0.056784489,-0.01207134,0.060008208,-0.074186439,-0.002354267,-0.8063594079999999,0.9191675290000001,-0.034572625,0.01346806,-0.392114911,0.21421439999999997,398711091.5,327327440.4,504879.5323,13.57180556,9.817577115,-9.368105621,2.0016302059999997,5.521007041,0,0,0.0,756000,39.871413700000005,32.7364371,-76.37535246,-263.75177,-91.42429889,11.88033034,-12.31197278,-4.0684416930000005,-2.173288173,-1.5417032119999998,-0.778271342,91.48359525,-0.038348545,0.23572574899999998,-0.025623963,0.21486577,45262034,0,0,0,1,0
45304500,-0.034407311,0.091739475,-0.109381652,0.21042734,0.0,1444.0,1500.0,1213.0,1519.0,1480.0,1549.0,13.43450488,13.76663947,13.61516272,13.51495603,13.84866467,13.1427391,13.467256400000002,114.42990800000001,114.42990800000001,11.72937136,-0.001664659,-0.00588957,0.000232245,-0.198498142,0.187750981,-0.052898682,2.0,0.569313863,1.569313863,11,0,0,1,0,0.0,0,0,0,0,0,-0.070613864,-0.004801781,-0.808559412,-0.7807707759999999,3.2910932610000003,58.550557700000006,39.20764895,-0.030057979,-0.019267076,-0.077710951,0.0,-0.546505149,1.4480477440000001,-9.158280567,82382296.0,954.1512052999999,11.725983,-0.047759688,-0.046661592,0.071037067,-0.6160468339999999,1.54340599,-8.865542089,-0.056737135999999994,-0.029463895,0.069232425,82382296.0,100.11133000000001,102.22199959999999,-0.10553351300000001,-2.0868352999999997,15.36901467,14.55889831,0.016202334,0.713905573,-0.326539271,77.41267109,504.1960427,11.72592491,95413.74442,1.1336730959999999,0.37863587200000004,0.486121717,0.558724937,-0.054042953,-0.009106758000000001,0.06079076,-0.08390935199999999,-0.000958113,-0.81263545,0.9177635609999999,-0.038715257999999995,0.016139574,-0.39489861299999995,0.21555058600000002,398711125.1,327327399.1,504801.4751,13.59244588,9.862610215,-9.356847369,2.041034068,5.523987194,0,0,0.0,756000,39.871413700000005,32.7364371,-75.88641977,-264.2609708,-91.59526538,11.79253776,-12.37783836,-4.103799295,-2.180281981,-1.498991611,-0.801039224,91.65455781,-0.049108463,0.23756878899999997,-0.026137069,0.21573070000000003,45304500,0,0,0,1,0
45361932,-0.036461152000000004,0.09567076199999999,-0.11031415,0.21180723699999998,0.0,1443.0,1500.0,1214.0,1516.7299460000002,1482.2700539999998,1550.0,13.35686145,13.68700228,13.64454537,13.54467721,13.87907402,13.171699599999998,13.49688746,114.8508564,114.8508564,11.72990142,-0.0016634879999999999,-0.0058887390000000005,0.000231746,-0.198564768,0.187760503,-0.052785177999999995,2.0,0.571914383,1.5719143830000002,11,0,0,1,0,0.0,0,0,0,0,0,-0.072863983,-0.003314283,-0.8078488109999999,-0.7809192540000001,3.269428886,58.02147891,39.28027632,-0.03004567,-0.01875648,-0.07802920599999999,0.0,-0.5487172020000001,1.4606739169999998,-9.231837064,60200548.72,954.1612372000002,11.72650495,-0.057718224000000005,-0.043229973,0.066943166,-0.522929607,1.5143323359999998,-9.00660434,-0.057654366,-0.022428693,0.06903667,60200548.72,100.11133000000001,102.1428849,-0.10157776800000001,-2.059204474,15.36900099,14.584296900000002,0.015694087,0.712876772,-0.326594826,77.29304869,504.1836262,11.72646038,95413.89867000001,1.133674975,-0.34194637899999997,-0.032067113,0.251420885,-0.050498343,-0.006399981999999999,0.060231967000000004,-0.081897042,0.000584813,-0.8081092,0.918708207,-0.037525632,0.016363128,-0.39280883899999997,0.21655704399999998,398711158.7,327327357.8,504723.4179,13.61308619,9.907643315,-9.345589118,2.08043793,5.526967347,0,0,0.0,756000,39.871413700000005,32.7364371,-75.4153687,-264.7569909,-91.76259688,11.70755387,-12.43958427,-4.138137748,-2.176150943,-1.458475432,-0.818912333,91.82188748,-0.042486174,0.24125258100000002,-0.027108535,0.21694529,45361932,0,0,0,1,0
45402865,-0.032583522999999996,0.09853519699999999,-0.111389604,0.21256986,0.0,1444.0,1500.0,1215.0,1520.0,1479.0,1550.0,13.48170591,13.81489743,13.67392802,13.57439839,13.90948337,13.2006601,13.52651853,115.2718049,115.2718049,11.73043147,-0.0016623170000000002,-0.005887908000000001,0.000231248,-0.198631394,0.187770026,-0.052671675,2.0,0.574514903,1.574514903,11,0,0,1,0,0.0,0,0,0,0,0,-0.075114102,-0.001826785,-0.80713821,-0.781067732,3.247764511,57.49240012,39.3529037,-0.030034399,-0.018254746000000002,-0.078365545,0.0,-0.567352527,1.489065721,-9.306187817,28691261.36,954.1716597000001,11.72703048,-0.053532061,-0.03440223,0.06427382,-0.623670327,1.558346345,-9.111325743,-0.059814224000000006,-0.015746913,0.067818543,28691261.36,100.11133000000001,102.0632943,-0.097598225,-2.030807093,15.36899761,14.61050617,0.015169831000000002,0.7115749709999999,-0.32664943399999996,77.17432344,503.9089915,11.72701339,95417.02428,1.133712128,-0.311367163,0.17100142399999999,-0.224538808,-0.050136817,-0.000711693,0.060453861,-0.078557136,0.002103049,-0.802447584,0.9198891509999999,-0.035739501,0.016303532,-0.390205745,0.217611415,398711192.2,327327316.5,504645.3607,13.63372651,9.952676416000001,-9.334330866,2.119841792,5.5299475,0,0,0.0,756000,39.871413700000005,32.7364371,-74.97320882,-265.23171510000003,-91.92405535,11.62710794,-12.49467404,-4.170829572,-2.154045585,-1.4215063769999998,-0.8288770000000001,91.98334753,-0.044699582,0.244453196,-0.028345884,0.21836123,45402865,0,0,0,1,0
45451898,-0.033509483,0.10086019,-0.11302709,0.21405375,0.0,1444.0,1500.0,1216.0,1517.559912,1481.440088,1551.0,13.5294362,13.86375638,13.70331068,13.60411958,13.93989272,13.2296206,13.556149599999998,115.6927534,115.6927534,11.73096152,-0.001661146,-0.005887076,0.000230749,-0.19869802,0.18777954800000002,-0.052558170999999994,2.0,0.577115423,1.5771154230000002,11,0,0,1,0,0.0,0,0,0,0,0,-0.07736422,-0.00033928699999999997,-0.8064276090000001,-0.78121621,3.226100137,56.96332133,39.42553108,-0.030027664,-0.01775756,-0.07868565599999999,0.0,-0.581825146,1.515012906,-9.38033634,2818049.457,954.1818494999999,11.72755699,-0.051855537,-0.028437202,0.067546396,-0.624756185,1.43937239,-9.11783181,-0.061802218,-0.009395684,0.066375801,2818049.457,100.11133000000001,101.9837037,-0.09361868300000001,-2.002409712,15.36899422,14.63671543,0.014645576,0.710273171,-0.326704042,77.05559819,503.7861222,11.72756241,95418.42611,1.133728651,-0.128302566,-0.27604648,-0.133355099,-0.051617669000000005,0.0044461579999999995,0.060818485,-0.084997024,0.003603124,-0.805736558,0.9191361229999999,-0.038378067,0.018314629,-0.391632958,0.21871643600000001,398711225.8,327327275.3,504567.3035,13.65436682,9.997709516,-9.323072615,2.1592456540000002,5.532927653,0,0,0.0,756000,39.871413700000005,32.7364371,-74.53104894,-265.7064392,-92.08551383,11.54666201,-12.54976381,-4.203521395,-2.131940228,-1.384537322,-0.8388416670000001,92.14480758,-0.034644066,0.245916561,-0.029001454,0.21898058,45451898,0,0,0,1,0
45486364,-0.040967857,0.10299456900000001,-0.113206549,0.21573070000000003,0.0,1443.0,1500.0,1217.0,1515.0,1484.0,1552.0,13.55869374,13.89355372,13.73269333,13.63384076,13.97030207,13.258581099999999,13.58578067,116.11370190000001,116.11370190000001,11.73149158,-0.001659975,-0.005886245,0.00023025,-0.198764645,0.187789071,-0.052444667,2.0,0.579715943,1.579715943,11,0,0,1,0,0.0,0,0,0,0,0,-0.079614339,0.00114821,-0.805717008,-0.7813646879999999,3.2044357619999997,56.43424254,39.49815846,-0.030016771,-0.017268351,-0.079006639,0.0,-0.55391605,1.516070721,-9.452425892,34327336.82,954.1896712000001,11.72809361,-0.056168445,-0.021744452,0.064877241,-0.600424766,1.4392741930000001,-9.210502802999999,-0.062040415,-0.00640989,0.06264618400000001,34327336.82,100.11133000000001,101.904113,-0.08963914099999999,-1.974012331,15.36899083,14.6629247,0.01412132,0.70897137,-0.32675865,76.93687294,503.7578831,11.72812031,95418.74902999999,1.1337325740000002,-0.280647168,0.351056704,-0.110463515,-0.054368647,0.009611081,0.061184879000000005,-0.086948623,0.005119162,-0.80506427,0.919241195,-0.038983813,0.019380323,-0.391274271,0.219797517,398711260.4,327327233.6,504484.06200000003,13.67909968,10.04137828,-9.311814363,2.179549737,5.535669672999999,0,0,0.0,756000,39.871413700000005,32.7364371,-74.06422629999999,-266.2204637,-92.26180636,11.4637852,-12.60475382,-4.23863089,-2.10082373,-1.318646494,-0.8268270790000001,92.32110036,-0.048370236,0.24862413,-0.029970377000000003,0.22042036,45486364,0,0,0,1,0
45520831,-0.033511407,0.10274548,-0.11143876900000001,0.2163133,0.0,1443.170034,1500.0,1218.0,1516.170034,1482.829966,1553.0,13.62215604,13.95865309,13.76207598,13.66356195,14.00071142,13.287541599999999,13.61541174,116.53465039999999,116.53465039999999,11.73202163,-0.0016588039999999998,-0.005885414,0.000229751,-0.198831271,0.187798593,-0.052331164000000006,2.0,0.582316463,1.5823164630000002,11,0,0,1,0,0.0,0,0,0,0,0,-0.081864458,0.002635708,-0.805006407,-0.781513166,3.182771388,55.90516376,39.57078583,-0.030000117000000003,-0.016782072,-0.07931948700000001,0.0,-0.526006955,1.517128536,-9.524515444,65836624.18,954.1974928,11.72863022,-0.055104787,-0.025910222000000004,0.061017151,-0.554209258,1.555232084,-9.299873522999999,-0.062278612000000004,-0.003424095,0.058916567,65836624.18,100.11133000000001,101.8245224,-0.085659599,-1.94561495,15.36898744,14.68913397,0.013597063999999999,0.7076695690000001,-0.32681325699999997,76.81814769,503.66606210000003,11.72867427,95419.82874,1.133745368,0.04591906,-0.40761424799999996,0.49334288,-0.056743802999999995,0.012277989,0.052294531,-0.090686195,0.006575658000000001,-0.80611202,0.918973162,-0.040406401,0.020801503,-0.39168846,0.22102738600000002,398711295.3,327327191.7,504398.8746,13.70536875,10.08453491,-9.300556111,2.192684402,5.538322303999999,0,0,0.0,756000,39.871413700000005,32.7364371,-73.59273652,-266.7419253,-92.44090605,11.38044838,-12.65972496,-4.274197902,-2.06800198,-1.247282561,-0.8106531770000001,92.50020005,-0.040481144,0.250881825,-0.030347304,0.22153063399999998,45520831,0,0,0,1,0
