,timestamp,control[0],control[1],control[2],control[3],control[4],output[2],output[3],output[4],output[5],output[6],output[7],indicated_airspeed_m_s,true_airspeed_m_s,air_temperature_celsius,indicated_airspeed_m_s.1,equivalent_airspeed_m_s,true_airspeed_m_s.1,equivalent_ground_minus_wind_m_s,true_ground_minus_wind_m_s,differential_pressure_raw_pa,differential_pressure_filtered_pa,temperature,gyro_bias[0],gyro_bias[1],gyro_bias[2],accel_bias[0],accel_bias[1],accel_bias[2],instance_count,seq_reached,seq_current,seq_total,item_changed_index,item_do_jump_remaining,valid,warning,finished,failure,stay_in_failsafe,flight_termination,item_do_jump_changed,execution_mode,nav_roll,nav_pitch,nav_bearing,target_bearing,xtrack_error,wp_dist,acceptance_radius,rollspeed_integ,pitchspeed_integ,yawspeed_integ,additional_integ1,x,y,z,temperature.1,pressure,temperature.2,gyro_rad[0],gyro_rad[1],gyro_rad[2],accelerometer_m_s2[0],accelerometer_m_s2[1],accelerometer_m_s2[2],x.1,y.1,z.1,temperature.3,altitude_sp,altitude_filtered,height_rate_setpoint,height_rate,airspeed_sp,airspeed_filtered,airspeed_derivative_sp,airspeed_derivative,throttle_integ,pitch_integ,baro_alt_meter,baro_temp_celcius,baro_pressure_pa,rho,xyz[0],xyz[1],xyz[2],xyz[0].1,xyz[1].1,xyz[2].1,roll_body,pitch_body,yaw_body,q_d[0],q_d[1],q_d[2],q_d[3],thrust_body[0],lat,lon,alt,vel_m_s,vel_n_m_s,vel_e_m_s,vel_d_m_s,cog_rad,ground_contact,maybe_landed,landed,ref_timestamp,ref_lat,ref_lon,x.2,y.2,z.2,vx,vy,vz,ax,ay,az,dist_bottom,roll,pitch,yaw,thrust_body[0].1,timestamp.1,isTakeoff,isClimbing,isDescending,isCruise,isLand
957,51004475,-0.002461739,-0.062822795,0.011306481,0.15005457,0.0,1506.0,1500.0,1151.0,1501.8313660000001,1497.1686339999999,1472.0,14.68147023,15.04458993,11.72413507,14.81501183,14.72683179,15.09096975,14.60377773,14.96487368,133.3134572,133.3134572,11.72505464,-0.001431564,-0.0059900909999999995,0.000330783,-0.20874083699999998,0.194276563,-0.057227645,2.0,0.48869774,1.48869774,11,0,0,1,0,0.0,0,0,0,0,0,-0.014737693,0.006094230999999999,-0.716870076,-0.71855557,-0.319980702,53.66905971,42.10330686,-0.024366929,-0.022542927999999997,0.024640699,0.0,-0.8506444959999999,0.305924491,-6.503561287999999,11.72419827,954.1134892000001,11.72419827,0.012681612,-0.205844503,0.009374123,-0.89451543,0.306260194,-6.273594488,0.01835202,-0.190733657,-0.035548585,11.72419827,100.0343797,104.32080390000002,-0.21287886,-1.196698355,15.3707668,14.30131216,0.021389089,-0.798853629,-0.35601917,81.10749906,504.40714519999995,11.72413507,95411.3631,1.133644862,0.647739726,-0.15440795699999998,-0.746606592,0.020628399,-0.179256965,-0.034320172999999995,-0.005043252,0.007611608000000001,-0.712840074,0.937144753,-0.001034959,0.0044472109999999995,-0.348908661,0.168390047,398710675.3,327327285.6,504780.8286,15.00609822,11.62609822,-9.467317462999999,-0.497567514,5.599680152,0,0,0.0,764000,39.8714138,32.7364368,-37.54513724,-317.26529910000005,-104.5559755,11.548860699999999,-9.454645999,-0.032497602,-0.764569818,0.219291335,3.200564125,104.7261355,0.06623805,0.139187518,-0.000417622,0.16587418,51004475,0,0,0,1,0
958,51045227,-0.002406482,-0.057629344000000006,0.012076498,0.15079787,0.0,1507.0,1500.0,1151.2418480000001,1499.725545,1499.274455,1475.0,14.631437400000001,14.9933068,11.72405232,14.79902548,14.71094074,15.0746728,14.59096629,14.95173244,133.0498566,133.0498566,11.72517743,-0.0014313770000000002,-0.005989576999999999,0.000329688,-0.208745908,0.194273782,-0.057133374,2.0,0.49129826,1.49129826,11,0,0,1,0,0.0,0,0,0,0,0,-0.013924388000000001,0.006452754000000001,-0.717270895,-0.7188014559999999,-0.30288766699999997,53.16735468,42.08283165,-0.024335087000000002,-0.022166645,0.024688629,0.0,-0.822963349,0.301824415,-6.612721205,-1.64e+20,954.1111686,11.72412566,0.009672341999999999,-0.198685065,-0.00758244,-0.918552186,0.401841359,-6.387915934,0.014762791,-0.18724403899999997,-0.045997786,-1.64e+20,100.0344325,104.2847757,-0.211298658,-1.264582248,15.37077807,14.30704545,0.021274647999999997,-0.750182372,-0.356179827,80.91247740000001,504.31084749999997,11.72405232,95412.46363,1.133657918,-0.114046723,0.292711686,-0.24770282100000002,0.015167591999999999,-0.17374600199999998,-0.049728877000000005,-0.007391345,0.008254606999999999,-0.71593475,0.9365993429999999,-0.00201409,0.0051630090000000005,-0.350350311,0.16940862899999998,398710711.8,327327246.8,504793.4167,14.97637628,11.59637628,-9.460324065,-0.380428086,5.598795207,0,0,0.0,764000,39.8714138,32.7364368,-37.144889500000005,-317.5935241,-104.5588083,11.52187078,-9.448347872000001,0.07287001,-0.7526262309999999,0.191435666,3.128928573,104.72896829999999,0.07669770299999999,0.143988902,0.00501876,0.16674477,51045227,0,0,0,1,0
959,51084752,-0.000815309,-0.052969277,0.014964372,0.15167406,0.0,1507.0,1500.0,1152.0,1502.0,1497.0,1477.0,14.53927695,14.89877795,11.72400697,14.78303913,14.69504969,15.05837585,14.57815485,14.93859121,132.786256,132.786256,11.72530022,-0.001431189,-0.005989062,0.000328593,-0.20875098,0.19427100100000003,-0.05703910400000001,2.0,0.49389878,1.49389878,11,0,0,1,0,0.0,0,0,0,0,0,-0.013111082,0.006811276999999999,-0.7176717140000001,-0.719047342,-0.285794632,52.66564965,42.06235645,-0.024301599,-0.021784279,0.024728542000000003,0.0,-0.794344507,0.297765107,-6.726197411,-3.53e+20,954.1097435,11.72406046,0.01750076,-0.198837485,-0.024031507999999997,-0.858915047,0.437581724,-6.452470044,0.010397273,-0.183911577,-0.055332725,-3.53e+20,100.0344853,104.2487474,-0.209718457,-1.3324661420000001,15.37078934,14.31277874,0.021160208,-0.7015111140000001,-0.35634048399999996,80.71745574,504.4049438,11.72400697,95411.37251,1.133644928,-0.324015717,-0.154228101,-0.639347236,0.017051826000000003,-0.163460093,-0.060161165,-0.004909920999999999,0.009118899,-0.7148684559999999,0.93678782,-0.00070423,0.005131303,-0.349856281,0.170084431,398710748.3,327327208.0,504806.0048,14.94665433,11.56665433,-9.453330666,-0.263288658,5.597910262,0,0,0.0,764000,39.8714138,32.7364368,-36.74943055,-317.9179626,-104.56004449999999,11.49549459,-9.442736243999999,0.175734625,-0.74946914,0.16370084,3.054879445,104.7302045,0.064994068,0.149781435,0.00039698699999999996,0.1676105,51084752,0,0,0,1,0
960,51116891,-0.005387106,-0.047903472999999995,0.014485339,0.15224797,0.0,1508.0,1500.0,1153.0,1500.0,1499.0,1480.0,14.54726025,14.90707534,11.723999000000001,14.76705278,14.67915864,15.042078899999998,14.565343400000001,14.92544997,132.5226554,132.5226554,11.72542301,-0.001431002,-0.005988548000000001,0.000327498,-0.20875605100000003,0.19426822,-0.056944833,2.0,0.4964992999999999,1.4964993,11,0,0,1,0,0.0,0,0,0,0,0,-0.012297777,0.0071698000000000005,-0.718072532,-0.719293227,-0.268701598,52.16394462,42.04188124,-0.024266219,-0.021397479,0.024780788999999998,0.0,-0.768948546,0.293628178,-6.83709916,-5.32e+20,954.1087571,11.72400024,0.01790467,-0.19006865399999998,-0.033544374,-0.858551423,0.406439457,-6.535255526,0.00648923,-0.18031933600000002,-0.064540986,-5.32e+20,100.03453809999999,104.21271920000001,-0.20813825600000002,-1.4003500359999999,15.370800599999999,14.31851203,0.021045767000000003,-0.652839856,-0.356501141,80.52243408,504.28182999999996,11.723999000000001,95412.74685,1.133661315,0.24206640899999998,0.282584157,0.074768914,0.012933153999999999,-0.170135717,-0.066873029,-0.006796806,0.010000034,-0.717425286,0.9363360079999999,-0.00142555,0.005877183,-0.35104561,0.170780999,398710784.9,327327169.2,504818.5929,14.91693239,11.53693239,-9.446337267,-0.14614923,5.597025317999999,0,0,0.0,764000,39.8714138,32.7364368,-36.3522765,-318.24390539999996,-104.5606561,11.46910988,-9.43735612,0.27863616,-0.7463954270000001,0.134142449,2.979423697,104.730816,0.074363396,0.155976007,0.005745679,0.16922668,51116891,0,0,0,1,0
961,51153029,-0.004847912,-0.042855005,0.015443432,0.152894756,0.0,1508.0,1500.0,1154.0,1502.0,1497.0,1482.0,14.53903987,14.89853389,11.723999000000001,14.75106643,14.66326759,15.02578194,14.55253196,14.91230874,132.2590548,132.2590548,11.7255458,-0.0014308139999999999,-0.005988034000000001,0.000326403,-0.20876112300000002,0.19426544,-0.056850563,2.0,0.49909982,1.49909982,11,0,0,1,0,0.0,0,0,0,0,0,-0.011201751999999999,0.007959398000000001,-0.7181758770000001,-0.7193101270000001,-0.264385296,51.64372527,42.05105202,-0.024235037999999997,-0.021009202999999997,0.024845698,0.0,-0.796603746,0.28821354899999996,-6.905623304,-5.32e+20,954.1149918,11.72402198,0.012122261,-0.181227815,-0.053550889000000004,-0.877992683,0.39806278700000003,-6.681225617000001,0.010111594,-0.172450918,-0.07166404700000001,-5.32e+20,100.03456209999999,104.165926,-0.20589165899999998,-1.450590558,15.37074937,14.33166061,0.02078177,-0.609934636,-0.356653358,80.33827874,504.37932570000004,11.723999000000001,95411.67282,1.133648451,0.501709981,-0.687800613,0.043102258,0.011653093,-0.15522186400000001,-0.076964561,-0.004949536,0.010901061,-0.716896787,0.936428725,-0.00040487,0.005973715,-0.350802324,0.171514715,398710821.5,327327130.2,504829.065,14.88819466,11.50753852,-9.44,-0.031142227999999997,5.596117469,0,0,0.0,764000,39.8714138,32.7364368,-35.92721996,-318.59461170000003,-104.55098509999999,11.44258477,-9.435786745,0.382145444,-0.744694175,0.07456676599999999,2.8808138710000004,104.7211433,0.066325632,0.161632988,0.0029308409999999996,0.16984096199999998,51153029,0,0,0,1,0
962,51189167,-0.00038592300000000004,-0.038140857,0.018152566999999998,0.15364039,0.0,1509.0,1500.0,1154.0,1499.883777,1499.116223,1484.883777,14.35256417,14.70757399,11.72403609,14.73508008,14.64737655,15.00948499,14.53972052,14.899167499999999,131.9954542,131.9954542,11.72566859,-0.001430627,-0.00598752,0.000325308,-0.208766194,0.19426265899999998,-0.056756292,2.0,0.50170034,1.50170034,11,0,0,1,0,0.0,0,0,0,0,0,-0.010006451,0.008900365,-0.718174765,-0.719246618,-0.26455548100000004,51.11700471,42.07063285,-0.024203627999999998,-0.020619198000000002,0.024929562000000002,0.0,-0.8242589459999999,0.28279892100000004,-6.974147447999999,-5.32e+20,954.1212266000001,11.72404371,0.016731204,-0.17680364399999998,-0.062244510999999995,-0.896331975,0.306964471,-6.743157025,0.013733958000000001,-0.1645825,-0.07878710900000001,-5.32e+20,100.03458499999999,104.11873979999999,-0.20362072899999997,-1.5001868580000002,15.37069586,14.34507995,0.020512311999999998,-0.567239955,-0.35680526799999995,80.15452016,504.4194119,11.72403609,95411.19178,1.133642839,0.03952362,0.263531909,-0.387604766,0.019087088999999998,-0.15648262300000002,-0.083526212,-0.00140135,0.011808095,-0.7150144629999999,0.9367545070000001,0.00141034,0.005778199,-0.34992947700000004,0.17229997600000002,398710858.9,327327089.8,504819.0994,14.86896298,11.48131345,-9.44,0.06326865400000001,5.594988402999999,0,0,0.0,764000,39.8714138,32.7364368,-35.50216341,-318.94531800000004,-104.5413142,11.41605966,-9.43421737,0.485654727,-0.742992923,0.014991083,2.7822040439999998,104.71147049999999,0.07184453,0.166590407,0.006207001,0.17060912,51189167,0,0,0,1,0
963,51222612,-0.004112944,-0.033578783,0.017872603,0.154240404,0.0,1510.0,1500.0,1155.0,1499.0,1500.0,1487.294259,14.5567566,14.91674669,11.72410206,14.71909373,14.631485500000002,14.99318804,14.52690908,14.88602626,131.7318536,131.7318536,11.72579139,-0.00143044,-0.005987006,0.000324213,-0.208771266,0.194259878,-0.056662022,2.0,0.50430086,1.50430086,11,0,0,1,0,0.0,0,0,0,0,0,-0.008811151,0.009841333,-0.7181736540000001,-0.71918311,-0.264725666,50.59028415,42.09021367,-0.024177835,-0.02023555,0.025011816,0.0,-0.8297759379999999,0.276298206,-7.0437834520000004,-5.32e+20,954.1268636,11.72408177,0.00979186,-0.17405948699999998,-0.071201785,-0.783756948,0.29436911600000004,-6.842548482000001,0.016288819,-0.15827433300000002,-0.084798615,-5.32e+20,100.0346078,104.07155350000001,-0.201349799,-1.549783158,15.37064234,14.35849929,0.020242853999999998,-0.524545273,-0.356957177,79.97076159,504.3736109,11.72410206,95411.70739,1.13364895,0.765177135,-0.087610171,0.320653087,0.01638991,-0.144714233,-0.090094429,-0.001725693,0.012721896000000002,-0.716322336,0.9365238509999999,0.0014225960000000001,0.006261485,-0.350539471,0.17312957699999998,398710896.3,327327049.4,504809.1338,14.84973131,11.45508838,-9.44,0.157679536,5.593859336,0,0,0.0,764000,39.8714138,32.7364368,-35.08572754,-319.2893499,-104.5295162,11.39080537,-9.433548382,0.585298022,-0.7262838290000001,-0.037697846,2.682998492,104.69967170000001,0.06015282,0.171476355,0.001572399,0.1710921,51222612,0,0,0,1,0
964,51257444,-0.0007476830000000001,-0.02850435,0.019919396000000002,0.1548076,0.0,1511.0,1500.0,1156.0,1500.0,1499.0,1490.0,14.41000768,14.76643542,11.72416804,14.70310738,14.61559445,14.97689109,14.51409763,14.87288503,131.4682531,131.4682531,11.72591418,-0.0014302520000000001,-0.0059864919999999995,0.000323118,-0.208776338,0.194257097,-0.056567752,2.0,0.50690138,1.50690138,11,0,0,1,0,0.0,0,0,0,0,0,-0.007615851,0.0107823,-0.718172542,-0.719119602,-0.264895851,50.06356359,42.10979449,-0.024148052000000003,-0.019851855,0.025116579,0.0,-0.769027218,0.26654653899999997,-7.116747555,-5.32e+20,954.1307113,11.7241687,0.008418543,-0.167211984,-0.08448215199999999,-0.8236346379999999,0.287311081,-6.884044543,0.015648351,-0.156636422,-0.087482931,-5.32e+20,100.03463070000001,104.0243673,-0.199078869,-1.599379458,15.37058883,14.37191863,0.019973396,-0.481850592,-0.35710908700000005,79.78700301,504.4276756,11.72416804,95411.10083,1.133641684,-0.280472021,0.513214474,-0.634076062,0.011000872,-0.137354481,-0.08387486599999999,-0.0014127870000000002,0.013718575,-0.717043627,0.936393783,0.001745934,0.0066730209999999995,-0.350876979,0.17369247,398710933.8,327327009.1,504799.1682,14.83049964,11.42886331,-9.44,0.252090418,5.592730269,0,0,0.0,764000,39.8714138,32.7364368,-34.69509571,-319.6134035,-104.5113517,11.36935499,-9.435574496000001,0.6733693590000001,-0.664652158,-0.06977283599999999,2.582009771,104.68150899999999,0.069765577,0.17672006899999998,0.006754635,0.17212752,51257444,0,0,0,1,0
965,51297583,0.000601129,-0.022774687000000002,0.021764178999999998,0.155294396,0.0,1511.0,1500.0,1156.0,1500.0,1499.0,1492.115223,14.43057931,14.78747305,11.72428344,14.68712102,14.599703400000001,14.96059414,14.50128619,14.85974379,131.20465249999998,131.20465249999998,11.72603697,-0.001430065,-0.005985978,0.000322023,-0.20878140899999997,0.194254316,-0.056473481,2.0,0.5095019000000001,1.5095018999999998,11,0,0,1,0,0.0,0,0,0,0,0,-0.00642055,0.011723266999999999,-0.71817143,-0.719056094,-0.265066035,49.53684304,42.12937532,-0.024119877,-0.019461995,0.025239547,0.0,-0.708278498,0.25679487100000004,-7.189711658999999,-5.32e+20,954.134559,11.72425563,0.01542557,-0.164714392,-0.082280924,-0.8582919090000001,0.264747316,-7.04215879,0.015007883,-0.154998511,-0.090167248,-5.32e+20,100.0346536,103.9771811,-0.196807939,-1.6489757580000002,15.37053531,14.38533797,0.019703938,-0.439155911,-0.357260997,79.60324443,504.2446875,11.72428344,95413.21496,1.133666773,-0.334564285,0.659681759,1.04885174,0.015173368999999999,-0.136117049,-0.08907894400000001,-0.001230897,0.01474849,-0.717814637,0.93625511,0.002014955,0.007122469,-0.351236541,0.17433776,398710971.2,327326968.7,504789.2026,14.81126797,11.40263824,-9.44,0.3465013,5.5916012020000005,0,0,0.0,764000,39.8714138,32.7364368,-34.30446387,-319.9374572,-104.4931872,11.34790461,-9.437600611,0.761440696,-0.603020487,-0.101847826,2.48102105,104.6633463,0.07946539700000001,0.180430045,0.006737299,0.17267874,51297583,0,0,0,1,0
966,51337721,-0.002304265,-0.017126238999999998,0.022129087000000002,0.15633997,0.0,1511.0,1500.0,1157.0,1500.0,1499.0,1494.525705,14.490198699999999,14.84844465,11.72440962,14.67113467,14.58381235,14.94429718,14.48847475,14.84660256,130.94105190000002,130.94105190000002,11.72615976,-0.0014298770000000002,-0.005985464,0.000320928,-0.20878648100000002,0.194251535,-0.056379211,2.0,0.51210242,1.51210242,11,0,0,1,0,0.0,0,0,0,0,0,-0.00522525,0.012664235,-0.718170318,-0.718992585,-0.26523622,49.01012248,42.14895614,-0.024088605,-0.019074896,0.025376044,0.0,-0.67507936,0.26821166399999996,-7.2560533529999995,-5.32e+20,954.1341462000001,11.72436674,0.010350758,-0.154221912,-0.09376784199999999,-0.8088755990000001,0.201547025,-7.056287262000001,0.014015018999999998,-0.151039255,-0.088947891,-5.32e+20,100.034673,103.9256239,-0.19430593399999999,-1.6950132709999999,15.37049145,14.40274086,0.019355004,-0.397389008,-0.357415264,79.41798026,504.31124919999996,11.72440962,95412.40959,1.133657214,-0.244918329,0.26281472,0.231162211,0.011599095,-0.128530022,-0.084788666,-0.001545785,0.015781411999999998,-0.7190708140000001,0.936031154,0.002053278,0.007659883,-0.351822151,0.1750229,398711008.6,327326928.3,504779.237,14.792036300000001,11.37641317,-9.44,0.44091218200000004,5.590472136,0,0,0.0,764000,39.8714138,32.7364368,-33.90066073,-320.2734959,-104.4702644,11.32676698,-9.440963831,0.84875723,-0.559780096,-0.126941701,2.402839056,104.64042359999999,0.067953643,0.183918919,0.007207399000000001,0.17324844,51337721,0,0,0,1,0
967,51373860,-0.00046806800000000003,-0.012581505,0.023327027,0.15737432,0.0,1511.0,1500.0,1157.0,1500.0,1499.0,1497.0,14.45459322,14.81194851,11.72454554,14.65514832,14.567921300000002,14.92800023,14.47566331,14.83346132,130.6774513,130.6774513,11.72628255,-0.00142969,-0.00598495,0.000319833,-0.208791552,0.194248754,-0.05628494,2.0,0.514702941,1.514702941,11,0,0,1,0,0.0,0,0,0,0,0,-0.0040299490000000006,0.013605202,-0.7181692059999999,-0.7189290770000001,-0.265406405,48.48340192,42.16853697,-0.024055194,-0.018685942,0.02553512,0.0,-0.676439254,0.306182819,-7.3140876960000005,-5.32e+20,954.1283889,11.72450818,0.016872908,-0.14657289199999998,-0.088510901,-0.815896009,0.180228739,-7.165632357000001,0.0125801,-0.144168033,-0.08283164700000001,-5.32e+20,100.0346836,103.8630522,-0.19122161699999998,-1.732082642,15.37047191,14.43018228,0.018805787,-0.357960107,-0.357575474,79.22892197,504.20029789999995,11.72454554,95413.71459,1.133672755,-0.239104078,0.030892469,0.255207409,0.011327398999999998,-0.127078782,-0.077777777,0.004131362,0.016859342,-0.7152308540000001,0.936692825,0.004885653,0.007173204,-0.35004463399999997,0.175653397,398711045.3,327326888.5,504763.3843,14.77542108,11.3508421,-9.442616523,0.528781756,5.589240364,0,0,0.0,764000,39.8714138,32.7364368,-33.48033511,-320.6245692,-104.4413726,11.30602166,-9.446004357,0.935126916,-0.539610283,-0.143278252,2.3532665109999997,104.61153,0.07679526099999999,0.18879924,0.0066676769999999995,0.17400333,51373860,0,0,0,1,0
968,51409998,-0.002432707,-0.007882743000000001,0.023456023,0.15758348,0.0,1512.0,1500.0,1157.0,1500.0,1499.0,1499.0,14.48488289,14.84302912,11.72471601,14.63916197,14.55203025,14.91170328,14.46285186,14.82032009,130.4138507,130.4138507,11.72640534,-0.001429503,-0.005984436,0.000318738,-0.208796624,0.19424597300000002,-0.05619067,2.0,0.517303461,1.517303461,11,0,0,1,0,0.0,0,0,0,0,0,-0.0028346490000000003,0.01454617,-0.718168095,-0.7188655690000001,-0.26557659,47.95668136,42.18811779,-0.024028498,-0.018296708999999998,0.025698727,0.0,-0.677799149,0.344153975,-7.372122039,-5.32e+20,954.1226314999999,11.72464962,0.0090948,-0.149680077,-0.085657115,-0.7436510129999999,0.18674676899999998,-7.188797966,0.011145181,-0.137296811,-0.076715403,-5.32e+20,100.0346941,103.8004805,-0.188137301,-1.769152013,15.37045237,14.45762371,0.01825657,-0.318531206,-0.35773568299999997,79.03986367,504.3116683,11.72471601,95412.41362,1.133657257,-0.177490526,-0.140537873,-0.513360232,0.014269107,-0.120676764,-0.06596973,-0.001631699,0.017922217,-0.721093372,0.935667107,0.0023983679999999997,0.008674203,-0.352764284,0.17635911199999998,398711081.0,327326849.7,504737.6835,14.76318264,11.32636503,-9.449609922,0.605709142,5.587836789,0,0,0.0,764000,39.8714138,32.7364368,-33.06000949,-320.97564239999997,-104.4124808,11.28527634,-9.451044883,1.021496602,-0.51944047,-0.159614803,2.303693967,104.58263640000001,0.065133635,0.19227350399999998,0.007343431,0.17445022,51409998,0,0,0,1,0
969,51442136,-0.000565132,-0.003298195,0.024045792000000003,0.15785119,0.0,1513.0,1500.0,1158.0,1498.0,1501.0,1501.0,14.40626426,14.76241701,11.72489739,14.62317562,14.5361392,14.89540633,14.45004042,14.80717885,130.1502501,130.1502501,11.72652813,-0.001429315,-0.005983921999999999,0.000317644,-0.208801695,0.19424319199999998,-0.056096399000000005,2.0,0.519903981,1.519903981,11,0,0,1,0,0.0,0,0,0,0,0,-0.001639349,0.015487137,-0.7181669829999999,-0.718802061,-0.265746775,47.429960799999996,42.20769862,-0.023999347,-0.017907672,0.025875431,0.0,-0.713716556,0.33416925199999997,-7.457161913999999,-4.11e+20,954.1242739,11.72481873,0.011998374,-0.138901865,-0.069171948,-0.81615109,0.203977112,-7.273822936,0.012132986,-0.130134281,-0.067607659,-4.11e+20,100.0347047,103.7379088,-0.185052985,-1.806221383,15.37043283,14.48506513,0.017707353999999998,-0.279102305,-0.35789589299999996,78.85080538,504.2210077,11.72489739,95413.47374,1.1336698570000001,0.020988392,0.36217823,-0.003805559,0.012304592,-0.11190530300000001,-0.05649127599999999,0.004322175,0.01897117,-0.7169720690000001,0.936377476,0.005351676,0.008124226,-0.35085947,0.17713490899999998,398711116.7,327326810.9,504711.9828,14.75094419,11.30188796,-9.456603321000001,0.682636527,5.5864332139999995,0,0,0.0,764000,39.8714138,32.7364368,-32.66113369,-321.31019910000003,-104.3802181,11.26730988,-9.457976164,1.098644919,-0.503702348,-0.185194809,2.231685735,104.55037420000001,0.069428575,0.19640775800000002,0.0067282209999999995,0.175167505,51442136,0,0,0,1,0
970,51474275,-0.000502944,0.000772213,0.024145242999999997,0.15803692,0.0,1512.0,1500.0,1158.0,1500.0,1499.0,1504.0,14.32449028,14.67871602,11.72510976,14.60718927,14.52024815,14.87910938,14.43722898,14.79403762,129.8866495,129.8866495,11.72665092,-0.0014291279999999998,-0.005983408000000001,0.000316549,-0.208806767,0.194240411,-0.056002129000000005,2.0,0.522504501,1.522504501,11,0,0,1,0,0.0,0,0,0,0,0,-0.00044404800000000006,0.016428104,-0.718165871,-0.718738552,-0.26591696,46.90324024,42.22727944,-0.023974388,-0.017519165,0.026057972999999998,0.0,-0.7693506379999999,0.29682346,-7.557609708999999,-2.22e+20,954.1301381000001,11.72500364,0.014109111,-0.13315854300000002,-0.075056781,-0.7919497790000001,0.24602836399999997,-7.404883973,0.014503068000000001,-0.122805546,-0.056793123,-2.22e+20,100.0347152,103.6753371,-0.181968668,-1.843290754,15.37041329,14.51250656,0.017158137,-0.23967340399999998,-0.35805610299999996,78.66174709,504.1850398,11.72510976,95413.90782000001,1.13367504,-0.005162777,0.833469535,0.002848486,0.013845961,-0.11398118800000001,-0.05253312,0.010883928000000001,0.019978028000000002,-0.7124469059999999,0.937139623,0.008584086999999999,0.0074651809999999996,-0.348765041,0.178078405,398711152.3,327326772.0,504686.2821,14.73870574,11.27741089,-9.463596719,0.7595639129999999,5.585029638,0,0,0.0,764000,39.8714138,32.7364368,-32.27449601,-321.6353322,-104.346032,11.25092888,-9.465986211,1.170532015,-0.490492711,-0.216048637,2.146876895,104.51619000000001,0.072266068,0.200059054,0.00663668,0.17578584,51474275,0,0,0,1,0
971,51512827,0.001424996,0.006357779,0.025512394,0.158725801,0.0,1513.0,1500.0,1159.0,1498.0,1501.0,1506.0,14.34572705,14.70039573,11.72530863,14.59120292,14.50435711,14.86281242,14.42441754,14.78089638,129.62304890000001,129.62304890000001,11.72677371,-0.00142894,-0.005982894,0.000315454,-0.208811838,0.19423763,-0.055907859000000004,2.0,0.525105021,1.525105021,11,0,0,1,0,0.0,0,0,0,0,0,0.000751252,0.017369072,-0.7181647590000001,-0.718675044,-0.266087144,46.37651969,42.24686026,-0.023941219,-0.017125359,0.026231297999999997,0.0,-0.824984721,0.259477668,-7.658057502999999,-3.22e+19,954.1360023,11.72518854,0.015642273999999998,-0.13180988300000002,-0.063185273,-0.822285898,0.16743244699999998,-7.4931635739999995,0.01687315,-0.115476811,-0.045978588,-3.22e+19,100.03472579999999,103.61276540000001,-0.178884352,-1.880360125,15.37039375,14.53994798,0.01660892,-0.200244504,-0.35821631200000004,78.47268879999999,504.1691472,11.72530863,95414.07903,1.13367709,0.497399245,-0.40810884,-0.199305755,0.01365527,-0.104207735,-0.039002088,0.004657188,0.020958086,-0.7187091390000001,0.936061437,0.005864855,0.008990624000000001,-0.35167266799999997,0.17911849600000002,398711188.0,327326733.2,504660.5813,14.72646729,11.25293382,-9.470590117999999,0.836491298,5.583626063,0,0,0.0,764000,39.8714138,32.7364368,-31.88785834,-321.9604654,-104.311846,11.23454788,-9.473996258,1.24241911,-0.477283074,-0.246902465,2.062068055,104.4820057,0.060862458,0.202802769,0.007257362,0.17626587,51512827,0,0,0,1,0
972,51546552,-0.001133189,0.010682461,0.024745793999999998,0.15918401,0.0,1512.0,1500.0,1160.0,1500.0,1499.0,1508.0,14.33309369,14.68741359,11.72556568,14.57521657,14.48846606,14.84651547,14.411606099999998,14.76775515,129.3594483,129.3594483,11.72689651,-0.0014287529999999998,-0.00598238,0.000314359,-0.20881691,0.194234849,-0.055813588,2.0,0.527705541,1.527705541,11,0,0,1,0,0.0,0,0,0,0,0,0.001946552,0.018310039,-0.718163648,-0.7186115359999999,-0.266257329,45.84979913,42.26644109,-0.023914154,-0.016732184,0.026409137000000003,0.0,-0.832959883,0.23462316,-7.749514924,-1.57e+20,954.1411214999999,11.72541839,0.008896869,-0.126374383,-0.053131562,-0.7321785390000001,0.231183555,-7.550918332,0.018370201,-0.115038315,-0.033865815,-1.57e+20,100.03473000000001,103.551036,-0.175815445,-1.907575297,15.370355199999999,14.56846978,0.016037713000000002,-0.167014505,-0.35836178399999996,78.30832164,504.1302875,11.72556568,95414.50326,1.1336821609999999,-0.136501835,-0.195839729,-0.0187767,0.015370413999999999,-0.100123675,-0.03296656,0.011427481000000001,0.021918722999999998,-0.7139425070000001,0.936865095,0.00918311,0.008272568000000001,-0.349469569,0.18023135699999998,398711223.7,327326694.4,504634.8806,14.71422885,11.22845675,-9.477583517000001,0.913418684,5.582222487999999,0,0,0.0,764000,39.8714138,32.7364368,-31.476323200000003,-322.308586,-104.2690017,11.21868518,-9.48340625,1.310256651,-0.444442709,-0.24563377100000003,1.9430385630000002,104.43916170000001,0.069548253,0.206938998,0.00639454,0.17731938,51546552,0,0,0,1,0
973,51586690,0.000591759,0.015554368,0.025482026,0.15987524,0.0,1513.0,1500.0,1160.0,1498.0,1501.0,1510.3990800000001,14.32211704,14.67615256,11.72580984,14.55923021,14.47257501,14.83021852,14.39879465,14.75461391,129.0958478,129.0958478,11.727019300000002,-0.001428566,-0.005981866,0.000313264,-0.20882198100000002,0.19423206899999998,-0.055719318,2.0,0.530306061,1.5303060609999999,11,0,0,1,0,0.0,0,0,0,0,0,0.003141853,0.019251006,-0.7181625359999999,-0.718548028,-0.266427514,45.32307857,42.28602191,-0.023883287000000003,-0.016341842,0.026584122,0.0,-0.8311646420000001,0.212329451,-7.839129258,-3.47e+20,954.1460879000001,11.72565745,0.009710743,-0.125951391,-0.043195985,-0.7735494540000001,0.185282698,-7.698015115,0.019688276,-0.116012364,-0.021486894,-3.47e+20,100.03473000000001,103.48986020000001,-0.172756666,-1.9283137940000001,15.37030415,14.59770166,0.015452053,-0.137858738,-0.35849756899999996,78.16018273,504.0945075,11.72580984,95414.90817000001,1.1336870270000001,0.07630155,0.030275052,0.319412109,0.020106888,-0.096904531,-0.021776608,0.004840225,0.02281567,-0.7204413620000001,0.9357457229999999,0.006285616999999999,0.009822425,-0.352482605,0.18156415399999998,398711259.6,327326654.8,504598.8818,14.706567199999999,11.21084517,-9.485721144,0.98920184,5.581018501,0,0,0.0,764000,39.8714138,32.7364368,-31.05968392,-322.6614193,-104.22438220000001,11.20292873,-9.493103241,1.3772640059999999,-0.407577911,-0.237779742,1.816993605,104.3945422,0.078487974,0.20970081399999999,0.001138976,0.17798027,51586690,0,0,0,1,0
974,51622829,-0.001561125,0.020576643000000002,0.024905662000000002,0.16038874,0.0,1512.0,1500.0,1161.0,1500.0,1499.0,1512.809562,14.49140335,14.84959326,11.72608191,14.54324386,14.45668396,14.81392157,14.38598321,14.74147267,128.8322472,128.8322472,11.72714209,-0.001428378,-0.005981352,0.000312169,-0.208827053,0.194229288,-0.055625047000000004,2.0,0.532906581,1.532906581,11,0,0,1,0,0.0,0,0,0,0,0,0.004337153,0.020191973999999998,-0.718161424,-0.7184845190000001,-0.26659769899999997,44.79635801,42.30560274,-0.023847072999999996,-0.015947083,0.02674088,0.0,-0.828433502,0.190785609,-7.92902432,-5.32e+20,954.1510206,11.72589726,0.009316418,-0.122670746,-0.04153417,-0.746123166,0.13301085,-7.734905756,0.021013087000000003,-0.116735403,-0.009446314,-5.32e+20,100.03473000000001,103.4286845,-0.169697887,-1.94905229,15.3702531,14.62693354,0.014866391999999999,-0.10870297,-0.358633353,78.01204382,504.08918509999995,11.72608191,95414.96975,1.133687705,-0.051068333,-0.036859562,0.9545966659999999,0.020994568999999998,-0.082463352,-0.017734166000000003,0.012274048999999999,0.023701958,-0.715120485,0.9366445590000001,0.009895993,0.008953245,-0.35002676,0.18296859699999998,398711295.6,327326614.8,504557.4459,14.70132198,11.19685837,-9.494462893,1.064380876,5.57991989,0,0,0.0,764000,39.8714138,32.7364368,-30.64381028,-323.01366210000003,-104.17971999999999,11.18726693,-9.50283032,1.4439250940000001,-0.37187505,-0.231484965,1.6922649330000001,104.34988,0.06718666400000001,0.212758152,0.006000213000000001,0.1793898,51622829,0,0,0,1,0
975,51654967,0.0033280740000000003,0.023801551,0.026650841,0.16074565,0.0,1513.0,1500.0,1161.220044,1498.0,1501.0,1515.0,14.36816024,14.72322602,11.7263704,14.52725751,14.44079291,14.79762461,14.37317177,14.72833144,128.5686466,128.5686466,11.72726488,-0.001428191,-0.005980836999999999,0.000311074,-0.20883212399999998,0.194226507,-0.055530777,2.0,0.535507101,1.5355071009999999,11,0,0,1,0,0.0,0,0,0,0,0,0.026600081,0.021194836,-0.687723295,-0.661429116,1.3552445480000002,51.69652842,42.33726996,-0.023816907000000002,-0.015557303,0.026893972000000002,0.0,-0.7859836640000001,0.201065432,-8.030833249,-5.32e+20,954.1545228,11.72616909,0.011103729,-0.109489291,-0.030235843999999998,-0.7742860890000001,0.189382135,-7.823110359,0.022623802999999998,-0.106805797,-0.01176458,-5.32e+20,100.03473000000001,103.3675087,-0.166639108,-1.969790787,15.37020205,14.65616542,0.014280731999999999,-0.079547203,-0.358769138,77.86390491,503.92282710000006,11.7263704,95416.87751,1.1337104,-0.218611997,0.493210862,0.19301955899999998,0.023196049,-0.08468489,-0.02162015,0.012505697,0.024690464,-0.71595862,0.9364899720000001,0.010181332,0.009371401,-0.350421114,0.18411662,398711331.6,327326574.7,504516.01,14.69607675,11.18287157,-9.503204641,1.139559912,5.57882128,0,0,0.0,764000,39.8714138,32.7364368,-30.26042963,-323.340851,-104.1332409,11.1756222,-9.513834292,1.495890926,-0.385483625,-0.291363264,1.623398127,104.30340090000001,0.076140551,0.21496162,0.0007828310000000001,0.18014517,51654967,0,0,0,1,0
976,51687105,0.002537412,0.027921612000000002,0.02737962,0.16181943,0.0,1513.0,1500.0,1163.0,1499.0,1500.0,1517.0,14.46448204,14.82191812,11.72665755,14.51127116,14.42490186,14.78132766,14.36036033,14.7151902,128.305046,128.305046,11.72738767,-0.001428003,-0.005980323,0.000309979,-0.208837196,0.194223726,-0.055436505999999997,2.0,0.5381076220000001,1.5381076219999998,11,0,0,1,0,0.0,0,0,0,0,0,0.061849902000000005,0.022235852,-0.638522621,-0.569241724,3.976957473,63.17491929,42.3763877,-0.023785341,-0.015162605,0.027049463,0.0,-0.743533827,0.21134525399999998,-8.132642178,-5.32e+20,954.1580249,11.72644093,0.017039555,-0.10991666900000001,-0.020248038,-0.81528868,0.24179885899999998,-7.953260354,0.024234519,-0.09687619,-0.014082845,-5.32e+20,100.03473000000001,103.306333,-0.163580329,-1.990529283,15.37015099,14.68539729,0.013695071000000001,-0.050391436,-0.358904923,77.71576601,503.9947964,11.72665755,95416.08681000001,1.133700881,-0.154240771,-0.093938591,0.11956569,0.025074846,-0.07284973,-0.013656271999999999,0.01292873,0.025861862000000003,-0.708659629,0.937072583,0.010554428000000001,0.00995148,-0.346837585,0.184767273,398711367.6,327326534.7,504474.5741,14.69083153,11.16888478,-9.511946389,1.214738948,5.577722669,0,0,0.0,764000,39.8714138,32.7364368,-29.87704899,-323.66803980000003,-104.08676170000001,11.16397748,-9.524838264,1.5478567580000002,-0.3990922,-0.351241564,1.554531321,104.2569217,0.064070387,0.21769783199999998,0.005618409,0.1819596,51687105,0,0,0,1,0
977,51719244,0.002013093,0.031720022,0.027715824,0.16245204,0.0,1513.0,1500.0,1163.041008,1499.0,1500.0,1518.0,14.30064373,14.654048999999999,11.7269752,14.49528481,14.40901081,14.76503071,14.34754888,14.70204897,128.04144540000001,128.04144540000001,11.72751046,-0.0014278160000000002,-0.005979809,0.000308884,-0.208842267,0.194220945,-0.055342235999999996,2.0,0.5407081420000001,1.540708142,11,0,0,1,0,0.0,0,0,0,0,0,0.09709972300000001,0.023276869,-0.5893219470000001,-0.477054331,6.598670397999999,74.65331016,42.41550545,-0.023756391,-0.014738582,0.027204073999999998,0.0,-0.707948151,0.227680938,-8.235737772,-5.32e+20,954.1619044,11.72673864,0.017995029,-0.09647157199999999,-0.015774617,-0.7689609209999999,0.304164456,-8.071092947,0.025039822000000003,-0.087826609,-0.015903453,-5.32e+20,100.03473000000001,103.24515720000001,-0.16052155,-2.01126778,15.37009994,14.71462917,0.013109411000000001,-0.021235669,-0.359040708,77.5676271,503.8609847,11.7269752,95417.59977999999,1.133718937,-0.016049498,-0.43178677,-0.009377082,0.020540265,-0.070416399,-0.010337428000000001,0.06866670799999999,0.026994286,-0.023375213,0.99920159,0.034477225,0.013086066,-0.012143893999999999,0.185506335,398711403.6,327326494.6,504433.1382,14.6855863,11.15489798,-9.520688137999999,1.2899179840000001,5.576624058999999,0,0,0.0,764000,39.8714138,32.7364368,-29.487097,-324.00131360000006,-104.03825859999999,11.15284968,-9.536426706,1.59890137,-0.39188265200000005,-0.39597036399999996,1.47533889,104.2084186,0.072476762,0.220454612,0.00045010000000000004,0.183721165,51719244,0,0,0,1,0
978,51755382,0.001043221,0.035745097999999996,0.027154288999999998,0.163733681,0.0,1513.0,1500.0,1164.0,1499.0,1500.0,1520.0,14.346048300000001,14.70040007,11.72729286,14.47929846,14.39311976,14.74873376,14.33473744,14.68890773,127.77784479999998,127.77784479999998,11.72763325,-0.001427629,-0.005979295,0.000307789,-0.208847339,0.194218164,-0.055247965999999996,2.0,0.543308662,1.5433086619999998,11,0,0,1,0,0.0,0,0,0,0,0,0.132349544,0.024317885,-0.540121273,-0.38486693899999996,9.220383322,86.13170103,42.45462319,-0.023726276,-0.014332547,0.027317625,0.0,-0.697251748,0.265975017,-8.343498782000001,-5.32e+20,954.1671523,11.72713018,0.015146612,-0.09932826300000001,-0.01782778,-0.7660113740000001,0.223753927,-8.167939758,0.022924719,-0.081967976,-0.015919563,-5.32e+20,100.03473000000001,103.1810999,-0.157318645,-2.023897094,15.37005377,14.73352498,0.012730571000000001,0.000949231,-0.359167917,77.43669466,503.746768,11.72729286,95418.89795,1.133734277,-0.041896123,-0.018346328000000002,-0.317539088,0.023861245,-0.062458445,-0.012283708999999999,0.12440468199999999,0.028134525,-0.023375213,0.997883495,0.062315616,0.013312111000000001,-0.012538103,0.18621794100000003,398711439.7,327326454.6,504391.7023,14.68034108,11.14091118,-9.529429886,1.365097019,5.575525449,0,0,0.0,764000,39.8714138,32.7364368,-29.07331751,-324.3566514,-103.9824166,11.14359625,-9.550134421000001,1.646605663,-0.309187131,-0.385767475,1.358706014,104.15257659999999,0.07211836,0.22232579100000002,-7.5e-05,0.18430942,51755382,0,0,0,1,0
979,51795041,0.00041714199999999996,0.038831709,0.027178121,0.16443917,0.0,1513.0,1500.0,1165.0,1499.8619720000002,1499.1380279999998,1522.0,14.47961614,14.83736985,11.72764101,14.46331211,14.37722872,14.73243681,14.321926000000001,14.6757665,127.51424420000001,127.51424420000001,11.72775604,-0.001427441,-0.005978781,0.000306694,-0.20885241,0.19421538300000002,-0.055153695,2.0,0.545909182,1.545909182,11,0,0,1,0,0.0,0,0,0,0,0,0.167599365,0.025358902000000003,-0.49092060000000004,-0.292679546,11.84209625,97.61009190000001,42.49374093,-0.023695253,-0.013980546000000002,0.027400948999999997,0.0,-0.686555345,0.304269096,-8.451259792,-5.32e+20,954.1724002000001,11.72752172,0.01554552,-0.088889231,-0.012551791999999999,-0.782773432,0.204542828,-8.29011306,0.020809616,-0.07610934400000001,-0.015935674,-5.32e+20,100.03473000000001,103.11680129999999,-0.15410367,-2.035847315,15.370007999999999,14.75155522,0.012369051,0.022550364,-0.359294409,77.30720316,503.9376822,11.72764101,95416.69387,1.133708148,0.035791813,0.227702309,0.02650251,0.027470126,-0.058423395,-0.018951614,0.18014266899999998,0.029253056,-0.023375213,0.9957126479999999,0.09010005800000001,0.013513813000000001,-0.01295539,0.18699065199999998,398711476.2,327326413.8,504338.8262,14.68326782,11.13673051,-9.543074615,1.409223845,5.574598099,0,0,0.0,764000,39.8714138,32.7364368,-28.65953802,-324.7119893,-103.9265747,11.13434281,-9.563842135,1.694309957,-0.22649161,-0.37556458600000003,1.242073137,104.09673470000001,0.09004253599999999,0.22457062100000003,-0.006172885,0.184947888,51795041,0,0,0,1,0
980,51827659,0.00052437,0.042112479,0.027054053999999998,0.165163888,0.0,1513.727546,1500.0,1165.0,1499.0,1500.0,1524.0,14.40428809,14.76018914,11.72798807,14.44732576,14.36133767,14.71613985,14.30911456,14.66262526,127.2506436,127.2506436,11.72787884,-0.001427254,-0.005978267,0.00030559900000000004,-0.20885748199999998,0.19421260199999998,-0.055059425,2.0,0.548509702,1.5485097019999998,11,0,0,1,0,0.0,0,0,0,0,0,0.20284918600000001,0.026399918999999997,-0.44171992600000004,-0.200492153,14.46380917,109.0884828,42.53285868,-0.023666117999999996,-0.013593191000000001,0.027489185,0.0,-0.690229181,0.333736852,-8.524335918,-5.32e+20,954.1787228000001,11.72789533,0.016669012,-0.081491102,-0.010652621999999999,-0.81419757,0.151844235,-8.381308641,0.020183859,-0.07029727,-0.01833001,-5.32e+20,100.03473000000001,103.0525027,-0.150888695,-2.047797535,15.36996223,14.76958545,0.012007531,0.044151497000000005,-0.359420901,77.17771167,503.78707239999994,11.72798807,95418.46522,1.1337291859999998,-0.05769879,0.268584927,-0.237814367,0.029950099999999997,-0.054523764,-0.022842677000000002,0.23588065600000002,0.030339851,-0.023375213,0.992838007,0.117820194,0.013687658,-0.013389931,0.187813487,398711512.7,327326372.8,504285.1518,14.68676469,11.13323399,-9.557061412000001,1.4511842369999999,5.573682698,0,0,0.0,764000,39.8714138,32.7364368,-28.25915002,-325.0566728,-103.870899,11.12618835,-9.577403656,1.736916296,-0.18800635899999998,-0.38645607600000004,1.142719456,104.04105899999999,0.17466558100000001,0.22718915899999997,-0.015650799,0.18577218,51827659,0,0,0,1,0
981,51859798,-0.000700258,0.045178087,0.027039207000000003,0.16549668,0.0,1514.0,1500.0,1166.6829369999998,1499.365873,1499.634127,1525.6829369999998,14.4501269,14.80705364,11.72835082,14.4313394,14.34544662,14.6998429,14.29630312,14.64948403,126.98704309999998,126.98704309999998,11.72800163,-0.001427066,-0.005977753000000001,0.00030450400000000004,-0.208862553,0.194209821,-0.054965154,2.0,0.551110222,1.551110222,11,0,0,1,0,0.0,0,0,0,0,0,0.238099007,0.027440935,-0.39251925200000004,-0.108304761,17.085522100000002,120.56687360000001,42.57197642,-0.023596217000000003,-0.013183478,0.02752553,0.0,-0.7146403170000001,0.35046758200000006,-8.547359235,-5.32e+20,954.1865964,11.72824305,0.021930788,-0.074663248,-0.00996266,-0.759282957,0.257696217,-8.427161217,0.021707337,-0.06455238599999999,-0.024156297,-5.32e+20,100.03473000000001,102.98820409999999,-0.14767372,-2.059747756,15.36991646,14.78761568,0.011646011000000001,0.06575263,-0.359547393,77.04822017,503.61418030000004,11.72835082,95420.42317000001,1.1337524970000001,-0.30825388800000003,0.42956638799999997,-0.7598505870000001,0.03581427,-0.045763099999999994,-0.018673033999999998,0.291618624,0.031469263,-0.023375213,0.989129512,0.145440931,0.013867236000000002,-0.013848871,0.18848616899999998,398711549.2,327326331.9,504231.4775,14.69026157,11.12973746,-9.57104821,1.4931446290000001,5.572767297,0,0,0.0,764000,39.8714138,32.7364368,-27.87808692,-325.3859815,-103.8154632,11.11961977,-9.590754209,1.7721659159999998,-0.21331974199999998,-0.42778828700000004,1.068300911,103.9856232,0.276868354,0.22943760000000002,-0.013772085,0.18674687,51859798,0,0,0,1,0
982,51895936,-0.000128465,0.049503197,0.027961795,0.16587418,0.0,1515.0,1500.0,1168.0,1498.0,1501.0,1527.0,14.38808718,14.74330561,11.72871358,14.41535305,14.32955557,14.68354595,14.28349167,14.63634279,126.7234425,126.7234425,11.72812442,-0.001426879,-0.0059772390000000005,0.00030341,-0.208867625,0.19420704,-0.054870884,2.0,0.553710742,1.5537107419999998,11,0,0,1,0,0.0,0,0,0,0,0,0.273348828,0.028481952,-0.343318578,-0.016117368,19.70723502,132.0452645,42.61109416,-0.023490929,-0.012807668999999999,0.027538364,0.0,-0.739051454,0.367198312,-8.570382553,-5.32e+20,954.1944699999999,11.72859077,0.024471216,-0.065873897,-0.015336648999999999,-0.67626004,0.193682165,-8.486652139,0.023230815,-0.058807501,-0.029982585,-5.32e+20,100.03473000000001,102.9239054,-0.144458745,-2.071697976,15.36987069,14.80564591,0.011284491,0.087353763,-0.359673885,76.91872867,503.6619829,11.72871358,95419.86936,1.133745902,0.347190018,0.156013242,0.032447432000000005,0.027821966,-0.040765025,-0.024298978,0.347356582,0.032567079,-0.023375213,0.984706926,0.172956078,0.014017006,-0.014324017,0.189241419,398711585.8,327326291.0,504177.8032,14.69375844,11.12624094,-9.585035007,1.535105021,5.571851896,0,0,0.0,764000,39.8714138,32.7364368,-27.49702382,-325.7152901,-103.76002740000001,11.1130512,-9.604104762,1.8074155369999998,-0.23863312399999997,-0.469120498,0.993882365,103.93018740000001,0.375159289,0.23124709899999998,-0.01069453,0.18785529999999998,51895936,0,0,0,1,0
983,51928074,-0.001495569,0.0525736,0.028155277000000003,0.1676105,0.0,1514.0,1500.0,1169.0,1501.0,1498.0,1528.0,14.46932196,14.82659956,11.72907675,14.40095586,14.31525565,14.66887761,14.27194336,14.62449409,126.48410259999999,126.48410259999999,11.72826259,-0.0014266889999999999,-0.0059767119999999995,0.00030230599999999996,-0.20887358600000003,0.19420418399999997,-0.05477181,2.0,0.556311262,1.556311262,11,0,0,1,0,0.0,0,0,0,0,0,0.308598649,0.029522967999999997,-0.294117904,0.076070024,22.32894795,143.5236554,42.65021191,-0.023361631,-0.012422633999999998,0.027532552999999998,0.0,-0.7387903,0.367128356,-8.645729806,-5.32e+20,954.2005406,11.72894515,0.025573493,-0.069388468,-0.015109279,-0.792399463,0.22748526,-8.596614631,0.02336685,-0.05381062599999999,-0.03123309,-5.32e+20,100.03473000000001,102.857363,-0.141131602,-2.081284101,15.36982305,14.82788829,0.01083869,0.10803147,-0.35980156700000004,76.79096644,503.4753784,11.72907675,95421.96844,1.133770847,-0.289203946,0.076895361,-0.110006904,0.026849322000000002,-0.04226645,-0.032695975,0.403094539,0.033622815,-0.023375213,0.979473162,0.20032774,0.014129016999999999,-0.014815045,0.19012123399999997,398711622.3,327326250.1,504124.1288,14.69725531,11.12274441,-9.599021804,1.5770654130000001,5.570936495,0,0,0.0,764000,39.8714138,32.7364368,-27.09740312,-326.06190330000004,-103.69975140000001,11.10715575,-9.619260676,1.839824272,-0.20666339,-0.470246667,0.939697685,103.8699105,0.471013588,0.23311176100000003,-0.0069382409999999995,0.1887733,51928074,0,0,0,1,0
984,51968213,0.002113791,0.055487233,0.030655022,0.16849841,0.0,1515.0,1500.0,1170.0,1499.0,1500.0,1529.0,14.45332769,14.81014997,11.72946739,14.41639949,14.33083366,14.68479096,14.28411391,14.63691631,126.7003243,126.7003243,11.72868963,-0.0014264579999999998,-0.005975933,0.000301045,-0.208896248,0.194199922,-0.054582531,2.0,0.558911782,1.5589117819999998,11,0,0,1,0,0.0,0,0,0,0,0,0.34384847,0.030563985,-0.24491723,0.168257417,24.95066087,155.00204630000002,42.68932965,-0.023209088,-0.012027715,0.027517478999999997,0.0,-0.7222495729999999,0.355972765,-8.755602078999999,-5.32e+20,954.2054214999999,11.72930391,0.031040078999999998,-0.056832901,-0.019811739,-0.748516582,0.23534060899999998,-8.731946549,0.022587404,-0.049307313,-0.029464346000000002,-5.32e+20,100.03473000000001,102.7837944,-0.137453212,-2.083467166,15.36976953,14.86332083,0.01012897,0.125817511,-0.359932975,76.66861933,503.3870835,11.72946739,95423.00707,1.13378321,-0.0168132,-0.09409802199999999,0.035634497,0.027245797000000002,-0.035841692,-0.034466146,0.45883249600000003,0.034573728,-0.023375213,0.9735180529999999,0.227550965,0.01417403,-0.015310525,0.19137056300000002,398711658.5,327326209.5,504069.5143,14.7015043,11.118495699999999,-9.613760752000001,1.616769354,5.569962006,0,0,0.0,764000,39.8714138,32.7364368,-26.68553751,-326.4199345,-103.6362816,11.10170444,-9.635607826000001,1.8703584999999998,-0.136896409,-0.444843593,0.8988639620000001,103.8064394,0.51277925,0.233647365,-0.0031770270000000002,0.18930358,51968213,0,0,0,1,0
985,52004703,-0.003537696,0.057452109,0.028481042,0.16968283,0.0,1514.675135,1500.0,1170.324865,1499.64973,1499.35027,1530.324865,14.41555244,14.77140382,11.72984514,14.43184311,14.34641167,14.70070432,14.29628446,14.64933853,126.91654609999999,126.91654609999999,11.72911666,-0.0014262270000000002,-0.005975155,0.00029978299999999997,-0.208918911,0.19419566,-0.054393252,2.0,0.561512302,1.561512302,11,0,0,1,0,0.0,0,0,0,0,0,0.37909829100000003,0.031605001,-0.195716556,0.26044481,27.57237379,166.48043710000002,42.7284474,-0.02305827,-0.011655788,0.027490182999999998,0.0,-0.705708846,0.344817175,-8.865474353,-5.32e+20,954.2103024,11.72966268,0.02406887,-0.052344042,-0.023968887999999997,-0.659485494,0.172193282,-8.798980727,0.021807958,-0.044803999000000004,-0.027695602000000003,-5.32e+20,100.03473000000001,102.71022579999999,-0.133774822,-2.085650232,15.36971602,14.89875337,0.00941925,0.143603552,-0.36006438399999996,76.54627222,503.55596529999997,11.72984514,95421.10222,1.133760582,-0.549552562,-0.453369751,-0.222325384,0.027756926,-0.028938417999999997,-0.043395475,0.514570493,0.035432607000000005,-0.023375213,0.966776579,0.254589088,0.014156799999999999,-0.01580886,0.193005287,398711693.5,327326169.8,504011.4691,14.708497699999999,11.1115023,-9.631244249,1.6482396480000001,5.568771904,0,0,0.0,764000,39.8714138,32.7364368,-26.27367191,-326.7779657,-103.5728119,11.09625314,-9.651954977,1.900892728,-0.067129427,-0.419440519,0.8580302390000001,103.7429682,0.603829344,0.235286878,0.002004936,0.19053596,52004703,0,0,0,1,0
986,52040490,0.001143303,0.059783116,0.030866682000000003,0.170197923,0.0,1515.0,1500.0,1171.0,1499.0,1500.0,1532.0,14.45840461,14.81542313,11.73025398,14.44728674,14.36198968,14.71661768,14.30845501,14.66176075,127.13276780000001,127.13276780000001,11.729543699999999,-0.0014259960000000001,-0.005974376,0.000298521,-0.20894157300000002,0.19419139800000002,-0.054203972,2.0,0.564112823,1.564112823,11,0,0,1,0,0.0,0,0,0,0,0,0.41434811200000005,0.032646018,-0.146515883,0.352632202,30.19408672,177.958828,42.76756514,-0.022902502999999998,-0.011272893,0.027453652999999998,0.0,-0.6894459390000001,0.331561465,-8.957104487,-3.81e+20,954.2168359,11.73004752,0.024118076000000002,-0.05013332,-0.031834451,-0.77697146,0.22558362399999998,-8.893017061,0.021044065,-0.041066935,-0.031148488,-3.81e+20,100.03473000000001,102.6366571,-0.13009643099999998,-2.087833297,15.3696625,14.93418591,0.008709529,0.161389594,-0.360195792,76.42392511,503.4052962,11.73025398,95422.82715,1.133781041,-0.176469168,-0.138268492,-0.275852465,0.03243909,-0.028128694,-0.03801724,0.570308458,0.036265575,-0.023375213,0.959307806,0.281435331,0.0141106,-0.016314118,0.194860402,398711728.5,327326130.1,503953.4239,14.7154911,11.1045089,-9.648727746,1.679709942,5.567581802,0,0,0.0,764000,39.8714138,32.7364368,-25.88643643,-327.1159793,-103.51112509999999,11.09305248,-9.667787369,1.9250680580000001,-0.028471457000000002,-0.42937307399999997,0.792085308,103.68128109999999,0.64032256,0.235387216,0.007427388,0.19152981,52040490,0,0,0,1,0
987,52072628,-0.003166129,0.062564026,0.02944625,0.1710921,0.0,1515.0,1500.0,1172.0,1499.0,1500.0,1533.0,14.47187756,14.82903097,11.73066183,14.46273037,14.37756769,14.73253103,14.32062556,14.67418297,127.3489896,127.3489896,11.72997074,-0.001425765,-0.005973597,0.00029726,-0.20896423600000003,0.194187136,-0.054014692999999996,2.0,0.566713343,1.5667133430000002,11,0,0,1,0,0.0,0,0,0,0,0,0.44959793299999995,0.033687034,-0.097315209,0.444819595,32.81579964,189.4372189,42.80668288,-0.022749305,-0.010892478999999998,0.027407665,0.0,-0.673254397,0.317766275,-9.044048568,-1.92e+20,954.2237938999999,11.73043906,0.022160554,-0.050545825,-0.033682139,-0.793412683,0.201278232,-8.91141747,0.020284168,-0.037526705,-0.03594271,-1.92e+20,100.03473000000001,102.5630885,-0.126418041,-2.090016363,15.36960899,14.96961846,0.007999809,0.179175635,-0.36032720100000004,76.301578,503.27985939999996,11.73066183,95424.23462,1.133797728,-0.571128863,-0.1648208,-0.8094392509999999,0.033263685,-0.023792382,-0.042393802,0.6260464179999999,0.037269928,-0.023375213,0.9510760490000001,0.30805800699999997,0.014127965,-0.01685577,0.196404196,398711763.4,327326090.4,503895.3787,14.7224845,11.0975155,-9.666211242000001,1.711180236,5.566391701000001,0,0,0.0,764000,39.8714138,32.7364368,-25.50552795,-327.4488506,-103.4498964,11.09042996,-9.683487531,1.947609911,0.0021952070000000002,-0.44838267200000004,0.719689792,103.6200524,0.7197882390000001,0.23628905600000003,0.016231827,0.19382048,52072628,0,0,0,1,0
988,52108767,4.48e-05,0.064671723,0.031619978,0.17159861,0.0,1516.0,1500.0,1173.0,1499.556311,1499.443689,1534.0,14.50795591,14.86604177,11.73107067,14.478174,14.3931457,14.74844439,14.33279611,14.68660519,127.56521129999999,127.56521129999999,11.73039777,-0.001425534,-0.005972819,0.000295998,-0.208986898,0.19418287399999998,-0.053825414,2.0,0.569313863,1.569313863,11,0,0,1,0,0.0,0,0,0,0,0,0.48484775399999996,0.034728051,-0.048114535,0.537006987,35.43751257,200.91560969999998,42.84580063,-0.022593821,-0.010515323,0.027361219,0.0,-0.657062855,0.303971085,-9.130992649,-2.13e+18,954.2307519,11.730830599999999,0.028033786,-0.044138835999999994,-0.040303655,-0.714691645,0.312173971,-8.937743214,0.019524271,-0.033986476,-0.040736932999999996,-2.13e+18,100.03473000000001,102.4895199,-0.12273965099999999,-2.0921994280000002,15.36955547,15.005051000000002,0.007290088,0.196961676,-0.360458609,76.17923089,503.23553330000004,11.73107067,95424.73995,1.133803796,-0.169859736,-0.084119408,-0.065047175,0.02960182,-0.017311273000000002,-0.047130469,0.6591903570000001,0.038270952000000004,-0.023375213,0.945861891,0.323789789,0.014321007,-0.017249017,0.198190565,398711798.4,327326050.7,503837.3335,14.729477900000001,11.0905221,-9.683694739,1.74265053,5.565201599,0,0,0.0,764000,39.8714138,32.7364368,-25.12461947,-327.781722,-103.38866759999999,11.08780745,-9.699187692999999,1.970151763,0.032861871,-0.46739226899999997,0.647294276,103.5588236,0.750291932,0.2366677,0.023105527,0.19512567,52108767,0,0,0,1,0
989,52140905,0.005143054,0.06735824900000001,0.03183955,0.17267874,0.0,1516.0,1500.0,1173.0,1500.966793,1498.033207,1535.0,14.50308062,14.86094941,11.73147851,14.49361762,14.4087237,14.76435775,14.34496666,14.69902741,127.7814331,127.7814331,11.73082481,-0.001425303,-0.00597204,0.000294737,-0.209009561,0.19417861100000003,-0.053636135,2.0,0.571914383,1.5719143830000002,11,0,0,1,0,0.0,0,0,0,0,0,0.5083603729999999,0.035686973999999996,-0.021482235,0.584624839,36.48705606,206.618559,42.8910715,-0.022447777000000002,-0.010145531,0.027312173,0.0,-0.696205851,0.292975663,-9.188182205,-1.87e+20,954.2477989,11.73122215,0.03325513,-0.03871419,-0.032279919,-0.7885738929999999,0.259257563,-9.059809406,0.022359605,-0.030602973,-0.040857532,-1.87e+20,100.03473000000001,102.4210282,-0.119315072,-2.090069218,15.36948971,15.03144351,0.006760924000000001,0.20988177,-0.360576911,76.07642243,503.25097930000004,11.73147851,95424.58522000001,1.133801943,0.033771674,0.40119815299999995,-0.5722992339999999,0.027686417999999997,-0.017794016,-0.043795715,0.6603883070000001,0.039234096,-0.023375213,0.945658405,0.324359049,0.014766253,-0.017413367,0.20038774899999998,398711833.4,327326011.0,503779.2883,14.73647129,11.08352871,-9.701178236,1.7741208240000002,5.564011497,0,0,0.0,764000,39.8714138,32.7364368,-24.71284716,-328.14347250000003,-103.3201433,11.08616531,-9.717685586,1.989431309,-0.013649482,-0.47399898700000004,0.6139304179999999,103.49030069999999,0.778555812,0.23794844199999998,0.030934256,0.19609514,52140905,0,0,0,1,0
990,52173043,-0.000748282,0.069187462,0.032374044,0.17324844,0.0,1516.0,1500.0,1174.0,1500.0,1499.0,1536.0,14.49808672,14.85581043,11.73188735,14.50906125,14.42430171,14.7802711,14.35713721,14.71144964,127.99765479999999,127.99765479999999,11.73125185,-0.001425071,-0.005971262,0.000293475,-0.20903222300000002,0.194174349,-0.053446855999999994,2.0,0.574514903,1.574514903,11,0,0,1,0,0.0,0,0,0,0,0,0.520002414,0.03656287,-0.017674768,0.587166678,35.94656455,206.48043669999998,42.94256544,-0.022311817,-0.009778849000000001,0.027265522,0.0,-0.735977291,0.282012039,-9.245033835,-3.77e+20,954.2649605,11.73161369,0.031211644,-0.034570817999999996,-0.041630858,-0.7100990709999999,0.28071588399999997,-9.113091562000001,0.02523577,-0.027221251000000002,-0.040925052999999996,-3.77e+20,100.03473000000001,102.3565036,-0.116088816,-2.084568717,15.36941436,15.05077235,0.006372841999999999,0.21899972899999998,-0.36068497,75.988881,502.99995480000007,11.73188735,95427.46574,1.13383616,-0.318768996,0.05800827,0.251870873,0.028239469,-0.016760115,-0.041776858,0.6592689079999999,0.040140746,-0.023375213,0.9458295859999999,0.323831802,0.015204838,-0.017551692,0.203090269,398711869.1,327325970.3,503716.3925,14.74519695,11.08,-9.718661646000001,1.7986617319999998,5.562987701,0,0,0.0,764000,39.8714138,32.7364368,-24.30072433,-328.50555089999995,-103.2515361,11.084534300000001,-9.736215254,2.008673805,-0.061037361,-0.480464844,0.58100985,103.421695,0.8120897570000001,0.24108669300000002,0.040407606,0.19850832,52173043,0,0,0,1,0
991,52205182,-0.0029117390000000004,0.070383098,0.032376993,0.17357758,0.0,1516.0,1500.0,1174.0,1501.0,1498.0,1537.0,14.54199568,14.90064582,11.73232588,14.52450488,14.43987972,14.79618446,14.36930776,14.72387186,128.2138766,128.2138766,11.73167888,-0.00142484,-0.005970483,0.000292213,-0.20905488600000002,0.194170087,-0.053257577,2.0,0.577115423,1.5771154230000002,11,0,0,1,0,0.0,0,0,0,0,0,0.531644455,0.037438766,-0.013867301,0.589708517,35.40607305,206.34231440000002,42.99405937,-0.022181581000000002,-0.009412255999999999,0.02721407,0.0,-0.767996241,0.263276465,-9.294847942999999,-5.32e+20,954.2785852,11.73200912,0.024241464,-0.028927154,-0.048101063,-0.70768026,0.17253308399999998,-9.165152942,0.027456684,-0.024117642,-0.040618006,-5.32e+20,100.03473000000001,102.2919789,-0.11286256,-2.079068215,15.36933902,15.07010119,0.00598476,0.22811768699999999,-0.360793029,75.90133957,503.0926172,11.73232588,95426.37365,1.133823166,0.373243516,0.151930561,-0.20778244399999998,0.027739177,-0.010649437,-0.044334054000000005,0.657806064,0.041021421,-0.023375213,0.946056082,0.323141912,0.015634323999999998,-0.01768266,0.20619823899999998,398711905.6,327325928.5,503648.5565,14.75568688,11.08,-9.736144968,1.816145229,5.562133283,0,0,0.0,764000,39.8714138,32.7364368,-23.89440667,-328.8628961,-103.1836387,11.08315917,-9.754686266,2.0268313630000003,-0.090453706,-0.48805260799999994,0.538427119,103.3537983,0.7701727290000001,0.244758322,0.052799282,0.201264795,52205182,0,0,0,1,0
992,52241320,-0.001096209,0.07298310200000001,0.032817808999999996,0.17445022,0.0,1516.0,1500.0,1175.0,1499.0,1500.0,1538.0,14.56903681,14.92839108,11.73273403,14.53994851,14.45545773,14.81209782,14.38147831,14.73629408,128.4300983,128.4300983,11.73210592,-0.0014246089999999999,-0.005969705,0.00029095200000000003,-0.209077548,0.194165825,-0.053068298,2.0,0.579715943,1.579715943,11,0,0,1,0,0.0,0,0,0,0,0,0.543286496,0.038314662,-0.010059835,0.592250356,34.86558154,206.20419209999997,43.04555331,-0.022064527,-0.009045046,0.027152684,0.0,-0.7651529109999999,0.209591108,-9.313014926000001,-5.32e+20,954.2763051000001,11.73242204,0.029147984,-0.029819968,-0.043171093,-0.72290713,0.198922438,-9.173608888,0.026730985,-0.02226468,-0.038626561000000004,-5.32e+20,100.03473000000001,102.22745429999999,-0.109636303,-2.073567713,15.36926368,15.08943003,0.0055966769999999996,0.237235645,-0.360901088,75.81379814,503.0792546,11.73273403,95426.5168,1.133824882,-0.3543325,-1.51e-06,0.174153915,0.028299445,-0.009350699,-0.03888981,0.65601707,0.041896879,-0.023375213,0.946334502,0.322297414,0.01606445,-0.01780953,0.20963711399999999,398711942.2,327325886.7,503580.7205,14.7661768,11.08,-9.753628289,1.833628726,5.561278864,0,0,0.0,764000,39.8714138,32.7364368,-23.51419434,-329.19895610000003,-103.1189327,11.08293472,-9.772893509,2.040110056,-0.039053619,-0.500685495,0.45239448,103.2890906,0.7287567840000001,0.248767745,0.064978918,0.20364845,52241320,0,0,0,1,0
993,52277459,-0.003487221,0.074788954,0.032978823,0.17493093,0.0,1516.0,1500.0,1176.0,1502.0,1497.0,1539.0,14.50219012,14.859933900000001,11.73318159,14.55539213,14.47103574,14.82801117,14.39364886,14.7487163,128.6463201,128.6463201,11.73253295,-0.0014243779999999998,-0.005968925999999999,0.00028969,-0.209100211,0.194161563,-0.052879019000000006,2.0,0.582316463,1.5823164630000002,11,0,0,1,0,0.0,0,0,0,0,0,0.554928537,0.039190558,-0.006252368,0.594792195,34.32509004,206.0660698,43.09704724,-0.021993863,-0.008667191,0.02707922,0.0,-0.7623095809999999,0.15590575,-9.33118191,-5.32e+20,954.2740249,11.73283495,0.025586471,-0.02853232,-0.03990056,-0.67454776,0.254107052,-9.300082823,0.026005286000000002,-0.020411719,-0.036635117,-5.32e+20,100.03473000000001,102.1629296,-0.106410047,-2.068067212,15.36918833,15.10875888,0.005208595,0.246353603,-0.36100914700000003,75.72625671,502.99098139999995,11.73318159,95427.53013,1.133836824,-0.76478294,0.204733525,-0.610136967,0.02789021,-0.0020209679999999997,-0.038091787,0.6539414889999999,0.042772079000000005,-0.023375213,0.9466581059999999,0.321317067,0.016497248,-0.017933268,0.213326565,398711978.7,327325844.9,503512.8846,14.77666672,11.08,-9.771111611,1.8511122219999998,5.560424446,0,0,0.0,764000,39.8714138,32.7364368,-23.13398202,-329.5350161,-103.0542267,11.08271027,-9.791100751,2.0533887490000002,0.012346468000000001,-0.513318382,0.366361841,103.2243828,0.682905225,0.254888526,0.077763319,0.20805970000000001,52277459,0,0,0,1,0
994,52309597,0.001859803,0.076989393,0.032643067000000005,0.17578584,0.0,1516.0,1500.0,1176.019204,1499.0,1500.0,1539.019204,14.46117335,14.81781087,11.73361172,14.57083576,14.48661375,14.84392453,14.40581941,14.76113852,128.8625418,128.8625418,11.73295999,-0.0014241470000000002,-0.005968148,0.00028842900000000004,-0.20912287300000001,0.194157301,-0.05268974,2.0,0.584916983,1.584916983,11,0,0,1,0,0.0,0,0,0,0,0,0.566570578,0.040066454,-0.002444901,0.597334034,33.78459853,205.92794740000002,43.14854118,-0.021974191,-0.008315102,0.027007048999999998,0.0,-0.747548098,0.125032957,-9.362663595,-5.32e+20,954.2781762,11.73324801,0.026195832000000002,-0.027132367999999997,-0.044720462,-0.704346445,0.266283902,-9.292062937,0.026163868,-0.018874113,-0.0348775,-5.32e+20,100.03473000000001,102.098405,-0.103183791,-2.06256671,15.36911299,15.12808772,0.004820513,0.255471562,-0.36111720700000005,75.63871528,502.8723352,11.73361172,95428.91275,1.1338533259999999,-0.018335533,0.059265922,-0.086095105,0.027846619,-0.0032719209999999997,-0.042002019,0.651522487,0.043624540999999996,-0.023375213,0.947035631,0.320173577,0.016922663,-0.018049535,0.217301713,398712015.3,327325803.2,503445.0486,14.78715665,11.08,-9.788594932999999,1.868595719,5.559570027,0,0,0.0,764000,39.8714138,32.7364368,-22.74200747,-329.8822165,-102.98699520000001,11.08245328,-9.809775554,2.065156992,0.0456546,-0.514576961,0.306239472,103.1571508,0.6468941779999999,0.259761552,0.087856555,0.210616933,52309597,0,0,0,1,0
