timestamp,control[0],control[1],control[2],control[3],control[4],output[2],output[3],output[4],output[5],output[6],output[7],indicated_airspeed_m_s,true_airspeed_m_s,indicated_airspeed_m_s.1,equivalent_airspeed_m_s,true_airspeed_m_s.1,equivalent_ground_minus_wind_m_s,true_ground_minus_wind_m_s,differential_pressure_raw_pa,differential_pressure_filtered_pa,temperature,gyro_bias[0],gyro_bias[1],gyro_bias[2],accel_bias[0],accel_bias[1],accel_bias[2],instance_count,seq_reached,seq_current,seq_total,item_changed_index,item_do_jump_remaining,valid,warning,finished,failure,stay_in_failsafe,flight_termination,item_do_jump_changed,execution_mode,nav_roll,nav_pitch,nav_bearing,target_bearing,xtrack_error,wp_dist,acceptance_radius,rollspeed_integ,pitchspeed_integ,yawspeed_integ,additional_integ1,x,y,z,temperature.1,pressure,temperature.2,gyro_rad[0],gyro_rad[1],gyro_rad[2],accelerometer_m_s2[0],accelerometer_m_s2[1],accelerometer_m_s2[2],x.1,y.1,z.1,temperature.3,altitude_sp,altitude_filtered,height_rate_setpoint,height_rate,airspeed_sp,airspeed_filtered,airspeed_derivative_sp,airspeed_derivative,throttle_integ,pitch_integ,baro_alt_meter,baro_temp_celcius,baro_pressure_pa,rho,xyz[0],xyz[1],xyz[2],xyz[0].1,xyz[1].1,xyz[2].1,roll_body,pitch_body,yaw_body,q_d[0],q_d[1],q_d[2],q_d[3],thrust_body[0],lat,lon,alt,vel_m_s,vel_n_m_s,vel_e_m_s,vel_d_m_s,cog_rad,ground_contact,maybe_landed,landed,ref_lat,ref_lon,x.2,y.2,z.2,vx,vy,vz,ax,ay,az,yaw,dist_bottom,roll,pitch,yaw.1,thrust_body[0].1,timestamp.1,isTakeoff,isClimbing,isDescending,isCruise,isLand
33781294.0,0.010694242,0.066212941,0.085741441,0.26258087,0.0,1542.0,1500.0,1262.0,1494.0,1505.0,1535.0,16.03209877,16.42740606,16.20856551,16.13741721,16.53515522,15.74090685,16.12887067,163.0377016,163.0377016,11.7388289,-0.0023202360000000003,-0.005917029,0.0005399469999999999,-0.142185061,0.193317056,-0.082432961,2.0,-0.374674935,0.625325065,11.0,0.0,0.0,1.0,0.0,0.0,0.0,0.0,0.0,0.0,0.0,0.330666714,0.073377754,-2.4253759130000003,-2.511553109,-9.921957719,79.41764491,47.20599066,-0.029040528,0.018417954,0.06055464,0.0,-0.132057956,-1.5353572030000002,-7.569799965,3344830000000000.0,954.2798106,11.73298599,0.043449869,-0.154008785,0.011237785,-0.118617943,-1.527288802,-6.6798123889999985,0.044821318,-0.105667068,0.03417979,3344830000000000.0,100.0598863,103.1674843,-0.155290566,-0.996535998,15.36980925,16.28792975,-0.018362406,-0.35608790799999995,-0.228663714,116.7071713,503.0164426,11.73273702,95427.26786,1.13383383,0.138909166,0.42056752,-0.368305971,0.052026601,-0.08535392800000001,0.045433641,0.335505541,0.074532486,-2.420687199,0.341684162,0.093222241,-0.143172448,-0.924155,0.261507143,398683416.6,327378139.7,503487.9882,16.53406681,-14.93055011,-7.107583322000001,-0.100452094,3.585869065,0.0,0.0,0.0,39.8714138,32.7364372,-343.1856756,116.6985899,-103.4096182,-14.80072779,-7.108554783,0.217469723,0.061931166,0.148110608,2.452736287,-2.790550356,103.5357563,0.117621213,0.22316955,0.105965078,0.26137882,33781294.0,0.0,0.0,0.0,1.0,0.0
34006615.0,0.01097254923246493,0.08923025739278558,0.0834533818977956,0.2612364143887776,0.0,1541.0,1500.0,1261.0,1494.8717434869739,1504.1282565130261,1545.743486973948,16.050350358757516,16.446091491583164,16.107301941563126,16.03525850298597,16.430601438817632,15.628250522545091,16.01355782963928,164.42092504128257,164.42092504128257,11.740732519238477,-0.002310924414829659,-0.005912593833667334,0.0005244182384769539,-0.1428583699539078,0.19378839159318637,-0.08235525721843688,2.0,-0.3594053476272545,0.6405946523727455,11.0,0.0,0.0,1.0,0.0,0.0,0.0,0.0,0.0,0.0,0.0,0.3289540351162325,0.07743394365731462,-2.4226895962264527,-2.503786365993988,-10.077898005591184,75.92777008701404,47.357189464008016,-0.02873812207214429,0.021197227016032064,0.06173816923446894,0.0,-0.14426514626452905,-1.4897931395050101,-7.993023833713426,738477735470942.0,954.2844375953908,11.73397878799599,0.054655620577154305,-0.13260618733266533,0.03123962961523046,0.004122582474949871,-1.5762540920981964,-7.110184611663327,0.052346161837675355,-0.08475807857715431,0.042054480707414826,738477735470942.0,100.059906,102.93154952985972,-0.1435823127755511,-1.2830286292224449,15.369740714068136,16.435108511482966,-0.021307337312625248,-0.16215252930661322,-0.23040666907014026,116.42159205511022,503.0268894699399,11.733509531462925,95427.12837328657,1.1338320664509018,0.10843837956513022,0.4979310369118237,-0.1429539373967936,0.04678081892785571,-0.0554300039739479,0.04690213723647295,0.3312544958176353,0.07917094082164329,-2.4187722238557114,0.34237757410821645,0.09476489095791583,-0.14029660458717436,-0.9241813298897795,0.2638229968957916,398683118.0667335,327377955.2400802,503451.88176372746,16.51255783539078,-14.92,-7.082557761310621,0.4348972781482966,3.5848657286112227,0.0,0.0,0.0,39.8714138,32.7364372,-346.5105340032064,115.1173830252505,-103.3171339507014,-14.801663170761522,-7.108327038168337,0.7007189378316633,0.09512377820240481,-0.10714581901803608,1.9361709602825652,-2.7869880960360724,103.44326895070141,0.1074682199779559,0.252020460749499,0.10038001772945893,0.26293065130260523,34006614.64729459,0.0,0.0,0.0,1.0,0.0
34244785.0,0.004201225663326653,0.1097770796252505,0.08293335945490982,0.26100096633266534,0.0,1541.0,1500.0,1260.743486973948,1495.3314233426854,1503.6685766573146,1555.4869739478959,16.1535165951503,16.551550456753507,16.150062190220442,16.076750782104206,16.47291855250501,15.683236752645291,16.069706093687376,165.71637990601207,165.71637990601207,11.7427352150501,-0.002298630246492986,-0.005905254749498998,0.0005118935210420842,-0.14366498680561124,0.19391580330260522,-0.08233957084769539,2.0,-0.344135761254509,0.6558642387454909,11.0,0.0,0.0,1.0,0.0,0.0,0.0,0.0,0.0,0.0,0.0,0.3252021308436874,0.08204225899398797,-2.4191394920200398,-2.4938007416673345,-10.290185590280561,72.30932067683366,47.57624742739479,-0.02845266201002004,0.024028009286573147,0.06271703500400802,0.0,-0.17239131715831657,-1.6460576114569139,-8.625702727751502,3344830000000000.0,954.3293851268537,11.735504097034068,0.05245264109418838,-0.1006400544228457,0.045774308014028056,-0.1036260950480962,-1.5001974075130262,-7.629911702511021,0.029274593989979964,-0.048472273967935874,0.04609244570140281,3344830000000000.0,100.059906,102.61333394288576,-0.12767151991382766,-1.4975118275130261,15.369496918657314,16.59312039707415,-0.024472463142284573,-0.0005268260561122305,-0.23230953036072144,116.23186466332668,502.7188652238477,11.734906859218437,95430.65253450902,1.1338740509559118,-0.09038572599198394,0.15726173863326648,0.19233763334869736,0.037783018114228455,-0.02923279964729459,0.04941470774148297,0.3273095971022044,0.08402617616432866,-2.4147354588396794,0.34402539107014024,0.09659890217234468,-0.13741787099398797,-0.9238130206793588,0.26771843210821644,398682812.78997993,327377765.8366733,503303.1038703407,16.526801209739478,-14.92,-7.096802053771543,0.886041075739479,3.5857579015470944,0.0,0.0,0.0,39.8714138,32.7364372,-349.85444668296594,113.52055099138276,-103.12194513967935,-14.811595301823647,-7.166224900076152,1.0794587231603208,0.032217361627254505,-0.30259591012224446,1.4962216897454912,-2.7803409395751504,103.24807996012024,0.09391504981162324,0.2761361593767535,0.09551615206813627,0.2662988758436874,34244785.41683367,0.0,0.0,0.0,1.0,0.0
34454393.0,0.006169128304609218,0.12381952457915832,0.08140648859118237,0.2625713709759519,0.0,1540.0,1500.0,1262.0,1496.6152304609218,1502.3847695390782,1562.5461880681362,16.22474120266533,16.624401458356715,16.208634955330663,16.134014648156313,16.531360758757515,15.75662862012024,16.14467923553106,166.83529677054108,166.83529677054108,11.744937197575151,-0.002286008254509018,-0.005897597124248497,0.0004996981663326653,-0.14448624020841683,0.19400545533867736,-0.08233069277154308,2.0,-0.32886617388176353,0.6711338261182365,11.0,0.0,0.0,1.0,0.0,0.0,0.0,0.0,0.0,0.0,0.0,0.3201861071503006,0.08699283849098197,-2.41505392603006,-2.482439629501002,-10.537402960420842,68.6111677014028,47.837371366092185,-0.028168053951903808,0.026806052016032065,0.06355141266132265,0.0,-0.1975581226312625,-1.5695639964408816,-8.899120354432867,3344830000000000.0,954.3527291791585,11.73755725248497,0.049416238190380754,-0.07015362020641283,0.04744017898597194,-0.16049411134468936,-1.5482774285551102,-8.097885730316634,0.02593101665731463,-0.024809132204408817,0.05424975309819639,3344830000000000.0,100.059906,102.2836679264529,-0.1111881824769539,-1.6190741862885771,15.3691359401002,16.725948140140282,-0.027136252631262524,0.11367492479158316,-0.23403927198597194,116.17466026653307,502.3942974987976,11.736750574709419,95434.38733400802,1.133918415739479,0.16144893584969927,-0.12390712059919817,0.20236128385370716,0.02536909140280561,-0.003878052601202409,0.052986200869739486,0.3161085999158317,0.08908884361322646,-2.415400867567134,0.3438430202164329,0.09695530050501003,-0.1313704356032064,-0.9247227050200401,0.271898656513026,398682516.15390784,327377581.6432866,503078.32232945896,16.56753549200401,-14.929406963366734,-7.184143032280561,1.165085526012024,3.590194946058116,0.0,0.0,0.0,39.8714138,32.7364372,-353.20469303026056,111.90442850641283,-102.85439268096192,-14.822477484008017,-7.270853797268537,1.3529625771342686,0.020757248476953902,-0.5916042911122243,1.0365536671763527,-2.772154312729459,102.98053081202406,0.07926753208817634,0.29170809901002004,0.09090681776352705,0.27020895732064126,34454392.781563126,0.0,0.0,0.0,1.0,0.0
34681936.0,0.0024679917274549094,0.13548268958917836,0.07958730503406813,0.26564949221042083,0.0,1539.0,1500.0,1266.0,1498.9879778757515,1500.0120221242485,1568.4869739478959,16.283699042805612,16.68464631032064,16.26720771531062,16.191278514208417,16.58980296501002,15.83002048529058,16.21965238224449,167.95421366072145,167.95421366072145,11.7471391801002,-0.002273386492985972,-0.005889939985971944,0.00048750255511022044,-0.14530749361122244,0.19409510711823647,-0.08232181469539078,2.0,-0.31359658702204407,0.6864034129779559,11.0,0.0,0.0,1.0,0.0,0.0,0.0,0.0,0.0,0.0,0.0,0.3118157789659319,0.09186656606012024,-2.4129946632244486,-2.4713132888997995,-10.690484826693387,64.8957381774549,48.09938660478958,-0.027893912328657317,0.029522957685370742,0.06435022641082165,0.0,-0.22655348290180358,-1.599266582997996,-9.388527780190381,1586604084168336.0,954.3759168432866,11.739690432905812,0.0374942976232465,-0.04321374049498998,0.05370494768537074,-0.18746261296593186,-1.570167756204409,-8.624688463643288,0.012323709236472946,-0.012550931330661323,0.048431127957915834,1586604084168336.0,100.059906,101.93791025951904,-0.09390027306212426,-1.6625445176613225,15.368854515230462,16.847588098937877,-0.029574676955911823,0.19304774143086173,-0.2357115479438878,116.24104333266533,502.15957103306613,11.738879633787574,95437.05417076152,1.1339500440821644,-0.20161660186372737,0.17546282625851728,0.31605525085971903,0.011627658034068138,0.015915574789579157,0.053348262026052105,0.3065158775951904,0.09406946821643286,-2.4136466571703403,0.34472038841082164,0.09770745116432866,-0.12595836343486974,-0.9250699632585171,0.27654635416833667,398682210.32344687,327377387.3811623,502776.709095992,16.63253398320641,-14.950015980721442,-7.269689155192385,1.3797854040701403,3.5943034243507017,0.0,0.0,0.0,39.8714138,32.7364372,-356.56010894949907,110.25914485991984,-102.53525042204409,-14.832972113366733,-7.417764947252505,1.5363456605150299,-0.017656466394789565,-0.6928776754569138,0.5924945231182366,-2.7618934121402807,102.66138739679359,0.06531085381162326,0.2983682203366734,0.087945588997996,0.2750708924408818,34681935.72945892,0.0,0.0,0.0,1.0,0.0
34917791.0,-0.00011792466533066084,0.14324777616833667,0.07736166472945892,0.26960590641282567,0.0,1538.0,1500.0,1269.3587174348697,1500.0,1499.0,1571.3587174348697,16.379865751202406,16.78290900154309,16.325780475551102,16.248542373847695,16.648245171262527,15.9034123502004,16.294625529218436,169.0731305509018,169.0731305509018,11.749341156212424,-0.002260765116232465,-0.005882282232464929,0.00047530794388777556,-0.14612874701402806,0.1941847598977956,-0.08231293761923847,2.0,-0.29832700013627256,0.7016729998637274,11.0,0.0,0.0,1.0,0.0,0.0,0.0,0.0,0.0,0.0,0.0,0.29775787970741485,0.09660998321643287,-2.4143712092805614,-2.4605850263747495,-10.683950216953907,61.15101447931864,48.362913113486975,-0.02761555818236473,0.032143574438877755,0.06519237654308617,0.0,-0.18474573015831666,-1.5795902352805613,-9.774682196589179,3344830000000000.0,954.4298955428858,11.742116158657314,0.027540238979959924,-0.02614451962725451,0.05665498538276553,-0.1827317931723447,-1.5206722874488978,-9.035468110496994,0.0040981530701402775,0.013986250082164328,0.05178299684368738,3344830000000000.0,100.059906,101.55667715531062,-0.07483837976553107,-1.6418620588096193,15.36864150779559,16.960792540621245,-0.03184302630861723,0.23523845388176354,-0.23746753757314631,116.44145207334671,501.7486652755511,11.741194150781563,95441.75192633267,1.1340058842224447,-0.01804266057114226,-0.21720301678356657,-0.04122898857915845,-0.0003698436332665281,0.02904773960521042,0.05132938584569138,0.29387359691983966,0.0986186532985972,-2.413718016823647,0.34494848495991987,0.09761746492184369,-0.11929658217835672,-0.9258763064348697,0.2822686506472946,398681908.59238476,327377193.49819636,502444.9883232465,16.710219976432867,-14.96,-7.4717195785310615,1.6276657335691382,3.604588513801603,0.0,0.0,0.0,39.8714138,32.7364372,-359.9172186891783,108.57922494288577,-102.18542042685371,-14.842490222044088,-7.59991651596994,1.6381739885991984,0.009224633985971937,-0.840881350496994,0.2713661498236474,-2.749706720767535,102.31155509098195,0.05354770137274549,0.29881750206012025,0.08652379925851703,0.2799156327775551,34917791.30260521,0.0,0.0,0.0,1.0,0.0
35132412.0,-0.0021269472484969926,0.14817194783567134,0.07653195790981963,0.2743556390480963,0.0,1538.0,1500.0,1275.0,1502.0,1497.0,1574.0,16.55233948466934,16.95925689234469,16.396316466533065,16.31814823254509,16.719318387635273,15.972560420541082,16.36523601236473,170.19204741803608,170.19204741803608,11.75154313745491,-0.0022479946813627255,-0.005874298058116232,0.0004652300681362725,-0.14686536514629256,0.19419750521042084,-0.08230528731262525,2.0,-0.283057412763527,0.716942587236473,11.0,0.0,0.0,1.0,0.0,0.0,0.0,0.0,0.0,0.0,0.0,0.2837346007855711,0.10125870575551102,-2.4157034488496993,-2.449390498985972,-10.677415612344689,57.401936321162324,48.617593780601204,-0.027347395609218436,0.034599744208416834,0.06605987947294589,0.0,-0.2718305725511022,-1.6664849291723447,-9.852228398967936,3167345130260521.5,954.4971619192385,11.744501755951903,0.006566288134268537,0.0002737485731462926,0.05734154101202405,-0.23830979604408817,-1.5170887129939878,-9.404414232745491,-0.014306023388777553,0.030864396094188375,0.04669489331663326,3167345130260521.5,100.059906,101.22028233967936,-0.05801867828456914,-1.5733466321362726,15.368438565030061,17.032537289038075,-0.03328197300200401,0.24722348847895792,-0.23898291231663327,116.73225486933866,501.2869231154309,11.74358665496994,95447.03424024048,1.1340686361743486,0.12064218144088178,-0.05482783977955904,0.26744765362925826,-0.016341693735470942,0.040443639088176345,0.049021933410821644,0.2793976214208417,0.10320344609819639,-2.4151026616913827,0.34466588248897795,0.09715310769138277,-0.11183749544488977,-0.9269616716913828,0.2865042532224449,398681611.12384766,327376997.76472944,502086.4992741483,16.797890899719437,-14.955527026993988,-7.662493259951904,1.662108078823647,3.614998894563126,0.0,0.0,0.0,39.8714138,32.7364372,-363.27402097314626,106.85677188697395,-101.82118811062125,-14.844659800561123,-7.80600202792986,1.6655016254569137,0.11319203494989982,-1.0047230953627255,0.019685647835671408,-2.7365182003907815,101.94732759579158,0.03871000431663326,0.29372647338677355,0.0836511099498998,0.28516940861723444,35132412.40681363,0.0,0.0,0.0,1.0,0.0
35349191.0,-0.007901490587174351,0.15082495240480961,0.07679249771743488,0.27890794805611224,0.0,1537.9437863246492,1500.0,1280.0,1502.04903749499,1496.95096250501,1575.0,16.552368644769537,16.958981626472948,16.48335958428858,16.404783841302606,16.80782014492986,16.035852796653305,16.429826796092186,170.65563631382764,170.65563631382764,11.753004897855712,-0.002235018128256513,-0.005865865234468938,0.00045807451503006015,-0.14748520200400803,0.19410413274549096,-0.08229933236472944,2.0,-0.2677878263907816,0.7322121736092185,11.0,0.0,0.0,1.0,0.0,0.0,0.0,0.0,0.0,0.0,0.0,0.26995449548096195,0.10524230204809619,-2.416724484324649,-2.434920963150301,-10.67088099773547,53.62227278468938,48.810141941723444,-0.027082124651302605,0.036973791056112225,0.06700434096392785,0.0,-0.09216463019038072,-1.511815756038076,-10.160675967955912,566853238476952.8,954.509005553507,11.746716992144288,-0.004721473206412826,0.018773856184368738,0.05821116514428858,-0.19586250161122243,-1.5990462969559116,-9.774455257134269,-0.024285893348697393,0.037173508619238474,0.0493886005511022,566853238476952.8,100.059906,100.88669804589178,-0.041339585725450906,-1.4658335828917834,15.368162730801604,17.106023199138278,-0.034757220264529064,0.2404297942965932,-0.24048020548496993,117.13703633386774,500.96065751302615,11.7459449451503,95450.76761022044,1.134113031230461,-0.17529283240881774,-0.23237739331863747,-0.8982571350480971,-0.02234968717835671,0.048596233434869726,0.048520609727454915,0.2682128113927856,0.10709876221843687,-2.414117666322645,0.3453811398456914,0.09707390338476954,-0.10590608406412826,-0.9273993944028056,0.29187297536873746,398681307.0693387,327376791.87394786,501712.3877967936,16.885562141402804,-14.943195351242485,-7.86751634539479,1.6095859895891784,3.6261963150901804,0.0,0.0,0.0,39.8714138,32.7364372,-366.6100214332666,105.0966682733467,-101.46107388897796,-14.837003864008016,-8.020307005432867,1.6281184913106213,0.11087683800400805,-1.019771937707415,-0.3401026406412826,-2.723585568917836,101.58720912985972,0.025116677685370733,0.2869052812685371,0.08291917238877757,0.28952908903807617,35349190.721442886,0.0,0.0,0.0,1.0,0.0
35558719.0,-0.007574662134268537,0.15057771761523048,0.07641302569739479,0.2844042243567134,0.0,1537.0260521042085,1500.0,1285.0,1503.0260521042085,1495.9739478957915,1574.0260521042085,16.6981810958517,17.10811475242485,16.570402701783568,16.49141944006012,16.89632191018036,16.099145180460923,16.49441757981964,170.98260797294589,170.98260797294589,11.754312348977955,-0.0022220415751503008,-0.005857432410821643,0.0004509187575150301,-0.14810503888777557,0.1940107602805612,-0.08229337741683367,2.0,-0.2525182390180361,0.747481760981964,11.0,0.0,0.0,1.0,0.0,0.0,0.0,0.0,0.0,0.0,0.0,0.25617438940681364,0.10922589834068136,-2.4177455197995994,-2.4204514263146293,-10.664346393126252,49.842609258216434,49.0026901108016,-0.026812984511022046,0.03917446534268537,0.06805221737875751,0.0,-0.25533674861923844,-1.5602169696573147,-10.27991970763527,3344830000000000.0,954.5698593398798,11.74908547995992,-0.014749151030060127,0.03158022226052103,0.04714860165130261,-0.2250221997915831,-1.57400880052505,-10.034527764831664,-0.030464729735470944,0.03994447819839679,0.04947467247094189,3344830000000000.0,100.059906,100.57236049739478,-0.025622810296593187,-1.324440759973948,15.367943573206412,17.152483405030058,-0.03569079928857715,0.21433032162324647,-0.24193349187174348,117.64318539018036,500.5578263216433,11.748218806372746,95455.37205486973,1.134167741466934,0.9196128023767522,-0.24800339412424818,0.025826862490981994,-0.037364121657314626,0.0492823851743487,0.04046703432064128,0.24860170815831664,0.11054653172945891,-2.420170165498998,0.34327305800200403,0.09498267872945892,-0.09647715763126254,-0.9294259489338678,0.29665754846292586,398681009.7364729,327376585.44308615,501365.1421240481,16.97323373655311,-14.945845782865732,-8.068929719781563,1.6009204766593186,3.6368610404328656,0.0,0.0,0.0,39.8714138,32.7364372,-369.9396046354709,103.29036776192385,-101.1109824947896,-14.819390176112226,-8.235837722142286,1.5461431153206413,0.151084799254509,-0.9613444631763528,-0.4293207999478958,-2.7108186225951902,101.23711984428857,0.02739487470941883,0.2741815780120241,0.08176118477354709,0.2945695276753507,35558719.0260521,0.0,0.0,0.0,1.0,0.0
35771972.0,-0.010641828298597193,0.14953485624448898,0.07585942994188377,0.2882066592004008,0.0,1537.0,1500.0,1289.691382765531,1504.0,1495.0,1574.0,16.612203568637273,17.019789979218437,16.65744581825652,16.578055048817635,16.98482367490982,16.16243755581162,16.559008373547098,171.30957973206412,171.30957973206412,11.7556198001002,-0.002209065022044088,-0.005848998587174349,0.0004437639478957916,-0.14872487671943888,0.19391738781563128,-0.08228742146893787,2.0,-0.2372486517995992,0.7627513482004008,11.0,0.0,0.0,1.0,0.0,0.0,0.0,0.0,0.0,0.0,0.0,0.33732479309619234,0.112093711,-2.3374499673587175,-2.1178021354929863,5.330885114583163,150.83959782705412,49.11748571883768,-0.026349503016032064,0.041234234018036074,0.06921404499999999,0.0,-0.24364443190180365,-1.595336694470942,-10.507639955551102,1227921002004009.5,954.6016728799599,11.75100950208417,-0.02874008499999999,0.0391635765490982,0.038057198326653316,-0.22479330911422848,-1.6225845290701404,-10.270467732244489,-0.04906197057915832,0.04200405963527054,0.03771401281963928,1227921002004009.5,100.059906,100.31056143246492,-0.012532830863727458,-1.1664206175190381,15.367670460601204,17.170004547535072,-0.03604668118436874,0.1735431851663327,-0.24320052023647296,118.1872620240481,500.2984179192385,11.750305213206413,95458.3733562525,1.1342033918076153,-0.44000188737474866,0.3216677726312614,-0.03865829185571121,-0.046366661551102195,0.058708556150300586,0.03297765785370742,0.3846091018817635,0.11342111601603207,-2.29821222542485,0.3912184491142285,0.12887609555911825,-0.15131680603807615,-0.8985601421843689,0.30252238701002004,398680705.85490984,327376368.2328657,501021.98312024045,17.055791578096194,-14.914434075731464,-8.2873737378998,1.4833037591703406,3.6488341833967937,0.0,0.0,0.0,39.8714138,32.7364372,-373.2636228711423,101.43973647474951,-100.78359411462925,-14.79308166496994,-8.441101580737474,1.42799451298998,0.18943091713426852,-0.8937097833246493,-0.5887859679579158,-2.698747358993988,100.90973411462926,0.15896479182565132,0.26069741585571143,0.08167027506613225,0.29912918184368736,35771972.11022044,0.0,0.0,0.0,1.0,0.0
36010289.0,-0.011234022607214428,0.14622629861322647,0.07612417232865731,0.2939858209218437,0.0,1538.0,1500.0,1294.7174348697395,1504.8605200801603,1494.1394799198397,1572.0,16.73416803753507,17.144416442885774,16.74448893472946,16.66469065757515,17.0733254398998,16.225729938076153,16.62359915727455,171.63655139118237,171.63655139118237,11.756927241222446,-0.0021960884689378756,-0.005840565763527054,0.00043660816432865735,-0.14934471357715431,0.1938240153507014,-0.08228146652104208,2.0,-0.2219790652725451,0.7780209347274548,11.0,0.0,0.0,1.0,0.0,0.0,0.0,0.0,0.0,0.0,0.0,0.43163148077354707,0.11480688928256512,-2.245884863176353,-1.7752144209318639,23.541967477314625,266.3574341300601,49.22150570981964,-0.025874793468937875,0.04316343465531062,0.07036425958517034,0.0,-0.22176981414028057,-1.651595056993988,-10.569303166472945,3344830000000000.0,954.6224708060121,11.75273888472946,-0.035966920531062124,0.03664022047895792,0.040946424713426854,-0.1982820228036074,-1.5900478930961923,-10.331722184729458,-0.05685680474749498,0.05216658090180361,0.03522403705410822,3344830000000000.0,100.059906,100.06859864108216,-0.0004345092264529083,-0.9944218289258517,15.367417180681363,17.165375822745492,-0.03595917289779559,0.13058999538877758,-0.24446972549098195,118.83434367875752,500.03792325751505,11.752189452645291,95461.33383216434,1.1342385575350702,0.36806550728657283,-0.41303726960921844,-0.08910209907214356,-0.0352289432945892,0.054927463507014024,0.025243314755511025,0.46604204104609215,0.11578592090581162,-2.212551132817635,0.42320170548296593,0.15361850416833667,-0.1808731143527054,-0.8743912985631263,0.3110487200761523,398680406.25651306,327376148.1831663,500704.84303186374,17.120359738937875,-14.865711207154309,-8.481078825082164,1.306776886220441,3.6600181456292584,0.0,0.0,0.0,39.8714138,32.7364372,-376.5898468549098,99.54031195392785,-100.4836089266533,-14.757360329258516,-8.630381079308616,1.2796900447895792,0.2583284863346693,-0.7667898690681363,-0.7382513778777555,-2.6876870675591182,100.60974377014028,0.25255845277755506,0.2509523514649299,0.09156850662925851,0.3073752102965932,36010288.60521042,0.0,0.0,0.0,1.0,0.0
36218345.0,0.029388460537074203,0.14310288720841682,0.07685033798396794,0.29835364200400805,0.0,1538.0,1500.0,1299.5891783567135,1486.5891783567135,1512.4108216432865,1570.4108216432865,16.74011297925852,17.150432110521045,16.770106067735473,16.69049982244489,17.099575058396795,16.243349653747497,16.641463891583168,172.06351041743486,172.06351041743486,11.758129741322646,-0.002183865633266533,-0.005829665987975951,0.00043130834468937875,-0.1497485326753507,0.19344954241082163,-0.08208223958517034,2.0,-0.2067094778997996,0.7932905221002005,11.0,0.0,0.0,1.0,0.0,0.0,0.0,0.0,0.0,0.0,0.0,0.5040634376573147,0.11728582475951904,-2.1591667491843687,-1.6424188030801605,28.07030461314629,307.41536900541087,49.31527117160321,-0.02553557641482966,0.04506759534869739,0.07135874091583166,0.0,-0.07971705184368719,-1.5312448739138276,-10.510748884308617,3344830000000000.0,954.6523356531062,11.754392292945893,-0.04927085353306612,0.04658343269739476,0.03400920483967936,-0.18656204311022057,-1.5451634359779558,-10.526558065771543,0.0570481705651304,0.05672297656312627,0.029360463446893793,3344830000000000.0,100.059906,99.8710252493988,0.009444063114228466,-0.8582454723306612,15.367466384509019,17.15558508553106,-0.035762390412825654,0.09500985573747492,-0.24559547992785574,119.49344898296593,499.8919071703407,11.753838410781563,95462.99820803606,1.1342583836593185,0.903528716298599,-0.09557615359919391,-0.15859720136873554,0.10706258386973959,0.05732966138076155,0.0312678487254509,0.538146780480962,0.11826449564529058,-2.123566629084168,0.4552301671683367,0.17907966800000003,-0.20395739528256515,-0.8479790680440881,0.3145858528697395,398680104.8038076,327375920.9685371,500420.82351002004,17.175154065831663,-14.814844934168336,-8.645462195014028,1.1767226830380761,3.6699495021583166,0.0,0.0,0.0,39.8714138,32.7364372,-379.9149127733467,97.59520766184369,-100.22056786152305,-14.709634057314629,-8.797108116232465,1.106020763264529,0.2565235149398796,-0.7377067648957916,-0.8318240067494986,-2.6779667961523046,100.34670402204408,0.3016364780981964,0.25166121780360723,0.10834385746893789,0.31291722518637277,36218344.98997996,0.0,0.0,0.0,1.0,0.0
36443314.0,0.03545274554909819,0.14079258061122243,0.07992255413426853,0.3055968568537074,0.0,1540.0,1500.0,1308.0744335330662,1478.7729771603206,1520.2270228396794,1570.0,16.76212098292585,17.172734668496993,16.791755645711422,16.71238016993988,17.121803766432866,16.25801934408818,16.656310556272544,172.7001248002004,172.7001248002004,11.759112186833667,-0.0021716915090180364,-0.005818607084168336,0.00042612946693386774,-0.15013839882765528,0.19305691353907817,-0.081870530002004,2.0,-0.19143989152705412,0.808560108472946,11.0,0.0,0.0,1.0,0.0,0.0,0.0,0.0,0.0,0.0,0.0,0.5637545572625251,0.11962832546492985,-2.0752717431102203,-1.6318156331783567,24.629189395250503,305.10447496953907,49.40306392356713,-0.025310258899799598,0.0470183980501002,0.07192644472945892,0.0,0.06056176034669348,-1.582861159190381,-10.33222331997996,11.755653071783566,954.6816994122245,11.755653071783566,-0.02073849206613232,0.04474976283166332,0.024797287557114224,-0.10761401184769562,-1.57001722901002,-10.556123241022044,0.18111224589378755,0.05133941902605211,0.04621560619438877,1097156408817633.4,100.059906,99.70492269675351,0.01774921146292585,-0.7723353100801603,15.36728442747495,17.16555218014028,-0.03596537465330661,0.060499412529058126,-0.24662007433466934,120.17221484068136,499.6334199511022,11.75521812204409,95465.9684354509,1.13429355650501,0.6201128399398815,0.19305858859919828,0.10426580434268667,0.21109915486172343,0.05914731016633267,0.05650191188577154,0.585332472,0.12046154644288577,-2.0488326441322644,0.48175337731462925,0.1988864036533066,-0.21609934891983967,-0.8256110273607215,0.3197598428797595,398679804.68517035,327375690.23186374,500178.2167753507,17.205979356012026,-14.7600514048497,-8.841803883903808,0.9902064380120241,3.681062950587174,0.0,0.0,0.0,39.8714138,32.7364372,-383.237370154509,95.60998841144288,-99.99723317434871,-14.657080976452907,-8.954851662138276,0.9424885685490982,0.3530967329318637,-0.7316307240801603,-0.666400301234469,-2.6679713472905813,100.12337106112224,0.30638698375350704,0.26451234256713424,0.12963696080360723,0.3176989362725451,36443313.67735471,0.0,0.0,0.0,1.0,0.0
36675387.0,0.04148524733867737,0.14148881029458918,0.08323416146092184,0.31239273030060116,0.0,1541.3326653306613,1500.0,1313.0,1479.5519955470943,1519.4480044529057,1571.0,16.815995429178354,17.227682526412824,16.813405233687376,16.734260507434872,17.144032484468937,16.27268903775551,16.671157224288578,173.33673917515034,173.33673917515034,11.760094631563126,-0.0021595170521042082,-0.005807547591182365,0.00042094958917835676,-0.1505282649799599,0.19266428433466937,-0.081658819751503,2.0,-0.17617030415430865,0.8238296958456914,11.0,0.0,0.0,1.0,0.0,0.0,0.0,0.0,0.0,0.0,0.0,0.610238217008016,0.12191556880761523,-1.9975815876533067,-1.6215552488056113,21.333665604529063,302.79021319398805,49.48966233791583,-0.025172679885771546,0.0490467570260521,0.07205750919038076,0.0,0.07080891643687338,-1.5230628158517039,-10.128515990160322,3344830000000000.0,954.6794991398798,11.75679464274549,0.12425827549899783,0.05123653100200396,0.03797642281763527,-0.04932446191583158,-1.5276379863627259,-10.392059380701403,0.2405231572144288,0.0451269543727455,0.09112215678757511,3344830000000000.0,100.059906,99.53576121272545,0.02620732221042083,-0.7398927514809618,15.367047856152304,17.17215329713427,-0.03610210681963928,0.02644720332464934,-0.24768526088777554,120.96422824388777,499.3162174406813,11.756396290741483,95469.59604677354,1.1343367310981964,0.12905731243687757,0.09221742971542934,0.10602689312224055,0.2542675083607215,0.06219988436673341,0.09963062601402799,0.6241016048937876,0.12260243811222445,-1.972370870981964,0.5085496391462926,0.2177352840521042,-0.2233658028016032,-0.8025405474208417,0.3262185531643287,398679511.9332665,327375459.99298596,499976.83861242485,17.23678108272545,-14.704869974769538,-9.014421798342685,0.8251722450641285,3.6916188347114227,0.0,0.0,0.0,39.8714138,32.7364372,-386.5449536138277,93.58408412963928,-99.80709418390782,-14.5717210347495,-9.15342946237074,0.8193016869759521,0.5385356189839675,-1.0622202165711416,-0.4732485013306615,-2.654243176731463,99.93322988699398,0.28096249986573146,0.2871663005470942,0.15122617877555108,0.32354831628456915,36675387.38677355,0.0,0.0,0.0,1.0,0.0
36889904.0,0.0374587113767535,0.1478392741042084,0.08871707257515031,0.31676876022044087,0.0,1544.0,1500.0,1317.2044088176353,1480.580237529058,1518.419762470942,1574.2044088176353,16.824860908677355,17.23650764262525,16.835054821663327,16.75614085492986,17.16626119250501,16.287358734769537,16.6860038956513,173.973353504008,173.973353504008,11.761077079639279,-0.0021473430561122246,-0.005796488893787576,0.0004157697114228457,-0.15091813113226452,0.19227165559118237,-0.08144710983567134,2.0,-0.16090071678156315,0.839099283218437,11.0,0.0,0.0,1.0,0.0,0.0,0.0,0.0,0.0,0.0,0.0,0.6356764055470941,0.12411476107414829,-1.9297785740881765,-1.611841077482966,18.27013496206413,300.47058493967944,49.57435762571142,-0.02509304711022044,0.05106593679759519,0.07183579441082165,0.0,-0.030290690655310634,-1.507690602016032,-9.96053031635471,3344830000000000.0,954.7208821707414,11.757838878657315,0.21030552758917834,0.048529575557114235,0.058808517250500986,-0.04429457805210418,-1.577338449797595,-10.232403785090181,0.2577765434268537,0.05775880290981964,0.12247093081763527,3344830000000000.0,100.059906,99.38227983689379,0.03388125321042084,-0.7461955035150301,15.366921870521043,17.164025378436875,-0.03594207163126253,0.000811451997995997,-0.24858939393787577,121.71564201923847,499.1659878206413,11.757456191763527,95471.32253875752,1.1343572686312626,-0.04234849519238411,0.15106153705811656,0.03081667892384793,0.25517644448296595,0.07919390009018036,0.14044583261322643,0.6462160246933868,0.12495656381362726,-1.9058893024188377,0.5320750984348698,0.23183442523446893,-0.22400991300801604,-0.7829183899438877,0.33274481922044086,398679211.9226453,327375217.1783567,499800.72833126254,17.259814788396792,-14.589310011122246,-9.21117928980962,0.7426402998156313,3.7047230644689377,0.0,0.0,0.0,39.8714138,32.7364372,-389.8220631687375,91.50803915759519,-99.63898927034069,-14.42855587232465,-9.429894737803608,0.7526257677775551,0.8579419529559118,-1.4629591449138275,-0.15064338744889783,-2.63277187544489,99.76512066515029,0.24237276970340682,0.31380692866332666,0.1694314254448898,0.3307874315631263,36889904.28256513,0.0,0.0,0.0,1.0,0.0
37104162.0,0.032647825066132244,0.15646213850901805,0.09243835093787577,0.3214001495851704,0.0,1546.0761523046092,1500.0,1323.0761523046092,1484.4204628336672,1514.5795371663328,1579.0761523046092,16.916568929899796,17.330385921623247,16.853747316332665,16.77549158210421,17.185935941042082,16.29172844963928,16.690335726392785,174.60996783286572,174.60996783286572,11.762059521803607,-0.0021356703006012025,-0.0057862065370741485,0.000411685751503006,-0.15120488334669338,0.19185857324248495,-0.08114163986773547,2.0,-0.14563113040881764,0.8543688695911824,11.0,0.0,0.0,1.0,0.0,0.0,0.0,0.0,0.0,0.0,0.0,0.6578005986693387,0.12634963982765532,-1.8630246763126252,-1.6021718758416832,15.231698038857713,298.09965757855707,49.65608229200401,-0.025048293386773546,0.0530624020741483,0.07118120235470941,0.0,0.004605565364729798,-1.3547397608977958,-10.090869332965932,3344830000000000.0,954.7272884382766,11.758798879519038,0.253870361004008,0.05733928238677353,0.10720455477755517,0.05499985863326614,-1.4835633355751503,-9.95870926497996,0.23691610286973952,0.07719454597995996,0.16354119078957918,3344830000000000.0,100.059906,99.21955430851703,0.04201755613226454,-0.761025072244489,15.366758796072144,17.166305013667333,-0.035990924563126254,-0.017980188547094215,-0.24944695533466935,122.51745271362725,498.8987280669339,11.75845856224449,95474.38288172345,1.1343935761603205,0.2502121430220389,0.547571896466933,-0.07397756732064104,0.24122295706813618,0.10405007887775551,0.17401465840080166,0.6595786346793587,0.12728747996593187,-1.8408665163366733,0.555292266503006,0.24357261741482966,-0.2207782155971944,-0.763919405250501,0.33947435656513025,398678925.14569134,327374974.7873748,499637.0454288577,17.28173163198397,-14.400075711242485,-9.524650851805612,0.7348023592164327,3.725973053186373,0.0,0.0,0.0,39.8714138,32.7364372,-393.05080373206414,89.36642530032064,-99.4810943519038,-14.213484207635272,-9.805446472118238,0.7382429778677355,1.214660395647295,-1.9000945296432872,0.04702376331062144,-2.601659002695391,99.60723035190381,0.19915697626252504,0.34017560610420844,0.1851340183006012,0.33703050793587175,37104162.32264529,0.0,0.0,0.0,1.0,0.0
37342226.0,0.022383763691382775,0.16791194176152305,0.09617890243687376,0.3289946909458918,0.0,1548.0,1500.0,1330.947895791583,1489.0,1510.0,1584.9717538917835,16.864185544268537,17.276622908977956,16.86894681408818,16.79185424224449,17.20259386244489,16.28393152761523,16.682247116152304,173.93973130901804,173.93973130901804,11.762409856232464,-0.0021245913206412825,-0.005776842106212425,0.000408894749498998,-0.15136983623647293,0.19142132993987976,-0.08072541740681363,2.0,-0.13036154303607217,0.8696384569639278,11.0,0.0,0.0,1.0,0.0,0.0,0.0,0.0,0.0,0.0,0.0,0.6594380566472946,0.128805123749499,-1.802756294785571,-1.5927806738977957,12.348387540260521,295.41160453046103,49.719442935470944,-0.02503723561523046,0.054910739501002004,0.070056373,0.0,-0.01134193155310622,-1.3026996489599199,-10.32052445521042,3344830000000000.0,954.7460801679358,11.759881958877756,0.2502774032384769,0.06929115255110221,0.14750842686973947,-0.02410915505210398,-1.400819979645291,-9.979426693430861,0.20960772928456914,0.10908439033667335,0.19579318994188374,3344830000000000.0,100.059906,99.04834766763528,0.05057782484168336,-0.757379221486974,15.366785005811623,17.180286180621245,-0.03627003735671343,-0.04119902633867735,-0.2502982959278557,123.40817220240481,498.7709921689379,11.759472510440881,95475.80892721443,1.1344106258557114,-0.11291893925851748,0.14850996137875702,0.20048128732064163,0.2016748503166333,0.12744990755911823,0.20658447572745492,0.6658513453326653,0.12986242657915834,-1.7751848220140283,0.5789123192284569,0.2534328243647294,-0.21421088096192387,-0.7448083525090181,0.34411067828056113,398678635.9583166,327374716.902004,499483.0753617235,17.303650278016033,-14.133420702885772,-9.975780695853707,0.6873005487094188,3.756288265667335,0.0,0.0,0.0,39.8714138,32.7364372,-396.20634114268535,87.1390141757515,-99.317923111002,-13.90461560793587,-10.293259744709419,0.7539733736072144,1.6922526687034065,-2.4835674051563124,0.02924061053507015,-2.5610242197775555,99.44406010200402,0.15301057990981964,0.36301035021442885,0.19764370728857716,0.34280892424849696,37342225.79759519,0.0,0.0,0.0,1.0,0.0
37566185.0,0.015533465973947887,0.17897206092384765,0.09780810747294588,0.33522593434869735,0.0,1549.0,1500.0,1337.2385585531063,1494.0,1505.0,1591.3293703567133,16.908330594388776,17.32179111589178,16.884146311843686,16.80821691238477,17.219251783847696,16.27613460559118,16.674158514108218,172.97937751583163,172.97937751583163,11.762619868496994,-0.0021135113406813627,-0.005767477675350702,0.0004061036713426854,-0.1515347881262525,0.19098408674148296,-0.08030919486973948,2.0,-0.11509195666332668,0.8849080433366733,11.0,0.0,0.0,1.0,0.0,0.0,0.0,0.0,0.0,0.0,0.0,0.6610755156252505,0.13126060849098198,-1.7424879141543086,-1.5833894709539078,9.46507704726253,292.72355148236477,49.78280357893788,-0.025064188206412825,0.05651112201803607,0.06851673511422847,0.0,0.010625660422845375,-1.1943059716452908,-10.697451485971945,1717370781563138.0,954.7670410244489,11.760858759258518,0.2261217028577155,0.09205962303206408,0.19005600405811612,0.040631072208416934,-1.3904522931001995,-10.194154407094189,0.17642135998396802,0.13842846627855704,0.23198627387374743,1717370781563138.0,100.059906,98.89926723018037,0.058031964965931854,-0.7165970714068137,15.366708315310621,17.209703843967937,-0.03685991214028056,-0.056472074929859686,-0.2510327266693387,124.26809734208416,498.731443998998,11.76049317751503,95476.28292056112,1.1344161594368738,-0.09443250809819642,0.28468699231261907,0.7945904077855681,0.16339858849298605,0.16988511271743487,0.2489750598957914,0.6575424738156314,0.13213154371142286,-1.718739132250501,0.6004497114949899,0.2576779105611222,-0.20323026928857715,-0.7292139941262524,0.3481066109779559,398678352.21462923,327374445.4048096,499318.74555470946,17.32556800851703,-13.760287838356716,-10.515904206513024,0.7144319708597194,3.794147857032064,0.0,0.0,0.0,39.8714138,32.7364372,-399.2788872921843,84.79310996040081,-99.15096449060121,-13.479598985130261,-10.890358579178356,0.7645555199138275,2.265467859977955,-2.9447059662104205,0.04024032192384791,-2.511069320320641,99.27709633328658,0.10047222773547097,0.3766518539218437,0.20849927553306613,0.3465777468336673,37566185.428857714,0.0,0.0,0.0,1.0,0.0
37806650.0,0.0029147135090180397,0.18899560296392787,0.09905216769338678,0.34147851062124246,0.0,1549.0,1500.0,1342.691382765531,1499.3827655310622,1499.6172344689378,1595.0,16.951986728056106,17.366438929398797,16.899345816513026,16.82457957561122,17.2359097052505,16.268337683567133,16.666069905671343,172.0190237226453,172.0190237226453,11.762829873847695,-0.0021024320521042085,-0.005758112244488978,0.00040331259318637276,-0.15169974032464928,0.19054684349098197,-0.07989297164128256,2.0,-0.09982236929058116,0.9001776307094188,11.0,0.0,0.0,1.0,0.0,0.0,0.0,0.0,0.0,0.0,0.0,0.639185679763527,0.13304865011022043,-1.690630541266533,-1.574817845729459,6.911255437456915,289.71056132805614,49.73148703729459,-0.025114029875751506,0.057747752292585164,0.0667585217995992,0.0,0.0759339237875752,-1.0318200219699398,-11.148353991963928,3344830000000000.0,954.7770925234469,11.761811701422845,0.18976662684969942,0.12456501704609216,0.2195867774689379,0.011850886070139913,-1.238103674278557,-10.522768398036073,0.14527551115430862,0.18497904281563124,0.26920528501002,3344830000000000.0,100.059906,98.75881589809619,0.06505456336673346,-0.6107574456192385,15.366576899438877,17.227704567274547,-0.03722255397394789,-0.08222685755911822,-0.2517709270861724,125.22328850480962,498.5942559092184,11.76150993501002,95477.85291985971,1.1344348761783567,0.00400179843086107,0.3945091911222436,0.1745667577675349,0.11900815495991984,0.21839574633867734,0.2770435518196393,0.6361168092144288,0.13401154844088176,-1.6680774294108216,0.6212489348116232,0.2567449246192385,-0.18836885293186373,-0.7159898163667335,0.35051673893386776,398678081.5272545,327374162.0629259,499162.354111022,17.347485367655313,-13.251627951703407,-11.17077220759519,0.6925142620561122,3.841914338997996,0.0,0.0,0.0,39.8714138,32.7364372,-402.2445569410822,82.30244897917835,-98.98814432102205,-12.920989475350702,-11.59117677228457,0.7490911874709419,2.9361919586513023,-3.4501948039158314,-0.09043491718036067,-2.450432916240481,99.11427913466933,0.0380992950661323,0.379741062749499,0.2230264244288577,0.3500007001002004,37806650.22044088,0.0,0.0,0.0,1.0,0.0
38021584.0,-0.0075170723727455094,0.1950719448236473,0.09998156460721443,0.3457291968537074,0.0,1550.0,1500.0,1346.563126252505,1505.1262525050101,1493.8737474949899,1598.0,16.985764424929858,17.40084164715431,16.913050205891782,16.839434798737475,17.251025815130262,16.25797998432866,16.65536034254509,171.0586699294589,171.0586699294589,11.763039883026051,-0.0020913861683366734,-0.005748818204408817,0.00040018307615230465,-0.15185514453707413,0.19009726833867735,-0.07946860980561123,2.0,-0.08455278191783566,0.9154472180821643,11.0,0.0,0.0,1.0,0.0,0.0,0.0,0.0,0.0,0.0,0.0,0.6144736030761523,0.13475662716432865,-1.6397821205591183,-1.5663445336513024,4.396958005252503,286.65859298517034,49.66641428214429,-0.025190777693386773,0.05853320609418838,0.06489594399799599,0.0,0.004531841999999918,-0.8271894083987975,-11.98982011945892,3344830000000000.0,954.7930706767536,11.76273930480962,0.15833478614629257,0.1602860822645291,0.2530022710701403,0.07551821053907827,-1.0530888703947898,-10.966045047154308,0.09276590880160317,0.2319797151883768,0.2908899603386774,3344830000000000.0,100.059906,98.65127040150301,0.07043180391983968,-0.4322596849959918,15.366497007655312,17.234317747855716,-0.03735640937875752,-0.1144017891462926,-0.2524637972324649,126.19951940661322,498.38867499519034,11.7624457951503,95480.21282014028,1.1344628864348698,-0.49530521668136407,0.21061837804208747,0.335106229595189,0.07062868320240476,0.26559086926452913,0.3024341969138277,0.6012409814789579,0.1353623557815631,-1.6227781435591182,0.641583018488978,0.25024926698797595,-0.16978951357114225,-0.7049165734208417,0.3502804481723447,398677817.46032065,327373854.6038076,499011.2879747495,17.364700731943888,-12.600282093927856,-11.933226577054109,0.6658947985370741,3.8997089206973947,0.0,0.0,0.0,39.8714138,32.7364372,-405.07592496833666,79.62936269697394,-98.8352071371944,-12.184271831242484,-12.385895775230463,0.6880815634328656,3.7931944631663335,-3.735808340270541,-0.4689494322865733,-2.3780929305490983,98.96134128360721,-0.013427921034068199,0.36975350217635267,0.23717051540280562,0.3506400920941884,38021583.9498998,0.0,0.0,0.0,1.0,0.0
38245024.0,-0.017453389503006,0.19659034959919838,0.101066595749499,0.3494563995791583,0.0,1551.0,1500.0,1350.0,1511.0,1488.0,1597.565130260521,16.890126986553106,17.30272592220441,16.879820182945892,16.806968380040082,17.217741446132266,16.167234479378756,16.5623738902004,169.5438513519038,169.5438513519038,11.762654711923847,-0.0020814085050100198,-0.005741728809619239,0.0003864331783567134,-0.1517108109559118,0.18926056830460922,-0.07878873217635271,2.0,-0.06928319554509019,0.9307168044549099,11.0,0.0,0.0,1.0,0.0,0.0,0.0,0.0,0.0,0.0,0.0,0.5690232914168337,0.13515027996192386,-1.5987387146713428,-1.559333925531062,2.3653691601402813,283.37041599058114,49.47691203292585,-0.025299608498997997,0.05881086233667335,0.06283108793386774,0.0,0.06130090999799594,-0.5735830807935873,-12.674624329719437,607713403607211.2,954.798226732465,11.763374882304609,0.10513661065931863,0.21752004915631262,0.2807155061503006,0.04658424829659313,-0.8931062647935872,-11.705375998416834,0.04034490117234472,0.27092412248496994,0.3076408350180361,607713403607211.2,100.059906,98.59511115076153,0.07323974480961924,-0.18782496531462936,15.366427224569138,17.22935900172345,-0.03725862659519038,-0.15100673068537068,-0.2530954491543086,127.14726406072145,498.2482162288577,11.763188913647294,95481.82882096192,1.134482087721443,-0.19582098314028099,0.345154806607213,-0.28192555732665425,0.01231783932464931,0.30717526139078155,0.32112799187374746,0.5529775128296593,0.13547653518236474,-1.5824239206472945,0.6615896149398798,0.2377667257254509,-0.14792591456513027,-0.6956094278296593,0.34927885180761525,398677573.4356713,327373532.73426855,498878.3370701403,17.36433840216433,-11.753188484368737,-12.755866126412826,0.5594304038416834,3.9677734853647295,0.0,0.0,0.0,39.8714138,32.7364372,-407.78698046913826,76.69410556857716,-98.7029763798998,-11.222870403126253,-13.264770178757514,0.5489065253627256,4.734035725821642,-3.8473002405831664,-0.8079207542585168,-2.292941671298597,98.8291163798998,-0.08266828535270537,0.32865643688777557,0.2275497358977956,0.35015674096192384,38245023.68937876,0.0,0.0,0.0,1.0,0.0
38458456.0,-0.029313239535070135,0.1934882756452906,0.1033439023266533,0.35071713334669335,0.0,1551.0,1500.0,1350.0,1516.306613226453,1482.693386773547,1594.3867735470942,16.87390051430862,17.286163395050103,16.843950373527054,16.771840384108216,17.18173483250501,16.071967623847694,16.464759838276553,166.81629594949902,166.81629594949902,11.76096776002004,-0.002071491130260521,-0.0057347633567134265,0.00037208494388777557,-0.1515496188537074,0.18840209491983967,-0.07809448327855711,2.0,-0.05401360817234472,0.9459863918276553,11.0,0.0,0.0,1.0,0.0,0.0,0.0,0.0,0.0,0.0,0.0,0.5122357528376754,0.13482541501002004,-1.56305553745491,-1.5531229528076151,0.5976685936472975,279.9531078551102,49.219386376072144,-0.025422016843687376,0.05861101606412826,0.06040668710220441,0.0,0.22247165254308643,-0.31444474018236535,-13.339128650160319,3344830000000000.0,954.819548539479,11.763727217294589,0.05880955294188388,0.2551966556613226,0.31290315048096196,0.06846079513226291,-0.6591653472785574,-12.381320386492984,-0.017435214843687288,0.3090830025490982,0.3321093497875751,3344830000000000.0,100.059906,98.60460323721442,0.07276508230661323,0.14354604897595133,15.366371037134268,17.167467694849698,-0.036021923138276554,-0.19051262227054103,-0.25375033719038076,128.1765899837675,498.3398103885772,11.76366865955912,95480.74584438877,1.1344691321102205,-0.19131183776553995,0.10607445123447276,0.22100129115230288,-0.052631203641282466,0.3230070865450902,0.3296793872144288,0.4926963639639279,0.13485111576753506,-1.5479518049078158,0.6804825681643287,0.21966795508416836,-0.12334423283166336,-0.6880858524669339,0.34495880433867737,398677345.94869745,327373184.54328656,498782.32573486975,17.340141270941885,-10.711434122344691,-13.612937671122243,0.3708496380420845,4.045614757478959,0.0,0.0,0.0,39.8714138,32.7364372,-410.14312107775555,73.69934252340681,-98.61707040458919,-10.087440766661324,-14.115189561803605,0.33628996742685413,5.6875468342344675,-3.8694802607034076,-1.134212933835671,-2.2022414543206414,98.74321040458918,-0.14384325934068123,0.2766073469238478,0.2136723455190381,0.3473811284709419,38458455.82765531,0.0,0.0,0.0,1.0,0.0
38674683.0,-0.042465430018036106,0.1809261004088176,0.10226297894789578,0.35038878711422844,0.0,1549.8216432865731,1500.0,1349.0,1523.1783567134269,1475.8216432865731,1585.689811278557,16.814034568957915,17.22472650240481,16.808080560240484,16.736712393827656,17.145728214529058,15.976700770100202,16.36714578200401,164.08874062925855,164.08874062925855,11.759280818116233,-0.002061573755511022,-0.0057277982905811625,0.0003577372745490982,-0.151388427751503,0.18754362053507015,-0.07740023399398797,2.0,-0.03874402162124246,0.9612559783787575,11.0,0.0,0.0,1.0,0.0,0.0,0.0,0.0,0.0,0.0,0.0,0.44749998940881747,0.1335460484529058,-1.533163414981964,-1.547882016805611,-0.8689584783967955,276.4448925583166,48.89140573587174,-0.02554370663727455,0.05801618433667333,0.057811926879759515,0.0,0.2950650088577156,-0.21026701817835688,-13.617622738316634,3344830000000000.0,954.8265821206413,11.763654299599198,0.00819449429258514,0.2996048969338678,0.3172478785290582,0.15257182724448842,-0.44348278215631304,-13.126394121442885,-0.074312990220441,0.3072333895531062,0.32790100870941885,3344830000000000.0,100.059906,98.68437338809619,0.06877649357915831,0.4686812313026058,15.366538533286574,17.105134326813626,-0.03477192442084168,-0.2365858684428859,-0.25433203438476953,129.09574827875753,498.30363711823645,11.763754783106213,95481.18150667335,1.1344744311202406,-0.14793527244288485,0.2572805854228393,-0.11791155252705629,-0.11322348671142297,0.31459381034068135,0.3293545171102204,0.42103849336472937,0.13291879209619237,-1.5214561494268537,0.6972090160340683,0.195801866,-0.09671469674749496,-0.6827887762084168,0.34091564683166337,398677143.6320641,327372818.3991984,498727.17099739483,17.292107596232466,-9.453022155442882,-14.455952271763529,0.12812009704809568,4.132929004200401,0.0,0.0,0.0,39.8714138,32.7364372,-412.27687880581163,70.44809061829659,-98.58663369677355,-8.72733411844088,-14.931860107394792,0.0448514356092178,6.559689692957917,-3.440497494020039,-1.401519406881764,-2.102543619795591,98.71276515198397,-0.21302269260721454,0.20995135512825638,0.1966953859358717,0.3418804130661323,38674682.731462926,0.0,0.0,0.0,1.0,0.0
38892582.0,-0.054750452212424854,0.16087144137274548,0.09664433524048095,0.3481947971943888,0.0,1546.9498997995993,1500.0,1345.8997995991983,1528.1503006012024,1470.8496993987976,1575.11148002004,16.663261076733466,17.070230562865735,16.772210753386773,16.70158440304609,17.109721606052105,15.88143392278557,16.26953173523046,161.36118524468938,161.36118524468938,11.757593866212424,-0.0020516563807615232,-0.0057208325811623235,0.00034338960521042083,-0.1512272356492986,0.1866851471503006,-0.07670598535270542,2.0,-0.023474434426853694,0.9765255655731463,11.0,0.0,0.0,1.0,0.0,0.0,0.0,0.0,0.0,0.0,0.0,0.3708517256092184,0.13083611065531064,-1.511950708258517,-1.544094935024048,-1.8843479154148304,272.8004289927856,48.45782980659318,-0.025639464895791584,0.05713069973346693,0.05519781447094188,0.0,0.42182139838476945,0.017459250162324677,-13.509844183527054,3344830000000000.0,954.8148662771542,11.763128475691383,-0.05020493302605214,0.3112697953627255,0.33206617314829656,0.23239591061923848,-0.2106800477334668,-13.498360605551103,-0.13325292762925858,0.2969464124188377,0.33445162491983965,3344830000000000.0,100.059906,98.83040281931864,0.06147499553707415,0.7730353280280564,15.36664016016032,16.979549999338676,-0.03225818791382765,-0.3036400423527055,-0.2548952555531062,129.94985380781563,498.2842027292586,11.763363259298597,95481.39128729458,1.1344768580841682,0.03429515761723351,-0.16054630842885692,-0.35472106995390296,-0.17111939028657316,0.29128552067134267,0.31268323693787575,0.3461313290480961,0.13008839638877753,-1.4991904032124248,0.7118769608436875,0.16940361366132264,-0.07021586246693386,-0.6779354679038075,0.33516471713827656,398676967.8771543,327372430.5082164,498729.05307875754,17.21167037777555,-8.032826001136272,-15.245813585370742,-0.20311255072144313,4.227194583937876,0.0,0.0,0.0,39.8714138,32.7364372,-414.09102496873743,67.02774614098196,-98.62885387671342,-7.217965989957915,-15.626990715731463,-0.28950183435671367,6.897220812845692,-2.738833749360721,-1.4863430676673346,-2.001085724809619,98.75498887671343,-0.2628712739178357,0.1472594965771543,0.17682929020040078,0.33646233261523045,38892582.39278557,0.0,0.0,0.0,1.0,0.0
39149020.0,-0.06804317447494991,0.13528011033466936,0.09125339726252504,0.3425508696192385,0.0,1545.0852266533068,1500.0,1341.0,1535.3679837334669,1463.6320162665331,1563.483079478958,16.53492002669339,16.93894380777555,16.670665985751505,16.599581263587172,17.005313734188377,15.752835686352705,16.137873850581162,158.63362985010022,158.63362985010022,11.755906914308618,-0.002044192276553106,-0.005715970342685371,0.00032938679158316635,-0.1509741207995992,0.18589288746092186,-0.07594857152104209,2.0,-0.008204847054108226,0.9917951529458917,11.0,0.0,0.0,1.0,0.0,0.0,0.0,0.0,0.0,0.0,0.0,0.2950872380400802,0.12785360488176353,-1.4924148130561121,-1.540602389675351,-2.812900786138276,269.1491164895791,48.00693965246493,-0.02570906855511022,0.05609123991182365,0.052595358899799605,0.0,0.35183795313026045,0.07101250148296594,-13.20925649478958,3344830000000000.0,954.7856005633266,11.762022626192385,-0.1162557504669338,0.3045450621843688,0.3290042191903808,0.31213044434268555,0.018601293529057622,-13.611798797715432,-0.20195587891983965,0.2715585935410822,0.3159654821783567,3344830000000000.0,100.059906,99.0654691424449,0.04972179968336674,1.0751400936933868,15.36673865256513,16.82460446737475,-0.029157316883767537,-0.374962835765531,-0.2554846419619239,130.77995326713426,498.51889985270543,11.762470294028057,95478.71703573148,1.13444512053507,-0.3676817002224451,0.05619426127655425,-0.08074136943887748,-0.23388444449699394,0.25832359838276553,0.29417492535270545,0.2694171835511022,0.12667724976152303,-1.4840155887454909,0.723224178248497,0.14118265528056112,-0.04434100260921846,-0.6745688714348698,0.3274927885571143,398676818.73827654,327372015.2725451,498806.0188398797,17.105039354248497,-6.425087114745493,-15.82480197763527,-0.5063936069979958,4.326442810146292,0.0,0.0,0.0,39.8714138,32.7364372,-415.5335990607215,63.49748428765531,-98.7463263509018,-5.664554263631263,-16.129215475991984,-0.6194184868997994,6.989697285549098,-1.8041092520220448,-1.4252007960661324,-1.9031572912825652,98.87246207653307,-0.28937125692585175,0.09192253560521042,0.15503442335871742,0.33002506248496993,39149020.498997994,0.0,0.0,0.0,1.0,0.0
39366956.0,-0.07249806773947898,0.1123864742645291,0.08597769634268537,0.33805465846292587,0.0,1542.0,1500.0,1336.0,1539.0,1460.0,1551.5172823567136,16.40851521749499,16.809639799499,16.502577463907816,16.42981828665331,16.831599747715433,15.590465137034068,15.971721781022044,155.10125527354708,155.10125527354708,11.753611363887774,-0.002039214038076152,-0.005713238981963928,0.0003157339098196393,-0.15062786616432866,0.18516771839679358,-0.07512715770941884,2.0,0.007064739318637247,1.0070647393186372,11.0,0.0,0.0,1.0,0.0,0.0,0.0,0.0,0.0,0.0,0.0,0.2241727605210422,0.12337529306613228,-1.482080964793587,-1.5387262079579158,-3.264909572430861,265.46021828296597,47.46103204130261,-0.02573713906212425,0.05499394577755511,0.04999674750300602,0.0,0.42720133701803636,0.10120643772344631,-12.704602519218438,3344830000000000.0,954.7605006973948,11.760584606613225,-0.1793801074729458,0.2750812548376754,0.312941680226453,0.37264603405410773,0.07490119989779571,-13.3248761045491,-0.26071319829058115,0.21482105798797604,0.2837206412625251,3344830000000000.0,100.059906,99.33532770400802,0.03622882744689381,1.3013595561863722,15.366888832965932,16.688176848496994,-0.026425750821643293,-0.45387042887174334,-0.25601919394188377,131.42387235531064,498.6077251482966,11.761152029278557,95477.70179549098,1.1344330141763526,-0.13454545960119546,-0.26228110514228015,0.2615047502044094,-0.2771783946833666,0.20704968145090188,0.2771174965430862,0.19891366144488992,0.12233561763927857,-1.4726601822765533,0.731817219751503,0.11428160518637279,-0.021488510408817676,-0.6714989895330662,0.3210535645130261,398676706.8503006,327371600.32364726,498951.5813496994,16.963419235290583,-4.905220157997999,-16.24640735044088,-0.8329809930601196,4.4191454250881765,0.0,0.0,0.0,39.8714138,32.7364372,-416.63386161823644,59.8750389944489,-98.93272542727455,-4.145729373795593,-16.438307121462923,-0.9244870984789574,6.6366675079919855,-1.018851555597196,-1.2416346730140284,-1.811448514480962,99.05886294945893,-0.311872250727455,0.040036499863727516,0.1259640312705411,0.3224662668136273,39366955.861723445,0.0,0.0,0.0,1.0,0.0
39583453.0,-0.08182149336673344,0.08964264236272552,0.07881184602404813,0.3318926004629259,0.0,1537.3346693386775,1500.0,1328.3346693386775,1539.4192224789579,1459.5807775210421,1540.6693386773547,16.36366229945892,16.76382744430862,16.33448895206413,16.26005531971944,16.657885755370742,15.428094597715432,15.805569721462925,151.3790810110221,151.3790810110221,11.751172291643288,-0.0020342357995991986,-0.005710507621242485,0.0003020801062124249,-0.1502816124509018,0.18444254933266535,-0.0743057438977956,2.0,0.02233432669138272,1.0223343266913827,11.0,0.0,0.0,1.0,0.0,0.0,0.0,0.0,0.0,0.0,0.0,0.15325969294188396,0.11889654605410824,-1.4717497916653306,-1.5368504961162324,-3.716779823048095,261.7713092422846,46.915096807354715,-0.02570644321442886,0.05388343952905812,0.04743884761322646,0.0,0.3575763593807607,0.06787524954909833,-12.075958802484971,3344830000000000.0,954.7359674180361,11.758818994148296,-0.23738999449298578,0.23545975171943892,0.29889368291382773,0.42201104771142217,0.1442515493366737,-12.925230877595194,-0.300087876002004,0.173183614476954,0.26497136824048095,3344830000000000.0,100.059906,99.66090532773546,0.01995009831863733,1.4792929354468936,15.367190696633266,16.518993310000003,-0.023036044270541095,-0.5421378735210418,-0.2565988296472946,131.97478245330663,498.88667650380756,11.759415608897795,95474.52028300602,1.1343952175450902,-0.6452227303106047,-0.15948362843487734,-0.26194091399399927,-0.30642044554909814,0.16549558792585176,0.24890544097194392,0.13000149986573165,0.11713318668336675,-1.4702142464368737,0.7363702161703407,0.08727107992585179,-0.0001628996633267106,-0.6709208758577154,0.31591832938276554,398676622.51322645,327371163.03206414,499190.6275308617,16.808793148937877,-3.3846900681002046,-16.467068949238477,-1.138275795639278,4.509598560857715,0.0,0.0,0.0,39.8714138,32.7364372,-417.40907557094187,56.208562845871754,-99.18475074242484,-2.7444505585190417,-16.56632339216433,-1.1911040361382759,5.966566235184372,-0.21179974363126508,-1.0227748798056118,-1.7290945867535072,99.3108893765531,-0.31201410437474963,-0.0018400440360720595,0.09709336545090186,0.3177088434468938,39583453.44689379,0.0,0.0,0.0,1.0,0.0
