timestamp,roll,pitch,yaw,thrust_body[0]
12140000,-0.06477046,-0.33195165,-0.005876899,1
12144000,-0.06672536,-0.33192024,-0.005876899,1
12148000,-0.06865981,-0.331876,-0.005876899,1
12156000,-0.07248363,-0.31566474,-0.005876899,1
12160000,-0.07435367,-0.3156349,-0.005876899,1
12168000,-0.078095086,-0.3154241,-0.005876899,1
12172000,-0.079903156,-0.3154093,-0.005876899,1
12176000,-0.08170462,-0.31540123,-0.005876899,1
12180000,-0.083476365,-0.299654,-0.005876899,1
12184000,-0.08522848,-0.299597,-0.005876899,1
12188000,-0.08699603,-0.29957017,-0.005876899,1
12196000,-0.09054587,-0.29955515,-0.005876899,1
12200000,-0.092279084,-0.2995002,-0.005876899,1
12204000,-0.093997166,-0.28407517,-0.005876899,1
12208000,-0.09572169,-0.28400937,-0.005876899,1
12212000,-0.097458065,-0.2839452,-0.005876899,1
12216000,-0.09916355,-0.28387657,-0.005876899,1
12220000,-0.10086097,-0.28383934,-0.005876899,1
12224000,-0.102528624,-0.28383514,-0.005876899,1
12228000,-0.10414269,-0.2688237,-0.005876899,1
12232000,-0.10575687,-0.2689134,-0.005876899,1
12236000,-0.10739843,-0.2690238,-0.005876899,1
12240000,-0.10900186,-0.2691214,-0.005876899,1
12244000,-0.1105863,-0.2692453,-0.005876899,1
12248000,-0.11216975,-0.2693777,-0.005876899,1
12252000,-0.11373763,-0.2546894,-0.005876899,1
12256000,-0.11528582,-0.2548472,-0.005876899,1
12260000,-0.11681801,-0.25507197,-0.005876899,1
12268000,-0.119922064,-0.25554943,-0.005876899,1
12276000,-0.12288058,-0.24158263,-0.005876899,1
12280000,-0.12434958,-0.2418561,-0.005876899,1
12284000,-0.12582858,-0.24213219,-0.005876899,1
12288000,-0.1272943,-0.2424264,-0.005876899,1
12292000,-0.12876894,-0.24279042,-0.005876899,1
12300000,-0.13169852,-0.22928216,-0.005876899,1
12304000,-0.13315292,-0.22967517,-0.005876899,1
12308000,-0.13459069,-0.22995764,-0.005876899,1
12312000,-0.13595188,-0.23007293,-0.005876899,1
12316000,-0.13729502,-0.23018049,-0.005876899,1
12320000,-0.13865802,-0.23032399,-0.005876899,1
12324000,-0.1400159,-0.21633895,-0.005876899,1
12328000,-0.1413419,-0.21640828,-0.005876899,1
12332000,-0.1426343,-0.21649458,-0.005876899,1
12336000,-0.14393595,-0.21661127,-0.005876899,1
12340000,-0.14522423,-0.21674873,-0.005876899,1
12344000,-0.14649163,-0.21691293,-0.005876899,1
12348000,-0.14779559,-0.20307623,-0.005876899,1
12352000,-0.14907067,-0.20315202,-0.005876899,1
12356000,-0.15032296,-0.20328143,-0.005876899,1
12360000,-0.15158673,-0.20343976,-0.005876899,1
12368000,-0.1540674,-0.20371681,-0.005876899,1
12372000,-0.15532817,-0.19008556,-0.005876899,1
12380000,-0.1577838,-0.19045193,-0.005876899,1
12384000,-0.15897216,-0.19062121,-0.005876899,1
12388000,-0.16014297,-0.19084886,-0.005876899,1
12392000,-0.16131936,-0.19110261,-0.005876899,1
12396000,-0.16248357,-0.17771468,-0.005876899,1
12400000,-0.16365017,-0.17801104,-0.005876899,1
12404000,-0.16482346,-0.17834991,-0.005876899,1
12408000,-0.16596273,-0.17874704,-0.005876899,1
12412000,-0.16707706,-0.17915575,-0.005876899,1
12416000,-0.16820672,-0.17959929,-0.005876899,1
12420000,-0.16934927,-0.16662636,-0.005876899,1
12424000,-0.1704481,-0.16719724,-0.005876899,1
12428000,-0.17156328,-0.16783334,-0.005876899,1
12432000,-0.17267205,-0.16854446,-0.005876899,1
12436000,-0.17376761,-0.16930526,-0.005876899,1
12440000,-0.17484953,-0.170144,-0.005876899,1
12444000,-0.17592005,-0.1576353,-0.005876899,1
12448000,-0.17702457,-0.15855335,-0.005876899,1
12452000,-0.17808929,-0.15956506,-0.005876899,1
12456000,-0.17913432,-0.16067442,-0.005876899,1
12460000,-0.18019006,-0.16179506,-0.005876899,1
12464000,-0.18123616,-0.16291347,-0.005876899,1
12468000,-0.18229751,-0.15077913,-0.005876899,1
12472000,-0.1833351,-0.15202022,-0.005876899,1
12476000,-0.18432835,-0.15336537,-0.005876899,1
12484000,-0.18630372,-0.1561012,-0.005876899,1
12488000,-0.18730973,-0.15750363,-0.005876899,1
12496000,-0.189285,-0.14726852,-0.005876899,1
12500000,-0.19026917,-0.1487908,-0.005876899,1
12504000,-0.1912813,-0.15032387,-0.005876899,1
12508000,-0.1922718,-0.1519065,-0.005876899,1
12516000,-0.19416443,-0.14217132,-0.005876899,1
12520000,-0.19509208,-0.143934,-0.005876899,1
12524000,-0.19602682,-0.14573099,-0.005876899,1
12528000,-0.19696659,-0.1474882,-0.005876899,1
12532000,-0.1978909,-0.14925082,-0.005876899,1
12536000,-0.19881764,-0.15107132,-0.005876899,1
12540000,-0.19973083,-0.13986512,-0.005876899,1
12544000,-0.20063157,-0.14171803,-0.005876899,1
12548000,-0.20151585,-0.14357303,-0.005876899,1
12552000,-0.20239668,-0.14544995,-0.005876899,1
12556000,-0.20331433,-0.14735577,-0.005876899,1
12560000,-0.20419267,-0.14929952,-0.005876899,1
12564000,-0.2050169,-0.13821022,-0.005876899,1
12568000,-0.20583409,-0.14009587,-0.005876899,1
12572000,-0.20669064,-0.142032,-0.005876899,1
12576000,-0.20755331,-0.1440025,-0.005876899,1
12580000,-0.20836467,-0.14596972,-0.005876899,1
12584000,-0.20917942,-0.1479588,-0.005876899,1
12588000,-0.20996283,-0.1369549,-0.005876899,1
12592000,-0.21072493,-0.13886335,-0.005876899,1
12596000,-0.21148752,-0.14080116,-0.005876899,1
12600000,-0.21224053,-0.14276266,-0.005876899,1
12604000,-0.21299869,-0.1446756,-0.005876899,1
12608000,-0.21376808,-0.14654477,-0.005876899,1
12612000,-0.21455215,-0.13548931,-0.005876899,1
12616000,-0.21530917,-0.13735412,-0.005876899,1
12620000,-0.21604195,-0.13922302,-0.005876899,1
12624000,-0.21675965,-0.14107239,-0.005876899,1
12628000,-0.21747036,-0.14289542,-0.005876899,1
12632000,-0.21820681,-0.14465623,-0.005876899,1
12636000,-0.21892533,-0.13351998,-0.005876899,1
12644000,-0.22026278,-0.13710232,-0.005876899,1
12648000,-0.22093783,-0.13881703,-0.005876899,1
12652000,-0.22160313,-0.14056028,-0.005876899,1
12660000,-0.22288604,-0.13115446,-0.005876899,1
12664000,-0.2235192,-0.1328548,-0.005876899,1
12668000,-0.22414508,-0.13449733,-0.005876899,1
12672000,-0.22471261,-0.13610826,-0.005876899,1
12676000,-0.2252919,-0.13770719,-0.005876899,1
12680000,-0.22587405,-0.139263,-0.005876899,1
12684000,-0.22642681,-0.1279578,-0.005876899,1
12692000,-0.22753896,-0.131097,-0.005876899,1
12696000,-0.2280692,-0.13269646,-0.005876899,1
12700000,-0.22862846,-0.13422035,-0.005876899,1
12704000,-0.22918421,-0.13564488,-0.005876899,1
12708000,-0.22975434,-0.12424585,-0.005876899,1
12716000,-0.23088062,-0.12708102,-0.005876899,1
12720000,-0.23145752,-0.12845935,-0.005876899,1
12724000,-0.23202011,-0.1298306,-0.005876899,1
12728000,-0.23254994,-0.13123408,-0.005876899,1
12732000,-0.23308289,-0.11978744,-0.005876899,1
12736000,-0.2336361,-0.121157214,-0.005876899,1
12740000,-0.23421161,-0.12248972,-0.005876899,1
12744000,-0.23474799,-0.1237556,-0.005876899,1
12748000,-0.23527138,-0.12500599,-0.005876899,1
12752000,-0.235796,-0.1262657,-0.005876899,1
12756000,-0.23625945,-0.11471315,-0.005876899,1
12760000,-0.23671247,-0.11597045,-0.005876899,1
12764000,-0.23718399,-0.117260985,-0.005876899,1
12768000,-0.23762459,-0.1185185,-0.005876899,1
12772000,-0.23805307,-0.119753145,-0.005876899,1
12776000,-0.23849785,-0.121013515,-0.005876899,1
12780000,-0.23892194,-0.109362125,-0.005876899,1
12784000,-0.23935504,-0.11051334,-0.005876899,1
12788000,-0.23983781,-0.11165968,-0.005876899,1
12792000,-0.24032968,-0.11277795,-0.005876899,1
12796000,-0.2407871,-0.11391555,-0.005876899,1
12800000,-0.24120878,-0.11504426,-0.005876899,1
12804000,-0.24162948,-0.10331482,-0.005876899,1
12808000,-0.24204695,-0.10446948,-0.005876899,1
12812000,-0.24246971,-0.105636135,-0.005876899,1
12816000,-0.2429055,-0.10680869,-0.005876899,1
12820000,-0.24331458,-0.10803369,-0.005876899,1
12823999,-0.2437179,-0.10921735,-0.005876899,1
12828000,-0.24413987,-0.09745423,-0.005876899,1
12835999,-0.24497312,-0.09965445,-0.005876899,1
12840000,-0.24541894,-0.10073451,-0.005876899,1
12844000,-0.2458396,-0.10186338,-0.005876899,1
12848000,-0.24623975,-0.10297376,-0.005876899,1
12852000,-0.24663417,-0.09122096,-0.005876899,1
12855999,-0.24705216,-0.0923648,-0.005876899,1
12860000,-0.24747318,-0.093462355,-0.005876899,1
12864000,-0.24784954,-0.09453048,-0.005876899,1
12867999,-0.24821898,-0.095647976,-0.005876899,1
12872000,-0.24861072,-0.096780695,-0.005876899,1
12876000,-0.24901856,-0.08502231,-0.005876899,1
12880000,-0.24943706,-0.086136796,-0.005876899,1
12884000,-0.24984539,-0.087268844,-0.005876899,1
12887999,-0.25027245,-0.08839284,-0.005876899,1
12892000,-0.25073755,-0.08950947,-0.005876899,1
12896000,-0.25117236,-0.09066368,-0.005876899,1
12899999,-0.25153327,-0.07889998,-0.005876899,1
12904000,-0.25188643,-0.08001067,-0.005876899,1
12908000,-0.25227413,-0.08112973,-0.005876899,1
12912000,-0.2526668,-0.08229002,-0.005876899,1
12916000,-0.25306472,-0.08344053,-0.005876899,1
12919999,-0.25344008,-0.08459905,-0.005876899,1
12924000,-0.25382373,-0.07288404,-0.005876899,1
12928000,-0.25423953,-0.07411741,-0.005876899,1
12931999,-0.25465596,-0.07532563,-0.005876899,1
12940000,-0.2554274,-0.07768405,-0.005876899,1
12944000,-0.2558066,-0.07887991,-0.005876899,1
12948000,-0.25618342,-0.0670971,-0.005876899,1
12956000,-0.25691965,-0.069471076,-0.005876899,1
12960000,-0.25727642,-0.07069367,-0.005876899,1
12963999,-0.25766358,-0.07191317,-0.005876899,1
12968000,-0.25805703,-0.07313216,-0.005876899,1
12972000,-0.25844446,-0.061402626,-0.005876899,1
12976000,-0.25882745,-0.06269082,-0.005876899,1
12980000,-0.25921005,-0.06397041,-0.005876899,1
12983999,-0.25957048,-0.06521237,-0.005876899,1
12988000,-0.25993347,-0.066454686,-0.005876899,1
12992000,-0.26032573,-0.06772529,-0.005876899,1
12995999,-0.26071265,-0.055969454,-0.005876899,1
13000000,-0.26107767,-0.057207488,-0.005876899,1
13004000,-0.2614127,-0.05845278,-0.005876899,1
13008000,-0.26174548,-0.059737727,-0.005876899,1
13012000,-0.2620711,-0.061019238,-0.005876899,1
13015999,-0.26240093,-0.06230881,-0.005876899,1
13020000,-0.2627308,-0.05053952,-0.005876899,1
13027999,-0.26333255,-0.053103983,-0.005876899,1
13032000,-0.26365048,-0.054428205,-0.005876899,1
13036000,-0.2639552,-0.055753455,-0.005876899,1
13044000,-0.26459336,-0.045180622,-0.005876899,1
13047999,-0.26490942,-0.046541568,-0.005876899,1
13052000,-0.2652267,-0.047918446,-0.005876899,1
13056000,-0.26554814,-0.049242903,-0.005876899,1
13059999,-0.2658574,-0.050559934,-0.005876899,1
13064000,-0.26617694,-0.051942278,-0.005876899,1
13068000,-0.26648915,-0.04022462,-0.005876899,1
13072000,-0.2667731,-0.04163269,-0.005876899,1
13076000,-0.2670882,-0.042989902,-0.005876899,1
13084000,-0.26769745,-0.045677014,-0.005876899,1
13088000,-0.26802078,-0.04697777,-0.005876899,1
13091999,-0.26834023,-0.0351514,-0.005876899,1
13096000,-0.26865533,-0.036570612,-0.005876899,1
13100000,-0.26894656,-0.037940416,-0.005876899,1
13104000,-0.26922977,-0.03927806,-0.005876899,1
13108000,-0.26953432,-0.04065242,-0.005876899,1
13116000,-0.2701139,-0.03014082,-0.005876899,1
13120000,-0.2703697,-0.031496823,-0.005876899,1
13123999,-0.27062327,-0.03288209,-0.005876899,1
13132000,-0.27112672,-0.03564942,-0.005876899,1
13136000,-0.27141392,-0.03704684,-0.005876899,1
13140000,-0.27168342,-0.02511646,-0.005876899,1
13143999,-0.2719387,-0.026463393,-0.005876899,1
13148000,-0.2722093,-0.027882747,-0.005876899,1
13152000,-0.27245697,-0.029308163,-0.005876899,1
13155999,-0.2726811,-0.030692229,-0.005876899,1
13160000,-0.27292258,-0.03204209,-0.005876899,1
13164000,-0.27320156,-0.020079762,-0.005876899,1
13168000,-0.27347815,-0.021418415,-0.005876899,1
13172000,-0.2737236,-0.02278394,-0.005876899,1
13175999,-0.2739543,-0.024150915,-0.005876899,1
13180000,-0.2741817,-0.025498156,-0.005876899,1
13184000,-0.27440187,-0.02686241,-0.005876899,1
13187999,-0.27467233,-0.014874449,-0.005876899,1
13192000,-0.27495834,-0.016280591,-0.005876899,1
13196000,-0.2752157,-0.017686289,-0.005876899,1
13200000,-0.27543727,-0.019074114,-0.005876899,1
13204000,-0.2756289,-0.020422252,-0.005876899,1
13207999,-0.27584645,-0.021773933,-0.005876899,1
13212000,-0.27608472,-0.009727064,-0.005876899,1
13216000,-0.27632597,-0.01108868,-0.005876899,1
13219999,-0.2765604,-0.012454639,-0.005876899,1
13224000,-0.27675763,-0.01379416,-0.005876899,1
13228000,-0.2769302,-0.015159238,-0.005876899,1
13236000,-0.27734393,-0.004427865,-0.005876899,1
13239999,-0.27750278,-0.005747379,-0.005876899,1
13244000,-0.2776869,-0.007067981,-0.005876899,1
13248000,-0.2778909,-0.008430216,-0.005876899,1
13251999,-0.27807194,-0.00979314,-0.005876899,1
13260000,-0.27846593,0.001072197,-0.005876899,1
13264000,-0.27863133,-0.000241178,-0.005876899,1
13268000,-0.27880332,-0.001587113,-0.005876899,1
13271999,-0.27898705,-0.002917014,-0.005876899,1
13276000,-0.2791954,-0.004271267,-0.005876899,1
13284000,-0.27961397,0.006521562,-0.005876899,1
13292000,-0.27999166,0.003802393,-0.005876899,1
13296000,-0.2801664,0.002403859,-0.005876899,1
13300000,-0.28035802,0.001034128,-0.005876899,1
13308000,-0.28068656,0.011968165,-0.005876899,1
13312000,-0.28086296,0.010600446,-0.005876899,1
13316000,-0.28103527,0.009265637,-0.005876899,1
13320000,-0.28120884,0.007940268,-0.005876899,1
13323999,-0.28138408,0.006615569,-0.005876899,1
13332000,-0.28169736,0.017710717,-0.005876899,1
13335999,-0.28185147,0.01647668,-0.005876899,1
13340000,-0.28200012,0.01516531,-0.005876899,1
13344000,-0.28214654,0.013810829,-0.005876899,1
13348000,-0.28231472,0.012491149,-0.005876899,1
13352000,-0.28244668,0.011189234,-0.005876899,1
13356000,-0.2825704,0.023589544,-0.005876899,1
13364000,-0.2828693,0.020927846,-0.005876899,1
13367999,-0.283005,0.019627718,-0.005876899,1
13372000,-0.28312558,0.018288814,-0.005876899,1
13376000,-0.2832533,0.0169523,-0.005876899,1
13380000,-0.28341538,0.029348668,-0.005876899,1
13387999,-0.28367376,0.02665518,-0.005876899,1
13396000,-0.28397295,0.024117459,-0.005876899,1
13404000,-0.28433046,0.035252705,-0.005876899,1
13408000,-0.28449756,0.033953883,-0.005876899,1
13416000,-0.28477418,0.031378474,-0.005876899,1
13419999,-0.2849135,0.030087965,-0.005876899,1
13424000,-0.2850736,0.028803281,-0.005876899,1
13428000,-0.28526586,0.041292083,-0.005876899,1
13436000,-0.28558797,0.03861963,-0.005876899,1
13440000,-0.2857234,0.03732201,-0.005876899,1
13444000,-0.28582922,0.03603531,-0.005876899,1
13448000,-0.28592867,0.03474214,-0.005876899,1
13451999,-0.2860903,0.047344815,-0.005876899,1
13456000,-0.2862743,0.046042684,-0.005876899,1
13460000,-0.28643715,0.044726085,-0.005876899,1
13468000,-0.28679186,0.04214655,-0.005876899,1
13476000,-0.28716674,0.053441834,-0.005876899,1
13480000,-0.28736448,0.052138966,-0.005876899,1
13483999,-0.28753254,0.05083291,-0.005876899,1
13488000,-0.28763688,0.049539644,-0.005876899,1
13492000,-0.28776646,0.04827388,-0.005876899,1
13495999,-0.2879308,0.04699417,-0.005876899,1
13500000,-0.2880788,0.059655678,-0.005876899,1
13504000,-0.28824094,0.058301426,-0.005876899,1
13508000,-0.28839427,0.056961685,-0.005876899,1
13512000,-0.28857148,0.055654276,-0.005876899,1
13515999,-0.2887643,0.05432435,-0.005876899,1
13520000,-0.28892693,0.05296969,-0.005876899,1
13524000,-0.28909534,0.06559136,-0.005876899,1
13527999,-0.28926888,0.06421903,-0.005876899,1
13532000,-0.2894334,0.06286852,-0.005876899,1
13536000,-0.289587,0.061518487,-0.005876899,1
13540000,-0.2897459,0.06021669,-0.005876899,1
13544000,-0.28990743,0.058912262,-0.005876899,1
13547999,-0.2900533,0.07162225,-0.005876899,1
13552000,-0.2901928,0.070271246,-0.005876899,1
13556000,-0.29032046,0.06895345,-0.005876899,1
13564000,-0.2906062,0.06622617,-0.005876899,1
13568000,-0.29077107,0.06486149,-0.005876899,1
13572000,-0.29093045,0.07758036,-0.005876899,1
13576000,-0.2910881,0.07617583,-0.005876899,1
13579999,-0.2912321,0.07479079,-0.005876899,1
13588000,-0.29151484,0.0720374,-0.005876899,1
13592000,-0.29166847,0.07067071,-0.005876899,1
13596000,-0.29185688,0.08339874,-0.005876899,1
13600000,-0.2920154,0.08199808,-0.005876899,1
13604000,-0.29220283,0.08067788,-0.005876899,1
13608000,-0.29240796,0.07936397,-0.005876899,1
13612000,-0.29256538,0.07798207,-0.005876899,1
13616000,-0.29272428,0.0765227,-0.005876899,1
13620000,-0.29291332,0.08930844,-0.005876899,1
13624000,-0.29311356,0.087981574,-0.005876899,1
13628000,-0.29327956,0.08660865,-0.005876899,1
13632000,-0.29342943,0.08520833,-0.005876899,1
13636000,-0.29360446,0.08385064,-0.005876899,1
13640000,-0.29378384,0.08252485,-0.005876899,1
13644000,-0.29396507,0.09537163,-0.005876899,1
13648000,-0.29412493,0.09394409,-0.005876899,1
13652000,-0.29426497,0.09253851,-0.005876899,1
13656000,-0.2944114,0.0911571,-0.005876899,1
13660000,-0.29455674,0.089783505,-0.005876899,1
13664000,-0.29470468,0.08838558,-0.005876899,1
13668000,-0.2948787,0.101186916,-0.005876899,1
13672000,-0.29506424,0.09976987,-0.005876899,1
13676000,-0.2952076,0.09835625,-0.005876899,1
13680000,-0.2953513,0.096913405,-0.005876899,1
13684000,-0.2955164,0.095492445,-0.005876899,1
13688000,-0.29567397,0.09405304,-0.005876899,1
13692000,-0.29583097,0.10685245,-0.005876899,1
13696000,-0.29599395,0.10542569,-0.005876899,1
13700000,-0.2961532,0.10402195,-0.005876899,1
13704000,-0.29630625,0.10260963,-0.005876899,1
13708000,-0.296449,0.10117767,-0.005876899,1
13712000,-0.296576,0.09970613,-0.005876899,1
13716000,-0.29672188,0.11255688,-0.005876899,1
13720000,-0.29689437,0.11109936,-0.005876899,1
13724000,-0.29707482,0.109645516,-0.005876899,1
13728000,-0.2972626,0.10819335,-0.005876899,1
13732000,-0.29743564,0.10674076,-0.005876899,1
13736000,-0.29756352,0.10532746,-0.005876899,1
13740000,-0.2976922,0.11826619,-0.005876899,1
13744000,-0.29784143,0.11679526,-0.005876899,1
13748000,-0.29798162,0.11533033,-0.005876899,1
13752000,-0.2981344,0.11382819,-0.005876899,1
13756000,-0.29828268,0.11233361,-0.005876899,1
13760000,-0.2984117,0.110866435,-0.005876899,1
13764000,-0.2985423,0.123805895,-0.005876899,1
13768000,-0.29868287,0.12235985,-0.005876899,1
13772000,-0.2988263,0.120907746,-0.005876899,1
13776000,-0.298975,0.11949374,-0.005876899,1
13780000,-0.2991196,0.118073255,-0.005876899,1
13784000,-0.29923353,0.11668422,-0.005876899,1
13788000,-0.29930937,0.1296659,-0.005876899,1
13792000,-0.29939702,0.12819096,-0.005876899,1
13796000,-0.2994962,0.12679432,-0.005876899,1
13800000,-0.29957664,0.12539989,-0.005876899,1
13804000,-0.29970866,0.12397224,-0.005876899,1
13808000,-0.29986393,0.12247897,-0.005876899,1
13812000,-0.30003825,0.13544664,-0.005876899,1
13816000,-0.30020618,0.1339655,-0.005876899,1
13820000,-0.3003493,0.13246346,-0.005876899,1
13824000,-0.30046517,0.13096218,-0.005876899,1
13828000,-0.30056924,0.12953545,-0.005876899,1
13832000,-0.3007105,0.12815188,-0.005876899,1
13836000,-0.30087298,0.14118405,-0.005876899,1
13840000,-0.3010134,0.13972118,-0.005876899,1
13844000,-0.3011432,0.13825253,-0.005876899,1
13848000,-0.301273,0.13675103,-0.005876899,1
13852000,-0.30138302,0.13521734,-0.005876899,1
13856000,-0.30149513,0.13368429,-0.005876899,1
13860000,-0.30161798,0.14667471,-0.005876899,1
13864000,-0.3017396,0.14517269,-0.005876899,1
13868000,-0.3018586,0.14364517,-0.005876899,1
13872000,-0.3019807,0.14211419,-0.005876899,1
13876000,-0.3020915,0.14063057,-0.005876899,1
13880000,-0.30219063,0.13914405,-0.005876899,1
13884000,-0.3022981,0.15217137,-0.005876899,1
13888000,-0.3024168,0.15066847,-0.005876899,1
13892000,-0.30252695,0.14914662,-0.005876899,1
13896000,-0.30261973,0.14766097,-0.005876899,1
13900000,-0.30274194,0.14621496,-0.005876899,1
13904000,-0.30289504,0.14474744,-0.005876899,1
13908000,-0.30301812,0.1578196,-0.005876899,1
13912000,-0.30312377,0.15631226,-0.005876899,1
13916000,-0.30322224,0.15479209,-0.005876899,1
13920000,-0.3033214,0.15328692,-0.005876899,1
13924000,-0.3034381,0.15181945,-0.005876899,1
13928000,-0.30355683,0.15039921,-0.005876899,1
13932000,-0.30363548,0.1635267,-0.005876899,1
13936000,-0.30370033,0.16206478,-0.005876899,1
13940000,-0.30379722,0.16061741,-0.005876899,1
13944000,-0.30388168,0.15912566,-0.005876899,1
13948000,-0.30398163,0.15760002,-0.005876899,1
13952000,-0.3041208,0.15606444,-0.005876899,1
13960000,-0.3043262,0.1675746,-0.005876899,1
13964000,-0.30448812,0.16603234,-0.005876899,1
13968000,-0.30463085,0.1645182,-0.005876899,1
13972000,-0.30476624,0.16301554,-0.005876899,1
13976000,-0.30487496,0.16150133,-0.005876899,1
13980000,-0.3050016,0.17456901,-0.005876899,1
13984000,-0.30513608,0.17303434,-0.005876899,1
13988000,-0.30526695,0.17154357,-0.005876899,1
13992000,-0.30540323,0.17004834,-0.005876899,1
13996000,-0.30551746,0.1685174,-0.005876899,1
14000000,-0.30561066,0.16696581,-0.005876899,1
14004000,-0.3057548,0.16719823,-0.005876899,1
14008000,-0.30588335,0.16563956,-0.005876899,1
14012000,-0.3060055,0.164137,-0.005876899,1
14016000,-0.30614376,0.1626344,-0.005876899,1
14020000,-0.3062803,0.16111569,-0.005876899,1
14024000,-0.30644596,0.15959485,-0.005876899,1
14028000,-0.30661175,0.15807612,-0.005876899,1
14032000,-0.3067846,0.15654849,-0.005876899,1
14036000,-0.30697218,0.1549645,-0.005876899,1
14040000,-0.30711424,0.15338174,-0.005876899,1
14044000,-0.30725294,0.15190127,-0.005876899,1
14048000,-0.30741993,0.15042481,-0.005876899,1
14052000,-0.30755532,0.14892584,-0.005876899,1
14056000,-0.30766752,0.14749305,-0.005876899,1
14060000,-0.30780107,0.1460648,-0.005876899,1
14068000,-0.3081122,0.14318547,-0.005876899,1
14072000,-0.30823344,0.14177461,-0.005876899,1
14076000,-0.30835542,0.14039877,-0.005876899,1
14080000,-0.30850556,0.13904203,-0.005876899,1
14084000,-0.30864745,0.13764843,-0.005876899,1
14088000,-0.3087379,0.13626565,-0.005876899,1
14092000,-0.308842,0.13487878,-0.005876899,1
14096000,-0.30898687,0.13353522,-0.005876899,1
14100000,-0.8432015,0.15270764,0.056570016,1
14108000,-0.8435732,0.15006886,0.057132073,1
14112000,-0.8437058,0.14870818,0.05741115,1
14116000,-0.84362227,0.14735377,0.057648946,1
14124000,-0.8318025,0.14465645,0.057991862,1
14128000,-0.83106256,0.14332296,0.05810109,1
14132000,-0.83015215,0.14196469,0.058181603,1
14140000,-0.8279094,0.13918053,0.058270745,1
14148000,-0.8303269,0.1363924,0.058227263,1
14152000,-0.828688,0.13499102,0.058168054,1
14156000,-0.8269725,0.13363639,0.05808334,1
14160000,-0.8251348,0.13226806,0.057975262,1
14164000,-0.8231803,0.13083267,0.05785405,1
14168000,-0.82110476,0.1294227,0.05770219,1
14172000,-0.82402253,0.12801775,0.057526626,1
14176000,-0.8218181,0.12658311,0.057348266,1
14180000,-0.8195411,0.12518728,0.05714605,1
14184000,-0.8171599,0.12377289,0.056923617,1
14188000,-0.81466806,0.12236382,0.056675486,1
14192000,-0.81212306,0.12095701,0.05641326,1
14196000,-0.8143588,0.11962904,0.056617368,1
14200000,-0.8117321,0.118232265,0.05632648,1
14204000,-0.80902463,0.11687088,0.056010403,1
14212000,-0.8035336,0.11408683,0.05536294,1
14216000,-0.8007392,0.11273956,0.055017162,1
14220000,-0.81657916,0.111430585,0.054656953,1
14228000,-0.8107764,0.108845234,0.05388889,1
14236000,-0.80484545,0.10624915,0.05308342,1
14240000,-0.8018146,0.104945384,0.05266326,1
14244000,-0.80289614,0.10363362,0.05223119,1
14248000,-0.7998026,0.10238229,0.051783793,1
14252000,-0.7967174,0.101171024,0.051329043,1
14256000,-0.79363286,0.09992419,0.050876305,1
14260000,-0.7905221,0.098674975,0.050415196,1
14264000,-0.78736013,0.09745253,0.049936567,1
14268000,-0.7877287,0.09623983,0.049452476,1
14272000,-0.7845463,0.0950572,0.048957754,1
14276000,-0.7813295,0.09390693,0.04844846,1
14280000,-0.7780981,0.09275886,0.047932785,1
14284000,-0.77488416,0.09165388,0.047412045,1
14292000,-0.771471,0.08943568,0.04636138,1
14296000,-0.76830465,0.0883328,0.04603558,1
14300000,-0.76510614,0.08721033,0.04550538,1
14304000,-0.7619151,0.08618508,0.04496204,1
14308000,-0.75865716,0.08517937,0.0443997,1
14312000,-0.75541353,0.084154606,0.0438399,1
14316000,-0.76899403,0.083170295,0.04327564,1
14320000,-0.76572967,0.0821844,0.042701647,1
14324000,-0.76247543,0.081187226,0.042128373,1
14328000,-0.7592514,0.080167204,0.04156127,1
14332000,-0.75599587,0.079160094,0.04098333,1
14336000,-0.75272995,0.078219526,0.040393464,1
14340000,-0.7513631,0.077308424,0.03980719,1
14344000,-0.7481564,0.07643834,0.039217673,1
14348000,-0.74493724,0.075600766,0.038619943,1
14352000,-0.741699,0.07475654,0.038016662,1
14356000,-0.7384695,0.073898576,0.037414316,1
14364000,-0.7335535,0.072249696,0.03621085,1
14372000,-0.72717,0.070605025,0.03500005,1
14380000,-0.72082293,0.0689966,0.03378519,1
14388000,-0.7293847,0.067534424,0.032547075,1
14396000,-0.7231316,0.06602121,0.03141825,1
14400000,-0.7200712,0.06526846,0.03081778,1
14404000,-0.71700907,0.0645666,0.030211102,1
14408000,-0.7139017,0.063883655,0.029591478,1
14416000,-0.7086154,0.06252221,0.028368134,1
14420000,-0.70557916,0.061870273,0.027756449,1
14424000,-0.7025449,0.061226256,0.02714297,1
14428000,-0.6995541,0.06061646,0.026534997,1
14436000,-0.69429505,0.059296936,0.025307076,1
14440000,-0.69129914,0.058671053,0.024694186,1
14444000,-0.68828917,0.05810166,0.024073232,1
14448000,-0.6853212,0.057502735,0.023461703,1
14452000,-0.68236136,0.056912005,0.022849955,1
14456000,-0.67939246,0.05637179,0.02223194,1
14460000,-0.6766278,0.05582654,0.021619676,1
14464000,-0.6737251,0.05524823,0.021015342,1
14468000,-0.67084813,0.054673072,0.020414984,1
14472000,-0.6679781,0.054146692,0.019812323,1
14476000,-0.6651112,0.053622644,0.01920889,1
14484000,-0.6730647,0.05256257,0.017993372,1
14488000,-0.6701978,0.05209492,0.017383518,1
14492000,-0.6673315,0.05158852,0.016774211,1
14496000,-0.6645146,0.051055048,0.016206296,1
14500000,-0.6617171,0.050568376,0.015607564,1
14504000,-0.65891826,0.050076865,0.01500745,1
14508000,-0.655622,0.049569696,0.014415273,1
14512000,-0.6528633,0.049084783,0.013821295,1
14516000,-0.6501167,0.048572984,0.013229598,1
14520000,-0.64736044,0.0480768,0.012633966,1
14524000,-0.6446011,0.047628418,0.012034978,1
14528000,-0.64187217,0.04719882,0.011441066,1
14532000,-0.63829607,0.046690814,0.010846738,1
14536000,-0.6355771,0.04617919,0.010254729,1
14540000,-0.63287675,0.045740888,0.009663845,1
14544000,-0.6301718,0.04534876,0.009069782,1
14548000,-0.62746257,0.044952355,0.008473839,1
14552000,-0.624797,0.044490688,0.00788782,1
14556000,-0.62102216,0.04403972,0.007311821,1
14560000,-0.6183892,0.04365256,0.006729501,1
14564000,-0.61579007,0.043239657,0.006154153,1
14568000,-0.6131974,0.042800594,0.005579509,1
14572000,-0.6105945,0.042352226,0.005001565,1
14576000,-0.6080353,0.04190302,0.004432244,1
14580000,-0.61784714,0.041509423,0.003863292,1
14584000,-0.61531913,0.041106753,0.003298354,1
14588000,-0.6127979,0.040694844,0.002733967,1
14592000,-0.61030453,0.040309984,0.002174637,1
14596000,-0.60781646,0.03991339,0.00161874,1
14604000,-0.6013191,0.039175883,0.000493925,1
14608000,-0.5988443,0.038814023,-6.63E-05,1
14612000,-0.5964108,0.03845728,-0.000618049,1
14620000,-0.59162056,0.03774184,-0.001706957,1
14624000,-0.5892268,0.037346613,-0.002252694,1
14628000,-0.585096,0.03696626,-0.002799714,1
14632000,-0.5827242,0.036623266,-0.003342047,1
14636000,-0.5804305,0.036247566,-0.003867794,1
14640000,-0.5781448,0.035882074,-0.004392532,1
14644000,-0.5758466,0.03552763,-0.004920913,1
14648000,-0.5735579,0.03518893,-0.005447839,1
14652000,-0.5831779,0.03486974,-0.005979111,1
14656000,-0.58089966,0.034547903,-0.006505114,1
14664000,-0.5764078,0.033898607,-0.007544844,1
14668000,-0.5741931,0.03354372,-0.008059348,1
14672000,-0.5719834,0.0332074,-0.008573243,1
14676000,-0.56760085,0.032875136,-0.009093096,1
14680000,-0.56540036,0.0326117,-0.009604964,1
14684000,-0.5632184,0.0323121,-0.010114081,1
14688000,-0.561033,0.031933393,-0.010626701,1
14692000,-0.55883914,0.03156572,-0.011141935,1
14696000,-0.556635,0.031226758,-0.011649501,1
14700000,-0.5522615,0.030919436,-0.012162651,1
14704000,-0.5500862,0.03063535,-0.012673446,1
14708000,-0.5479348,0.030297924,-0.013181084,1
14712000,-0.5458173,0.029920151,-0.013682958,1
14716000,-0.5437204,0.02955573,-0.014180582,1
14720000,-0.54163414,0.029189738,-0.014676696,1
14724000,-0.5370808,0.028831163,-0.015175899,1
14728000,-0.53500926,0.02848649,-0.015669638,1
14732000,-0.5329348,0.02817117,-0.016163856,1
14736000,-0.5308594,0.02788337,-0.016658021,1
14740000,-0.5287923,0.027633011,-0.017149562,1
14744000,-0.5267235,0.02734436,-0.017643679,1
14748000,-0.53551954,0.02699932,-0.018142428,1
14752000,-0.53345734,0.02668837,-0.01863751,1
14756000,-0.5314478,0.0263978,-0.019120187,1
14760000,-0.5294819,0.026097544,-0.01959379,1
14764000,-0.5275225,0.025836153,-0.020064877,1
14768000,-0.5255643,0.025592973,-0.020535482,1
14772000,-0.52059174,0.025350383,-0.021001425,1
14776000,-0.518681,0.025131965,-0.021460945,1
14780000,-0.5167457,0.024898384,-0.021927541,1
14784000,-0.514803,0.024645539,-0.022397444,1
14788000,-0.5128969,0.024397075,-0.02285916,1
14792000,-0.5109574,0.024153352,-0.023329135,1
14796000,-0.5058603,0.023923138,-0.023925088,1
14800000,-0.50398034,0.02369702,-0.024383593,1
14804000,-0.5020793,0.023481945,-0.024847077,1
14808000,-0.50021946,0.023225276,-0.025303671,1
14812000,-0.49836984,0.022968298,-0.025758471,1
14816000,-0.49654406,0.022755284,-0.026205687,1
14820000,-0.4914565,0.007335142,-0.027742758,0.3956679
14824000,-0.48963562,0.007126248,-0.028207356,0.3956679
14828000,-0.48786575,0.006959995,-0.02865721,0.3956679
14832000,-0.48613155,0.006756945,-0.029100904,0.3956679
14836000,-0.4843968,0.006581144,-0.029543538,0.3956679
14844000,-0.4909246,-0.009026481,-0.031671837,0.41817087
14848000,-0.4890234,-0.009295407,-0.03218202,0.41817087
14852000,-0.48710078,-0.009600198,-0.03270082,0.41817087
14860000,-0.48312032,-0.010215109,-0.033776373,0.41817087
14864000,-0.4810143,-0.010523623,-0.034345597,0.41817087
14868000,-0.474729,-0.026009087,-0.036240608,0.4394011
14872000,-0.47252613,-0.02639863,-0.036864094,0.4394011
14876000,-0.47027448,-0.02682706,-0.0375048,0.4394011
14884000,-0.46562475,-0.02780883,-0.038839158,0.4394011
14892000,-0.45623377,-0.043989096,-0.041690778,0.45947355
14896000,-0.4536305,-0.044499934,-0.042677928,0.45947355
14900000,-0.45108947,-0.045054536,-0.04344434,0.45947355
14904000,-0.44850722,-0.045639455,-0.04422681,0.45947355
14908000,-0.44589776,-0.04620997,-0.045017805,0.45947355
14912000,-0.44324932,-0.046816237,-0.04582492,0.45947355
14916000,-0.43594122,-0.062610514,-0.048246834,0.4788231
14920000,-0.43323448,-0.0633013,-0.049108427,0.4788231
14924000,-0.43052354,-0.06398104,-0.0499727,0.4788231
14928000,-0.42781803,-0.06463136,-0.050835103,0.4788231
14932000,-0.4250867,-0.06527,-0.051706437,0.4788231
14936000,-0.42236787,-0.06593059,-0.052578382,0.4788231
14940000,-0.42822284,-0.081741385,-0.05520547,0.49692696
14944000,-0.4255232,-0.08243496,-0.0561056,0.49692696
14948000,-0.42285264,-0.08311253,-0.056997616,0.49692696
14956000,-0.41739726,-0.084366426,-0.058814347,0.49692696
14960000,-0.41462556,-0.08502476,-0.059743028,0.49692696
14964000,-0.40676767,-0.100797296,-0.06258274,0.51375175
14968000,-0.40403065,-0.10145294,-0.06353167,0.51375175
14972000,-0.40131903,-0.10211744,-0.0644757,0.51375175
14976000,-0.39861774,-0.10271482,-0.06541175,0.51375175
14980000,-0.3958855,-0.10326198,-0.066354744,0.51375175
14984000,-0.39312094,-0.1038212,-0.067311645,0.51375175
14988000,-0.3848697,-0.11951517,-0.07033795,0.52929264
14992000,-0.38215724,-0.12004623,-0.071305506,0.52929264
14996000,-0.37910986,-0.12040543,-0.07319719,0.52929264
15004000,-0.37372947,-0.12135271,-0.07513416,0.52929264
15012000,-0.3629013,-0.1373493,-0.079257384,0.54474324
15016000,-0.36028248,-0.13778107,-0.08022852,0.54474324
15020000,-0.3576629,-0.13817473,-0.08119722,0.54474324
15028000,-0.35250938,-0.13885015,-0.08309578,0.54474324
15032000,-0.34999514,-0.13907361,-0.08401126,0.54474324
15040000,-0.35303113,-0.15463178,-0.08823344,0.5588677
15044000,-0.3505811,-0.15481152,-0.089148,0.5588677
15048000,-0.3481369,-0.15493473,-0.09005433,0.5588677
15052000,-0.345682,-0.15500757,-0.09095901,0.5588677
15056000,-0.3432222,-0.1550202,-0.09185849,0.5588677
15060000,-0.33541524,-0.17012733,-0.09525048,0.5717013
15068000,-0.33077532,-0.17002329,-0.09697845,0.5717013
15072000,-0.32840085,-0.1699518,-0.09786101,0.5717013
15076000,-0.32605574,-0.16982126,-0.09872502,0.5717013
15080000,-0.3237319,-0.16965796,-0.09957686,0.5717013
15088000,-0.3135979,-0.18438055,-0.103909224,0.58329517
15092000,-0.31135902,-0.18406059,-0.10472973,0.58329517
15100000,-0.30652866,-0.18319659,-0.10755779,0.58329517
15104000,-0.30438498,-0.1828282,-0.10834256,0.58329517
15108000,-0.29674622,-0.19760649,-0.111925185,0.59491616
15112000,-0.294601,-0.19715211,-0.11271886,0.59491616
15116000,-0.29247618,-0.19667053,-0.113499984,0.59491616
15120000,-0.29040855,-0.19616179,-0.1142538,0.59491616
15124000,-0.28833988,-0.19560838,-0.11500096,0.59491616
15128000,-0.28625774,-0.19502866,-0.11574901,0.59491616
15132000,-0.27872,-0.20959744,-0.11939961,0.6053492
15136000,-0.2767249,-0.20890817,-0.12011483,0.6053492
15140000,-0.27473378,-0.20817606,-0.12082112,0.6053492
15144000,-0.2727512,-0.20746286,-0.12152584,0.6053492
15148000,-0.2708025,-0.20672074,-0.12221138,0.6053492
15156000,-0.27548134,-0.22032194,-0.12656863,0.61466
15160000,-0.2735998,-0.21944468,-0.12722152,0.61466
15164000,-0.27177018,-0.21854664,-0.12784824,0.61466
15168000,-0.26996332,-0.21766573,-0.1284669,0.61466
15172000,-0.26815203,-0.21675467,-0.12908152,0.61466
15176000,-0.26640224,-0.21581335,-0.12966438,0.61466
15180000,-0.25949156,-0.2300748,-0.13339615,0.6229423
15184000,-0.25775594,-0.22907764,-0.13397914,0.6229423
15188000,-0.25603482,-0.22806126,-0.13455147,0.6229423
15196000,-0.2525205,-0.2258978,-0.13570155,0.6229423
15200000,-0.25041178,-0.22457086,-0.13732675,0.6229423
15204000,-0.24370542,-0.23872985,-0.14113173,0.63110965
15212000,-0.24037427,-0.23645529,-0.14221834,0.63110965
15216000,-0.23876128,-0.2352491,-0.14272484,0.63110965
15220000,-0.237156,-0.23403454,-0.14322495,0.63110965
15224000,-0.2355855,-0.23282929,-0.14370987,0.63110965
15228000,-0.22913446,-0.24685153,-0.1475515,0.63830864
15232000,-0.22756198,-0.24555211,-0.14803427,0.63830864
15236000,-0.22605357,-0.24425472,-0.14848708,0.63830864
15240000,-0.22458291,-0.24296494,-0.14892271,0.63830864
15244000,-0.22308931,-0.24166381,-0.14936504,0.63830864
15248000,-0.22160487,-0.24036047,-0.14980121,0.63830864
15256000,-0.21423264,-0.25294635,-0.15410098,0.64458644
15260000,-0.2127855,-0.25158203,-0.15451999,0.64458644
15268000,-0.20999971,-0.24885786,-0.15530458,0.64458644
15272000,-0.20865002,-0.24746546,-0.15566947,0.64458644
15280000,-0.21536246,-0.25845173,-0.15958613,0.65004873
15284000,-0.21406789,-0.2569909,-0.15992121,0.65004873
15292000,-0.21151716,-0.254084,-0.16057128,0.65004873
15296000,-0.20997354,-0.2524187,-0.1617044,0.65004873
15300000,-0.20414878,-0.24855617,-0.16146567,0.65532166
15304000,-0.2028678,-0.24702749,-0.16177493,0.65532166
15308000,-0.20166127,-0.24548182,-0.16204526,0.65532166
15312000,-0.2005103,-0.24395017,-0.16229105,0.65532166
15316000,-0.19937842,-0.24242276,-0.16252725,0.65532166
15320000,-0.19821808,-0.24089056,-0.16277394,0.65532166
15324000,-0.19280899,-0.23723608,-0.16249886,0.65984523
15328000,-0.1916554,-0.23564652,-0.16272679,0.65984523
15332000,-0.19050051,-0.23406595,-0.16295524,0.65984523
15336000,-0.18941359,-0.23254865,-0.1631631,0.65984523
15340000,-0.18834715,-0.23103188,-0.16336027,0.65984523
15344000,-0.18728438,-0.22952086,-0.16355531,0.65984523
15348000,-0.18189973,-0.22615865,-0.16328287,0.6636867
15352000,-0.18083805,-0.22464876,-0.1634732,0.6636867
15356000,-0.1797663,-0.22311808,-0.16366255,0.6636867
15360000,-0.17872444,-0.22161987,-0.16384317,0.6636867
15364000,-0.17773224,-0.22015695,-0.16400686,0.6636867
15368000,-0.17677736,-0.21871278,-0.1641561,0.6636867
15372000,-0.17163056,-0.21557507,-0.16388345,0.66689503
15376000,-0.17065468,-0.21405533,-0.16402356,0.66689503
15380000,-0.16969606,-0.21255033,-0.1641574,0.66689503
15384000,-0.16876194,-0.21107699,-0.16428515,0.66689503
15388000,-0.16783944,-0.20965205,-0.16441587,0.66689503
15396000,-0.17548996,-0.20520447,-0.16501054,0.6695441
15404000,-0.173718,-0.20249604,-0.16526133,0.6695441
15408000,-0.17286716,-0.20120583,-0.16538212,0.6695441
15412000,-0.172034,-0.19990563,-0.16549207,0.6695441
15416000,-0.17119238,-0.19857109,-0.16559786,0.6695441
15420000,-0.16601315,-0.19606134,-0.16538547,0.67212796
15424000,-0.16523403,-0.1947246,-0.16546053,0.67212796
15428000,-0.16446304,-0.19340292,-0.16553396,0.67212796
15432000,-0.16369118,-0.19214237,-0.16561905,0.67212796
15436000,-0.16293582,-0.19092754,-0.16570511,0.67212796
15440000,-0.16221291,-0.18972656,-0.16577893,0.67212796
15444000,-0.15715656,-0.18751189,-0.16558455,0.67420775
15448000,-0.15640698,-0.18631706,-0.1656689,0.67420775
15452000,-0.15571064,-0.18516743,-0.16573843,0.67420775
15456000,-0.1550409,-0.18404558,-0.16580126,0.67420775
15460000,-0.15430456,-0.18292898,-0.1658933,0.67420775
15464000,-0.1536045,-0.18186364,-0.16597927,0.67420775
15468000,-0.14859569,-0.17989351,-0.16582769,0.6758348
15476000,-0.14718953,-0.1777827,-0.16600172,0.6758348
15484000,-0.14583209,-0.17571318,-0.1661604,0.6758348
15492000,-0.13993225,-0.17290486,-0.16606784,0.6770593
15496000,-0.13933876,-0.17195795,-0.16604057,0.6770593
15500000,-0.13875295,-0.17104058,-0.16610095,0.6770593
15508000,-0.13763712,-0.16917142,-0.16618899,0.6770593
15512000,-0.13711749,-0.16830827,-0.1662308,0.6770593
15516000,-0.13193572,-0.1667134,-0.16607028,0.67786664
15520000,-0.13140617,-0.16583133,-0.16611116,0.67786664
15524000,-0.13089794,-0.16496247,-0.16614527,0.67786664
15528000,-0.13039348,-0.16409785,-0.16617821,0.67786664
15532000,-0.12986764,-0.16325508,-0.16622439,0.67786664
15540000,-0.13818263,-0.161053,-0.16613695,0.6783205
15548000,-0.13731705,-0.15946504,-0.16616769,0.6783205
15552000,-0.1368935,-0.15868941,-0.16618247,0.6783205
15556000,-0.13644813,-0.15795508,-0.16621497,0.6783205
15560000,-0.13601317,-0.1572252,-0.16624364,0.6783205
15564000,-0.13066687,-0.1559243,-0.16610785,0.6784607
15572000,-0.12991081,-0.15451689,-0.16612643,0.6784607
15576000,-0.1294964,-0.15376392,-0.16614011,0.6784607
15580000,-0.1291104,-0.15303056,-0.16614567,0.6784607
15584000,-0.12874486,-0.15236425,-0.16615668,0.6784607
15588000,-0.12315254,-0.15120861,-0.16602883,0.67831355
15596000,-0.12246593,-0.14987364,-0.16603018,0.67831355
15600000,-0.1220734,-0.14920212,-0.16617927,0.67831355
15604000,-0.12169467,-0.14858493,-0.16620523,0.67831355
15608000,-0.121329635,-0.14795136,-0.16622166,0.67831355
15612000,-0.11573498,-0.1468978,-0.16610429,0.6780038
15616000,-0.1154242,-0.14630935,-0.16610718,0.6780038
15620000,-0.11508934,-0.14574061,-0.16612422,0.6780038
15628000,-0.11445799,-0.14459087,-0.16613902,0.6780038
15632000,-0.11416602,-0.14396957,-0.16612616,0.6780038
15636000,-0.108549416,-0.14292523,-0.16597837,0.67744476
15640000,-0.10832,-0.14231941,-0.1659423,0.67744476
15644000,-0.10807344,-0.14174254,-0.16591951,0.67744476
15648000,-0.10784137,-0.14120206,-0.16589847,0.67744476
15652000,-0.10762419,-0.14066991,-0.1658729,0.67744476
15656000,-0.1073986,-0.14012602,-0.16584812,0.67744476
15660000,-0.10171563,-0.13924363,-0.16572781,0.67668474
15664000,-0.1014934,-0.13872784,-0.16570745,0.67668474
15668000,-0.10131943,-0.13818179,-0.1656603,0.67668474
15672000,-0.10115714,-0.13766687,-0.16561502,0.67668474
15676000,-0.100983605,-0.1371915,-0.16558293,0.67668474
15680000,-0.10080452,-0.13667884,-0.16554488,0.67668474
15684000,-0.109675705,-0.13582276,-0.16539955,0.6757369
15692000,-0.1093941,-0.13492848,-0.1653199,0.6757369
15696000,-0.1091761,-0.13435423,-0.16541165,0.6757369
15700000,-0.108961016,-0.13382691,-0.1653848,0.6757369
15704000,-0.1087832,-0.1333604,-0.16535582,0.6757369
15708000,-0.103041045,-0.13257222,-0.16522609,0.67472655
15712000,-0.102901965,-0.1320664,-0.16517219,0.67472655
15716000,-0.10274696,-0.13160206,-0.16513392,0.67472655
15720000,-0.1025732,-0.13111477,-0.16509825,0.67472655
15724000,-0.10242288,-0.13063264,-0.1650539,0.67472655
15728000,-0.10227478,-0.13016725,-0.1650123,0.67472655
15732000,-0.09655484,-0.12941156,-0.16489588,0.6735592
15740000,-0.096283436,-0.12845004,-0.16479513,0.6735592
15744000,-0.09615863,-0.12798178,-0.16474292,0.6735592
15748000,-0.096013755,-0.12752886,-0.16470227,0.6735592
15752000,-0.095888615,-0.12709567,-0.16465782,0.6735592
15756000,-0.09001584,-0.12640986,-0.16454092,0.6722664
15760000,-0.089898184,-0.12595537,-0.16448851,0.6722664
15764000,-0.08979389,-0.1254983,-0.16442996,0.6722664
15768000,-0.0896657,-0.12505655,-0.16438454,0.6722664
15772000,-0.08957154,-0.1245711,-0.16431545,0.6722664
15780000,-0.08385874,-0.12337987,-0.16410112,0.67087084
15784000,-0.083807886,-0.12294107,-0.16402446,0.67087084
15788000,-0.0837235,-0.122515105,-0.16396429,0.67087084
15796000,-0.08358789,-0.1215664,-0.1638574,0.67087084
15800000,-0.08349684,-0.121090606,-0.1637887,0.67087084
15804000,-0.07763317,-0.12044654,-0.1636617,0.6694141
15808000,-0.07758009,-0.12002696,-0.16358995,0.6694141
15812000,-0.07759003,-0.11964372,-0.16350062,0.6694141
15820000,-0.07753273,-0.118825376,-0.16334172,0.6694141
15824000,-0.07747738,-0.11838491,-0.1632661,0.6694141
15828000,-0.07172624,-0.117728345,-0.16312376,0.6678816
15836000,-0.07166029,-0.116825186,-0.16294917,0.6678816
15840000,-0.07170528,-0.11640478,-0.16283718,0.6678816
15844000,-0.07169671,-0.115970165,-0.16274372,0.6678816
15848000,-0.07164806,-0.11549884,-0.16265829,0.6678816
15852000,-0.065803766,-0.11486362,-0.16251257,0.66628134
15860000,-0.06581518,-0.11398816,-0.16231251,0.66628134
15864000,-0.065822974,-0.11357322,-0.16221671,0.66628134
15868000,-0.06580982,-0.11312221,-0.16212127,0.66628134
15872000,-0.06578352,-0.112675175,-0.16203204,0.66628134
15876000,-0.074698515,-0.11209643,-0.16189441,0.664605
15880000,-0.074721515,-0.11167053,-0.16178995,0.664605
15884000,-0.07477617,-0.11125805,-0.16167572,0.664605
15888000,-0.07479822,-0.11084844,-0.16157526,0.664605
15892000,-0.07482344,-0.11042759,-0.16147101,0.664605
15900000,-0.06897162,-0.10933705,-0.16139954,0.66300166
15904000,-0.069033936,-0.1088878,-0.16127405,0.66300166
15912000,-0.06910626,-0.10801491,-0.16104984,0.66300166
15920000,-0.069194406,-0.10717922,-0.1608276,0.66300166
15924000,-0.06338978,-0.10657427,-0.16066976,0.6613504
15928000,-0.06342968,-0.10611716,-0.1605515,0.6613504
15932000,-0.063516274,-0.10567398,-0.1604177,0.6613504
15936000,-0.06357236,-0.105240606,-0.16029829,0.6613504
15940000,-0.063609734,-0.104801044,-0.16018501,0.6613504
15944000,-0.06363642,-0.10432703,-0.16006827,0.6613504
15948000,-0.057755936,-0.10376577,-0.1599088,0.6596631
15952000,-0.057835083,-0.10338716,-0.15979248,0.6596631
15956000,-0.05788586,-0.102971345,-0.15967916,0.6596631
15960000,-0.05794582,-0.10256201,-0.15956363,0.6596631
15964000,-0.058023162,-0.10214557,-0.15943958,0.6596631
15968000,-0.05809538,-0.10170369,-0.15931188,0.6596631
15972000,-0.052172627,-0.10117126,-0.15916485,0.65795124
15976000,-0.05219951,-0.100817084,-0.15907486,0.65795124
15980000,-0.052232705,-0.100412175,-0.15897098,0.65795124
15984000,-0.05229174,-0.09996713,-0.15884787,0.65795124
15988000,-0.052372713,-0.099530265,-0.15871786,0.65795124
15992000,-0.05245595,-0.099116914,-0.15859225,0.65795124
15996000,-0.046514496,-0.09860729,-0.15819208,0.65624094
16000000,-0.04663241,-0.09819248,-0.15805244,0.65624094
16004000,-0.04677072,-0.097783,-0.15790594,0.65624094
16008000,-0.046899654,-0.09739409,-0.15776782,0.65624094
16012000,-0.04699333,-0.09702191,-0.15764739,0.65624094
16016000,-0.047069732,-0.096657716,-0.15753561,0.65624094
16020000,-0.041273706,-0.096112266,-0.15736146,0.65440035
16024000,-0.041373596,-0.09572165,-0.15723455,0.65440035
16028000,-0.041449256,-0.09538498,-0.15712929,0.65440035
16032000,-0.041516602,-0.09499475,-0.15701532,0.65440035
16036000,-0.041647535,-0.09461035,-0.15687764,0.65440035
16040000,-0.04180524,-0.094282195,-0.15674204,0.65440035
16048000,-0.036031913,-0.09349488,-0.15646806,0.6525406
16052000,-0.036206026,-0.093134604,-0.15631895,0.6525406
16060000,-0.03649497,-0.092381194,-0.15603684,0.6525406
16064000,-0.036646165,-0.092051044,-0.15590361,0.6525406
16068000,-0.03092046,-0.09152657,-0.15570448,0.6506859
16072000,-0.031101491,-0.09114388,-0.15554792,0.6506859
16076000,-0.03129068,-0.090760306,-0.15538804,0.6506859
16080000,-0.03149399,-0.09041354,-0.15523094,0.6506859
16084000,-0.0316624,-0.090052575,-0.15508439,0.6506859
16092000,-0.0258766,-0.089223064,-0.15474391,0.64884734
16096000,-0.026067268,-0.08888471,-0.15459388,0.64884734
16100000,-0.026297059,-0.0885988,-0.15423454,0.64884734
16104000,-0.02645035,-0.08827195,-0.1541018,0.64884734
16108000,-0.026654527,-0.08798078,-0.15395726,0.64884734
16112000,-0.026860505,-0.08767224,-0.15380824,0.64884734
16116000,-0.021009594,-0.08716882,-0.15360503,0.6468948
16120000,-0.021222107,-0.086883396,-0.15345876,0.6468948
16124000,-0.021424245,-0.08661534,-0.1533204,0.6468948
16128000,-0.021631666,-0.08634265,-0.15317906,0.6468948
16132000,-0.021833278,-0.08605012,-0.15303561,0.6468948
16140000,-0.031204276,-0.085259914,-0.1526584,0.64495534
16144000,-0.031401124,-0.08497742,-0.15251923,0.64495534
16148000,-0.031626597,-0.08468598,-0.15236706,0.64495534
16156000,-0.03214368,-0.0841079,-0.15203841,0.64495534
16160000,-0.03237147,-0.083851844,-0.15189344,0.64495534
16164000,-0.026643693,-0.0833659,-0.15167725,0.6430225
16168000,-0.02694622,-0.083076246,-0.15149611,0.6430225
16172000,-0.027230967,-0.0827965,-0.15132412,0.6430225
16176000,-0.027500983,-0.08253592,-0.15116218,0.6430225
16180000,-0.027749408,-0.08226241,-0.15100574,0.6430225
16184000,-0.027985923,-0.08199404,-0.15085512,0.6430225
16188000,-0.022101808,-0.08156103,-0.15064804,0.6411131
16192000,-0.022370465,-0.081358984,-0.15049993,0.6411131
16196000,-0.022437036,-0.08096729,-0.1510013,0.6411131
16200000,-0.022669345,-0.080699876,-0.15085258,0.6411131
16204000,-0.02294017,-0.0804372,-0.15069011,0.6411131
16208000,-0.02323087,-0.0801857,-0.15052254,0.6411131
16212000,-0.017533693,-0.07987404,-0.150346,0.63959503
16216000,-0.017775621,-0.079659596,-0.15020555,0.63959503
16220000,-0.018013764,-0.079418086,-0.15006064,0.63959503
16224000,-0.018289387,-0.0792077,-0.14990824,0.63959503
16228000,-0.018579945,-0.079004616,-0.1497518,0.63959503
16236000,-0.012999013,-0.07850262,-0.1494142,0.6380926
16240000,-0.013327822,-0.07833645,-0.1492514,0.6380926
16244000,-0.013648246,-0.07813772,-0.14908475,0.6380926
16252000,-0.014254611,-0.07766104,-0.1487475,0.6380926
16256000,-0.014533322,-0.07745153,-0.14859474,0.6380926
16260000,-0.008943688,-0.07713254,-0.14840105,0.6366083
16268000,-0.009618223,-0.076710224,-0.14805035,0.6366083
16272000,-0.009958081,-0.07650697,-0.14787588,0.6366083
16276000,-0.010266896,-0.0763356,-0.1477203,0.6366083
16280000,-0.010600861,-0.07615057,-0.14755225,0.6366083
16284000,-0.004902668,-0.07583463,-0.14734745,0.6351318
16288000,-0.005249247,-0.07565415,-0.14717574,0.6351318
16292000,-0.005641565,-0.07551209,-0.14699502,0.6351318
16296000,-0.005949676,-0.07528719,-0.14700954,0.6351318
16300000,-0.006285347,-0.075092465,-0.14683902,0.6351318
16304000,-0.006640829,-0.07489513,-0.14666048,0.6351318
16308000,-0.001009896,-0.074652195,-0.14647974,0.6337637
16312000,-0.00132646,-0.07451336,-0.14632888,0.6337637
16316000,-0.001657683,-0.07435149,-0.14616755,0.6337637
16320000,-0.002006803,-0.07422989,-0.14600815,0.6337637
16324000,-0.00237542,-0.074135244,-0.14584728,0.6337637
16328000,-0.002760623,-0.07403948,-0.14567988,0.6337637
16332000,0.002811141,-0.0738815,-0.14546885,0.6323928
16336000,0.002342846,-0.07379234,-0.14527144,0.6323928
16340000,0.001931608,-0.07368563,-0.145092,0.6323928
16344000,0.001559231,-0.07357965,-0.14492759,0.6323928
16348000,0.001177866,-0.07348463,-0.1447622,0.6323928
16352000,0.000753935,-0.073369086,-0.1445763,0.6323928
16356000,0.006173195,-0.073131695,-0.14434767,0.6310235
16360000,0.00572484,-0.073010504,-0.14415148,0.6310235
16364000,0.00533336,-0.07289305,-0.14397776,0.6310235
16368000,0.004940996,-0.07276056,-0.14380056,0.6310235
16372000,0.004504578,-0.07262923,-0.14360699,0.6310235
16376000,0.004094712,-0.07252209,-0.14342874,0.6310235
16380000,0.009749237,-0.0723095,-0.14322531,0.62966466
16384000,0.009305464,-0.07219041,-0.14303185,0.62966466
16388000,0.008855596,-0.07206224,-0.14283426,0.62966466
16392000,0.008435503,-0.07194019,-0.14264932,0.62966466
16396000,0.007998526,-0.07191839,-0.14232257,0.62966466
16400000,0.007582197,-0.07187542,-0.1421562,0.62966466
16404000,0.012953075,-0.071681246,-0.14193122,0.62823
16408000,0.012480861,-0.07158163,-0.14173187,0.62823
16412000,0.012017978,-0.071473405,-0.14153433,0.62823
16416000,0.011552265,-0.071365915,-0.14133595,0.62823
16420000,0.011062156,-0.0712764,-0.14113228,0.62823
16424000,0.010539943,-0.07119953,-0.14091928,0.62823
16428000,0.015960092,-0.07099431,-0.14066933,0.62680787
16432000,0.015430436,-0.07088903,-0.1404478,0.62680787
16436000,0.01492692,-0.07080151,-0.1402399,0.62680787
16440000,0.014415819,-0.07070469,-0.1400273,0.62680787
16444000,0.013901776,-0.07057276,-0.13980635,0.62680787
16448000,0.013405472,-0.07045469,-0.13959508,0.62680787
16452000,0.01868099,-0.07025632,-0.1393585,0.62540734
16456000,0.018185558,-0.0701793,-0.1391564,0.62540734
16460000,0.017703973,-0.070061505,-0.13895105,0.62540734
16464000,0.017228737,-0.06990916,-0.13874097,0.62540734
16468000,0.016758097,-0.069802746,-0.1385423,0.62540734
16472000,0.016299676,-0.0697339,-0.13835615,0.62540734
16476000,0.021560706,-0.06955084,-0.13813159,0.6240357
16480000,0.021065183,-0.06949803,-0.13793504,0.6240357
16484000,0.02054389,-0.069425724,-0.13772489,0.6240357
16488000,0.019987075,-0.06932473,-0.13749559,0.6240357
16492000,0.019467771,-0.06926496,-0.13728899,0.6240357
16496000,0.019084373,-0.06911392,-0.13759056,0.6240357
16500000,0.02416644,-0.069029234,-0.13735473,0.6229892
16504000,0.02359751,-0.06897216,-0.13712975,0.6229892
16508000,0.023028232,-0.06886306,-0.13689402,0.6229892
16512000,0.022463534,-0.06874882,-0.13665906,0.6229892
16516000,0.021927334,-0.068683684,-0.13644499,0.6229892
16520000,0.021389373,-0.0686464,-0.13623604,0.6229892
16524000,0.026596285,-0.06850052,-0.13600022,0.62191796
16528000,0.02603269,-0.06843052,-0.13577518,0.62191796
16532000,0.025520993,-0.06836476,-0.13557053,0.62191796
16540000,0.02451271,-0.06821369,-0.13516311,0.62191796
16544000,0.023977442,-0.068132594,-0.1349468,0.62191796
16548000,0.029056393,-0.06796217,-0.13470915,0.6208555
16552000,0.028493432,-0.06786157,-0.13447876,0.6208555
16556000,0.027960746,-0.067773655,-0.13426235,0.6208555
16560000,0.027423223,-0.06765734,-0.13403848,0.6208555
16564000,0.026811676,-0.067592315,-0.13379756,0.6208555
16568000,0.026236646,-0.06757379,-0.13357969,0.6208555
16572000,0.031154696,-0.067581095,-0.1328005,0.6197895
16576000,0.030628752,-0.067423604,-0.13273072,0.6197895
16580000,0.03010476,-0.06728503,-0.13266529,0.6197895
16588000,0.028996754,-0.06717278,-0.13242987,0.6197895
16592000,0.028428568,-0.06711954,-0.13220814,0.6197895
16596000,0.03279823,-0.06741488,-0.13035263,0.6187321
16600000,0.032298677,-0.06736132,-0.13030763,0.6187321
16604000,0.03177514,-0.067284,-0.13025597,0.6187321
16608000,0.031212706,-0.067191705,-0.13019857,0.6187321
16616000,0.030090818,-0.06691231,-0.1300639,0.6187321
16620000,0.03452122,-0.06714274,-0.12821819,0.6174895
16624000,0.033933282,-0.067090206,-0.12816799,0.6174895
16628000,0.03335028,-0.06701067,-0.12811242,0.6174895
16636000,0.032197617,-0.066963196,-0.12802619,0.6174895
16640000,0.031640675,-0.066904955,-0.12797707,0.6174895
16644000,0.03600014,-0.067117184,-0.12616332,0.61625594
16652000,0.03484655,-0.06697656,-0.1260577,0.61625594
16656000,0.03423342,-0.06688005,-0.1259971,0.61625594
16660000,0.033619292,-0.066755,-0.12593049,0.61625594
16664000,0.033028714,-0.0666683,-0.12587367,0.61625594
16668000,0.03723304,-0.06684334,-0.12410571,0.61503494
16676000,0.03613053,-0.06658217,-0.12397913,0.61503494
16680000,0.035562944,-0.066501275,-0.12392537,0.61503494
16684000,0.03497748,-0.0664185,-0.12387019,0.61503494
16688000,0.03440697,-0.0663231,-0.1238134,0.61503494
16692000,0.038556576,-0.06648919,-0.12206603,0.6138332
16696000,0.038103465,-0.06623838,-0.12264191,0.6138332
16700000,0.03751432,-0.066164926,-0.12258882,0.6138332
16704000,0.036927048,-0.06611207,-0.12254019,0.6138332
16708000,0.036327,-0.06604505,-0.12248788,0.6138332
16712000,0.035750844,-0.06591377,-0.1224239,0.6138332
16716000,0.03987646,-0.0661736,-0.12070267,0.6130617
16720000,0.03928725,-0.06610794,-0.12065154,0.6130617
16724000,0.038697205,-0.06604296,-0.12060061,0.6130617
16728000,0.038100988,-0.06603573,-0.1205612,0.6130617
16732000,0.037519645,-0.0660209,-0.12052122,0.6130617
16736000,0.036945123,-0.06592211,-0.12046453,0.6130617
16740000,0.040852826,-0.06617583,-0.11881018,0.6122621
16744000,0.040231567,-0.06608665,-0.118752606,0.6122621
16748000,0.0396339,-0.06597899,-0.118692875,0.6122621
16752000,0.03905539,-0.06586535,-0.11863326,0.6122621
16756000,0.03848756,-0.06576089,-0.11857629,0.6122621
16760000,0.037878446,-0.06563506,-0.1185125,0.6122621
16764000,0.04179731,-0.06583538,-0.116835274,0.61148167
16768000,0.041169487,-0.06570291,-0.11676916,0.61148167
16772000,0.04058559,-0.06555806,-0.11670345,0.61148167
16776000,0.040000204,-0.06544649,-0.11664447,0.61148167
16780000,0.03942536,-0.06537536,-0.11659439,0.61148167
16788000,0.042674117,-0.06557001,-0.114938185,0.61070514
16792000,0.042078782,-0.06547012,-0.11488126,0.61070514
16796000,0.041484445,-0.06541447,-0.11487741,0.61070514
16800000,0.04082548,-0.06538732,-0.114831254,0.61070514
16804000,0.040164825,-0.06532515,-0.11477809,0.61070514
16812000,0.04339035,-0.065516844,-0.11308442,0.6099583
16820000,0.042187914,-0.06535983,-0.112979434,0.6099583
16824000,0.041554034,-0.06530064,-0.11292886,0.6099583
16828000,0.040911935,-0.065221295,-0.11287393,0.6099583
16832000,0.0402759,-0.06508234,-0.112807766,0.6099583
16836000,0.043999344,-0.065271445,-0.11120118,0.60919225
16840000,0.043374307,-0.06522825,-0.11115463,0.60919225
16844000,0.04278507,-0.065170154,-0.11110741,0.60919225
16848000,0.042151004,-0.06511076,-0.11105728,0.60919225
16852000,0.041512046,-0.06504179,-0.11100508,0.60919225
16856000,0.0408954,-0.06495826,-0.110951506,0.60919225
16860000,0.04468476,-0.065158635,-0.1093384,0.6084435
16864000,0.044066265,-0.06513405,-0.109296255,0.6084435
16868000,0.043455623,-0.06510621,-0.10925401,0.6084435
16872000,0.042826984,-0.06500638,-0.10919686,0.6084435
16876000,0.04218087,-0.064878434,-0.10913334,0.6084435
16880000,0.041556872,-0.06477777,-0.10907653,0.6084435
16884000,0.045108125,-0.06494907,-0.10756018,0.60768324
16888000,0.044478185,-0.064839244,-0.10750142,0.60768324
16892000,0.043865867,-0.06479006,-0.10745543,0.60768324
16896000,0.043320984,-0.064736165,-0.10760532,0.60768324
16900000,0.042702988,-0.064696714,-0.10756095,0.60768324
16904000,0.042088024,-0.06463757,-0.1075131,0.60768324
16908000,0.04568162,-0.064852886,-0.105988726,0.60705394
16912000,0.045045305,-0.06478185,-0.105937466,0.60705394
16916000,0.044389848,-0.06470855,-0.105884716,0.60705394
16920000,0.043762535,-0.06462169,-0.1058312,0.60705394
16924000,0.043161876,-0.06453451,-0.105779275,0.60705394
16928000,0.042523243,-0.06443161,-0.105722256,0.60705394
16932000,0.045924522,-0.06459417,-0.10423792,0.60640985
16936000,0.04528664,-0.06451979,-0.10418646,0.60640985
16940000,0.04461768,-0.064440876,-0.10413243,0.60640985
16944000,0.043956257,-0.06435456,-0.10407756,0.60640985
16948000,0.04331981,-0.0642765,-0.10402579,0.60640985
16956000,0.045973074,-0.064369574,-0.10251129,0.6057832
16960000,0.04529852,-0.06431012,-0.10246097,0.6057832
16964000,0.044622116,-0.06421108,-0.10240336,0.6057832
16968000,0.043930322,-0.064162135,-0.10235417,0.6057832
16972000,0.04323832,-0.064122565,-0.102306746,0.6057832
16976000,0.042576697,-0.064064875,-0.10225786,0.6057832
16980000,0.045799404,-0.06419732,-0.10084183,0.60512686
16984000,0.045143194,-0.06409986,-0.10078615,0.60512686
16988000,0.04451899,-0.06402867,-0.1007372,0.60512686
16992000,0.043946423,-0.06396148,-0.10069202,0.60512686
16996000,0.043318722,-0.063885495,-0.10056869,0.60512686
17000000,0.04266931,-0.06378387,-0.10051304,0.60512686
17004000,0.045926213,-0.06390269,-0.099086545,0.60442805
17008000,0.045306325,-0.0638369,-0.09903924,0.60442805
17012000,0.044690773,-0.06375875,-0.09899003,0.60442805
17020000,0.043431044,-0.0635957,-0.09888907,0.60442805
17024000,0.042794563,-0.0635788,-0.09884987,0.60442805
17028000,0.04585795,-0.06371351,-0.09749697,0.6037044
17036000,0.044533946,-0.063601375,-0.097402014,0.6037044
17044000,0.043145694,-0.063519426,-0.09730905,0.6037044
17048000,0.042489387,-0.06346281,-0.09726206,0.6037044
17052000,0.04571425,-0.06360846,-0.09585708,0.6029823
17056000,0.045082763,-0.06357596,-0.09581583,0.6029823
17060000,0.04439517,-0.06354579,-0.095771894,0.6029823
17064000,0.04371284,-0.06351745,-0.095728636,0.6029823
17068000,0.043045763,-0.063478485,-0.09568444,0.6029823
17072000,0.042367294,-0.06340894,-0.09563435,0.6029823
17076000,0.045247514,-0.06348027,-0.09432422,0.60224646
17080000,0.044573553,-0.06347204,-0.09428516,0.60224646
17084000,0.043894283,-0.06346001,-0.09424518,0.60224646
17088000,0.04318963,-0.063398674,-0.09419534,0.60224646
17092000,0.042504504,-0.063343175,-0.094147705,0.60224646
17096000,0.041899465,-0.06321801,-0.0943826,0.60224646
17100000,0.044733997,-0.06334836,-0.09308749,0.6017389
17104000,0.044041462,-0.063327335,-0.093045525,0.6017389
17108000,0.04338823,-0.06331183,-0.09300672,0.6017389
17112000,0.042698592,-0.06328391,-0.09296383,0.6017389
17116000,0.042016983,-0.06324243,-0.09291916,0.6017389
17120000,0.041360296,-0.063174374,-0.09287146,0.6017389
17124000,0.044031017,-0.06331049,-0.09164421,0.60120004
17128000,0.043351687,-0.06325146,-0.09159692,0.60120004
17132000,0.04268156,-0.063199416,-0.09155136,0.60120004
17136000,0.042041562,-0.063203916,-0.09151696,0.60120004
17140000,0.041404627,-0.06322231,-0.091485046,0.60120004
17144000,0.040751673,-0.063192725,-0.09144433,0.60120004
17148000,0.04348315,-0.06332357,-0.09021826,0.60064507
17152000,0.04284382,-0.06328712,-0.09017724,0.60064507
17156000,0.042209037,-0.06320246,-0.09012857,0.60064507
17164000,0.04090874,-0.06298471,-0.090021946,0.60064507
17168000,0.040242217,-0.062855095,-0.08996452,0.60064507
17172000,0.042849604,-0.062920466,-0.08875689,0.60008234
17176000,0.04218449,-0.0628488,-0.08870921,0.60008234
17180000,0.041565202,-0.06282336,-0.08867161,0.60008234
17184000,0.040945332,-0.062826075,-0.088638544,0.60008234
17188000,0.040290453,-0.06278323,-0.08859627,0.60008234
17192000,0.03962418,-0.062707126,-0.0885481,0.60008234
17196000,0.042130075,-0.062792175,-0.08733605,0.5995246
17204000,0.04082835,-0.06270957,-0.08725289,0.5995246
17208000,0.040167585,-0.06264982,-0.087207936,0.5995246
17212000,0.039484575,-0.0625442,-0.08715458,0.5995246
17216000,0.038833994,-0.0624889,-0.08711104,0.5995246
17220000,0.056521468,-0.06351985,-0.08068654,0.5989124
17228000,0.055187643,-0.06340909,-0.080597654,0.5989124
17236000,0.053884022,-0.063269675,-0.08050613,0.5989124
17244000,0.055793554,-0.06324526,-0.07926519,0.598301
17248000,0.05509769,-0.063169144,-0.0792164,0.598301
17252000,0.05439981,-0.063124105,-0.07917244,0.598301
17256000,0.053725086,-0.06305711,-0.07912636,0.598301
17260000,0.05300758,-0.06295466,-0.0790726,0.598301
17264000,0.052270815,-0.06285106,-0.07901777,0.598301
17268000,0.054562412,-0.06287006,-0.07790649,0.5976648
17272000,0.053834625,-0.06281528,-0.07785989,0.5976648
17276000,0.053105175,-0.06275639,-0.07781267,0.5976648
17280000,0.052419275,-0.0626826,-0.07776551,0.5976648
17284000,0.05174715,-0.06260152,-0.077718064,0.5976648
17288000,0.05107095,-0.062556215,-0.07767594,0.5976648
17292000,0.053151898,-0.062564366,-0.0766571,0.5970121
17300000,0.05173769,-0.062387187,-0.07676211,0.5970121
17304000,0.05103815,-0.06233398,-0.0767179,0.5970121
17308000,0.05033473,-0.062289797,-0.076674916,0.5970121
17312000,0.049621537,-0.062235456,-0.07662998,0.5970121
17316000,0.051700246,-0.06230752,-0.07560698,0.5965537
17320000,0.051020592,-0.062256303,-0.07556438,0.5965537
17324000,0.050332844,-0.06220342,-0.07552118,0.5965537
17332000,0.048919827,-0.062142782,-0.07543971,0.5965537
17336000,0.048231807,-0.062054627,-0.07539152,0.5965537
17340000,0.050171934,-0.062067755,-0.07442072,0.5960734
17344000,0.049415186,-0.062075775,-0.07438325,0.5960734
17348000,0.04865659,-0.062032804,-0.0743383,0.5960734
