timestamp,roll_body,pitch_body,yaw_body,q_d[0],q_d[1],q_d[2],q_d[3],thrust_body[0]
12104000,0,-0.1965777,1.6137167,0.6884317,0.07086186,-0.0678839,0.71863216,1
12128000,0,-0.18836796,1.6137167,0.68870455,0.06791139,-0.06505742,0.718917,1
12152000,0,-0.18034486,1.6137167,0.68896,0.06502688,-0.062294126,0.7191836,1
12176000,0,-0.17248404,1.6137167,0.6891995,0.062199697,-0.05958576,0.71943367,1
12200000,0,-0.16479476,1.6137167,0.6894235,0.059433278,-0.056935597,0.71966743,1
12224000,0,-0.15725495,1.6137167,0.68963325,0.056719787,-0.05433614,0.7198864,1
12248000,0,-0.14984527,1.6137167,0.68982977,0.05405234,-0.051780794,0.7200916,1
12272000,0,-0.14254871,1.6137167,0.6900141,0.05142489,-0.049263764,0.72028404,1
12296000,0,-0.13536519,1.6137167,0.6901866,0.048837475,-0.046785083,0.72046405,1
12320000,0,-0.12827972,1.6137167,0.690348,0.04628476,-0.044339646,0.72063255,1
12344000,0,-0.12127914,1.6137167,0.690499,0.04376206,-0.041922964,0.72079015,1
12368000,0,-0.11435173,1.6137167,0.69064003,0.041265197,-0.03953103,0.7209374,1
12392000,0,-0.10748691,1.6137167,0.6907717,0.038790405,-0.03716024,0.7210748,1
12416000,0,-0.10068566,1.6137167,0.69089407,0.03633808,-0.034810975,0.72120255,1
12440000,0,-0.09393869,1.6137167,0.69100755,0.033904914,-0.032480065,0.72132105,1
12464000,0,-0.08723755,1.6137167,0.6911125,0.03148789,-0.030164614,0.72143054,1
12488000,0,-0.08057451,1.6137167,0.6912092,0.029084262,-0.027861997,0.7215315,1
12512000,0,-0.07394926,1.6137167,0.69129765,0.026693944,-0.025572132,0.72162384,1
12536000,0,-0.06735496,1.6137167,0.69137824,0.024314499,-0.023292683,0.72170794,1
12560000,0,-0.060785335,1.6137167,0.691451,0.021943696,-0.021021513,0.72178394,1
12584000,0,-0.054234628,1.6137167,0.69151616,0.019579485,-0.01875666,0.72185194,1
12608000,0,-0.04770347,1.6137167,0.69157374,0.017222121,-0.016498363,0.721912,1
12632000,0,-0.041186742,1.6137167,0.6916238,0.014869782,-0.014244881,0.7219643,1
12656000,0,-0.03467977,1.6137167,0.6916665,0.012520807,-0.011994621,0.7220089,1
12680000,0,-0.028178258,1.6137167,0.6917018,0.010173669,-0.009746121,0.7220458,1
12704000,0,-0.02168171,1.6137167,0.69172984,0.007828217,-0.007499237,0.722075,1
12728000,0,-0.015186362,1.6137167,0.6917505,0.005483116,-0.005252688,0.72209656,1
12752000,0,-0.008688797,1.6137167,0.691764,0.003137156,-0.003005317,0.7221106,1
12776000,0,-0.002185861,1.6137167,0.6917701,0.000789224,-0.000756057,0.722117,1
12800000,0,0.004323202,1.6137167,0.6917689,-0.001560929,0.001495331,0.72211576,1
12823999,0,0.010840796,1.6137167,0.69176036,-0.003914145,0.003749653,0.7221068,1
12848000,0,0.01737017,1.6137167,0.6917444,-0.006271572,0.00600801,0.7220902,1
12872000,0,0.02391272,1.6137167,0.6917211,-0.00863369,0.00827086,0.7220658,1
12896000,0,0.03046808,1.6137167,0.6916902,-0.01100034,0.010538052,0.7220336,1
12919999,0,0.037037883,1.6137167,0.6916519,-0.013372086,0.012810125,0.72199357,1
12944000,0,0.043624677,1.6137167,0.6916059,-0.01574982,0.015087935,0.72194564,1
12968000,0,0.050229166,1.6137167,0.69155234,-0.018133773,0.017371701,0.7218897,1
12992000,0,0.056853,1.6137167,0.691491,-0.020524507,0.019661967,0.72182566,1
13015999,0,0.06349651,1.6137167,0.69142187,-0.022922115,0.021958815,0.7217535,1
13040000,0,0.07016161,1.6137167,0.6913449,-0.025327267,0.02426289,0.72167313,1
13064000,0,0.076848425,1.6137167,0.69125986,-0.027739966,0.026574196,0.7215844,1
13088000,0,0.08355803,1.6137167,0.6911668,-0.03016058,0.028893083,0.7214873,1
13111999,0,0.090290286,1.6137167,0.69106567,-0.032589022,0.031219471,0.72138166,1
13136000,0,0.09704659,1.6137167,0.6909563,-0.035025768,0.033553813,0.72126746,1
13160000,0,0.10382657,1.6137167,0.6908386,-0.037470654,0.03589595,0.7211446,1
13184000,0,0.110630825,1.6137167,0.6907124,-0.039923858,0.038246058,0.72101295,1
13207999,0,0.11746,1.6137167,0.6905778,-0.042385582,0.04060433,0.7208724,1
13232000,0,0.124315046,1.6137167,0.6904346,-0.044856135,0.042971056,0.7207229,1
13256000,0,0.13119516,1.6137167,0.69028264,-0.04733519,0.045345932,0.7205643,1
13280000,0,0.13810055,1.6137167,0.690122,-0.049822792,0.047728993,0.72039664,1
13303999,0,0.14503185,1.6137167,0.68995243,-0.05231913,0.050120424,0.7202196,1
13328000,0,0.15198967,1.6137167,0.68977386,-0.054824386,0.052520398,0.7200332,1
13352000,0,0.15897278,1.6137167,0.68958634,-0.057338085,0.054928456,0.7198374,1
13376000,0,0.16598111,1.6137167,0.6893896,-0.05986016,0.057344537,0.7196321,1
13399999,0,0.17301522,1.6137167,0.68918365,-0.06239077,0.059768803,0.7194171,1
13424000,0,0.18007544,1.6137167,0.68896836,-0.06492999,0.062201317,0.7191924,1
13448000,0,0.18716025,1.6137167,0.6887437,-0.067477256,0.06464153,0.7189579,1
13472000,0,0.19426931,1.6137167,0.6885096,-0.07003238,0.067089275,0.71871346,1
13495999,0,0.20140232,1.6137167,0.6882659,-0.072595224,0.06954441,0.7184591,1
13520000,0,0.20855941,1.6137167,0.68801266,-0.075165786,0.07200695,0.7181947,1
13544000,0,0.2157389,1.6137167,0.68774974,-0.07774343,0.07447627,0.71792024,1
13568000,0,0.22294024,1.6137167,0.6874771,-0.08032791,0.076952145,0.71763575,1
13592000,0,0.23016262,1.6137167,0.6871947,-0.08291891,0.07943425,0.71734095,1
13616000,0,0.23740527,1.6137167,0.6869026,-0.08551609,0.08192228,0.717036,1
13640000,0,0.24466726,1.6137167,0.6866006,-0.088119075,0.084415875,0.71672076,1
13664000,0,0.25194767,1.6137167,0.6862888,-0.09072749,0.08691467,0.7163952,1
13688000,0,0.2592456,1.6137167,0.685967,-0.093340985,0.08941834,0.7160594,1
13712000,0,0.26656386,1.6137167,0.68563527,-0.095960505,0.091927774,0.7157131,1
13736000,0,0.27390137,1.6137167,0.6852934,-0.098585635,0.094442576,0.7153562,1
13760000,0,0.28125712,1.6137167,0.6849414,-0.10121594,0.096962355,0.71498877,1
13784000,0,0.28863004,1.6137167,0.6845793,-0.103851035,0.0994867,0.71461076,1
13808000,0,0.2960199,1.6137167,0.684207,-0.10649076,0.102015495,0.71422213,1
13832000,0,0.30342567,1.6137167,0.6838246,-0.1091347,0.10454832,0.7138229,1
13856000,0,0.3108463,1.6137167,0.683432,-0.111782454,0.1070848,0.71341306,1
13880000,0,0.31828073,1.6137167,0.6830292,-0.11443359,0.10962452,0.71299267,1
13904000,0,0.32572845,1.6137167,0.68261623,-0.11708786,0.112167254,0.7125616,1
13928000,0,0.33318844,1.6137167,0.6821931,-0.119744904,0.11471263,0.7121199,1
13952000,0,0.34065974,1.6137167,0.68175983,-0.12240429,0.117260255,0.7116676,1
13976000,0,0.3481413,1.6137167,0.6813164,-0.12506562,0.119809754,0.7112047,1
14000000,0,0.34906584,1.6137167,0.68126094,-0.12539437,0.12012468,0.71114683,1
14024000,0,0.34906584,1.6137167,0.68126094,-0.12539437,0.12012468,0.71114683,1
14048000,0,0.34906584,1.6137167,0.68126094,-0.12539437,0.12012468,0.71114683,1
14072000,0,0.34906584,1.6137167,0.68126094,-0.12539437,0.12012468,0.71114683,1
14096000,-0.35475543,0.34906584,1.5603312,0.6674632,-0.24374124,-0.000736192,0.70362103,1
14120000,-0.34708318,0.34906584,1.5535202,0.67078555,-0.24117088,0.002784304,0.7013384,1
14144000,-0.35080907,0.34906584,1.5534521,0.67035896,-0.24242005,0.001486003,0.7013196,1
14168000,-0.3543764,0.34906584,1.5533303,0.66996825,-0.24361534,0.00024993,0.70128024,1
14192000,-0.35762456,0.34906584,1.5532076,0.66961473,-0.24470314,-0.000873998,0.70123863,1
14216000,-0.37068638,0.34906584,1.5463816,0.67039174,-0.24908826,-0.004603565,0.698934,1
14240000,-0.3735982,0.34906584,1.5462475,0.67007524,-0.2500644,-0.005604371,0.6988816,1
14264000,-0.3760725,0.34906584,1.5461673,0.6697934,-0.25089347,-0.006458931,0.69884735,1
14288000,-0.37818733,0.34906584,1.5460324,0.6695748,-0.25160205,-0.007180929,0.69879496,1
14312000,-0.38995445,0.34906584,1.5390916,0.67050385,-0.25557482,-0.010405295,0.69641787,1
14336000,-0.39125332,0.34906584,1.5390018,0.6703689,-0.2560107,-0.010846086,0.6963809,1
14360000,-0.39228648,0.34906584,1.5388582,0.6702866,-0.25635776,-0.011187427,0.696327,1
14384000,-0.40273124,0.34906584,1.5319303,0.6713465,-0.25990453,-0.013923533,0.69393784,1
14408000,-0.40331134,0.34906584,1.5317813,0.6713227,-0.2601003,-0.014105409,0.6938837,1
14432000,-0.40386114,0.34906584,1.5316378,0.671301,-0.26028585,-0.014277495,0.6938316,1
14456000,-0.40398216,0.34906584,1.531549,0.6713161,-0.2603271,-0.014307916,0.693801,1
14480000,-0.41357994,0.34906584,1.524533,0.6724885,-0.26360595,-0.016712606,0.6913695,1
14504000,-0.41320437,0.34906584,1.5244391,0.67257047,-0.26348042,-0.01657039,0.69134104,1
14528000,-0.41261554,0.34906584,1.5242913,0.6726991,-0.2632836,-0.016347386,0.69129616,1
14552000,-0.41180336,0.34906584,1.524201,0.6728371,-0.26301113,-0.016054787,0.6912724,1
14576000,-0.42045668,0.34906584,1.517152,0.6741249,-0.26598525,-0.018108174,0.6888248,1
14600000,-0.4193958,0.34906584,1.5170023,0.67431736,-0.26562896,-0.017722905,0.6887838,1
14624000,-0.41818106,0.34906584,1.5169113,0.67451,-0.26522017,-0.017292485,0.68876374,1
14648000,-0.4265287,0.34906584,1.509848,0.6758251,-0.26810265,-0.019220382,0.686303,1
14672000,-0.4250235,0.34906584,1.5097572,0.6760579,-0.2675948,-0.018691696,0.6862867,1
14696000,-0.42349216,0.34906584,1.5096102,0.676313,-0.26707843,-0.018146604,0.68625104,1
14720000,-0.42177254,0.34906584,1.5095174,0.67657423,-0.26649767,-0.017544188,0.68623513,1
14744000,-0.42938262,0.34906584,1.5024244,0.67798454,-0.2691399,-0.019200824,0.6837632,1
14768000,-0.42725688,0.34906584,1.5023278,0.67830324,-0.26842004,-0.018461108,0.68375045,1
14792000,-0.42505193,0.34906584,1.5021783,0.67864984,-0.26767337,-0.017687283,0.68371964,1
14816000,-0.42275774,0.34145948,1.5020303,0.6800104,-0.26449642,-0.019654572,0.6835505,0.3956679
14840000,-0.42987248,0.33385488,1.494956,0.6824797,-0.26460078,-0.0239202,0.68090796,0.41817087
14864000,-0.42698136,0.32625106,1.4945955,0.68397194,-0.26122412,-0.025666766,0.6806508,0.4394011
14888000,-0.42382172,0.31864685,1.4942151,0.6854874,-0.25774905,-0.02732087,0.68038666,0.45947355
14912000,-0.4205913,0.31103793,1.4937543,0.6870204,-0.2542425,-0.028943822,0.6800926,0.4788231
14936000,-0.42658907,0.3034235,1.486233,0.6897654,-0.2540193,-0.032810256,0.67721593,0.49692696
14960000,-0.42302665,0.295803,1.4857249,0.6913333,-0.25039464,-0.03433358,0.6768914,0.51375175
14984000,-0.4191784,0.28817603,1.4852731,0.6928974,-0.24666092,-0.035771504,0.67658854,0.52929264
15008000,-0.4152856,0.28053313,1.4847767,0.69446164,-0.24290012,-0.03719669,0.67626834,0.54474324
15032000,-0.4209083,0.27287456,1.4770956,0.6972831,-0.2425845,-0.040974006,0.6732535,0.5588677
15056000,-0.41711792,0.26520067,1.4766032,0.6988095,-0.23884755,-0.042461567,0.6729146,0.5717013
15080000,-0.41319984,0.257512,1.4761924,0.7003031,-0.23505235,-0.04392322,0.6726044,0.58329517
15104000,-0.40936363,0.24979976,1.4757519,0.70177716,-0.23127188,-0.045419365,0.67227906,0.59491616
15128000,-0.4055184,0.24206497,1.4754013,0.70320207,-0.227472,-0.04693283,0.6719826,0.6053492
15152000,-0.4114571,0.2343088,1.4676274,0.7059914,-0.227293,-0.050897628,0.66882247,0.61466
15176000,-0.40783554,0.22653246,1.4673271,0.707351,-0.22355625,-0.052522413,0.6685196,0.6229423
15200000,-0.4043046,0.21873035,1.4670047,0.708689,-0.21983737,-0.054185726,0.6682031,0.63110965
15224000,-0.40087333,0.21090402,1.4667791,0.7099644,-0.21613702,-0.055903025,0.667915,0.63830864
15248000,-0.39773008,0.20305516,1.4665432,0.7111934,-0.21252584,-0.057724513,0.6676112,0.64458644
15272000,-0.40427166,0.19595398,1.458918,0.7137648,-0.21282399,-0.06171587,0.6644072,0.65004873
15296000,-0.4011012,0.19717751,1.458794,0.7140178,-0.21208468,-0.060196638,0.66451114,0.65532166
15320000,-0.39811978,0.19826345,1.4586369,0.714275,-0.21136972,-0.058787405,0.6645887,0.65984523
15344000,-0.3950851,0.1992275,1.4585738,0.7145182,-0.21059391,-0.05741536,0.66469353,0.6636867
15368000,-0.3921574,0.2000812,1.4584762,0.71477187,-0.20982188,-0.056115903,0.6647758,0.66689503
15392000,-0.3989065,0.200837,1.4509716,0.71647125,-0.21268913,-0.05728142,0.66192985,0.6695441
15416000,-0.39585102,0.20144159,1.4509076,0.716755,-0.21178728,-0.05603873,0.6620181,0.67212796
15440000,-0.39281896,0.20197801,1.450911,0.71701974,-0.21087003,-0.054836072,0.662125,0.67420775
15464000,-0.38981006,0.2024497,1.4508657,0.7173036,-0.20994155,-0.053659827,0.6622089,0.6758348
15488000,-0.38655668,0.20286877,1.4508786,0.7175978,-0.2089068,-0.05242812,0.66231614,0.6770593
15512000,-0.38328817,0.2032485,1.4508324,0.71791553,-0.20785525,-0.051199682,0.6623988,0.67786664
15536000,-0.38979843,0.20359,1.4433873,0.71966076,-0.2104958,-0.052445464,0.6595674,0.6783205
15560000,-0.38635078,0.2038932,1.4433392,0.72000796,-0.20935172,-0.051190317,0.6596514,0.6784607
15584000,-0.38269135,0.20416765,1.4433482,0.7203594,-0.20812026,-0.049881816,0.6597575,0.67831355
15608000,-0.3790064,0.20440096,1.4432964,0.7207355,-0.20686753,-0.04857377,0.6598384,0.6780038
15632000,-0.37525123,0.204616,1.4433069,0.72109795,-0.20558158,-0.04725562,0.6599401,0.67744476
15656000,-0.37143472,0.20481057,1.4433081,0.7214694,-0.2042666,-0.045923702,0.6600365,0.67668474
15680000,-0.3777522,0.20498683,1.435812,0.72327137,-0.20677835,-0.047167912,0.6571884,0.6757369
15704000,-0.3738374,0.20513648,1.4358139,0.7236592,-0.20540923,-0.045825616,0.6572856,0.67472655
15728000,-0.3699483,0.20527829,1.4357508,0.7240641,-0.20404765,-0.04448787,0.65735567,0.6735592
15752000,-0.3659244,0.2054107,1.4357435,0.7244627,-0.20263225,-0.04311487,0.65744585,0.6722664
15776000,-0.36203694,0.20553519,1.4356697,0.7248674,-0.20126444,-0.04178284,0.6575058,0.67087084
15800000,-0.3579827,0.20564291,1.4356503,0.7252699,-0.19982898,-0.04040762,0.65758586,0.6694141
15824000,-0.3539854,0.2057471,1.4355674,0.7256851,-0.19841349,-0.039045997,0.6576386,0.6678816
15848000,-0.34990823,0.2058461,1.4355509,0.7260841,-0.19696525,-0.037666537,0.65771407,0.66628134
15872000,-0.35615426,0.20594144,1.4280546,0.72791594,-0.19940922,-0.038937524,0.65487254,0.664605
15896000,-0.35201022,0.20601523,1.428043,0.7283244,-0.19792393,-0.037551656,0.65495014,0.66300166
15920000,-0.34792385,0.20609303,1.427965,0.72874546,-0.19646126,-0.03617648,0.65499955,0.6613504
15944000,-0.3437639,0.20616807,1.427943,0.7291527,-0.19496903,-0.034783646,0.6550677,0.6596631
15968000,-0.33958453,0.20624247,1.4278619,0.72957814,-0.19346964,-0.033378854,0.6551116,0.65795124
15992000,-0.33532214,0.2063167,1.4278297,0.72999245,-0.19193822,-0.031951606,0.65517175,0.65624094
16016000,-0.33119062,0.20640218,1.4277335,0.730411,-0.1904582,-0.030556776,0.65520364,0.65440035
16040000,-0.3269945,0.20649356,1.4277033,0.7308105,-0.18895455,-0.029144801,0.6552577,0.6525406
16064000,-0.32285917,0.20658332,1.4276186,0.73121923,-0.18747252,-0.027748153,0.6552881,0.6506859
16088000,-0.3185503,0.206675,1.4275858,0.73162395,-0.18592608,-0.026298746,0.6553368,0.64884734
16112000,-0.31431252,0.20677836,1.4275006,0.73203486,-0.1844091,-0.024863325,0.6553624,0.6468948
16136000,-0.32053074,0.20688355,1.420046,0.7338858,-0.18681616,-0.026165046,0.65255386,0.64495534
16160000,-0.31634685,0.20698857,1.419953,0.73429596,-0.18531463,-0.024751604,0.65257585,0.6430225
16184000,-0.31204727,0.20709257,1.4199052,0.734699,-0.18376884,-0.023304977,0.6526127,0.6411131
16208000,-0.30787447,0.20714664,1.4197938,0.73511237,-0.18225378,-0.021912716,0.6526202,0.63959503
16232000,-0.30356562,0.20720312,1.4197335,0.73551804,-0.180688,-0.02047985,0.6526451,0.6380926
16256000,-0.29943836,0.20726028,1.4196222,0.7359208,-0.17918883,-0.019101411,0.65264624,0.6366083
16280000,-0.29521245,0.20731801,1.4195727,0.7363089,-0.17765208,-0.017696142,0.65266824,0.6351318
16304000,-0.2910446,0.207361,1.4194634,0.7367095,-0.1761317,-0.016310096,0.65266436,0.6337637
16328000,-0.28682783,0.20740499,1.4194002,0.737096,-0.17459238,-0.014911853,0.6526749,0.6323928
16352000,-0.28271657,0.20745322,1.4192784,0.73748904,-0.17309284,-0.013541371,0.6526602,0.6310235
16376000,-0.27847612,0.2075024,1.4192144,0.73787117,-0.17154473,-0.012133464,0.6526648,0.62966466
16400000,-0.27438742,0.20756096,1.4190862,0.7382572,-0.17005506,-0.010766119,0.652642,0.62823
16424000,-0.27022165,0.20762444,1.4190121,0.73862875,-0.16853738,-0.009376451,0.6526367,0.62680787
16448000,-0.26617727,0.20768577,1.4188724,0.73900867,-0.16706333,-0.008021794,0.65260375,0.62540734
16472000,-0.26215845,0.20774955,1.4188008,0.7393611,-0.16559842,-0.006680362,0.65259314,0.6240357
16496000,-0.25819847,0.20777605,1.418663,0.7397303,-0.1641429,-0.005366877,0.65255445,0.6229892
16520000,-0.25417417,0.2078075,1.4185934,0.74007934,-0.16266422,-0.004036263,0.65253866,0.62191796
16544000,-0.25024444,0.20784129,1.4184597,0.74043846,-0.16122064,-0.002730534,0.65249634,0.6208555
16568000,-0.24630658,0.20787673,1.4183859,0.74077576,-0.1597737,-0.001426496,0.6524735,0.6197895
16592000,-0.24254468,0.20791207,1.4182453,0.741118,-0.15839128,-0.000174701,0.6524234,0.6187321
16616000,-0.238704,0.20797648,1.4181596,0.74144375,-0.15698814,0.001109287,0.65239143,0.6174895
16640000,-0.23492865,0.20804414,1.4180125,0.74178153,-0.15560955,0.00237786,0.6523344,0.61625594
16664000,-0.23125985,0.20811132,1.4179275,0.7420884,-0.1542697,0.003606506,0.6522981,0.61503494
16688000,-0.22763112,0.2081766,1.4177884,0.7424074,-0.1529434,0.004825376,0.6522394,0.6138332
16712000,-0.22402483,0.20818906,1.4177,0.7427099,-0.15160817,0.006012864,0.65219694,0.6130617
16736000,-0.22055914,0.20820358,1.4175586,0.74301654,-0.15032503,0.007159166,0.6521331,0.6122621
16760000,-0.21706714,0.20822853,1.4174721,0.74330413,-0.14903507,0.008313671,0.6520876,0.61148167
16784000,-0.21368419,0.20825382,1.4173163,0.7436041,-0.14778487,0.00943774,0.6520149,0.61070514
16808000,-0.21023375,0.20827627,1.4172287,0.7438849,-0.14650846,0.010577522,0.6519652,0.6099583
16832000,-0.20688069,0.20830086,1.4170762,0.7441774,-0.14526802,0.011690952,0.65189,0.60919225
16856000,-0.20350108,0.20833315,1.4169765,0.74445194,-0.14401992,0.012811914,0.6518323,0.6084435
16880000,-0.20032696,0.20836115,1.4168335,0.7447243,-0.14284617,0.013867214,0.651758,0.60768324
16904000,-0.19711939,0.20837712,1.4167572,0.74497616,-0.14165612,0.014923953,0.6517066,0.60705394
16928000,-0.19401923,0.20839658,1.4166112,0.745241,-0.14050621,0.01595176,0.6516283,0.60640985
16952000,-0.1909639,0.20842241,1.416517,0.74548364,-0.13937497,0.016963571,0.6515681,0.6057832
16976000,-0.18801014,0.20845027,1.4163735,0.7457335,-0.13828143,0.017946318,0.65148896,0.60512686
17000000,-0.18503365,0.20849007,1.4162863,0.74596405,-0.13718328,0.01893695,0.651429,0.60442805
17024000,-0.18220328,0.20853135,1.4161358,0.74620366,-0.13613912,0.019884732,0.65134543,0.6037044
17048000,-0.17925496,0.20858188,1.4160444,0.7464298,-0.13505408,0.020870224,0.6512813,0.6029823
17072000,-0.17653634,0.2086298,1.4158981,0.7466571,-0.13405302,0.021783479,0.6511977,0.60224646
17096000,-0.17383428,0.20864946,1.4158075,0.7468657,-0.13304937,0.022676725,0.6511338,0.6017389
17120000,-0.17126931,0.20867269,1.415655,0.7470838,-0.13209704,0.023530655,0.65104717,0.60120004
17144000,-0.16869985,0.20869802,1.415564,0.74728084,-0.13114409,0.024382636,0.6509823,0.60064507
17168000,-0.16619428,0.20872605,1.4154115,0.7474923,-0.13021483,0.025218721,0.6508943,0.60008234
17192000,-0.16376711,0.20875949,1.4153168,0.74767846,-0.12931702,0.026027419,0.65082765,0.5995246
17216000,-0.14979552,0.20879309,1.4226216,0.74618006,-0.12421239,0.030132577,0.6533595,0.5989124
17240000,-0.14730835,0.20883869,1.4225273,0.7463619,-0.12329753,0.030968115,0.6532861,0.598301
17264000,-0.1450093,0.2088836,1.4224405,0.7465286,-0.12245251,0.03174137,0.65321726,0.5976648
17288000,-0.14290431,0.20893034,1.422294,0.746702,-0.121679366,0.032455448,0.65312856,0.5970121
17312000,-0.14077583,0.20895176,1.4222066,0.74685824,-0.12089004,0.03316389,0.65306085,0.5965537
17336000,-0.13877311,0.20898049,1.4220572,0.74702597,-0.12014881,0.03383767,0.65297127,0.5960734
17360000,-0.13671938,0.20901258,1.4219704,0.7471754,-0.11939046,0.034525488,0.6529035,0.5955716
17384000,-0.13483953,0.20905231,1.4218248,0.74733233,-0.118698314,0.035162825,0.652816,0.59506184
17408000,-0.13295156,0.20907968,1.4217356,0.74747145,-0.117999986,0.035794664,0.6527489,0.594589
17432000,-0.13124794,0.20912011,1.4215972,0.7476144,-0.1173737,0.03637408,0.65266615,0.59407866
17456000,-0.1294456,0.20915763,1.421515,0.74774444,-0.11671046,0.03698122,0.652602,0.5935362
17480000,-0.12779392,0.20920686,1.4213653,0.7478865,-0.116105914,0.037547477,0.6525147,0.5929946
17504000,-0.12614238,0.20925613,1.4212807,0.74800664,-0.11550251,0.03810981,0.65245134,0.59240896
17528000,-0.12467691,0.20931631,1.4211284,0.74813724,-0.11497079,0.038619395,0.6523657,0.5918185
17552000,-0.12314001,0.2093731,1.4210467,0.74824864,-0.11441249,0.039146855,0.6523046,0.5911999
17576000,-0.10995608,0.20944026,1.4283767,0.746588,-0.109657794,0.04306973,0.6547721,0.59057534
17600000,-0.10848612,0.20948815,1.4282848,0.74669576,-0.1091225,0.04357403,0.6547053,0.5900636
17624000,-0.10719368,0.20954478,1.4281275,0.7468143,-0.1086548,0.044027008,0.6546175,0.589539
17648000,-0.105765305,0.20960574,1.4280362,0.74691826,-0.10813907,0.044522442,0.65455097,0.58901095
17672000,-0.104584344,0.20967002,1.4278812,0.747029,-0.107715294,0.044941522,0.6544657,0.5884813
17696000,-0.10332718,0.20970553,1.4278003,0.74712104,-0.10725534,0.04537062,0.65440655,0.5881712
17720000,-0.1022205,0.2097478,1.4276621,0.7472231,-0.10685241,0.045756053,0.6543291,0.5878241
17744000,-0.101181895,0.2097919,1.4275699,0.74730617,-0.10647648,0.04611737,0.65427005,0.587469
17768000,-0.10022507,0.2098393,1.4274206,0.74740326,-0.1061308,0.046456177,0.6541915,0.58708596
17792000,-0.099256344,0.20989065,1.4273324,0.7474806,-0.1057833,0.046797063,0.6541351,0.58667314
17816000,-0.09833478,0.20996618,1.4272431,0.7475542,-0.10546118,0.04713167,0.65407896,0.58606523
17840000,-0.0975113,0.2100475,1.4270936,0.7476419,-0.10517609,0.047439512,0.65400225,0.5854316
17864000,-0.08481406,0.21013756,1.4344945,0.7458658,-0.100646995,0.05125241,0.6564508,0.584787
17888000,-0.08414599,0.2102237,1.4343449,0.7459439,-0.10042198,0.05151157,0.6563762,0.584135
17912000,-0.08350184,0.21026435,1.434263,0.7460009,-0.100192815,0.051742356,0.6563283,0.58382076
17936000,-0.08295668,0.21030962,1.4341149,0.7460744,-0.10000032,0.05194567,0.65625805,0.58349055
17960000,-0.08237342,0.21035747,1.4340302,0.7461288,-0.09979607,0.052159272,0.65621036,0.58312637
17984000,-0.08189116,0.2104092,1.4338846,0.74619776,-0.09962915,0.052344196,0.6561424,0.58274305
18008000,-0.08130166,0.21045698,1.4338012,0.746252,-0.09942254,0.052559704,0.6560949,0.5823806
18032000,-0.08092433,0.21051386,1.4336517,0.74631673,-0.09929628,0.05271228,0.65602815,0.5819902
18056000,-0.08044275,0.21057682,1.4335656,0.74636555,-0.09913475,0.05289819,0.65598214,0.58158433
18080000,-0.08011676,0.21064179,1.4334154,0.7464276,-0.09903021,0.053036973,0.65591615,0.5811647
18104000,-0.07978472,0.21069252,1.4333287,0.7464698,-0.098920465,0.053169236,0.6558741,0.58083254
18128000,-0.06769713,0.21074864,1.440684,0.7446352,-0.094634965,0.056805648,0.65828234,0.5804693
18152000,-0.06738688,0.2108065,1.4405996,0.7446748,-0.09453595,0.056933433,0.65824085,0.58007985
18176000,-0.06721075,0.21086785,1.4404584,0.7447264,-0.09448637,0.05702105,0.6581819,0.5796604
18200000,-0.06701181,0.2109161,1.440373,0.74476147,-0.094425604,0.05710864,0.6581433,0.5793306
18224000,-0.066837214,0.21096976,1.4402838,0.7447964,-0.09437555,0.057190403,0.65810394,0.5789789
18248000,-0.066836715,0.21102601,1.4401388,0.7448413,-0.09438957,0.057218492,0.65804875,0.57859075
18272000,-0.06675583,0.21108532,1.4400564,0.74486923,-0.094376445,0.05727121,0.6580144,0.5781776
18296000,-0.06687903,0.21117157,1.4399134,0.74490607,-0.09444638,0.05726976,0.6579628,0.5775452
18320000,-0.06699192,0.21126547,1.4398292,0.7449237,-0.094516665,0.057271793,0.6579325,0.5769048
18344000,-0.06716437,0.21136278,1.4396842,0.7449584,-0.09460849,0.057258397,0.6578813,0.57626295
18368000,-0.055398297,0.21146318,1.4471091,0.743051,-0.0904835,0.06082984,0.66029364,0.57560796
18392000,-0.05561872,0.21156494,1.4469582,0.74308586,-0.09059419,0.06080191,0.66024184,0.57495964
18416000,-0.05575508,0.21163175,1.4468665,0.7431066,-0.09066397,0.060786,0.6602102,0.57459795
18440000,-0.05609649,0.21170394,1.4467192,0.7431363,-0.090810016,0.060706943,0.6601641,0.5742029
18464000,-0.056316815,0.21177813,1.4466306,0.7431519,-0.09091352,0.060665965,0.6601361,0.5737973
18488000,-0.056718666,0.21185435,1.4464859,0.74317765,-0.091083445,0.060568385,0.66009265,0.5733645
18512000,-0.057061918,0.21191315,1.4464052,0.74318576,-0.091227815,0.06048074,0.66007155,0.5730538
18536000,-0.057579227,0.21197775,1.4462582,0.74320745,-0.09143679,0.060340863,0.6600311,0.5727311
18560000,-0.05796722,0.21204557,1.4461716,0.743215,-0.091600575,0.060242124,0.6600089,0.572387
18584000,-0.058355067,0.21211743,1.4460864,0.74322176,-0.09176569,0.06014489,0.65998715,0.57202256
18608000,-0.058843248,0.21220312,1.4459403,0.74324334,-0.09197079,0.06002253,0.6599454,0.571544
18632000,-0.047345378,0.21229424,1.453381,0.7412964,-0.087963246,0.06352273,0.6623495,0.5710268
18656000,-0.04794391,0.21238756,1.4532378,0.74131304,-0.08821129,0.06336557,0.66231304,0.5704856
18680000,-0.048393287,0.21248357,1.4531529,0.74131674,-0.08840677,0.06325625,0.66229326,0.5699339
18704000,-0.048980374,0.21256608,1.4530178,0.7413316,-0.088647276,0.06309855,0.6622595,0.56948376
18728000,-0.049577992,0.21265577,1.4529388,0.7413269,-0.08889583,0.06293757,0.66224676,0.56901014
18752000,-0.050323106,0.21274781,1.4527998,0.74133533,-0.08919795,0.06273132,0.66221625,0.5685166
18776000,-0.050933134,0.21284188,1.4527136,0.7413322,-0.08945233,0.062568225,0.66220105,0.56800956
18800000,-0.051661883,0.2129302,1.452567,0.7413438,-0.08974692,0.062366404,0.66216713,0.5675634
18824000,-0.052311398,0.21302198,1.4524854,0.7413372,-0.09001535,0.06218922,0.6621549,0.56709766
18848000,-0.053000312,0.21311459,1.4523964,0.7413311,-0.0902984,0.061999645,0.6621408,0.5666349
18872000,-0.041850712,0.21320932,1.4597857,0.73936844,-0.08643767,0.06540633,0.6645185,0.5661593
18896000,-0.04261158,0.21327236,1.459708,0.73935837,-0.08673726,0.065180294,0.6645129,0.5659257
18920000,-0.043438476,0.2133464,1.459564,0.7393668,-0.08706274,0.064939305,0.6644845,0.5656663
18944000,-0.044239335,0.21342503,1.4594808,0.73935586,-0.087382086,0.06470604,0.6644776,0.56538945
18968000,-0.045197703,0.21350698,1.4593425,0.739356,-0.087758996,0.06442411,0.6644551,0.56508094
18992000,-0.045976434,0.21359162,1.4592597,0.7393452,-0.08807217,0.06420047,0.6644473,0.5647538
19016000,-0.046847843,0.21369524,1.4591185,0.7393488,-0.08842403,0.06395569,0.6644202,0.56426775
19040000,-0.04759289,0.213803,1.459036,0.7393381,-0.08873241,0.06375183,0.66441065,0.5637595
19064000,-0.04859681,0.21391162,1.4588972,0.7393344,-0.08913499,0.06346485,0.6643884,0.56322783
19088000,-0.049422644,0.21402282,1.4588177,0.7393186,-0.08947448,0.063235365,0.6643822,0.56267816
19112000,-0.050299156,0.21409987,1.4587342,0.7393033,-0.08982129,0.06297657,0.6643769,0.56241226
19136000,-0.051231172,0.21418327,1.4585966,0.73930305,-0.090189025,0.06270414,0.6643532,0.56211597
19160000,-0.040266775,0.21427025,1.4660587,0.7372997,-0.08641047,0.06605563,0.66675246,0.56181145
19184000,-0.041175097,0.21436033,1.465919,0.73730284,-0.0867706,0.065792225,0.6667284,0.56148934
19208000,-0.042091757,0.21446645,1.4658381,0.73728496,-0.08714108,0.06552944,0.6667257,0.5609965
19232000,-0.04306202,0.21457821,1.4656974,0.73728424,-0.08753122,0.065253496,0.66670245,0.5604869
19256000,-0.043866556,0.2146935,1.4656193,0.7372696,-0.0878635,0.06503142,0.66669667,0.5599682
19280000,-0.044858176,0.21481079,1.4654795,0.737267,-0.08826339,0.06475045,0.666674,0.5594429
19304000,-0.045847528,0.21493904,1.4654022,0.73724294,-0.088668115,0.064471565,0.66667396,0.55877894
19328000,-0.046886507,0.2150787,1.4652648,0.73723596,-0.089092985,0.06418307,0.666653,0.55810183
19352000,-0.047806993,0.21521379,1.465192,0.73721266,-0.08947472,0.06392951,0.66665196,0.5574049
19376000,-0.048797786,0.21535547,1.465112,0.73718804,-0.08988432,0.06365532,0.6666502,0.55673194
19400000,-0.049851708,0.21544857,1.4649781,0.7371807,-0.0902994,0.06334453,0.66663176,0.556369
19424000,-0.050800662,0.2155512,1.4648964,0.7371601,-0.090680584,0.06306994,0.666629,0.5559913
19448000,-0.039962646,0.21565667,1.472316,0.735159,-0.086966485,0.066398345,0.6690063,0.55560577
19472000,-0.040851388,0.21576427,1.472234,0.7351426,-0.087326266,0.06614434,0.66900253,0.55522054
19496000,-0.041938268,0.21587397,1.4720877,0.73513883,-0.08775746,0.065827675,0.66898143,0.55482394
19520000,-0.042940985,0.21598993,1.4720087,0.73511577,-0.08816202,0.06553855,0.6689821,0.5544057
19544000,-0.044027586,0.21610728,1.4718707,0.7351083,-0.08859594,0.06522451,0.6689636,0.55396706
19568000,-0.04500175,0.21622562,1.4717929,0.7350855,-0.08899084,0.06494582,0.6689633,0.5535088
19592000,-0.04593218,0.21634567,1.4717181,0.73506343,-0.08937032,0.06468227,0.66896266,0.55302644
19616000,-0.046987347,0.21643534,1.4715804,0.7350579,-0.089783505,0.064368606,0.66894364,0.5527957
19640000,-0.04800146,0.21653202,1.4715041,0.73503304,-0.090185925,0.06406854,0.6689455,0.5525383
19664000,-0.04907833,0.21663198,1.4713674,0.73502535,-0.09061056,0.06375145,0.66892695,0.5522647
19688000,-0.049926378,0.21673433,1.4712912,0.7350074,-0.09095383,0.06350907,0.6689231,0.5519794
19712000,-0.05103687,0.21683581,1.4711534,0.734998,-0.09139131,0.06318143,0.6689049,0.55169773
19736000,-0.052037824,0.21694522,1.471076,0.7349726,-0.09179307,0.062890604,0.6689051,0.5513994
19760000,-0.053163003,0.21705712,1.4709345,0.7349627,-0.092239305,0.06256214,0.6688854,0.55109733
19784000,-0.042240858,0.21717261,1.4784377,0.73293686,-0.08851062,0.06592508,0.6712848,0.5507688
19808000,-0.043333367,0.21729101,1.4782999,0.73292905,-0.08894599,0.06560808,0.6712669,0.5504308
19832000,-0.044329397,0.21741347,1.478224,0.73290426,-0.089349404,0.06532223,0.6712682,0.55007565
19856000,-0.045223378,0.21753801,1.4781511,0.73288274,-0.089716196,0.06507128,0.6712671,0.5497025
19880000,-0.046235465,0.21766481,1.4780136,0.7328774,-0.09012493,0.06478446,0.671246,0.5493231
19904000,-0.047201723,0.21778259,1.4779373,0.7328537,-0.09051584,0.064506955,0.671246,0.54901224
19928000,-0.04826649,0.21790697,1.4778016,0.73284495,-0.090943135,0.06420156,0.67122704,0.54867136
19952000,-0.049262956,0.21803561,1.4777244,0.7328192,-0.09134871,0.06391801,0.6712271,0.5483223
19976000,-0.050321363,0.2181674,1.4775847,0.73281133,-0.09177603,0.06361772,0.6712061,0.5479659
20000000,-0.05125923,0.2183172,1.4775093,0.7327862,-0.09216723,0.06336161,0.67120415,0.5474333
20024000,-0.052184157,0.2184721,1.4774339,0.73276114,-0.09255539,0.06311172,0.67120147,0.54687303
20048000,-0.05322005,0.21862987,1.4772959,0.73275167,-0.092983186,0.0628286,0.6711793,0.5463152
20072000,-0.054165635,0.21878988,1.4772137,0.73272735,-0.0933804,0.062574044,0.6711746,0.5457671
20096000,-0.05514981,0.21891731,1.477074,0.73272187,-0.09377909,0.062297255,0.67115074,0.5455027
20120000,-0.056022424,0.21905197,1.4769943,0.7327008,-0.09414118,0.062057775,0.671145,0.54520804
20144000,-0.057032343,0.21919078,1.4768546,0.7326932,-0.0945531,0.061776616,0.6711215,0.54491174
20168000,-0.046062704,0.21933146,1.4843736,0.7306672,-0.090825565,0.06516747,0.67352027,0.54460204
20192000,-0.0471886,0.21947463,1.4842421,0.73065317,-0.09128055,0.06484684,0.6735047,0.5442742
20216000,-0.04809768,0.21961972,1.4841695,0.7306291,-0.09165889,0.0645973,0.6735035,0.54390806
20240000,-0.04902809,0.21977688,1.4840938,0.73060423,-0.09204895,0.064345144,0.67350143,0.54353935
20264000,-0.049991213,0.2199236,1.4839569,0.73059875,-0.09244551,0.064081,0.6734783,0.5431475
20288000,-0.050922204,0.22007954,1.483882,0.73057324,-0.09283538,0.06382823,0.6734763,0.5427644
20312000,-0.051815163,0.22021294,1.4837526,0.7305687,-0.09320209,0.06358255,0.67345375,0.54258025
20336000,-0.05264068,0.2203542,1.4836789,0.730548,-0.093548566,0.06335987,0.6734492,0.54237866
20360000,-0.05366038,0.2204984,1.4835435,0.7305387,-0.093964994,0.063075826,0.673428,0.5421657
20384000,-0.054525543,0.22064613,1.4834702,0.73051524,-0.09432811,0.06284222,0.6734244,0.54194415
20408000,-0.055433854,0.22079304,1.4833376,0.73050964,-0.09470486,0.06259661,0.6734005,0.5417261
20432000,-0.056324016,0.22094627,1.4832616,0.7304854,-0.09507886,0.062356785,0.67339647,0.54148406
20456000,-0.05717929,0.2211015,1.4831846,0.73046285,-0.095440745,0.06212952,0.67339075,0.54123735
20480000,-0.058125153,0.22125846,1.4830456,0.7304565,-0.095834374,0.061875366,0.67336506,0.54098004
20504000,-0.058857396,0.22143438,1.4829718,0.7304372,-0.09615834,0.061697006,0.6733561,0.54055285
20528000,-0.05974815,0.22161524,1.4828316,0.7304324,-0.0965398,0.06147033,0.6733276,0.54012686
20552000,-0.060499504,0.22179799,1.4827576,0.7304117,-0.09687301,0.06128811,0.6733188,0.5396817
20576000,-0.061373215,0.22198184,1.482621,0.7304059,-0.097249344,0.06106817,0.6732908,0.53921914
20600000,-0.050290287,0.22216207,1.4901601,0.72838277,-0.093504466,0.06451241,0.67568743,0.5388136
20624000,-0.05100883,0.22234596,1.4900837,0.72836596,-0.09382545,0.06434057,0.6756776,0.53839415
20648000,-0.051806096,0.22253063,1.4899473,0.7283654,-0.09417342,0.06414524,0.67564833,0.5379739
20672000,-0.05250036,0.22271769,1.489871,0.72834915,-0.094486594,0.06398279,0.6756374,0.5375561
20696000,-0.053303067,0.22286375,1.4897349,0.72834986,-0.0948236,0.06377155,0.67560947,0.5375209
20720000,-0.053961035,0.2230176,1.4896575,0.72833705,-0.09511238,0.0636093,0.6755979,0.5374632
20744000,-0.05480605,0.2231768,1.4895192,0.72833556,-0.09546915,0.06338875,0.67557,0.53739315
20768000,-0.055529326,0.22334029,1.4894432,0.72831845,-0.09578499,0.06320796,0.6755607,0.5373065
20792000,-0.056268137,0.22350553,1.4893636,0.7283016,-0.09610694,0.06302275,0.67555034,0.5372196
20816000,-0.057138316,0.22369292,1.4892277,0.7282961,-0.09648241,0.06280401,0.67552316,0.5369008
20840000,-0.057794288,0.22388716,1.4891516,0.72828025,-0.09678404,0.062657274,0.67551076,0.536565
20864000,-0.058542863,0.22408248,1.4890163,0.72827977,-0.09711789,0.062482566,0.67547953,0.53622186
20888000,-0.059135556,0.22427908,1.4889381,0.7282673,-0.09739719,0.062358223,0.6754643,0.53586847
20912000,-0.059900958,0.22445324,1.4888017,0.7282671,-0.09773005,0.06217019,0.6754337,0.53571826
20936000,-0.060566105,0.22462997,1.4887247,0.7282515,-0.09802911,0.062014088,0.6754216,0.53554726
20960000,-0.061361834,0.22480632,1.4885865,0.72824997,-0.09837369,0.061816774,0.6753912,0.53536576
20984000,-0.06200074,0.22498354,1.4885105,0.72823507,-0.09866337,0.061669707,0.67537844,0.5351754
21008000,-0.06255597,0.2251578,1.4884338,0.7282245,-0.09892157,0.061549865,0.675363,0.5350008
21032000,-0.06328853,0.22533606,1.4882966,0.7282253,-0.09924382,0.061374635,0.6753309,0.53480667
21056000,-0.063865565,0.22551595,1.4882253,0.72821134,-0.09951201,0.061249264,0.6753178,0.53458565
21080000,-0.06455707,0.22569835,1.4880896,0.72821325,-0.09982074,0.061089404,0.67528474,0.5343583
21104000,-0.06510625,0.22587687,1.4880143,0.7282018,-0.100078195,0.060973175,0.67526937,0.53415835
21128000,-0.06571766,0.22605902,1.487878,0.7282077,-0.10035767,0.06084036,0.6752336,0.5339377
21152000,-0.054374654,0.22624363,1.4954545,0.72619396,-0.09653247,0.06437136,0.67762834,0.5337084
21176000,-0.05495553,0.22643107,1.4953837,0.7261804,-0.09680419,0.06424644,0.677616,0.53346723
21200000,-0.05559333,0.22661312,1.4952489,0.72618586,-0.0970927,0.06410337,0.6775823,0.533265
21224000,-0.056171224,0.22680195,1.4951776,0.7261723,-0.09736378,0.06398002,0.67756957,0.5330324
21248000,-0.05679851,0.22699358,1.4950433,0.7261775,-0.09765172,0.06384406,0.6775355,0.53278476
21272000,-0.057421528,0.22718725,1.4949684,0.72616255,-0.09794068,0.06370741,0.6775227,0.5325348
21296000,-0.058049113,0.22737278,1.4948368,0.7261668,-0.09822677,0.06356904,0.6774897,0.5323314
21320000,-0.058475368,0.22756283,1.4947609,0.7261617,-0.098443046,0.06349782,0.6774704,0.53211963
21344000,-0.05894422,0.22775465,1.4946858,0.7261542,-0.0986754,0.06341279,0.67745256,0.5318984
21368000,-0.059512258,0.22794868,1.4945508,0.7261618,-0.09894261,0.06329794,0.6774162,0.5316676
21392000,-0.06003203,0.22814491,1.4944788,0.7261503,-0.09919502,0.06319716,0.67740107,0.5314321
21416000,-0.06057334,0.22832014,1.494344,0.72615993,-0.0994462,0.063084535,0.67736435,0.5314048
21440000,-0.06107204,0.22850011,1.494269,0.7261512,-0.099685416,0.06298515,0.6773479,0.5313582
21464000,-0.061567526,0.22868209,1.4941338,0.72616273,-0.09992222,0.0628906,0.6773094,0.5312979
21488000,-0.062006406,0.22886592,1.4940599,0.72615623,-0.10014102,0.06281285,0.67729133,0.5312123
21512000,-0.062422965,0.22907385,1.4939859,0.72614956,-0.100359805,0.062751494,0.6772718,0.53085035
21536000,-0.06293325,0.22928531,1.4938521,0.72615814,-0.10061194,0.06266271,0.67723346,0.53047204
21560000,-0.06339605,0.22949938,1.4937776,0.72614866,-0.100849554,0.062588006,0.6772149,0.5300969
21584000,-0.06396581,0.22971453,1.4936427,0.72615427,-0.10112447,0.062480547,0.67717797,0.5297045
21608000,-0.06442109,0.22992425,1.4935677,0.7261455,-0.10135788,0.062406857,0.67715925,0.52934706
21632000,-0.06492434,0.23013988,1.4934304,0.72615504,-0.10160874,0.062322274,0.6771192,0.5289715
21656000,-0.065323085,0.23035704,1.4933559,0.7261485,-0.10182411,0.06227047,0.6770987,0.528601
21680000,-0.06576906,0.23057432,1.4932795,0.72614,-0.102056615,0.062202815,0.6770789,0.5282303
21704000,-0.06628735,0.23078914,1.4931436,0.7261481,-0.1023127,0.062112853,0.67703986,0.52786463
21728000,-0.06660244,0.2310106,1.4930645,0.7261469,-0.10249898,0.062091216,0.67701495,0.5275041
21752000,-0.06709182,0.23123415,1.4929252,0.726157,-0.10274738,0.062014464,0.6769736,0.5271566
21776000,-0.067520946,0.23146106,1.4928472,0.72614914,-0.10297693,0.061956212,0.6769525,0.5268206
21800000,-0.06792757,0.23164861,1.4927711,0.7261438,-0.10318513,0.06189109,0.67693233,0.5268841
21824000,-0.05653887,0.2318419,1.5003222,0.72415006,-0.099361286,0.06544075,0.6793023,0.52692395
21848000,-0.056890614,0.2320365,1.500249,0.7241473,-0.09955187,0.06539582,0.67928165,0.5269404
21872000,-0.057337068,0.23223186,1.5001134,0.7241609,-0.09977497,0.065322116,0.6792414,0.5269324
21896000,-0.057634152,0.23243327,1.50004,0.72416043,-0.099948056,0.06529827,0.67921877,0.526852
21920000,-0.058105875,0.23263696,1.4999,0.72417384,-0.100182965,0.065219305,0.6791775,0.52676237
21944000,-0.058366474,0.23284106,1.4998262,0.72417516,-0.10034372,0.065208875,0.6791533,0.5266528
21968000,-0.058741204,0.2330471,1.4997514,0.72417086,-0.10054642,0.06516045,0.6791325,0.52653116
21992000,-0.059191335,0.23325293,1.4996116,0.72418493,-0.10077423,0.06508967,0.6790907,0.52640903
22016000,-0.05952721,0.23347175,1.499535,0.72418255,-0.100967094,0.06505924,0.6790675,0.526115
22040000,-0.059971496,0.23369531,1.4993994,0.7241943,-0.1011989,0.06499673,0.67902637,0.52579916
22064000,-0.06032816,0.23392089,1.4993266,0.724189,-0.10140169,0.06496154,0.67900515,0.5254747
22088000,-0.06070408,0.23414885,1.4991908,0.72420394,-0.10161019,0.06492391,0.6789616,0.52514106
22112000,-0.060932253,0.23436642,1.4991164,0.72420603,-0.101763695,0.06492954,0.67893577,0.5249153
22136000,-0.061201856,0.23458761,1.4990396,0.7242066,-0.10193334,0.06492256,0.67891043,0.52468604
22160000,-0.06159175,0.23480944,1.4988996,0.72422254,-0.10214469,0.06487823,0.678866,0.5244652
22184000,-0.06190046,0.2350329,1.4988219,0.7242212,-0.10232921,0.06485888,0.6788414,0.52425045
22208000,-0.062334,0.23523289,1.4986845,0.7242349,-0.10254909,0.06479168,0.6788,0.5242683
22232000,-0.062715866,0.23543637,1.4986085,0.72423023,-0.10275343,0.06474017,0.67877907,0.5242643
22256000,-0.06309633,0.23564103,1.4985342,0.7242249,-0.10295771,0.0646895,0.6787587,0.52423036
22280000,-0.06337196,0.2358467,1.4983981,0.72424585,-0.10312235,0.064677976,0.6787124,0.5241786
22304000,-0.06368279,0.23606427,1.4983175,0.7242455,-0.10330555,0.064656004,0.67868704,0.5239767
22328000,-0.06402725,0.23628646,1.4981768,0.72426337,-0.103500515,0.0646274,0.6786409,0.5237587
22352000,-0.06430476,0.23651001,1.4981036,0.72426176,-0.10367388,0.06461856,0.678617,0.5235197
22376000,-0.06464961,0.23673388,1.497966,0.7242785,-0.10386966,0.06459035,0.678572,0.5232716
22400000,-0.064937696,0.23695472,1.4978904,0.7242772,-0.10404584,0.06457709,0.67854756,0.5230343
22424000,-0.065237276,0.2371798,1.497815,0.724275,-0.10422763,0.06456147,0.6785236,0.5227723
22448000,-0.06563193,0.23740476,1.4976736,0.7242901,-0.104441665,0.06451702,0.6784787,0.5225093
22472000,-0.065817684,0.23763129,1.4975969,0.72429407,-0.10458266,0.064540654,0.67845047,0.52223474
22496000,-0.06623274,0.23783267,1.4974569,0.7243089,-0.104796186,0.06448066,0.67840743,0.5222233
22520000,-0.066558674,0.23803861,1.4973791,0.7243069,-0.104980975,0.06444931,0.67838395,0.52218914
22544000,-0.06681312,0.23824465,1.4973005,0.7243089,-0.10513988,0.06444232,0.6783578,0.52214336
22568000,-0.06715318,0.23845173,1.4971637,0.7243261,-0.10532827,0.06440974,0.67831343,0.52207994
22592000,-0.06749545,0.2386609,1.4970906,0.7243213,-0.105520196,0.06437382,0.6782921,0.52200353
22616000,-0.067841515,0.23887491,1.4969515,0.7243385,-0.105712995,0.0643419,0.6782468,0.5218691
22640000,-0.056248132,0.23909122,1.5046207,0.7223228,-0.10184661,0.067961246,0.6806307,0.5217268
22664000,-0.05659344,0.23930864,1.5044864,0.72233945,-0.10204023,0.06792961,0.6805873,0.5215598
22688000,-0.056749426,0.23952909,1.5044158,0.7223438,-0.10216863,0.06796026,0.6805603,0.5213853
22712000,-0.05695147,0.23975982,1.5043448,0.72234535,-0.10231713,0.06797901,0.6805346,0.52108175
22736000,-0.05730765,0.23999293,1.5042118,0.72235996,-0.10252,0.06794937,0.68049157,0.5207573
22760000,-0.05753072,0.24022587,1.5041356,0.722362,-0.10267663,0.06796206,0.68046445,0.5204409
22784000,-0.057809673,0.24045965,1.5039997,0.72238135,-0.10285172,0.06795913,0.6804177,0.5201179
22808000,-0.058063164,0.2337716,1.5039256,0.7227481,-0.10068193,0.06544472,0.68059915,0.50876176
22832000,-0.05820579,0.22524251,1.5038522,0.7232066,-0.09784895,0.062297255,0.68082076,0.47640672
22856000,-0.05849295,0.21671249,1.5037075,0.72366977,-0.09506436,0.059102252,0.6810078,0.44649455
22880000,-0.05870312,0.2081814,1.5036045,0.7241101,-0.09225154,0.055929616,0.6811946,0.41895217
22904000,-0.059000384,0.1996472,1.5034136,0.724564,-0.08946565,0.052728765,0.6813387,0.393888
22928000,-0.059223674,0.19110957,1.5032667,0.72499406,-0.086651966,0.049548395,0.68148375,0.37096924
22952000,-0.059559505,0.18256804,1.5030363,0.7254354,-0.08387482,0.0463304,0.6815879,0.35013524
22976000,-0.059932347,0.17402208,1.5028507,0.7258479,-0.081109904,0.043094818,0.6816956,0.33124816
23000000,-0.06019768,0.16546662,1.5026584,0.7262551,-0.07830184,0.03989131,0.6817851,0.31457525
23024000,-0.060640965,0.1569013,1.5023906,0.72666925,-0.075552985,0.036625072,0.68183744,0.29954818
23048000,-0.060895953,0.14832574,1.5021768,0.7270601,-0.07273275,0.033415876,0.6818922,0.28602028
23072000,-0.06126531,0.13973966,1.5018965,0.72745734,-0.06994894,0.03016491,0.68191123,0.2738548
23096000,-0.061560865,0.13113433,1.5016762,0.727825,-0.067132294,0.026928687,0.6819376,0.2637081
23120000,-0.06179982,0.1225098,1.501449,0.7281849,-0.064288,0.023703827,0.6819471,0.25463316
23144000,-0.062128372,0.11386617,1.5011588,0.72855127,-0.061468825,0.020442259,0.6819215,0.24654733
23168000,-0.062335476,0.105203666,1.5009329,0.7288871,-0.0585994,0.017212093,0.68190426,0.23931774
23192000,-0.06253085,0.09652257,1.5007114,0.72920924,-0.055719107,0.013978021,0.6818753,0.23283747
23216000,-0.0628481,0.08781599,1.500421,0.72953916,-0.052873943,0.010693997,0.6818083,0.2276949
23240000,-0.06299361,0.079084516,1.5001985,0.7298381,-0.049957927,0.007456673,0.6817515,0.22311814
23264000,-0.06327699,0.07032878,1.4999125,0.73014235,-0.04708366,0.004164182,0.68165827,0.21904463
23288000,-0.06334106,0.061549522,1.4996955,0.7304153,-0.04412143,0.000935391,0.6815761,0.21541993
23312000,-0.063478716,0.052741945,1.4994779,0.7306736,-0.04117631,-0.002329482,0.6814801,0.21119553
23336000,-0.06363672,0.043907024,1.4991995,0.730939,-0.03822944,-0.005610723,0.6813481,0.19929267
23360000,-0.063700974,0.03531639,1.4989855,0.73116606,-0.03533131,-0.008772474,0.6812275,0.18855253
23384000,-0.06375079,0.032141123,1.4987774,0.7312902,-0.034270283,-0.0099479,0.6811324,0.17882316
23408000,-0.063902535,0.028917417,1.4985061,0.73143303,-0.033230565,-0.011174913,0.68101144,0.17101063
23432000,-0.063957386,0.02589384,1.4982984,0.7315509,-0.032223344,-0.012296955,0.6809138,0.16399862
23456000,-0.06403046,0.02305231,1.4980917,0.7316638,-0.031284865,-0.01335875,0.6808164,0.15767907
23480000,-0.064107515,0.020396907,1.4978168,0.73179567,-0.030411799,-0.014352887,0.6806939,0.15205878
23504000,-0.06407566,0.017670063,1.497609,0.73190606,-0.029474288,-0.01533732,0.6805949,0.14768958
23528000,-0.05221509,0.015114209,1.5056777,0.72934645,-0.024214378,-0.012334663,0.6836046,0.14382255
23552000,-0.052402858,0.012716112,1.5054207,0.7294596,-0.023465212,-0.013270663,0.6834925,0.14039408
23576000,-0.052389506,0.010458274,1.50523,0.7295499,-0.022690337,-0.014087684,0.6834059,0.13728188
23600000,-0.05231718,0.008007839,1.5050417,0.7296411,-0.02182827,-0.014954994,0.68331826,0.13549145
23624000,-0.052318107,0.005702403,1.5047832,0.7297529,-0.021043137,-0.015793813,0.68320453,0.13393533
23648000,-0.0522315,0.003534941,1.5045933,0.72983986,-0.020272804,-0.016553262,0.683117,0.13257469
23672000,-0.05203265,0.001493021,1.5044019,0.72992617,-0.019504508,-0.01722867,0.68303025,0.131354
23696000,-0.051983148,-0.000627927,1.5041451,0.73003346,-0.018764434,-0.017983442,0.682917,0.13081194
23720000,-0.051739533,-0.002617023,1.5039552,0.73011756,-0.017998062,-0.018624585,0.6828306,0.13036263
23744000,-0.051506363,-0.004495939,1.5037649,0.73019993,-0.017273225,-0.0192292,0.6827445,0.12990804
23768000,-0.05131707,-0.00625646,1.5035775,0.73027927,-0.016604897,-0.019805716,0.6826597,0.12948853
23792000,-0.051209345,-0.007906208,1.5033227,0.73037934,-0.016004942,-0.020369198,0.6825504,0.12907828
23816000,-0.051052347,-0.009624555,1.5031348,0.73045695,-0.015363015,-0.020941576,0.68246466,0.12922242
23840000,-0.050838325,-0.011241348,1.5029461,0.7305339,-0.014735017,-0.02145751,0.68238014,0.12929386
23864000,-0.050718963,-0.012743311,1.5026922,0.7306311,-0.01418159,-0.021963451,0.68227166,0.1293773
23888000,-0.050447166,-0.01415429,1.5025061,0.7307052,-0.013602875,-0.022384757,0.6821904,0.12937872
23912000,-0.050150786,-0.015630445,1.5023184,0.7307799,-0.012993027,-0.022821577,0.68210787,0.12984811
23936000,-0.049881887,-0.017010838,1.5021353,0.73085165,-0.012425913,-0.023232926,0.6820276,0.13022032
23960000,-0.087581,-0.02083853,0.7707359,0.925893,-0.036650963,-0.02610039,0.37509677,0.31057984
23984000,-0.12528011,-0.011138688,0.7707359,0.92495954,-0.055917796,-0.028681388,0.37483406,0.34195662
24008000,-0.16297923,-0.001408007,0.7707359,0.9236064,-0.07516585,-0.031248266,0.37459955,0.37115192
24032000,-0.20067835,0.008349927,0.7707359,0.9218341,-0.094385035,-0.03380462,0.37439376,0.39767468
24056000,-0.23837747,0.018131489,0.7707359,0.919643,-0.11356521,-0.036354072,0.37421688,0.42170113
24080000,-0.27607659,0.02793296,0.7707359,0.9170338,-0.13269621,-0.038900286,0.374069,0.44337678
24104000,-0.3137757,0.037748218,0.7707359,0.9140078,-0.1517675,-0.04144802,0.3739499,0.46272296
24128000,-0.3514748,0.04757362,0.7707359,0.9105664,-0.170769,-0.044000875,0.37385917,0.48004025
24152000,-0.3891739,0.057405647,0.7707359,0.90671146,-0.18969074,-0.04656239,0.37379637,0.49547207
24176000,-0.426873,0.06724088,0.7707359,0.90244484,-0.20852275,-0.049136,0.37376082,0.50919425
24200000,-0.4645721,0.077061646,0.7707359,0.89776987,-0.22725268,-0.05173159,0.37375033,0.5204817
24224000,-0.50227123,0.08686554,0.7707359,0.8926892,-0.24587098,-0.054352004,0.3737636,0.5303774
24248000,-0.53997034,0.09665041,0.7707359,0.887206,-0.2643682,-0.056999918,0.3737994,0.53898984
24272000,-0.57766944,0.10641441,0.7707359,0.88132334,-0.2827351,-0.059677828,0.3738563,0.54649377
24296000,-0.61536855,0.11614808,0.7707359,0.8750454,-0.30096138,-0.06239159,0.3739318,0.5525055
24320000,-0.65306765,0.12585051,0.7707359,0.8683761,-0.31903803,-0.06514306,0.37402427,0.55761236
24344000,-0.69076675,0.1355211,0.7707359,0.8613191,-0.3369564,-0.067934014,0.37413204,0.5619765
24368000,-0.72846586,0.14515944,0.7707359,0.8538787,-0.35470805,-0.070766,0.3742534,0.56565595
24392000,-0.76616496,0.1547654,0.7707359,0.8460591,-0.37228456,-0.073640436,0.37438652,0.56874114
24416000,-0.7847168,0.16432369,0.7707359,0.84155864,-0.38163614,-0.07297619,0.37524307,0.5703416
24440000,-0.7853507,0.17258406,0.7707359,0.8405482,-0.38320893,-0.06952168,0.3765586,0.5715498
24464000,-0.7857183,0.17636396,0.7707359,0.8400659,-0.38395885,-0.06795544,0.37715656,0.57242715
24488000,-0.7857922,0.17987481,0.7707359,0.8396663,-0.38454163,-0.066450104,0.37772015,0.5730605
24512000,-0.78557503,0.18326369,0.7707359,0.8393338,-0.384982,-0.064942375,0.37827256,0.57249266
24536000,-0.78508294,0.18641654,0.7707359,0.8390782,-0.38526908,-0.06348445,0.37879443,0.57179403
24560000,-0.78843564,0.18933555,0.763335,0.8395017,-0.38736066,-0.06142337,0.37605318,0.5709872
24584000,-0.7938454,0.1920666,0.75176364,0.84030694,-0.39039817,-0.059000462,0.37147313,0.5701513
24608000,-0.80320865,0.19472879,0.7323258,0.84174216,-0.39528924,-0.05574704,0.36346766,0.56842166
24632000,-0.80768704,0.19721204,0.7213607,0.84255844,-0.39783356,-0.0533024,0.35914132,0.56672376
24656000,-0.81171733,0.19954714,0.71086705,0.8433681,-0.40013728,-0.050912425,0.35500482,0.56512153
24680000,-0.81938857,0.20172979,0.69280577,0.84475577,-0.40412197,-0.04767733,0.3475631,0.5636096
24704000,-0.82265323,0.20383349,0.68293625,0.8455673,-0.40601456,-0.045324944,0.34367675,0.5618514
24728000,-0.82934517,0.20580214,0.665692,0.8469186,-0.40948153,-0.042087615,0.33657438,0.5602294
24752000,-0.8318151,0.20767082,0.65648156,0.8477485,-0.4109557,-0.03979495,0.33294773,0.5588271
24776000,-0.83400583,0.20943406,0.6474541,0.8485993,-0.41228092,-0.037528217,0.32938606,0.5576327
24800000,-0.83953017,0.21117622,0.63120335,0.849916,-0.4151321,-0.034304127,0.32269412,0.5559022
24824000,-0.8413029,0.21283573,0.62242854,0.8507757,-0.41622952,-0.032037176,0.31922942,0.5543923
24848000,-0.8461329,0.21440363,0.60679144,0.8520689,-0.41870624,-0.028848141,0.3127801,0.55312777
24872000,-0.8473397,0.21588829,0.5985774,0.8529346,-0.41950303,-0.026662335,0.3095301,0.5520784
24896000,-0.8515688,0.21736039,0.5834322,0.85420835,-0.42166066,-0.023477964,0.30328065,0.5508101
24920000,-0.8522471,0.21876334,0.57561636,0.8550955,-0.42218924,-0.021313906,0.30018938,0.5498035
24944000,-0.85277534,0.22008403,0.56789356,0.8559975,-0.42263323,-0.019179866,0.29712224,0.54900646
24968000,-0.8562602,0.22135727,0.5532617,0.8572772,-0.42438608,-0.016032487,0.29105872,0.54846203
24992000,-0.85639346,0.22257094,0.54582274,0.85819924,-0.42462102,-0.013937205,0.2880918,0.5481523
25016000,-0.85939753,0.22372594,0.53167254,0.8594579,-0.4261118,-0.010845773,0.28221142,0.54812187
25040000,-0.85924596,0.22481911,0.5244502,0.8603914,-0.42618635,-0.00880228,0.27931073,0.5482917
25064000,-0.8589311,0.22587675,0.5173126,0.8613414,-0.4261777,-0.006769575,0.2764372,0.5486866
25088000,-0.8615289,0.22689323,0.5033988,0.86258644,-0.42742646,-0.003705442,0.27062434,0.5492782
25112000,-0.8609677,0.22789937,0.49644178,0.86354095,-0.427283,-0.001697391,0.26781228,0.54955137
25136000,-0.8631873,0.22887322,0.48292446,0.86475915,-0.4283273,0.001331948,0.2621554,0.5500088
25160000,-0.86237824,0.22980864,0.47612247,0.86572593,-0.4280479,0.003309019,0.25938895,0.55063814
25184000,-0.8615086,0.23071364,0.46923697,0.8667103,-0.42773092,0.005296439,0.25657642,0.5514255
25208000,-0.8633203,0.23158641,0.45603198,0.8679122,-0.4285416,0.008281454,0.251022,0.5522168
25232000,-0.86223376,0.23244344,0.44939762,0.86888915,-0.42810568,0.010219336,0.24829966,0.5531687
25256000,-0.8639325,0.233259,0.43624315,0.87006086,-0.42882866,0.013192207,0.24274668,0.5542322
25280000,-0.862615,0.23404841,0.42973605,0.8710526,-0.42826682,0.01509741,0.24005616,0.5554528
25304000,-0.8612131,0.23483294,0.42325708,0.8720507,-0.4276601,0.017001122,0.23737174,0.5566497
25328000,-0.8626218,0.2355919,0.41031238,0.8731957,-0.42820778,0.019944437,0.23188247,0.55794114
25352000,-0.861071,0.23632005,0.40392092,0.87419564,-0.42751253,0.021815866,0.22921422,0.55932045
25376000,-0.86223006,0.2370378,0.3912495,0.8753158,-0.42791864,0.024715401,0.22382377,0.5608196
25400000,-0.86057824,0.23774593,0.3848236,0.876318,-0.42715728,0.026589654,0.22112532,0.56224924
25424000,-0.8588377,0.2384356,0.37850463,0.87732023,-0.4263496,0.028438084,0.2184641,0.5637336
25448000,-0.8599926,0.23910424,0.3657881,0.8783845,-0.42670605,0.03132511,0.21302892,0.5652633
25472000,-0.8581519,0.23975807,0.35951757,0.8793813,-0.4258333,0.0331496,0.21037029,0.5668452
25496000,-0.8562731,0.2403958,0.3532823,0.88037515,-0.42493603,0.03495837,0.20771848,0.56849086
25520000,-0.85719526,0.24101779,0.34074232,0.8814091,-0.42514724,0.037808165,0.20233251,0.57017565
25544000,-0.8551412,0.24162829,0.33456168,0.88241225,-0.42415315,0.039601244,0.19968575,0.57189137
25568000,-0.8530124,0.24222797,0.3282994,0.8834314,-0.42311645,0.041408494,0.19699425,0.57363325
25592000,-0.85366875,0.24281222,0.31600904,0.88443583,-0.4231714,0.044207923,0.19168964,0.57538253
25616000,-0.85140544,0.24338664,0.30980995,0.88545436,-0.42205638,0.045991905,0.1890072,0.57715213
25640000,-0.8491214,0.24395844,0.30369893,0.88646007,-0.4209267,0.04775179,0.18635742,0.5789312
25664000,-0.8497468,0.24451402,0.29137528,0.8874129,-0.42092466,0.05053854,0.18101542,0.5806921
25688000,-0.84733546,0.2450488,0.285316,0.888419,-0.41971987,0.05226991,0.17836721,0.5824399
25712000,-0.8448901,0.24558783,0.27914268,0.88943267,-0.41848987,0.054023355,0.17566292,0.58419776
25736000,-0.8451757,0.24612337,0.26707,0.89037275,-0.41830218,0.0567662,0.17040291,0.58595866
25760000,-0.8425489,0.24663925,0.26096487,0.891395,-0.41697404,0.058496315,0.16770788,0.58769786
25784000,-0.83979434,0.2471602,0.25496858,0.8924245,-0.41558507,0.06020923,0.16505295,0.589429
25808000,-0.8369562,0.24766551,0.24888566,0.89347,-0.4141483,0.061932124,0.16234808,0.59116423
25832000,-0.8370421,0.24816006,0.23689997,0.89436954,-0.4138223,0.064630285,0.15708925,0.59285057
25856000,-0.8342167,0.24865428,0.23079908,0.89538884,-0.41237217,0.06633443,0.15436251,0.59452665
25880000,-0.83125883,0.24914385,0.22482064,0.89641625,-0.4108594,0.06801326,0.15167958,0.59618306
25904000,-0.82834977,0.24964523,0.21872164,0.8974316,-0.40935752,0.06971015,0.14894073,0.5974688
25928000,-0.8283991,0.2501495,0.20668563,0.8982626,-0.40896383,0.07239795,0.14363626,0.5987362
25952000,-0.82530206,0.25064924,0.20074336,0.8992789,-0.4073651,0.07405813,0.14094868,0.5999895
25976000,-0.82210684,0.2511371,0.19471337,0.9003118,-0.40571153,0.075728744,0.1382098,0.601209
26000000,-0.8188631,0.2515937,0.18867928,0.90134656,-0.404028,0.07738002,0.13545519,0.60273683
26024000,-0.81549793,0.252059,0.18276764,0.902386,-0.40228748,0.07900928,0.1327467,0.60421526
26048000,-0.8153768,0.25251424,0.17081447,0.9031538,-0.40175977,0.0816274,0.1274332,0.60562694
26072000,-0.81200796,0.25296718,0.16478693,0.9041754,-0.3999952,0.08325441,0.12465729,0.6069759
26096000,-0.80839264,0.2534199,0.15889,0.9052269,-0.3981174,0.08486049,0.12192392,0.608318
26120000,-0.80471367,0.25386706,0.15288624,0.90628654,-0.3961989,0.08647867,0.11913211,0.60957223
26144000,-0.80084765,0.2543118,0.14690578,0.90737027,-0.39418924,0.08809127,0.11633576,0.61077946
26168000,-0.7967072,0.25475305,0.14105082,0.9084888,-0.39205307,0.08968201,0.113576815,0.6119182
26192000,-0.7925192,0.25519738,0.13508178,0.9096104,-0.3898826,0.091287196,0.11075753,0.61299545
26216000,-0.78815174,0.25561526,0.12912165,0.9107554,-0.38762295,0.092875995,0.10792202,0.6142043
26240000,-0.78718966,0.2560267,0.117291555,0.9115351,-0.38662934,0.09540518,0.1025639,0.61532915
26264000,-0.78260326,0.2564454,0.11145337,0.912685,-0.38425767,0.09695442,0.09975866,0.61636424
26288000,-0.7779676,0.25685355,0.10549675,0.9138375,-0.38185003,0.09851064,0.096887715,0.61732215
26312000,-0.7732165,0.25727007,0.099545,0.914997,-0.37938207,0.10006152,0.094007395,0.6180067
26336000,-0.7683074,0.25768515,0.09360227,0.91617167,-0.37683424,0.1016032,0.09111543,0.61864126
26360000,-0.7632305,0.25809515,0.087661505,0.9173634,-0.37420174,0.10313507,0.088207185,0.619197
26384000,-0.7579177,0.2584988,0.0818374,0.91857934,-0.37145895,0.10463735,0.08533124,0.61969256
26408000,-0.75259286,0.2588768,0.07589845,0.91978824,-0.36869666,0.106134005,0.08238932,0.62037885
26432000,-0.74723893,0.25926268,0.069954395,0.92098624,-0.36591253,0.1076205,0.079436965,0.6209764
26456000,-0.7418364,0.25963673,0.06400655,0.9221779,-0.36309782,0.109088026,0.07647021,0.62147534
26480000,-0.7322621,0.26000035,0.06391327,0.92388505,-0.3586709,0.1096381,0.07596783,0.6218934
26504000,-0.72656757,0.2603721,0.05796809,0.9250989,-0.3557072,0.11108427,0.07297048,0.6222564
26528000,-0.7207219,0.2607345,0.05212706,0.9263191,-0.35267133,0.11249584,0.070003144,0.6225077
26552000,-0.71489525,0.26108548,0.046173327,0.9275232,-0.34962988,0.11390375,0.0669746,0.6226742
26576000,-0.7089939,0.26144534,0.040219933,0.92872185,-0.3465456,0.1153004,0.063935384,0.62275374
26600000,-0.7029583,0.26180086,0.03426762,0.9299257,-0.34339094,0.1166809,0.06088003,0.6226083
26624000,-0.69685054,0.26215082,0.028312717,0.9311239,-0.3401945,0.1180429,0.057810165,0.622358
26648000,-0.6906572,0.26250908,0.022356607,0.932317,-0.33694986,0.11939252,0.054727897,0.6220688
26672000,-0.67974555,0.2628565,0.0222462,0.9341224,-0.33184594,0.1198701,0.054081302,0.6217004
26696000,-0.6733708,0.26319382,0.016288273,0.93530995,-0.3285018,0.12117887,0.05096793,0.62135875
26720000,-0.6670067,0.263531,0.010329936,0.9364757,-0.3251545,0.12246765,0.04784691,0.62093127
26744000,-0.66045445,0.26386508,0.004373787,0.93765223,-0.32171142,0.12373906,0.044706836,0.6204552
26768000,-0.6488969,0.26419508,0.004262248,0.93947744,-0.31627408,0.12416803,0.04399073,0.61993
26792000,-0.642176,0.26452166,-0.001693887,0.9406401,-0.3127367,0.12540065,0.04082316,0.61935747
26816000,-0.63545406,0.26482877,-0.007650395,0.941783,-0.30919135,0.12660314,0.037644334,0.61902726
26840000,-0.6234071,0.26513365,-0.007762112,0.9436114,-0.30349913,0.12698837,0.036874767,0.6186335
26864000,-0.6166617,0.26543418,-0.013718214,0.9447153,-0.299928,0.12814766,0.033678282,0.6181545
26888000,-0.609921,0.26573887,-0.01967247,0.9457968,-0.29635164,0.12928729,0.030476037,0.6176285
26912000,-0.5975954,0.26604497,-0.019783508,0.94758785,-0.29050273,0.12963368,0.02967093,0.6167207
26936000,-0.5907517,0.26634434,-0.025735686,0.94864076,-0.28686354,0.13073063,0.026447427,0.6157447
26960000,-0.5838858,0.26664734,-0.03168708,0.94967455,-0.28320658,0.1318077,0.023216104,0.614747
26984000,-0.5712222,0.2669533,-0.03179675,0.9514311,-0.27717257,0.1321126,0.022371918,0.6137583
27008000,-0.5643794,0.26725012,-0.037747152,0.95241666,-0.27351305,0.1331439,0.019127484,0.6126095
27032000,-0.55155194,0.26754716,-0.037855573,0.9541339,-0.2673836,0.13341984,0.01826186,0.6114365
27056000,-0.5448066,0.2678397,-0.043802246,0.95506114,-0.26375774,0.134405,0.015011478,0.61023355
27080000,-0.5319537,0.2681267,-0.04390874,0.9567195,-0.2575995,0.13464949,0.014134258,0.6090057
27104000,-0.5252814,0.26841047,-0.049853567,0.9575926,-0.2539965,0.13558713,0.010875568,0.60770106
27128000,-0.5122715,0.2686959,-0.049959973,0.95920753,-0.2477466,0.13580482,0.009978596,0.6064022
27152000,-0.50582415,0.26897737,-0.055903547,0.960008,-0.24423987,0.13669759,0.006723194,0.60508716
27176000,-0.49289903,0.26925573,-0.056007758,0.9615495,-0.23801531,0.13688415,0.005823687,0.6037848
27200000,-0.47993553,0.26952285,-0.05611147,0.96305585,-0.23176286,0.13705945,0.004918313,0.6026397
27224000,-0.47374353,0.26978728,-0.06205262,0.9637616,-0.22836381,0.13788019,0.001662251,0.60149354
27248000,-0.46080753,0.27004743,-0.062155943,0.96520233,-0.22211045,0.13802482,0.000750504,0.60034096
27272000,-0.45487565,0.27030325,-0.06809824,0.96583784,-0.2188276,0.13880053,-0.002499441,0.5992214
27296000,-0.44200724,0.27056244,-0.06820035,0.9672095,-0.21259351,0.1389175,-0.003413124,0.5977824
