timestamp,control[0],control[1],control[2],control[3],control[4]
12996000,0.025679672,0.026575262,-0.003823528,0.15,0
13003999,0.027041843,0.02684107,-0.003847469,0.15,0
13008000,0.028115325,0.026690405,-0.004110741,0.15,0
13012000,0.029214028,0.026592718,-0.004650991,0.15,0
13015999,0.029162971,0.026552344,-0.004573117,0.15,0
13020000,0.029540986,0.026567293,-0.004518176,0.15,0
13024000,0.029562406,0.02656679,-0.00451762,0.15,0
13028000,0.030294036,0.026587777,-0.004637673,0.15,0
13032000,0.030460786,0.026384564,-0.004931391,0.15,0
13035999,0.030553577,0.02653209,-0.005047038,0.15,0
13040000,0.030121943,0.026827583,-0.004966578,0.15,0
13044000,0.029676374,0.026764553,-0.004776147,0.15,0
13047999,0.029464487,0.026366906,-0.004629098,0.15,0
13052000,0.029466348,0.026362129,-0.004629151,0.15,0
13056000,0.02921301,0.026203798,-0.004445256,0.15,0
13060000,0.028979005,0.026148014,-0.004334258,0.15,0
13064000,0.028856922,0.025785904,-0.004439075,0.15,0
13067999,0.029218229,0.025420832,-0.004517361,0.15,0
13072000,0.029411208,0.025387704,-0.004543064,0.15,0
13076000,0.029142532,0.025585575,-0.004663658,0.15,0
13084000,0.02804083,0.026350327,-0.004845704,0.15,0
13088000,0.027216446,0.026605591,-0.004943017,0.15,0
13092000,0.026593981,0.026412232,-0.004815335,0.15,0
13096000,0.026475135,0.026208684,-0.004336027,0.15,0
13099999,0.026994461,0.026304496,-0.0039949,0.15,0
13104000,0.027325854,0.026415791,-0.004077154,0.15,0
13108000,0.026750786,0.02641901,-0.004150695,0.15,0
13112000,0.02673537,0.026523119,-0.004323887,0.15,0
13116000,0.027468873,0.026683182,-0.004299154,0.15,0
13124000,0.028486978,0.02665276,-0.004307851,0.15,0
13128000,0.029685209,0.026339404,-0.004676453,0.15,0
13131999,0.02919954,0.026195062,-0.004850323,0.15,0
13136000,0.028042296,0.026315384,-0.004755275,0.15,0
13140000,0.027538281,0.02661998,-0.004619422,0.15,0
13144000,0.027312899,0.026614638,-0.004476234,0.15,0
13148000,0.027277846,0.02630928,-0.004284524,0.15,0
13152000,0.027945189,0.026139531,-0.004087356,0.15,0
13156000,0.028512482,0.026283981,-0.003950681,0.15,0
13160000,0.028016513,0.026558744,-0.004066542,0.15,0
13163999,0.026641462,0.026809946,-0.004191797,0.15,0
13172000,0.025910012,0.026908394,-0.004223774,0.15,0
13176000,0.02726881,0.026770368,-0.004410043,0.15,0
13180000,0.02798254,0.02673554,-0.00440311,0.15,0
13183999,0.027891047,0.026635079,-0.004337249,0.15,0
13188000,0.026624313,0.026381731,-0.004226915,0.15,0
13192000,0.02660677,0.02635102,-0.004228011,0.15,0
13195999,0.025842832,0.02590205,-0.00399298,0.15,0
13200000,0.027512092,0.025993261,-0.003966368,0.15,0
13204000,0.020182384,0.025993617,0.002110995,0,0
13208000,0.021764643,0.026346106,0.000789724,0,0
13212000,0.020781409,0.02640101,0.000296743,0,0
13220000,0.01972887,0.026374094,0.000389154,0,0
13224000,0.02092838,0.026404709,0.001193638,0,0
13227999,0.021894822,0.026331408,0.001383398,1,0
13232000,0.021943193,0.026308728,0.000857256,1,0
13236000,0.022377793,0.026480323,0.000657383,1,0
13240000,0.023053793,0.02670265,0.000327918,1,0
13244000,0.022812247,0.026725989,0.000153968,1,0
13247999,0.022319328,0.026589978,0.000558902,1,0
13252000,0.021990437,0.026569339,0.000782924,1,0
13256000,0.021555027,0.026762582,0.000986629,1,0
13259999,0.021689923,0.027007973,0.00151592,1,0
13264000,0.022335779,0.027052024,0.001934146,1,0
13268000,0.022348823,0.027065586,0.001944159,1,0
13272000,0.022138305,0.026807234,0.001619249,1,0
13276000,0.02101432,0.026484013,0.0017566,1,0
13284000,0.019855477,0.026268868,0.000510308,1,0
13288000,0.020239716,0.026253194,0.000676701,1,0
13291999,0.020983705,0.02608992,0.002743167,1,0
13296000,0.021188533,0.025971817,0.004458541,1,0
13300000,0.021291474,0.026081977,0.004671461,1,0
13304000,0.021700714,0.026274681,0.004013847,1,0
13308000,0.02180043,0.026261624,0.003292169,1,0
13311999,0.021578366,0.026167862,0.002461273,1,0
13316000,0.021318404,0.026174705,0.001538859,1,0
13320000,0.020876108,0.02626924,0.001820541,1,0
13323999,0.020876827,0.026288738,0.001883408,1,0
13328000,0.020784032,0.02674862,0.00292026,1,0
13332000,0.02121801,0.027156727,0.003167552,1,0
13336000,0.021426996,0.027274363,0.003726568,1,0
13340000,0.021533942,0.026918769,0.004681165,1,0
13343999,0.021228278,0.026504302,0.005141353,1,0
13348000,0.021198956,0.026309155,0.004255998,1,0
13352000,0.021931412,0.026344474,0.00312971,1,0
13355999,0.022268744,0.026375797,0.002558533,1,0
13360000,0.021972202,0.026265392,0.00211086,1,0
13364000,0.021743322,0.02622759,0.00197995,1,0
13372000,0.021960553,0.026183732,0.002365915,1,0
13375999,0.022126505,0.025967207,0.00150808,1,0
13380000,0.021466484,0.025793398,0.001292021,1,0
13384000,0.021435656,0.025770068,0.002148929,1,0
13388000,0.021722097,0.02611171,0.002897217,1,0
13396000,0.021158772,0.026704853,0.003243121,1,0
13404000,0.020551443,0.026497478,0.002544177,1,0
13412000,0.021557085,0.026570193,0.003656603,1,0
13416000,0.022618748,0.02656022,0.002961514,1,0
13420000,0.022961572,0.026551552,0.001736091,1,0
13424000,0.022107493,0.02635357,0.000662857,1,0
13428000,0.020608656,0.026017318,0.001091302,1,0
13432000,0.020233992,0.025877874,0.002065497,1,0
13436000,0.021171356,0.026010523,0.00301976,1,0
13440000,0.022779573,0.026259676,0.003106657,1,0
13444000,0.02283294,0.02626457,0.003085726,1,0
13448000,0.025112415,0.026567409,0.002144864,1,0
13452000,0.023495466,0.026592003,0.002056628,1,0
13456000,0.021785403,0.02645724,0.001883406,1,0
13460000,0.021088742,0.026402138,0.001775938,1,0
13464000,0.020489534,0.026421914,0.001509055,1,0
13468000,0.019629477,0.026309056,0.001207613,1,0
13472000,0.019278282,0.026153658,0.000808585,1,0
13476000,0.019215344,0.026085874,0.000496126,1,0
13480000,0.019499982,0.026072048,0.000223947,1,0
13484000,0.021251626,0.026126724,0.00027745,1,0
13488000,0.02340043,0.026327915,0.000481279,1,0
13492000,0.02388262,0.02655689,0.000724133,1,0
13496000,0.023273904,0.026605736,0.001009017,1,0
13500000,0.022585077,0.026371747,0.001250024,1,0
13508000,0.02207014,0.026069889,0.001313912,1,0
13512000,0.020602703,0.026065817,0.00125206,1,0
13516000,0.020096257,0.026071949,0.001322787,1,0
13520000,0.020402906,0.025845911,0.001203056,1,0
13524000,0.020403292,0.025810258,0.001166686,1,0
13528000,0.02080302,0.025550682,0.00083517,1,0
13532000,0.021186292,0.025479414,0.000448889,1,0
13536000,0.021845523,0.025952244,0.000374692,1,0
13540000,0.021642104,0.026410794,0.00063872,1,0
13544000,0.021603823,0.026582886,0.000796287,1,0
13548000,0.021877613,0.026512146,0.001024975,1,0
13552000,0.022397464,0.026504759,0.001105563,1,0
13556000,0.02297837,0.026535258,0.001187283,1,0
13564000,0.021953972,0.026213124,0.001122192,1,0
13568000,0.021180062,0.026057132,0.000953606,1,0
13572000,0.020721458,0.025909724,0.001153207,1,0
13576000,0.020715294,0.02584162,0.001452563,1,0
13584000,0.021199962,0.02588304,0.001565798,1,0
13588000,0.02172627,0.025967972,0.001455452,1,0
13592000,0.01600462,0.020934802,0.000861857,1,0
13596000,0.015994173,0.020743392,0.000968878,1,0
13604000,0.015344855,0.021071237,0.001525575,1,0
13608000,0.015178613,0.021140115,0.001574325,1,0
13612000,0.015796375,0.020770561,0.001481049,1,0
13616000,0.016138691,0.020364162,0.001253339,1,0
13620000,0.015772955,0.020344028,0.001097654,1,0
13624000,0.015473194,0.020480797,0.001133051,1,0
13628000,0.015751444,0.020483455,0.001427309,1,0
13632000,0.015925985,0.0204933,0.001778972,1,0
13636000,0.015934758,0.020481559,0.001897452,1,0
13640000,0.015078014,0.020777367,0.00229127,1,0
13644000,0.015061146,0.020616982,0.002255617,1,0
13652000,0.015785666,0.020280292,0.001966894,1,0
13656000,0.017030803,0.020183949,0.001400493,1,0
13660000,0.017087316,0.020243598,0.001387198,1,0
13664000,0.01673514,0.020139348,0.001332897,1,0
13668000,0.015972925,0.019985212,0.001200325,1,0
13676000,0.015945077,0.019883955,0.00112674,1,0
13680000,0.016155925,0.019840984,0.000999871,1,0
13684000,0.016261715,0.019769115,0.000613145,1,0
13688000,0.01642832,0.019569967,0.000225794,1,0
13692000,0.01256319,0.016175285,4.43E-05,1,0
13696000,0.012394283,0.016248738,-1.70E-05,1,0
13700000,0.012415107,0.016215814,-9.81E-05,1,0
13704000,0.012538435,0.016363744,-0.000327785,1,0
13712000,0.013043591,-0.2663463,-0.000453528,1,0
13716000,0.012878462,-0.2666042,-0.000799819,1,0
13720000,0.01226679,-0.26680246,-0.001290968,1,0
13724000,0.011251505,-0.26694116,-0.002111204,1,0
13728000,0.010111291,-0.2670598,-0.003408665,1,0
13732000,0.009392833,-0.25396034,-0.00520927,1,0
13736000,0.008870012,-0.25395042,-0.00699143,1,0
13740000,0.00784905,-0.2540477,-0.008886096,1,0
13744000,0.006442722,-0.2542433,-0.010701321,1,0
13748000,0.004836907,-0.25449187,-0.012795173,1,0
13752000,0.00474072,-0.25465366,-0.013481104,1,0
13756000,0.001428555,-0.24243197,-0.016625842,1,0
13760000,-0.000124272,-0.2424213,-0.01830324,1,0
13768000,-0.003843426,-0.24224491,-0.021802656,1,0
13772000,-0.005944547,-0.24212681,-0.023746926,1,0
13776000,-0.007962343,-0.24203286,-0.02543785,1,0
13780000,-0.009633321,-0.23014133,-0.02758527,1,0
13784000,-0.010816686,-0.23007587,-0.029168706,1,0
13788000,-0.011834893,-0.23015681,-0.031277586,1,0
13792000,-0.009593468,-0.19886813,-0.032956712,1,0
13796000,-0.010924408,-0.19878858,-0.034877665,1,0
13800000,-0.012450466,-0.19872878,-0.03605618,1,0
13804000,-0.012697671,-0.1891951,-0.037425064,1,0
13812000,-0.018640243,-0.18955733,-0.039986692,1,0
13816000,-0.020422336,-0.18976843,-0.040964283,1,0
13820000,-0.021697417,-0.1899907,-0.042542152,1,0
13828000,-0.023084423,-0.18100107,-0.044905026,1,0
13832000,-0.026112761,-0.18091096,-0.045807306,1,0
13836000,-0.028241433,-0.18107513,-0.047074057,1,0
13840000,-0.030217886,-0.18129583,-0.04749591,1,0
13844000,-0.032079928,-0.18158162,-0.048392437,1,0
13848000,-0.03381565,-0.18194333,-0.048614204,1,0
13852000,-0.035549365,-0.17355385,-0.049311675,1,0
13860000,-0.03940661,-0.17403467,-0.05018805,1,0
13864000,-0.041335188,-0.1742644,-0.050398946,1,0
13868000,-0.04329771,-0.17452903,-0.051044375,1,0
13872000,-0.045250446,-0.17471863,-0.051002942,1,0
13876000,-0.04704169,-0.16643262,-0.051461402,1,0
13880000,-0.048791908,-0.16657148,-0.051265262,1,0
13884000,-0.05066304,-0.16673815,-0.051532514,1,0
13888000,-0.052572012,-0.1669183,-0.051158197,1,0
13892000,-0.04462726,-0.15015857,-0.0512326,1,0
13896000,-0.046081025,-0.15016258,-0.050759926,1,0
13900000,-0.046638805,-0.14304398,-0.051330917,1,0
13904000,-0.0495668,-0.142972,-0.050079104,1,0
13908000,-0.050133895,-0.14307983,-0.05051823,1,0
13912000,-0.052183766,-0.14324412,-0.049080893,1,0
13916000,-0.05276896,-0.14335135,-0.04941927,1,0
13920000,-0.05462479,-0.14347677,-0.048089992,1,0
13924000,-0.05608353,-0.13649298,-0.047801595,1,0
13928000,-0.057308264,-0.13644613,-0.047080435,1,0
13932000,-0.05817287,-0.136443,-0.04670034,1,0
13936000,-0.059110474,-0.13645042,-0.045860823,1,0
13940000,-0.060191076,-0.13650848,-0.045384727,1,0
13944000,-0.061287295,-0.13663554,-0.04453765,1,0
13952000,-0.06401274,-0.13006298,-0.042746842,1,0
13956000,-0.06467017,-0.13012916,-0.04255704,1,0
13960000,-0.06634584,-0.13008583,-0.040734056,1,0
13964000,-0.067525774,-0.13002563,-0.040029418,1,0
13968000,-0.068383925,-0.1299081,-0.039043386,1,0
13972000,-0.06890038,-0.123272,-0.038269635,1,0
13976000,-0.069332875,-0.12321913,-0.03714308,1,0
13980000,-0.06987884,-0.12320178,-0.03632229,1,0
13988000,-0.07121499,-0.12297244,-0.034229062,1,0
13992000,-0.06142496,-0.112658806,-0.033472914,1,0
13996000,-0.061944596,-0.10683624,-0.032397248,1,0
14000000,-0.06196285,-0.10683411,-0.030585632,1,0
14004000,-0.062286314,-0.10686301,-0.029388968,1,0
14008000,-0.06262785,-0.10681407,-0.028038565,1,0
14012000,-0.06313373,-0.10672642,-0.026867718,1,0
14016000,-0.06378706,-0.10667861,-0.025568824,1,0
14020000,-0.064556,-0.1011075,-0.024472313,1,0
14028000,-0.066133395,-0.10119143,-0.022216454,1,0
14032000,-0.06692437,-0.101289995,-0.020932298,1,0
14036000,-0.06749893,-0.10132363,-0.020019546,1,0
14040000,-0.06779529,-0.101422064,-0.018379692,1,0
14044000,-0.06814386,-0.095909305,-0.01723351,1,0
14048000,-0.06844294,-0.09587103,-0.016117614,1,0
14052000,-0.069004744,-0.09586222,-0.015151452,1,0
14056000,-0.06875612,-0.09572524,-0.013865912,1,0
14060000,-0.06932425,-0.09572883,-0.012907416,1,0
14064000,-0.06971359,-0.09570272,-0.011718762,1,0
14068000,-0.07006559,-0.09039077,-0.010626173,1,0
14072000,-0.07028075,-0.09033168,-0.009431718,1,0
14076000,-0.07058862,-0.09024016,-0.008332128,1,0
14084000,-0.071099974,-0.09022256,-0.006205873,1,0
14088000,-0.0710604,-0.090262175,-0.005107906,1,0
14092000,-0.06942976,-0.08383268,-0.004074301,1,0
14096000,-0.06979308,-0.08376093,-0.00308084,1,0
14100000,-0.07004965,-0.08368045,-0.002079229,1,0
14104000,-0.07029512,-0.0836998,-0.001036952,1,0
14108000,-0.070788436,-0.083810985,6.13E-05,1,0
14116000,-0.07175858,-0.078993425,0.002164437,1,0
14120000,-0.07170694,-0.07900511,0.003051679,1,0
14124000,-0.071496174,-0.078980185,0.003913988,1,0
14132000,-0.07185482,-0.07900477,0.005655762,1,0
14136000,-0.0719315,-0.079167716,0.006331748,1,0
14140000,-0.072414406,-0.074296795,0.007244316,1,0
14144000,-0.07241333,-0.07447481,0.007905809,1,0
14148000,-0.072379656,-0.07459909,0.008637812,1,0
14156000,-0.07323006,-0.074740306,0.010159179,1,0
14160000,-0.07359438,-0.074908815,0.010844127,1,0
14164000,-0.07366647,-0.07032735,0.01150751,1,0
14168000,-0.07349661,-0.07055843,0.01198029,1,0
14172000,-0.07395576,-0.070665844,0.01271582,1,0
14176000,-0.07387253,-0.07105908,0.012800007,1,0
14180000,-0.074317135,-0.07118073,0.013462511,1,0
14184000,-0.07412314,-0.07155318,0.013430957,1,0
14188000,-0.07397507,-0.06707369,0.01381583,1,0
14192000,-0.07421058,-0.067350484,0.014187428,1,0
14196000,-0.07468074,-0.067624,0.014591802,1,0
14200000,-0.07497171,-0.06785278,0.014891706,1,0
14204000,-0.0750713,-0.068103805,0.015160922,1,0
14208000,-0.07516311,-0.06844461,0.015324988,1,0
14212000,-0.07558142,-0.063970014,0.015836138,1,0
14216000,-0.075633556,-0.064365,0.01578319,1,0
14220000,-0.07580049,-0.06460011,0.01585566,1,0
14224000,-0.07579691,-0.06485026,0.015890662,1,0
14228000,-0.07585512,-0.065149486,0.016090166,1,0
14232000,-0.07603714,-0.06547781,0.016247604,1,0
14236000,-0.07642856,-0.06111688,0.016577633,1,0
14244000,-0.0760778,-0.06202911,0.016393322,1,0
14252000,-0.07658992,-0.06241513,0.016162131,1,0
14256000,-0.07665562,-0.062404204,0.014578082,1,0
14260000,-0.07663972,-0.058076605,0.013923495,1,0
14264000,-0.07664482,-0.058366276,0.013549782,1,0
14268000,-0.076772444,-0.058701012,0.013364106,1,0
14276000,-0.07677204,-0.059439316,0.012854279,1,0
14280000,-0.07680914,-0.059842296,0.012460797,1,0
14284000,-0.077097915,-0.055762727,0.012091751,1,0
14288000,-0.07741911,-0.05624217,0.011700059,1,0
14292000,-0.07760834,-0.056796897,0.011324348,1,0
14296000,-0.077890866,-0.057381924,0.010923749,1,0
14300000,-0.07828764,-0.057888128,0.010445311,1,0
14304000,-0.07840102,-0.058324583,0.009894947,1,0
14308000,-0.07830231,-0.054352038,0.009423552,1,0
14312000,-0.07835745,-0.054857574,0.008988616,1,0
14316000,-0.07841031,-0.05539235,0.008570896,1,0
14320000,-0.078354895,-0.055982843,0.008083086,1,0
14324000,-0.07841972,-0.056644466,0.007535523,1,0
14328000,-0.078471355,-0.057340443,0.006886063,1,0
14332000,-0.07838859,-0.053573046,0.006246122,1,0
14336000,-0.07850537,-0.05413507,0.005657809,1,0
14340000,-0.07887234,-0.054658566,0.005058155,1,0
14344000,-0.079185165,-0.055170704,0.004412243,1,0
14348000,-0.07926471,-0.05572564,0.003782484,1,0
14352000,-0.079213,-0.0563549,0.003178267,1,0
14356000,-0.07929586,-0.052638434,0.002587339,1,0
14360000,-0.079537764,-0.0532802,0.002008181,1,0
14364000,-0.0797403,-0.053942457,0.001437517,1,0
14368000,-0.07994197,-0.05460586,0.000932361,1,0
14372000,-0.080172256,-0.055260472,0.000468045,1,0
14376000,-0.080306284,-0.055920534,-0.000115938,1,0
14380000,-0.08033941,-0.05221027,-0.00076717,1,0
14384000,-0.080286935,-0.052768122,-0.00132247,1,0
14388000,-0.08057685,-0.053327303,-0.001883253,1,0
14392000,-0.080208674,-0.054053076,-0.00261391,1,0
14396000,-0.08043196,-0.0547909,-0.003383144,1,0
14400000,-0.08093622,-0.055467654,-0.004034712,1,0
14404000,-0.081225336,-0.051776845,-0.004566535,1,0
14412000,-0.08104258,-0.053073216,-0.005617915,1,0
14416000,-0.08107524,-0.05372499,-0.006092485,1,0
14420000,-0.08119472,-0.054383084,-0.006534585,1,0
14424000,-0.0814045,-0.05503092,-0.007002954,1,0
14428000,-0.081668824,-0.051379796,-0.007563521,1,0
14432000,-0.081353314,-0.052190263,-0.00811636,1,0
14440000,-0.08112709,-0.05356355,-0.009114427,1,0
14444000,-0.081150815,-0.054194078,-0.009587553,1,0
14452000,-0.081533134,-0.051228903,-0.01060007,1,0
14456000,-0.081349306,-0.05185481,-0.011029292,1,0
14460000,-0.08146915,-0.052530516,-0.011544708,1,0
14464000,-0.08167591,-0.05324569,-0.012070319,1,0
14468000,-0.081876345,-0.053915393,-0.012593955,1,0
14472000,-0.08200413,-0.05454133,-0.013016363,1,0
14476000,-0.082047805,-0.050953522,-0.013345256,1,0
14484000,-0.082119465,-0.052219495,-0.014130512,1,0
14488000,-0.08131741,-0.052762274,-0.014438676,1,0
14492000,-0.08120709,-0.053434752,-0.014852182,1,0
14496000,-0.08137366,-0.054098375,-0.015228311,1,0
14500000,-0.0816446,-0.050498698,-0.015569311,1,0
14508000,-0.08208386,-0.051728643,-0.016340435,1,0
14512000,-0.08212656,-0.052351445,-0.016739834,1,0
14516000,-0.08207964,-0.052970212,-0.017085932,1,0
14524000,-0.082155526,-0.0499148,-0.017707292,1,0
14528000,-0.0820016,-0.05034645,-0.017582651,1,0
14532000,-0.08220695,-0.050973687,-0.017931413,1,0
14536000,-0.082043484,-0.051553342,-0.017910771,1,0
14540000,-0.08190577,-0.05201821,-0.01821405,1,0
14544000,-0.08160926,-0.052453093,-0.018507611,1,0
14548000,-0.08136486,-0.048782784,-0.01882049,1,0
14552000,-0.08141927,-0.049386423,-0.019131387,1,0
14556000,-0.08157969,-0.0499288,-0.019394249,1,0
14560000,-0.08177691,-0.050437152,-0.019503644,1,0
14568000,-0.08220346,-0.05157489,-0.019793943,1,0
14572000,-0.08201621,-0.04798554,-0.019740947,1,0
14576000,-0.08200175,-0.04851702,-0.0199264,1,0
14580000,-0.08195059,-0.04900213,-0.020178057,1,0
14584000,-0.08189387,-0.04950688,-0.020377211,1,0
14588000,-0.081888705,-0.05000951,-0.020549476,1,0
14592000,-0.081886746,-0.050515797,-0.020727437,1,0
14596000,-0.081820354,-0.046827666,-0.020870233,1,0
14600000,-0.0817832,-0.047313035,-0.020927444,1,0
14604000,-0.08181005,-0.047796797,-0.020982444,1,0
14608000,-0.081940025,-0.048282687,-0.021084202,1,0
14612000,-0.08223151,-0.04878039,-0.02125138,1,0
14616000,-0.082435675,-0.049292814,-0.021396004,1,0
14620000,-0.08258989,-0.04565449,-0.021573745,1,0
14624000,-0.08217116,-0.04622997,-0.021646425,1,0
14628000,-0.08195443,-0.04673165,-0.021793187,1,0
14636000,-0.08223548,-0.047746502,-0.022132395,1,0
14640000,-0.08275691,-0.048205115,-0.02222376,1,0
14644000,-0.08291048,-0.044537213,-0.022354586,1,0
14648000,-0.082810394,-0.04490829,-0.022198897,1,0
14652000,-0.08258687,-0.04532785,-0.022269186,1,0
14656000,-0.08245925,-0.045748558,-0.0224046,1,0
14660000,-0.08244628,-0.046207882,-0.022565879,1,0
14664000,-0.082536764,-0.046709098,-0.022703333,1,0
14668000,-0.08267982,-0.043016482,-0.022835312,1,0
14672000,-0.08274239,-0.04348124,-0.022857875,1,0
14676000,-0.08276231,-0.043872945,-0.02284922,1,0
14680000,-0.08285132,-0.044248775,-0.022898588,1,0
14684000,-0.08287978,-0.044743847,-0.023028929,1,0
14688000,-0.08273898,-0.04530677,-0.023188535,1,0
14692000,-0.08242889,-0.041641533,-0.023340277,1,0
14696000,-0.08218003,-0.04209228,-0.023420388,1,0
14700000,-0.08212275,-0.042480886,-0.02346924,1,0
14708000,-0.082469024,-0.043446034,-0.023596115,1,0
14712000,-0.0827776,-0.044006344,-0.023721017,1,0
14716000,-0.082961306,-0.040348753,-0.023919297,1,0
14724000,-0.08287768,-0.041326083,-0.024251388,1,0
14728000,-0.08271918,-0.04174957,-0.02445562,1,0
14736000,-0.08224683,-0.04250346,-0.024865737,1,0
14740000,-0.081985295,-0.038709026,-0.025125243,1,0
14744000,-0.08167411,-0.039236397,-0.02538526,1,0
14748000,-0.081471,-0.039797213,-0.025561025,1,0
14752000,-0.08159599,-0.040307514,-0.025674578,1,0
14756000,-0.08212993,-0.040796798,-0.02576366,1,0
14760000,-0.0827423,-0.041248705,-0.025905702,1,0
14764000,-0.08309122,-0.03745217,-0.02614949,1,0
14768000,-0.08329565,-0.037863337,-0.026394213,1,0
14772000,-0.08341751,-0.03831424,-0.026575606,1,0
14776000,-0.083604865,-0.038699415,-0.026898734,1,0
14780000,-0.08342156,-0.039184157,-0.027192246,1,0
14784000,-0.08331179,-0.03969518,-0.02744293,1,0
14788000,-0.08341593,-0.035940524,-0.027649598,1,0
14796000,-0.083213404,-0.036883578,-0.028268706,1,0
14804000,-0.08340385,-0.03778447,-0.028817816,1,0
14808000,-0.0835757,-0.038284235,-0.02911048,1,0
14812000,-0.08369121,-0.03450859,-0.029347915,1,0
14816000,-0.08395411,-0.034968425,-0.0296652,1,0
14820000,-0.08405753,-0.035416,-0.029914659,1,0
14824000,-0.083891936,-0.035794523,-0.030218583,1,0
14828000,-0.08401115,-0.036241516,-0.030472409,1,0
14836000,-0.084647045,-0.032823544,-0.03104385,1,0
14840000,-0.0845315,-0.033346586,-0.031353958,1,0
14844000,-0.08416593,-0.03390604,-0.03161617,1,0
14852000,-0.084085114,-0.03492569,-0.032179877,1,0
14856000,-0.084273934,-0.035438567,-0.0325933,1,0
14860000,-0.0843727,-0.031639848,-0.03289578,1,0
14864000,-0.08411345,-0.031992145,-0.033420745,1,0
14868000,-0.08421688,-0.03244866,-0.033732794,1,0
14872000,-0.08428768,-0.032927964,-0.034140386,1,0
14876000,-0.08451462,-0.033460867,-0.03446106,1,0
14880000,-0.08468505,-0.03400282,-0.034856465,1,0
14884000,-0.08477858,-0.030244377,-0.03525646,1,0
14888000,-0.084876694,-0.030714009,-0.035577245,1,0
14892000,-0.084565856,-0.031172566,-0.035887893,1,0
14896000,-0.084435195,-0.031590324,-0.036269482,1,0
14900000,-0.08453036,-0.03204709,-0.036629297,1,0
14904000,-0.084344134,-0.032445908,-0.037147988,1,0
14908000,-0.08443685,-0.028628629,-0.03750017,1,0
14912000,-0.08421898,-0.02910472,-0.03795152,1,0
14916000,-0.08403913,-0.029647682,-0.03838671,1,0
14920000,-0.084046915,-0.030175265,-0.03878785,1,0
14924000,-0.084220864,-0.030625168,-0.03919833,1,0
14928000,-0.084370464,-0.031011004,-0.03963965,1,0
14932000,-0.084473014,-0.027113238,-0.040101178,1,0
14936000,-0.08464521,-0.027549872,-0.04057139,1,0
14940000,-0.08490872,-0.028031122,-0.04102353,1,0
14944000,-0.085280925,-0.028508618,-0.041488595,1,0
14952000,-0.08553357,-0.029332679,-0.042233653,1,0
14956000,-0.08561912,-0.025488608,-0.04262916,1,0
14960000,-0.08488303,-0.025979929,-0.042952016,1,0
14964000,-0.08485138,-0.026515245,-0.043286316,1,0
14968000,-0.08519112,-0.027067885,-0.04362469,1,0
14972000,-0.08528977,-0.02752268,-0.0440248,1,0
14976000,-0.08559865,-0.02794052,-0.0445693,1,0
14980000,-0.08567663,-0.024085278,-0.04497342,1,0
14984000,-0.084821165,-0.0245483,-0.0454543,1,0
14992000,-0.0850192,-0.02558316,-0.046035543,1,0
14996000,-0.085222766,-0.026062613,-0.046349023,1,0
15000000,-0.08538696,-0.026575223,-0.046709403,1,0
15004000,-0.085572794,-0.022767019,-0.047129862,1,0
15008000,-0.08574679,-0.02329233,-0.047392372,1,0
15012000,-0.08583944,-0.023845352,-0.04744886,1,0
15020000,-0.08555277,-0.024918636,-0.047598403,1,0
15028000,-0.08564098,-0.021489676,-0.047585037,1,0
15032000,-0.08578378,-0.021893466,-0.047563743,1,0
15036000,-0.085841425,-0.022363603,-0.047579087,1,0
15040000,-0.08593274,-0.022879127,-0.04764938,1,0
15044000,-0.08604573,-0.023389453,-0.0476678,1,0
15048000,-0.085955866,-0.023859404,-0.04769328,1,0
15052000,-0.08602729,-0.01997058,-0.04769743,1,0
15056000,-0.08551406,-0.02035457,-0.047673862,1,0
15060000,-0.08591424,-0.020773554,-0.04761906,1,0
15064000,-0.0864395,-0.021261895,-0.047633346,1,0
15068000,-0.086570725,-0.021835158,-0.04759366,1,0
15072000,-0.08632737,-0.022391587,-0.047553316,1,0
15076000,-0.08602445,-0.018523028,-0.04754809,1,0
15080000,-0.08593336,-0.01901289,-0.047550958,1,0
15084000,-0.0860158,-0.019505072,-0.047555067,1,0
15088000,-0.0863266,-0.019955337,-0.047436073,1,0
15092000,-0.08652642,-0.02039172,-0.047365494,1,0
15096000,-0.08678302,-0.02089073,-0.0473508,1,0
15100000,-0.0869705,-0.01701823,-0.047388777,1,0
15104000,-0.08689629,-0.01754225,-0.047462113,1,0
15108000,-0.08666275,-0.018057002,-0.04744661,1,0
15112000,-0.08649403,-0.018556757,-0.047372736,1,0
15116000,-0.08651616,-0.019042872,-0.047303133,1,0
15120000,-0.08658413,-0.01951504,-0.04731889,1,0
15124000,-0.08644248,-0.015594275,-0.047328264,1,0
15128000,-0.08624725,-0.016092174,-0.047331393,1,0
15132000,-0.086317405,-0.016562104,-0.047257517,1,0
15136000,-0.086537026,-0.01700542,-0.047155805,1,0
15140000,-0.086591735,-0.017491985,-0.047081597,1,0
15144000,-0.086498864,-0.018019777,-0.047121175,1,0
15148000,-0.08644771,-0.014100444,-0.04717911,1,0
15152000,-0.08645142,-0.014580482,-0.047255673,1,0
15156000,-0.086437486,-0.015033877,-0.04727093,1,0
15160000,-0.086518645,-0.01546967,-0.047263313,1,0
15164000,-0.08674204,-0.015960405,-0.04722998,1,0
15168000,-0.08692217,-0.016507003,-0.047200873,1,0
15172000,-0.08699764,-0.012561116,-0.04720489,1,0
15176000,-0.0873909,-0.013113692,-0.047132574,1,0
15180000,-0.08754638,-0.013611196,-0.04710026,1,0
15184000,-0.087552935,-0.014094543,-0.047114484,1,0
15188000,-0.08725387,-0.014551992,-0.047171704,1,0
15192000,-0.08669136,-0.014990979,-0.047251508,1,0
15196000,-0.08636337,-0.011001896,-0.04724128,1,0
15200000,-0.08654938,-0.011522307,-0.04720217,1,0
15204000,-0.086862266,-0.012050069,-0.047127727,1,0
15208000,-0.08698267,-0.012557499,-0.04713566,1,0
15212000,-0.087068096,-0.01301004,-0.047162384,1,0
15220000,-0.08720892,-0.00940932,-0.04724919,1,0
15224000,-0.08724506,-0.009843288,-0.047323905,1,0
15228000,-0.087125205,-0.010254461,-0.04732506,1,0
15232000,-0.08706627,-0.010682324,-0.04730875,1,0
15236000,-0.08727098,-0.011144999,-0.047296263,1,0
15240000,-0.08742274,-0.011646375,-0.047316767,1,0
15244000,-0.08735531,-0.007682377,-0.047304038,1,0
15248000,-0.08723594,-0.008181495,-0.047324367,1,0
15252000,-0.08726252,-0.008635953,-0.047284797,1,0
15256000,-0.08729502,-0.00910583,-0.047225617,1,0
15260000,-0.08724231,-0.009629644,-0.047155827,1,0
15268000,-0.087545834,-0.006166155,-0.047162846,1,0
15272000,-0.087668695,-0.006638707,-0.047236778,1,0
15276000,-0.08779368,-0.00709716,-0.047255557,1,0
15280000,-0.08785097,-0.007528929,-0.04729393,1,0
15284000,-0.08790698,-0.008005562,-0.047297932,1,0
15288000,-0.08767465,-0.008458005,-0.047399916,1,0
15292000,-0.08776661,-0.004443614,-0.04739864,1,0
15296000,-0.087728195,-0.00497179,-0.047360986,1,0
15300000,-0.08748847,-0.005466723,-0.04726301,1,0
15304000,-0.0874813,-0.005899483,-0.047228973,1,0
15308000,-0.087898105,-0.006319566,-0.04724469,1,0
15312000,-0.0885064,-0.006774664,-0.04731299,1,0
15316000,-0.08880933,-0.002712692,-0.047372974,1,0
15320000,-0.088868484,-0.003176608,-0.047404192,1,0
15324000,-0.08831829,-0.003585187,-0.047604486,1,0
15328000,-0.08797959,-0.003998341,-0.04763041,1,0
15336000,-0.088315785,-0.005029962,-0.04755945,1,0
15340000,-0.08857935,-0.001004499,-0.047576163,1,0
15348000,-0.08856667,-0.001985502,-0.047720432,1,0
15352000,-0.08823645,-0.002413523,-0.047790177,1,0
15356000,-0.088288195,-0.002885777,-0.04779426,1,0
15360000,-0.08795067,-0.003318913,-0.0478331,1,0
15364000,-0.08813355,0.000783274,-0.047961216,1,0
15368000,-0.088360965,0.000344027,-0.048061036,1,0
15372000,-0.088448584,-4.58E-05,-0.04798475,1,0
15376000,-0.088347,-0.00040362,-0.04793903,1,0
15380000,-0.08821421,-0.000791682,-0.047947213,1,0
15384000,-0.08826856,-0.00126059,-0.047983,1,0
15388000,-0.08830965,0.002832977,-0.047947276,1,0
15392000,-0.08886073,0.002230734,-0.047825232,1,0
15396000,-0.08895335,0.00172588,-0.04783658,1,0
15400000,-0.08872639,0.001210341,-0.047902603,1,0
15404000,-0.088553146,0.000654502,-0.047926746,1,0
15408000,-0.08858153,0.000118537,-0.04796441,1,0
15412000,-0.08856608,0.004274298,-0.047997132,1,0
15416000,-0.08848248,0.003909258,-0.048101567,1,0
15420000,-0.088581085,0.003554927,-0.048150167,1,0
15424000,-0.088862956,0.003160697,-0.048155636,1,0
15428000,-0.08910721,0.002683036,-0.048110545,1,0
15432000,-0.08920603,0.002118781,-0.04813216,1,0
15436000,-0.089253165,0.006166289,-0.048183996,1,0
15440000,-0.08925095,0.005641712,-0.04832366,1,0
15444000,-0.08907267,0.005165037,-0.04840453,1,0
15452000,-0.08900888,0.004230602,-0.04849188,1,0
15456000,-0.089152545,0.003710052,-0.048543923,1,0
15460000,-0.08901426,0.007796357,-0.048507646,1,0
15464000,-0.0888619,0.007259214,-0.048547514,1,0
15468000,-0.08858407,0.006760133,-0.048591923,1,0
15472000,-0.08840906,0.00630671,-0.04866721,1,0
15476000,-0.08849277,0.005854169,-0.048645698,1,0
15484000,-0.08870278,0.009576969,-0.04859381,1,0
15488000,-0.08895933,0.009110114,-0.04863014,1,0
15492000,-0.08921389,0.008621553,-0.04862055,1,0
15496000,-0.089469016,0.008083295,-0.048605647,1,0
15500000,-0.08980156,0.007550944,-0.04855249,1,0
15504000,-0.08998683,0.00710067,-0.048607416,1,0
15508000,-0.09005625,0.011308542,-0.04872573,1,0
15512000,-0.0901231,0.010840155,-0.0489038,1,0
15516000,-0.09006019,0.010396831,-0.048996083,1,0
15520000,-0.0899461,0.009963747,-0.04905395,1,0
15524000,-0.09000292,0.009493738,-0.04905824,1,0
15528000,-0.089766555,0.009058084,-0.048974834,1,0
15532000,-0.089563146,0.013208251,-0.048949722,1,0
15536000,-0.08951628,0.012642032,-0.048981473,1,0
15540000,-0.08963222,0.012122909,-0.048982974,1,0
15544000,-0.08991262,0.011693642,-0.0490387,1,0
15548000,-0.09014565,0.01129267,-0.049093768,1,0
15552000,-0.09011,0.010824889,-0.049195636,1,0
15556000,-0.08998035,0.014975889,-0.04919625,1,0
15560000,-0.08993404,0.014436182,-0.04920329,1,0
15564000,-0.09007783,0.01390129,-0.049197994,1,0
15568000,-0.09034812,0.01341342,-0.049247213,1,0
15572000,-0.09040834,0.012982337,-0.04922771,1,0
15576000,-0.09030526,0.012561863,-0.049237162,1,0
15580000,-0.090278104,0.01677518,-0.049275655,1,0
15584000,-0.090315424,0.016213367,-0.04939333,1,0
15588000,-0.09038847,0.01566281,-0.049441755,1,0
15592000,-0.09044882,0.015192188,-0.049513686,1,0
15596000,-0.09043014,0.014715623,-0.04953762,1,0
15600000,-0.09024039,0.01417844,-0.04956513,1,0
15604000,-0.09028391,0.018389568,-0.049569502,1,0
15608000,-0.089917414,0.017807337,-0.04948619,1,0
15612000,-0.09012518,0.01726334,-0.049417213,1,0
15616000,-0.09022753,0.016722962,-0.049465008,1,0
15620000,-0.09014996,0.016166102,-0.04951136,1,0
15624000,-0.09015884,0.015646568,-0.049537413,1,0
15628000,-0.090264626,0.019923998,-0.049485773,1,0
15632000,-0.0904036,0.019547392,-0.049519427,1,0
15636000,-0.09058167,0.019178394,-0.049605787,1,0
15640000,-0.09067085,0.018739268,-0.04976185,1,0
15644000,-0.09073128,0.018238848,-0.04976625,1,0
15648000,-0.090833545,0.017604211,-0.0498154,1,0
15652000,-0.09087312,0.021781748,-0.049786624,1,0
15656000,-0.090783015,0.021245863,-0.04980928,1,0
15660000,-0.090678334,0.020713117,-0.049781263,1,0
15664000,-0.090799436,0.02022954,-0.04975365,1,0
15668000,-0.090862915,0.019732518,-0.04975804,1,0
15672000,-0.09135933,0.019248473,-0.049729582,1,0
15676000,-0.09136734,0.023470005,-0.04974191,1,0
15684000,-0.091290295,0.02247675,-0.04987037,1,0
15688000,-0.091351464,0.02196846,-0.049915925,1,0
15692000,-0.09126973,0.021422043,-0.049973793,1,0
15700000,-0.09090174,0.025214186,-0.04996417,1,0
15704000,-0.09045775,0.024681145,-0.049978055,1,0
15708000,-0.09078874,0.024161484,-0.049915567,1,0
15712000,-0.09110256,0.023616925,-0.04989586,1,0
15716000,-0.09117908,0.023049321,-0.049838364,1,0
15720000,-0.091186956,0.022485703,-0.04980545,1,0
15724000,-0.09125593,0.026679011,-0.04975398,1,0
15728000,-0.091256656,0.026137173,-0.0497803,1,0
15732000,-0.09121948,0.02563694,-0.04978416,1,0
15736000,-0.09134431,0.025122622,-0.049822155,1,0
15740000,-0.09139664,0.024596568,-0.049826533,1,0
15744000,-0.09164185,0.024032455,-0.049873132,1,0
15748000,-0.091579676,0.028236935,-0.049952265,1,0
15752000,-0.0915271,0.027680987,-0.05009618,1,0
15756000,-0.09149349,0.027161457,-0.05017249,1,0
15760000,-0.09157498,0.02665638,-0.050222076,1,0
15764000,-0.09165138,0.026124867,-0.050167672,1,0
15768000,-0.09169275,0.025628489,-0.050170317,1,0
15772000,-0.09183988,0.029950764,-0.050144423,1,0
15776000,-0.09198788,0.029478932,-0.05019808,1,0
15784000,-0.0921887,0.028428612,-0.05039852,1,0
15788000,-0.09224185,0.027912725,-0.050403,1,0
15792000,-0.09216984,0.027401447,-0.050479807,1,0
15796000,-0.09210791,0.028533306,-0.050399695,1,0
15804000,-0.09199259,0.027502898,-0.05041472,1,0
15808000,-0.092338994,0.026857482,-0.050394688,1,0
15812000,-0.09286503,0.026278485,-0.050369635,1,0
15816000,-0.09297719,0.02573986,-0.050400976,1,0
15820000,-0.09269454,0.025244433,-0.050373457,1,0
15824000,-0.09243678,0.0247837,-0.05035373,1,0
15828000,-0.092282034,0.024314785,-0.05028718,1,0
15836000,-0.092635535,0.023385543,-0.050349154,1,0
15840000,-0.09295377,0.022896942,-0.050445016,1,0
15844000,-0.09274084,0.022429911,-0.050474726,1,0
15848000,-0.09235563,0.021964127,-0.05054145,1,0
15852000,-0.09223308,0.02147202,-0.050548103,1,0
15856000,-0.09232035,0.020993035,-0.050596338,1,0
15860000,-0.09238197,0.020524235,-0.05066,1,0
15868000,-0.09228669,0.019604372,-0.050819464,1,0
15872000,-0.09176743,0.019172212,-0.050912444,1,0
15876000,-0.09189181,0.018675042,-0.050842706,1,0
15884000,-0.09232345,0.017725201,-0.05083729,1,0
15892000,-0.09283729,0.01685234,-0.05078479,1,0
15896000,-0.093220785,0.016580475,-0.050867237,1,0
15900000,-0.09344675,0.016240742,-0.050862107,1,0
15904000,-0.09338912,0.015872663,-0.050955452,1,0
15908000,-0.09319454,0.015502634,-0.051040508,1,0
15916000,-0.2585903,0.021353021,0.010204935,1,0
15920000,-0.25864837,0.020996617,0.010248648,1,0
15924000,-0.25867206,0.020698816,0.010292137,1,0
15928000,-0.25842053,0.020412626,0.010304546,1,0
15936000,-0.2568481,0.01967639,0.010331699,1,0
15940000,-0.24924545,0.019319292,0.010318215,1,0
15944000,-0.2400767,0.018995358,0.010373049,1,0
15952000,-0.23134477,0.018009366,0.010627405,1,0
15960000,-0.22312434,0.01716745,0.010761767,1,0
15964000,-0.22085203,0.01681523,0.010772472,1,0
15968000,-0.21715423,0.016432296,0.010728737,1,0
15972000,-0.21345632,0.015963912,0.010642463,1,0
15976000,-0.20993036,0.015500715,0.010579037,1,0
15980000,-0.20677939,0.015123021,0.010576537,1,0
15988000,-0.2046299,0.014345642,0.010543685,1,0
15992000,-0.20023523,0.014041074,0.010581194,1,0
15996000,-0.1978584,0.01363777,0.010547569,1,0
16004000,-0.19368751,0.012766147,0.010528078,1,0
16008000,-0.19138423,0.012296487,0.010481786,1,0
16012000,-0.19022402,0.011810228,0.010438167,1,0
16016000,-0.1878879,0.011360092,0.010413239,1,0
16020000,-0.18580619,0.010960091,0.010391243,1,0
16024000,-0.18377869,0.010527456,0.010358922,1,0
16028000,-0.182921,0.010075497,0.010278881,1,0
16032000,-0.1800261,0.009723302,0.010341993,1,0
16036000,-0.18352206,0.009349592,0.010242443,1,0
16044000,-0.180563,0.008383339,0.010145759,1,0
16048000,-0.17922845,0.007974925,0.010143605,1,0
16052000,-0.17782721,0.007719388,0.010058163,1,0
16056000,-0.1761645,0.007471303,0.009911586,1,0
16060000,-0.17568217,0.007131999,0.009796565,1,0
16064000,-0.17428294,0.006771283,0.009734541,1,0
16068000,-0.17305118,0.006456232,0.009701904,1,0
16072000,-0.17185599,0.006172018,0.009688433,1,0
16076000,-0.17073599,0.00584558,0.009686599,1,0
16084000,-0.1695461,0.005106861,0.009590252,1,0
16088000,-0.16781735,0.004789462,0.009557077,1,0
16092000,-0.16656494,0.004476998,0.009443666,1,0
16096000,-0.16528215,0.004195383,0.009335305,1,0
16100000,-0.16389552,0.003912631,0.009239418,1,0
16104000,-0.1626556,0.003614061,0.009104138,1,0
16108000,-0.16240373,0.003306892,0.008974574,1,0
16112000,-0.16154058,0.002998421,0.008911802,1,0
16116000,-0.16067989,0.002683478,0.008862617,1,0
16120000,-0.15977545,0.002342822,0.008811008,1,0
16124000,-0.15881363,0.002006201,0.00875627,1,0
16128000,-0.15780455,0.001711711,0.008688584,1,0
16132000,-0.16128597,0.001451945,0.008624364,1,0
16136000,-0.160627,0.001197523,0.00856899,1,0
16140000,-0.15980734,0.000921076,0.008502869,1,0
16148000,-0.15779804,0.000367112,0.008261803,1,0
16152000,-0.15720734,0.000197425,0.008103276,1,0
16156000,-0.15683685,-9.13E-05,0.007978332,1,0
16160000,-0.15596364,-0.00036547,0.007863808,1,0
16164000,-0.15540634,-0.000596032,0.007788664,1,0
16168000,-0.15503252,-0.000820983,0.00773806,1,0
16172000,-0.15446389,-0.00106404,0.007663425,1,0
16176000,-0.15356106,-0.001284989,0.007512059,1,0
16184000,-0.1518552,-0.001727438,0.007158713,1,0
16188000,-0.15108465,-0.001988055,0.006978845,1,0
16192000,-0.15035442,-0.002232971,0.006820552,1,0
16196000,-0.14955164,-0.002438203,0.006713049,1,0
16200000,-0.14887837,-0.002590148,0.006681255,1,0
16204000,-0.14794055,-0.002812395,0.006552219,1,0
16208000,-0.14779466,-0.00288366,0.006422612,1,0
16212000,-0.14702727,-0.003110169,0.006281035,1,0
16216000,-0.14619878,-0.003325528,0.006212618,1,0
16220000,-0.14555274,-0.003520479,0.006152954,1,0
16224000,-0.14515065,-0.003708338,0.006054013,1,0
16228000,-0.14481202,-0.00391547,0.005988376,1,0
16232000,-0.14446592,-0.004118662,0.005949413,1,0
16236000,-0.14414987,-0.004301988,0.00582436,1,0
16240000,-0.14378436,-0.004452992,0.005644358,1,0
16244000,-0.14324906,-0.004534004,0.00552342,1,0
16248000,-0.14254269,-0.004602779,0.005428316,1,0
16252000,-0.14171362,-0.004726341,0.005320406,1,0
16256000,-0.14101925,-0.004898639,0.005253549,1,0
16260000,-0.1406392,-0.005079422,0.005206586,1,0
16264000,-0.1404206,-0.005224211,0.005127744,1,0
16268000,-0.1401591,-0.00535458,0.005012314,1,0
16272000,-0.13964458,-0.005525095,0.004866997,1,0
16276000,-0.13901666,-0.005704477,0.004722193,1,0
16280000,-0.13847935,-0.005845534,0.004601128,1,0
16284000,-0.13800535,-0.005975705,0.004478741,1,0
16292000,-0.13750722,-0.006302217,0.004183531,1,0
16296000,-0.13701516,-0.006434565,0.004093764,1,0
16300000,-0.13640775,-0.006545564,0.004014292,1,0
16304000,-0.13577418,-0.006695614,0.003933271,1,0
16308000,-0.13505399,-0.006894396,0.003825481,1,0
16312000,-0.1344153,-0.007076489,0.003702521,1,0
16316000,-0.13398047,-0.007255885,0.003569029,1,0
16324000,-0.13293059,-0.007615911,0.003283968,1,0
16328000,-0.13369006,-0.007837638,0.003101016,1,0
16332000,-0.13400495,-0.007998219,0.002993944,1,0
16336000,-0.13398226,-0.008132593,0.002915284,1,0
16340000,-0.13336527,-0.008262479,0.002845172,1,0
16344000,-0.13250121,-0.008404256,0.002753596,1,0
16348000,-0.13189743,-0.008523876,0.00265259,1,0
16356000,-0.13091429,-0.008692784,0.002398148,1,0
16360000,-0.13115515,-0.008692687,0.00220133,1,0
16364000,-0.13054189,-0.008815222,0.002129532,1,0
16368000,-0.13010049,-0.008926294,0.002085019,1,0
16372000,-0.1297534,-0.009039465,0.00199797,1,0
16376000,-0.12928566,-0.009158718,0.001880422,1,0
16380000,-0.12898174,-0.00927751,0.001813585,1,0
16388000,-0.12815157,-0.009487724,0.001652543,1,0
16392000,-0.1280315,-0.009625631,0.001582033,1,0
16400000,-0.12722673,-0.010030721,0.001392884,1,0
16404000,-0.12724644,-0.010127276,0.001311632,1,0
16408000,-0.12711836,-0.01017028,0.001190348,1,0
16412000,-0.12681837,-0.010216677,0.001063276,1,0
16416000,-0.12657806,-0.010308451,0.000979774,1,0
16420000,-0.12591912,-0.010426469,0.000876516,1,0
16428000,-0.12664866,-0.010706592,0.000838103,1,0
16432000,-0.12636098,-0.010807578,0.000750768,1,0
16436000,-0.12582998,-0.010893459,0.000591284,1,0
16440000,-0.12527835,-0.010936476,0.000411522,1,0
16444000,-0.12474491,-0.010986947,0.000272828,1,0
16448000,-0.124290414,-0.011117929,0.000189804,1,0
16452000,-0.123958394,-0.011305542,0.000152229,1,0
16456000,-0.123621315,-0.011459576,0.000141617,1,0
16460000,-0.12299101,-0.01155378,4.18E-05,1,0
16464000,-0.122785516,-0.011631111,0.000116217,1,0
16468000,-0.12233601,-0.011801381,4.92E-05,1,0
16472000,-0.12194668,-0.012000063,-6.93E-05,1,0
16476000,-0.12174289,-0.012190242,-0.00019367,1,0
16480000,-0.12170385,-0.012330462,-0.000310342,1,0
16484000,-0.12180311,-0.012392443,-0.000436433,1,0
16488000,-0.12183918,-0.012481377,-0.000518986,1,0
16492000,-0.12164582,-0.012647186,-0.000592975,1,0
16496000,-0.1215092,-0.012804955,-0.000697881,1,0
16500000,-0.121468596,-0.01290074,-0.000830194,1,0
16508000,-0.12107701,-0.012876609,-0.001038994,1,0
16512000,-0.12062046,-0.012906872,-0.001151605,1,0
16516000,-0.12011351,-0.013044728,-0.001233122,1,0
16520000,-0.11976299,-0.013191076,-0.001225258,1,0
16524000,-0.1195733,-0.013299825,-0.001210172,1,0
16528000,-0.11901138,-0.013399938,-0.001301925,1,0
16532000,-0.118628755,-0.013501847,-0.001280274,1,0
16540000,-0.11776241,-0.013642611,-0.001458496,1,0
16544000,-0.11763593,-0.01368646,-0.001529018,1,0
16548000,-0.11762867,-0.013725517,-0.001567095,1,0
16552000,-0.11709005,-0.013808394,-0.001654451,1,0
16556000,-0.11725576,-0.013852445,-0.001680571,1,0
16560000,-0.117273435,-0.013955814,-0.001699077,1,0
16564000,-0.11740272,-0.014130171,-0.00175888,1,0
16568000,-0.117235236,-0.014291842,-0.001839614,1,0
16572000,-0.11692511,-0.014357151,-0.001878494,1,0
16580000,-0.11625473,-0.014431274,-0.002061308,1,0
16588000,-0.11590167,-0.01475782,-0.002144621,1,0
16592000,-0.11566181,-0.014894948,-0.002104751,1,0
16596000,-0.11523028,-0.015023179,-0.002155067,1,0
16600000,-0.114735894,-0.015106143,-0.002303481,1,0
16604000,-0.11451093,-0.015132496,-0.002495208,1,0
16608000,-0.114556335,-0.015124804,-0.002603041,1,0
16612000,-0.12663314,-0.020101067,-0.002860283,0.39653173,0
16616000,-0.12672451,-0.020182988,-0.002839368,0.39653173,0
16620000,-0.1268572,-0.020364877,-0.002823064,0.39653173,0
16624000,-0.12681606,-0.020525686,-0.002860109,0.39653173,0
16628000,-0.12645718,-0.020653924,-0.002988062,0.39653173,0
16632000,-0.12564054,-0.020798257,-0.003187452,0.39653173,0
16636000,-0.1235157,-0.025902908,-0.003642001,0.41880268,0
16640000,-0.12199879,-0.025994996,-0.00375571,0.41880268,0
16644000,-0.120355904,-0.026099484,-0.003848804,0.41880268,0
16648000,-0.11864031,-0.026256602,-0.0039647,0.41880268,0
16652000,-0.11698392,-0.026424259,-0.004107765,0.41880268,0
16656000,-0.115325816,-0.026571667,-0.004251465,0.41880268,0
16660000,-0.112294525,-0.031736836,-0.004709886,0.4397959,0
16664000,-0.11013186,-0.031971727,-0.004914931,0.4397959,0
16668000,-0.10784508,-0.03220294,-0.005088803,0.4397959,0
16672000,-0.10545187,-0.03244117,-0.005252778,0.4397959,0
16676000,-0.10317344,-0.03272421,-0.00548919,0.4397959,0
16684000,-0.10195975,-0.038313225,-0.006320032,0.45963722,0
16688000,-0.10028367,-0.038581625,-0.006582598,0.45963722,0
16692000,-0.09875325,-0.038813367,-0.006979447,0.45963722,0
16696000,-0.09728057,-0.039100066,-0.007269048,0.45963722,0
16700000,-0.09566837,-0.039443433,-0.007516891,0.45963722,0
16708000,-0.09122365,-0.04502549,-0.008242381,0.47928184,0
16712000,-0.08962795,-0.045255423,-0.00841703,0.47928184,0
16716000,-0.08817198,-0.045546453,-0.008621775,0.47928184,0
16720000,-0.08680846,-0.045873284,-0.008886226,0.47928184,0
16724000,-0.08551724,-0.046242848,-0.009209365,0.47928184,0
16728000,-0.08428556,-0.046628185,-0.009512564,0.47928184,0
16732000,-0.08222372,-0.051829524,-0.010099575,0.49764836,0
16736000,-0.08080206,-0.05207526,-0.010276702,0.49764836,0
16740000,-0.08003529,-0.052268855,-0.010461858,0.49764836,0
16744000,-0.079147466,-0.052459955,-0.010696344,0.49764836,0
16752000,-0.076764196,-0.0528412,-0.011208073,0.49764836,0
16756000,-0.07429343,-0.05798377,-0.011890117,0.51473093,0
16760000,-0.07368132,-0.058140747,-0.012175782,0.51473093,0
16764000,-0.0732397,-0.058291815,-0.012435218,0.51473093,0
16768000,-0.07256058,-0.058440037,-0.012623966,0.51473093,0
16772000,-0.07165979,-0.05861324,-0.012789647,0.51473093,0
16780000,-0.06854969,-0.06406787,-0.013638896,0.53052455,0
16784000,-0.06796363,-0.06427756,-0.013852299,0.53052455,0
16788000,-0.0675454,-0.06438133,-0.014073378,0.53052455,0
16792000,-0.06708155,-0.06443553,-0.014489826,0.53052455,0
16796000,-0.06701065,-0.06458605,-0.014672242,0.53052455,0
16804000,-0.068367854,-0.06981583,-0.015551613,0.54624766,0
16808000,-0.068241276,-0.06986393,-0.015752422,0.54624766,0
16812000,-0.06795633,-0.06975728,-0.01600533,0.54624766,0
16820000,-0.06647468,-0.06977665,-0.016433649,0.54624766,0
16824000,-0.06619153,-0.069780484,-0.016610818,0.54624766,0
16828000,-0.06396723,-0.07481501,-0.017343532,0.5606164,0
16836000,-0.064147964,-0.07457036,-0.017564282,0.5606164,0
16840000,-0.06355531,-0.07460201,-0.017742356,0.5606164,0
16844000,-0.06301843,-0.0746014,-0.017892217,0.5606164,0
16852000,-0.06039478,-0.07951875,-0.018819783,0.5737028,0
16856000,-0.060502052,-0.07922991,-0.018985229,0.5737028,0
16860000,-0.060231645,-0.07914467,-0.019136358,0.5737028,0
16868000,-0.05924838,-0.07906349,-0.01945778,0.5737028,0
16872000,-0.05966051,-0.07872481,-0.019408125,0.5737028,0
16876000,-0.05818616,-0.083443634,-0.020059448,0.58553606,0
16884000,-0.057241306,-0.08315311,-0.02035161,0.58553606,0
16892000,-0.05716762,-0.08279115,-0.020555532,0.58553606,0
16896000,-0.05683423,-0.082581535,-0.020914236,0.58553606,0
16900000,-0.058816,-0.08734126,-0.02164114,0.5972975,0
16904000,-0.058665924,-0.0870609,-0.021754395,0.5972975,0
16908000,-0.058557622,-0.08674926,-0.021905817,0.5972975,0
16912000,-0.058608335,-0.08642816,-0.02210331,0.5972975,0
16916000,-0.057988737,-0.08625356,-0.02227617,0.5972975,0
16920000,-0.05836214,-0.08580095,-0.022324432,0.5972975,0
16928000,-0.056168128,-0.090256505,-0.02312192,0.6078609,0
16932000,-0.05680386,-0.089832,-0.023009619,0.6078609,0
16936000,-0.05681279,-0.08952543,-0.023110759,0.6078609,0
16940000,-0.05684423,-0.08919001,-0.02322636,0.6078609,0
16944000,-0.056717355,-0.08884396,-0.023309791,0.6078609,0
16952000,-0.05508582,-0.093099296,-0.024156606,0.61731267,0
16956000,-0.055188805,-0.0927735,-0.02420403,0.61731267,0
16964000,-0.055294186,-0.092014425,-0.024266498,0.61731267,0
16968000,-0.055376604,-0.09165943,-0.024324613,0.61731267,0
16972000,-0.054008245,-0.09627545,-0.025082147,0.62569004,0
16976000,-0.053616494,-0.09582841,-0.025192358,0.62569004,0
16984000,-0.052886378,-0.09489367,-0.025327418,0.62569004,0
16988000,-0.052346017,-0.09453918,-0.025460504,0.62569004,0
16992000,-0.051736314,-0.09394462,-0.02564222,0.62569004,0
16996000,-0.050373908,-0.09847757,-0.026372971,0.6341572,0
17004000,-0.050778247,-0.097566776,-0.026469845,0.6341572,0
17012000,-0.050485738,-0.09663117,-0.02665885,0.6341572,0
17016000,-0.050003704,-0.096226245,-0.026769,0.6341572,0
17020000,-0.052945003,-0.10075434,-0.02749239,0.6416437,0
17024000,-0.053014573,-0.10033904,-0.027562462,0.6416437,0
17028000,-0.05256297,-0.09991471,-0.02766312,0.6416437,0
17032000,-0.053351417,-0.09936711,-0.027683102,0.6416437,0
17036000,-0.053506188,-0.098919004,-0.027711548,0.6416437,0
17040000,-0.0538379,-0.098441884,-0.027688941,0.6416437,0
17044000,-0.052645702,-0.10294487,-0.028436452,0.6482151,0
17052000,-0.0518709,-0.10198848,-0.028546028,0.6482151,0
17056000,-0.05174221,-0.10151781,-0.02857683,0.6482151,0
17060000,-0.05190701,-0.10102559,-0.028641917,0.6482151,0
17064000,-0.051955566,-0.100503385,-0.028749198,0.6482151,0
17068000,-0.05068428,-0.1039489,-0.029465223,0.6539312,0
17072000,-0.050688535,-0.10337505,-0.029519029,0.6539312,0
17076000,-0.05075702,-0.10288961,-0.029506473,0.6539312,0
17080000,-0.050866105,-0.102471605,-0.029452335,0.6539312,0
17084000,-0.051007323,-0.10198754,-0.029457014,0.6539312,0
17088000,-0.051050838,-0.101434186,-0.02954732,0.6539312,0
17092000,-0.04982456,-0.09999166,-0.029631373,0.65885174,0
17100000,-0.049953084,-0.09892911,-0.029656395,0.65885174,0
17104000,-0.04985186,-0.098492056,-0.029671017,0.65885174,0
17108000,-0.049724415,-0.0980471,-0.029683668,0.65885174,0
17112000,-0.049748413,-0.09755756,-0.029699791,0.65885174,0
17116000,-0.04852675,-0.096334,-0.029607285,0.66340667,0
17120000,-0.048516516,-0.09580224,-0.029625755,0.66340667,0
17124000,-0.048188496,-0.09530464,-0.029670417,0.66340667,0
17128000,-0.048579372,-0.09476634,-0.029744988,0.66340667,0
17132000,-0.048410553,-0.09433435,-0.029802386,0.66340667,0
17140000,-0.046802737,-0.09287599,-0.029797956,0.66725534,0
17144000,-0.04700461,-0.09248091,-0.02971002,0.66725534,0
17148000,-0.047003526,-0.09199309,-0.029670702,0.66725534,0
17152000,-0.046950363,-0.091461994,-0.029690154,0.66725534,0
17160000,-0.046940554,-0.09033863,-0.02982957,0.66725534,0
17164000,-0.04918266,-0.089305565,-0.029766656,0.67047405,0
17168000,-0.049931172,-0.088778265,-0.029818738,0.67047405,0
17172000,-0.050119817,-0.08837752,-0.029887525,0.67047405,0
17176000,-0.049972203,-0.08804746,-0.02998579,0.67047405,0
17180000,-0.04963223,-0.08777271,-0.030049386,0.67047405,0
17184000,-0.049363323,-0.08732406,-0.030077465,0.67047405,0
17188000,-0.04870098,-0.0865522,-0.02995382,0.6731255,0
17192000,-0.048921734,-0.086069845,-0.029996958,0.6731255,0
17196000,-0.04907424,-0.085650116,-0.029986717,0.6731255,0
17200000,-0.049076617,-0.08527945,-0.029997563,0.6731255,0
17204000,-0.049042843,-0.084909484,-0.030034851,0.6731255,0
17208000,-0.04913381,-0.08448103,-0.030072486,0.6731255,0
17216000,-0.047946367,-0.083335415,-0.030039126,0.6754165,0
17220000,-0.047845088,-0.083016664,-0.03010755,0.6754165,0
17224000,-0.047841154,-0.08267323,-0.03021181,0.6754165,0
17228000,-0.04774829,-0.082298584,-0.030304596,0.6754165,0
17232000,-0.047639403,-0.08194009,-0.030383656,0.6754165,0
17236000,-0.046649788,-0.081247315,-0.030352838,0.6772127,0
17240000,-0.046851397,-0.08092323,-0.030326871,0.6772127,0
17244000,-0.04701197,-0.08059285,-0.030337155,0.6772127,0
17248000,-0.047140747,-0.08028659,-0.030419134,0.6772127,0
17252000,-0.04714032,-0.07999114,-0.030479746,0.6772127,0
17260000,-0.045797333,-0.07898007,-0.030447017,0.6785517,0
17264000,-0.046454113,-0.078657605,-0.030540783,0.6785517,0
17268000,-0.046271835,-0.078327075,-0.030555174,0.6785517,0
17276000,-0.04642877,-0.07791149,-0.030775469,0.6785517,0
17280000,-0.04605074,-0.07763849,-0.030803882,0.6785517,0
17284000,-0.04460206,-0.07710403,-0.030776583,0.67947745,0
17288000,-0.04449916,-0.07687574,-0.030749068,0.67947745,0
17292000,-0.04473984,-0.07658179,-0.03082437,0.67947745,0
17296000,-0.04515878,-0.07631518,-0.030884799,0.67947745,0
17300000,-0.045298554,-0.07606806,-0.030986737,0.67947745,0
17304000,-0.04523748,-0.07585321,-0.031076297,0.67947745,0
17308000,-0.0476884,-0.07541259,-0.031072985,0.6802987,0
17312000,-0.047769547,-0.075202584,-0.031090496,0.6802987,0
17316000,-0.04775135,-0.07499032,-0.03109044,0.6802987,0
17320000,-0.047633335,-0.07477838,-0.031085458,0.6802987,0
17324000,-0.047610097,-0.07456978,-0.031130295,0.6802987,0
17332000,-0.04636285,-0.073923096,-0.03117028,0.68077016,0
17340000,-0.04648276,-0.073500276,-0.031414516,0.68077016,0
17344000,-0.04696487,-0.073353596,-0.03149554,0.68077016,0
17348000,-0.047166266,-0.07316231,-0.031547796,0.68077016,0
17352000,-0.046931595,-0.072962075,-0.031578477,0.68077016,0
17356000,-0.045248587,-0.07256252,-0.031542726,0.6809172,0
17360000,-0.045112778,-0.07233727,-0.031539682,0.6809172,0
17364000,-0.045210376,-0.07213081,-0.031551413,0.6809172,0
17368000,-0.04541754,-0.07193091,-0.03156647,0.6809172,0
17372000,-0.04559325,-0.07173763,-0.03159248,0.6809172,0
17376000,-0.045657363,-0.07161395,-0.03166478,0.6809172,0
17380000,-0.044356957,-0.07135765,-0.031750776,0.6807855,0
17388000,-0.044496953,-0.07097237,-0.031878527,0.6807855,0
17392000,-0.044635456,-0.07065851,-0.03188052,0.6807855,0
17396000,-0.044755653,-0.0704324,-0.031855814,0.6807855,0
17404000,-0.043204058,-0.070013374,-0.03185216,0.68047106,0
17408000,-0.042790823,-0.07014784,-0.03194554,0.68047106,0
17416000,-0.04290475,-0.06995973,-0.032069318,0.68047106,0
17420000,-0.043060485,-0.06976025,-0.03211229,0.68047106,0
17424000,-0.042971566,-0.069589995,-0.032125264,0.68047106,0
17428000,-0.04194143,-0.06918483,-0.032142326,0.67990106,0
17432000,-0.041692927,-0.06900483,-0.03217368,0.67990106,0
17436000,-0.04138711,-0.06883691,-0.032235466,0.67990106,0
17440000,-0.041289657,-0.06871772,-0.032274783,0.67990106,0
17444000,-0.041547213,-0.06862492,-0.03223384,0.67990106,0
17448000,-0.042108398,-0.06848208,-0.03216984,0.67990106,0
17452000,-0.040648162,-0.06819941,-0.03215748,0.67911893,0
17456000,-0.041460276,-0.06797645,-0.03205918,0.67911893,0
17460000,-0.04150349,-0.067788064,-0.032074407,0.67911893,0
17464000,-0.0413194,-0.06766074,-0.03218667,0.67911893,0
17468000,-0.041105665,-0.067548394,-0.032299176,0.67911893,0
17472000,-0.040908754,-0.06742732,-0.03237009,0.67911893,0
17476000,-0.03937491,-0.06722027,-0.032386523,0.67816114,0
17480000,-0.039669514,-0.06714988,-0.032421816,0.67816114,0
17484000,-0.03961542,-0.06701818,-0.03243078,0.67816114,0
17488000,-0.04040368,-0.066906385,-0.032523353,0.67816114,0
17492000,-0.04074354,-0.0667413,-0.03250504,0.67816114,0
17496000,-0.040740557,-0.06656771,-0.032505933,0.67816114,0
17500000,-0.04285718,-0.06632382,-0.032505095,0.67700243,0
17504000,-0.042682208,-0.06623356,-0.032558568,0.67700243,0
17508000,-0.042647395,-0.066151835,-0.03260426,0.67700243,0
17512000,-0.04287905,-0.06604192,-0.032600183,0.67700243,0
17516000,-0.043199804,-0.06589163,-0.03258314,0.67700243,0
17524000,-0.042042833,-0.06548712,-0.03255733,0.67569685,0
17528000,-0.04229898,-0.0653718,-0.03252154,0.67569685,0
17532000,-0.04241545,-0.06525263,-0.032481194,0.67569685,0
17536000,-0.04245785,-0.06512328,-0.03242486,0.67569685,0
17540000,-0.042540055,-0.065001264,-0.032370143,0.67569685,0
17544000,-0.04252222,-0.06489768,-0.032375142,0.67569685,0
17548000,-0.040848736,-0.06473591,-0.032386363,0.674258,0
17552000,-0.0404946,-0.06469294,-0.03236872,0.674258,0
17556000,-0.040226597,-0.0646201,-0.032343335,0.674258,0
17560000,-0.04019605,-0.06448881,-0.032379553,0.674258,0
17564000,-0.04036376,-0.06430097,-0.032446906,0.674258,0
17568000,-0.040622257,-0.06406821,-0.032474365,0.674258,0
17572000,-0.03929152,-0.06383234,-0.032477587,0.6727133,0
17576000,-0.039498687,-0.06379591,-0.03255167,0.6727133,0
17580000,-0.039696865,-0.0637639,-0.03261714,0.6727133,0
17584000,-0.039895862,-0.06365801,-0.032594014,0.6727133,0
17588000,-0.040119987,-0.063515656,-0.03252771,0.6727133,0
17592000,-0.040306024,-0.063360706,-0.032477055,0.6727133,0
17596000,-0.038935076,-0.063126355,-0.0324148,0.67112684,0
17600000,-0.039008163,-0.06297074,-0.032338258,0.67112684,0
17604000,-0.039002,-0.06281449,-0.032257903,0.67112684,0
17608000,-0.038965147,-0.06268919,-0.032185905,0.67112684,0
17612000,-0.038943157,-0.06257409,-0.03214572,0.67112684,0
17616000,-0.038930744,-0.0624424,-0.032139376,0.67112684,0
17620000,-0.037370548,-0.062243935,-0.032101538,0.66946626,0
17624000,-0.037905056,-0.062026363,-0.03216733,0.66946626,0
17628000,-0.037867457,-0.061823636,-0.03217121,0.66946626,0
17632000,-0.037844285,-0.061678126,-0.032166567,0.66946626,0
17636000,-0.037372313,-0.061531752,-0.03201547,0.66946626,0
17640000,-0.037712403,-0.06137012,-0.03199973,0.66946626,0
17644000,-0.036699336,-0.061137117,-0.032051045,0.66775715,0
17648000,-0.036895387,-0.06098082,-0.032102183,0.66775715,0
17652000,-0.03678927,-0.060832538,-0.032090247,0.66775715,0
17656000,-0.03677559,-0.06070939,-0.032000706,0.66775715,0
17660000,-0.037113808,-0.060600847,-0.03189719,0.66775715,0
17664000,-0.03748926,-0.060521536,-0.031880036,0.66775715,0
17668000,-0.0360539,-0.060424596,-0.031907756,0.6659972,0
17672000,-0.03611046,-0.06032736,-0.031893708,0.6659972,0
17676000,-0.036038112,-0.060157217,-0.03181894,0.6659972,0
17680000,-0.036081158,-0.06004986,-0.0317539,0.6659972,0
17688000,-0.036306523,-0.05983427,-0.03166977,0.6659972,0
17692000,-0.03467363,-0.0595103,-0.031642955,0.6641792,0
17696000,-0.034669537,-0.05932243,-0.03158346,0.6641792,0
17700000,-0.03480152,-0.0592089,-0.03156974,0.6641792,0
17704000,-0.034922026,-0.059181936,-0.031586453,0.6641792,0
17708000,-0.035052467,-0.05914861,-0.031554908,0.6641792,0
17712000,-0.03519592,-0.059047062,-0.031486213,0.6641792,0
17716000,-0.03741851,-0.058863007,-0.031416025,0.66266614,0
17720000,-0.037202798,-0.058684103,-0.03136987,0.66266614,0
17724000,-0.037193406,-0.058508933,-0.031369537,0.66266614,0
17728000,-0.037488196,-0.058363903,-0.03141328,0.66266614,0
17736000,-0.03804441,-0.058113772,-0.031380326,0.66266614,0
17740000,-0.036651745,-0.05790855,-0.031245798,0.6611164,0
17744000,-0.03668463,-0.05777242,-0.031177266,0.6611164,0
17748000,-0.036753222,-0.057695724,-0.031180725,0.6611164,0
17752000,-0.036885083,-0.05764806,-0.03119177,0.6611164,0
17756000,-0.036911424,-0.057573047,-0.03121186,0.6611164,0
17760000,-0.036816187,-0.057459574,-0.031245517,0.6611164,0
17764000,-0.034998853,-0.05728947,-0.031238846,0.65952086,0
17772000,-0.034789175,-0.057005778,-0.031163309,0.65952086,0
17776000,-0.035119474,-0.05695051,-0.031053882,0.65952086,0
17780000,-0.035397664,-0.05694171,-0.031018278,0.65952086,0
17788000,-0.03390709,-0.056756094,-0.030965963,0.6578975,0
17792000,-0.033986114,-0.056717537,-0.030852888,0.6578975,0
17796000,-0.034021065,-0.056625184,-0.030832857,0.6578975,0
17800000,-0.034934174,-0.056583725,-0.030820854,0.6578975,0
17804000,-0.035052184,-0.056490794,-0.030815445,0.6578975,0
17808000,-0.034852352,-0.056363788,-0.030782763,0.6578975,0
17812000,-0.032893885,-0.05614619,-0.030713398,0.65595603,0
17820000,-0.032926038,-0.055872925,-0.030570338,0.65595603,0
17824000,-0.03311534,-0.055799346,-0.030539155,0.65595603,0
17828000,-0.033239692,-0.055730395,-0.030582469,0.65595603,0
17832000,-0.033342957,-0.055644546,-0.030661767,0.65595603,0
17836000,-0.031833023,-0.055476673,-0.030628331,0.6540171,0
17840000,-0.03199047,-0.055330686,-0.030690042,0.6540171,0
17844000,-0.032024585,-0.0552997,-0.030656282,0.6540171,0
17848000,-0.03200618,-0.05525324,-0.03059374,0.6540171,0
17852000,-0.031927533,-0.05513026,-0.03049783,0.6540171,0
17860000,-0.030318204,-0.05480495,-0.03038194,0.65207744,0
17864000,-0.030598339,-0.05469352,-0.030435178,0.65207744,0
17868000,-0.030841947,-0.05466339,-0.030479254,0.65207744,0
17872000,-0.031144956,-0.054559264,-0.030465052,0.65207744,0
17876000,-0.03139986,-0.05438798,-0.030376548,0.65207744,0
17880000,-0.031669073,-0.05424737,-0.03029155,0.65207744,0
17884000,-0.030320663,-0.05406522,-0.030234605,0.65015155,0
17888000,-0.030412778,-0.053958327,-0.030208156,0.65015155,0
17892000,-0.030404864,-0.05379617,-0.030321065,0.65015155,0
17896000,-0.030447649,-0.05376196,-0.030415427,0.65015155,0
17900000,-0.030529443,-0.053651173,-0.03041591,0.65015155,0
17904000,-0.03061143,-0.05352156,-0.03040919,0.65015155,0
17908000,-0.028987337,-0.05339115,-0.030379262,0.6485585,0
17912000,-0.02891871,-0.053271685,-0.030388327,0.6485585,0
17916000,-0.028976656,-0.053180747,-0.030362278,0.6485585,0
17920000,-0.02949644,-0.053148884,-0.030233223,0.6485585,0
17924000,-0.029631699,-0.05304578,-0.030147923,0.6485585,0
17932000,-0.028145514,-0.05290337,-0.0301401,0.64697516,0
17936000,-0.028463159,-0.052991316,-0.030327162,0.64697516,0
17940000,-0.028574206,-0.052991472,-0.030299675,0.64697516,0
17944000,-0.028844047,-0.052952386,-0.03025546,0.64697516,0
17948000,-0.029237654,-0.052843325,-0.030221365,0.64697516,0
17952000,-0.029464353,-0.052694388,-0.030221377,0.64697516,0
17956000,-0.027813876,-0.052526176,-0.03023116,0.6453799,0
17960000,-0.027841054,-0.05245298,-0.030214537,0.6453799,0
17964000,-0.02792131,-0.052386805,-0.030186638,0.6453799,0
17972000,-0.028928638,-0.052221034,-0.030171739,0.6453799,0
17976000,-0.029101241,-0.052146524,-0.030175483,0.6453799,0
17984000,-0.027654864,-0.052026473,-0.030214578,0.64378536,0
17992000,-0.027959082,-0.051804528,-0.0301726,0.64378536,0
17996000,-0.027791966,-0.05169323,-0.03019647,0.64378536,0
18000000,-0.027882878,-0.0516171,-0.030165922,0.64378536,0
18004000,-0.02627179,-0.051536046,-0.030132674,0.64222115,0
18008000,-0.026239956,-0.05153846,-0.030087762,0.64222115,0
18012000,-0.02639836,-0.051525045,-0.030004568,0.64222115,0
18020000,-0.026932318,-0.051384177,-0.029877745,0.64222115,0
18024000,-0.02761459,-0.051300906,-0.029802253,0.64222115,0
18028000,-0.026422838,-0.051264994,-0.029776214,0.6406614,0
18032000,-0.026689718,-0.05128848,-0.029827058,0.6406614,0
18036000,-0.02678983,-0.05123616,-0.029796386,0.6406614,0
18040000,-0.02682685,-0.051176257,-0.029938836,0.6406614,0
18048000,-0.027102271,-0.0510867,-0.029887415,0.6406614,0
18052000,-0.025563102,-0.051103044,-0.029898174,0.6391071,0
18056000,-0.025611583,-0.051031835,-0.029896703,0.6391071,0
18060000,-0.025631927,-0.050927103,-0.029872382,0.6391071,0
