timestamp,roll,pitch,yaw,thrust_body[0]
13612000,0.027422171,0.037054177,-0.005631699,1
13616000,0.027452666,0.036934778,-0.005631699,1
13620000,0.027469102,0.036889285,-0.005631699,1
13624000,0.027513195,0.036805607,-0.005631699,1
13628000,0.027569328,0.036696583,-0.005631699,1
13632000,0.027594903,0.036638327,-0.005631699,1
13636000,0.027609874,0.03661783,-0.005631699,1
13640000,0.027628198,0.036558066,-0.005631699,1
13644000,0.02767369,0.036434036,-0.005631699,1
13652000,0.027801443,0.036243357,-0.005631699,1
13656000,0.027853956,0.03618336,-0.005631699,1
13660000,0.027905365,0.036108688,-0.005631699,1
13664000,0.027935022,0.035983074,-0.005631699,1
13668000,0.027950287,0.035888676,-0.005631699,1
13676000,0.028054228,0.035705537,-0.005631699,1
13680000,0.028087243,0.035620213,-0.005631699,1
13684000,0.02813882,0.035509143,-0.005631699,1
13688000,0.028184691,0.035363507,-0.005631699,1
13692000,0.02821503,0.035283204,-0.005631699,1
13696000,0.02825101,0.035226908,-0.005631699,1
13700000,0.028297266,0.035157368,-0.005631699,1
13704000,0.028347904,0.035075806,-0.005631699,1
13712000,0.028457291,-0.5614768,-0.005631699,1
13716000,0.028483141,-0.56158936,-0.005631699,1
13720000,0.028484896,-0.5616907,-0.005631699,1
13724000,0.028452886,-0.56178606,-0.005631699,1
13728000,0.028412845,-0.5618852,-0.005631699,1
13732000,0.028390741,-0.5341698,-0.005631699,1
13736000,0.028328972,-0.53421885,-0.005631699,1
13740000,0.028214991,-0.5343183,-0.005631699,1
13744000,0.028083399,-0.534413,-0.005631699,1
13748000,0.027903067,-0.534534,-0.005631699,1
13752000,0.027690213,-0.5346375,-0.005631699,1
13756000,0.0274584,-0.5085014,-0.005631699,1
13760000,0.027182251,-0.5085409,-0.005631699,1
13768000,0.02648812,-0.50855815,-0.005631699,1
13772000,0.026074914,-0.5085148,-0.005631699,1
13776000,0.025633655,-0.50847775,-0.005631699,1
13780000,0.025177253,-0.48349512,-0.005631699,1
13784000,0.024714867,-0.48343053,-0.005631699,1
13788000,0.0242154,-0.48339805,-0.005631699,1
13792000,0.023662098,-0.48327503,-0.005631699,1
13796000,0.02313537,-0.48318145,-0.005631699,1
13800000,0.022548452,-0.483106,-0.005631699,1
13804000,0.02189371,-0.4595479,-0.005631699,1
13812000,0.020424608,-0.459517,-0.005631699,1
13816000,0.019658707,-0.45954278,-0.005631699,1
13820000,0.018875578,-0.45957682,-0.005631699,1
13828000,0.017161885,-0.43708593,-0.005631699,1
13832000,0.016201122,-0.4371016,-0.005631699,1
13836000,0.015213019,-0.43713412,-0.005631699,1
13840000,0.014177954,-0.43717593,-0.005631699,1
13844000,0.01310164,-0.4372746,-0.005631699,1
13848000,0.011990673,-0.4374184,-0.005631699,1
13852000,0.010825648,-0.4161473,-0.005631699,1
13860000,0.008350002,-0.416439,-0.005631699,1
13864000,0.007051135,-0.41663298,-0.005631699,1
13868000,0.0056959,-0.416834,-0.005631699,1
13872000,0.004308745,-0.4169905,-0.005631699,1
13876000,0.0028906,-0.39656302,-0.005631699,1
13880000,0.001422804,-0.39674574,-0.005631699,1
13884000,-9.33E-05,-0.39692166,-0.005631699,1
13888000,-0.001642849,-0.39710584,-0.005631699,1
13892000,-0.003211657,-0.3972391,-0.005631699,1
13896000,-0.004842863,-0.39732274,-0.005631699,1
13900000,-0.006540534,-0.3776901,-0.005631699,1
13904000,-0.00824574,-0.37779653,-0.005631699,1
13908000,-0.009968807,-0.3779174,-0.005631699,1
13912000,-0.011716116,-0.3780493,-0.005631699,1
13916000,-0.013493551,-0.3781678,-0.005631699,1
13920000,-0.015319537,-0.37824422,-0.005631699,1
13924000,-0.017174061,-0.35927355,-0.005631699,1
13928000,-0.019009028,-0.35931638,-0.005631699,1
13932000,-0.020854538,-0.3593484,-0.005631699,1
13936000,-0.022749988,-0.35935828,-0.005631699,1
13940000,-0.024647253,-0.35940325,-0.005631699,1
13944000,-0.026570816,-0.3594664,-0.005631699,1
13952000,-0.030520879,-0.3411485,-0.005631699,1
13956000,-0.032514457,-0.34117514,-0.005631699,1
13960000,-0.034551274,-0.34116787,-0.005631699,1
13964000,-0.036574706,-0.34111077,-0.005631699,1
13968000,-0.03858978,-0.34102434,-0.005631699,1
13972000,-0.04058563,-0.3231234,-0.005631699,1
13976000,-0.0425998,-0.32305184,-0.005631699,1
13980000,-0.04461204,-0.32295218,-0.005631699,1
13988000,-0.04865561,-0.32261482,-0.005631699,1
13992000,-0.050651014,-0.32247093,-0.005631699,1
13996000,-0.052631322,-0.3051037,-0.005631699,1
14000000,-0.054620873,-0.30497548,-0.005631699,1
14004000,-0.05655458,-0.3048914,-0.005631699,1
14008000,-0.058491275,-0.30474934,-0.005631699,1
14012000,-0.06044832,-0.30461276,-0.005631699,1
14016000,-0.06240512,-0.30449888,-0.005631699,1
14020000,-0.064386494,-0.28767896,-0.005631699,1
14028000,-0.06835499,-0.28750125,-0.005631699,1
14032000,-0.07036051,-0.28747934,-0.005631699,1
14036000,-0.07231978,-0.2874615,-0.005631699,1
14040000,-0.07428173,-0.28734553,-0.005631699,1
14044000,-0.07625233,-0.2709652,-0.005631699,1
14048000,-0.07818268,-0.2709005,-0.005631699,1
14052000,-0.080096014,-0.27076367,-0.005631699,1
14056000,-0.082015716,-0.27063242,-0.005631699,1
14060000,-0.083952196,-0.27053493,-0.005631699,1
14064000,-0.08586782,-0.27042693,-0.005631699,1
14068000,-0.087753356,-0.25440678,-0.005631699,1
14072000,-0.089635395,-0.25425264,-0.005631699,1
14076000,-0.091526456,-0.2540859,-0.005631699,1
14084000,-0.0952149,-0.25384986,-0.005631699,1
14088000,-0.09702954,-0.25374973,-0.005631699,1
14092000,-0.09887025,-0.23805939,-0.005631699,1
14096000,-0.10067891,-0.23787953,-0.005631699,1
14100000,-0.10246721,-0.23773518,-0.005631699,1
14104000,-0.10425997,-0.23765634,-0.005631699,1
14108000,-0.10608666,-0.23760864,-0.005631699,1
14116000,-0.10964814,-0.22226928,-0.005631699,1
14120000,-0.11137109,-0.22219402,-0.005631699,1
14124000,-0.11307025,-0.22210935,-0.005631699,1
14132000,-0.116468064,-0.22204661,-0.005631699,1
14136000,-0.118177034,-0.2220488,-0.005631699,1
14140000,-0.11984802,-0.20712161,-0.005631699,1
14144000,-0.12147392,-0.20716113,-0.005631699,1
14148000,-0.123106614,-0.20721105,-0.005631699,1
14156000,-0.12643081,-0.20728451,-0.005631699,1
14164000,-0.12963004,-0.19292906,-0.005631699,1
14168000,-0.13117582,-0.19311069,-0.005631699,1
14172000,-0.13276115,-0.19335112,-0.005631699,1
14176000,-0.13434629,-0.19358075,-0.005631699,1
14180000,-0.13587874,-0.19385965,-0.005631699,1
14188000,-0.13886088,-0.1800639,-0.005631699,1
14192000,-0.14039409,-0.18044282,-0.005631699,1
14196000,-0.1419013,-0.18082058,-0.005631699,1
14200000,-0.1433739,-0.18119067,-0.005631699,1
14204000,-0.14481276,-0.18162964,-0.005631699,1
14208000,-0.146247,-0.18214162,-0.005631699,1
14212000,-0.14768463,-0.16841011,-0.005631699,1
14216000,-0.14911029,-0.16888307,-0.005631699,1
14220000,-0.15050155,-0.16936584,-0.005631699,1
14224000,-0.15187217,-0.16987522,-0.005631699,1
14228000,-0.15325652,-0.17043133,-0.005631699,1
14232000,-0.15462305,-0.17099693,-0.005631699,1
14236000,-0.15596336,-0.15760876,-0.005631699,1
14244000,-0.15858115,-0.15890338,-0.005631699,1
14252000,-0.16120213,-0.15987162,-0.005631699,1
14256000,-0.1624739,-0.16038625,-0.005631699,1
14260000,-0.16372001,-0.1470793,-0.005631699,1
14264000,-0.16497883,-0.14764564,-0.005631699,1
14268000,-0.1662229,-0.14822797,-0.005631699,1
14276000,-0.16862798,-0.14948523,-0.005631699,1
14280000,-0.16983494,-0.15015273,-0.005631699,1
14284000,-0.17105499,-0.13717902,-0.005631699,1
14288000,-0.17224474,-0.13797908,-0.005631699,1
14292000,-0.17342658,-0.13884059,-0.005631699,1
14296000,-0.17463602,-0.13975064,-0.005631699,1
14300000,-0.17583404,-0.14061984,-0.005631699,1
14308000,-0.17811885,-0.12896167,-0.005631699,1
14312000,-0.17927401,-0.12995628,-0.005631699,1
14316000,-0.1803857,-0.13100137,-0.005631699,1
14320000,-0.18148868,-0.1321103,-0.005631699,1
14324000,-0.18260501,-0.13329272,-0.005631699,1
14328000,-0.18367441,-0.13451558,-0.005631699,1
14332000,-0.18473484,-0.12231574,-0.005631699,1
14336000,-0.18582939,-0.12354947,-0.005631699,1
14340000,-0.18691936,-0.12478638,-0.005631699,1
14344000,-0.18798582,-0.12603812,-0.005631699,1
14348000,-0.18902469,-0.1273428,-0.005631699,1
14352000,-0.19005902,-0.12870255,-0.005631699,1
14356000,-0.19111122,-0.11677102,-0.005631699,1
14360000,-0.19215606,-0.11817315,-0.005631699,1
14364000,-0.19318078,-0.11962415,-0.005631699,1
14368000,-0.19421962,-0.121092096,-0.005631699,1
14372000,-0.19524537,-0.12259021,-0.005631699,1
14376000,-0.19625401,-0.12410988,-0.005631699,1
14380000,-0.19725116,-0.11240609,-0.005631699,1
14388000,-0.1992023,-0.11545138,-0.005631699,1
14392000,-0.2001596,-0.117065355,-0.005631699,1
14396000,-0.20116565,-0.118680716,-0.005631699,1
14404000,-0.2031221,-0.10877024,-0.005631699,1
14412000,-0.20498261,-0.11209405,-0.005631699,1
14416000,-0.20591027,-0.11377791,-0.005631699,1
14420000,-0.20682445,-0.11547984,-0.005631699,1
14424000,-0.20775498,-0.117172316,-0.005631699,1
14428000,-0.20863777,-0.10588708,-0.005631699,1
14432000,-0.20949605,-0.107679196,-0.005631699,1
14440000,-0.21121193,-0.11118012,-0.005631699,1
14444000,-0.21207154,-0.11296008,-0.005631699,1
14452000,-0.21373963,-0.1035249,-0.005631699,1
14456000,-0.21456876,-0.10529623,-0.005631699,1
14460000,-0.21540126,-0.107107565,-0.005631699,1
14464000,-0.21623471,-0.10892331,-0.005631699,1
14468000,-0.21705742,-0.110700265,-0.005631699,1
14472000,-0.21787083,-0.11248735,-0.005631699,1
14476000,-0.21866956,-0.10139676,-0.005631699,1
14484000,-0.22017471,-0.1049302,-0.005631699,1
14488000,-0.22090325,-0.10672029,-0.005631699,1
14492000,-0.2216471,-0.10854585,-0.005631699,1
14496000,-0.2224014,-0.11032384,-0.005631699,1
14500000,-0.22314394,-0.09923862,-0.005631699,1
14508000,-0.22462144,-0.10278921,-0.005631699,1
14512000,-0.22534537,-0.104578726,-0.005631699,1
14516000,-0.22604688,-0.10634389,-0.005631699,1
14524000,-0.2274349,-0.09691401,-0.005631699,1
14528000,-0.22811994,-0.098678,-0.005631699,1
14532000,-0.22879268,-0.100434154,-0.005631699,1
14536000,-0.22945249,-0.10210294,-0.005631699,1
14540000,-0.23008405,-0.1037213,-0.005631699,1
14544000,-0.23068629,-0.105335556,-0.005631699,1
14548000,-0.23130067,-0.0942078,-0.005631699,1
14552000,-0.23193505,-0.0958628,-0.005631699,1
14556000,-0.2325398,-0.097448975,-0.005631699,1
14560000,-0.23316698,-0.09906474,-0.005631699,1
14568000,-0.23436037,-0.102346465,-0.005631699,1
14572000,-0.23495632,-0.091204494,-0.005631699,1
14576000,-0.2355339,-0.09277851,-0.005631699,1
14580000,-0.23610163,-0.09435258,-0.005631699,1
14584000,-0.2366604,-0.09593819,-0.005631699,1
14588000,-0.23722024,-0.097490154,-0.005631699,1
14592000,-0.2377623,-0.099043526,-0.005631699,1
14596000,-0.23829031,-0.08781405,-0.005631699,1
14600000,-0.23882174,-0.08933857,-0.005631699,1
14604000,-0.23934494,-0.09085422,-0.005631699,1
14608000,-0.23988456,-0.09235426,-0.005631699,1
14612000,-0.24042515,-0.093850866,-0.005631699,1
14616000,-0.24092986,-0.095347546,-0.005631699,1
14620000,-0.24141926,-0.08412771,-0.005631699,1
14624000,-0.24188831,-0.085638806,-0.005631699,1
14628000,-0.24235895,-0.08710394,-0.005631699,1
14636000,-0.24338809,-0.09006706,-0.005631699,1
14640000,-0.24387763,-0.09152965,-0.005631699,1
14644000,-0.24436517,-0.08022302,-0.005631699,1
14648000,-0.24481788,-0.081640765,-0.005631699,1
14652000,-0.2452661,-0.08304366,-0.005631699,1
14656000,-0.24572404,-0.08442389,-0.005631699,1
14660000,-0.24616964,-0.08582884,-0.005631699,1
14664000,-0.24662915,-0.087233566,-0.005631699,1
14668000,-0.24707963,-0.075859055,-0.005631699,1
14672000,-0.24750526,-0.07724184,-0.005631699,1
14676000,-0.2479468,-0.07855296,-0.005631699,1
14680000,-0.2483836,-0.07988202,-0.005631699,1
14684000,-0.24880372,-0.08128529,-0.005631699,1
14688000,-0.24919689,-0.08267003,-0.005631699,1
14692000,-0.24956626,-0.071262054,-0.005631699,1
14696000,-0.2499472,-0.07259552,-0.005631699,1
14700000,-0.2503252,-0.073901355,-0.005631699,1
14708000,-0.25111502,-0.07665589,-0.005631699,1
14712000,-0.25151378,-0.07803095,-0.005631699,1
14716000,-0.25190368,-0.066624366,-0.005631699,1
14724000,-0.25264716,-0.06934888,-0.005631699,1
14728000,-0.2529953,-0.07066622,-0.005631699,1
14736000,-0.25365716,-0.073229365,-0.005631699,1
14740000,-0.25395897,-0.061728444,-0.005631699,1
14744000,-0.25424683,-0.063090816,-0.005631699,1
14748000,-0.25454038,-0.06442977,-0.005631699,1
14752000,-0.2548706,-0.0657533,-0.005631699,1
14756000,-0.25523838,-0.06709783,-0.005631699,1
14760000,-0.25559512,-0.06840015,-0.005631699,1
14764000,-0.2559412,-0.05686471,-0.005631699,1
14768000,-0.25630623,-0.05815687,-0.005631699,1
14772000,-0.25668138,-0.059422486,-0.005631699,1
14776000,-0.25702134,-0.060701255,-0.005631699,1
14780000,-0.25734612,-0.062006496,-0.005631699,1
14784000,-0.25769898,-0.06331141,-0.005631699,1
14788000,-0.25800994,-0.051763643,-0.005631699,1
14796000,-0.258683,-0.0543235,-0.005631699,1
14804000,-0.25934255,-0.056904085,-0.005631699,1
14812000,-0.2600369,-0.04659691,-0.005631699,1
14816000,-0.26037052,-0.047896393,-0.005631699,1
14820000,-0.26067865,-0.049155764,-0.005631699,1
14824000,-0.26102537,-0.0503757,-0.005631699,1
14828000,-0.26139152,-0.051633064,-0.005631699,1
14836000,-0.2620889,-0.041213367,-0.005631699,1
14840000,-0.26238692,-0.042528488,-0.005631699,1
14844000,-0.26268196,-0.04384097,-0.005631699,1
14852000,-0.26333687,-0.04648185,-0.005631699,1
14856000,-0.2636439,-0.047762673,-0.005631699,1
14860000,-0.26393566,-0.0360841,-0.005631699,1
14864000,-0.2642337,-0.03734273,-0.005631699,1
14868000,-0.264543,-0.038632844,-0.005631699,1
14872000,-0.26486498,-0.03994167,-0.005631699,1
14876000,-0.26518166,-0.041268304,-0.005631699,1
14880000,-0.26550272,-0.042594034,-0.005631699,1
14884000,-0.26581457,-0.03092068,-0.005631699,1
14888000,-0.2661039,-0.03225058,-0.005631699,1
14892000,-0.26638702,-0.03355179,-0.005631699,1
14896000,-0.2666763,-0.03483308,-0.005631699,1
14900000,-0.26695576,-0.036122616,-0.005631699,1
14904000,-0.26724285,-0.037395462,-0.005631699,1
14908000,-0.26751372,-0.025664978,-0.005631699,1
14912000,-0.26775914,-0.026979912,-0.005631699,1
14916000,-0.26801696,-0.028318258,-0.005631699,1
14920000,-0.2682873,-0.029638674,-0.005631699,1
14924000,-0.26856583,-0.03091424,-0.005631699,1
14928000,-0.26882824,-0.032170802,-0.005631699,1
14932000,-0.2691049,-0.020379659,-0.005631699,1
14936000,-0.26939312,-0.021665728,-0.005631699,1
14940000,-0.2696955,-0.022961387,-0.005631699,1
14944000,-0.27002054,-0.024236847,-0.005631699,1
14952000,-0.27058613,-0.026739292,-0.005631699,1
14956000,-0.27083004,-0.0149321,-0.005631699,1
14960000,-0.27107957,-0.016238146,-0.005631699,1
14964000,-0.271363,-0.017573185,-0.005631699,1
14968000,-0.27166608,-0.018924426,-0.005631699,1
14972000,-0.27195883,-0.020213258,-0.005631699,1
14976000,-0.2722014,-0.021459673,-0.005631699,1
14980000,-0.27241817,-0.009618382,-0.005631699,1
14984000,-0.27265063,-0.01098844,-0.005631699,1
14992000,-0.27316323,-0.013655048,-0.005631699,1
14996000,-0.27340743,-0.015002337,-0.005631699,1
15000000,-0.27366585,-0.016378058,-0.005631699,1
15004000,-0.2739312,-0.004551021,-0.005631699,1
15008000,-0.2741978,-0.005935014,-0.005631699,1
15012000,-0.27445385,-0.007346523,-0.005631699,1
15020000,-0.2749256,-0.01014058,-0.005631699,1
15028000,-0.27543646,0.000374098,-0.005631699,1
15032000,-0.2756769,-0.000982663,-0.005631699,1
15036000,-0.27592748,-0.002366921,-0.005631699,1
15040000,-0.2761866,-0.003747636,-0.005631699,1
15044000,-0.2764377,-0.005125938,-0.005631699,1
15048000,-0.27665064,-0.006474445,-0.005631699,1
15052000,-0.2768446,0.005466818,-0.005631699,1
15056000,-0.27708918,0.004122212,-0.005631699,1
15060000,-0.2773726,0.002796279,-0.005631699,1
15064000,-0.2776405,0.001412141,-0.005631699,1
15068000,-0.27785236,-1.10E-05,-0.005631699,1
15072000,-0.27806285,-0.001396348,-0.005631699,1
15076000,-0.27826852,0.010549211,-0.005631699,1
15080000,-0.27849898,0.0091493,-0.005631699,1
15084000,-0.27873394,0.007738611,-0.005631699,1
15088000,-0.27895784,0.006381334,-0.005631699,1
15092000,-0.27919513,0.004994348,-0.005631699,1
15096000,-0.2794482,0.003577271,-0.005631699,1
15100000,-0.27968693,0.015562509,-0.005631699,1
15104000,-0.2798932,0.014145573,-0.005631699,1
15108000,-0.28009436,0.01273334,-0.005631699,1
15112000,-0.28029585,0.01131239,-0.005631699,1
15116000,-0.28051874,0.009905892,-0.005631699,1
15120000,-0.2807169,0.008507893,-0.005631699,1
15124000,-0.28088355,0.02051594,-0.005631699,1
15128000,-0.28106344,0.019097857,-0.005631699,1
15132000,-0.28126913,0.017700182,-0.005631699,1
15136000,-0.28145775,0.016305102,-0.005631699,1
15144000,-0.2817999,0.013450705,-0.005631699,1
15148000,-0.28197995,0.02552877,-0.005631699,1
15152000,-0.28215376,0.024125062,-0.005631699,1
15156000,-0.282317,0.022741314,-0.005631699,1
15160000,-0.2825043,0.021360781,-0.005631699,1
15164000,-0.28269798,0.019933417,-0.005631699,1
15168000,-0.28287482,0.01849226,-0.005631699,1
15172000,-0.28308448,0.030595735,-0.005631699,1
15176000,-0.28328878,0.029169105,-0.005631699,1
15180000,-0.28348207,0.027738124,-0.005631699,1
15184000,-0.28366885,0.026320947,-0.005631699,1
15188000,-0.2838036,0.024929823,-0.005631699,1
15192000,-0.28391775,0.023542829,-0.005631699,1
15196000,-0.2840699,0.03570335,-0.005631699,1
15200000,-0.2842533,0.034260876,-0.005631699,1
15204000,-0.28440422,0.03283265,-0.005631699,1
15208000,-0.28455555,0.03141333,-0.005631699,1
15212000,-0.2847214,0.030033791,-0.005631699,1
15220000,-0.28504252,0.04088467,-0.005631699,1
15224000,-0.28519768,0.039532036,-0.005631699,1
15228000,-0.2853349,0.038189124,-0.005631699,1
15232000,-0.28551215,0.03683849,-0.005631699,1
15236000,-0.28570297,0.035481054,-0.005631699,1
15240000,-0.2858597,0.034103215,-0.005631699,1
15244000,-0.28600666,0.046390716,-0.005631699,1
15248000,-0.28615904,0.045025613,-0.005631699,1
15252000,-0.2863234,0.04366538,-0.005631699,1
15256000,-0.2864572,0.04226907,-0.005631699,1
15260000,-0.28659794,0.04084862,-0.005631699,1
15268000,-0.28692788,0.05176719,-0.005631699,1
15276000,-0.2872557,0.048983578,-0.005631699,1
15280000,-0.28740743,0.04762265,-0.005631699,1
15288000,-0.2877051,0.044853278,-0.005631699,1
15292000,-0.2878677,0.057219487,-0.005631699,1
15296000,-0.28797862,0.05579312,-0.005631699,1
15300000,-0.28808755,0.05439949,-0.005631699,1
15304000,-0.2882463,0.053034004,-0.005631699,1
15308000,-0.28844115,0.051663972,-0.005631699,1
15312000,-0.2886448,0.05027623,-0.005631699,1
15316000,-0.28880295,0.062723584,-0.005631699,1
15320000,-0.2889524,0.061371066,-0.005631699,1
15324000,-0.2890819,0.060055,-0.005631699,1
15328000,-0.28920496,0.058704894,-0.005631699,1
15336000,-0.28955296,0.05592169,-0.005631699,1
15340000,-0.2897162,0.068396434,-0.005631699,1
15348000,-0.29000685,0.065644614,-0.005631699,1
15352000,-0.2901165,0.064289376,-0.005631699,1
15356000,-0.29024056,0.06291131,-0.005631699,1
15360000,-0.29038695,0.06155084,-0.005631699,1
15364000,-0.29054883,0.07411604,-0.005631699,1
15368000,-0.2906937,0.07277688,-0.005631699,1
15372000,-0.290815,0.07146313,-0.005631699,1
15376000,-0.29093105,0.070176326,-0.005631699,1
15380000,-0.29105613,0.06887227,-0.005631699,1
15384000,-0.2911902,0.06749826,-0.005631699,1
15388000,-0.2913462,0.080079526,-0.005631699,1
15392000,-0.29150775,0.078717,-0.005631699,1
15396000,-0.29162538,0.077345416,-0.005631699,1
15400000,-0.29173476,0.075948685,-0.005631699,1
15404000,-0.2918674,0.07451383,-0.005631699,1
15408000,-0.2920018,0.07310883,-0.005631699,1
15412000,-0.2921093,0.08576523,-0.005631699,1
15416000,-0.29222855,0.08443989,-0.005631699,1
15420000,-0.2923718,0.08311417,-0.005631699,1
15424000,-0.29251722,0.0817717,-0.005631699,1
15428000,-0.29267406,0.080398,-0.005631699,1
15432000,-0.29282776,0.07899155,-0.005631699,1
15436000,-0.29299486,0.09166091,-0.005631699,1
15440000,-0.29314977,0.090278104,-0.005631699,1
15444000,-0.2932713,0.08890778,-0.005631699,1
15452000,-0.29360852,0.08613127,-0.005631699,1
15456000,-0.2937215,0.08471409,-0.005631699,1
15460000,-0.29385886,0.09737472,-0.005631699,1
15468000,-0.29406965,0.09453562,-0.005631699,1
15476000,-0.2943123,0.091720425,-0.005631699,1
15484000,-0.29454258,0.10305613,-0.005631699,1
15488000,-0.2946926,0.10164507,-0.005631699,1
15492000,-0.29482082,0.10022416,-0.005631699,1
15496000,-0.29498106,0.09875726,-0.005631699,1
15500000,-0.2951462,0.097322606,-0.005631699,1
15504000,-0.29529664,0.09594273,-0.005631699,1
15508000,-0.2954704,0.10871001,-0.005631699,1
15512000,-0.29563913,0.10730844,-0.005631699,1
15516000,-0.29577988,0.10593218,-0.005631699,1
15520000,-0.29593077,0.10454876,-0.005631699,1
15524000,-0.29607314,0.10316117,-0.005631699,1
15528000,-0.2961824,0.1017702,-0.005631699,1
15532000,-0.29630545,0.114560105,-0.005631699,1
15536000,-0.29643726,0.11310685,-0.005631699,1
15540000,-0.29657683,0.11170026,-0.005631699,1
15544000,-0.29674044,0.11032702,-0.005631699,1
15548000,-0.2968828,0.1089516,-0.005631699,1
15552000,-0.29700476,0.10752759,-0.005631699,1
15556000,-0.2971316,0.12034924,-0.005631699,1
15560000,-0.29726452,0.11890994,-0.005631699,1
15564000,-0.29742658,0.117463,-0.005631699,1
15572000,-0.29769614,0.114648566,-0.005631699,1
15580000,-0.2979722,0.12610751,-0.005631699,1
15584000,-0.29811487,0.124633804,-0.005631699,1
15588000,-0.29825813,0.12319467,-0.005631699,1
15592000,-0.2983968,0.1217904,-0.005631699,1
15596000,-0.29852492,0.120335944,-0.005631699,1
15600000,-0.2986205,0.11885274,-0.005631699,1
15604000,-0.29871517,0.13172187,-0.005631699,1
15608000,-0.29883665,0.13022198,-0.005631699,1
15612000,-0.2989661,0.12872115,-0.005631699,1
15616000,-0.29906556,0.12722133,-0.005631699,1
15620000,-0.2991669,0.12569317,-0.005631699,1
15624000,-0.29927954,0.12419861,-0.005631699,1
15628000,-0.29938766,0.13711183,-0.005631699,1
15632000,-0.2995107,0.13569212,-0.005631699,1
15636000,-0.29967484,0.13429213,-0.005631699,1
15640000,-0.29982075,0.13285656,-0.005631699,1
15644000,-0.29997703,0.13136542,-0.005631699,1
15648000,-0.30013704,0.12988116,-0.005631699,1
15652000,-0.3002774,0.14281692,-0.005631699,1
15656000,-0.30041012,0.14131886,-0.005631699,1
15660000,-0.3005415,0.13982126,-0.005631699,1
15664000,-0.30070484,0.13835238,-0.005631699,1
15668000,-0.30087247,0.13687308,-0.005631699,1
15672000,-0.30102754,0.13535547,-0.005631699,1
15676000,-0.30116293,0.14830965,-0.005631699,1
15684000,-0.30147004,0.14532301,-0.005631699,1
15688000,-0.3016287,0.14380597,-0.005631699,1
15692000,-0.3017362,0.14234109,-0.005631699,1
15700000,-0.30190954,0.15381238,-0.005631699,1
15704000,-0.3020363,0.15230523,-0.005631699,1
15708000,-0.30216965,0.1507952,-0.005631699,1
15712000,-0.30229038,0.14925022,-0.005631699,1
15716000,-0.3023885,0.14769837,-0.005631699,1
15720000,-0.30250514,0.14613827,-0.005631699,1
15724000,-0.30262268,0.15906096,-0.005631699,1
15728000,-0.30272084,0.15750392,-0.005631699,1
15732000,-0.30282936,0.15596464,-0.005631699,1
15736000,-0.30295974,0.1543891,-0.005631699,1
15740000,-0.3030868,0.15281701,-0.005631699,1
15744000,-0.30319348,0.1512412,-0.005631699,1
15748000,-0.30331442,0.16418405,-0.005631699,1
15752000,-0.30343178,0.16260697,-0.005631699,1
15756000,-0.30354792,0.16105217,-0.005631699,1
15760000,-0.3036752,0.15948005,-0.005631699,1
15764000,-0.30377895,0.15788886,-0.005631699,1
15768000,-0.30390003,0.15635489,-0.005631699,1
15772000,-0.30402973,0.16937432,-0.005631699,1
15776000,-0.30415505,0.16783033,-0.005631699,1
15784000,-0.30442262,0.16473076,-0.005631699,1
15788000,-0.30455202,0.16318455,-0.005631699,1
15792000,-0.3046781,0.16166817,-0.005631699,1
15796000,-0.30476716,0.16499093,-0.005631699,1
15804000,-0.30499312,0.16185798,-0.005631699,1
15808000,-0.30516842,0.16025837,-0.005631699,1
15812000,-0.30532238,0.15868227,-0.005631699,1
15816000,-0.3054237,0.1571052,-0.005631699,1
15820000,-0.30551437,0.15555143,-0.005631699,1
15828000,-0.30569723,0.1524524,-0.005631699,1
15836000,-0.3059954,0.14941527,-0.005631699,1
15840000,-0.30612287,0.14790379,-0.005631699,1
15844000,-0.30620304,0.14642115,-0.005631699,1
15848000,-0.30630773,0.14492725,-0.005631699,1
15852000,-0.30642897,0.14342457,-0.005631699,1
15856000,-0.30654708,0.14195332,-0.005631699,1
15860000,-0.3066609,0.14048634,-0.005631699,1
15868000,-0.30681077,0.13762796,-0.005631699,1
15872000,-0.3068975,0.13613965,-0.005631699,1
15876000,-0.3070018,0.13469645,-0.005631699,1
15884000,-0.307233,0.13181087,-0.005631699,1
15892000,-0.3074738,0.129034,-0.005631699,1
15896000,-0.30760846,0.12768747,-0.005631699,1
15900000,-0.30773714,0.12635744,-0.005631699,1
15904000,-0.30783495,0.12503588,-0.005631699,1
15908000,-0.30794993,0.123751774,-0.005631699,1
15916000,-0.912493,0.1413763,0.05871962,1
15920000,-0.91265464,0.14014946,0.058978193,1
15924000,-0.91281885,0.138959,0.059230596,1
15928000,-0.9129122,0.1377784,0.059467733,1
15936000,-0.91232824,0.13534799,0.05980622,1
15940000,-0.8961701,0.13414475,0.059902184,1
15944000,-0.89534837,0.13286953,0.05997827,1
15952000,-0.8931111,0.130196,0.06003354,1
15960000,-0.890145,0.12753949,0.059936233,1
15964000,-0.89379096,0.1262398,0.059831396,1
15968000,-0.89190567,0.12489058,0.05970204,1
15972000,-0.8898722,0.12350489,0.059547402,1
15976000,-0.88770956,0.122150406,0.059358962,1
15980000,-0.8854422,0.12083451,0.059140235,1
15988000,-0.8852359,0.118182346,0.058642827,1
15992000,-0.8827083,0.11688551,0.05845889,1
15996000,-0.8800954,0.11555599,0.05816111,1
16004000,-0.8746489,0.11286774,0.05751663,1
16008000,-0.87177575,0.111499354,0.05716326,1
16012000,-0.87368864,0.11011475,0.05679184,1
16016000,-0.8706903,0.10876053,0.056403913,1
16020000,-0.86762285,0.10742024,0.055996224,1
16024000,-0.86448705,0.10603152,0.055578746,1
16028000,-0.8612793,0.10467658,0.05513759,1
16032000,-0.8580859,0.103369616,0.054688305,1
16036000,-0.8726395,0.10204848,0.054235764,1
16044000,-0.8660509,0.09928399,0.053300343,1
16048000,-0.8627616,0.0980101,0.052811984,1
16052000,-0.85939795,0.09681002,0.052294128,1
16056000,-0.8559984,0.0955787,0.05177006,1
16060000,-0.85682094,0.0943233,0.051241476,1
16064000,-0.8533948,0.093116105,0.05070158,1
16068000,-0.84993154,0.0919483,0.050145213,1
16072000,-0.8464494,0.09079609,0.049579564,1
16076000,-0.842961,0.089614786,0.04901321,1
16084000,-0.83941853,0.08730819,0.047837764,1
16092000,-0.83230025,0.085086115,0.04669207,1
16100000,-0.82504195,0.08293597,0.045435835,1
16104000,-0.8214422,0.081882946,0.044806592,1
16108000,-0.8204264,0.08083855,0.04417029,1
16112000,-0.8168022,0.07980027,0.043528102,1
16116000,-0.8131829,0.078769244,0.042883117,1
16120000,-0.80955005,0.07772256,0.042233963,1
16124000,-0.80591464,0.07670144,0.041578405,1
16128000,-0.8022664,0.07571148,0.04091379,1
16132000,-0.8145936,0.07473914,0.04025106,1
16136000,-0.8109896,0.073776,0.039587244,1
16140000,-0.80733514,0.07281012,0.03891017,1
16148000,-0.80011266,0.071009845,0.037553072,1
16152000,-0.79651225,0.07010513,0.03687333,1
16156000,-0.794574,0.06919581,0.036188047,1
16160000,-0.7909792,0.06832902,0.035500713,1
16164000,-0.78744054,0.067486785,0.034820646,1
16168000,-0.7838934,0.06664302,0.034136485,1
16172000,-0.7803422,0.065805554,0.033448424,1
16176000,-0.77677673,0.06501626,0.032750886,1
16184000,-0.7712002,0.063427664,0.031354863,1
16188000,-0.76768905,0.062643476,0.03066166,1
16192000,-0.7642441,0.061896306,0.030195363,1
16196000,-0.76070035,0.061161153,0.029481426,1
16200000,-0.7572042,0.060460944,0.028773157,1
16204000,-0.7537381,0.0597932,0.028067147,1
16208000,-0.75026274,0.05909292,0.027359448,1
16212000,-0.7467736,0.058394406,0.02664661,1
16216000,-0.7432887,0.05772804,0.025930578,1
16220000,-0.7398579,0.05706904,0.025223978,1
16224000,-0.73645437,0.056422934,0.024520643,1
16228000,-0.73304534,0.05575778,0.02381536,1
16232000,-0.7296722,0.055121116,0.023114359,1
16236000,-0.72634876,0.0545022,0.022421429,1
16240000,-0.72302467,0.0539151,0.021724898,1
16244000,-0.719712,0.053393513,0.021025874,1
16248000,-0.71641403,0.052868266,0.02032877,1
16252000,-0.7131054,0.05232838,0.01962856,1
16256000,-0.7098372,0.051788278,0.018935733,1
16260000,-0.7066065,0.051263843,0.018248921,1
16264000,-0.7034025,0.050774537,0.017565014,1
16268000,-0.7002106,0.05028005,0.016882598,1
16272000,-0.6970067,0.04975944,0.016197205,1
16276000,-0.6938373,0.049262933,0.015517013,1
16280000,-0.69068265,0.048793964,0.014837682,1
16284000,-0.6875537,0.048318163,0.014162947,1
16292000,-0.6814105,0.047356434,0.012835118,1
16296000,-0.6783278,0.04691025,0.012200425,1
16300000,-0.67526466,0.04646908,0.011531992,1
16304000,-0.67219096,0.045992628,0.010860859,1
16308000,-0.6691286,0.045506947,0.01019109,1
16312000,-0.66609293,0.045051612,0.009525189,1
16316000,-0.66309595,0.044570077,0.008867127,1
16324000,-0.6572094,0.043596566,0.00757104,1
16328000,-0.6543648,0.043105714,0.006943028,1
16332000,-0.65154976,0.042640094,0.006319872,1
16336000,-0.64869267,0.04217904,0.005685935,1
16340000,-0.64581436,0.041721273,0.005045872,1
16344000,-0.64296114,0.04126062,0.004410155,1
16348000,-0.6401613,0.040836737,0.003784762,1
16356000,-0.6346652,0.04009726,0.002553067,1
16360000,-0.6318833,0.039700214,0.001928169,1
16364000,-0.6291149,0.039323006,0.001305089,1
16368000,-0.62640387,0.03896178,0.000693856,1
16372000,-0.6236853,0.038592238,7.99E-05,1
16376000,-0.6209711,0.038228527,-0.000534142,1
16380000,-0.6183067,0.037868597,-0.001137933,1
16388000,-0.61300373,0.037193734,-0.00234249,1
16392000,-0.61033577,0.036791235,-0.002947026,1
16400000,-0.60514164,0.036008105,-0.004132577,1
16404000,-0.60258883,0.035666037,-0.004716435,1
16408000,-0.6000418,0.035344515,-0.005299672,1
16412000,-0.59750843,0.035016716,-0.005880829,1
16416000,-0.5950133,0.034674462,-0.006454391,1
16420000,-0.5925632,0.034322023,-0.007018828,1
16428000,-0.5877142,0.033653904,-0.008138255,1
16432000,-0.58528715,0.033321604,-0.008699924,1
16436000,-0.5828825,0.03301153,-0.009256911,1
16440000,-0.58048964,0.032737058,-0.009811267,1
16444000,-0.57809144,0.032441065,-0.010368143,1
16448000,-0.5757137,0.03209781,-0.010922358,1
16452000,-0.5733712,0.03175237,-0.011469489,1
16456000,-0.57102376,0.03144375,-0.012017697,1
16460000,-0.5686774,0.031166377,-0.012565626,1
16464000,-0.5663438,0.030838532,-0.013112939,1
16468000,-0.564015,0.03047345,-0.01366123,1
16472000,-0.56172305,0.030111028,-0.014201913,1
16476000,-0.55945754,0.029740196,-0.01473779,1
16480000,-0.55723095,0.029400084,-0.015264588,1
16484000,-0.5550499,0.029097265,-0.015780402,1
16488000,-0.5528463,0.02873804,-0.016304366,1
16492000,-0.5506305,0.028358825,-0.016915387,1
16496000,-0.5485141,0.028011872,-0.017422924,1
16500000,-0.54640096,0.027691513,-0.017929532,1
16508000,-0.5421989,0.027183542,-0.018933928,1
16512000,-0.5400907,0.02689442,-0.019440373,1
16516000,-0.5379919,0.026568582,-0.019947054,1
16520000,-0.5359007,0.026288535,-0.020450683,1
16524000,-0.5338447,0.026008839,-0.020946803,1
16528000,-0.53174573,0.0257158,-0.021454407,1
16532000,-0.529624,0.02544262,-0.021967193,1
16540000,-0.52552074,0.024917252,-0.022960905,1
16544000,-0.52348447,0.024680385,-0.023453852,1
16548000,-0.52148724,0.024448846,-0.023937972,1
16552000,-0.5194737,0.024207246,-0.024427125,1
16556000,-0.51746875,0.023985047,-0.024913803,1
16564000,-0.51361585,0.023417173,-0.025858989,1
16568000,-0.51166975,0.02314995,-0.026336327,1
16572000,-0.5097362,0.022935757,-0.026808254,1
16580000,-0.5059338,0.022451153,-0.027741928,1
16588000,-0.5021483,0.021875756,-0.028679946,1
16592000,-0.5002913,0.021593615,-0.029062461,1
16596000,-0.49839416,0.02130003,-0.0295335,1
16600000,-0.49653816,0.021046741,-0.029992811,1
16604000,-0.49473476,0.02081215,-0.03043895,1
16608000,-0.4929302,0.020608693,-0.030883836,1
16612000,-0.5349714,0.005226578,-0.03261124,0.39653173
16616000,-0.53321016,0.004967569,-0.033067875,0.39653173
16620000,-0.5314653,0.004680979,-0.033523005,0.39653173
16624000,-0.52971894,0.004437153,-0.033976093,0.39653173
16628000,-0.5279682,0.00416586,-0.0344329,0.39653173
16632000,-0.52615917,0.003868989,-0.03490682,0.39653173
16636000,-0.52123755,-0.011568306,-0.036782052,0.41880268
16640000,-0.519318,-0.011824964,-0.03730075,0.41880268
16644000,-0.5173348,-0.012104715,-0.03783848,0.41880268
16648000,-0.5153027,-0.012418357,-0.03839241,0.41880268
16652000,-0.5132524,-0.012716332,-0.038950782,0.41880268
16656000,-0.5111264,-0.013011985,-0.039529603,0.41880268
16660000,-0.50477725,-0.028523225,-0.041643485,0.4397959
16664000,-0.50248706,-0.028892536,-0.042295545,0.4397959
16668000,-0.5000978,-0.029260742,-0.04297565,0.4397959
16672000,-0.49762833,-0.029664787,-0.04368194,0.4397959
16676000,-0.4951356,-0.030127378,-0.04440096,0.4397959
16684000,-0.4988303,-0.046247832,-0.047534604,0.45963722
16688000,-0.4962115,-0.046748508,-0.04832193,0.45963722
16692000,-0.49338058,-0.047209963,-0.04968894,0.45963722
16696000,-0.49067706,-0.047779515,-0.05051825,0.45963722
16700000,-0.48792952,-0.04838961,-0.05136611,0.45963722
16708000,-0.47757328,-0.064692646,-0.05490209,0.47928184
16716000,-0.4718379,-0.06593353,-0.056740966,0.47928184
16720000,-0.46894205,-0.066585265,-0.057675667,0.47928184
16724000,-0.4660376,-0.067300044,-0.058621943,0.47928184
16732000,-0.45556542,-0.083773226,-0.06251824,0.49764836
16740000,-0.44969591,-0.08505278,-0.06448924,0.49764836
16744000,-0.4467244,-0.08567275,-0.06548804,0.49764836
16752000,-0.44071817,-0.08688,-0.06750978,0.49764836
16756000,-0.43250054,-0.10256915,-0.070653826,0.51473093
16760000,-0.42957988,-0.10312705,-0.07166818,0.51473093
16764000,-0.42663893,-0.1036663,-0.072689384,0.51473093
16768000,-0.42365322,-0.10417809,-0.0737244,0.51473093
16772000,-0.4206792,-0.104704,-0.07475964,0.51473093
16780000,-0.4096757,-0.12092346,-0.0791599,0.53052455
16784000,-0.4067561,-0.12141105,-0.08020818,0.53052455
16788000,-0.40383926,-0.12185771,-0.08125269,0.53052455
16792000,-0.40054217,-0.12216477,-0.083373986,0.53052455
16796000,-0.39771983,-0.12262964,-0.084403574,0.53052455
16804000,-0.39950654,-0.13852015,-0.088923715,0.54624766
16808000,-0.39672092,-0.13886233,-0.08995772,0.54624766
16812000,-0.39391184,-0.13915572,-0.090995386,0.54624766
16820000,-0.38835853,-0.13967894,-0.09304404,0.54624766
16824000,-0.3856334,-0.13988173,-0.09404428,0.54624766
16828000,-0.3775192,-0.1551191,-0.09768065,0.5606164
16836000,-0.37215668,-0.15536834,-0.09968678,0.5606164
16840000,-0.36944044,-0.15545836,-0.100699574,0.5606164
16844000,-0.36679387,-0.15550967,-0.10168225,0.5606164
16852000,-0.35559297,-0.17059672,-0.106418446,0.5737028
16856000,-0.35300195,-0.1705158,-0.10738929,0.5737028
16860000,-0.35043463,-0.17045482,-0.10835469,0.5737028
16868000,-0.34535772,-0.17014796,-0.110237755,0.5737028
16872000,-0.34287706,-0.1698771,-0.11114018,0.5737028
16876000,-0.33524898,-0.18473333,-0.115001306,0.58553606
16884000,-0.3303377,-0.18406928,-0.116817035,0.58553606
16892000,-0.325484,-0.18339927,-0.11860922,0.58553606
16896000,-0.3226103,-0.18273649,-0.120775394,0.58553606
16900000,-0.32790202,-0.19743402,-0.124742,0.5972975
16904000,-0.3255514,-0.19692594,-0.12561217,0.5972975
16908000,-0.32326788,-0.19638951,-0.12645023,0.5972975
16912000,-0.3210276,-0.19582129,-0.12726513,0.5972975
16916000,-0.3187702,-0.1952038,-0.12807839,0.5972975
16920000,-0.31649584,-0.19454834,-0.12889157,0.5972975
16928000,-0.30709013,-0.2082834,-0.13370195,0.6078609
16932000,-0.30491257,-0.20754334,-0.13448119,0.6078609
16936000,-0.3027922,-0.20676985,-0.13523015,0.6078609
16940000,-0.30068117,-0.20595354,-0.13596705,0.6078609
16944000,-0.29856017,-0.2051113,-0.13670257,0.6078609
16952000,-0.2891811,-0.21853843,-0.1414966,0.61731267
16956000,-0.28715727,-0.21762545,-0.14219661,0.61731267
16964000,-0.28320062,-0.21568668,-0.1435346,0.61731267
16972000,-0.27463657,-0.22888693,-0.14833239,0.62569004
16976000,-0.2726919,-0.22779451,-0.14898026,0.62569004
16984000,-0.26884177,-0.22555083,-0.1502439,0.62569004
16988000,-0.26687002,-0.22440025,-0.15088831,0.62569004
16992000,-0.2643921,-0.22285089,-0.15300018,0.62569004
16996000,-0.25753865,-0.23685701,-0.15721121,0.6341572
17004000,-0.2538666,-0.23438236,-0.15839219,0.6341572
17012000,-0.2502594,-0.23179223,-0.15951607,0.6341572
17016000,-0.24849996,-0.2304928,-0.16005489,0.6341572
17020000,-0.25565058,-0.24447927,-0.16433565,0.6416437
17024000,-0.2539407,-0.24315673,-0.16486229,0.6416437
17028000,-0.2522889,-0.2417944,-0.16535337,0.6416437
17032000,-0.2506257,-0.2404479,-0.16585076,0.6416437
17036000,-0.24901552,-0.23910367,-0.16632284,0.6416437
17040000,-0.24744391,-0.23769753,-0.16676393,0.6416437
17044000,-0.24108145,-0.2515624,-0.17107466,0.6482151
17052000,-0.23787424,-0.2487279,-0.17200553,0.6482151
17056000,-0.23635487,-0.24729443,-0.17242634,0.6482151
17060000,-0.23486356,-0.24584973,-0.17283022,0.6482151
17064000,-0.23337182,-0.24438062,-0.17322773,0.6482151
17068000,-0.22743976,-0.25507477,-0.17675915,0.6539312
17072000,-0.22600229,-0.25355095,-0.17712936,0.6539312
17076000,-0.22456628,-0.25208002,-0.17750746,0.6539312
17080000,-0.22315527,-0.25059626,-0.17786957,0.6539312
17084000,-0.22179727,-0.24906403,-0.17819558,0.6539312
17088000,-0.22043715,-0.24752718,-0.17851982,0.6539312
17092000,-0.21501036,-0.24332796,-0.17877525,0.65885174
17100000,-0.21239993,-0.24023443,-0.17935973,0.65885174
17104000,-0.2110698,-0.23870786,-0.17966487,0.65885174
17108000,-0.20979734,-0.23716913,-0.17993915,0.65885174
17112000,-0.20853718,-0.23561488,-0.18020284,0.65885174
17116000,-0.20303145,-0.23195109,-0.17990142,0.66340667
17120000,-0.2018177,-0.23040007,-0.1801391,0.66340667
17124000,-0.20061144,-0.22883394,-0.18036851,0.66340667
17128000,-0.19941096,-0.2272772,-0.18059547,0.66340667
17132000,-0.19819139,-0.22577846,-0.1808415,0.66340667
17140000,-0.19211832,-0.22092459,-0.18079148,0.66725534
17144000,-0.19094065,-0.21939461,-0.18100537,0.66725534
17148000,-0.18978328,-0.21787849,-0.18121132,0.66725534
17152000,-0.18864137,-0.2163266,-0.18140112,0.66725534
17160000,-0.18644756,-0.21321633,-0.18173367,0.66725534
17164000,-0.1946266,-0.21002659,-0.18141964,0.67047405
17168000,-0.19360232,-0.20852366,-0.18155915,0.67047405
17172000,-0.19258162,-0.20705503,-0.18170291,0.67047405
17180000,-0.19047529,-0.20425522,-0.18204498,0.67047405
17184000,-0.18948002,-0.20284489,-0.18218575,0.67047405
17188000,-0.18485358,-0.19997337,-0.18189844,0.6731255
17192000,-0.18379854,-0.19849426,-0.18229902,0.6731255
17196000,-0.18283746,-0.19711854,-0.18242791,0.6731255
17200000,-0.18188494,-0.19577292,-0.18255834,0.6731255
17204000,-0.18095908,-0.19442268,-0.18267465,0.6731255
17208000,-0.1800721,-0.19304577,-0.18276663,0.6731255
17216000,-0.17405172,-0.18920161,-0.18264666,0.6754165
17220000,-0.17318688,-0.18793537,-0.18274906,0.6754165
17224000,-0.17232512,-0.18667161,-0.18284959,0.6754165
17228000,-0.17145377,-0.18540429,-0.1829525,0.6754165
17232000,-0.1706117,-0.18418165,-0.1830514,0.6754165
17236000,-0.16580777,-0.18186298,-0.1828149,0.6772127
17240000,-0.16499066,-0.18065175,-0.18290272,0.6772127
17244000,-0.1642128,-0.17946893,-0.18297878,0.6772127
17248000,-0.16344358,-0.1783329,-0.18306068,0.6772127
17252000,-0.16265495,-0.17718226,-0.18314697,0.6772127
17260000,-0.15683013,-0.17390826,-0.18296283,0.6785517
17264000,-0.15612724,-0.17282048,-0.18302283,0.6785517
17268000,-0.15544501,-0.17176974,-0.1830815,0.6785517
17276000,-0.15406853,-0.16969411,-0.18320787,0.6785517
17280000,-0.15335664,-0.16866112,-0.18328136,0.6785517
17284000,-0.1486359,-0.1668025,-0.18309942,0.67947745
17288000,-0.14794901,-0.16581206,-0.18317002,0.67947745
17292000,-0.14717884,-0.1646998,-0.18369767,0.67947745
17296000,-0.14656194,-0.16375256,-0.18374757,0.67947745
17300000,-0.14592764,-0.1628348,-0.1838112,0.67947745
17304000,-0.1453071,-0.16193944,-0.18387352,0.67947745
17308000,-0.15368222,-0.16033965,-0.18371347,0.6802987
17312000,-0.15309513,-0.15947182,-0.18376628,0.6802987
17316000,-0.15247753,-0.15860355,-0.18383169,0.6802987
17320000,-0.15188092,-0.15775363,-0.18389179,0.6802987
17324000,-0.15131477,-0.15693404,-0.18394534,0.6802987
17332000,-0.14582898,-0.15467128,-0.18386097,0.68077016
17340000,-0.14478311,-0.15315288,-0.18395557,0.68077016
17344000,-0.14431325,-0.15241127,-0.18398353,0.68077016
17348000,-0.14378856,-0.15165812,-0.18403205,0.68077016
17352000,-0.14325589,-0.15092283,-0.18408781,0.68077016
17356000,-0.13777155,-0.14960325,-0.18396194,0.6809172
17360000,-0.13728252,-0.14886668,-0.1839977,0.6809172
17364000,-0.13680291,-0.14815158,-0.18403417,0.6809172
17368000,-0.1363417,-0.14743131,-0.18406121,0.6809172
17372000,-0.13587897,-0.14672968,-0.18409298,0.6809172
17376000,-0.13542397,-0.14610429,-0.18413922,0.6809172
17380000,-0.13030902,-0.1449744,-0.1840263,0.6807855
17388000,-0.12948272,-0.14363119,-0.18405935,0.6807855
17396000,-0.12864468,-0.14225535,-0.18418513,0.6807855
17404000,-0.12254247,-0.14065218,-0.18414746,0.68047106
17408000,-0.12214044,-0.14013967,-0.18419585,0.68047106
17416000,-0.121345535,-0.139042,-0.18427074,0.68047106
17420000,-0.12098995,-0.13848707,-0.18428858,0.68047106
17424000,-0.12064572,-0.13791233,-0.18429668,0.68047106
17428000,-0.11495781,-0.13695188,-0.18419851,0.67990106
17432000,-0.11456309,-0.13638853,-0.18423024,0.67990106
17436000,-0.11419262,-0.13583751,-0.18425447,0.67990106
17440000,-0.11382781,-0.13531967,-0.18428408,0.67990106
17444000,-0.11350706,-0.13479227,-0.18429251,0.67990106
17452000,-0.10787447,-0.1333274,-0.18415855,0.67911893
17456000,-0.10758941,-0.1327565,-0.18414077,0.67911893
17460000,-0.10729602,-0.13221967,-0.18413463,0.67911893
17464000,-0.10699861,-0.13172936,-0.18414128,0.67911893
17468000,-0.10671151,-0.13121304,-0.18413712,0.67911893
17472000,-0.10641274,-0.13070752,-0.18414035,0.67911893
17476000,-0.10058656,-0.12990731,-0.18403013,0.67816114
17480000,-0.10035922,-0.12946667,-0.1840187,0.67816114
17484000,-0.10014281,-0.12901208,-0.18399915,0.67816114
17488000,-0.09995175,-0.12853396,-0.18396309,0.67816114
17492000,-0.0997988,-0.12809065,-0.18381822,0.67816114
17496000,-0.09956216,-0.12760669,-0.1837996,0.67816114
17500000,-0.10802425,-0.1268353,-0.1836813,0.67700243
17504000,-0.1078189,-0.12641293,-0.18366429,0.67700243
17508000,-0.10761378,-0.12597151,-0.18364246,0.67700243
17512000,-0.1074601,-0.12552454,-0.18359756,0.67700243
17516000,-0.10728737,-0.1250617,-0.18355669,0.67700243
17524000,-0.101380184,-0.12387477,-0.1833696,0.67569685
17528000,-0.101239234,-0.12342791,-0.18331906,0.67569685
17532000,-0.10108946,-0.1229728,-0.18327007,0.67569685
17536000,-0.10094708,-0.12250903,-0.1832158,0.67569685
17540000,-0.10081654,-0.122061245,-0.18316041,0.67569685
17544000,-0.10066441,-0.121632665,-0.18311867,0.67569685
17548000,-0.095239416,-0.12094949,-0.18300855,0.674258
17552000,-0.09503535,-0.12054123,-0.18299331,0.674258
17556000,-0.09485508,-0.120115265,-0.18296368,0.674258
17560000,-0.094708264,-0.119694725,-0.18292136,0.674258
17564000,-0.094573796,-0.11924531,-0.18286668,0.674258
17568000,-0.094452426,-0.118762866,-0.18279836,0.674258
17572000,-0.088535115,-0.11811727,-0.18267001,0.6727133
17576000,-0.08843368,-0.11776906,-0.18262632,0.6727133
17580000,-0.08834146,-0.11738144,-0.18256901,0.6727133
17584000,-0.088251576,-0.11695247,-0.18250048,0.6727133
17592000,-0.08810809,-0.11611386,-0.18235296,0.6727133
17596000,-0.082615286,-0.1154404,-0.18226808,0.67112684
17600000,-0.08254032,-0.11499091,-0.18218808,0.67112684
17604000,-0.0824518,-0.11452833,-0.18211041,0.67112684
17608000,-0.08236782,-0.114089444,-0.18203664,0.67112684
17612000,-0.08228486,-0.1136398,-0.18195975,0.67112684
17616000,-0.08221753,-0.11319135,-0.18187661,0.67112684
17620000,-0.07628577,-0.112516366,-0.18170208,0.66946626
17624000,-0.07625288,-0.11204992,-0.18160011,0.66946626
17628000,-0.07616342,-0.11154375,-0.18151164,0.66946626
17632000,-0.07605711,-0.111056134,-0.18143469,0.66946626
17636000,-0.0760031,-0.11057294,-0.18133716,0.66946626
17640000,-0.07602374,-0.11008388,-0.18120731,0.66946626
17644000,-0.07051782,-0.109416716,-0.18102932,0.66775715
17648000,-0.07048558,-0.10892857,-0.18092145,0.66775715
17652000,-0.070434645,-0.10843849,-0.18082073,0.66775715
17656000,-0.07042365,-0.10795714,-0.18070573,0.66775715
17660000,-0.070451975,-0.10749099,-0.18057826,0.66775715
17664000,-0.07046523,-0.10707141,-0.18046857,0.66775715
17668000,-0.06447311,-0.106488705,-0.18030444,0.6659972
17672000,-0.06446959,-0.10601399,-0.18018788,0.6659972
17676000,-0.06446712,-0.105538234,-0.18007061,0.6659972
17680000,-0.06449461,-0.105146244,-0.17996186,0.6659972
17688000,-0.064504504,-0.10423421,-0.17973095,0.6659972
17692000,-0.05884052,-0.1033375,-0.18025509,0.6641792
17696000,-0.05886149,-0.10286323,-0.18012866,0.6641792
17700000,-0.058882497,-0.10244466,-0.18001604,0.6641792
17704000,-0.058892485,-0.10206014,-0.17991638,0.6641792
17708000,-0.05891187,-0.10163638,-0.17980312,0.6641792
17712000,-0.058935292,-0.10119635,-0.17968415,0.6641792
17716000,-0.06723131,-0.1006493,-0.17954895,0.66266614
17720000,-0.067224324,-0.10018568,-0.1794365,0.66266614
17724000,-0.06726529,-0.09974248,-0.1793095,0.66266614
17728000,-0.067328684,-0.09932104,-0.17917876,0.66266614
17736000,-0.06741209,-0.098419175,-0.17892028,0.66266614
17740000,-0.062082406,-0.09784438,-0.17875303,0.6611164
17744000,-0.06212735,-0.09741436,-0.1786277,0.6611164
17748000,-0.062187117,-0.09701077,-0.17850287,0.6611164
17752000,-0.062243752,-0.09661381,-0.17838097,0.6611164
17756000,-0.06228713,-0.09620394,-0.17826128,0.6611164
17760000,-0.06233102,-0.095795006,-0.1781416,0.6611164
17764000,-0.056366313,-0.09527357,-0.17799848,0.65952086
17772000,-0.056432407,-0.09441358,-0.17775743,0.65952086
17776000,-0.056498185,-0.09405796,-0.17764212,0.65952086
17780000,-0.056532796,-0.093696125,-0.17753795,0.65952086
17788000,-0.051080145,-0.09283901,-0.1772943,0.6578975
17796000,-0.05147437,-0.09236412,-0.17639463,0.6578975
17800000,-0.05156869,-0.09202337,-0.17627151,0.6578975
17808000,-0.051683422,-0.0912883,-0.17604172,0.6578975
17812000,-0.045688275,-0.090719685,-0.17586851,0.65595603
17820000,-0.045835495,-0.08995136,-0.17561743,0.65595603
17828000,-0.045996793,-0.08925224,-0.17537796,0.65595603
17832000,-0.046092466,-0.08890877,-0.17525378,0.65595603
17836000,-0.04055681,-0.088354796,-0.17506221,0.6540171
17840000,-0.040642958,-0.08800383,-0.17493999,0.6540171
17844000,-0.040727824,-0.08771236,-0.17483321,0.6540171
17848000,-0.04079831,-0.08734896,-0.17471418,0.6540171
17852000,-0.04086576,-0.08696287,-0.17459074,0.6540171
17860000,-0.034909107,-0.08604872,-0.1742692,0.65207744
17864000,-0.035011936,-0.085740104,-0.17415102,0.65207744
17868000,-0.035145752,-0.08543103,-0.17402035,0.65207744
17872000,-0.035277043,-0.08505131,-0.17387307,0.65207744
17876000,-0.03541484,-0.08465829,-0.17371991,0.65207744
17880000,-0.035576258,-0.084311984,-0.17356902,0.65207744
17884000,-0.030082908,-0.08376747,-0.17336404,0.65015155
17888000,-0.030237239,-0.08341654,-0.17321491,0.65015155
17892000,-0.03018833,-0.08288367,-0.17377248,0.65015155
17900000,-0.03051452,-0.08218412,-0.17346801,0.65015155
17904000,-0.030678269,-0.08183609,-0.17331597,0.65015155
17908000,-0.024726618,-0.08140016,-0.173142,0.6485585
17912000,-0.02488774,-0.08108238,-0.17299868,0.6485585
17916000,-0.025080651,-0.08076748,-0.17284344,0.6485585
17920000,-0.025262535,-0.08040333,-0.17268038,0.6485585
17924000,-0.02541969,-0.08006387,-0.1725334,0.6485585
17932000,-0.020184148,-0.07947932,-0.17222099,0.64697516
17936000,-0.020365309,-0.07922649,-0.17208615,0.64697516
17940000,-0.020554665,-0.07898313,-0.17195043,0.64697516
17948000,-0.021036897,-0.078458995,-0.17162879,0.64697516
17952000,-0.021268543,-0.07817985,-0.1714676,0.64697516
17956000,-0.015297249,-0.077816635,-0.17128198,0.6453799
17960000,-0.015525762,-0.077571705,-0.17113066,0.6453799
17964000,-0.015799686,-0.07733101,-0.17096245,0.6453799
17972000,-0.016384378,-0.07678436,-0.17059553,0.6453799
17976000,-0.016658485,-0.07654321,-0.17042738,0.6453799
17984000,-0.011508223,-0.07598524,-0.17005205,0.64378536
17992000,-0.01206867,-0.07543269,-0.1697413,0.64378536
17996000,-0.012350373,-0.07516018,-0.1695628,0.64378536
18000000,-0.012662552,-0.07489157,-0.16937336,0.64378536
18004000,-0.006621964,-0.07459369,-0.16918819,0.64222115
18008000,-0.006879695,-0.074359834,-0.16902894,0.64222115
18012000,-0.007192683,-0.074123934,-0.1688475,0.64222115
18020000,-0.007836081,-0.07361003,-0.16846767,0.64222115
18024000,-0.008175984,-0.073396504,-0.16828145,0.64222115
18028000,-0.002788689,-0.07311112,-0.16806762,0.6406614
18032000,-0.003139835,-0.07295604,-0.16789155,0.6406614
18036000,-0.003485195,-0.07275759,-0.16770716,0.6406614
18040000,-0.00383528,-0.07253795,-0.16751583,0.6406614
18048000,-0.004565265,-0.072241336,-0.16715676,0.6406614
18052000,0.001403779,-0.071970746,-0.16694915,0.6391071
18056000,0.00103144,-0.07177398,-0.16675512,0.6391071
18060000,0.000697374,-0.07157321,-0.16657515,0.6391071
18064000,0.000363592,-0.07135679,-0.16639158,0.6391071
18068000,-5.56E-06,-0.071176104,-0.16620299,0.6391071
18076000,0.005094204,-0.070718125,-0.16580777,0.63757485
18080000,0.004674558,-0.07059717,-0.16561432,0.63757485
18088000,0.003862876,-0.07027674,-0.1652194,0.63757485
18092000,0.003554035,-0.06996985,-0.16524082,0.63757485
18096000,0.003174335,-0.06977753,-0.16504586,0.63757485
18100000,0.008897301,-0.06954616,-0.16482101,0.63615406
18104000,0.008473383,-0.069381714,-0.16461581,0.63615406
18108000,0.008054033,-0.06926769,-0.1644247,0.63615406
18112000,0.00758799,-0.06916079,-0.16421723,0.63615406
18116000,0.007153705,-0.069019035,-0.16401377,0.63615406
18124000,0.012037935,-0.06872022,-0.16361856,0.6347331
18128000,0.011588151,-0.06863651,-0.16342342,0.6347331
18132000,0.011095168,-0.06854187,-0.16320893,0.6347331
18136000,0.010637378,-0.068426654,-0.16300324,0.6347331
18140000,0.010188337,-0.06831648,-0.16280228,0.6347331
18144000,0.009730579,-0.06821206,-0.16259943,0.6347331
18148000,0.015517501,-0.06801687,-0.16238254,0.6333134
18152000,0.015033126,-0.067929156,-0.16217357,0.6333134
18156000,0.014497269,-0.06783363,-0.16194287,0.6333134
18164000,0.013467476,-0.06763452,-0.16149612,0.6333134
18168000,0.012970012,-0.067511946,-0.16127416,0.6333134
18172000,0.018092021,-0.067316175,-0.16102743,0.6318923
18176000,0.017590536,-0.06722845,-0.16081247,0.6318923
18180000,0.017115248,-0.06715159,-0.16061038,0.6318923
18184000,0.016618665,-0.067086145,-0.1604028,0.6318923
18188000,0.016139846,-0.06701845,-0.16020167,0.6318923
18192000,0.015741128,-0.066855,-0.16024067,0.6318923
18196000,0.021327212,-0.066714786,-0.16001256,0.63060015
18200000,0.020819172,-0.0666087,-0.15979105,0.63060015
18204000,0.020322077,-0.06651619,-0.15957713,0.63060015
18208000,0.019812575,-0.06642769,-0.15935948,0.63060015
18212000,0.019306313,-0.06631923,-0.15913846,0.63060015
18216000,0.018804785,-0.06621954,-0.15892142,0.63060015
18220000,0.023813576,-0.06606069,-0.15868051,0.62932867
18228000,0.022759488,-0.06592981,-0.1582435,0.62932867
18232000,0.022199411,-0.06584325,-0.15800747,0.62932867
18236000,0.021618228,-0.06581664,-0.1577775,0.62932867
18240000,0.021054003,-0.065806106,-0.15755795,0.62932867
18244000,0.026555702,-0.06572358,-0.15734151,0.6280619
18248000,0.026057713,-0.065688476,-0.15714183,0.6280619
18252000,0.025493925,-0.06564529,-0.15691504,0.6280619
18256000,0.02492378,-0.06559889,-0.15668516,0.6280619
18260000,0.024356004,-0.06555517,-0.15645687,0.6280619
18264000,0.023757234,-0.065532655,-0.15622176,0.6280619
18268000,0.028570924,-0.06543275,-0.15597865,0.62678874
18276000,0.027447395,-0.06536718,-0.15553254,0.62678874
18280000,0.026907418,-0.06534091,-0.15531948,0.62678874
18284000,0.026362639,-0.06528903,-0.1550987,0.62678874
18288000,0.025805986,-0.06526745,-0.15488054,0.62678874
18292000,0.03095714,-0.06530841,-0.15427977,0.62552506
18296000,0.030387595,-0.065295175,-0.15405917,0.62552506
18300000,0.029815815,-0.06527783,-0.15383686,0.62552506
18304000,0.029247807,-0.06524134,-0.15361165,0.62552506
18308000,0.028688636,-0.06522842,-0.15339535,0.62552506
18312000,0.028106319,-0.06526653,-0.153182,0.62552506
18316000,0.03267382,-0.06517233,-0.15292749,0.6240998
18320000,0.03206599,-0.06515177,-0.15269111,0.6240998
18324000,0.03146049,-0.06513161,-0.15245582,0.6240998
18332000,0.030238666,-0.065027416,-0.15196684,0.6240998
18336000,0.029644478,-0.06498963,-0.15173213,0.6240998
18340000,0.034720186,-0.06493299,-0.1512036,0.622684
18344000,0.034163803,-0.06485604,-0.15114486,0.622684
18348000,0.033604376,-0.064782605,-0.15100017,0.622684
18356000,0.03243338,-0.06472814,-0.15054311,0.622684
18360000,0.031860735,-0.064706564,-0.15032087,0.622684
18364000,0.036191735,-0.064849645,-0.14916024,0.6213029
18368000,0.035639126,-0.06474724,-0.14909598,0.6213029
18372000,0.035066158,-0.06461769,-0.14902377,0.6213029
18380000,0.034030642,-0.0644875,-0.14891893,0.6213029
18384000,0.033503186,-0.064370155,-0.14885321,0.6213029
18388000,0.038079664,-0.06466398,-0.1469382,0.61995953
18392000,0.03749437,-0.06456835,-0.14687386,0.61995953
18396000,0.037076257,-0.06428966,-0.14738175,0.61995953
18400000,0.03648509,-0.06416471,-0.14731017,0.61995953
18404000,0.0358967,-0.06404112,-0.14723925,0.61995953
18412000,0.039434664,-0.06438579,-0.14546657,0.61895365
18416000,0.038850177,-0.0643559,-0.1454187,0.61895365
18420000,0.038239453,-0.06430664,-0.14536439,0.61895365
18424000,0.03763521,-0.06424957,-0.14530876,0.61895365
18428000,0.037009273,-0.06419281,-0.14525174,0.61895365
18432000,0.03640674,-0.06413193,-0.14519547,0.61895365
18436000,0.040803913,-0.0644994,-0.14335805,0.6179445
18440000,0.040229384,-0.06441815,-0.14329892,0.6179445
18444000,0.03969635,-0.064338356,-0.14324312,0.6179445
18448000,0.03916954,-0.064221814,-0.14317906,0.6179445
18452000,0.03856677,-0.06412679,-0.14311503,0.6179445
18456000,0.037920386,-0.06406396,-0.14305575,0.6179445
18460000,0.04181911,-0.06436112,-0.14137198,0.61694676
18464000,0.041196283,-0.064217106,-0.14129521,0.61694676
18468000,0.040554784,-0.06410228,-0.14122425,0.61694676
18476000,0.03934714,-0.063998386,-0.14111744,0.61694676
18480000,0.03877469,-0.06391564,-0.14105904,0.61694676
18484000,0.043054096,-0.064277865,-0.13926634,0.6159412
18488000,0.04243226,-0.064248085,-0.1392171,0.6159412
18492000,0.041910205,-0.064121515,-0.1394627,0.6159412
18496000,0.04132684,-0.06404621,-0.13940556,0.6159412
18500000,0.04073219,-0.0639141,-0.13933453,0.6159412
18508000,0.04378829,-0.06412852,-0.13770783,0.6151076
18516000,0.04256594,-0.06392867,-0.13757914,0.6151076
18520000,0.0419537,-0.06380182,-0.13750868,0.6151076
18524000,0.041327,-0.06370889,-0.13744523,0.6151076
18532000,0.044701852,-0.06403313,-0.13570672,0.61427325
18536000,0.04413417,-0.06393875,-0.13564709,0.61427325
18540000,0.04356652,-0.06383103,-0.13558446,0.61427325
18544000,0.042992804,-0.063714795,-0.1355196,0.61427325
18548000,0.04240885,-0.063603744,-0.13545538,0.61427325
18552000,0.041807476,-0.063533425,-0.13539943,0.61427325
18556000,0.04538689,-0.06382674,-0.13385776,0.61344475
18560000,0.04478326,-0.06370832,-0.13379078,0.61344475
18564000,0.044139292,-0.06361454,-0.13372691,0.61344475
18568000,0.043485165,-0.0634857,-0.13365448,0.61344475
18572000,0.042832952,-0.063343905,-0.13357942,0.61344475
18576000,0.042207986,-0.06324383,-0.13351575,0.61344475
18580000,0.04618498,-0.0635944,-0.13182862,0.6126117
18584000,0.045546025,-0.06352902,-0.13177203,0.6126117
18588000,0.044928484,-0.0634141,-0.13170572,0.6126117
18592000,0.044245,-0.06338282,-0.13151102,0.6126117
18600000,0.042968865,-0.06328066,-0.13140503,0.6126117
18604000,0.04636769,-0.06348729,-0.12989055,0.61169976
18608000,0.04571607,-0.06338073,-0.1298244,0.61169976
18612000,0.045077235,-0.06327496,-0.1297594,0.61169976
18616000,0.044440538,-0.06316584,-0.12969393,0.61169976
18620000,0.04380075,-0.06310308,-0.12963869,0.61169976
18624000,0.04314916,-0.063022226,-0.12957877,0.61169976
18628000,0.047027543,-0.06329018,-0.12791412,0.61076576
18632000,0.04641124,-0.06322017,-0.12785901,0.61076576
18636000,0.045798764,-0.06311082,-0.12779553,0.61076576
18640000,0.045170937,-0.06298209,-0.12772693,0.61076576
18644000,0.044508826,-0.06295185,-0.12767798,0.61076576
18648000,0.043858558,-0.06293711,-0.12763327,0.61076576
18652000,0.04711749,-0.063082814,-0.12618333,0.6098461
18656000,0.046489622,-0.06293213,-0.12611033,0.6098461
18660000,0.045843054,-0.06286835,-0.12605532,0.6098461
18668000,0.044579513,-0.062758476,-0.12595135,0.6098461
18672000,0.043914676,-0.0627138,-0.12589961,0.6098461
18676000,0.04757854,-0.0629618,-0.12430735,0.6089302
18684000,0.046287432,-0.06275894,-0.124182016,0.6089302
18688000,0.045628555,-0.062677756,-0.12412308,0.6089302
18692000,0.04502903,-0.06259496,-0.1243069,0.6089302
18700000,0.047516882,-0.06279708,-0.12285801,0.6081409
18704000,0.0468849,-0.06271639,-0.12280118,0.6081409
18708000,0.04626993,-0.06263175,-0.12274466,0.6081409
18712000,0.045635637,-0.06256944,-0.12269184,0.6081409
18716000,0.044947147,-0.06251093,-0.12263654,0.6081409
18720000,0.044243112,-0.062455773,-0.12258108,0.6081409
18724000,0.047637492,-0.06272192,-0.12107614,0.6073323
18728000,0.04695356,-0.062653154,-0.121019155,0.6073323
18732000,0.046329457,-0.06256566,-0.120961994,0.6073323
18736000,0.045673005,-0.06245481,-0.120898016,0.6073323
18740000,0.04498221,-0.062384587,-0.120840624,0.6073323
18748000,0.047136694,-0.062460795,-0.119480506,0.60651404
18752000,0.046448454,-0.062392645,-0.11942397,0.60651404
18756000,0.045803726,-0.062339664,-0.1193734,0.60651404
18760000,0.04516287,-0.062270112,-0.11931966,0.60651404
18764000,0.04450123,-0.062180005,-0.119260475,0.60651404
18768000,0.043837473,-0.062143676,-0.119212456,0.60651404
18772000,0.047157377,-0.06242411,-0.11775145,0.6056943
18780000,0.0458455,-0.06229849,-0.11764563,0.6056943
18784000,0.04517699,-0.062221315,-0.117589116,0.6056943
18788000,0.04454626,-0.062201507,-0.11754684,0.6056943
18792000,0.04392892,-0.062136248,-0.11763582,0.6056943
18796000,0.061567895,-0.06360294,-0.11115858,0.6049788
18800000,0.060905747,-0.06360751,-0.11111937,0.6049788
18804000,0.06021964,-0.063568205,-0.111069694,0.6049788
18808000,0.05957377,-0.063499525,-0.11101646,0.6049788
18812000,0.058927085,-0.06342015,-0.11096108,0.6049788
18816000,0.058236487,-0.06334473,-0.11090396,0.6049788
18820000,0.061411455,-0.063585,-0.10949054,0.6042414
18824000,0.060727753,-0.06352193,-0.10943652,0.6042414
18828000,0.060039915,-0.06345124,-0.10938075,0.6042414
18832000,0.059352145,-0.06342526,-0.10933421,0.6042414
18836000,0.058658943,-0.06338075,-0.10928361,0.6042414
18844000,0.060953088,-0.063513875,-0.107844085,0.60352296
18848000,0.060266837,-0.06346147,-0.10779254,0.60352296
18852000,0.059583187,-0.06342062,-0.10774356,0.60352296
18860000,0.05817639,-0.06334684,-0.107645035,0.60352296
18864000,0.057462856,-0.06328422,-0.107590124,0.60352296
18868000,0.060027316,-0.06348263,-0.106393665,0.60279363
18872000,0.059314437,-0.06342766,-0.10634047,0.60279363
18876000,0.058577266,-0.0633459,-0.10628059,0.60279363
18880000,0.057827167,-0.06330195,-0.10622756,0.60279363
18884000,0.057084367,-0.06325137,-0.106173724,0.60279363
18888000,0.056350738,-0.063178435,-0.10611613,0.60279363
18892000,0.059294626,-0.06328226,-0.105216295,0.6020502
18896000,0.05858556,-0.06325839,-0.105169944,0.6020502
18900000,0.05788491,-0.06323029,-0.105123304,0.6020502
18908000,0.05648943,-0.063064925,-0.10500931,0.6020502
18916000,0.05796714,-0.06320846,-0.10384634,0.60160404
18920000,0.057236746,-0.06320985,-0.10380401,0.60160404
18924000,0.056459405,-0.06317512,-0.103752,0.60160404
18928000,0.055709716,-0.06308838,-0.10369168,0.60160404
18932000,0.055005245,-0.063025445,-0.10363868,0.60160404
18940000,0.056940526,-0.063220695,-0.102360986,0.60112715
18944000,0.056177974,-0.06316776,-0.10230674,0.60112715
18948000,0.055433806,-0.063118525,-0.102254316,0.60112715
18952000,0.054705113,-0.063062795,-0.10220166,0.60112715
18956000,0.053993136,-0.06296714,-0.1021425,0.60112715
18960000,0.053261153,-0.06288033,-0.102083996,0.60112715
18964000,0.05522284,-0.06302156,-0.1010767,0.6006303
18968000,0.0545151,-0.06294987,-0.101022586,0.6006303
18976000,0.053071856,-0.06293185,-0.10093651,0.6006303
18980000,0.052330114,-0.062909685,-0.100889936,0.6006303
18984000,0.05158528,-0.06284147,-0.10083469,0.6006303
18988000,0.05405923,-0.06304219,-0.09965515,0.60012156
18992000,0.05329619,-0.06302537,-0.09947012,0.60012156
18996000,0.052592777,-0.062924534,-0.09941144,0.60012156
19000000,0.051873103,-0.06285247,-0.09935725,0.60012156
