timestamp,control[0],control[1],control[2],control[3],control[4]
13000000,0.028245965,0.026027186,-0.005569847,0.15,0
13004000,0.028974824,0.026191596,-0.005545138,0.15,0
13007999,0.029969271,0.026170202,-0.005554219,0.15,0
13012000,0.030804653,0.026021112,-0.005735457,0.15,0
13016000,0.031177463,0.02586068,-0.005922389,0.15,0
13020000,0.030488977,0.025718143,-0.005959513,0.15,0
13024000,0.029327279,0.025842559,-0.005864489,0.15,0
13027999,0.028818902,0.02615115,-0.005728664,0.15,0
13032000,0.028589215,0.026149822,-0.005585466,0.15,0
13036000,0.028549952,0.025848363,-0.005393741,0.15,0
13044000,0.029887648,0.025832096,-0.00513669,0.15,0
13048000,0.029387603,0.02611063,-0.005252569,0.15,0
13052000,0.02800864,0.026365481,-0.005377834,0.15,0
13056000,0.027268969,0.026461696,-0.005410028,0.15,0
13059999,0.02770093,0.026389081,-0.00546113,0.15,0
13064000,0.028624646,0.026336676,-0.005596032,0.15,0
13068000,0.029413909,0.026306206,-0.005643614,0.15,0
13071999,0.029318862,0.026209146,-0.005577758,0.15,0
13076000,0.028045217,0.025955519,-0.005467523,0.15,0
13080000,0.026949836,0.02564753,-0.005348432,0.15,0
13084000,0.027243996,0.025473826,-0.005233746,0.15,0
13088000,0.02890451,0.025564268,-0.005207252,0.15,0
13091999,0.030423176,0.025775747,-0.005314667,0.15,0
13096000,0.03048808,0.025916627,-0.005505886,0.15,0
13100000,0.030466205,0.025914183,-0.005506496,0.15,0
13103999,0.028469434,0.025933852,-0.005661239,0.15,0
13108000,0.028437987,0.025944319,-0.00563092,0.15,0
13112000,0.02963274,0.02597476,-0.005483599,0.15,0
13116000,0.030600067,0.025901204,-0.005436568,0.15,0
13120000,0.030643675,0.025878161,-0.005554968,0.15,0
13123999,0.031073624,0.02604932,-0.005611529,0.15,0
13132000,0.031741742,0.02626548,-0.005669501,0.15,0
13135999,0.031001598,0.02615752,-0.005642308,0.15,0
13140000,0.030664582,0.02613622,-0.005585389,0.15,0
13144000,0.030224815,0.026328847,-0.005554339,0.15,0
13148000,0.030355483,0.026573554,-0.005457423,0.15,0
13152000,0.030997146,0.0266169,-0.005378774,0.15,0
13155999,0.031309947,0.02651868,-0.005406304,0.15,0
13160000,0.03079139,0.026370337,-0.005466964,0.15,0
13164000,0.029654117,0.026044456,-0.005455027,0.15,0
13168000,0.02878699,0.025798844,-0.005491595,0.15,0
13172000,0.028466616,0.025815567,-0.005659775,0.15,0
13176000,0.028880406,0.025796613,-0.0056406,0.15,0
13180000,0.029648723,0.025634358,-0.005256006,0.15,0
13184000,0.029836701,0.025518738,-0.004930154,0.15,0
13187999,0.029940138,0.025631346,-0.004943553,0.15,0
13192000,0.030333806,0.02582515,-0.005128782,0.15,0
13196000,0.030439222,0.025812415,-0.005331409,0.15,0
13200000,0.030228598,0.025719043,-0.005523507,0.15,0
13204000,0.029969998,0.02572583,-0.005709834,0.15,0
13207999,0.029527696,0.02581972,-0.005658971,0.15,0
13212000,0.029159138,0.025997696,-0.005458825,0.15,0
13219999,0.029804962,0.026705304,-0.005387249,0.15,0
13224000,0.030017328,0.026822632,-0.005297427,0.15,0
13228000,0.030118586,0.02646662,-0.005135086,0.15,0
13232000,0.02978926,0.026051026,-0.005049503,0.15,0
13236000,0.029726025,0.025853718,-0.005211998,0.15,0
13240000,0.030475091,0.02588711,-0.005465779,0.15,0
13244000,0.030809667,0.025916532,-0.005583845,0.15,0
13248000,0.030505672,0.02580423,-0.005653151,0.15,0
13251999,0.030290691,0.025765419,-0.005686275,0.15,0
13256000,0.03050278,0.025744032,-0.005612308,0.15,0
13260000,0.030977309,0.025641017,-0.005643625,0.15,0
13268000,0.030046204,0.02532803,-0.005900218,0.15,0
13271999,0.030018035,0.025303356,-0.005723999,0.15,0
13276000,0.03029518,0.025633665,-0.005554395,0.15,0
13283999,0.020655306,0.02620302,0.000575132,0,0
13288000,0.020058254,0.025976833,-0.000171175,0,0
13292000,0.019701716,0.025810264,-0.000224892,0,0
13296000,0.02002985,0.025941685,0.000660416,0,0
13300000,0.021066757,0.026036695,0.001058814,0,0
13308000,0.022458937,0.026004972,-0.000793406,1,0
13315999,0.020091066,0.025456581,-0.001423306,1,0
13320000,0.019721813,0.025309037,2.40E-05,1,0
13324000,0.020652782,0.025433661,0.001331426,1,0
13328000,0.022253105,0.02567562,0.001814302,1,0
13332000,0.022303538,0.025673695,0.00177842,1,0
13335999,0.024603188,0.025976963,0.000555726,1,0
13340000,0.02298438,0.026000611,0.00025096,1,0
13344000,0.021246674,0.02586061,7.10E-05,1,0
13347999,0.020515433,0.025796097,-8.35E-05,1,0
13352000,0.019906644,0.025805263,-0.000259004,1,0
13356000,0.019062644,0.025682252,-0.000727923,1,0
13364000,0.018663697,0.025440695,-0.001783926,1,0
13372000,0.020679768,0.025465798,-0.002155159,1,0
13376000,0.022838477,0.025659146,-0.001764064,1,0
13379999,0.02283583,0.02566911,-0.001765403,1,0
13384000,0.02271447,0.025921753,-0.000602906,1,0
13388000,0.022023346,0.025680026,4.34E-05,1,0
13392000,0.021517852,0.025366971,0.000425099,1,0
13396000,0.020996654,0.025282297,0.000411896,1,0
13399999,0.02003023,0.025350532,0.000438678,1,0
13404000,0.019519646,0.025349244,0.000607944,1,0
13408000,0.019822631,0.025116416,0.000397011,1,0
13411999,0.020226946,0.024834977,-0.000365195,1,0
13416000,0.020618033,0.024746774,-0.001663671,1,0
13420000,0.021077158,0.02483886,-0.00252352,1,0
13424000,0.021253679,0.025193365,-0.001948247,1,0
13428000,0.021062806,0.025646307,-0.001157001,1,0
13431999,0.021020276,0.025812967,-0.000668094,1,0
13436000,0.021282738,0.02573537,6.58E-05,1,0
13440000,0.02179568,0.025719961,0.000557385,1,0
13443999,0.022357939,0.025742661,0.00090974,1,0
13448000,0.022198,0.02560242,0.001217316,1,0
13452000,0.021341393,0.025407413,0.000891573,1,0
13456000,0.020576406,0.025245208,0.000385965,1,0
13463999,0.02010777,0.025016824,0.002379408,1,0
13468000,0.020610493,0.025058057,0.002945865,1,0
13472000,0.02115209,0.025132557,0.002367486,1,0
13476000,0.021353308,0.025200134,0.001239448,1,0
13480000,0.021101993,0.025083097,9.20E-05,1,0
13484000,0.021020317,0.024869265,0.000156945,1,0
13488000,0.020854516,0.02502118,0.000880638,1,0
13492000,0.020827055,0.025051398,0.000958447,1,0
13496000,0.019584103,0.02565222,0.001403328,1,0
13500000,0.020431561,0.02518553,0.000895083,1,0
13504000,0.02089647,0.024651738,9.03E-05,1,0
13508000,0.02031757,0.024672348,-0.000567887,1,0
13516000,0.020230165,0.024989227,2.14E-05,1,0
13520000,0.020446949,0.025055146,0.0008465,1,0
13524000,0.019947372,0.025341434,0.001610117,1,0
13532000,0.019168884,0.025399845,0.001803461,1,0
13536000,0.020108817,0.02503722,0.00115059,1,0
13540000,0.021284899,0.024858322,0.000482763,1,0
13544000,0.021916343,0.02493952,0.00015092,1,0
13548000,0.022007532,0.025082015,0.000255758,1,0
13552000,0.021442065,0.024991378,0.000366054,1,0
13556000,0.021422716,0.024971314,0.000344213,1,0
13560000,0.019774916,0.024802396,0.000378225,1,0
13564000,0.020179015,0.024791537,0.000711161,1,0
13568000,0.02045466,0.024786837,0.000762949,1,0
13572000,0.020595638,0.024744257,0.000319103,1,0
13576000,0.020777002,0.024519661,-9.11E-05,1,0
13580000,0.020608608,0.024426097,-6.35E-05,1,0
13584000,0.020247681,0.02464011,0.000187151,1,0
13588000,0.020151652,0.02490122,0.000317482,1,0
13592000,0.020449849,0.02501502,0.000367388,1,0
13596000,0.021026682,0.024916166,0.000749669,1,0
13600000,0.021398978,0.024686344,0.001042086,1,0
13604000,0.021025607,0.024480864,0.000892807,1,0
13608000,0.019949581,0.024395462,0.000694908,1,0
13612000,0.018605145,0.02443095,0.00080815,1,0
13616000,0.017833231,0.02449448,0.000844141,1,0
13620000,0.018550871,0.02465997,0.000761598,1,0
13624000,0.020022258,0.024908185,0.000779074,1,0
13632000,0.020723728,0.024887865,0.000950536,1,0
13636000,0.020432819,0.024351496,0.000913987,1,0
13640000,0.019857226,0.02403945,0.000881968,1,0
13644000,0.019652689,0.02394363,0.000931743,1,0
13648000,0.019771459,0.024075175,0.001005825,1,0
13652000,0.019598527,0.024307681,0.001188048,1,0
13656000,0.018976413,0.02450703,0.001440329,1,0
13660000,0.018161878,0.024727862,0.001671917,1,0
13668000,0.017910108,0.025116889,0.00135406,1,0
13672000,0.019306436,0.025213823,0.001277916,1,0
13676000,0.021106476,0.024978913,0.001111853,1,0
13680000,0.022133816,0.024849461,0.000763705,1,0
13684000,0.022538714,0.025029914,0.000672265,1,0
13692000,0.013759536,0.01811655,0.001209794,1,0
13700000,0.012912583,0.017925683,0.00167736,1,0
13704000,0.011967656,0.017704822,0.001762835,1,0
13712000,0.012631794,0.017618062,0.001639512,1,0
13716000,0.014178564,-0.31869325,0.001188387,1,0
13720000,0.013831391,-0.31860578,0.000962785,1,0
13724000,0.013853526,-0.3187452,0.000984102,1,0
13728000,0.013004522,-0.3189575,0.000619479,1,0
13732000,0.013028857,-0.31911588,0.000433826,1,0
13736000,0.013076099,-0.3195906,-0.001611511,1,0
13740000,0.013172353,-0.30372348,-0.003539565,1,0
13744000,0.012985776,-0.30387062,-0.005702439,1,0
13748000,0.012581241,-0.30389848,-0.008344004,1,0
13752000,0.012147502,-0.3039424,-0.010937815,1,0
13756000,0.011589677,-0.30403402,-0.01367759,1,0
13760000,0.010918973,-0.30402958,-0.016019687,1,0
13764000,0.01091614,-0.28901806,-0.017219001,1,0
13768000,0.009663343,-0.28879917,-0.020994991,1,0
13772000,0.008555309,-0.2888396,-0.023677416,1,0
13776000,0.007125249,-0.28893197,-0.025752764,1,0
13780000,0.005699452,-0.2889732,-0.028287463,1,0
13784000,0.004028972,-0.28887156,-0.030264119,1,0
13788000,0.001955739,-0.2310767,-0.032819487,1,0
13792000,0.000113246,-0.23106778,-0.03460154,1,0
13796000,-0.001395334,-0.2311404,-0.03692846,1,0
13800000,-0.002658644,-0.23128675,-0.038536027,1,0
13804000,-0.003893334,-0.23147744,-0.040921696,1,0
13808000,-0.005409021,-0.23162809,-0.04260908,1,0
13812000,-0.007258205,-0.2204547,-0.04503355,1,0
13816000,-0.00893243,-0.22054857,-0.04661787,1,0
13820000,-0.010258776,-0.220733,-0.048903804,1,0
13828000,-0.012022376,-0.22106557,-0.052195378,1,0
13832000,-0.01548229,-0.22156298,-0.05376661,1,0
13836000,-0.017851984,-0.21128346,-0.055662878,1,0
13840000,-0.020277813,-0.21148986,-0.056340035,1,0
13844000,-0.02247848,-0.21167055,-0.057789706,1,0
13848000,-0.02493104,-0.21184807,-0.0585,1,0
13852000,-0.027439086,-0.21194689,-0.06012161,1,0
13856000,-0.029633822,-0.21198039,-0.06080781,1,0
13860000,-0.031464547,-0.20193584,-0.06223993,1,0
13864000,-0.03325654,-0.20207343,-0.06264781,1,0
13868000,-0.035296857,-0.20227201,-0.06392735,1,0
13872000,-0.03754446,-0.20237887,-0.06421771,1,0
13876000,-0.039974865,-0.20240048,-0.06515701,1,0
13880000,-0.042278245,-0.20247279,-0.06513648,1,0
13884000,-0.044254743,-0.19298989,-0.06582579,1,0
13888000,-0.037045296,-0.17171285,-0.06551887,1,0
13892000,-0.037509076,-0.17185558,-0.06659334,1,0
13896000,-0.040242814,-0.17199081,-0.06532091,1,0
13900000,-0.04190425,-0.171989,-0.06549779,1,0
13904000,-0.04375596,-0.17204966,-0.06483816,1,0
13908000,-0.045822263,-0.16407458,-0.06492525,1,0
13916000,-0.05009249,-0.16451019,-0.06421882,1,0
13920000,-0.05223338,-0.16478069,-0.06326216,1,0
13924000,-0.05406608,-0.16507109,-0.06288855,1,0
13928000,-0.055515002,-0.1651877,-0.06177423,1,0
13932000,-0.056986243,-0.1573899,-0.061417893,1,0
13936000,-0.05761355,-0.15752336,-0.061115686,1,0
13940000,-0.059567247,-0.15746677,-0.06012053,1,0
13944000,-0.060790293,-0.15745582,-0.05905997,1,0
13948000,-0.062305916,-0.15750714,-0.058599886,1,0
13956000,-0.06525434,-0.15014262,-0.05698207,1,0
13960000,-0.066354714,-0.1501101,-0.05574535,1,0
13964000,-0.06750823,-0.15001203,-0.05504563,1,0
13972000,-0.06952377,-0.14992823,-0.05312366,1,0
13976000,-0.07008516,-0.14990702,-0.05184062,1,0
13980000,-0.0709186,-0.14258796,-0.051014062,1,0
13984000,-0.071915634,-0.14237879,-0.04976559,1,0
13988000,-0.06194407,-0.13013773,-0.04886748,1,0
13992000,-0.062591225,-0.13000691,-0.047481246,1,0
13996000,-0.063462876,-0.12994742,-0.046363354,1,0
14004000,-0.06510057,-0.12346983,-0.044258542,1,0
14008000,-0.065574646,-0.12317069,-0.042294458,1,0
14012000,-0.065795004,-0.12292309,-0.041232985,1,0
14016000,-0.06609632,-0.12269022,-0.039857913,1,0
14020000,-0.06672169,-0.12262032,-0.03913512,1,0
14024000,-0.06755249,-0.12240195,-0.03728065,1,0
14028000,-0.068366416,-0.11608695,-0.036039885,1,0
14032000,-0.068795115,-0.11590928,-0.034572322,1,0
14036000,-0.069076434,-0.1157276,-0.033347007,1,0
14040000,-0.06973009,-0.115476646,-0.03181699,1,0
14044000,-0.07062786,-0.115198,-0.030406643,1,0
14052000,-0.071574755,-0.10893787,-0.027525365,1,0
14056000,-0.07155533,-0.10882502,-0.026154656,1,0
14060000,-0.071689114,-0.10874754,-0.02498385,1,0
14068000,-0.07262353,-0.108524896,-0.022452243,1,0
14076000,-0.07242022,-0.10251131,-0.019915197,1,0
14080000,-0.07266541,-0.10244355,-0.018477216,1,0
14084000,-0.07315333,-0.102367714,-0.017131804,1,0
14088000,-0.06639613,-0.09666097,-0.015743533,1,0
14092000,-0.06691025,-0.096590176,-0.014583472,1,0
14096000,-0.06646704,-0.096621126,-0.013150269,1,0
14100000,-0.06660412,-0.09132655,-0.011807906,1,0
14104000,-0.0668515,-0.091291204,-0.010485237,1,0
14108000,-0.067027815,-0.091246,-0.00935868,1,0
14116000,-0.06713752,-0.09126944,-0.006894169,1,0
14124000,-0.06781585,-0.0861356,-0.004404247,1,0
14128000,-0.06742903,-0.08638989,-0.003144863,1,0
14132000,-0.06735863,-0.08650534,-0.002022529,1,0
14136000,-0.06752465,-0.08655732,-0.000934215,1,0
14140000,-0.067923,-0.086645745,0.000115311,1,0
14144000,-0.06825272,-0.086818695,0.001040739,1,0
14148000,-0.068344325,-0.08192961,0.002035907,1,0
14152000,-0.06839653,-0.08210603,0.003155924,1,0
14156000,-0.06852222,-0.08226022,0.004326338,1,0
14160000,-0.06896266,-0.08232585,0.005381793,1,0
14164000,-0.06844911,-0.082563505,0.006384011,1,0
14172000,-0.06870661,-0.07796998,0.008193534,1,0
14176000,-0.06899912,-0.078235574,0.00907875,1,0
14180000,-0.06916922,-0.07857626,0.010001787,1,0
14188000,-0.06984934,-0.07925065,0.011672228,1,0
14192000,-0.06993648,-0.079453886,0.012345449,1,0
14196000,-0.069852106,-0.074823655,0.01312688,1,0
14200000,-0.06993696,-0.07511091,0.013892912,1,0
14204000,-0.070048325,-0.07542825,0.014712884,1,0
14208000,-0.07007984,-0.075803325,0.015387481,1,0
14212000,-0.07048339,-0.076044716,0.016230974,1,0
14216000,-0.0704163,-0.07671843,0.016484395,1,0
14220000,-0.070356876,-0.072091885,0.016535323,1,0
14224000,-0.07031902,-0.071789555,0.015814273,1,0
14228000,-0.07047757,-0.07131652,0.014851019,1,0
14232000,-0.07067082,-0.07095882,0.014019795,1,0
14240000,-0.07074344,-0.070867576,0.013249371,1,0
14244000,-0.071115166,-0.06620128,0.013481968,1,0
14248000,-0.071282454,-0.06642947,0.012881952,1,0
14252000,-0.07160297,-0.06659169,0.012679152,1,0
14260000,-0.07226787,-0.06686326,0.012173258,1,0
14264000,-0.07252083,-0.06699227,0.011698014,1,0
14268000,-0.07268018,-0.062422514,0.011150993,1,0
14276000,-0.072854765,-0.06248962,0.010070293,1,0
14280000,-0.072987966,-0.06264578,0.009301534,1,0
14284000,-0.07335118,-0.06271581,0.009048349,1,0
14288000,-0.07405806,-0.06297435,0.007656293,1,0
14292000,-0.074530505,-0.058447734,0.006988587,1,0
14296000,-0.074653305,-0.058544617,0.006285014,1,0
14300000,-0.07471984,-0.058682643,0.005589393,1,0
14304000,-0.07492545,-0.058832385,0.004923618,1,0
14308000,-0.07520474,-0.05900425,0.004302348,1,0
14312000,-0.07556666,-0.059184745,0.003622127,1,0
14316000,-0.07583069,-0.05488711,0.002863912,1,0
14324000,-0.07615305,-0.05536767,0.001567864,1,0
14332000,-0.07625331,-0.056044493,0.00010555,1,0
14340000,-0.076638006,-0.052506506,-0.001371309,1,0
14344000,-0.07681691,-0.052951775,-0.002009697,1,0
14348000,-0.07710009,-0.053497884,-0.002652922,1,0
14352000,-0.07746559,-0.054131433,-0.003267031,1,0
14356000,-0.077819645,-0.054760676,-0.003855642,1,0
14360000,-0.07809683,-0.055381313,-0.004341095,1,0
14364000,-0.078286536,-0.051605295,-0.004737785,1,0
14372000,-0.078582965,-0.052692395,-0.005658547,1,0
14376000,-0.07797333,-0.05359944,-0.006022561,1,0
14380000,-0.078281865,-0.054084424,-0.006577693,1,0
14384000,-0.07827398,-0.055158075,-0.006968913,1,0
14388000,-0.07865546,-0.051514573,-0.007387662,1,0
14392000,-0.07903188,-0.05230494,-0.007798949,1,0
14400000,-0.07941747,-0.053907227,-0.008785518,1,0
14404000,-0.07943605,-0.05472993,-0.0092186,1,0
14408000,-0.07936238,-0.055504844,-0.009537105,1,0
14412000,-0.07940811,-0.05186373,-0.0097817,1,0
14416000,-0.079594076,-0.052671596,-0.009909579,1,0
14420000,-0.07975151,-0.053561397,-0.010085887,1,0
14424000,-0.07983155,-0.05439961,-0.010356901,1,0
14428000,-0.07978524,-0.055136804,-0.010719786,1,0
14432000,-0.0795836,-0.055846855,-0.011062682,1,0
14436000,-0.079437554,-0.052309662,-0.011428321,1,0
14440000,-0.07958584,-0.053180233,-0.011771349,1,0
14444000,-0.079823144,-0.053999584,-0.012057599,1,0
14448000,-0.08007604,-0.05478774,-0.012163394,1,0
14452000,-0.080363445,-0.055608906,-0.01219851,1,0
14456000,-0.080436565,-0.05646295,-0.012233851,1,0
14460000,-0.08070534,-0.052915152,-0.012556061,1,0
14464000,-0.08040535,-0.05381794,-0.012498855,1,0
14468000,-0.08066459,-0.05457283,-0.012809841,1,0
14472000,-0.08031978,-0.05534442,-0.01286328,1,0
14476000,-0.08033463,-0.056109052,-0.012974813,1,0
14484000,-0.08028521,-0.05337354,-0.013140754,1,0
14488000,-0.08022942,-0.054132067,-0.013115838,1,0
14492000,-0.08022275,-0.054882176,-0.013090128,1,0
14496000,-0.080310956,-0.055631593,-0.013090275,1,0
14500000,-0.08055735,-0.056392964,-0.013149321,1,0
14504000,-0.08071636,-0.057162765,-0.013181044,1,0
14508000,-0.080622435,-0.053704172,-0.013205872,1,0
14512000,-0.08036962,-0.054508932,-0.013208909,1,0
14516000,-0.08013179,-0.055244856,-0.01323266,1,0
14520000,-0.0802513,-0.05595698,-0.013262598,1,0
14524000,-0.08065691,-0.05666843,-0.013312832,1,0
14528000,-0.08095366,-0.057358824,-0.013272596,1,0
14532000,-0.081079245,-0.053772688,-0.013144011,1,0
14536000,-0.08100331,-0.054393385,-0.01296817,1,0
14540000,-0.080779485,-0.054993533,-0.012899222,1,0
14544000,-0.080657005,-0.05558003,-0.012896726,1,0
14548000,-0.080652915,-0.056197315,-0.012924776,1,0
14552000,-0.080753446,-0.05685175,-0.012918035,1,0
14560000,-0.08097776,-0.053856373,-0.012776488,1,0
14564000,-0.08100579,-0.054363094,-0.012618029,1,0
14572000,-0.0811362,-0.055440266,-0.012483124,1,0
14576000,-0.08100082,-0.056086328,-0.012480592,1,0
14580000,-0.080695845,-0.05245818,-0.012470462,1,0
14588000,-0.08039912,-0.053399242,-0.012253712,1,0
14592000,-0.080491595,-0.053870548,-0.012125606,1,0
14596000,-0.080753155,-0.05442899,-0.012013445,1,0
14600000,-0.08106431,-0.055004478,-0.011947089,1,0
14604000,-0.081245005,-0.051390667,-0.011924632,1,0
14608000,-0.08125629,-0.051865853,-0.01192838,1,0
14612000,-0.08117007,-0.052344106,-0.011905503,1,0
14616000,-0.08101263,-0.05277005,-0.011916926,1,0
14620000,-0.08077208,-0.053159595,-0.011937093,1,0
14624000,-0.0805413,-0.053519413,-0.011932732,1,0
14628000,-0.08027986,-0.049721383,-0.012003674,1,0
14632000,-0.0799689,-0.050239623,-0.01207977,1,0
14636000,-0.079766296,-0.050786927,-0.012075546,1,0
14640000,-0.07988592,-0.05128248,-0.012002617,1,0
14644000,-0.08040373,-0.0517543,-0.011909965,1,0
14648000,-0.08099701,-0.052184485,-0.011877473,1,0
14652000,-0.08133353,-0.04837401,-0.011961094,1,0
14656000,-0.08153323,-0.04875545,-0.012045089,1,0
14660000,-0.08176834,-0.049131628,-0.012125501,1,0
14664000,-0.081846714,-0.04952341,-0.012240758,1,0
14668000,-0.081668265,-0.04996407,-0.012396319,1,0
14672000,-0.08156404,-0.050428666,-0.012515007,1,0
14676000,-0.08149305,-0.046688758,-0.012623372,1,0
14684000,-0.08148391,-0.047513075,-0.012981235,1,0
14688000,-0.0816319,-0.047952756,-0.013047747,1,0
14692000,-0.08168983,-0.048303116,-0.013335737,1,0
14696000,-0.08187081,-0.048748393,-0.013538411,1,0
14700000,-0.08210576,-0.044959866,-0.013730484,1,0
14704000,-0.08227046,-0.045354772,-0.013932867,1,0
14708000,-0.08221444,-0.045736425,-0.014150413,1,0
14712000,-0.08221905,-0.046058863,-0.014334021,1,0
14716000,-0.08249482,-0.04639553,-0.014532277,1,0
14720000,-0.082823455,-0.04675127,-0.014765877,1,0
14724000,-0.08296562,-0.04293079,-0.015007356,1,0
14728000,-0.08277378,-0.043373846,-0.015214659,1,0
14732000,-0.0823979,-0.043857805,-0.015421939,1,0
14736000,-0.08220991,-0.0443385,-0.015644714,1,0
14740000,-0.082357585,-0.044783957,-0.015915994,1,0
14744000,-0.08254447,-0.04516425,-0.016234709,1,0
14748000,-0.0825149,-0.04130108,-0.016596437,1,0
14752000,-0.08240506,-0.04163066,-0.016967013,1,0
14756000,-0.08240724,-0.04200979,-0.017325105,1,0
14760000,-0.08258957,-0.042444356,-0.017613502,1,0
14764000,-0.082831524,-0.04291828,-0.017901156,1,0
14768000,-0.083021656,-0.043407407,-0.018258428,1,0
14772000,-0.08313785,-0.039664872,-0.018639078,1,0
14780000,-0.082972996,-0.040514477,-0.01925073,1,0
14788000,-0.0828049,-0.041301943,-0.020077465,1,0
14792000,-0.08282176,-0.041706793,-0.020495128,1,0
14796000,-0.082947664,-0.037908103,-0.020819515,1,0
14800000,-0.082745336,-0.03838723,-0.021334853,1,0
14804000,-0.08259025,-0.038914517,-0.021794248,1,0
14808000,-0.08262317,-0.03943117,-0.022214074,1,0
14812000,-0.0828227,-0.039870575,-0.022666883,1,0
14820000,-0.083126,-0.03644804,-0.023547169,1,0
14824000,-0.08332687,-0.0368571,-0.024176287,1,0
14828000,-0.08361762,-0.03734155,-0.024688585,1,0
14832000,-0.08401744,-0.037815973,-0.025212929,1,0
14836000,-0.08432348,-0.038239047,-0.025694668,1,0
14840000,-0.084327534,-0.038638506,-0.026101965,1,0
14844000,-0.08404793,-0.034873143,-0.026528087,1,0
14848000,-0.08370775,-0.03538117,-0.026973132,1,0
14852000,-0.08366463,-0.035917744,-0.027393471,1,0
14856000,-0.08398023,-0.03647279,-0.02780174,1,0
14860000,-0.08411065,-0.036909275,-0.028253729,1,0
14868000,-0.08396793,-0.033512317,-0.029494349,1,0
14872000,-0.0836142,-0.03401559,-0.029936358,1,0
14876000,-0.08360343,-0.034551866,-0.030294301,1,0
14880000,-0.083827324,-0.035043836,-0.030653767,1,0
14884000,-0.084035344,-0.035518322,-0.031038973,1,0
14888000,-0.08421586,-0.03602297,-0.031452224,1,0
14892000,-0.08442858,-0.032299697,-0.03193368,1,0
14896000,-0.08463007,-0.03283275,-0.032449387,1,0
14900000,-0.08473597,-0.033399533,-0.032969646,1,0
14908000,-0.08441949,-0.034498315,-0.034046054,1,0
14912000,-0.08433359,-0.035013534,-0.034500804,1,0
14916000,-0.08444446,-0.031212928,-0.034909733,1,0
14920000,-0.08455621,-0.03165185,-0.035332978,1,0
14924000,-0.08458445,-0.032156102,-0.035824046,1,0
14928000,-0.08464762,-0.032706566,-0.03634491,1,0
14932000,-0.08473346,-0.033252902,-0.03680602,1,0
14936000,-0.08461692,-0.033760604,-0.037289232,1,0
14940000,-0.08471122,-0.029983763,-0.037758507,1,0
14944000,-0.08412978,-0.030424757,-0.03815435,1,0
14948000,-0.084520966,-0.030884251,-0.03855081,1,0
14952000,-0.08504584,-0.031412918,-0.039000347,1,0
14956000,-0.085181914,-0.032022286,-0.03939403,1,0
14960000,-0.08493914,-0.032614294,-0.03979019,1,0
14964000,-0.0846313,-0.028886832,-0.040232725,1,0
14968000,-0.08454259,-0.029423386,-0.040647652,1,0
14972000,-0.08473762,-0.02996152,-0.04100644,1,0
14976000,-0.08498071,-0.030442161,-0.041354556,1,0
14980000,-0.0852087,-0.030913569,-0.041693583,1,0
14984000,-0.08548371,-0.0314536,-0.042089675,1,0
14988000,-0.08568602,-0.02772672,-0.042556033,1,0
14992000,-0.085631736,-0.02828569,-0.043039825,1,0
14996000,-0.08542441,-0.028828034,-0.043419227,1,0
15000000,-0.08528567,-0.02935872,-0.043713354,1,0
15004000,-0.08533895,-0.02987463,-0.044033125,1,0
15008000,-0.085437775,-0.03036826,-0.044425637,1,0
15012000,-0.08532608,-0.026564918,-0.044814456,1,0
15016000,-0.08515968,-0.027070928,-0.045171477,1,0
15020000,-0.085257806,-0.027555486,-0.045430105,1,0
15024000,-0.08550442,-0.028011557,-0.04563562,1,0
15028000,-0.085584655,-0.028502762,-0.04589545,1,0
15032000,-0.085515924,-0.02903161,-0.046259366,1,0
15036000,-0.08560536,-0.02522608,-0.046624046,1,0
15044000,-0.08559847,-0.026223851,-0.047060892,1,0
15048000,-0.08562266,-0.026642438,-0.04698558,1,0
15052000,-0.085864685,-0.027150208,-0.04691332,1,0
15056000,-0.08606233,-0.027719624,-0.046834484,1,0
15060000,-0.08628297,-0.02395693,-0.046741873,1,0
15064000,-0.08656411,-0.024493929,-0.04669373,1,0
15072000,-0.08672741,-0.025523335,-0.046607852,1,0
15076000,-0.08639909,-0.026009308,-0.046629146,1,0
15080000,-0.08646617,-0.026517339,-0.046648853,1,0
15084000,-0.0858708,-0.022650074,-0.046675675,1,0
15088000,-0.085502185,-0.023150686,-0.046659857,1,0
15092000,-0.085819036,-0.023725238,-0.046478752,1,0
15096000,-0.08589804,-0.024255652,-0.046456605,1,0
15100000,-0.085960776,-0.024724541,-0.046468407,1,0
15104000,-0.08604238,-0.025164627,-0.046496212,1,0
15108000,-0.08611138,-0.021276224,-0.04652629,1,0
15112000,-0.08616524,-0.021737464,-0.046580188,1,0
15116000,-0.08605492,-0.022174729,-0.04656986,1,0
15120000,-0.0859858,-0.022620216,-0.04654202,1,0
15124000,-0.08615843,-0.023098841,-0.04652661,1,0
15128000,-0.08626494,-0.02361763,-0.046536252,1,0
15132000,-0.08615283,-0.019784823,-0.046519168,1,0
15136000,-0.08599948,-0.020292755,-0.04652948,1,0
15140000,-0.08599708,-0.020748904,-0.04648667,1,0
15144000,-0.085996106,-0.021222109,-0.046414673,1,0
15148000,-0.08591004,-0.021747064,-0.04633568,1,0
15156000,-0.08619034,-0.01837539,-0.046320632,1,0
15160000,-0.086323425,-0.018827006,-0.046378274,1,0
15164000,-0.08646504,-0.019269725,-0.046385027,1,0
15168000,-0.08653452,-0.01968623,-0.046403356,1,0
15172000,-0.08642735,-0.020114008,-0.04642775,1,0
15176000,-0.08632531,-0.020571262,-0.046472453,1,0
15180000,-0.08637571,-0.016651358,-0.046452604,1,0
15188000,-0.08600038,-0.017655334,-0.04628282,1,0
15196000,-0.08631412,-0.018487338,-0.04623133,1,0
15200000,-0.086876355,-0.018935867,-0.04627543,1,0
15204000,-0.08713987,-0.014987195,-0.04632321,1,0
15208000,-0.08696737,-0.015445942,-0.04644794,1,0
15212000,-0.086602494,-0.015852565,-0.04653984,1,0
15216000,-0.086255684,-0.016262602,-0.046552893,1,0
15220000,-0.08627837,-0.01675891,-0.046476543,1,0
15224000,-0.08660831,-0.017293055,-0.046468884,1,0
15228000,-0.08688281,-0.013379322,-0.046492465,1,0
15236000,-0.08704299,-0.014352604,-0.046564937,1,0
15240000,-0.08649889,-0.014781919,-0.046710923,1,0
15244000,-0.086551234,-0.015250962,-0.04671482,1,0
15252000,-0.08628009,-0.011681978,-0.046786018,1,0
15256000,-0.086474136,-0.012140878,-0.046951804,1,0
15260000,-0.086761475,-0.012517181,-0.04697603,1,0
15264000,-0.08666103,-0.012870662,-0.046946727,1,0
15268000,-0.08652608,-0.013253749,-0.04697867,1,0
15276000,-0.086838335,-0.009801953,-0.046917677,1,0
15284000,-0.08731698,-0.01080213,-0.046948045,1,0
15288000,-0.08710973,-0.011302419,-0.04702407,1,0
15292000,-0.08695606,-0.011840006,-0.04706222,1,0
15296000,-0.08700364,-0.012347695,-0.047108196,1,0
15300000,-0.08700698,-0.008263524,-0.047156267,1,0
15304000,-0.08694188,-0.008588551,-0.04726568,1,0
15308000,-0.08700357,-0.009023014,-0.047269672,1,0
15312000,-0.08735982,-0.009267274,-0.047331937,1,0
15316000,-0.08762406,-0.009703602,-0.047295906,1,0
15320000,-0.08774298,-0.010225552,-0.047315717,1,0
15324000,-0.08781303,-0.006169133,-0.047319714,1,0
15328000,-0.08782676,-0.006751642,-0.04750002,1,0
15332000,-0.087667234,-0.007208638,-0.047584813,1,0
15336000,-0.08755483,-0.007643007,-0.04766639,1,0
15340000,-0.08773266,-0.008100248,-0.04770863,1,0
15348000,-0.087676406,-0.004600206,-0.04768352,1,0
15352000,-0.08754062,-0.005127171,-0.047727983,1,0
15356000,-0.08727956,-0.005613554,-0.047783174,1,0
15360000,-0.087121174,-0.006055843,-0.04785669,1,0
15364000,-0.087180495,-0.006520094,-0.047860786,1,0
15372000,-0.08740687,-0.002873983,-0.0478238,1,0
15376000,-0.087739654,-0.003322069,-0.047854174,1,0
15380000,-0.08801149,-0.00380447,-0.04785767,1,0
15384000,-0.08828391,-0.00433646,-0.04785116,1,0
15388000,-0.0886342,-0.004859043,-0.04782039,1,0
15392000,-0.08870355,-0.005313098,-0.047853358,1,0
15396000,-0.08889659,-0.001193252,-0.048031464,1,0
15400000,-0.088940024,-0.001663348,-0.04821815,1,0
15404000,-0.088841215,-0.002105983,-0.048327185,1,0
15408000,-0.08869169,-0.002533313,-0.048400346,1,0
15412000,-0.088634945,-0.002972934,-0.048376024,1,0
15416000,-0.08849438,-0.003431413,-0.04836063,1,0
15420000,-0.088301934,0.000625035,-0.04835664,1,0
15424000,-0.08826296,7.34E-05,-0.048402525,1,0
15428000,-0.088380694,-0.000425972,-0.048422277,1,0
15432000,-0.088652454,-0.000839844,-0.048482757,1,0
15436000,-0.0888636,-0.001224395,-0.048543863,1,0
15440000,-0.08879735,-0.001666322,-0.04864557,1,0
15444000,-0.08863339,0.002423991,-0.048654243,1,0
15452000,-0.08862744,0.001457132,-0.04866416,1,0
15460000,-0.08901857,0.000516355,-0.04870075,1,0
15464000,-0.088913046,0.000187198,-0.04867187,1,0
15468000,-0.088882916,0.00433735,-0.0486976,1,0
15472000,-0.08892967,0.003795032,-0.048795525,1,0
15476000,-0.08899397,0.003332671,-0.048799783,1,0
15484000,-0.08911507,0.002342556,-0.048904978,1,0
15488000,-0.08895051,0.001817519,-0.048911016,1,0
15492000,-0.08870171,0.005896188,-0.0488564,1,0
15496000,-0.08867533,0.005362282,-0.048816264,1,0
15500000,-0.08890557,0.004824728,-0.04874692,1,0
15504000,-0.08902904,0.004291425,-0.048779167,1,0
15508000,-0.08896651,0.003743136,-0.048812516,1,0
15512000,-0.088980116,0.003232298,-0.04882712,1,0
15516000,-0.08908802,0.007426143,-0.048778735,1,0
15524000,-0.08930484,0.006596819,-0.04881215,1,0
15528000,-0.08953214,0.006254178,-0.04903709,1,0
15532000,-0.089600876,0.005766753,-0.049041383,1,0
15536000,-0.08973431,0.005134748,-0.04910326,1,0
15540000,-0.08979402,0.00922196,-0.04908219,1,0
15548000,-0.08963802,0.008142483,-0.049079,1,0
15552000,-0.08977831,0.007662257,-0.049054705,1,0
15556000,-0.08985137,0.007172622,-0.04905899,1,0
15560000,-0.09037571,0.006683508,-0.04903925,1,0
15564000,-0.09040244,0.010821724,-0.04905741,1,0
15568000,-0.090349644,0.010361195,-0.04912246,1,0
15572000,-0.09035655,0.009862429,-0.049188636,1,0
15576000,-0.090407625,0.009317314,-0.049290862,1,0
15580000,-0.09030902,0.008840811,-0.04927381,1,0
15584000,-0.089858785,0.008422021,-0.04924865,1,0
15588000,-0.08941279,0.012617935,-0.049227186,1,0
15596000,-0.08967127,0.011638513,-0.049172215,1,0
15604000,-0.09001762,0.010627216,-0.04913816,1,0
15612000,-0.09012465,0.01423707,-0.049011767,1,0
15616000,-0.09017574,0.013689835,-0.04893176,1,0
15620000,-0.09013699,0.013206039,-0.048918676,1,0
15624000,-0.090239026,0.01270856,-0.048934605,1,0
15628000,-0.090432405,0.012186334,-0.048895285,1,0
15632000,-0.09045363,0.01164807,-0.048933454,1,0
15636000,-0.09034497,0.015781254,-0.048992634,1,0
15640000,-0.090247184,0.015232753,-0.049118206,1,0
15644000,-0.09016989,0.014722951,-0.049183663,1,0
15648000,-0.090208896,0.014228649,-0.049211152,1,0
15652000,-0.09024349,0.013709834,-0.049140144,1,0
15660000,-0.09035112,0.01748696,-0.04909853,1,0
15664000,-0.090459265,0.01702656,-0.04914186,1,0
15672000,-0.09061911,0.016021205,-0.04924053,1,0
15676000,-0.090629704,0.015493441,-0.049325876,1,0
15684000,-0.09041357,0.019253349,-0.049336523,1,0
15692000,-0.0902988,0.018234698,-0.049347688,1,0
15700000,-0.091230914,0.017007856,-0.04931574,1,0
15704000,-0.091344416,0.016466858,-0.049345925,1,0
15708000,-0.09138482,0.020678697,-0.049350217,1,0
15712000,-0.090781264,0.02023682,-0.049308844,1,0
15716000,-0.09062864,0.019779468,-0.049249273,1,0
15720000,-0.090631075,0.019322319,-0.049272068,1,0
15724000,-0.09101408,0.01884923,-0.049296267,1,0
15728000,-0.091352984,0.018357104,-0.049379278,1,0
15732000,-0.09116052,0.02262417,-0.049404018,1,0
15736000,-0.090794854,0.022158926,-0.049455717,1,0
15740000,-0.090691164,0.021656448,-0.04945195,1,0
15748000,-0.09087488,0.02066727,-0.04953374,1,0
15756000,-0.090474084,0.024461906,-0.049706627,1,0
15760000,-0.09030566,0.023907715,-0.049713828,1,0
15764000,-0.090351045,0.023406068,-0.049718175,1,0
15768000,-0.090844885,0.02280439,-0.049609095,1,0
15772000,-0.09121402,0.022255803,-0.049533404,1,0
15776000,-0.09125891,0.021746274,-0.04958009,1,0
15780000,-0.09148328,0.025976075,-0.049529023,1,0
15784000,-0.091745324,0.025515383,-0.049582966,1,0
15788000,-0.0919656,0.025059298,-0.04957503,1,0
15792000,-0.09191318,0.024567958,-0.049652398,1,0
15796000,-0.09173047,0.024066875,-0.049723573,1,0
15800000,-0.09166387,0.023548197,-0.04981981,1,0
15804000,-0.09168929,0.02776663,-0.049855284,1,0
15808000,-0.091708675,0.027254188,-0.049919486,1,0
15812000,-0.0916931,0.026790194,-0.04993476,1,0
15816000,-0.09185767,0.026341276,-0.05003463,1,0
15820000,-0.09191004,0.02584573,-0.050039023,1,0
15824000,-0.09212801,0.025374506,-0.050161757,1,0
15832000,-0.091803424,0.029171957,-0.05031114,1,0
15836000,-0.092138104,0.028568663,-0.050218888,1,0
15840000,-0.09246638,0.027972616,-0.05014937,1,0
15844000,-0.09256689,0.027428731,-0.0500887,1,0
15848000,-0.09263175,0.026921391,-0.0501204,1,0
15852000,-0.09264901,0.027742356,-0.05014469,1,0
15856000,-0.09246705,0.027273582,-0.050278988,1,0
15860000,-0.09208677,0.026729735,-0.050415337,1,0
15864000,-0.09171928,0.026190544,-0.05055715,1,0
15868000,-0.091594286,0.02574193,-0.050561257,1,0
15872000,-0.091728315,0.025350641,-0.050592054,1,0
15876000,-0.091774955,0.0248606,-0.050596543,1,0
15880000,-0.09212314,0.024492424,-0.05065626,1,0
15884000,-0.09230984,0.024035465,-0.050680056,1,0
15888000,-0.09268473,0.023557743,-0.050718814,1,0
15892000,-0.0930221,0.023069035,-0.050707817,1,0
15896000,-0.093024656,0.022558957,-0.050779782,1,0
15900000,-0.09271933,0.02202709,-0.05079027,1,0
15904000,-0.09245803,0.021521498,-0.050826214,1,0
15908000,-0.09235413,0.021066215,-0.05081091,1,0
15912000,-0.09222717,0.020580912,-0.050859682,1,0
15916000,-0.09204747,0.020093262,-0.05081275,1,0
15920000,-0.09208508,0.019664036,-0.05081662,1,0
15924000,-0.09241839,0.019229805,-0.050891697,1,0
15928000,-0.09262252,0.018716011,-0.0510099,1,0
15932000,-0.09267077,0.018154515,-0.050965056,1,0
15936000,-0.09287742,0.017690886,-0.05095538,1,0
15940000,-0.09300358,0.017382631,-0.05099742,1,0
15944000,-0.092863515,0.017085236,-0.05117169,1,0
15948000,-0.09272423,0.016698888,-0.051261332,1,0
15952000,-0.092790686,0.016289635,-0.051328704,1,0
15956000,-0.09297626,0.015922973,-0.05130168,1,0
15960000,-0.093152136,0.015588658,-0.051297713,1,0
15964000,-0.0933632,0.015216529,-0.05123788,1,0
15972000,-0.2617825,0.021142539,0.010050504,1,0
15976000,-0.26172712,0.020755487,0.010059392,1,0
15980000,-0.2618284,0.020355776,0.010111753,1,0
15984000,-0.2611684,0.020076508,0.010050111,1,0
15988000,-0.25917074,0.019737868,0.010085196,1,0
15992000,-0.25572714,0.019357065,0.010058835,1,0
15996000,-0.23902135,0.018954305,0.010037599,1,0
16000000,-0.23440364,0.018544624,0.010082253,1,0
16004000,-0.22971527,0.018122701,0.010140194,1,0
16008000,-0.22516808,0.017662844,0.010197681,1,0
16012000,-0.2208919,0.01720325,0.01025172,1,0
16016000,-0.21691361,0.016787421,0.010290589,1,0
16020000,-0.21871604,0.016409246,0.01033227,1,0
16024000,-0.21558706,0.016034614,0.01038314,1,0
16028000,-0.21245597,0.015628174,0.01042312,1,0
16032000,-0.20922789,0.01523223,0.010406749,1,0
16036000,-0.20628217,0.014865479,0.010360224,1,0
16040000,-0.20359375,0.014472229,0.010337646,1,0
16044000,-0.20219365,0.014025586,0.010321352,1,0
16048000,-0.1995205,0.01358342,0.010310555,1,0
16052000,-0.19725211,0.013180219,0.010331968,1,0
16056000,-0.19525398,0.01277709,0.010376161,1,0
16060000,-0.19314016,0.012349762,0.010398764,1,0
16064000,-0.19076471,0.011938915,0.01034402,1,0
16068000,-0.1895672,0.011537371,0.010243967,1,0
16072000,-0.18724819,0.011101631,0.010166742,1,0
16076000,-0.18522799,0.01064356,0.010068864,1,0
16084000,-0.18244551,0.009748479,0.009869014,1,0
16088000,-0.17963748,0.009466222,0.010069549,1,0
16092000,-0.17918229,0.009145834,0.010044264,1,0
16096000,-0.17761664,0.008774295,0.009947933,1,0
16100000,-0.17590281,0.008342372,0.00987266,1,0
16104000,-0.17416695,0.00792167,0.00986696,1,0
16108000,-0.17264763,0.007527072,0.009863764,1,0
16112000,-0.17140777,0.007141193,0.009816397,1,0
16116000,-0.17533658,0.006707456,0.009722473,1,0
16120000,-0.17401758,0.006333605,0.009812434,1,0
16124000,-0.17297769,0.005963309,0.009734659,1,0
16128000,-0.17190985,0.005630946,0.009597667,1,0
16136000,-0.16924812,0.005120464,0.009457737,1,0
16140000,-0.16871636,0.004822807,0.009386886,1,0
16144000,-0.16732714,0.004483173,0.009357359,1,0
16148000,-0.16627477,0.004141344,0.009346971,1,0
16152000,-0.16540821,0.003836798,0.009303549,1,0
16156000,-0.16445751,0.003480606,0.009194816,1,0
16160000,-0.16339274,0.003240308,0.009112136,1,0
16164000,-0.16321214,0.002892047,0.009000406,1,0
16168000,-0.16186185,0.002661841,0.008915899,1,0
16172000,-0.16085826,0.002410576,0.008826755,1,0
16176000,-0.16007201,0.002134558,0.008704645,1,0
16180000,-0.15935385,0.001856176,0.008597497,1,0
16188000,-0.1581603,0.001306355,0.008418333,1,0
16196000,-0.1558205,0.000815263,0.008401766,1,0
16200000,-0.15474372,0.000516653,0.008306135,1,0
16204000,-0.1538798,0.000223808,0.00820223,1,0
16208000,-0.15320402,-8.59E-05,0.008064069,1,0
16212000,-0.15683953,-0.000392314,0.007918946,1,0
16216000,-0.15658109,-0.000691159,0.007803738,1,0
16220000,-0.15653571,-0.000961334,0.007711265,1,0
16224000,-0.15614979,-0.001203075,0.007647184,1,0
16228000,-0.15519561,-0.001488129,0.007524038,1,0
16232000,-0.15385704,-0.001680451,0.007506347,1,0
16236000,-0.15329579,-0.001901291,0.007407362,1,0
16240000,-0.15261522,-0.002044778,0.007263239,1,0
16248000,-0.15130094,-0.002378995,0.006941938,1,0
16252000,-0.15030944,-0.002603727,0.006858059,1,0
16256000,-0.14949267,-0.002811955,0.006795898,1,0
16260000,-0.14913364,-0.003016245,0.006689052,1,0
16264000,-0.14830802,-0.003221219,0.006551065,1,0
16268000,-0.14766978,-0.003421018,0.00646281,1,0
16272000,-0.14724562,-0.003592314,0.006387612,1,0
16276000,-0.1466706,-0.003752939,0.006273076,1,0
16280000,-0.14574312,-0.003985208,0.006146392,1,0
16284000,-0.14507209,-0.004270351,0.006021829,1,0
16292000,-0.14434126,-0.004655173,0.005802324,1,0
16296000,-0.14344452,-0.004845239,0.005676997,1,0
16300000,-0.14343968,-0.004834296,0.005499116,1,0
16304000,-0.1429602,-0.004958576,0.00538972,1,0
16308000,-0.14341156,-0.00512233,0.005309703,1,0
16312000,-0.1432778,-0.005296698,0.005245659,1,0
16316000,-0.14307092,-0.005439801,0.00518016,1,0
16324000,-0.14183424,-0.005676043,0.00489044,1,0
16328000,-0.14106993,-0.00574271,0.004694026,1,0
16332000,-0.14032927,-0.005817751,0.004539522,1,0
16340000,-0.1388298,-0.0061377,0.004316415,1,0
16344000,-0.13860331,-0.006378712,0.004352089,1,0
16348000,-0.1380019,-0.006492543,0.004334014,1,0
16352000,-0.13738611,-0.006620448,0.004296635,1,0
16356000,-0.13675432,-0.006822634,0.004211401,1,0
16360000,-0.13617682,-0.007050699,0.004070372,1,0
16364000,-0.13578337,-0.007271308,0.003922687,1,0
16368000,-0.1355651,-0.007440698,0.003783051,1,0
16372000,-0.13549523,-0.007532771,0.003633056,1,0
16376000,-0.13536441,-0.007658172,0.003524778,1,0
16380000,-0.13501598,-0.007867858,0.003439,1,0
16384000,-0.13472271,-0.008073022,0.003302234,1,0
16388000,-0.13453472,-0.00821787,0.003143793,1,0
16392000,-0.13425481,-0.008277892,0.002994926,1,0
16396000,-0.13384758,-0.008295689,0.002858741,1,0
16400000,-0.133244,-0.008375003,0.002702902,1,0
16404000,-0.13258998,-0.008560599,0.002576867,1,0
16408000,-0.13209715,-0.008750325,0.002539827,1,0
16412000,-0.13178016,-0.008897879,0.002510387,1,0
16416000,-0.13136436,-0.009041236,0.002437327,1,0
16420000,-0.13059916,-0.009174817,0.002321054,1,0
16424000,-0.12993416,-0.009284659,0.002222106,1,0
16428000,-0.12954329,-0.009375088,0.002073075,1,0
16432000,-0.12931293,-0.009446078,0.001961049,1,0
16436000,-0.12921202,-0.009510824,0.001883189,1,0
16440000,-0.12902646,-0.009595461,0.001779046,1,0
16444000,-0.12868197,-0.009683969,0.0016896,1,0
16448000,-0.12861642,-0.009802179,0.001635126,1,0
16452000,-0.12865482,-0.009989261,0.001544621,1,0
16456000,-0.12839054,-0.010164634,0.001434639,1,0
16460000,-0.12797995,-0.010245209,0.001365381,1,0
16464000,-0.12752466,-0.010271758,0.001280458,1,0
16468000,-0.12710424,-0.010349339,0.001129004,1,0
16472000,-0.12681824,-0.010526967,0.001018569,1,0
16476000,-0.12656921,-0.010716934,0.001008522,1,0
16480000,-0.12625416,-0.01087302,0.001012126,1,0
16484000,-0.12576649,-0.011024486,0.000942244,1,0
16488000,-0.12521595,-0.011134706,0.000781642,1,0
16492000,-0.12491678,-0.011191368,0.000577624,1,0
16496000,-0.1248728,-0.011215585,0.000457454,1,0
16500000,-0.124857396,-0.011238197,0.000438074,1,0
16504000,-0.12486753,-0.01135353,0.000445005,1,0
16508000,-0.12492804,-0.011574337,0.000447748,1,0
16512000,-0.12429885,-0.011689446,0.000349943,1,0
16516000,-0.124592155,-0.011960574,0.000261704,1,0
16520000,-0.12414079,-0.012157986,6.23E-05,1,0
16524000,-0.12355512,-0.012321327,-0.00010573,1,0
16528000,-0.12307889,-0.012424504,-0.00018567,1,0
16532000,-0.122756325,-0.012506449,-0.000227729,1,0
16536000,-0.122562796,-0.012609527,-0.000278476,1,0
16540000,-0.122559085,-0.012698473,-0.000345911,1,0
16548000,-0.12249451,-0.01282757,-0.000464894,1,0
16552000,-0.12210605,-0.012928844,-0.000555222,1,0
16556000,-0.1215779,-0.013010917,-0.000609455,1,0
16560000,-0.120910496,-0.013087463,-0.000651094,1,0
16564000,-0.12031346,-0.013199593,-0.000759689,1,0
16568000,-0.120037496,-0.01333556,-0.000882673,1,0
16572000,-0.11988136,-0.013448047,-0.000981091,1,0
16576000,-0.11970995,-0.013515152,-0.001085562,1,0
16580000,-0.11967563,-0.013558826,-0.001209395,1,0
16584000,-0.11958733,-0.013634011,-0.00133429,1,0
16588000,-0.11931553,-0.013763001,-0.001436661,1,0
16592000,-0.11908356,-0.013899833,-0.001462352,1,0
16596000,-0.11880467,-0.013956097,-0.001457302,1,0
16600000,-0.118460976,-0.013976587,-0.001452477,1,0
16604000,-0.11819709,-0.014058003,-0.001477386,1,0
16612000,-0.11772651,-0.014339576,-0.001694148,1,0
16616000,-0.11747211,-0.014530651,-0.001809763,1,0
16620000,-0.11715075,-0.014622605,-0.001843691,1,0
16624000,-0.1170142,-0.014638108,-0.001817676,1,0
16628000,-0.11707041,-0.014648365,-0.001819751,1,0
16632000,-0.11696623,-0.014665099,-0.001871711,1,0
16636000,-0.116573185,-0.014691902,-0.001945986,1,0
16644000,-0.11560753,-0.0147963,-0.002123583,1,0
16648000,-0.115578815,-0.014831783,-0.002239492,1,0
16652000,-0.11567615,-0.014870189,-0.002330303,1,0
16656000,-0.115496136,-0.014914487,-0.002353586,1,0
16660000,-0.1149949,-0.014984768,-0.002434715,1,0
16664000,-0.11458228,-0.015144168,-0.002394985,1,0
16668000,-0.12482409,-0.020339685,-0.002700978,0.39609665,0
16676000,-0.12451463,-0.020561226,-0.002849067,0.39609665,0
16680000,-0.1244366,-0.02063665,-0.002919002,0.39609665,0
16684000,-0.12397069,-0.020731898,-0.002998969,0.39609665,0
16692000,-0.122912474,-0.025940973,-0.003411401,0.41869074,0
16696000,-0.12159784,-0.026040655,-0.003573608,0.41869074,0
16700000,-0.119774535,-0.026161674,-0.003745339,0.41869074,0
16704000,-0.11754378,-0.026313938,-0.003922623,0.41869074,0
16708000,-0.11536043,-0.02651172,-0.004122804,0.41869074,0
16712000,-0.11348055,-0.026727302,-0.004302792,0.41869074,0
16716000,-0.11165655,-0.031812117,-0.004712087,0.4399714,0
16724000,-0.106800675,-0.032321356,-0.005108015,0.4399714,0
16728000,-0.10459623,-0.032667704,-0.005329536,0.4399714,0
16732000,-0.10392234,-0.03284026,-0.005467747,0.4399714,0
16736000,-0.10061679,-0.033293694,-0.005768623,0.4399714,0
16740000,-0.09754291,-0.038515218,-0.006359408,0.4601092,0
16744000,-0.09573189,-0.038768068,-0.006622227,0.4601092,0
16748000,-0.09401408,-0.039100334,-0.006864941,0.4601092,0
16752000,-0.09232934,-0.039489605,-0.007085979,0.4601092,0
16756000,-0.090774745,-0.0398045,-0.007274349,0.4601092,0
16764000,-0.08681464,-0.04520464,-0.007974457,0.47906807,0
16768000,-0.085345015,-0.045479104,-0.008190502,0.47906807,0
16772000,-0.08389572,-0.045764953,-0.008445426,0.47906807,0
16776000,-0.08259327,-0.04610315,-0.008712297,0.47906807,0
16780000,-0.08130601,-0.046515726,-0.008955633,0.47906807,0
16784000,-0.080119774,-0.046901807,-0.009189718,0.47906807,0
16788000,-0.08130864,-0.052132368,-0.009956306,0.49678954,0
16792000,-0.08026406,-0.05236896,-0.010204062,0.49678954,0
16796000,-0.07930303,-0.05257328,-0.010490976,0.49678954,0
16800000,-0.07854112,-0.05276833,-0.01082432,0.49678954,0
16804000,-0.07777212,-0.052963555,-0.011116669,0.49678954,0
16808000,-0.07678759,-0.053170886,-0.011319177,0.49678954,0
16812000,-0.07439523,-0.0583335,-0.011872564,0.51422733,0
16820000,-0.0729492,-0.058752485,-0.012229374,0.51422733,0
16824000,-0.07254433,-0.058933426,-0.012455187,0.51422733,0
16832000,-0.071209386,-0.05931565,-0.012924319,0.51422733,0
16836000,-0.06926151,-0.06434554,-0.013606804,0.53033626,0
16840000,-0.068770945,-0.06448141,-0.013846887,0.53033626,0
16844000,-0.06841457,-0.06464347,-0.014033055,0.53033626,0
16848000,-0.06804449,-0.064750776,-0.014183875,0.53033626,0
16852000,-0.06767216,-0.06484271,-0.014370985,0.53033626,0
16856000,-0.067361526,-0.06495586,-0.01456335,0.53033626,0
16860000,-0.065332,-0.06999793,-0.015247094,0.5451046,0
16864000,-0.06457273,-0.070006296,-0.015488876,0.5451046,0
16868000,-0.06382243,-0.06997028,-0.015715152,0.5451046,0
16872000,-0.063175544,-0.06996609,-0.015880685,0.5451046,0
16876000,-0.062358517,-0.06999604,-0.016014159,0.5451046,0
16880000,-0.06161117,-0.06999986,-0.016142879,0.5451046,0
16884000,-0.06348427,-0.07490727,-0.01679086,0.5585808,0
16888000,-0.06335473,-0.07476015,-0.01725762,0.5585808,0
16892000,-0.0632478,-0.07472676,-0.017434716,0.5585808,0
16896000,-0.06288751,-0.07467952,-0.01765277,0.5585808,0
16900000,-0.062484924,-0.07458176,-0.017847804,0.5585808,0
16904000,-0.062210884,-0.07449042,-0.017991144,0.5585808,0
16908000,-0.06039135,-0.079411104,-0.018703584,0.57247585,0
16912000,-0.060193438,-0.0793585,-0.01887589,0.57247585,0
16916000,-0.059503414,-0.079344645,-0.019075451,0.57247585,0
16924000,-0.059942216,-0.078969836,-0.019306276,0.57247585,0
16928000,-0.060093146,-0.078822404,-0.01937417,0.57247585,0
16932000,-0.058546882,-0.0835943,-0.020027425,0.5850809,0
16940000,-0.057534255,-0.08325277,-0.020306148,0.5850809,0
16944000,-0.05729165,-0.08307832,-0.020414246,0.5850809,0
16948000,-0.057347547,-0.08287419,-0.020550989,0.5850809,0
16952000,-0.057295978,-0.082632594,-0.020726543,0.5850809,0
16956000,-0.055605344,-0.08731517,-0.021492448,0.5964533,0
16960000,-0.055521756,-0.087001845,-0.02161167,0.5964533,0
16964000,-0.055504218,-0.0867715,-0.021662218,0.5964533,0
16968000,-0.05553173,-0.0866029,-0.0216695,0.5964533,0
16972000,-0.055604495,-0.0863577,-0.021731822,0.5964533,0
16976000,-0.05559575,-0.08603235,-0.021872623,0.5964533,0
16980000,-0.05406326,-0.09064955,-0.022645341,0.6066495,0
16984000,-0.054032657,-0.090294026,-0.022721635,0.6066495,0
16988000,-0.05400821,-0.08992797,-0.022973593,0.6066495,0
16992000,-0.053864896,-0.089682296,-0.023033269,0.6066495,0
16996000,-0.05367911,-0.0894125,-0.023091342,0.6066495,0
17000000,-0.053626817,-0.08908228,-0.023149211,0.6066495,0
17004000,-0.055664804,-0.09367454,-0.023860697,0.61660475,0
17008000,-0.055580694,-0.093287975,-0.023912642,0.61660475,0
17012000,-0.055593714,-0.09290447,-0.023997396,0.61660475,0
17016000,-0.05553105,-0.0925229,-0.024091423,0.61660475,0
17020000,-0.05529978,-0.09220363,-0.024177361,0.61660475,0
17024000,-0.054944053,-0.09193225,-0.024259161,0.61660475,0
17028000,-0.053441957,-0.09659719,-0.024974406,0.625456,0
17032000,-0.053353496,-0.09619964,-0.024951288,0.625456,0
17036000,-0.053253315,-0.09577621,-0.024935922,0.625456,0
17040000,-0.053100318,-0.095299564,-0.024976492,0.625456,0
17044000,-0.05293677,-0.094778605,-0.025063012,0.625456,0
17048000,-0.052892547,-0.09423175,-0.025147732,0.625456,0
17052000,-0.051600758,-0.09868619,-0.02591068,0.6332978,0
17056000,-0.051773973,-0.09820855,-0.02596807,0.6332978,0
17060000,-0.051865704,-0.09779705,-0.026052285,0.6332978,0
17064000,-0.051630363,-0.09744487,-0.026160784,0.6332978,0
17068000,-0.051229052,-0.09713383,-0.026230425,0.6332978,0
17072000,-0.051100686,-0.09676024,-0.026231814,0.6332978,0
17076000,-0.05007453,-0.10127222,-0.026942968,0.6402089,0
17080000,-0.050339334,-0.100744106,-0.026932351,0.6402089,0
17084000,-0.050505932,-0.100250095,-0.026925068,0.6402089,0
17088000,-0.05043586,-0.09973398,-0.027089098,0.6402089,0
17096000,-0.05048284,-0.09871964,-0.027157675,0.6402089,0
17100000,-0.04925503,-0.103202246,-0.027915824,0.6467649,0
17104000,-0.049126524,-0.10273441,-0.027925573,0.6467649,0
17108000,-0.04901404,-0.10227728,-0.027985234,0.6467649,0
17112000,-0.049002446,-0.101789676,-0.028083798,0.6467649,0
17116000,-0.048909694,-0.10125684,-0.028170116,0.6467649,0
17120000,-0.048803046,-0.10072248,-0.028237106,0.6467649,0
17124000,-0.051405117,-0.10407282,-0.028846834,0.6524664,0
17128000,-0.051597618,-0.10356272,-0.028806997,0.6524664,0
17132000,-0.05122496,-0.10308532,-0.028874576,0.6524664,0
17136000,-0.051852375,-0.10253181,-0.028867874,0.6524664,0
17140000,-0.051814865,-0.102023825,-0.028915007,0.6524664,0
17144000,-0.051808685,-0.10147143,-0.028914643,0.6524664,0
17148000,-0.05078033,-0.100066096,-0.028802432,0.65737385,0
17152000,-0.050935347,-0.09951024,-0.028856106,0.65737385,0
17156000,-0.05096731,-0.099014044,-0.02892165,0.65737385,0
17164000,-0.050583515,-0.0980374,-0.029042076,0.65737385,0
17172000,-0.048783425,-0.09631651,-0.028930504,0.66154563,0
17176000,-0.04861191,-0.09584624,-0.028885875,0.66154563,0
17180000,-0.0482998,-0.0953471,-0.028924277,0.66154563,0
17184000,-0.04919019,-0.09484472,-0.028884357,0.66154563,0
17188000,-0.04918105,-0.09427713,-0.029141884,0.66154563,0
17192000,-0.049058437,-0.09382269,-0.02921106,0.66154563,0
17196000,-0.047874752,-0.0927864,-0.029136306,0.66559875,0
17200000,-0.04789385,-0.09233977,-0.0291376,0.66559875,0
17204000,-0.047813363,-0.09189155,-0.029120218,0.66559875,0
17208000,-0.04764216,-0.09144509,-0.029096134,0.66559875,0
17212000,-0.04759241,-0.09100653,-0.029122325,0.66559875,0
17216000,-0.04769233,-0.090601884,-0.029167641,0.66559875,0
17220000,-0.04659255,-0.08962494,-0.029127166,0.6690111,0
17224000,-0.046469748,-0.08912626,-0.029204573,0.6690111,0
17228000,-0.046210386,-0.08869005,-0.029230319,0.6690111,0
17232000,-0.047152836,-0.08836604,-0.029366126,0.6690111,0
17236000,-0.04738693,-0.087966286,-0.029406281,0.6690111,0
17240000,-0.047182877,-0.08756338,-0.029427264,0.6690111,0
17244000,-0.045908682,-0.08665165,-0.02937467,0.6718272,0
17248000,-0.045770206,-0.08625966,-0.029330872,0.6718272,0
17252000,-0.045897953,-0.08585526,-0.029336337,0.6718272,0
17256000,-0.04613503,-0.08546412,-0.029345747,0.6718272,0
17260000,-0.04634019,-0.08508668,-0.029367479,0.6718272,0
17268000,-0.049010873,-0.08411159,-0.02948381,0.67409706,0
17272000,-0.049020495,-0.08380005,-0.029580053,0.67409706,0
17276000,-0.04915683,-0.08338298,-0.02961402,0.67409706,0
17280000,-0.049283113,-0.08290784,-0.029597126,0.67409706,0
17284000,-0.049362984,-0.08251585,-0.029575188,0.67409706,0
17288000,-0.049265333,-0.08221503,-0.029659962,0.67409706,0
17292000,-0.04785215,-0.08167946,-0.029655335,0.67610884,0
17296000,-0.047565743,-0.08152962,-0.02973371,0.67610884,0
17300000,-0.047355894,-0.08118969,-0.029755002,0.67610884,0
17304000,-0.047545746,-0.08104501,-0.029877316,0.67610884,0
17308000,-0.047348708,-0.08070714,-0.029895326,0.67610884,0
17312000,-0.04784039,-0.08034211,-0.029972026,0.67610884,0
17316000,-0.046674244,-0.07969466,-0.029959876,0.6776393,0
17324000,-0.04600133,-0.07908942,-0.030090608,0.6776393,0
17328000,-0.04584092,-0.078840904,-0.030148525,0.6776393,0
17332000,-0.046022356,-0.078622505,-0.030125398,0.6776393,0
17336000,-0.046492368,-0.07836018,-0.030079525,0.6776393,0
17340000,-0.045750502,-0.07778936,-0.030010069,0.67874575,0
17344000,-0.045918994,-0.07747975,-0.029988535,0.67874575,0
17348000,-0.04587803,-0.07718393,-0.03003023,0.67874575,0
17356000,-0.045345265,-0.07673335,-0.03030671,0.67874575,0
17360000,-0.04509642,-0.07651236,-0.030401956,0.67874575,0
17364000,-0.043770224,-0.07607086,-0.030419542,0.6794837,0
17368000,-0.04401913,-0.07590712,-0.030482205,0.6794837,0
17376000,-0.044661097,-0.07547943,-0.030645706,0.6794837,0
17380000,-0.044940505,-0.075210325,-0.03067948,0.6794837,0
17384000,-0.044877928,-0.074949205,-0.030711304,0.6794837,0
17388000,-0.04332347,-0.07446355,-0.030805908,0.6798893,0
17392000,-0.04309323,-0.07429739,-0.030890878,0.6798893,0
17396000,-0.0430099,-0.074144654,-0.030971456,0.6798893,0
17404000,-0.04307897,-0.07373664,-0.031019881,0.6798893,0
17408000,-0.043719355,-0.07351265,-0.031059215,0.6798893,0
17412000,-0.04263617,-0.073132426,-0.031054918,0.6802236,0
17416000,-0.04295133,-0.07296136,-0.031054303,0.6802236,0
17420000,-0.04312867,-0.07278948,-0.031050373,0.6802236,0
17424000,-0.043230124,-0.072608784,-0.0310334,0.6802236,0
17428000,-0.043369077,-0.07243686,-0.031020021,0.6802236,0
17432000,-0.04340685,-0.07228407,-0.031065669,0.6802236,0
17436000,-0.045728862,-0.07200223,-0.03110386,0.6802427,0
17440000,-0.04543159,-0.071917094,-0.031125806,0.6802427,0
17444000,-0.045322992,-0.071733296,-0.031141352,0.6802427,0
17448000,-0.045240197,-0.07163547,-0.031217555,0.6802427,0
17452000,-0.045146443,-0.07144938,-0.031228613,0.6802427,0
17456000,-0.045680795,-0.07114508,-0.031400915,0.6802427,0
17460000,-0.04448116,-0.070818126,-0.031437945,0.6799988,0
17468000,-0.0448095,-0.070709094,-0.031665415,0.6799988,0
17472000,-0.044966675,-0.07058809,-0.031687483,0.6799988,0
17476000,-0.045138687,-0.07042775,-0.031667486,0.6799988,0
17484000,-0.043954805,-0.06993925,-0.031628415,0.6795255,0
17492000,-0.04390465,-0.06962147,-0.03155358,0.6795255,0
17496000,-0.04383995,-0.069468305,-0.031482067,0.6795255,0
17504000,-0.043816634,-0.06920671,-0.031515613,0.6795255,0
17508000,-0.042540092,-0.06890767,-0.031554393,0.67872924,0
17516000,-0.042764686,-0.068498366,-0.031692415,0.67872924,0
17520000,-0.042402923,-0.06833072,-0.03167262,0.67872924,0
17524000,-0.042214587,-0.068202496,-0.031627417,0.67872924,0
17532000,-0.041051142,-0.06777198,-0.031639967,0.6777559,0
17536000,-0.04166711,-0.06758296,-0.031841192,0.6777559,0
17540000,-0.0414996,-0.0674215,-0.031873792,0.6777559,0
17544000,-0.04143139,-0.06728626,-0.031827714,0.6777559,0
17548000,-0.041731067,-0.06716904,-0.031767175,0.6777559,0
17552000,-0.04208617,-0.06708511,-0.03179285,0.6777559,0
17556000,-0.040731125,-0.06693932,-0.031854,0.6766319,0
17560000,-0.040785965,-0.066837996,-0.03187957,0.6766319,0
17564000,-0.040709388,-0.06666242,-0.031842627,0.6766319,0
17568000,-0.040739603,-0.06655207,-0.03181439,0.6766319,0
17572000,-0.04070765,-0.06642223,-0.03181787,0.6766319,0
17576000,-0.040992092,-0.066335574,-0.031725235,0.6766319,0
17580000,-0.039431833,-0.06603291,-0.031662494,0.67534995,0
17584000,-0.03942775,-0.065836206,-0.03163421,0.67534995,0
17588000,-0.039503545,-0.06563825,-0.03178316,0.67534995,0
17592000,-0.03962781,-0.06559254,-0.031825118,0.67534995,0
17596000,-0.039762016,-0.065541625,-0.031818938,0.67534995,0
17600000,-0.03990911,-0.0654247,-0.031775944,0.67534995,0
17604000,-0.038292713,-0.0651928,-0.031724233,0.6742816,0
17608000,-0.038079597,-0.06499848,-0.031700358,0.6742816,0
17612000,-0.038072783,-0.06480939,-0.03171961,0.6742816,0
17616000,-0.03837487,-0.06464995,-0.031779356,0.6742816,0
17620000,-0.03875297,-0.06452699,-0.03182418,0.6742816,0
17628000,-0.04154857,-0.06412496,-0.031652994,0.6730988,0
17632000,-0.041634485,-0.06397413,-0.031599138,0.6730988,0
17636000,-0.041761734,-0.06388149,-0.031614237,0.6730988,0
17640000,-0.041955233,-0.063818716,-0.031634323,0.6730988,0
17644000,-0.042030398,-0.06372647,-0.031660475,0.6730988,0
17648000,-0.041961435,-0.0635941,-0.03169899,0.6730988,0
17652000,-0.04021528,-0.06338153,-0.031694558,0.67179066,0
17656000,-0.039978426,-0.06320074,-0.031645805,0.67179066,0
17660000,-0.039975896,-0.063052066,-0.03157559,0.67179066,0
17664000,-0.04028588,-0.06298695,-0.031525213,0.67179066,0
17668000,-0.04053574,-0.06296133,-0.031491034,0.67179066,0
17672000,-0.040513974,-0.062902175,-0.031461284,0.67179066,0
17676000,-0.03879855,-0.06272925,-0.0314421,0.6703917,0
17680000,-0.038928118,-0.062594764,-0.031446483,0.6703917,0
17684000,-0.03938914,-0.062505856,-0.031433288,0.6703917,0
17688000,-0.039846804,-0.062489696,-0.031287517,0.6703917,0
17692000,-0.039841987,-0.06236934,-0.031280633,0.6703917,0
17696000,-0.03966385,-0.062225033,-0.031243253,0.6703917,0
17700000,-0.037860222,-0.061966624,-0.031164357,0.66861314,0
17704000,-0.037730847,-0.06178467,-0.031086866,0.66861314,0
17708000,-0.03786668,-0.061642937,-0.031004319,0.66861314,0
17716000,-0.038177565,-0.061457828,-0.031002358,0.66861314,0
17720000,-0.03827897,-0.061349533,-0.031071905,0.66861314,0
17724000,-0.036783736,-0.061120152,-0.031092273,0.6667862,0
17728000,-0.036832653,-0.06097193,-0.03107442,0.6667862,0
17732000,-0.036826156,-0.060914233,-0.03102637,0.6667862,0
17736000,-0.03675546,-0.06083794,-0.030950539,0.6667862,0
17740000,-0.0366188,-0.060686365,-0.030844303,0.6667862,0
17744000,-0.03660795,-0.060492016,-0.030751582,0.6667862,0
17748000,-0.03523094,-0.060247142,-0.030715648,0.66491085,0
17752000,-0.035357557,-0.060152147,-0.03074431,0.66491085,0
17756000,-0.035568647,-0.06009732,-0.030774873,0.66491085,0
17760000,-0.03583242,-0.059966445,-0.03074617,0.66491085,0
17764000,-0.036052123,-0.059764,-0.03064317,0.66491085,0
17768000,-0.036295902,-0.059591204,-0.030545752,0.66491085,0
17772000,-0.034879744,-0.05936695,-0.030475512,0.6630116,0
17776000,-0.034953427,-0.0592316,-0.030436821,0.6630116,0
17780000,-0.034979403,-0.05914908,-0.030451052,0.6630116,0
17784000,-0.0349692,-0.0590628,-0.030482495,0.6630116,0
17788000,-0.03495454,-0.058863588,-0.03059793,0.6630116,0
17792000,-0.035003945,-0.058706492,-0.030575613,0.6630116,0
17796000,-0.033504315,-0.05850388,-0.03055263,0.6613971,0
17804000,-0.03369012,-0.058311757,-0.030463163,0.6613971,0
17808000,-0.034021717,-0.058193862,-0.030348416,0.6613971,0
17812000,-0.034033585,-0.058059864,-0.030329224,0.6613971,0
17816000,-0.034112625,-0.05795998,-0.0302533,0.6613971,0
17820000,-0.032539528,-0.05782243,-0.030226614,0.65975934,0
17828000,-0.032884516,-0.057825476,-0.030327821,0.65975934,0
17832000,-0.033091396,-0.057746746,-0.030270524,0.65975934,0
17836000,-0.033430256,-0.05759645,-0.03022046,0.65975934,0
17840000,-0.033616573,-0.057408705,-0.030202271,0.65975934,0
17844000,-0.03213251,-0.057196356,-0.03019064,0.65808475,0
17848000,-0.03213566,-0.057087194,-0.030153299,0.65808475,0
17852000,-0.032333918,-0.057014097,-0.030110974,0.65808475,0
17856000,-0.032760587,-0.056886226,-0.030086674,0.65808475,0
17860000,-0.033127975,-0.056734726,-0.03006454,0.65808475,0
17864000,-0.033239488,-0.056619763,-0.03005376,0.65808475,0
17868000,-0.031542297,-0.05650343,-0.03006188,0.656389,0
17872000,-0.03159316,-0.056416593,-0.030063648,0.656389,0
17876000,-0.031818327,-0.05627583,-0.03001112,0.656389,0
17880000,-0.031819776,-0.056120694,-0.029982824,0.656389,0
17884000,-0.03162302,-0.055968028,-0.029994324,0.656389,0
17888000,-0.031664927,-0.055829085,-0.02996707,0.656389,0
17892000,-0.034223698,-0.055720802,-0.029913478,0.65468514,0
17896000,-0.03416255,-0.055677075,-0.02985904,0.65468514,0
17900000,-0.03429024,-0.05561826,-0.029765697,0.65468514,0
17904000,-0.034690402,-0.05550323,-0.02965822,0.65468514,0
17908000,-0.035029255,-0.05535911,-0.029580893,0.65468514,0
17916000,-0.03390395,-0.05517024,-0.029495152,0.6529703,0
17920000,-0.034036703,-0.055148374,-0.029542979,0.6529703,0
17924000,-0.03400044,-0.05507733,-0.029621102,0.6529703,0
17928000,-0.033907264,-0.054941334,-0.029644668,0.6529703,0
17932000,-0.033959992,-0.05483816,-0.029612899,0.6529703,0
17940000,-0.03247272,-0.05472733,-0.029582158,0.65124774,0
17944000,-0.032415472,-0.05461041,-0.029579753,0.65124774,0
