timestamp,gyro_rad[0],gyro_rad[1],gyro_rad[2],accelerometer_m_s2[0],accelerometer_m_s2[1],accelerometer_m_s2[2]
13004000,-0.004124894,-0.010171522,-0.002007165,-0.20043795,0.12119513,-9.898617
13007999,-0.004664242,-0.005340213,0.003476547,-0.1894838,0.19537324,-9.896793
13012000,-0.005292283,-0.006129846,0.005924668,-0.11684178,0.21481356,-9.849529
13016000,-0.003576171,-0.00475458,0.004044257,-0.095447,0.19737966,-9.830211
13020000,0.002876777,-0.004441978,0.001907002,-0.17268392,0.14178458,-9.836449
13024000,0.000509418,-0.012727645,0.00084682,-0.19182517,0.16648413,-9.903611
13027999,-0.001470533,-0.011541642,0.000474971,-0.19752131,0.23077498,-9.95632
13032000,0.001781617,-0.002014002,-0.001309047,-0.15718046,0.20862256,-9.908945
13036000,-0.001433597,-0.001736673,-0.004256912,-0.1487893,0.23852931,-9.947573
13044000,-0.001789811,-0.011153205,-0.000768759,-0.18478693,0.13950059,-9.967789
13048000,0.005106777,-0.010777984,0.00074315,-0.07724281,0.19709167,-9.89329
13052000,0.005378417,-0.011925573,-0.001121214,-0.12050779,0.24785061,-9.857231
13056000,0.000347924,-0.008468276,-0.001695892,-0.12050779,0.24785061,-9.857231
13059999,-0.0021357,-0.007750513,0.001928972,-0.132533,0.17247173,-9.95454
13064000,-0.002361726,-0.010118702,0.002948633,-0.11906662,0.15095024,-9.932917
13068000,-0.002857459,-0.007964277,-0.000130226,-0.14935616,0.18406376,-9.889431
13071999,0.003774279,-0.006082521,-0.001431521,-0.17516094,0.1810518,-9.860105
13076000,0.006832381,-0.001222943,-0.001177424,-0.18573186,0.1533761,-9.901824
13084000,-0.003319281,-0.003313147,-0.002916558,-0.22839767,0.19235697,-9.942604
13091999,-0.003381214,-0.007015113,0.001417127,-0.15886673,0.2482979,-9.948595
13096000,0.00092879,-0.006518489,0.00295056,-0.19156647,0.20649165,-9.961192
13100000,0.002369305,-0.0065095,0.000141123,-0.16793865,0.17823242,-9.893005
13103999,0.001331356,-0.004945282,0.00165918,-0.18816634,0.16069001,-9.9134655
13108000,-0.004476599,-0.008719714,-0.000604348,-0.1792787,0.1114703,-10.006016
13112000,-0.008142476,-0.006164459,-0.003515214,-0.14152369,0.10492318,-9.969531
13120000,-0.002652776,-0.008082916,0.002175139,-0.09533086,0.1906998,-9.940578
13123999,-0.00987586,-0.01166523,-0.000310294,-0.20259964,0.2494361,-9.91912
13132000,-0.001591033,-0.005865055,0.000242864,-0.1873867,0.1431707,-9.904589
13135999,-0.005273603,-0.006125386,-0.000787303,-0.21873346,0.108318605,-9.847237
13144000,-0.002091236,-0.013438468,-0.000971502,-0.16593324,0.09923251,-9.90153
13152000,-0.006127241,-0.007826167,-0.000684123,-0.14836559,0.20284589,-9.921375
13155999,-0.004186485,-0.009108576,0.001465249,-0.15581012,0.24920236,-9.924892
13160000,0.000377533,-0.006617071,-0.000411451,-0.15909928,0.25844863,-9.992525
13164000,0.001465279,-0.000251036,-0.001353641,-0.18926604,0.20857015,-9.9604435
13172000,-0.00013352,-0.007540549,0.004902042,-0.19533947,0.1150018,-9.893002
13176000,-0.004815934,-0.001879258,-0.005504823,-0.19533947,0.1150018,-9.893002
13184000,-0.00022802,-0.003523161,-0.003323683,-0.16962017,0.14491832,-9.973469
13187999,-0.004552976,-0.008449636,-0.001151713,-0.18079513,0.22562933,-9.974222
13196000,-0.001824272,-0.001657519,-0.000279234,-0.18516918,0.1495191,-9.937153
13200000,-0.002469436,-0.004978974,0.003170357,-0.09039857,0.14805326,-9.907151
13204000,-0.001699821,-0.006346847,0.002996664,-0.09022964,0.17338853,-9.952831
13212000,-0.001603981,-0.009997905,-0.000312,-0.18575487,0.24706893,-9.88286
13219999,-0.002327008,-0.017211294,-0.002305129,-0.1518056,0.21709497,-9.93468
13224000,-0.003003266,-0.007276056,-0.003309009,-0.16188087,0.17763047,-9.942874
13232000,0.000767925,-0.005118145,-0.001246753,-0.13042189,0.15343541,-9.967268
13236000,-0.005952537,-0.006176514,0.003866263,-0.1705173,0.09456698,-9.965836
13240000,-0.006640337,-0.008594587,0.000938752,-0.20923316,0.07978915,-9.895906
13248000,-0.002397477,-0.002554072,0.00294119,-0.17501108,0.15034007,-9.890699
13251999,-0.003712405,-0.007010792,0.000847462,-0.2025393,0.17539743,-9.9029255
13256000,-0.005794861,-0.002981271,-0.001056415,-0.23177043,0.15479904,-9.9201145
13260000,-0.0052806,-0.002497712,0.004821774,-0.16532306,0.12966359,-9.869529
13268000,-0.001978074,0.000264898,-0.000862551,-0.1985532,0.19748606,-9.924501
13276000,-0.00289965,-0.013004484,0.000456498,-0.19398117,0.18218026,-9.9078865
13283999,0.000222188,-0.004929914,0.002244274,-0.18605448,0.21313448,-9.911021
13288000,0.000542,-0.00222559,0.004414883,-0.1197156,0.21836168,-9.96944
13292000,-0.000429341,-0.008359042,-0.002846006,-0.108954795,0.15598913,-9.8653345
13296000,-0.004510327,-0.012224084,-0.003241807,-0.10458318,0.1434763,-9.801404
13300000,-0.006865859,-0.005666532,0.001553731,-0.10327825,0.21270369,-9.925933
13308000,-0.003371,-0.007680327,0.008686081,-0.16980007,0.20170854,-9.892414
13312000,0.002941647,-0.000524862,0.00347367,-0.11351612,0.15446171,-9.927688
13315999,0.002653165,-0.000537181,-0.003076472,-0.14566192,0.21167278,-9.94354
13320000,-0.005720183,-0.005643509,-0.00257066,-0.1558123,0.22025122,-9.961955
13324000,-0.00592819,-0.007907454,-0.003174323,-0.20163314,0.19580948,-9.961115
13332000,-0.013175732,-0.007584315,0.002574484,1.2725207,0.1776163,-9.918865
13340000,0.002034319,-0.006798332,0.000315831,18.467926,0.15998317,-9.922026
13344000,-0.001849218,-0.004283579,0.002112198,27.551466,0.16776285,-9.903549
13352000,0.003322848,-0.006584283,0.002681858,40.48098,0.20503263,-9.783373
13356000,0.002985858,-0.002836145,0.004713203,44.79237,0.15318283,-9.828821
13364000,0.003244263,-0.005176594,0.005400686,49.717865,0.21897587,-9.774217
13367999,-0.002091576,-0.004651341,0.005832769,50.944874,0.26903984,-9.87406
13372000,-0.012523416,-0.006846495,0.00174161,51.76066,0.24177599,-9.919983
13376000,-0.008170358,-0.01069364,0.003558515,52.248634,0.21722658,-9.913154
13379999,-0.001381866,-0.009553629,0.001510904,52.54075,0.23331639,-9.873381
13388000,-0.002396851,-0.000873702,0.000415519,52.04068,0.21076977,-9.82848
13392000,-0.00355344,-0.002753974,-0.000463277,51.77971,0.19687389,-9.8554535
13396000,0.000348206,-0.007103111,0.001632087,51.77971,0.19687389,-9.8554535
13399999,0.003291149,-0.005684261,-0.001258813,51.266785,0.15084925,-9.880795
13404000,-0.002263121,-0.003129784,-0.000202705,50.68019,0.07795616,-9.888935
13408000,-0.001992093,0.002590282,0.002308945,50.03278,0.08191801,-9.834166
13411999,-0.001495326,-0.000256963,0.004656205,49.503624,0.16629909,-9.8112755
13416000,-0.003008253,-0.002926556,0.007977041,49.094128,0.20679066,-9.824062
13424000,-0.001572876,-0.012495237,-0.001687214,48.25314,0.23596573,-9.7207
13428000,-0.001540241,-0.011649177,0.002963832,47.68247,0.1944037,-9.833104
13431999,-0.003751183,-0.006021876,0.000397042,47.056263,0.17274797,-9.879577
13436000,-0.004155362,-0.006932139,-0.002226358,46.665863,0.23412952,-9.935349
13440000,-0.006266053,-0.010868291,0.000366395,46.291683,0.2052974,-9.914722
13443999,-0.005790599,-0.008219011,-0.002279391,45.876682,0.14964218,-9.828133
13448000,-0.000541148,-0.003669119,-0.001230309,45.267326,0.15717462,-9.867926
13452000,-0.00016349,-0.00532332,0.002535716,44.673653,0.15364215,-9.910508
13456000,-0.000767531,-0.003584759,0.000545959,44.399704,0.21852991,-9.851637
13463999,-0.002871916,-0.004487733,-0.004731562,43.59234,0.0791153,-9.81475
13472000,-0.003407697,-0.005307284,-6.54E-05,42.541546,0.18545477,-9.800196
13476000,-0.002020044,-0.006148398,0.005093884,42.230526,0.16041215,-9.817198
13480000,-0.000568378,0.000345262,0.002507418,42.00981,0.1376989,-9.8433695
13488000,0.001053003,-0.013141349,-0.002983558,41.16514,0.14780773,-9.942084
13492000,0.004371712,-0.014184313,-0.001604194,40.67636,0.16328235,-9.889054
13496000,-0.004476533,-0.004406563,0.001320955,40.327164,0.20187221,-9.803668
13500000,-0.005040142,0.006401604,0.003784495,40.018166,0.24324316,-9.790403
13508000,0.003090442,-0.01111533,0.00530558,39.237633,0.15848331,-9.865013
13516000,-0.004024409,-0.002992682,-0.002354278,38.422356,0.18589185,-9.826563
13520000,0.001296178,-0.00930761,-0.004078824,38.10782,0.18190804,-9.789257
13524000,0.002366858,-0.014020441,-0.004594459,37.708073,0.13603584,-9.814173
13532000,-0.002041702,-0.001260522,0.000610962,36.965652,0.14873269,-9.873437
13540000,-0.004549595,-0.006710324,0.004597119,36.155373,0.26562104,-9.894465
13544000,-0.003776183,-0.009278818,0.001578182,35.874454,0.29985133,-9.937608
13548000,-0.003191374,-0.007415636,-9.63E-07,35.472443,0.2753719,-9.924322
13552000,0.000881968,-0.001148761,0.002860324,35.002693,0.2257982,-9.928696
13556000,0.002917693,-0.005066518,0.003851014,34.55155,0.23258406,-9.878205
13560000,-0.003367479,-0.006790789,-0.000892867,34.225384,0.26686785,-9.835177
13564000,-0.002899636,-0.003873629,-0.002221229,34.00914,0.1956945,-9.863405
13568000,-0.000122342,-0.006270976,0.003476622,33.747643,0.14820683,-9.863349
13576000,-0.001735354,0.001243218,0.003852363,32.866207,0.23903632,-9.930892
13580000,0.000361469,-0.006902366,0.000576838,32.709755,0.18428218,-9.904824
13584000,-0.000234658,-0.009923487,0.000745089,32.477325,0.1640206,-9.852156
13592000,-0.003141048,-0.006861574,0.00114695,31.72455,0.13128713,-9.881555
13596000,-0.004495922,-0.003442752,-0.006729941,31.405867,0.13928056,-9.863788
13600000,-0.002212246,-0.002735491,-0.000327906,31.213718,0.22179659,-9.913864
13608000,0.004070381,-0.004629222,-0.000891672,30.739962,0.1418317,-9.881765
13616000,0.002222344,-0.005115524,0.001706134,30.04172,0.18559267,-9.825311
13620000,-0.005097573,-0.010125902,0.001896556,29.868273,0.159413,-9.854706
13624000,-0.003430111,-0.010508521,-0.002435211,29.737177,0.10411829,-9.853599
13632000,-0.001639628,-0.003198261,0.001963949,29.127062,0.1348441,-9.906312
13636000,0.001186656,0.000733819,0.000602956,28.745647,0.15593529,-9.877463
13640000,0.00120681,-0.000551568,-0.000922777,28.45541,0.123617105,-9.83737
13644000,-0.001501186,-0.003760929,-0.000551311,28.28235,0.103038274,-9.952532
13648000,-0.000224326,-0.006278921,-0.002203008,28.045256,0.1765773,-9.975675
13652000,0.002360982,-0.007279254,-0.004010432,27.77676,0.23686929,-9.914873
13656000,0.004203369,-0.007248594,-0.007337293,27.77676,0.23686929,-9.914873
13664000,0.003648861,-0.009643371,0.001757859,27.104042,0.14839754,-9.7881975
13668000,-0.000572983,-0.014384472,-0.000385281,26.864538,0.15815282,-9.890343
13672000,-0.006441567,-0.009053023,-0.003081397,26.553862,0.15428904,-9.8933115
13676000,-0.006399238,-0.002885749,0.00639007,26.25992,0.12503132,-9.850638
13680000,-0.003659484,-0.012775379,0.006971056,25.968681,0.16751823,-9.862657
13684000,-0.005804575,-0.014179027,0.003950527,25.91394,0.19561881,-9.844188
13692000,0.001990472,-0.003476772,-0.003407857,25.288301,0.17836551,-9.852223
13700000,0.003919595,-0.005592288,-0.000687581,24.711338,0.061116215,-9.8564205
13704000,-0.000545951,-0.002189775,0.004825997,24.516508,0.07588845,-9.851983
13712000,-0.007550504,-0.012619436,0.008338791,24.186808,0.039949965,-9.890823
13716000,-0.000881942,-0.01841833,0.010845472,23.834581,0.1212058,-9.880513
13724000,-7.35E-05,-0.008520118,0.013110016,23.475967,0.12821797,-9.870806
13728000,-0.000150642,-0.009329559,0.017831443,23.846972,-0.51052785,-9.96087
13732000,-0.000342342,-0.004502921,0.04378205,24.190094,-1.124738,-10.022229
13736000,-0.001386623,-0.002280768,0.062016472,23.907413,-1.1552447,-10.009468
13740000,0.000524195,-0.00471743,0.08003922,23.666948,-1.1092528,-10.013789
13744000,0.003352873,-0.007602454,0.1049607,23.526258,-1.0198302,-10.049522
13748000,0.004332231,-0.010298974,0.13100947,23.313292,-0.92549706,-10.129779
13756000,0.009543167,-0.009057188,0.16738278,22.856796,-0.951851,-10.203282
13760000,0.010791771,-0.016399413,0.18917838,22.680664,-0.90650326,-10.112204
13764000,0.011674457,-0.01706473,0.2077515,22.55108,-0.76699483,-10.111132
13768000,0.017297477,-0.01571557,0.22413684,22.376816,-0.7893708,-10.2395935
13772000,0.02379566,-0.01681311,0.24007072,22.200893,-0.74940753,-10.340591
13776000,0.028219705,-0.015908513,0.25153333,21.983229,-0.6492055,-10.316467
13780000,0.031302314,-0.021368425,0.2654586,21.801805,-0.5911309,-10.233702
13784000,0.042249665,-0.026959501,0.28007215,21.544746,-0.5334484,-10.291124
13788000,0.05400992,-0.02541956,0.2897747,21.386084,-0.45100448,-10.316983
13792000,0.056467403,-0.02398874,0.2964847,21.309725,-0.3854768,-10.250277
13796000,0.060854502,-0.022505375,0.30473244,21.309725,-0.3854768,-10.250277
13800000,0.06639143,-0.01958046,0.31443474,20.939863,-0.4595449,-10.266378
13804000,0.073177226,-0.017833073,0.3249224,20.678268,-0.4824188,-10.17264
13808000,0.084302306,-0.020420821,0.33297056,20.50772,-0.40612885,-10.171699
13812000,0.09238365,-0.022973815,0.33989966,20.47576,-0.22444044,-10.214576
13816000,0.09290159,-0.015931897,0.34614322,20.222845,-0.22011511,-10.184656
13820000,0.09887122,-0.01364375,0.34938094,19.949764,-0.28864953,-10.208095
13828000,0.11680184,-0.005628423,0.35875145,19.74197,-0.15686676,-10.244499
13832000,0.12701283,-0.000658029,0.36083812,19.606659,0.044658247,-10.315625
13836000,0.14318617,-0.001659936,0.3527176,19.318048,-0.006806593,-10.455665
13844000,0.15661238,0.001030571,0.34558064,19.17875,-0.011610176,-10.507197
13848000,0.17103559,-0.000791929,0.347891,19.018955,0.1046276,-10.459768
13852000,0.17605603,-0.004868603,0.34235144,18.867542,0.14372328,-10.389086
13856000,0.1825866,-0.006226953,0.33936387,18.610207,0.040331345,-10.316245
13860000,0.18663423,-0.005258043,0.33132413,18.420376,-0.007216255,-10.321081
13864000,0.19818489,-2.76E-05,0.32498112,18.361824,0.08802657,-10.418879
13868000,0.206577,-0.000813874,0.32435596,18.265213,0.19132712,-10.450224
13872000,0.21643183,-0.007546378,0.31057665,18.100258,0.18698718,-10.434598
13876000,0.22635971,-0.007691337,0.29882252,17.894943,0.1010822,-10.386843
13880000,0.23010714,-0.003269535,0.2921641,17.76308,0.08568609,-10.367258
13888000,0.24673975,0.001441949,0.26244366,17.411333,0.21084075,-10.358262
13892000,0.25138068,-0.001882117,0.25241745,17.274689,0.22053494,-10.431928
13896000,0.25811118,-0.010512682,0.23821895,17.207672,0.21792759,-10.418488
13900000,0.2685047,-0.010123313,0.22483462,17.072054,0.22676878,-10.3493595
13904000,0.2770542,-0.005641998,0.21130887,16.893198,0.29850778,-10.2291155
13912000,0.29589427,-0.001420174,0.18910232,16.665031,0.48643422,-10.384702
13916000,0.30553892,-0.000347039,0.16971186,16.513624,0.54002744,-10.405633
13924000,0.31401247,0.006973961,0.13790098,16.353931,0.82338893,-10.190157
13928000,0.32084313,-0.006577458,0.12150028,16.050255,0.8563568,-10.231147
13932000,0.32899576,-0.004671894,0.11687988,15.901214,0.89251614,-10.24631
13936000,0.32871434,-0.000439281,0.10371943,15.947435,0.9891198,-10.26365
13944000,0.3389448,-0.010194594,0.07660893,15.537554,1.0403892,-10.239504
13948000,0.3473948,-0.006979566,0.065681994,15.37151,1.0520606,-10.26607
13956000,0.34854102,-0.013302801,0.038073983,15.099809,0.9839687,-10.356291
13960000,0.35235003,-0.019961342,0.023561291,14.825511,1.0419879,-10.429567
13964000,0.35786113,-0.023530036,0.017879147,14.61215,0.9913443,-10.368907
13972000,0.35210115,-0.025220202,-0.010444932,14.340902,1.0041134,-10.390937
13980000,0.36231133,-0.033770338,-0.029044578,14.058012,0.9716178,-10.375987
13984000,0.35929415,-0.044488713,-0.040173195,13.872266,0.9412346,-10.375128
13988000,0.35770184,-0.044894062,-0.053160887,13.601677,0.950567,-10.286855
13992000,0.36025247,-0.04272806,-0.06730317,13.419779,0.95063925,-10.233457
14000000,0.3665279,-0.05107526,-0.093280025,13.206964,0.92755693,-10.238325
14004000,0.36000752,-0.05554774,-0.10045681,13.091045,0.8721069,-10.1894655
14008000,0.35762227,-0.06188961,-0.10809273,12.965746,0.8605012,-10.066727
14012000,0.3557015,-0.06779119,-0.11823925,12.831163,0.86942863,-10.078821
14016000,0.35698208,-0.06827169,-0.12731084,12.570446,0.9041105,-10.126374
14024000,0.36373055,-0.07035058,-0.14733894,12.34481,0.8958589,-10.047678
14028000,0.35856903,-0.076345116,-0.15584,12.214908,0.7880668,-10.008139
14032000,0.35237128,-0.07626878,-0.16275367,12.079111,0.76074034,-9.97565
14040000,0.36369398,-0.08925092,-0.18567967,11.7791195,0.7269855,-9.844059
14044000,0.3602678,-0.08959275,-0.1933972,11.611759,0.54074717,-9.861556
14052000,0.34970602,-0.086611524,-0.20516202,11.229153,0.35005733,-9.92549
14060000,0.35041383,-0.08228311,-0.21100588,10.946629,0.3648177,-9.949264
14068000,0.34021288,-0.08442936,-0.21599486,10.4669895,0.19190489,-9.800217
14076000,0.33249518,-0.08427015,-0.23267476,10.302954,0.13440746,-9.741774
14080000,0.33781183,-0.08061813,-0.23538421,10.08484,0.10231528,-9.767557
14084000,0.33195952,-0.083503306,-0.23969458,9.967955,0.021317378,-9.81424
14088000,0.32479253,-0.08621624,-0.24295802,9.892818,-0.05116721,-9.796226
14092000,0.32185736,-0.07979073,-0.23973548,9.77525,-0.096138075,-9.703931
14096000,0.31989437,-0.07154783,-0.24556194,9.584555,-0.19145463,-9.674248
14100000,0.31937414,-0.07766113,-0.25283048,9.351146,-0.24607834,-9.708695
14104000,0.31717703,-0.07772513,-0.24614725,9.252535,-0.26314777,-9.650893
14108000,0.31071404,-0.07468078,-0.24177629,9.137128,-0.29596174,-9.557077
14116000,0.30799052,-0.06570613,-0.2559501,8.874853,-0.356732,-9.563833
14124000,0.29874054,-0.05817056,-0.25391284,8.695121,-0.5341467,-9.653198
14128000,0.29273394,-0.052091025,-0.25312138,8.514114,-0.5626898,-9.5838
14132000,0.29142457,-0.05447363,-0.25035647,8.262237,-0.6430207,-9.589013
14136000,0.29476982,-0.054733753,-0.25104538,8.156216,-0.7024631,-9.565991
14140000,0.2932621,-0.044337157,-0.24579597,8.049404,-0.722041,-9.530345
14148000,0.2818532,-0.036631446,-0.24562857,7.9884224,-0.8158195,-9.543697
14152000,0.28320587,-0.033415593,-0.2502559,7.7875495,-0.88188654,-9.636911
14156000,0.27945596,-0.031474937,-0.24601915,7.7407665,-0.8240765,-9.552429
14160000,0.27281746,-0.029343465,-0.24288884,7.7496066,-0.84713143,-9.511651
14168000,0.2703899,-0.020687941,-0.23493092,7.5209827,-0.8698946,-9.479635
14172000,0.27150926,-0.016436517,-0.23624983,7.3739367,-0.8931142,-9.519065
14176000,0.265561,-0.006094499,-0.23222622,7.406156,-0.86143816,-9.51542
14180000,0.26334047,0.001639805,-0.23037866,7.4214735,-0.7719837,-9.543762
14188000,0.26502645,0.003676852,-0.2161166,7.2808595,-0.70055026,-9.575195
14192000,0.25376964,0.006476099,-0.21546967,7.1838565,-0.8523951,-9.60348
14200000,0.25639406,0.01706523,-0.2131598,7.1506,-0.814553,-9.561591
14204000,0.24890347,0.02344465,-0.20920628,7.1446185,-0.73572284,-9.606065
14212000,0.25012347,0.04086599,-0.19503318,6.838637,-0.7720592,-9.608691
14216000,0.2422154,0.046139345,-0.18421257,6.9360547,-0.6702685,-9.620602
14220000,0.23679662,0.014928527,-0.13987875,5.0418186,-2.6686132,-11.270383
14224000,0.23925509,-0.013972912,-0.09109223,4.8665137,-2.7954671,-11.347847
14232000,0.23442227,-0.017184062,-0.063722484,6.4148145,-0.8628287,-9.794468
14240000,0.22893253,-0.008485789,-0.042642396,6.269409,-0.9157237,-9.867741
14244000,0.23205142,-0.00940316,-0.03166816,6.228845,-0.78972244,-9.91777
14248000,0.23106864,-0.007200134,-0.021823177,6.168314,-0.8531065,-9.890633
14252000,0.22776262,-0.002802103,-0.010841592,6.0992284,-0.8401022,-9.86295
14260000,0.22843155,-0.000748993,0.00635203,6.1236753,-0.8050128,-9.904197
14264000,0.22584216,0.002247035,0.028626783,5.9569416,-0.77134746,-9.982165
14272000,0.22089389,-0.005071133,0.041155666,5.8371334,-0.67564577,-9.8751
14276000,0.2210705,0.002958329,0.06179006,5.819342,-0.647971,-9.840549
14280000,0.21860735,0.011304039,0.08083373,5.804996,-0.6322209,-9.885849
14284000,0.22758432,0.011140614,0.093756124,5.781855,-0.588379,-9.8898535
14288000,0.22812153,0.007122939,0.097243935,5.7202725,-0.53929967,-9.903369
14292000,0.21961041,0.007780654,0.10522725,5.613585,-0.535357,-9.947585
14296000,0.21775764,0.015066925,0.11953678,5.6059203,-0.52559763,-9.941807
14300000,0.21914886,0.015135049,0.12742534,5.5428247,-0.5312882,-9.997288
14304000,0.22038874,0.017978366,0.13074452,5.5021424,-0.38346595,-10.079994
14308000,0.21830125,0.022179056,0.13731003,5.4949346,-0.3338043,-10.083682
14312000,0.22163102,0.024065444,0.14862077,5.465177,-0.40143996,-10.097268
14316000,0.21356522,0.034914777,0.15695369,5.396325,-0.39861146,-10.155404
14324000,0.21276294,0.046171874,0.16531596,5.273493,-0.308268,-10.213395
14328000,0.20868394,0.04699378,0.16763233,5.118967,-0.27944812,-10.256537
14332000,0.21177411,0.059923783,0.17281944,5.0386133,-0.26554564,-10.273469
14340000,0.20584679,0.072041,0.17805627,5.0767627,-0.11208787,-10.426947
14344000,0.20790674,0.08317546,0.1782631,5.095227,-0.033196997,-10.507545
14348000,0.20860232,0.098763324,0.1806242,5.1027584,-0.000826072,-10.531562
14352000,0.20920335,0.10964485,0.18010299,5.0379157,0.024761135,-10.61678
14356000,0.20753099,0.114788204,0.17804597,4.968122,0.023417696,-10.710033
14360000,0.20645851,0.12543072,0.17181787,4.907543,0.060248163,-10.8333025
14368000,0.19715217,0.14384341,0.164506,4.799214,0.05801652,-11.015436
14372000,0.1956229,0.14933959,0.16602492,4.6468563,0.08447148,-11.360494
14376000,0.19256538,0.1638125,0.16207702,4.56164,0.1069439,-11.389752
14380000,0.19510598,0.1773305,0.15969764,4.565347,0.12390049,-11.397919
14384000,0.19699562,0.18009768,0.15740427,4.4517946,0.1800568,-11.600619
14388000,0.19510376,0.18942043,0.15012753,4.31964,0.16102245,-11.800637
14392000,0.19629051,0.19992909,0.15307409,4.334424,0.0993561,-11.941087
14400000,0.19092388,0.21532269,0.14870216,4.194435,0.11493502,-12.113686
14404000,0.18662031,0.22019698,0.14298646,4.0850496,0.15088727,-12.294093
14408000,0.18398756,0.2208187,0.13610256,4.0447583,0.11739883,-12.40772
14416000,0.18452023,0.23940836,0.116794854,3.984616,0.14292087,-12.797364
14420000,0.18200211,0.2453299,0.116902575,3.984616,0.14292087,-12.797364
14424000,0.17948505,0.24165659,0.118157744,3.9135287,0.11230744,-12.888413
14432000,0.16950974,0.24546534,0.11117518,3.710912,0.19641404,-13.233206
14436000,0.17142864,0.25732988,0.10956357,3.6585367,0.14690825,-13.376725
14440000,0.17467862,0.2599876,0.10808096,3.6265564,0.13768205,-13.533028
14444000,0.16913198,0.2555146,0.09839967,3.6030319,0.1153857,-13.573808
14448000,0.17302358,0.2609304,0.0858857,3.5405352,0.1252132,-13.59721
14452000,0.17025894,0.26640835,0.07959911,3.4825168,0.11909505,-13.778653
14456000,0.16360539,0.26966622,0.07713199,3.469937,0.13729979,-14.024821
14460000,0.16567518,0.2721837,0.0732782,3.4186776,0.119288884,-14.143502
14464000,0.16175315,0.26733506,0.07098748,3.3177075,0.07836593,-14.290406
14468000,0.15931726,0.26936164,0.069703005,3.3113732,0.15039842,-14.324606
14472000,0.15757337,0.27153555,0.059888426,3.3177469,0.15413137,-14.340897
14476000,0.15699293,0.26950368,0.056813415,3.2628136,0.1590278,-14.483997
14484000,0.14977811,0.27062067,0.045026023,3.1479268,0.117888965,-14.652912
14488000,0.14963894,0.26950797,0.03818155,3.0236423,0.106406495,-14.781071
14492000,0.14711714,0.26952526,0.03395984,2.9701066,0.10201507,-14.859036
14496000,0.14890163,0.26907608,0.033038594,2.9542298,0.076164775,-14.876203
14500000,0.15031049,0.269736,0.03083426,2.9829202,0.10399385,-14.872806
14504000,0.14325798,0.2693549,0.02480319,2.994425,0.10891133,-14.893615
14512000,0.13516738,0.2707832,0.01914264,2.9461517,0.08215912,-15.082446
14516000,0.13482697,0.2647652,0.016348131,2.9089103,0.036916226,-15.076077
14524000,0.14051327,0.26411664,0.012470026,2.7974894,0.14352307,-15.115094
14528000,0.13668808,0.26030794,0.003865908,2.822471,0.0827667,-15.209343
14532000,0.13578294,0.25613204,-0.004111542,2.770272,0.0784863,-15.182778
14540000,0.12765537,0.24800168,-0.002785858,2.6611652,0.049467344,-15.264038
14544000,0.12896982,0.24300712,-0.004623777,2.6213958,-0.019158078,-15.295825
14548000,0.12617305,0.2446458,-0.006915532,2.6720808,-0.018991115,-15.273083
14552000,0.12818444,0.2425925,-0.009275109,2.6676583,-0.09704245,-15.274367
14560000,0.121673346,0.23316,-0.019638311,2.626142,0.10344823,-15.291979
14564000,0.12408252,0.2211209,-0.022358151,2.525126,0.047893815,-15.319713
14572000,0.118840665,0.22871515,-0.019955816,2.4637065,-0.078515865,-15.21338
14576000,0.11353998,0.22334544,-0.018877385,2.3986864,-0.10878464,-15.157299
14580000,0.108937584,0.21605398,-0.022527387,2.3698123,-0.07668764,-15.164281
14584000,0.11079683,0.20893694,-0.027235372,2.3662565,-0.058121078,-15.178592
14588000,0.109685004,0.20275702,-0.028944721,2.3973675,0.015287586,-15.112563
14592000,0.110435165,0.2055648,-0.029458065,2.3206835,-0.031891424,-15.068003
14596000,0.11330012,0.2070618,-0.032305926,2.2627337,-0.14583167,-15.108652
14600000,0.11143176,0.20202842,-0.027733112,2.2820246,-0.09907189,-15.090349
14604000,0.10914685,0.19940107,-0.026559757,2.2541113,-0.07536141,-15.043922
14608000,0.10570073,0.1960829,-0.03090873,2.2436929,-0.15440848,-15.043262
14612000,0.1050327,0.1909704,-0.027395364,2.268944,-0.22572802,-15.004643
14616000,0.10008908,0.18465085,-0.024049757,2.224459,-0.20349221,-14.983117
14620000,0.097286716,0.17972378,-0.025824958,2.2218952,-0.16849223,-14.911993
14624000,0.09535877,0.17325497,-0.024502262,2.1715393,-0.1773328,-14.861993
14632000,0.08705141,0.18182838,-0.019557826,2.1358976,-0.2253046,-14.761838
14636000,0.087819465,0.17607743,-0.024296904,2.0654337,-0.26351923,-14.682471
14640000,0.09359399,0.17226827,-0.024317555,2.09041,-0.23437835,-14.589182
14644000,0.09958888,0.1725286,-0.026838234,2.082098,-0.21588969,-14.554135
14648000,0.09679413,0.16629007,-0.019488858,2.0369306,-0.21727963,-14.582977
14652000,0.09411655,0.16257533,-0.015028537,2.0273967,-0.21962985,-14.562734
14656000,0.09728596,0.16138422,-0.017615179,1.9765487,-0.22185037,-14.53789
14664000,0.0914056,0.15743971,-0.00837298,2.095421,-0.31858748,-14.3014555
14668000,0.08816307,0.15921532,-0.00590088,2.0257592,-0.27566624,-14.237596
14672000,0.09291335,0.15753634,-0.006904194,1.9512153,-0.27978355,-14.216807
14680000,0.08750488,0.15397087,0.003708519,1.9580873,-0.25899825,-14.148255
14684000,0.089048825,0.15122171,0.005216144,1.9029981,-0.2551605,-14.137914
14688000,0.08481747,0.14914165,0.004851803,1.8134528,-0.3018811,-14.083997
14696000,0.08754694,0.15202981,0.013024623,1.9020736,-0.31273645,-13.985034
14700000,0.089165896,0.14579475,0.014112294,1.8959545,-0.38038862,-13.987782
14704000,0.08517224,0.14941798,0.019071808,1.8766319,-0.39159554,-13.971367
14708000,0.08109655,0.14405294,0.021122945,1.8456277,-0.37960187,-13.952563
14712000,0.08757556,0.13819346,0.020640831,1.8178326,-0.3056032,-13.924547
14716000,0.08980429,0.1424193,0.02511864,1.8222154,-0.20596118,-13.842101
14720000,0.08785956,0.13851474,0.029734666,1.7997421,-0.31846127,-13.753484
14728000,0.07629224,0.14625312,0.029753923,1.8123204,-0.34630278,-13.731896
14736000,0.07891434,0.1471523,0.035035226,1.6967366,-0.35360616,-13.652628
14740000,0.08187494,0.14523107,0.039283153,1.7132903,-0.3344963,-13.715696
14744000,0.07598056,0.14122635,0.044652134,1.7265911,-0.41339073,-13.729433
14752000,0.07301955,0.13971001,0.052282084,1.6845572,-0.3384165,-13.689863
14756000,0.074708104,0.14334016,0.053017307,1.7534758,-0.32949218,-13.575835
14764000,0.075378925,0.14856857,0.055928636,1.6200866,-0.36878797,-13.568029
14768000,0.07537757,0.15026253,0.063346654,1.6453575,-0.36262405,-13.618152
14772000,0.073833816,0.1480953,0.061963085,1.6826998,-0.3078996,-13.548459
14780000,0.06857484,0.14795862,0.062504046,1.6026276,-0.30317348,-13.6024885
14788000,0.06645193,0.15058671,0.075475335,1.5031979,-0.28561,-13.486403
14796000,0.064829275,0.15145166,0.07636209,1.6259228,-0.3332341,-13.485166
14800000,0.059529066,0.15713161,0.08348419,1.5343341,-0.35312894,-13.490019
14804000,0.061661746,0.16115421,0.08229583,1.4937327,-0.34746715,-13.448747
14808000,0.06380762,0.15968572,0.08336269,1.4629339,-0.35114685,-13.457379
14816000,0.06158217,0.15444325,0.09226971,1.4889388,-0.2746202,-13.405059
14820000,0.06350411,0.15768903,0.096468836,1.3750525,-0.3020055,-13.476702
14824000,0.06533577,0.161514,0.09794247,1.4096241,-0.2639669,-13.47807
14828000,0.067458406,0.16363266,0.100781426,1.4400015,-0.2760153,-13.488355
14832000,0.071051426,0.16206393,0.10515083,1.4467986,-0.27969086,-13.501367
14836000,0.066248536,0.15895772,0.10110125,1.4178623,-0.24089198,-13.4688635
14840000,0.06209004,0.16036102,0.09986286,1.3794686,-0.29506016,-13.512826
14844000,0.05660165,0.1672721,0.10412449,1.4033883,-0.3255486,-13.492227
14848000,0.05717312,0.16882622,0.10360983,1.34933,-0.23582645,-13.532197
14852000,0.062861815,0.1723791,0.10039501,1.2928468,-0.26172078,-13.634207
14856000,0.06562006,0.17582929,0.10183417,1.317329,-0.29911524,-13.694758
14860000,0.062842675,0.16921332,0.10912966,1.3253436,-0.28083202,-13.638091
14864000,0.05321806,0.16552444,0.117567234,1.2901448,-0.3169748,-13.582273
14868000,0.049249656,0.17158198,0.1113203,1.2672235,-0.31100833,-13.6153555
14876000,0.056139022,0.17649856,0.104570955,1.3298373,-0.2429094,-13.725899
14884000,0.053633254,0.17719671,0.10346185,1.358008,-0.3178488,-13.676266
14888000,0.05588285,0.18117128,0.10406113,1.2824616,-0.33233112,-13.701225
14892000,0.056431793,0.18110056,0.108556055,1.2140355,-0.29409772,-13.730308
14896000,0.05637776,0.18518564,0.10794226,1.2095377,-0.27930462,-13.710065
14900000,0.053805877,0.18928142,0.109328106,1.2321793,-0.28938875,-13.746533
14908000,0.04859893,0.19076379,0.111594394,1.215767,-0.29536453,-13.874124
14912000,0.050606877,0.18892793,0.10641055,1.1686261,-0.31308103,-13.819865
14916000,0.052043546,0.18420182,0.10720137,1.2213726,-0.2467476,-13.878102
14920000,0.047846463,0.18746488,0.10761394,1.1875838,-0.23310298,-13.922037
14924000,0.048183367,0.19291863,0.11226434,1.2024333,-0.28003642,-13.896436
14928000,0.04927163,0.19333167,0.110798836,1.2169644,-0.25131693,-13.940988
14932000,0.047965825,0.19288568,0.10576368,1.13186,-0.17342687,-13.981898
14936000,0.040023346,0.19126019,0.11273072,1.167652,-0.17357576,-13.942146
14944000,0.0462977,0.18956903,0.1006109,1.1598749,-0.2191149,-14.01037
14948000,0.051886786,0.18952203,0.10707005,1.0665078,-0.2570949,-14.005397
14952000,0.04903918,0.19696416,0.105172426,1.1002452,-0.31322014,-13.96025
14956000,0.03986756,0.20092383,0.09794199,1.1360903,-0.28789905,-14.00032
14960000,0.038683653,0.19749409,0.101824686,1.1810812,-0.1929099,-14.107188
14964000,0.037375204,0.19835143,0.10257571,1.2120396,-0.13636485,-14.11862
14968000,0.04251255,0.19998685,0.09625445,1.1783723,-0.19744466,-14.095776
14972000,0.0434959,0.20067987,0.09398688,1.1272869,-0.23557967,-14.121808
14976000,0.041873977,0.19363265,0.09299339,1.1318892,-0.26605374,-14.131018
14980000,0.044170115,0.19780529,0.09006011,1.1231251,-0.2727791,-14.121049
14984000,0.04604638,0.20311895,0.0937469,1.089036,-0.26602763,-14.090609
14988000,0.043133404,0.20069356,0.09666744,1.0974796,-0.1941036,-14.118611
14992000,0.03770197,0.20271981,0.09402897,1.0452851,-0.13529119,-14.145213
14996000,0.037775584,0.2007742,0.08647509,1.0412135,-0.21688241,-14.113195
15004000,0.041170605,0.2004904,0.08745942,1.1116041,-0.25714403,-14.132867
15008000,0.03683854,0.19871235,0.08698253,1.0768446,-0.2832301,-14.151895
15012000,0.03149556,0.20002072,0.08415635,1.0421335,-0.2785008,-14.213542
15016000,0.034164954,0.19901913,0.08049386,1.0789211,-0.3665187,-14.237443
15024000,0.036997665,0.19322695,0.06956811,1.163233,-0.29681018,-14.137827
15028000,0.032652557,0.19810528,0.07395276,1.138302,-0.28660953,-14.223107
15036000,0.034142226,0.19403379,0.073197834,1.054311,-0.20651029,-14.196115
15040000,0.032725863,0.1950199,0.0737767,1.0872569,-0.25862762,-14.232684
15044000,0.031601816,0.19074085,0.06799983,1.1086259,-0.31730214,-14.251996
15048000,0.035589408,0.1902982,0.067371085,1.0416896,-0.31956017,-14.189086
15052000,0.036582403,0.19629614,0.064864956,0.9746502,-0.2620957,-14.202634
15056000,0.034104582,0.19762588,0.05971168,0.9645446,-0.16526121,-14.239667
15060000,0.039590165,0.19605285,0.060424834,1.0711308,-0.15925127,-14.219418
15064000,0.038635377,0.19549142,0.059025727,1.1097784,-0.28050935,-14.294816
15072000,0.034288734,0.19509661,0.05794429,0.98443043,-0.3347673,-14.233341
15076000,0.023961231,0.19270024,0.061726164,0.960237,-0.25186732,-14.211743
15084000,0.026960764,0.19421244,0.053355277,1.0999963,-0.26564628,-14.239337
15088000,0.032288447,0.19689505,0.049186368,1.0691972,-0.23952371,-14.279799
15096000,0.02506989,0.19453196,0.053626582,1.0006498,-0.30290607,-14.232002
15100000,0.028142316,0.18830621,0.050923645,1.000997,-0.28251126,-14.182731
15104000,0.026105786,0.18929152,0.051075704,1.0250201,-0.24142796,-14.179702
15112000,0.025657808,0.18575433,0.052767914,1.0115179,-0.32883218,-14.161251
15116000,0.020142393,0.18429038,0.04827317,1.0940676,-0.23597696,-14.121403
15120000,0.02652062,0.18484116,0.04928346,1.0566287,-0.27452308,-14.095067
15124000,0.027847469,0.18641318,0.05184985,1.0789402,-0.27282244,-14.089246
15128000,0.021854537,0.18818977,0.048273392,1.1501644,-0.26425615,-14.078094
15136000,0.020403845,0.18525672,0.04947221,1.0088156,-0.32964745,-14.1018915
15144000,0.017411407,0.18716581,0.040886246,0.9835002,-0.27382866,-14.079904
15148000,0.018373195,0.18914582,0.040463522,1.0152857,-0.28010514,-14.017638
15156000,0.020712588,0.18401843,0.045311876,1.0376711,-0.41799784,-14.024165
15160000,0.021525932,0.18295015,0.04218403,1.0309572,-0.38938183,-14.037239
15164000,0.02293224,0.18212926,0.040564954,1.0200632,-0.38600397,-14.03555
15168000,0.01958719,0.17766005,0.043007728,1.001053,-0.35959974,-13.976037
15172000,0.016401755,0.18011846,0.044840332,1.0224739,-0.37201747,-13.891625
15176000,0.019533193,0.1794342,0.043059,1.0494906,-0.44118285,-13.941861
15184000,0.011526711,0.18290694,0.0342819,0.9814887,-0.37980908,-13.9193735
15188000,0.011128219,0.17752899,0.03227817,0.95582956,-0.40192935,-13.963906
15192000,0.01888523,0.17412551,0.03513657,0.9654738,-0.4161655,-13.964295
15196000,0.024212666,0.17517845,0.037540402,1.0284011,-0.3923429,-13.933782
15200000,0.025718234,0.17712522,0.034671403,1.0203056,-0.31025195,-13.927799
15208000,0.014206371,0.17424749,0.045166258,1.0528853,-0.41562465,-13.892402
15212000,0.011160367,0.1690179,0.04207556,1.0488993,-0.40169102,-13.942836
15216000,0.011184036,0.17226185,0.03487163,1.0773097,-0.34282786,-13.946041
15220000,0.020119118,0.17926434,0.03578298,1.1130363,-0.3611447,-13.896478
15228000,0.01730476,0.17814736,0.039553296,1.0374695,-0.37897736,-13.859464
15236000,0.009867213,0.17555982,0.046256114,1.0299705,-0.43488097,-13.737621
15240000,0.007322616,0.17361547,0.041424636,1.1137636,-0.39614815,-13.71692
15248000,0.011992169,0.17631517,0.052829772,1.0803784,-0.44803256,-13.865372
15252000,0.014014467,0.1758397,0.057210267,1.0945549,-0.34669814,-13.811225
15256000,0.013272819,0.17259775,0.046449672,1.1002394,-0.37815407,-13.738887
15264000,0.007378638,0.16616902,0.05202576,1.1267279,-0.452251,-13.725311
15268000,0.009073217,0.16854244,0.051833894,1.054718,-0.47033194,-13.706416
15276000,0.0161986,0.17533727,0.043439046,1.0526898,-0.472804,-13.696748
15280000,0.01646922,0.17364578,0.048360158,1.1203885,-0.47585905,-13.723186
15284000,0.00888101,0.17464504,0.048603885,1.0496259,-0.4646016,-13.7115555
15288000,0.007144398,0.17847785,0.04985808,1.1055753,-0.50555116,-13.65194
15292000,0.011653733,0.18189825,0.048096985,1.1095814,-0.46214092,-13.623303
15296000,0.011877044,0.1773504,0.050062504,1.0819659,-0.52552605,-13.751186
15300000,0.006755512,0.16995429,0.054314926,1.0819291,-0.53067243,-13.743283
15304000,0.008497915,0.16676722,0.057008892,1.0080762,-0.45169804,-13.613069
15308000,0.013680388,0.16588065,0.052850828,0.99259835,-0.478507,-13.588109
15312000,0.014763075,0.16604887,0.049557537,1.0244296,-0.46724397,-13.691842
15316000,0.012819936,0.17128065,0.05271564,1.0577233,-0.4632661,-13.735246
15320000,0.012002778,0.17542304,0.05349286,1.0737543,-0.44949114,-13.699744
15328000,0.010738692,0.17468794,0.062291447,1.0717179,-0.47710454,-13.6445
15332000,0.005829359,0.17179443,0.05874805,1.06676,-0.47461978,-13.654604
15336000,0.011434849,0.17349935,0.06367595,0.99888074,-0.519156,-13.6289425
15340000,0.014958593,0.17574488,0.061245915,1.0342534,-0.49482402,-13.656437
15348000,0.007984184,0.18187475,0.06125825,1.0387615,-0.47381145,-13.607809
15352000,0.004158568,0.18073353,0.06334973,1.0078434,-0.5173982,-13.6337
15356000,-0.000274043,0.1792193,0.06539517,0.98428583,-0.51673406,-13.616926
15360000,0.005143153,0.17718922,0.062659524,1.0162075,-0.43538734,-13.659919
15364000,0.006178377,0.17961445,0.05818028,1.0996267,-0.44912067,-13.678996
15368000,0.003067873,0.17901416,0.06038333,1.0766065,-0.52774006,-13.681545
15372000,0.006423227,0.17758928,0.062371846,1.0792012,-0.56991106,-13.624538
15376000,0.01066934,0.17965874,0.06241035,1.1003332,-0.609658,-13.614648
15380000,0.007645212,0.1808679,0.059075795,1.068937,-0.47292772,-13.669378
15384000,0.013614202,0.18619168,0.057038534,1.0541978,-0.44204065,-13.665059
15388000,0.014380598,0.18238136,0.059605777,1.0528104,-0.5201819,-13.651792
15392000,0.010345419,0.17736211,0.06687929,1.0674757,-0.44906563,-13.650297
15396000,0.012627263,0.1839477,0.07275756,1.1205721,-0.43495142,-13.617356
15400000,0.011429647,0.18235414,0.072944626,1.14832,-0.4509734,-13.6095495
15404000,0.006509312,0.17886372,0.07261474,1.1331748,-0.46279684,-13.682858
15408000,0.00847385,0.17948432,0.07151752,1.1347715,-0.48446274,-13.692892
15416000,0.001716515,0.18097189,0.07038812,1.0906155,-0.4120907,-13.673795
15424000,0.005162675,0.18800452,0.07087611,1.1601146,-0.45317024,-13.729404
15428000,0.006362279,0.18217582,0.072505005,1.0911099,-0.44976264,-13.808734
15436000,0.004924145,0.17920582,0.078672566,1.1068233,-0.46011576,-13.651469
15440000,0.001357315,0.1841531,0.07606327,1.1669217,-0.48507047,-13.653627
15448000,0.003103135,0.18428421,0.0742545,1.1105908,-0.5014833,-13.749945
15452000,0.007966728,0.1859047,0.07566403,1.0846916,-0.48972282,-13.773268
15456000,0.007356511,0.18055147,0.07447038,1.1149924,-0.49037388,-13.812086
15460000,0.000227059,0.17744999,0.0705986,1.1926076,-0.5061748,-13.792521
15464000,0.002747803,0.17785257,0.07245647,1.2385563,-0.50351244,-13.729579
15468000,0.003556011,0.18393892,0.07869834,1.2181698,-0.47533894,-13.724825
15476000,0.004110906,0.18424308,0.075871065,1.1775923,-0.58549607,-13.738172
15484000,0.001244175,0.1869783,0.075790115,1.1533614,-0.50460714,-13.711046
15488000,-0.003973868,0.19079229,0.072959006,1.2314851,-0.4290113,-13.776966
15492000,-0.00346949,0.18880236,0.07170677,1.1966023,-0.44459733,-13.79416
15496000,0.001972968,0.19230442,0.06789476,1.1430423,-0.46323946,-13.7691345
15500000,0.003102845,0.19308032,0.069053136,1.2413586,-0.5019141,-13.734255
15504000,-0.003557934,0.19459051,0.07435127,1.2967668,-0.4946551,-13.781488
15508000,-0.002495096,0.19752169,0.07028471,1.2415333,-0.45910865,-13.825498
15512000,0.000657282,0.19238882,0.0658199,1.2257385,-0.43672338,-13.764011
15516000,-9.06E-05,0.18783884,0.06721577,1.2469076,-0.47857347,-13.773601
15520000,0.001584682,0.18434511,0.07168586,1.2727793,-0.5676903,-13.887452
15524000,0.002176323,0.1847129,0.07777728,1.235608,-0.517974,-13.969138
15528000,-0.000753759,0.18895999,0.07658351,1.196834,-0.49449486,-13.897454
15536000,0.002527589,0.19509093,0.07320875,1.1773454,-0.40758723,-13.9217825
15540000,-0.000635251,0.19359803,0.07286587,1.1775966,-0.36327448,-13.945164
15548000,-0.001473849,0.197062,0.07003047,1.3118222,-0.47986564,-13.82357
15552000,0.005212088,0.19249599,0.06672482,1.3113288,-0.48646805,-13.780137
15560000,0.002742079,0.2004592,0.07009094,1.2271941,-0.47649977,-13.872994
15564000,-0.000389274,0.1951617,0.07048627,1.2755916,-0.5112924,-13.871558
15568000,0.001868182,0.19284439,0.07163886,1.29531,-0.47914898,-13.825595
15572000,0.00150328,0.20078968,0.076953806,1.3236508,-0.55224085,-13.857229
15576000,0.001920746,0.20026667,0.073407896,1.2933328,-0.55469465,-13.897282
15584000,-0.013521963,0.19208622,0.06961589,1.2317437,-0.5238998,-13.898906
15588000,-0.00844227,0.19789945,0.07236642,1.2940632,-0.46357656,-13.8149605
15592000,-0.003645024,0.19437312,0.066484675,1.2801654,-0.49951234,-13.831924
15596000,-0.001576088,0.19412434,0.06209,1.2886593,-0.53858435,-13.897606
15604000,-0.007108448,0.19755301,0.05841116,1.3491955,-0.5275689,-13.885845
15608000,-0.003715412,0.19797273,0.056786116,1.3451344,-0.5962125,-13.917967
15612000,-0.003755291,0.20007746,0.05699568,1.2696255,-0.5706628,-13.952943
15616000,-0.007167505,0.19849002,0.056451764,1.2279273,-0.53959537,-13.90635
15620000,-0.005805755,0.19597352,0.05699802,1.3284007,-0.58735937,-13.954999
15628000,-0.003046452,0.20002857,0.053151537,1.3400985,-0.52052164,-13.94346
15632000,-0.0082838,0.20195213,0.05730186,1.3366209,-0.50611186,-13.933587
15640000,-0.00827844,0.20330362,0.06150064,1.3346939,-0.51177746,-13.961318
15644000,-0.008471679,0.20042121,0.059934035,1.2992282,-0.49047032,-13.952564
15648000,-0.00562412,0.20163691,0.053838924,1.2855418,-0.48866647,-13.924409
15656000,-0.007533632,0.19710453,0.05555962,1.398705,-0.47564837,-13.929901
15660000,-0.005876713,0.19639434,0.053779416,1.34163,-0.4756256,-13.960947
15664000,-0.008105723,0.19908442,0.057063095,1.2938393,-0.50215816,-14.007701
15668000,-0.004985209,0.20008026,0.05994111,1.3018341,-0.5299998,-14.012993
15672000,-0.011451338,0.2017067,0.06212486,1.3747221,-0.47245172,-13.939654
15680000,-0.007404538,0.19486442,0.052714095,1.3636018,-0.5753046,-13.886502
15684000,-0.014593745,0.19692661,0.055581685,1.3676109,-0.58394665,-13.947151
15688000,-0.012071233,0.20141035,0.056915328,1.3825675,-0.5363248,-13.9798
15692000,-0.008297951,0.20419253,0.05266599,1.4022306,-0.5181643,-13.963986
15700000,-0.002022063,0.20420627,0.052314855,1.3197287,-0.5180189,-13.93632
15704000,-0.011906152,0.20519347,0.053579953,1.3629087,-0.5438296,-13.9375925
15708000,-0.012455723,0.20143788,0.050166782,1.454869,-0.54224116,-13.916457
15712000,-0.009968089,0.1992156,0.046489447,1.4565864,-0.541287,-13.9376545
15716000,-0.012604421,0.2005611,0.04860833,1.4283588,-0.5506419,-13.961412
15720000,-0.008335233,0.19723453,0.049473897,1.4422481,-0.5748803,-13.933623
15728000,-0.010183404,0.1986406,0.051340733,1.4484085,-0.56602705,-13.921694
15732000,-0.017736753,0.19466908,0.05010375,1.4563187,-0.5769105,-13.976078
15736000,-0.013883702,0.19713709,0.051292878,1.4847807,-0.61060995,-14.028105
15744000,-0.011032413,0.1958187,0.05085805,1.5613174,-0.51556677,-13.952662
15748000,-0.013657516,0.19820447,0.057709727,1.5381454,-0.61424685,-13.940274
15756000,-0.020638281,0.19658966,0.053508956,1.5368503,-0.60878915,-14.006118
15760000,-0.01602701,0.20508556,0.04874706,1.5434335,-0.59776133,-13.925796
15764000,-0.012353787,0.20026298,0.048502523,1.5294722,-0.6472249,-13.927098
15768000,-0.007915789,0.20147786,0.04841085,1.5271817,-0.7238299,-13.930155
15772000,-0.01167783,0.20481235,0.042509835,1.5537627,-0.66111916,-13.976475
15776000,-0.012766281,0.20266128,0.047231063,1.5313013,-0.60189897,-13.995039
15780000,-0.006895375,0.20058909,0.04845025,1.5218219,-0.5504933,-13.981231
15784000,-0.0057826,0.19829337,0.04403017,1.5416682,-0.5875431,-13.955609
15788000,-0.007251672,0.19897668,0.045918606,1.5208633,-0.6250378,-13.964321
15792000,-0.014143743,0.2016458,0.05067729,1.53981,-0.6610644,-13.977706
15796000,-0.010736787,0.199111,0.051104873,1.6020918,-0.65302706,-13.927893
15804000,-0.01038601,0.2039306,0.052121997,1.5100106,-0.61022806,-13.900908
15812000,-0.01239926,0.19796742,0.053225514,1.5431831,-0.6046702,-13.951687
15820000,-0.010373051,0.20003371,0.05738446,1.6803333,-0.61733085,-13.929336
15824000,-0.014370822,0.19890255,0.059578314,1.5571954,-0.65258765,-13.987493
15832000,-0.008584593,0.20295243,0.05372073,1.6183625,-0.678055,-14.0154295
15836000,-0.003673228,0.20902525,0.047616877,1.6561648,-0.70915455,-14.006747
15840000,-0.009746787,0.20439978,0.04880576,1.6333586,-0.6726476,-13.9432535
15848000,-0.007146271,0.20350003,0.049118992,1.5883646,-0.6227493,-13.924872
15852000,-0.010519682,0.19885476,0.053070724,1.7400485,-0.6617399,-13.8995695
15856000,-0.015591519,0.20436163,0.058038685,1.7282587,-0.66615784,-13.951301
15860000,-0.019759383,0.20866369,0.06135394,1.6187308,-0.7073284,-13.971437
15864000,-0.01879832,0.20314638,0.05630816,1.5976145,-0.6958108,-13.983483
15872000,-0.013908207,0.1950919,0.057458423,1.6005305,-0.6383203,-13.949935
15880000,-0.015969884,0.19420822,0.05949916,1.6609563,-0.6073578,-14.088286
15884000,-0.009820921,0.19544078,0.05779419,1.5984349,-0.5959975,-14.091112
15888000,-0.0060364,0.19512782,0.05481916,1.6361439,-0.577245,-14.023629
15892000,-0.009055472,0.1958053,0.058976404,1.6903906,-0.647151,-13.949539
15900000,-0.018120872,0.19928853,0.056418497,1.7098135,-0.64177877,-14.014522
15904000,-0.014546646,0.19577271,0.05615934,1.7044567,-0.64796084,-14.027347
15912000,-0.020181121,0.1996999,0.05704761,1.6966583,-0.6177607,-14.05021
15916000,-0.021000205,0.19390973,0.048810456,1.7354537,-0.63774145,-14.012662
15920000,-0.013882855,0.19013985,0.056590937,1.7252263,-0.55688006,-13.968742
15924000,-0.011487209,0.19375636,0.06421518,1.750933,-0.53897804,-14.033368
15928000,-0.018818062,0.19887798,0.05349556,1.7569132,-0.6062663,-14.018693
15932000,-0.014599119,0.19988327,0.050837588,1.7407612,-0.6178981,-13.897429
15940000,-0.017736832,0.17906414,0.06300193,1.7387611,-0.61478204,-13.917613
15944000,-0.019207478,0.18318993,0.064621724,1.7290941,-0.6587742,-13.86933
15948000,-0.016727531,0.18539612,0.05983441,1.6826916,-0.6803656,-13.926968
15952000,-0.013358272,0.17992178,0.060353145,1.7386763,-0.66209894,-13.92052
15956000,-0.014205592,0.17460753,0.05767624,1.8130096,-0.6852754,-13.845231
15960000,-0.013527649,0.17230675,0.057250805,1.781918,-0.73709214,-13.801887
15964000,-0.010639217,0.17552485,0.054698333,1.767144,-0.65680516,-13.802635
15972000,-0.016518474,0.17114633,0.05905206,1.7159036,-0.6244057,-13.876747
15976000,-0.016494827,0.17099345,0.060445964,1.825498,-0.6666839,-13.735384
15980000,-0.017149864,0.16543822,0.061412267,1.8610414,-0.66347843,-13.688758
15984000,-0.040238816,0.16352843,0.05988448,1.817242,-0.62154865,-13.665743
15992000,-0.11233736,0.16451302,0.069204725,1.9478229,-0.694536,-13.59944
15996000,-0.14674114,0.16290654,0.061430126,1.8473314,-0.65527225,-13.633993
16000000,-0.1817204,0.1623666,0.058918685,1.7828296,-0.7105925,-13.602396
16004000,-0.21400143,0.16282326,0.06040748,1.8074964,-0.7222634,-13.558056
16012000,-0.27149063,0.1625031,0.056240194,1.86038,-0.6450443,-13.505386
16020000,-0.3150364,0.15606718,0.050730072,1.9013515,-0.680569,-13.422503
16024000,-0.3341095,0.15506889,0.04724355,1.9715995,-0.65264726,-13.5032625
16028000,-0.36317927,0.15609877,0.04757053,1.9836035,-0.660901,-13.472711
16036000,-0.39188457,0.14766654,0.04812153,1.9549549,-0.6002978,-13.457439
16040000,-0.4103042,0.15031567,0.04571303,1.9237891,-0.58329934,-13.460253
16048000,-0.44084084,0.14706856,0.04258804,1.9754584,-0.66924125,-13.418393
16052000,-0.44513384,0.14422987,0.0380699,1.8858553,-0.6233811,-13.337712
16056000,-0.45984438,0.14518479,0.034797583,1.8894998,-0.63600653,-13.314652
16060000,-0.47466034,0.14549744,0.036444083,1.9609916,-0.6400788,-13.394655
16068000,-0.5028912,0.141016,0.03916387,1.9291674,-0.62554425,-13.329772
16072000,-0.50795704,0.14366524,0.03680596,1.8798186,-0.6825113,-13.269404
16076000,-0.51718295,0.14312276,0.04491459,1.9063289,-0.6869935,-13.189407
16084000,-0.53571326,0.13600633,0.027286327,2.027394,-0.6128042,-13.183532
16088000,-0.53798676,0.13246876,0.030390222,1.9836265,-0.64217323,-13.103847
16092000,-0.5432767,0.12924714,0.036283787,1.9592079,-0.61380756,-13.030459
16096000,-0.5528332,0.13388887,0.035134062,1.9699072,-0.6366161,-13.083193
16100000,-0.5601673,0.13324973,0.02772673,1.9905579,-0.6825439,-13.123967
16104000,-0.5645785,0.12884915,0.021794379,1.98668,-0.65911484,-13.072452
16108000,-0.5639967,0.12838835,0.02605064,1.963495,-0.6850098,-13.015325
16112000,-0.56533915,0.1269544,0.024080353,1.9979498,-0.68604124,-13.034118
16116000,-0.5685488,0.12845442,0.013328733,2.0935347,-0.65169793,-13.035402
16120000,-0.5692701,0.12483675,0.015611857,2.099523,-0.6692753,-12.962201
16124000,-0.56944346,0.12285899,0.024730818,2.0833242,-0.6728303,-12.921266
16128000,-0.57301193,0.117836,0.019274736,2.0712056,-0.72527164,-12.833098
16136000,-0.583481,0.11031683,0.017018871,2.0733697,-0.6320111,-12.853232
16140000,-0.5888592,0.110776104,0.013226214,2.1327364,-0.67035496,-12.84545
16144000,-0.5848287,0.10955978,0.005788703,2.1526794,-0.6760667,-12.786881
16148000,-0.5834705,0.10694495,0.006830907,2.1771414,-0.7189117,-12.820282
16152000,-0.5834505,0.102047905,0.0064897,2.1744783,-0.7873747,-12.813054
16156000,-0.58590853,0.101187475,0.007134879,2.182801,-0.75513464,-12.695422
16160000,-0.592096,0.102999054,0.007514641,2.1450186,-0.6835252,-12.628338
16164000,-0.5891727,0.098272175,0.004857597,2.1345909,-0.72910535,-12.59458
16168000,-0.58938277,0.09337179,0.002639036,2.192252,-0.739708,-12.593496
16176000,-0.5823956,0.09361803,0.007342972,2.2466874,-0.80379236,-12.580045
16184000,-0.5904765,0.08521215,-0.00157956,2.2756803,-0.7904298,-12.524496
16188000,-0.58689123,0.0832932,-0.004303185,2.196937,-0.83312273,-12.4247265
16192000,-0.59115803,0.087014094,-0.004909859,2.1830218,-0.7917496,-12.416478
16196000,-0.5920259,0.08718614,-0.003687712,2.1602702,-0.71231335,-12.412633
16204000,-0.58592767,0.08526507,-0.004765173,2.2582412,-0.85734516,-12.341735
16208000,-0.58262837,0.08585099,-0.00191376,2.2703075,-0.7402092,-12.305214
16212000,-0.5785367,0.08441579,-0.004505882,2.2632604,-0.77945805,-12.203043
16216000,-0.5662133,0.084773645,-0.005948789,2.2682436,-0.78685486,-12.118694
16220000,-0.5624908,0.08111594,-0.007310866,2.232275,-0.803805,-12.1892805
16224000,-0.56953764,0.07957555,-0.012259132,2.2267964,-0.8572522,-12.21449
16228000,-0.57553756,0.07863293,-0.010952092,2.364032,-0.7938137,-12.184469
16232000,-0.5733659,0.07848919,-0.01123353,2.4043643,-0.7508887,-12.113059
16236000,-0.5661784,0.07345847,-0.012348121,2.3263314,-0.76110566,-12.054944
16240000,-0.5631102,0.065414414,-0.005322508,2.3085465,-0.74776727,-12.08149
16248000,-0.5677064,0.06944922,-0.011955554,2.4174957,-0.8365731,-11.942149
16256000,-0.557787,0.06401733,-0.01501344,2.3477132,-0.8848636,-11.896497
16260000,-0.5621089,0.06441212,-0.00864395,2.4531069,-0.8888513,-11.941009
16264000,-0.5605624,0.062900856,-0.01341697,2.4304826,-0.8582323,-11.909171
16272000,-0.54937345,0.057905916,-0.015306776,2.3955157,-0.82762474,-11.819305
16276000,-0.5526233,0.05787233,-0.014522936,2.3780854,-0.86316586,-11.805532
16280000,-0.55384415,0.06489817,-0.016792728,2.4482062,-0.8231325,-11.725392
16288000,-0.5371328,0.058648944,-0.018703677,2.4272926,-0.8545896,-11.646329
16292000,-0.53547865,0.05444675,-0.016574334,2.4843917,-0.87642753,-11.690228
16296000,-0.53628135,0.05096003,-0.011393799,2.4845803,-0.8238797,-11.629059
16304000,-0.5258914,0.05102794,-0.018323174,2.420468,-0.928798,-11.579586
16308000,-0.5179085,0.05119209,-0.020005248,2.463616,-0.8922272,-11.444022
16312000,-0.5133922,0.049677365,-0.02244388,2.4493945,-0.84435064,-11.404895
16316000,-0.5114633,0.045722842,-0.022802604,2.4524152,-0.8917238,-11.474722
16324000,-0.51229596,0.042491954,-0.01324032,2.406462,-0.9277158,-11.455878
16332000,-0.50932765,0.039580703,-0.017454326,2.509715,-0.89647686,-11.423899
16336000,-0.50459045,0.045309786,-0.02078126,2.5094714,-0.89185715,-11.307824
16340000,-0.50233364,0.04610334,-0.02357114,2.480495,-0.8909174,-11.289621
16344000,-0.5016473,0.041764855,-0.027912775,2.4431405,-0.86176044,-11.319712
16352000,-0.49755687,0.04396507,-0.030572828,2.5811532,-0.91598946,-11.21159
16356000,-0.49707446,0.048345126,-0.028212974,2.522115,-0.9080511,-11.211764
16360000,-0.49198377,0.04782083,-0.025283447,2.4988933,-0.9106681,-11.2933
16368000,-0.4805367,0.044883054,-0.025096485,2.5821178,-0.94194186,-11.202951
16376000,-0.47336417,0.048338324,-0.03178674,2.5072038,-0.8790015,-11.110691
16380000,-0.4710652,0.051859524,-0.026805958,2.491091,-0.9294949,-11.101787
16384000,-0.46112034,0.04763949,-0.022127585,2.5735838,-0.9580029,-11.101731
16388000,-0.4593972,0.04475035,-0.023293648,2.6689374,-0.91840476,-11.052001
16396000,-0.45582485,0.03696558,-0.022215962,2.6856663,-0.9133771,-11.094619
16404000,-0.45255646,0.04759103,-0.026452756,2.5892847,-0.9382372,-11.128583
16408000,-0.44844943,0.04223709,-0.03242348,2.6430633,-0.9743719,-11.154149
16416000,-0.44792265,0.044150446,-0.029843183,2.6713154,-0.97940695,-10.997732
16424000,-0.4412273,0.041041873,-0.025843542,2.6542099,-0.92319846,-10.9403925
16428000,-0.43710017,0.038975477,-0.026418112,2.6895394,-0.89214355,-10.912558
16432000,-0.43312722,0.03707125,-0.03218064,2.6842043,-0.8856577,-10.921577
16436000,-0.4261577,0.036052976,-0.030266715,2.6722522,-0.9228399,-10.906931
16440000,-0.42848206,0.037215948,-0.02737772,2.7143445,-0.9676619,-10.873068
16444000,-0.42333752,0.034783132,-0.035311427,2.7570865,-0.9732142,-10.859878
16448000,-0.4086602,0.03886401,-0.033948127,2.7013178,-0.97275144,-10.906674
16452000,-0.41223446,0.044111084,-0.03014096,2.7074304,-0.98006666,-10.906199
16456000,-0.4116996,0.03929672,-0.033873834,2.7014203,-0.9663805,-10.868787
16460000,-0.40717253,0.03296984,-0.03909358,2.6248746,-0.97498155,-10.84122
16468000,-0.40145856,0.038460977,-0.02864936,2.733917,-0.9151815,-10.810487
16472000,-0.39714843,0.044313632,-0.04011605,2.7231865,-0.88181704,-10.814053
16476000,-0.39545783,0.040547997,-0.04501865,2.7036638,-0.9475582,-10.766841
16480000,-0.3938119,0.041074224,-0.042601924,2.679052,-0.9447432,-10.720662
16488000,-0.39144284,0.038297575,-0.031354833,2.6750581,-0.96333814,-10.81328
16492000,-0.3824672,0.03606886,-0.031857,2.7166986,-0.9660718,-10.819604
16496000,-0.37812394,0.033436432,-0.04325848,2.7629943,-0.99479866,-10.751125
16504000,-0.36764255,0.041869782,-0.047057945,2.6551237,-0.99933535,-10.736257
16512000,-0.36334944,0.04153591,-0.044353448,2.6890352,-0.973148,-10.702537
16516000,-0.36049622,0.045864664,-0.03911796,2.726441,-0.9815074,-10.627992
16520000,-0.36300036,0.049262226,-0.035565887,2.7451427,-0.9896518,-10.684324
16524000,-0.3606972,0.04523292,-0.04234048,2.7633965,-0.9814598,-10.824382
16528000,-0.3557562,0.043098114,-0.045474984,2.7500675,-0.8968495,-10.855049
16532000,-0.35336387,0.043548223,-0.044984803,2.751694,-0.8933475,-10.758893
16540000,-0.34103328,0.04086809,-0.04495141,2.7285194,-0.90092796,-10.718372
16544000,-0.33823535,0.03822445,-0.049837545,2.7620795,-0.87328756,-10.698501
16548000,-0.3405618,0.042259105,-0.04591949,2.8297427,-0.92472404,-10.736955
16552000,-0.33913204,0.040474296,-0.046768855,2.8633177,-0.99509925,-10.705095
16560000,-0.34213823,0.038649738,-0.04957211,2.841112,-0.9450149,-10.722732
16564000,-0.33590737,0.041922558,-0.044739306,2.8134892,-0.9830723,-10.716328
16568000,-0.32943615,0.04194204,-0.050100002,2.7377086,-1.0028124,-10.633643
16572000,-0.3305847,0.03914705,-0.04838339,2.7108145,-0.96816933,-10.634711
16580000,-0.31840563,0.03573436,-0.043777645,2.778542,-0.9248634,-10.594276
16584000,-0.32132876,0.039165616,-0.045583535,2.7966363,-0.9275337,-10.629719
16592000,-0.31295744,0.039959837,-0.05321422,2.7971575,-0.9773258,-10.71741
16596000,-0.31486467,0.032381207,-0.057525318,2.8072493,-1.0012999,-10.670558
16600000,-0.31103963,0.034529626,-0.057537653,2.864004,-0.9456635,-10.607607
16608000,-0.30660534,0.0379723,-0.052947428,2.8554444,-0.9608175,-10.657607
16612000,-0.30300084,0.04487653,-0.051981743,2.9494193,-0.92375267,-10.644729
16620000,-0.3011299,0.03502924,-0.06432196,2.8911932,-1.013035,-10.623742
16624000,-0.29056075,0.035574164,-0.066480964,2.8963165,-0.9804151,-10.630842
16628000,-0.28921887,0.034872394,-0.06257119,2.83386,-0.96569854,-10.635827
16636000,-0.29279184,0.032450687,-0.06385173,2.886559,-0.95804095,-10.562791
16644000,-0.28416735,0.030406985,-0.06259648,2.8499115,-0.9059982,-10.508817
16648000,-0.2771549,0.02968732,-0.059429385,2.8329196,-0.89114815,-10.561169
16656000,-0.28137514,0.029464237,-0.07031781,2.7287703,-1.0003022,-10.541202
16660000,-0.27872932,0.033544455,-0.06936557,2.8425808,-0.93980294,-10.553516
16664000,-0.27795902,0.038791485,-0.06906392,2.9058387,-0.942266,-10.597047
16668000,-0.27605656,0.044137783,-0.07047722,2.9538715,-0.9485096,-10.63537
16676000,-0.26880208,0.034174364,-0.06966904,2.9321659,-0.9258419,-10.4939165
16684000,-0.2573859,0.04271054,-0.07206048,2.354736,-0.9119539,-10.58603
16692000,-0.27511328,0.039836004,-0.0670678,0.9398431,-0.8452387,-10.784786
16696000,-0.28425768,0.042191993,-0.06374762,0.40382168,-0.76602787,-10.85933
16700000,-0.2998093,0.04367961,-0.06511273,0.040579315,-0.7293234,-10.881929
16708000,-0.31851268,0.051934734,-0.055968042,-0.49314782,-0.67911464,-10.896369
16712000,-0.32742614,0.053558256,-0.058178287,-0.6287608,-0.63339263,-10.861652
16716000,-0.33973134,0.050324168,-0.058378074,-0.85550016,-0.6757304,-10.864136
16724000,-0.36290807,0.06939386,-0.047109608,-1.1635299,-0.70252,-10.952647
16728000,-0.37824938,0.07221158,-0.048376802,-1.1820843,-0.64935195,-10.950083
16732000,-0.38013425,0.07457845,-0.044726845,-1.1131897,-0.5659632,-10.8924055
16740000,-0.4018987,0.07736839,-0.03464874,-1.2217582,-0.51818067,-11.007552
16744000,-0.40697244,0.08166163,-0.033280443,-1.2302688,-0.58935016,-11.004169
16752000,-0.42261487,0.09577749,-0.030710269,-1.256871,-0.49076328,-10.96417
16756000,-0.4254413,0.089581996,-0.031722933,-1.2490416,-0.523509,-11.058616
16760000,-0.4278463,0.08849334,-0.030839618,-1.2425534,-0.54540867,-11.096184
16764000,-0.4358216,0.0946836,-0.029587898,-1.1684369,-0.53817004,-11.089927
16768000,-0.4444116,0.098010845,-0.025049519,-1.1581161,-0.49671134,-11.080792
16776000,-0.44859806,0.10681776,-0.021100776,-1.161955,-0.4608501,-11.278662
16780000,-0.45326427,0.11305904,-0.021896437,-1.1293164,-0.48564404,-11.234015
16788000,-0.45497552,0.10762483,-0.01633282,-1.0128231,-0.5004342,-11.283853
16792000,-0.4581949,0.10671226,-0.0157085,-1.1013018,-0.5240306,-11.301352
16796000,-0.455814,0.10477565,-0.004789874,-1.1360737,-0.5437284,-11.236502
16800000,-0.45340142,0.1042287,-0.003456353,-0.98866343,-0.53286165,-11.254517
16804000,-0.45817068,0.10301558,-0.007234861,-0.93719995,-0.4488753,-11.318494
16808000,-0.46201602,0.103497885,-0.012336565,-1.0148298,-0.44222936,-11.384187
16816000,-0.45284247,0.09913803,-0.011785727,-0.89261395,-0.45472738,-11.292001
16820000,-0.45540443,0.10137004,-0.009957117,-0.8771039,-0.4438079,-11.40101
16824000,-0.45010096,0.09790812,-0.006508506,-0.861784,-0.4310389,-11.449349
16832000,-0.45205373,0.094737455,-0.010965445,-0.8980678,-0.38091868,-11.508831
16840000,-0.44203448,0.09193708,-0.007225821,-0.73725295,-0.39810938,-11.421631
16844000,-0.4391579,0.08989935,-0.015352431,-0.6525846,-0.3806551,-11.441456
16852000,-0.4328781,0.08333654,-0.010182436,-0.54406404,-0.39614338,-11.522089
16856000,-0.42905468,0.081846304,-0.015027988,-0.53680474,-0.4324866,-11.455757
16864000,-0.4347361,0.06691886,-0.00878657,-0.51272166,-0.403135,-11.376002
16868000,-0.4287128,0.06382712,-0.014023604,-0.45229608,-0.33206075,-11.349495
16872000,-0.42983222,0.06467829,-0.019028973,-0.41558328,-0.36443025,-11.375022
16876000,-0.43557566,0.061623927,-0.01985586,-0.3965469,-0.43888277,-11.318638
16884000,-0.4150314,0.049104743,-0.024136938,-0.3476847,-0.3626874,-11.252827
16888000,-0.4126256,0.047942586,-0.02572525,-0.29167092,-0.31764388,-11.179194
16892000,-0.41323057,0.046042684,-0.02428596,-0.2641387,-0.3448857,-11.186976
16896000,-0.41169292,0.039665192,-0.021546917,-0.29876828,-0.4164517,-11.129945
