timestamp,roll,pitch,yaw,thrust_body[0]
13000000,0.037497085,0.037020486,-0.00713949,0.15
13004000,0.037507538,0.037053313,-0.007138609,0.15
13007999,0.037521787,0.03704671,-0.007138364,0.15
13012000,0.037540015,0.037046116,-0.007137904,0.15
13016000,0.03754826,0.03703475,-0.007137903,0.15
13020000,0.037517782,0.03702099,-0.007137675,0.15
13024000,0.03750224,0.03707374,-0.007137095,0.15
13027999,0.037498124,0.037117094,-0.007136392,0.15
13032000,0.037475523,0.03708446,-0.007137585,0.15
13036000,0.037471104,0.037050135,-0.00713834,0.15
13044000,0.03747528,0.03710018,-0.007130439,0.15
13048000,0.03743399,0.037137374,-0.007130817,0.15
13052000,0.03739114,0.037184097,-0.007131059,0.15
13056000,0.037377074,0.037203416,-0.007131066,0.15
13059999,0.037377834,0.03721664,-0.007130801,0.15
13064000,0.037379924,0.037248693,-0.007130153,0.15
13068000,0.037339848,0.037263483,-0.007098497,0.15
13071999,0.03730675,0.03726378,-0.007099352,0.15
13076000,0.037253026,0.037217677,-0.0071016,0.15
13080000,0.03722405,0.037174877,-0.007103144,0.15
13084000,0.03722842,0.037146352,-0.007103557,0.15
13088000,0.037261363,0.03715687,-0.007102509,0.15
13091999,0.03727213,0.037157442,-0.007106186,0.15
13096000,0.037252944,0.037153658,-0.007106753,0.15
13100000,0.037225436,0.03715023,-0.007107529,0.15
13103999,0.037204057,0.037134107,-0.00710838,0.15
13108000,0.03721572,0.03714878,-0.007107808,0.15
13112000,0.03724809,0.037143525,-0.007107067,0.15
13116000,0.03725483,0.03712207,-0.007112349,0.15
13123999,0.037299406,0.037169777,-0.007110313,0.15
13132000,0.037315197,0.037190247,-0.007109524,0.15
13135999,0.03733204,0.037184473,-0.007109195,0.15
13140000,0.037328683,0.037214067,-0.007105305,0.15
13144000,0.037327286,0.037266806,-0.007104365,0.15
13148000,0.037355065,0.037314232,-0.007102761,0.15
13152000,0.037377078,0.03732222,-0.00710204,0.15
13155999,0.03738834,0.037340146,-0.007101414,0.15
13160000,0.037373405,0.037338316,-0.007101837,0.15
13164000,0.03734471,0.03728565,-0.007097936,0.15
13168000,0.037334085,0.037279822,-0.007098321,0.15
13172000,0.037322946,0.037284765,-0.007098518,0.15
13176000,0.037337605,0.037246082,-0.007098855,0.15
13180000,0.037341762,0.037201256,-0.007099579,0.15
13184000,0.03733056,0.037175335,-0.00710035,0.15
13187999,0.037378337,0.037189133,-0.007123393,0.15
13192000,0.037392054,0.037186533,-0.007123085,0.15
13196000,0.03739066,0.037145447,-0.007123885,0.15
13200000,0.037393227,0.037130434,-0.007124098,0.15
13204000,0.037391484,0.037126448,-0.007124216,0.15
13207999,0.037377328,0.03713253,-0.007124471,0.15
13212000,0.037344802,0.037157957,-0.007103266,0.15
13219999,0.037358623,0.03729904,-0.007100288,0.15
13224000,0.037363928,0.037303604,-0.007100065,0.15
13228000,0.037367586,0.03726423,-0.007100701,0.15
13232000,0.037351765,0.037251182,-0.007101354,0.15
13236000,0.03733908,0.03724562,-0.007075897,0.15
13240000,0.03736584,0.03726031,-0.007074928,0.15
13244000,0.03736379,0.037238304,-0.007075391,0.15
13248000,0.037366826,0.037204333,-0.007075943,0.15
13251999,0.037377223,0.037206564,-0.007075632,0.15
13256000,0.037399445,0.03717693,-0.007075607,0.15
13260000,0.03748009,0.03714351,-0.007117798,0.15
13268000,0.037467774,0.037045695,-0.007119937,0.15
13271999,0.03748778,0.037035227,-0.007119616,0.15
13276000,0.03749087,0.037074123,-0.007118811,0.15
13283999,0.026104366,0.037074354,-0.00711852,0
13288000,0.026088787,0.037026927,-0.00711852,0
13292000,0.02607798,0.03702984,-0.00711852,0
13296000,0.026090344,0.03706384,-0.00711852,0
13300000,0.026117029,0.037044972,-0.00711852,0
13308000,0.026146797,0.037041344,-0.00711852,1
13312000,0.026117971,0.03698101,-0.00711852,1
13315999,0.026090253,0.036921944,-0.00711852,1
13320000,0.026110284,0.036903877,-0.00711852,1
13324000,0.026131527,0.036904212,-0.00711852,1
13328000,0.026185129,0.036912214,-0.00711852,1
13332000,0.026248557,0.036909513,-0.00711852,1
13340000,0.026224395,0.036914054,-0.00711852,1
13344000,0.026223281,0.036884893,-0.00711852,1
13347999,0.026226211,0.036897186,-0.00711852,1
13352000,0.02619567,0.03688639,-0.00711852,1
13356000,0.026167527,0.036845498,-0.00711852,1
13364000,0.026126038,0.03679467,-0.00711852,1
13367999,0.026127111,0.036768466,-0.00711852,1
13372000,0.026187448,0.036760915,-0.00711852,1
13376000,0.026222972,0.03678374,-0.00711852,1
13379999,0.026219647,0.03679772,-0.00711852,1
13384000,0.026231678,0.036784224,-0.00711852,1
13388000,0.026234426,0.036729183,-0.00711852,1
13392000,0.026243636,0.03668935,-0.00711852,1
13396000,0.026230788,0.036684077,-0.00711852,1
13399999,0.026200863,0.03666779,-0.00711852,1
13404000,0.02620299,0.036631294,-0.00711852,1
13408000,0.026203992,0.036548667,-0.00711852,1
13411999,0.02620244,0.036488637,-0.00711852,1
13416000,0.026209798,0.036449526,-0.00711852,1
13420000,0.026221571,0.036423586,-0.00711852,1
13424000,0.026219558,0.036462557,-0.00711852,1
13428000,0.02621798,0.036494255,-0.00711852,1
13431999,0.026228933,0.03648139,-0.00711852,1
13436000,0.026242014,0.036476415,-0.00711852,1
13440000,0.026267298,0.03650256,-0.00711852,1
13443999,0.026289735,0.036508027,-0.00711852,1
13448000,0.026282428,0.03647684,-0.00711852,1
13452000,0.02627349,0.036458783,-0.00711852,1
13456000,0.026267838,0.036427118,-0.00711852,1
13463999,0.026263325,0.036366943,-0.00711852,1
13468000,0.02627455,0.036354203,-0.00711852,1
13472000,0.026284214,0.036337372,-0.00711852,1
13476000,0.026286619,0.036326896,-0.00711852,1
13480000,0.026280647,0.036264826,-0.00711852,1
13484000,0.026296444,0.036212478,-0.00711852,1
13488000,0.026280664,0.036246486,-0.00711852,1
13492000,0.02624613,0.03628888,-0.00711852,1
13496000,0.026262743,0.0362529,-0.00711852,1
13500000,0.026283301,0.036130585,-0.00711852,1
13508000,0.02624531,0.036091745,-0.00711852,1
13516000,0.026262231,0.036025785,-0.00711852,1
13520000,0.02624559,0.03603086,-0.00711852,1
13524000,0.026222749,0.03607403,-0.00711852,1
13532000,0.026202317,0.036019087,-0.00711852,1
13536000,0.02622862,0.035974286,-0.00711852,1
13540000,0.026246736,0.03595862,-0.00711852,1
13544000,0.026260035,0.03596392,-0.00711852,1
13548000,0.026270023,0.035954922,-0.00711852,1
13552000,0.026257208,0.035895266,-0.00711852,1
13556000,0.026232874,0.035867114,-0.00711852,1
13560000,0.02624391,0.035853628,-0.00711852,1
13564000,0.026252333,0.03581734,-0.00711852,1
13568000,0.02624539,0.03579931,-0.00711852,1
13572000,0.026254809,0.03575611,-0.00711852,1
13576000,0.02625747,0.0356784,-0.00711852,1
13580000,0.026247682,0.035666604,-0.00711852,1
13584000,0.026241234,0.035678957,-0.00711852,1
13588000,0.026244115,0.035678796,-0.00711852,1
13592000,0.026254494,0.03566702,-0.00711852,1
13596000,0.026272016,0.03562945,-0.00711852,1
13600000,0.026277162,0.035585213,-0.00711852,1
13604000,0.026262635,0.035543703,-0.00711852,1
13608000,0.026231876,0.03551486,-0.00711852,1
13612000,0.026190976,0.035495017,-0.00711852,1
13616000,0.026171122,0.035470065,-0.00711852,1
13620000,0.026193079,0.035485797,-0.00711852,1
13624000,0.02620505,0.035505176,-0.00711852,1
13632000,0.026198575,0.035427406,-0.00711852,1
13636000,0.026184974,0.035356913,-0.00711852,1
13640000,0.026171066,0.03529692,-0.00711852,1
13644000,0.026172664,0.03526299,-0.00711852,1
13648000,0.026166733,0.03524939,-0.00711852,1
13652000,0.026145888,0.035244286,-0.00711852,1
13656000,0.026114192,0.035239365,-0.00711852,1
13660000,0.026077228,0.035267297,-0.00711852,1
13668000,0.026045782,0.035333253,-0.00711852,1
13672000,0.026075397,0.035343647,-0.00711852,1
13676000,0.02610597,0.035303906,-0.00711852,1
13680000,0.026120666,0.0353431,-0.00711852,1
13684000,0.026192352,0.03538685,-0.00711852,1
13692000,0.026271706,0.035360035,-0.00711852,1
13700000,0.026295695,0.03530684,-0.00711852,1
13704000,0.026336664,0.03525563,-0.00711852,1
13712000,0.026488708,0.035240095,-0.00711852,1
13716000,0.026531521,-0.6184206,-0.00711852,1
13724000,0.026592817,-0.6184105,-0.00711852,1
13728000,0.0266325,-0.61840487,-0.00711852,1
13732000,0.026676178,-0.6184412,-0.00711852,1
13736000,0.026727727,-0.61849797,-0.00711852,1
13740000,0.026770173,-0.5871675,-0.00711852,1
13744000,0.026798874,-0.5871877,-0.00711852,1
13748000,0.02682459,-0.5871899,-0.00711852,1
13752000,0.026846362,-0.5872183,-0.00711852,1
13756000,0.026845928,-0.58723575,-0.00711852,1
13760000,0.026840348,-0.5871979,-0.00711852,1
13764000,0.02683166,-0.557795,-0.00711852,1
13768000,0.026792547,-0.557768,-0.00711852,1
13772000,0.026717953,-0.55773455,-0.00711852,1
13776000,0.026619285,-0.5577103,-0.00711852,1
13780000,0.026504366,-0.55764407,-0.00711852,1
13784000,0.02632827,-0.55753577,-0.00711852,1
13788000,0.02608614,-0.52974975,-0.00711852,1
13792000,0.02583076,-0.5296675,-0.00711852,1
13796000,0.025551312,-0.5295978,-0.00711852,1
13800000,0.025241362,-0.5295527,-0.00711852,1
13804000,0.024893899,-0.5295225,-0.00711852,1
13808000,0.02448365,-0.5294728,-0.00711852,1
13812000,0.02402796,-0.5034418,-0.00711852,1
13816000,0.023570199,-0.5034284,-0.00711852,1
13820000,0.023078777,-0.5034327,-0.00711852,1
13828000,0.021921974,-0.50350904,-0.00711852,1
13832000,0.021271147,-0.5036166,-0.00711852,1
13836000,0.020526981,-0.47919396,-0.00711852,1
13840000,0.019773316,-0.479266,-0.00711852,1
13844000,0.018951671,-0.47938168,-0.00711852,1
13848000,0.018047683,-0.4794821,-0.00711852,1
13852000,0.017113937,-0.47954747,-0.00711852,1
13856000,0.016142484,-0.47960007,-0.00711852,1
13860000,0.015146078,-0.45634937,-0.00711852,1
13864000,0.014083118,-0.45644644,-0.00711852,1
13868000,0.012971034,-0.4565349,-0.00711852,1
13872000,0.011801001,-0.45656672,-0.00711852,1
13876000,0.010571845,-0.45659435,-0.00711852,1
13880000,0.009320715,-0.45665485,-0.00711852,1
13884000,0.008033511,-0.43444663,-0.00711852,1
13888000,0.006683416,-0.43453857,-0.00711852,1
13892000,0.005356717,-0.43471083,-0.00711852,1
13896000,0.00398838,-0.4348091,-0.00711852,1
13900000,0.002558425,-0.43490812,-0.00711852,1
13904000,0.001078362,-0.4350412,-0.00711852,1
13908000,-0.000472257,-0.41397285,-0.00711852,1
13916000,-0.003712139,-0.4143066,-0.00711852,1
13920000,-0.005419608,-0.41453332,-0.00711852,1
13924000,-0.007121268,-0.41475955,-0.00711852,1
13928000,-0.008863993,-0.4148767,-0.00711852,1
13932000,-0.010654792,-0.3946803,-0.00711852,1
13936000,-0.012445121,-0.3948447,-0.00711852,1
13940000,-0.014254874,-0.3949284,-0.00711852,1
13944000,-0.016107392,-0.39501426,-0.00711852,1
13948000,-0.018010242,-0.3951257,-0.00711852,1
13956000,-0.021837724,-0.37571728,-0.00711852,1
13960000,-0.023774363,-0.3757273,-0.00711852,1
13964000,-0.025744176,-0.3757087,-0.00711852,1
13972000,-0.029659245,-0.37568432,-0.00711852,1
13976000,-0.03161786,-0.37564942,-0.00711852,1
13980000,-0.03362016,-0.35666224,-0.00711852,1
13984000,-0.035606626,-0.35648522,-0.00711852,1
13988000,-0.037586562,-0.35630745,-0.00711852,1
13992000,-0.039582364,-0.35615036,-0.00711852,1
13996000,-0.04162128,-0.35598367,-0.00711852,1
14004000,-0.045657847,-0.33730865,-0.00711852,1
14008000,-0.047646124,-0.3370126,-0.00711852,1
14012000,-0.049625956,-0.33667266,-0.00711852,1
14016000,-0.05161415,-0.33633253,-0.00711852,1
14020000,-0.053627554,-0.3360033,-0.00711852,1
14024000,-0.055658277,-0.33565453,-0.00711852,1
14028000,-0.057661965,-0.31764403,-0.00711852,1
14032000,-0.059631143,-0.31725642,-0.00711852,1
14036000,-0.061617855,-0.31684443,-0.00711852,1
14040000,-0.06365621,-0.31636363,-0.00711852,1
14044000,-0.06567703,-0.31588423,-0.00711852,1
14052000,-0.06963196,-0.29791567,-0.00711852,1
14056000,-0.07156077,-0.29747483,-0.00711852,1
14060000,-0.07353026,-0.2970695,-0.00711852,1
14068000,-0.07741357,-0.29620403,-0.00711852,1
14076000,-0.08115293,-0.27872407,-0.00711852,1
14080000,-0.083058976,-0.27834943,-0.00711852,1
14084000,-0.084934644,-0.2779529,-0.00711852,1
14088000,-0.08677014,-0.27753896,-0.00711852,1
14092000,-0.088555045,-0.27722892,-0.00711852,1
14096000,-0.09033029,-0.27698854,-0.00711852,1
14100000,-0.09210589,-0.26049295,-0.00711852,1
14104000,-0.09386837,-0.2602058,-0.00711852,1
14108000,-0.095595226,-0.25993937,-0.00711852,1
14116000,-0.09901413,-0.25951454,-0.00711852,1
14124000,-0.10237119,-0.24339536,-0.00711852,1
14128000,-0.10400031,-0.24332121,-0.00711852,1
14132000,-0.105623834,-0.24322504,-0.00711852,1
14140000,-0.10890152,-0.24311176,-0.00711852,1
14144000,-0.11050156,-0.2431442,-0.00711852,1
14148000,-0.11207264,-0.2277132,-0.00711852,1
14152000,-0.11365182,-0.22779027,-0.00711852,1
14156000,-0.11521083,-0.2278785,-0.00711852,1
14160000,-0.11673131,-0.22798409,-0.00711852,1
14164000,-0.11822981,-0.22813933,-0.00711852,1
14172000,-0.12125089,-0.21333215,-0.00711852,1
14176000,-0.122730225,-0.21361814,-0.00711852,1
14180000,-0.12419797,-0.21396232,-0.00711852,1
14188000,-0.1271664,-0.21470241,-0.00711852,1
14192000,-0.12857807,-0.21507634,-0.00711852,1
14196000,-0.12999806,-0.20063402,-0.00711852,1
14200000,-0.13142471,-0.20108905,-0.00711852,1
14204000,-0.13280864,-0.20158972,-0.00711852,1
14208000,-0.13418406,-0.2021517,-0.00711852,1
14212000,-0.13557325,-0.20277888,-0.00711852,1
14216000,-0.1369154,-0.20344144,-0.00711852,1
14220000,-0.13822423,-0.1891993,-0.00711852,1
14224000,-0.13954307,-0.18931383,-0.00711852,1
14228000,-0.14085686,-0.18939511,-0.00711852,1
14232000,-0.14214653,-0.18946034,-0.00711852,1
14240000,-0.14466512,-0.18966013,-0.00711852,1
14244000,-0.14594004,-0.17536084,-0.00711852,1
14248000,-0.1472082,-0.17546737,-0.00711852,1
14252000,-0.14845668,-0.17559616,-0.00711852,1
14260000,-0.15097214,-0.17584121,-0.00711852,1
14264000,-0.15220656,-0.17597347,-0.00711852,1
14268000,-0.15343192,-0.16186732,-0.00711852,1
14276000,-0.15584704,-0.16203009,-0.00711852,1
14280000,-0.1570387,-0.162181,-0.00711852,1
14284000,-0.15828224,-0.16231366,-0.00711852,1
14288000,-0.1595287,-0.16241087,-0.00711852,1
14292000,-0.16072756,-0.14850211,-0.00711852,1
14296000,-0.16191414,-0.14863794,-0.00711852,1
14300000,-0.16308299,-0.14879538,-0.00711852,1
14304000,-0.16425917,-0.1489705,-0.00711852,1
14308000,-0.16542435,-0.14916743,-0.00711852,1
14312000,-0.16660741,-0.14936791,-0.00711852,1
14316000,-0.16774496,-0.1358154,-0.00711852,1
14324000,-0.16999367,-0.13651174,-0.00711852,1
14332000,-0.1722313,-0.13730921,-0.00711852,1
14340000,-0.17444411,-0.12466821,-0.00711852,1
14344000,-0.17555088,-0.12528509,-0.00711852,1
14348000,-0.17666297,-0.12601726,-0.00711852,1
14352000,-0.1777784,-0.12683442,-0.00711852,1
14356000,-0.17888623,-0.12768896,-0.00711852,1
14360000,-0.17998838,-0.12863225,-0.00711852,1
14364000,-0.18107949,-0.11613945,-0.00711852,1
14372000,-0.18317494,-0.1183575,-0.00711852,1
14380000,-0.18524519,-0.12095003,-0.00711852,1
14384000,-0.18629983,-0.12232113,-0.00711852,1
14388000,-0.1873458,-0.11033259,-0.00711852,1
14392000,-0.18839866,-0.1118604,-0.00711852,1
14400000,-0.19045217,-0.11506709,-0.00711852,1
14404000,-0.19145475,-0.11675503,-0.00711852,1
14408000,-0.19244318,-0.11845406,-0.00711852,1
14412000,-0.19345154,-0.10687016,-0.00711852,1
14416000,-0.1944456,-0.108731605,-0.00711852,1
14420000,-0.195427,-0.11063546,-0.00711852,1
14424000,-0.19639482,-0.11250812,-0.00711852,1
14428000,-0.19733633,-0.11437466,-0.00711852,1
14432000,-0.19824982,-0.11628019,-0.00711852,1
14436000,-0.19917598,-0.10506185,-0.00711852,1
14440000,-0.20012133,-0.10708132,-0.00711852,1
14444000,-0.20103689,-0.10907299,-0.00711852,1
14448000,-0.2019749,-0.11111994,-0.00711852,1
14452000,-0.20289867,-0.113213584,-0.00711852,1
14456000,-0.2037848,-0.11533483,-0.00711852,1
14460000,-0.20468442,-0.10434802,-0.00711852,1
14464000,-0.20556223,-0.106455356,-0.00711852,1
14468000,-0.20642768,-0.10857709,-0.00711852,1
14472000,-0.20728312,-0.110726275,-0.00711852,1
14476000,-0.20813736,-0.11285944,-0.00711852,1
14484000,-0.20978446,-0.10410948,-0.00711852,1
14488000,-0.21059841,-0.10626087,-0.00711852,1
14492000,-0.21139938,-0.10841405,-0.00711852,1
14496000,-0.21221085,-0.110564075,-0.00711852,1
14500000,-0.21301714,-0.11272924,-0.00711852,1
14504000,-0.21378309,-0.11489785,-0.00711852,1
14508000,-0.21452883,-0.10411393,-0.00711852,1
14512000,-0.21525027,-0.10629892,-0.00711852,1
14516000,-0.21597135,-0.108437374,-0.00711852,1
14520000,-0.21673821,-0.11059279,-0.00711852,1
14524000,-0.21749343,-0.11272728,-0.00711852,1
14528000,-0.2182258,-0.114842005,-0.00711852,1
14532000,-0.21895371,-0.10400084,-0.00711852,1
14536000,-0.21964431,-0.10605526,-0.00711852,1
14540000,-0.22032732,-0.108078696,-0.00711852,1
14544000,-0.22101772,-0.110064924,-0.00711852,1
14548000,-0.22169341,-0.1120646,-0.00711852,1
14552000,-0.22238028,-0.114050634,-0.00711852,1
14560000,-0.22370581,-0.10503475,-0.00711852,1
14564000,-0.22436962,-0.10686681,-0.00711852,1
14572000,-0.22566074,-0.11058855,-0.00711852,1
14576000,-0.22626671,-0.112431474,-0.00711852,1
14580000,-0.22684704,-0.10136934,-0.00711852,1
14588000,-0.22802167,-0.1048039,-0.00711852,1
14592000,-0.22861058,-0.10651961,-0.00711852,1
14596000,-0.22921659,-0.108248785,-0.00711852,1
14600000,-0.22981296,-0.10993279,-0.00711852,1
14604000,-0.23039803,-0.09877486,-0.00711852,1
14608000,-0.2309622,-0.100416236,-0.00711852,1
14612000,-0.23152463,-0.102011815,-0.00711852,1
14616000,-0.23205967,-0.10355388,-0.00711852,1
14620000,-0.23257945,-0.105058484,-0.00711852,1
14624000,-0.23308846,-0.10651089,-0.00711852,1
14628000,-0.23356912,-0.09518343,-0.00711852,1
14632000,-0.23403352,-0.09669745,-0.00711852,1
14636000,-0.23450232,-0.09817146,-0.00711852,1
14640000,-0.23500405,-0.09961548,-0.00711852,1
14644000,-0.23554055,-0.10106332,-0.00711852,1
14648000,-0.23606311,-0.10245297,-0.00711852,1
14652000,-0.23657292,-0.09102834,-0.00711852,1
14656000,-0.23710002,-0.092378266,-0.00711852,1
14660000,-0.23763543,-0.0936874,-0.00711852,1
14668000,-0.2386141,-0.09630892,-0.00711852,1
14672000,-0.23912199,-0.09761239,-0.00711852,1
14676000,-0.23958649,-0.08612677,-0.00711852,1
14684000,-0.24056135,-0.08862761,-0.00711852,1
14688000,-0.24102986,-0.089849934,-0.00711852,1
14692000,-0.24151857,-0.09109272,-0.00711852,1
14696000,-0.24200712,-0.0923251,-0.00711852,1
14700000,-0.24250656,-0.0807384,-0.00711852,1
14704000,-0.24298517,-0.08194332,-0.00711852,1
14708000,-0.24342893,-0.08310838,-0.00711852,1
14712000,-0.2439098,-0.08422799,-0.00711852,1
14716000,-0.24440649,-0.085373305,-0.00711852,1
14720000,-0.24489379,-0.08648183,-0.00711852,1
14724000,-0.2453591,-0.07482812,-0.00711852,1
14728000,-0.24578206,-0.07599759,-0.00711852,1
14732000,-0.24620186,-0.07716111,-0.00711852,1
14736000,-0.24664332,-0.078329064,-0.00711852,1
14740000,-0.24710453,-0.079475254,-0.00711852,1
14744000,-0.24753414,-0.08058292,-0.00711852,1
14748000,-0.24794687,-0.06888732,-0.00711852,1
14752000,-0.2483639,-0.069970645,-0.00711852,1
14756000,-0.24879245,-0.07108012,-0.00711852,1
14760000,-0.24923365,-0.07220644,-0.00711852,1
14764000,-0.24966887,-0.07335122,-0.00711852,1
14768000,-0.25010735,-0.074498594,-0.00711852,1
14772000,-0.25053763,-0.06283303,-0.00711852,1
14780000,-0.25134817,-0.06511848,-0.00711852,1
14788000,-0.2521522,-0.0673688,-0.00711852,1
14792000,-0.25255814,-0.068487786,-0.00711852,1
14796000,-0.25294778,-0.056810744,-0.00711852,1
14800000,-0.25331083,-0.057981618,-0.00711852,1
14804000,-0.25368688,-0.059184473,-0.00711852,1
14808000,-0.254076,-0.060374077,-0.00711852,1
14812000,-0.25447345,-0.061522447,-0.00711852,1
14820000,-0.25525075,-0.050980266,-0.00711852,1
14824000,-0.25565818,-0.05216388,-0.00711852,1
14828000,-0.25608024,-0.053359058,-0.00711852,1
14832000,-0.25652522,-0.054535434,-0.00711852,1
14836000,-0.25694183,-0.055692602,-0.00711852,1
14840000,-0.25733465,-0.05686198,-0.00711852,1
14844000,-0.25769952,-0.045221698,-0.00711852,1
14848000,-0.258068,-0.046451863,-0.00711852,1
14852000,-0.25846884,-0.047713175,-0.00711852,1
14856000,-0.25888672,-0.048998743,-0.00711852,1
14860000,-0.25929302,-0.05022191,-0.00711852,1
14868000,-0.25998008,-0.039756384,-0.00711852,1
14872000,-0.26032728,-0.041062765,-0.00711852,1
14876000,-0.26069665,-0.0423477,-0.00711852,1
14880000,-0.26106328,-0.04361617,-0.00711852,1
14884000,-0.26141933,-0.044906784,-0.00711852,1
14888000,-0.26178932,-0.04622686,-0.00711852,1
14892000,-0.26216602,-0.034623977,-0.00711852,1
14896000,-0.26254293,-0.035969134,-0.00711852,1
14900000,-0.2629074,-0.037343018,-0.00711852,1
14908000,-0.26358253,-0.040079296,-0.00711852,1
14912000,-0.2639293,-0.04144818,-0.00711852,1
14916000,-0.26428577,-0.029831056,-0.00711852,1
14920000,-0.26461926,-0.031187179,-0.00711852,1
14924000,-0.2649593,-0.03257795,-0.00711852,1
14928000,-0.26530546,-0.033973623,-0.00711852,1
14932000,-0.26564252,-0.035372436,-0.00711852,1
14936000,-0.26593855,-0.03674809,-0.00711852,1
14940000,-0.2662143,-0.025132272,-0.00711852,1
14944000,-0.26654115,-0.02651319,-0.00711852,1
14948000,-0.26690477,-0.027883597,-0.00711852,1
14952000,-0.26725218,-0.029313816,-0.00711852,1
14956000,-0.26754448,-0.030784367,-0.00711852,1
14960000,-0.26783264,-0.032222442,-0.00711852,1
14964000,-0.26811492,-0.020642426,-0.00711852,1
14968000,-0.2684235,-0.022108207,-0.00711852,1
14972000,-0.26873788,-0.02358209,-0.00711852,1
14976000,-0.26904246,-0.025002606,-0.00711852,1
14980000,-0.26935968,-0.02645906,-0.00711852,1
14984000,-0.26969087,-0.027950706,-0.00711852,1
14988000,-0.270008,-0.016354026,-0.00711852,1
14992000,-0.2702933,-0.0178419,-0.00711852,1
14996000,-0.27057526,-0.0193253,-0.00711852,1
15004000,-0.27116123,-0.022302013,-0.00711852,1
15008000,-0.27144006,-0.023767434,-0.00711852,1
15012000,-0.27168763,-0.01214393,-0.00711852,1
15016000,-0.27194867,-0.013622819,-0.00711852,1
15020000,-0.27223653,-0.015083936,-0.00711852,1
15024000,-0.2725073,-0.0165336,-0.00711852,1
15028000,-0.27275747,-0.018013557,-0.00711852,1
15032000,-0.27300945,-0.019485243,-0.00711852,1
15036000,-0.27326858,-0.007788335,-0.00711852,1
15044000,-0.27376258,-0.010675063,-0.00711852,1
15048000,-0.27402738,-0.012103332,-0.00711852,1
15052000,-0.27429757,-0.013581018,-0.00711852,1
15056000,-0.2745507,-0.015076388,-0.00711852,1
15060000,-0.27483627,-0.003369465,-0.00711852,1
15064000,-0.27511576,-0.004849445,-0.00711852,1
15072000,-0.27563798,-0.007813366,-0.00711852,1
15076000,-0.2758376,-0.009266083,-0.00711852,1
15080000,-0.2760146,-0.01071437,-0.00711852,1
15084000,-0.2762267,0.001041937,-0.00711852,1
15088000,-0.27646703,-0.000462502,-0.00711852,1
15092000,-0.27667195,-0.001954109,-0.00711852,1
15096000,-0.27687484,-0.003432811,-0.00711852,1
15100000,-0.2770933,-0.004867383,-0.00711852,1
15104000,-0.27730066,-0.006309094,-0.00711852,1
15108000,-0.2775179,0.005518474,-0.00711852,1
15112000,-0.27772462,0.004105317,-0.00711852,1
15116000,-0.27790287,0.002698551,-0.00711852,1
15120000,-0.2781186,0.001288983,-0.00711852,1
15124000,-0.2783446,-0.000128447,-0.00711852,1
15128000,-0.2785342,-0.00156465,-0.00711852,1
15132000,-0.27871287,0.010317768,-0.00711852,1
15136000,-0.27889568,0.008905724,-0.00711852,1
15140000,-0.27908936,0.007503446,-0.00711852,1
15144000,-0.27924946,0.006064224,-0.00711852,1
15148000,-0.2794154,0.004609454,-0.00711852,1
15156000,-0.27979544,0.015134637,-0.00711852,1
15160000,-0.27998114,0.013729828,-0.00711852,1
15164000,-0.28017402,0.012329049,-0.00711852,1
15168000,-0.28034943,0.010966694,-0.00711852,1
15172000,-0.2805089,0.009588678,-0.00711852,1
15176000,-0.28068513,0.008213247,-0.00711852,1
15180000,-0.28086326,0.020240678,-0.00711852,1
15188000,-0.28110874,0.017445894,-0.00711852,1
15196000,-0.28147623,0.014746138,-0.00711852,1
15200000,-0.28168327,0.01337478,-0.00711852,1
15204000,-0.28184345,0.02548901,-0.00711852,1
15208000,-0.28199375,0.024155978,-0.00711852,1
15212000,-0.28212377,0.022858826,-0.00711852,1
15216000,-0.28224862,0.021525836,-0.00711852,1
15220000,-0.2824266,0.020140273,-0.00711852,1
15224000,-0.28260148,0.018777594,-0.00711852,1
15228000,-0.2827671,0.030927103,-0.00711852,1
15236000,-0.2830558,0.02821279,-0.00711852,1
15240000,-0.28316614,0.026878325,-0.00711852,1
15244000,-0.2832924,0.025524013,-0.00711852,1
15252000,-0.2836041,0.036431942,-0.00711852,1
15256000,-0.2837539,0.035113167,-0.00711852,1
15260000,-0.28388095,0.033823594,-0.00711852,1
15264000,-0.28400132,0.032563522,-0.00711852,1
15268000,-0.28413197,0.03128505,-0.00711852,1
15276000,-0.2844399,0.04221497,-0.00711852,1
15284000,-0.28474054,0.039557353,-0.00711852,1
15288000,-0.2848618,0.03819795,-0.00711852,1
15292000,-0.28500786,0.036809538,-0.00711852,1
15296000,-0.2851567,0.035459146,-0.00711852,1
15300000,-0.28527924,0.047845107,-0.00711852,1
15304000,-0.28541407,0.046585456,-0.00711852,1
15308000,-0.28557476,0.045326017,-0.00711852,1
15312000,-0.28573895,0.04406023,-0.00711852,1
15316000,-0.2859191,0.04276567,-0.00711852,1
15320000,-0.28609586,0.041440625,-0.00711852,1
15328000,-0.28646448,0.052554563,-0.00711852,1
15332000,-0.28661123,0.05126496,-0.00711852,1
15336000,-0.28679544,0.04996957,-0.00711852,1
15340000,-0.286998,0.04865332,-0.00711852,1
15348000,-0.28730193,0.059724793,-0.00711852,1
15352000,-0.28744677,0.058372285,-0.00711852,1
15356000,-0.28756914,0.0570352,-0.00711852,1
15360000,-0.28771973,0.05570914,-0.00711852,1
15364000,-0.28787252,0.05435763,-0.00711852,1
15372000,-0.28816864,0.06550926,-0.00711852,1
15376000,-0.28835237,0.06416241,-0.00711852,1
15380000,-0.2885159,0.0628017,-0.00711852,1
15384000,-0.2887128,0.06139657,-0.00711852,1
15388000,-0.28891626,0.060025033,-0.00711852,1
15392000,-0.28910354,0.058703914,-0.00711852,1
15396000,-0.28931123,0.07121375,-0.00711852,1
15400000,-0.2895125,0.06986387,-0.00711852,1
15404000,-0.2896849,0.0685411,-0.00711852,1
15408000,-0.28986797,0.06721185,-0.00711852,1
15412000,-0.29004452,0.06587372,-0.00711852,1
15416000,-0.29018876,0.064532444,-0.00711852,1
15420000,-0.2903466,0.077068575,-0.00711852,1
15424000,-0.2905131,0.07567208,-0.00711852,1
15428000,-0.29068738,0.074323095,-0.00711852,1
15432000,-0.29088372,0.07300336,-0.00711852,1
15436000,-0.29105636,0.0716876,-0.00711852,1
15440000,-0.29120737,0.07033021,-0.00711852,1
15444000,-0.2913621,0.08292784,-0.00711852,1
15452000,-0.29171178,0.08019134,-0.00711852,1
15460000,-0.29203543,0.07754204,-0.00711852,1
15464000,-0.29219154,0.07622663,-0.00711852,1
15468000,-0.29236054,0.088880025,-0.00711852,1
15472000,-0.29252857,0.08748374,-0.00711852,1
15476000,-0.2926985,0.086124375,-0.00711852,1
15484000,-0.2930186,0.083418034,-0.00711852,1
15488000,-0.2931417,0.08200535,-0.00711852,1
15492000,-0.2932657,0.09465318,-0.00711852,1
15500000,-0.2935775,0.091781385,-0.00711852,1
15508000,-0.29383624,0.08887223,-0.00711852,1
15512000,-0.293979,0.08743531,-0.00711852,1
15516000,-0.29411775,0.10012587,-0.00711852,1
15524000,-0.29446173,0.0974094,-0.00711852,1
15528000,-0.2946353,0.09602557,-0.00711852,1
15532000,-0.29482138,0.094587736,-0.00711852,1
15536000,-0.2950114,0.093151815,-0.00711852,1
15540000,-0.29518247,0.10585792,-0.00711852,1
15548000,-0.29551038,0.10294265,-0.00711852,1
15552000,-0.29570824,0.10151595,-0.00711852,1
15556000,-0.29591015,0.10007373,-0.00711852,1
15560000,-0.29609987,0.09859217,-0.00711852,1
15564000,-0.29627088,0.11132148,-0.00711852,1
15568000,-0.29645625,0.109900005,-0.00711852,1
15572000,-0.29664737,0.108426675,-0.00711852,1
15576000,-0.2968371,0.10695171,-0.00711852,1
15580000,-0.29697496,0.10553637,-0.00711852,1
15584000,-0.29707044,0.10412044,-0.00711852,1
15588000,-0.29719928,0.11687138,-0.00711852,1
15596000,-0.29750323,0.11398764,-0.00711852,1
15604000,-0.29776502,0.1110403,-0.00711852,1
15612000,-0.2980412,0.12230789,-0.00711852,1
15616000,-0.2981594,0.12082207,-0.00711852,1
15620000,-0.29828534,0.11935664,-0.00711852,1
15624000,-0.29843032,0.11785311,-0.00711852,1
15628000,-0.29856843,0.116350636,-0.00711852,1
15632000,-0.29868266,0.11484092,-0.00711852,1
15636000,-0.29880893,0.1276042,-0.00711852,1
15640000,-0.29892913,0.12608995,-0.00711852,1
15644000,-0.2990455,0.124595635,-0.00711852,1
15648000,-0.29917106,0.1230821,-0.00711852,1
15652000,-0.29927078,0.12154978,-0.00711852,1
15660000,-0.29950967,0.13292012,-0.00711852,1
15664000,-0.29962516,0.1314316,-0.00711852,1
15672000,-0.2998662,0.12844068,-0.00711852,1
15676000,-0.29998133,0.1269527,-0.00711852,1
15684000,-0.30017117,0.13836943,-0.00711852,1
15692000,-0.30037618,0.13532838,-0.00711852,1
15700000,-0.30068886,0.13223968,-0.00711852,1
15704000,-0.30078065,0.13069984,-0.00711852,1
15708000,-0.30086306,0.1435701,-0.00711852,1
15712000,-0.30095455,0.1420634,-0.00711852,1
15716000,-0.30103353,0.14055039,-0.00711852,1
15720000,-0.3011376,0.13906367,-0.00711852,1
15724000,-0.30131823,0.13757047,-0.00711852,1
15728000,-0.30143875,0.13608676,-0.00711852,1
15732000,-0.3015128,0.14905153,-0.00711852,1
15736000,-0.30161157,0.1475784,-0.00711852,1
15740000,-0.3017279,0.1460864,-0.00711852,1
15748000,-0.30195016,0.14315198,-0.00711852,1
15756000,-0.302091,0.15469499,-0.00711852,1
15760000,-0.3021755,0.15315706,-0.00711852,1
15764000,-0.30227873,0.15165523,-0.00711852,1
15768000,-0.30240795,0.15014336,-0.00711852,1
15772000,-0.3025076,0.14859729,-0.00711852,1
15776000,-0.30260763,0.14707561,-0.00711852,1
15780000,-0.30274186,0.16005002,-0.00711852,1
15784000,-0.30287585,0.15855476,-0.00711852,1
15788000,-0.3030037,0.15705773,-0.00711852,1
15792000,-0.30310032,0.1555492,-0.00711852,1
15796000,-0.30321562,0.15406057,-0.00711852,1
15800000,-0.30333063,0.15254411,-0.00711852,1
15804000,-0.30345085,0.16552995,-0.00711852,1
15808000,-0.30355448,0.16403651,-0.00711852,1
15812000,-0.30366307,0.1625595,-0.00711852,1
15816000,-0.30381617,0.16108878,-0.00711852,1
15820000,-0.30394304,0.15960269,-0.00711852,1
15824000,-0.30405045,0.1581296,-0.00711852,1
15832000,-0.304275,0.16970286,-0.00711852,1
15836000,-0.30442828,0.16813056,-0.00711852,1
15840000,-0.30454776,0.1665965,-0.00711852,1
15844000,-0.30467153,0.1650638,-0.00711852,1
15848000,-0.30480617,0.1635371,-0.00711852,1
15852000,-0.30492562,0.16593178,-0.00711852,1
15856000,-0.30502573,0.16441374,-0.00711852,1
15860000,-0.305108,0.16286898,-0.00711852,1
15864000,-0.305187,0.16135833,-0.00711852,1
15868000,-0.30527785,0.15989766,-0.00711852,1
15872000,-0.3053841,0.15844974,-0.00711852,1
15876000,-0.30549112,0.15698192,-0.00711852,1
15880000,-0.30558854,0.15554385,-0.00711852,1
15884000,-0.3057186,0.15409264,-0.00711852,1
15888000,-0.30586597,0.1526385,-0.00711852,1
15892000,-0.30600253,0.1511867,-0.00711852,1
15896000,-0.30610415,0.14972067,-0.00711852,1
15900000,-0.3061856,0.14823893,-0.00711852,1
15904000,-0.3062865,0.14678307,-0.00711852,1
15908000,-0.3063748,0.14534722,-0.00711852,1
15912000,-0.30644566,0.14386381,-0.00711852,1
15916000,-0.3064962,0.14241138,-0.00711852,1
15920000,-0.30659902,0.14099917,-0.00711852,1
15924000,-0.306728,0.13957053,-0.00711852,1
15928000,-0.30680016,0.13808644,-0.00711852,1
15932000,-0.30691823,0.13660052,-0.00711852,1
15936000,-0.30706662,0.13521503,-0.00711852,1
15940000,-0.30717885,0.13390848,-0.00711852,1
15944000,-0.30728713,0.1325736,-0.00711852,1
15948000,-0.30740187,0.13121313,-0.00711852,1
15952000,-0.30753526,0.12989506,-0.00711852,1
15956000,-0.30765715,0.12861326,-0.00711852,1
15960000,-0.30778176,0.12734838,-0.00711852,1
15964000,-0.30791909,0.1260544,-0.00711852,1
15972000,-0.92323524,0.1439977,0.057835944,1
15976000,-0.9234129,0.14275557,0.05810069,1
15980000,-0.92358357,0.14155716,0.05835608,1
15984000,-0.92360747,0.1403569,0.058584183,1
15988000,-0.9234143,0.1391539,0.058882814,1
15992000,-0.92300683,0.13792004,0.059034653,1
15996000,-0.8768161,0.13666229,0.059146516,1
16000000,-0.8759578,0.13538285,0.0592189,1
16004000,-0.87490076,0.13408299,0.05925561,1
16008000,-0.8736476,0.13273543,0.05926173,1
16012000,-0.8722245,0.13139538,0.05923187,1
16016000,-0.87063134,0.13006553,0.059165183,1
16020000,-0.88853705,0.12873687,0.05907362,1
16024000,-0.88670194,0.12739821,0.058957055,1
16028000,-0.88468605,0.12603514,0.058807097,1
16032000,-0.8825689,0.12471231,0.058627583,1
16036000,-0.8803677,0.12339839,0.058427345,1
16040000,-0.8780489,0.122049496,0.058207396,1
16044000,-0.8804349,0.120679304,0.057964362,1
16048000,-0.8779164,0.11933185,0.057698794,1
16052000,-0.8753593,0.11799636,0.057420526,1
16056000,-0.8727047,0.11664047,0.057123277,1
16060000,-0.8699595,0.115277365,0.056805983,1
16064000,-0.86711735,0.11395055,0.05646006,1
16068000,-0.8690458,0.112611525,0.056097046,1
16072000,-0.86608964,0.11124663,0.055727825,1
16076000,-0.8630888,0.10989534,0.05534397,1
16084000,-0.85685664,0.10721604,0.05451561,1
16088000,-0.8538503,0.106010355,0.054587826,1
16092000,-0.8546273,0.104740396,0.054132424,1
16096000,-0.85137326,0.10342941,0.053667605,1
16100000,-0.84805757,0.10210993,0.053187855,1
16104000,-0.8446996,0.10081533,0.05269215,1
16108000,-0.8413506,0.09953267,0.052192904,1
16112000,-0.83798766,0.09825987,0.05168581,1
16116000,-0.85227615,0.09695856,0.051170517,1
16120000,-0.84886825,0.09569089,0.050646164,1
16124000,-0.84547293,0.09445369,0.050116643,1
16128000,-0.84204143,0.093248524,0.049571797,1
16136000,-0.83510727,0.09096414,0.048440553,1
16140000,-0.8352702,0.08981516,0.047859907,1
16144000,-0.8317591,0.08867021,0.04727738,1
16148000,-0.8282547,0.08755037,0.04668983,1
16152000,-0.82474643,0.08647144,0.046093203,1
16156000,-0.8212216,0.085401624,0.04548893,1
16160000,-0.81765884,0.08431874,0.044875264,1
16164000,-0.81694824,0.08327213,0.04425603,1
16168000,-0.81338537,0.08226453,0.043627422,1
16172000,-0.80982614,0.08126444,0.042995833,1
16176000,-0.8063131,0.080269344,0.042370554,1
16180000,-0.80275786,0.07929896,0.04173085,1
16188000,-0.79830897,0.07744091,0.040423762,1
16196000,-0.7911611,0.075565785,0.03927669,1
16200000,-0.787564,0.07465422,0.038605202,1
16204000,-0.78398997,0.073729575,0.03793727,1
16208000,-0.7804416,0.07280771,0.037271846,1
16212000,-0.7921776,0.07189775,0.036606424,1
16216000,-0.7887205,0.07099074,0.035953723,1
16220000,-0.7852805,0.07011553,0.035299215,1
16224000,-0.7817852,0.06924934,0.034629595,1
16228000,-0.77825296,0.068393,0.0339487,1
16232000,-0.7747327,0.06754203,0.033267442,1
16236000,-0.7729933,0.0667345,0.032588467,1
16240000,-0.7695421,0.06600128,0.031907607,1
16248000,-0.7626003,0.06448853,0.030534869,1
16252000,-0.7591097,0.06374933,0.029839724,1
16256000,-0.75566685,0.06303446,0.029150954,1
16260000,-0.7535231,0.062322706,0.028456595,1
16264000,-0.7500635,0.061623532,0.027759038,1
16268000,-0.74664986,0.060934167,0.027068779,1
16272000,-0.7432526,0.06028294,0.026377544,1
16276000,-0.7398351,0.059634894,0.025679909,1
16280000,-0.7364064,0.058933336,0.024981322,1
16284000,-0.7334691,0.058233794,0.02428904,1
16292000,-0.7268227,0.056985214,0.022934498,1
16296000,-0.7235069,0.056413803,0.02224484,1
16300000,-0.7202033,0.055847947,0.021555912,1
16304000,-0.71693605,0.05528066,0.020873439,1
16308000,-0.716354,0.054714654,0.020198967,1
16312000,-0.71315336,0.05416357,0.019527059,1
16316000,-0.7099612,0.053647056,0.018853873,1
16324000,-0.70358056,0.05265325,0.017502323,1
16328000,-0.70041096,0.052215826,0.016826576,1
16332000,-0.6972374,0.051762536,0.016149381,1
16340000,-0.6909643,0.05077246,0.014810508,1
16344000,-0.68783545,0.05031538,0.014139359,1
16348000,-0.6847082,0.04989253,0.013466162,1
16352000,-0.6815974,0.049423788,0.012796804,1
16356000,-0.6784932,0.048923906,0.01212848,1
16360000,-0.67542636,0.048433084,0.011466688,1
16364000,-0.67238766,0.047934588,0.01080991,1
16368000,-0.66938996,0.04747428,0.010159782,1
16372000,-0.6664385,0.04705379,0.009517652,1
16376000,-0.66346955,0.04657074,0.008871795,1
16380000,-0.6605239,0.04606372,0.008230191,1
16384000,-0.6576492,0.0455952,0.007602179,1
16388000,-0.65479356,0.04515297,0.007010724,1
16392000,-0.65193516,0.044766307,0.006379329,1
16396000,-0.6490878,0.044391386,0.005749145,1
16400000,-0.6462352,0.04397584,0.005117268,1
16404000,-0.6433978,0.04351983,0.004487989,1
16408000,-0.6405726,0.043109044,0.003859735,1
16412000,-0.6377887,0.042702537,0.003239533,1
16416000,-0.6349702,0.04228216,0.002610493,1
16420000,-0.6321341,0.04188168,0.001976185,1
16424000,-0.6293637,0.041492105,0.001355446,1
16428000,-0.6266165,0.041120686,0.000738728,1
16432000,-0.6238811,0.040767357,0.000123637,1
16436000,-0.621192,0.04042463,-0.000482059,1
16440000,-0.6184941,0.040075358,-0.00109074,1
16444000,-0.61581004,0.03974818,-0.001697231,1
16448000,-0.61322,0.039390847,-0.002283572,1
16452000,-0.6106142,0.038992234,-0.002874775,1
16456000,-0.6080035,0.03863489,-0.003467882,1
16460000,-0.60540855,0.03833121,-0.004057914,1
16464000,-0.60283285,0.038030792,-0.004644464,1
16468000,-0.600294,0.037686735,-0.005224029,1
16472000,-0.59775686,0.037299644,-0.005804785,1
16476000,-0.59521854,0.036945477,-0.006386413,1
16480000,-0.59269524,0.036589213,-0.00696568,1
16484000,-0.59016687,0.03621548,-0.007547429,1
16488000,-0.58768797,0.035883956,-0.008098809,1
16492000,-0.58525634,0.03557194,-0.008658014,1
16496000,-0.5828272,0.03528579,-0.009216988,1
16500000,-0.5804113,0.03500688,-0.009773602,1
16504000,-0.5780371,0.034657635,-0.010323204,1
16508000,-0.57568413,0.034275554,-0.010869741,1
16512000,-0.57334083,0.0339327,-0.011414086,1
16516000,-0.5710245,0.03355531,-0.011954174,1
16520000,-0.5686992,0.03315232,-0.012498071,1
16524000,-0.56637245,0.03278375,-0.013042359,1
16528000,-0.56406957,0.032435022,-0.013581562,1
16532000,-0.56178105,0.032084454,-0.014118503,1
16536000,-0.5595252,0.031721473,-0.014649299,1
16540000,-0.55733466,0.031399626,-0.015164616,1
16548000,-0.5529584,0.030772595,-0.016196081,1
16552000,-0.5507731,0.030459473,-0.016712416,1
16556000,-0.548567,0.030172747,-0.017233387,1
16560000,-0.54635525,0.029880108,-0.017756706,1
16564000,-0.5441908,0.02956015,-0.018271012,1
16568000,-0.54205483,0.029243695,-0.018779432,1
16572000,-0.5399145,0.028950227,-0.019288734,1
16576000,-0.53780913,0.028678298,-0.019789713,1
16580000,-0.5357538,0.028411891,-0.02027956,1
16584000,-0.53367525,0.028121192,-0.020776674,1
16588000,-0.53156203,0.02781819,-0.021399109,1
16592000,-0.5295163,0.027528016,-0.021892687,1
16596000,-0.5274495,0.02730118,-0.022388786,1
16600000,-0.52540576,0.027058622,-0.022880912,1
16604000,-0.52338195,0.026774857,-0.02337122,1
16612000,-0.5193869,0.026181502,-0.02434311,1
16616000,-0.5173918,0.02586126,-0.02483095,1
16620000,-0.5153906,0.02562673,-0.025316227,1
16624000,-0.5134503,0.025388954,-0.025787923,1
16628000,-0.511526,0.02515605,-0.026256217,1
16632000,-0.5095853,0.024939902,-0.026727987,1
16636000,-0.5076349,0.024731733,-0.027202215,1
16644000,-0.50379044,0.024323413,-0.028138502,1
16648000,-0.5019467,0.024135768,-0.02858785,1
16652000,-0.50009006,0.023951665,-0.029040536,1
16656000,-0.4981946,0.02377814,-0.029502273,1
16660000,-0.49631557,0.023572808,-0.029962745,1
16664000,-0.4944401,0.023327176,-0.030425662,1
16668000,-0.53156495,0.007858807,-0.032160643,0.39609665
16676000,-0.527923,0.007427247,-0.033095002,0.39609665
16680000,-0.5261197,0.007168285,-0.033561718,0.39609665
16684000,-0.52436143,0.006898372,-0.034018684,0.39609665
16692000,-0.51771104,-0.008750998,-0.03634922,0.41869074
16696000,-0.5158008,-0.009009197,-0.03686387,0.41869074
16700000,-0.5137885,-0.0092714,-0.037406076,0.41869074
16704000,-0.5116954,-0.009559004,-0.03797199,0.41869074
16708000,-0.5095815,-0.00988413,-0.038547132,0.41869074
16712000,-0.50740576,-0.010215219,-0.03913984,0.41869074
16716000,-0.50070214,-0.025671447,-0.04124698,0.4399714
16724000,-0.49603304,-0.026471393,-0.042577285,0.4399714
16728000,-0.4935485,-0.026931183,-0.04329017,0.4399714
16732000,-0.49105746,-0.027409442,-0.044007976,0.4399714
16736000,-0.48852283,-0.02789697,-0.04474006,0.4399714
16740000,-0.4813681,-0.043535803,-0.047132775,0.4601092
16744000,-0.47872767,-0.044060767,-0.047926184,0.4601092
16748000,-0.47605038,-0.044665776,-0.048739165,0.4601092
16752000,-0.47332603,-0.045290623,-0.049569484,0.4601092
16756000,-0.4705822,-0.04586123,-0.05040258,0.4601092
16764000,-0.46015292,-0.062147886,-0.053894516,0.47906807
16768000,-0.45729703,-0.06277114,-0.05479898,0.47906807
16772000,-0.45445147,-0.06338856,-0.05570223,0.47906807
16776000,-0.45157093,-0.06407621,-0.056625336,0.47906807
16780000,-0.44865417,-0.0648062,-0.057566173,0.47906807
16784000,-0.4457523,-0.06551011,-0.05850273,0.47906807
16788000,-0.4510211,-0.081216566,-0.062088136,0.49678954
16792000,-0.44808152,-0.08188406,-0.06307467,0.49678954
16796000,-0.4451801,-0.0825465,-0.06405143,0.49678954
16800000,-0.44229594,-0.08320388,-0.06502488,0.49678954
16804000,-0.43937176,-0.08384081,-0.06601128,0.49678954
16808000,-0.43641052,-0.08446985,-0.06701108,0.49678954
16812000,-0.42810827,-0.10018138,-0.070129946,0.51422733
16820000,-0.42228636,-0.1013737,-0.072159655,0.51422733
16824000,-0.41940966,-0.10195355,-0.073165186,0.51422733
16832000,-0.4136289,-0.103045784,-0.07518451,0.51422733
16836000,-0.40562898,-0.11864314,-0.0784785,0.53033626
16840000,-0.40279868,-0.11916086,-0.07949824,0.53033626
16844000,-0.39996737,-0.1196491,-0.080516905,0.53033626
16848000,-0.3971542,-0.12006934,-0.081523106,0.53033626
16852000,-0.39437515,-0.12050972,-0.08252224,0.53033626
16856000,-0.3916091,-0.12092993,-0.08351638,0.53033626
16860000,-0.38312855,-0.13639802,-0.086972825,0.5451046
16868000,-0.3775921,-0.13696294,-0.0889897,0.5451046
16872000,-0.3748173,-0.13722406,-0.089999996,0.5451046
16876000,-0.3720047,-0.1374524,-0.09102076,0.5451046
16884000,-0.37431914,-0.15284777,-0.095602944,0.5585808
16888000,-0.3710327,-0.1526765,-0.098206,0.5585808
16892000,-0.3683505,-0.15276678,-0.09920682,0.5585808
16896000,-0.36568794,-0.15280987,-0.10019487,0.5585808
16900000,-0.36304775,-0.15279102,-0.10116683,0.5585808
16904000,-0.36043784,-0.15277635,-0.10212894,0.5585808
16908000,-0.3520003,-0.16788018,-0.10586624,0.57247585
16912000,-0.3494358,-0.16780435,-0.1068293,0.57247585
16916000,-0.34692612,-0.16766468,-0.107762784,0.57247585
16924000,-0.3419425,-0.1673707,-0.109615274,0.57247585
16928000,-0.33951986,-0.1671329,-0.11050218,0.57247585
16932000,-0.33154672,-0.18199076,-0.11432788,0.5850809
16940000,-0.32666105,-0.1813942,-0.11614737,0.5850809
16944000,-0.32430664,-0.181045,-0.117014736,0.5850809
16948000,-0.32199058,-0.18066028,-0.11786147,0.5850809
16952000,-0.31967857,-0.18022951,-0.11869925,0.5850809
16956000,-0.31173566,-0.194881,-0.122589186,0.5964533
16960000,-0.30948555,-0.19434682,-0.123407915,0.5964533
16964000,-0.30724183,-0.19384997,-0.12422955,0.5964533
16968000,-0.30502814,-0.19331753,-0.12503299,0.5964533
16972000,-0.30287337,-0.19270608,-0.12579948,0.5964533
16976000,-0.30072242,-0.19206522,-0.12655894,0.5964533
16980000,-0.29354137,-0.2065314,-0.13051423,0.6066495
16984000,-0.2914546,-0.20580833,-0.13125369,0.6066495
16988000,-0.28896478,-0.20487452,-0.13307433,0.6066495
16992000,-0.28686342,-0.20414214,-0.13382286,0.6066495
16996000,-0.2848226,-0.20336603,-0.13453813,0.6066495
17000000,-0.2827966,-0.20254363,-0.13523851,0.6066495
17004000,-0.28873706,-0.21684647,-0.13927253,0.61660475
17008000,-0.28676546,-0.2159696,-0.13995875,0.61660475
17012000,-0.28480628,-0.21505085,-0.14063141,0.61660475
17016000,-0.28285667,-0.21411143,-0.14129522,0.61660475
17020000,-0.28089258,-0.21319914,-0.14196861,0.61660475
17024000,-0.2789443,-0.21227472,-0.142632,0.61660475
17028000,-0.27233052,-0.22647996,-0.14673264,0.625456
17032000,-0.27041328,-0.22543964,-0.14737941,0.625456
17036000,-0.26851922,-0.22438341,-0.14801195,0.625456
17040000,-0.2666428,-0.22325683,-0.1486229,0.625456
17044000,-0.2647979,-0.22209767,-0.14921288,0.625456
17048000,-0.26298824,-0.22088462,-0.14977635,0.625456
17052000,-0.25614393,-0.23487154,-0.15390493,0.6332978
17056000,-0.25439742,-0.23365133,-0.15445437,0.6332978
17060000,-0.25265807,-0.23243085,-0.15499893,0.6332978
17064000,-0.25088754,-0.23122984,-0.15555912,0.6332978
17068000,-0.24913377,-0.2300303,-0.15611055,0.6332978
17072000,-0.24744049,-0.22876559,-0.15662175,0.6332978
17076000,-0.24138002,-0.24269067,-0.1608026,0.6402089
17080000,-0.23973867,-0.24136929,-0.16129394,0.6402089
17084000,-0.23810285,-0.2400445,-0.16178043,0.6402089
17088000,-0.2361987,-0.23852713,-0.16302308,0.6402089
17096000,-0.2330696,-0.23572356,-0.1639012,0.6402089
17100000,-0.22677483,-0.24958538,-0.16813977,0.6467649
17104000,-0.22521785,-0.24817614,-0.16858563,0.6467649
17108000,-0.22372031,-0.24676067,-0.16900128,0.6467649
17112000,-0.2222341,-0.24531871,-0.16940486,0.6467649
17116000,-0.22074594,-0.24383849,-0.16980018,0.6467649
17120000,-0.21929432,-0.24236873,-0.17017892,0.6467649
17124000,-0.22701587,-0.2526579,-0.17354316,0.6524664
17128000,-0.22559974,-0.2511455,-0.17390525,0.6524664
17132000,-0.22423139,-0.24962859,-0.17424253,0.6524664
17136000,-0.22287777,-0.2481295,-0.17457464,0.6524664
17140000,-0.22150767,-0.24658996,-0.17490461,0.6524664
17144000,-0.22020003,-0.2450137,-0.17519666,0.6524664
17148000,-0.21450314,-0.24093954,-0.17481805,0.65737385
17152000,-0.21323217,-0.23938152,-0.17509094,0.65737385
17156000,-0.2119899,-0.23783866,-0.17535189,0.65737385
17164000,-0.20950073,-0.23471053,-0.17586221,0.65737385
17172000,-0.20323938,-0.22936949,-0.17578661,0.66154563
17176000,-0.20200743,-0.2277952,-0.17602578,0.66154563
17180000,-0.20085926,-0.22622703,-0.1762264,0.66154563
17184000,-0.19970638,-0.22466792,-0.17642933,0.66154563
17188000,-0.19821995,-0.22288342,-0.17754157,0.66154563
17192000,-0.19707003,-0.22135387,-0.17774901,0.66154563
17196000,-0.19186959,-0.21802296,-0.1774556,0.66559875
17200000,-0.1907599,-0.21650596,-0.17764276,0.66559875
17204000,-0.18962167,-0.21498151,-0.17783964,0.66559875
17208000,-0.18851039,-0.21347064,-0.17802563,0.66559875
17212000,-0.18743828,-0.21198784,-0.17819828,0.66559875
17216000,-0.18637659,-0.21053666,-0.17837141,0.66559875
17220000,-0.18119586,-0.20743176,-0.17808989,0.6690111
17224000,-0.18015197,-0.20594852,-0.17824414,0.6690111
17228000,-0.17919448,-0.20457762,-0.1783821,0.6690111
17232000,-0.17825727,-0.20317054,-0.17850208,0.6690111
17236000,-0.1772722,-0.20175707,-0.17864077,0.6690111
17240000,-0.17628656,-0.2003667,-0.17878331,0.6690111
17244000,-0.17162049,-0.1975464,-0.17851835,0.6718272
17248000,-0.1706928,-0.1961608,-0.17863262,0.6718272
17252000,-0.1697811,-0.19480327,-0.17874458,0.6718272
17256000,-0.16889441,-0.19344847,-0.17884488,0.6718272
17260000,-0.1680131,-0.19211997,-0.17894734,0.6718272
17268000,-0.17570087,-0.18839511,-0.17881379,0.67409706
17272000,-0.17487179,-0.18714508,-0.1789063,0.67409706
17276000,-0.174076,-0.18585056,-0.17897342,0.67409706
17280000,-0.17326732,-0.18455228,-0.17904438,0.67409706
17284000,-0.1724838,-0.18333639,-0.17912132,0.67409706
17288000,-0.17153032,-0.18205887,-0.17961475,0.67409706
17292000,-0.16691622,-0.17987959,-0.17943302,0.67610884
17296000,-0.16612889,-0.17881455,-0.17954251,0.67610884
17300000,-0.16534671,-0.17773226,-0.17964515,0.67610884
17304000,-0.16456869,-0.1766377,-0.17974247,0.67610884
17308000,-0.16383295,-0.17555943,-0.17982411,0.67610884
17312000,-0.16311088,-0.17447403,-0.17989747,0.67610884
17316000,-0.15806916,-0.1724724,-0.17971647,0.6776393
17324000,-0.15656203,-0.17038096,-0.17990348,0.6776393
17328000,-0.15582821,-0.16938917,-0.1799994,0.6776393
17332000,-0.15513763,-0.16839659,-0.18007569,0.6776393
17336000,-0.15448824,-0.16739199,-0.18013078,0.6776393
17340000,-0.14972466,-0.16555971,-0.17995039,0.67874575
17344000,-0.14907269,-0.16455683,-0.18000527,0.67874575
17348000,-0.14841509,-0.16359515,-0.18007131,0.67874575
17356000,-0.14711463,-0.16177079,-0.18021765,0.67874575
17360000,-0.1464636,-0.1608716,-0.18029332,0.67874575
17364000,-0.14121918,-0.15926921,-0.18013689,0.6794837
17368000,-0.14064649,-0.15845549,-0.18019699,0.6794837
17376000,-0.13955748,-0.15679955,-0.18028513,0.6794837
17380000,-0.13903302,-0.1559723,-0.18032008,0.6794837
17384000,-0.13846058,-0.15514994,-0.18037629,0.6794837
17388000,-0.13340501,-0.15355982,-0.18066214,0.6798893
17392000,-0.13287075,-0.15281841,-0.18072021,0.6798893
17396000,-0.13233939,-0.1520696,-0.18077494,0.6798893
17404000,-0.13137998,-0.15057293,-0.18083933,0.6798893
17408000,-0.13091327,-0.14983216,-0.18086717,0.6798893
17412000,-0.12557665,-0.1485867,-0.18072505,0.6802236
17416000,-0.12514582,-0.14788428,-0.18074566,0.6802236
17420000,-0.12471384,-0.1471839,-0.18076691,0.6802236
17428000,-0.12389955,-0.14581217,-0.18079412,0.6802236
17432000,-0.123488486,-0.14516617,-0.1808183,0.6802236
17436000,-0.13220127,-0.14405353,-0.1807096,0.6802427
17444000,-0.1313349,-0.14283676,-0.1807927,0.6802427
17448000,-0.13095658,-0.14223602,-0.18081242,0.6802427
17452000,-0.1305935,-0.14161484,-0.18082058,0.6802427
17456000,-0.13024528,-0.14097026,-0.18081671,0.6802427
17460000,-0.12468867,-0.1399796,-0.18069719,0.6799988
17468000,-0.124055445,-0.13896699,-0.18072663,0.6799988
17472000,-0.123747796,-0.13841261,-0.18072598,0.6799988
17480000,-0.12317167,-0.1373383,-0.18071571,0.6799988
17484000,-0.11797237,-0.13639456,-0.18058687,0.6795255
17492000,-0.117474034,-0.13536704,-0.18028899,0.6795255
17496000,-0.117182314,-0.13483834,-0.1802863,0.6795255
17504000,-0.11662559,-0.13377984,-0.18026893,0.6795255
17508000,-0.110929236,-0.13286144,-0.18011464,0.67872924
17516000,-0.11041959,-0.1317627,-0.18006688,0.67872924
17520000,-0.11012235,-0.13122255,-0.18006271,0.67872924
17524000,-0.10987821,-0.13069235,-0.18003854,0.67872924
17532000,-0.104375884,-0.12929267,-0.1798298,0.6777559
17540000,-0.10392107,-0.12823299,-0.17976649,0.6777559
17544000,-0.10372685,-0.12771524,-0.17972367,0.6777559
17548000,-0.10357532,-0.12721673,-0.1796675,0.6777559
17552000,-0.103412755,-0.1267685,-0.17962791,0.6777559
17556000,-0.09757015,-0.12601875,-0.1794911,0.6766319
17560000,-0.09739664,-0.12551904,-0.1794435,0.6766319
17564000,-0.09722619,-0.1250199,-0.17939463,0.6766319
17568000,-0.097087815,-0.124608465,-0.1793534,0.6766319
17572000,-0.09694974,-0.124163456,-0.1793039,0.6766319
17576000,-0.09677404,-0.12366006,-0.17925589,0.6766319
17580000,-0.09142992,-0.122849464,-0.1791057,0.67534995
17584000,-0.09129635,-0.12235712,-0.17904261,0.67534995
17588000,-0.090951234,-0.12170221,-0.17967616,0.67534995
17592000,-0.09081332,-0.12129351,-0.17963527,0.67534995
17596000,-0.0906872,-0.1208466,-0.17958018,0.67534995
17600000,-0.09056784,-0.12038222,-0.17951801,0.67534995
17604000,-0.084690064,-0.11970913,-0.1794082,0.6742816
17608000,-0.08454504,-0.11921796,-0.17935003,0.6742816
17612000,-0.084450275,-0.11874698,-0.17927577,0.6742816
17616000,-0.08438146,-0.118294716,-0.1791952,0.6742816
17620000,-0.084305465,-0.117848426,-0.17911899,0.6742816
17628000,-0.09302819,-0.116637975,-0.1788839,0.6730988
17632000,-0.0929579,-0.1161753,-0.17880118,0.6730988
17636000,-0.092907585,-0.11573884,-0.17871645,0.6730988
17640000,-0.09285739,-0.11530866,-0.17863317,0.6730988
17644000,-0.09279534,-0.114860654,-0.17855044,0.6730988
17648000,-0.09273514,-0.114412725,-0.1784669,0.6730988
17652000,-0.08689685,-0.113777205,-0.17833719,0.67179066
17656000,-0.086803705,-0.11328359,-0.17825606,0.67179066
17660000,-0.08675526,-0.11283076,-0.17816633,0.67179066
17664000,-0.08671674,-0.112428755,-0.17808476,0.67179066
17668000,-0.086646006,-0.112020776,-0.17801502,0.67179066
17672000,-0.086562596,-0.11159293,-0.1779456,0.67179066
17676000,-0.080712125,-0.110996604,-0.17781809,0.6703917
17680000,-0.08069865,-0.110587314,-0.1777243,0.6703917
17684000,-0.08069655,-0.11020871,-0.17763324,0.6703917
17688000,-0.08087914,-0.11001155,-0.17689797,0.6703917
17692000,-0.080837734,-0.10959777,-0.17681424,0.6703917
17696000,-0.080768034,-0.10915521,-0.17673509,0.6703917
17700000,-0.07535408,-0.10846408,-0.17657776,0.66861314
17704000,-0.07531117,-0.1080061,-0.17648375,0.66861314
17708000,-0.07527602,-0.10755895,-0.1763892,0.66861314
17716000,-0.07521364,-0.10672152,-0.17621057,0.66861314
17720000,-0.07519783,-0.10630466,-0.17611536,0.66861314
17724000,-0.06932351,-0.10562439,-0.1759381,0.6667862
17732000,-0.06926085,-0.10482365,-0.17576826,0.6667862
17736000,-0.06921116,-0.1043767,-0.1756794,0.6667862
17740000,-0.06915588,-0.10390675,-0.17558718,0.6667862
17744000,-0.06913386,-0.10343067,-0.17547984,0.6667862
17748000,-0.063658446,-0.10277495,-0.17531395,0.66491085
17752000,-0.06363657,-0.102376804,-0.17522556,0.66491085
17756000,-0.063642606,-0.10197807,-0.17512564,0.66491085
17760000,-0.0636446,-0.10150379,-0.17500888,0.66491085
17764000,-0.06365563,-0.10101393,-0.17488462,0.66491085
17768000,-0.063690476,-0.10057054,-0.17476206,0.66491085
17772000,-0.057886932,-0.09989312,-0.17457551,0.6630116
17776000,-0.05791267,-0.09944387,-0.17445517,0.6630116
17780000,-0.05793763,-0.099035814,-0.17434523,0.6630116
17784000,-0.057961978,-0.09859954,-0.17422861,0.6630116
17788000,-0.05779962,-0.09793763,-0.17475654,0.6630116
17792000,-0.05782996,-0.097487986,-0.17463434,0.6630116
17796000,-0.052506987,-0.09691584,-0.17447981,0.6613971
17804000,-0.05259334,-0.096078426,-0.17424013,0.6613971
17808000,-0.052641068,-0.0956063,-0.17410539,0.6613971
17812000,-0.052663736,-0.09515743,-0.17398645,0.6613971
17820000,-0.046948057,-0.094312035,-0.17371741,0.65975934
17828000,-0.047038585,-0.09357842,-0.17350143,0.65975934
17832000,-0.047138542,-0.09321076,-0.17337121,0.65975934
17836000,-0.04723507,-0.092805624,-0.17323323,0.65975934
17840000,-0.047322977,-0.0924022,-0.17309916,0.65975934
17844000,-0.041922674,-0.09188548,-0.17293227,0.65808475
17848000,-0.042006128,-0.091512516,-0.17280746,0.65808475
17852000,-0.042135227,-0.09114213,-0.17266497,0.65808475
17856000,-0.04229123,-0.09073156,-0.17250189,0.65808475
17860000,-0.042424157,-0.09033549,-0.17235169,0.65808475
17864000,-0.042546183,-0.08996154,-0.17221129,0.65808475
17868000,-0.03667347,-0.08948928,-0.17203888,0.656389
17872000,-0.036828503,-0.08911416,-0.17188504,0.656389
17876000,-0.036984902,-0.08869909,-0.17172095,0.656389
17880000,-0.03709426,-0.08830735,-0.17158142,0.656389
17884000,-0.0372213,-0.087901905,-0.1714315,0.656389
17888000,-0.037374355,-0.087496564,-0.17128454,0.656389
17892000,-0.04644161,-0.08703547,-0.17111872,0.65468514
17896000,-0.046544537,-0.08666323,-0.17098662,0.65468514
17900000,-0.046702098,-0.0862903,-0.17083265,0.65468514
17904000,-0.04686857,-0.085887134,-0.17066774,0.65468514
17908000,-0.04702366,-0.0854946,-0.17051002,0.65468514
17916000,-0.04136399,-0.084684044,-0.17016466,0.6529703
17920000,-0.041538827,-0.084383845,-0.17002183,0.6529703
17924000,-0.04170332,-0.08403753,-0.16987187,0.6529703
17928000,-0.041868716,-0.083671466,-0.16971678,0.6529703
17932000,-0.042052586,-0.083357446,-0.16956711,0.6529703
17940000,-0.036701627,-0.08263709,-0.16925845,0.65124774
17944000,-0.036877476,-0.08229282,-0.16910474,0.65124774
17948000,-0.037012093,-0.08194338,-0.16896614,0.65124774
17952000,-0.03714244,-0.08157509,-0.1688247,0.65124774
17956000,-0.037304554,-0.08124208,-0.16867933,0.65124774
17960000,-0.037428655,-0.08090286,-0.16854754,0.65124774
17964000,-0.031419173,-0.080443114,-0.1683642,0.64954764
17968000,-0.031621575,-0.08016153,-0.16821557,0.64954764
17972000,-0.031814724,-0.07986187,-0.16806626,0.64954764
17976000,-0.031991534,-0.07952458,-0.1679143,0.64954764
17980000,-0.03214111,-0.079128206,-0.16775872,0.64954764
17984000,-0.032296687,-0.07877841,-0.1676122,0.64954764
17988000,-0.02692147,-0.078354865,-0.16738231,0.6478285
17992000,-0.02711901,-0.07803781,-0.16722734,0.6478285
17996000,-0.027311165,-0.07777064,-0.16708669,0.6478285
18000000,-0.0275499,-0.077513285,-0.16693015,0.6478285
18004000,-0.027757522,-0.07722527,-0.16677848,0.6478285
18008000,-0.027927253,-0.07692961,-0.16663985,0.6478285
18012000,-0.021979626,-0.07658835,-0.16647223,0.6461111
18016000,-0.022201918,-0.076361686,-0.16632985,0.6461111
18020000,-0.022466403,-0.076125234,-0.16616862,0.6461111
18024000,-0.022694927,-0.075868055,-0.16601655,0.6461111
18028000,-0.022914361,-0.07561639,-0.1658694,0.6461111
18032000,-0.023143161,-0.075373426,-0.16572078,0.6461111
18036000,-0.017607924,-0.07498945,-0.16554147,0.64437973
18040000,-0.017867569,-0.07476494,-0.16538538,0.64437973
18044000,-0.018180452,-0.07453512,-0.16520727,0.64437973
18048000,-0.018475506,-0.0743096,-0.16503723,0.64437973
18052000,-0.018764347,-0.07407267,-0.16486692,0.64437973
18056000,-0.019039638,-0.07381761,-0.16469763,0.64437973
18060000,-0.013156835,-0.073436454,-0.16448602,0.64265037
18064000,-0.013440367,-0.07322119,-0.16432333,0.64265037
18068000,-0.013699807,-0.07301628,-0.16417259,0.64265037
18076000,-0.014245339,-0.07262294,-0.16386493,0.64265037
18080000,-0.014496304,-0.0723998,-0.16371325,0.64265037
18084000,-0.009077862,-0.07204155,-0.16350912,0.6409321
18092000,-0.00953652,-0.0714473,-0.1635938,0.6409321
18096000,-0.009836573,-0.0712263,-0.16342375,0.6409321
18100000,-0.010135319,-0.07098472,-0.16324924,0.6409321
18104000,-0.010430973,-0.0707539,-0.16307868,0.6409321
18108000,-0.004575755,-0.07044611,-0.16287759,0.63945407
18112000,-0.004885256,-0.070245795,-0.16270909,0.63945407
18116000,-0.005226512,-0.070057735,-0.16253132,0.63945407
18124000,-0.005975876,-0.06969768,-0.1621539,0.63945407
18128000,-0.006347027,-0.06956864,-0.16197893,0.63945407
18132000,-0.00096998,-0.069344595,-0.16179925,0.63797134
18136000,-0.001277778,-0.06919362,-0.16164377,0.63797134
18140000,-0.001653865,-0.06903643,-0.16146037,0.63797134
18144000,-0.002038796,-0.06887725,-0.1612732,0.63797134
18148000,-0.002424378,-0.06872274,-0.16108695,0.63797134
18156000,0.002836566,-0.06834909,-0.16067868,0.63649696
18160000,0.002446551,-0.0681995,-0.1604922,0.63649696
18164000,0.002061017,-0.06807548,-0.1603136,0.63649696
18168000,0.001692969,-0.06794971,-0.16014145,0.63649696
18172000,0.001316506,-0.06779945,-0.15996031,0.63649696
18176000,0.000924692,-0.06768085,-0.15978083,0.63649696
18180000,0.006070931,-0.06749719,-0.1595719,0.63502526
18184000,0.005659495,-0.067395136,-0.15938894,0.63502526
18188000,0.005131982,-0.06741124,-0.15881063,0.63502526
18192000,0.004716972,-0.06729164,-0.15862265,0.63502526
18196000,0.004310701,-0.0671981,-0.15844426,0.63502526
18200000,0.003881037,-0.067157805,-0.15826957,0.63502526
18204000,0.009347366,-0.066948056,-0.15804057,0.63338584
18208000,0.008886885,-0.066854246,-0.15784158,0.63338584
18212000,0.008426482,-0.066763304,-0.15764336,0.63338584
18220000,0.007493101,-0.066526584,-0.15722945,0.63338584
18228000,0.012104267,-0.066199556,-0.15679619,0.6317591
18236000,0.011186784,-0.0660068,-0.15639958,0.6317591
18240000,0.010737641,-0.0659266,-0.15620889,0.6317591
18244000,0.010281736,-0.06584142,-0.1560145,0.6317591
18252000,0.015354004,-0.06557307,-0.1556013,0.6301675
18256000,0.014885575,-0.06547298,-0.15539896,0.6301675
18260000,0.014395211,-0.06534895,-0.15518275,0.6301675
18264000,0.013947601,-0.06527655,-0.15499496,0.6301675
18268000,0.013529947,-0.06522329,-0.15482317,0.6301675
18272000,0.013082588,-0.06511091,-0.15462637,0.6301675
18276000,0.018046314,-0.064864814,-0.15437867,0.6286257
18280000,0.017534848,-0.06478387,-0.15416498,0.6286257
18288000,0.016512124,-0.06457365,-0.15372674,0.6286257
18292000,0.016154334,-0.06429742,-0.15407912,0.6286257
18296000,0.015655408,-0.06425158,-0.15387808,0.6286257
18300000,0.02112061,-0.064169794,-0.1536656,0.6274107
18308000,0.020059906,-0.06413208,-0.15325244,0.6274107
18312000,0.01952189,-0.06409856,-0.15303966,0.6274107
