timestamp,roll_body,pitch_body,yaw_body,yaw_sp_move_rate,q_d[0],q_d[1],q_d[2],q_d[3],thrust_body[0]
13568000,0,0,1.6082791,0,0.6937312,0,0,0.720234,1
13592000,0,0,1.6082791,0,0.6937312,0,0,0.720234,1
13616000,0,0,1.6082791,0,0.6937312,0,0,0.720234,1
13640000,0,0,1.6082791,0,0.6937312,0,0,0.720234,1
13664000,0,0,1.6082791,0,0.6937312,0,0,0.720234,1
13688000,0,0,1.6082791,0,0.6937312,0,0,0.720234,1
13712000,0,-0.32692656,1.6082791,0,0.68448347,0.1172082,-0.112895235,0.710633,1
13736000,0,-0.31123888,1.6082791,0,0.6853479,0.11163057,-0.107522845,0.71153045,1
13760000,0,-0.29655513,1.6082791,0,0.6861189,0.106403634,-0.10248825,0.7123309,1
13784000,0,-0.28270695,1.6082791,0,0.6868121,0.10146888,-0.097735085,0.71305054,1
13808000,0,-0.2697244,1.6082791,0,0.68743205,0.09683817,-0.093274765,0.71369416,1
13832000,0,-0.25746286,1.6082791,0,0.68799096,0.09246088,-0.089058556,0.71427447,1
13856000,0,-0.24580815,1.6082791,0,0.68849826,0.08829701,-0.0850479,0.71480113,1
13880000,0,-0.23466843,1.6082791,0,0.68896127,0.08431431,-0.08121176,0.71528184,1
13904000,0,-0.22405577,1.6082791,0,0.6893825,0.08051763,-0.07755478,0.71571916,1
13928000,0,-0.21389176,1.6082791,0,0.6897677,0.07687931,-0.074050345,0.71611905,1
13952000,0,-0.20411202,1.6082791,0,0.6901216,0.07337668,-0.0706766,0.71648645,1
13976000,0,-0.19466288,1.6082791,0,0.6904478,0.069990784,-0.0674153,0.7168251,1
14000000,0,-0.18555383,1.6082791,0,0.6907477,0.06672527,-0.064269945,0.71713644,1
14024000,0,-0.176738,1.6082791,0,0.69102424,0.06356355,-0.061224572,0.7174236,1
14048000,0,-0.16817576,1.6082791,0,0.69128,0.0604916,-0.05826566,0.71768916,1
14072000,0,-0.15983315,1.6082791,0,0.69151706,0.057497382,-0.055381626,0.71793526,1
14096000,0,-0.15171213,1.6082791,0,0.6917362,0.05458174,-0.052573267,0.71816283,1
14120000,0,-0.1437834,1.6082791,0,0.69193923,0.051734254,-0.049830563,0.71837354,1
14144000,0,-0.13602154,1.6082791,0,0.6921274,0.048945915,-0.04714483,0.7185689,1
14168000,0,-0.12840444,1.6082791,0,0.6923019,0.04620886,-0.044508487,0.7187501,1
14192000,0,-0.12093297,1.6082791,0,0.6924634,0.043523483,-0.04192193,0.7189177,1
14216000,0,-0.113588125,1.6082791,0,0.69261265,0.040883027,-0.03937863,0.7190727,1
14240000,0,-0.10635309,1.6082791,0,0.6927506,0.038281508,-0.036872845,0.7192159,1
14264000,0,-0.09921303,1.6082791,0,0.69287777,0.035713643,-0.034399472,0.71934795,1
14288000,0,-0.092169024,1.6082791,0,0.69299465,0.033179887,-0.03195895,0.7194693,1
14312000,0,-0.08520815,1.6082791,0,0.6931017,0.030675622,-0.029546836,0.7195804,1
14336000,0,-0.07831879,1.6082791,0,0.69319934,0.02819672,-0.027159153,0.7196818,1
14360000,0,-0.07149057,1.6082791,0,0.693288,0.025739487,-0.02479234,0.7197739,1
14384000,0,-0.06471406,1.6082791,0,0.6933681,0.023300564,-0.022443162,0.719857,1
14408000,0,-0.05799393,1.6082791,0,0.69343954,0.020881671,-0.02011328,0.7199312,1
14432000,0,-0.05132152,1.6082791,0,0.69350284,0.018479723,-0.017799716,0.71999687,1
14456000,0,-0.044688933,1.6082791,0,0.69355804,0.016091906,-0.015499763,0.7200542,1
14480000,0,-0.038088966,1.6082791,0,0.6936054,0.013715655,-0.013210953,0.7201034,1
14504000,0,-0.03152089,1.6082791,0,0.693645,0.011350738,-0.010933059,0.7201445,1
14528000,0,-0.024978368,1.6082791,0,0.6936771,0.008994901,-0.00866391,0.7201778,1
14552000,0,-0.018455613,1.6082791,0,0.6937017,0.006646086,-0.006401526,0.72020334,1
14576000,0,-0.011947319,1.6082791,0,0.69371885,0.004302407,-0.004144089,0.72022116,1
14600000,0,-0.005453342,1.6082791,0,0.6937286,0.001963839,-0.001891574,0.7202313,1
14624000,0,0.001030977,1.6082791,0,0.6937311,-0.000371272,0.00035761,0.7202339,1
14648000,0,0.007509918,1.6082791,0,0.6937263,-0.002704443,0.002604926,0.7202289,1
14672000,0,0.013987386,1.6082791,0,0.69371426,-0.005037054,0.004851704,0.7202164,1
14696000,0,0.02046559,1.6082791,0,0.6936949,-0.007369878,0.007098685,0.7201963,1
14720000,0,0.02694786,1.6082791,0,0.6936682,-0.009704088,0.009347002,0.7201686,1
14744000,0,0.03343725,1.6082791,0,0.6936342,-0.01204076,0.011597691,0.7201333,1
14768000,0,0.039936543,1.6082791,0,0.69359285,-0.014380872,0.013851693,0.7200904,1
14792000,0,0.046445493,1.6082791,0,0.69354415,-0.016724307,0.016108895,0.7200398,1
14816000,0,0.05296651,1.6082791,0,0.69348794,-0.01907191,0.018370112,0.71998143,1
14840000,0,0.059501782,1.6082791,0,0.6934242,-0.021424443,0.020636076,0.7199153,1
14864000,0,0.066053316,1.6082791,0,0.6933529,-0.023782596,0.022907456,0.71984124,1
14888000,0,0.0726219,1.6082791,0,0.6932739,-0.026146632,0.025184501,0.7197592,1
14912000,0,0.079209186,1.6082791,0,0.6931872,-0.028517118,0.02746776,0.7196692,1
14936000,0,0.08581666,1.6082791,0,0.69309264,-0.030894555,0.029757714,0.71957105,1
14960000,0,0.092445634,1.6082791,0,0.69299024,-0.03327939,0.032054793,0.7194647,1
14984000,0,0.09909727,1.6082791,0,0.6928798,-0.03567201,0.03435937,0.71935004,1
15008000,0,0.10577057,1.6082791,0,0.6927613,-0.038072027,0.036671072,0.719227,1
15032000,0,0.11246644,1.6082791,0,0.69263464,-0.040479735,0.03899018,0.7190955,1
15056000,0,0.11918567,1.6082791,0,0.6924997,-0.042895384,0.04131694,0.71895546,1
15080000,0,0.12592892,1.6082791,0,0.69235647,-0.045319185,0.043651555,0.71880674,1
15104000,0,0.1326969,1.6082791,0,0.69220483,-0.047751356,0.045994226,0.71864927,1
15128000,0,0.13948996,1.6082791,0,0.69204456,-0.05019199,0.048345055,0.7184829,1
15152000,0,0.14630844,1.6082791,0,0.69187576,-0.052641172,0.05070411,0.7183077,1
15176000,0,0.15315251,1.6082791,0,0.6916982,-0.055098932,0.05307143,0.7181233,1
15200000,0,0.16002306,1.6082791,0,0.6915118,-0.057565555,0.055447288,0.7179298,1
15224000,0,0.16692005,1.6082791,0,0.6913164,-0.060040984,0.05783163,0.717727,1
15248000,0,0.17384335,1.6082791,0,0.69111216,-0.062525146,0.060224377,0.7175149,1
15272000,0,0.18079278,1.6082791,0,0.6908987,-0.065017916,0.06262542,0.71729326,1
15296000,0,0.18776971,1.6082791,0,0.69067603,-0.06751977,0.06503522,0.7170621,1
15320000,0,0.19477378,1.6082791,0,0.69044405,-0.070030525,0.06745358,0.71682125,1
15344000,0,0.20180455,1.6082791,0,0.69020265,-0.07254999,0.06988034,0.7165707,1
15368000,0,0.20886153,1.6082791,0,0.6899518,-0.07507794,0.07231527,0.7163102,1
15392000,0,0.21594371,1.6082791,0,0.68969136,-0.07761399,0.07475799,0.71603984,1
15416000,0,0.22305048,1.6082791,0,0.6894214,-0.08015786,0.07720825,0.7157595,1
15440000,0,0.23018116,1.6082791,0,0.6891417,-0.082709275,0.07966578,0.7154692,1
15464000,0,0.23733506,1.6082791,0,0.68885237,-0.08526793,0.08213029,0.7151688,1
15488000,0,0.24451141,1.6082791,0,0.6885532,-0.08783353,0.08460148,0.7148582,1
15512000,0,0.25171044,1.6082791,0,0.6882443,-0.090406105,0.08707938,0.71453744,1
15536000,0,0.2589313,1.6082791,0,0.6879254,-0.092985295,0.08956367,0.71420634,1
15560000,0,0.26617312,1.6082791,0,0.68759656,-0.09557075,0.092053995,0.713865,1
15584000,0,0.27343503,1.6082791,0,0.68725777,-0.09816213,0.094550006,0.71351326,1
15608000,0,0.28071785,1.6082791,0,0.6869089,-0.10075967,0.09705197,0.7131511,1
15632000,0,0.2880206,1.6082791,0,0.68654996,-0.10336298,0.09955948,0.7127784,1
15656000,0,0.29534236,1.6082791,0,0.6861809,-0.10597167,0.10207218,0.71239525,1
15680000,0,0.30268207,1.6082791,0,0.6858017,-0.108585335,0.10458967,0.71200156,1
15704000,0,0.31004038,1.6082791,0,0.6854123,-0.11120416,0.10711213,0.71159726,1
15728000,0,0.31741622,1.6082791,0,0.6850126,-0.11382771,0.10963914,0.7111823,1
15752000,0,0.3248085,1.6082791,0,0.6846026,-0.11645556,0.112170294,0.7107567,1
15776000,0,0.3322162,1.6082791,0,0.68418247,-0.11908729,0.114705175,0.7103205,1
15800000,0,0.33964053,1.6082791,0,0.68375194,-0.12172329,0.11724418,0.7098735,1
15824000,0,0.34708038,1.6082791,0,0.6833111,-0.12436312,0.119786866,0.7094158,1
15848000,0,0.34906584,1.6082791,0,0.68319184,-0.12506732,0.12046516,0.709292,1
15872000,0,0.34906584,1.6082791,0,0.68319184,-0.12506732,0.12046516,0.709292,1
15896000,0,0.34906584,1.6082791,0,0.68319184,-0.12506732,0.12046516,0.709292,1
15920000,0,0.34906584,1.6082791,0,0.68319184,-0.12506732,0.12046516,0.709292,1
15944000,0,0.34906584,1.6082791,0,0.68319184,-0.12506732,0.12046516,0.709292,1
15968000,-0.41109356,0.34906584,1.5292366,0,0.6711879,-0.26273167,-0.016470991,0.6929701,1
15992000,-0.37920552,0.34906584,1.5288084,0,0.6754398,-0.25199845,-0.005366691,0.69300014,1
16016000,-0.39293593,0.34906584,1.5216564,0,0.6761675,-0.25666407,-0.009206347,0.69053334,1
16040000,-0.39631405,0.34906584,1.5214273,0,0.6758121,-0.257807,-0.010343149,0.6904394,1
16064000,-0.3997088,0.34906584,1.5209813,0,0.67552745,-0.25895628,-0.011457332,0.6902702,1
16088000,-0.40248883,0.34906584,1.5207496,0,0.6752469,-0.25989646,-0.012386687,0.69017535,1
16112000,-0.41487414,0.34906584,1.5135263,0,0.6761124,-0.2641315,-0.015706599,0.68764806,1
16136000,-0.41745248,0.34906584,1.5130653,0,0.6759297,-0.2650067,-0.016532004,0.68747145,1
16160000,-0.41944283,0.34906584,1.5128217,0,0.6757495,-0.26568133,-0.01718378,0.68737245,1
16184000,-0.42134112,0.34906584,1.512361,0,0.67565525,-0.2663267,-0.017774865,0.6872001,1
16208000,-0.4320277,0.34906584,1.5052963,0,0.6766455,-0.2700072,-0.020492867,0.68470955,1
16232000,-0.43324697,0.34906584,1.5048246,0,0.6766421,-0.27042454,-0.020846501,0.6845373,1
16256000,-0.43416715,0.34906584,1.5043535,0,0.6766789,-0.2707408,-0.021097668,0.6843683,1
16280000,-0.43448374,0.34906584,1.504102,0,0.67672205,-0.2708506,-0.021171935,0.6842798,1
16304000,-0.43633232,0.34906584,1.496773,0,0.67897433,-0.27155405,-0.02080945,0.68177646,1
16328000,-0.43633232,0.34906584,1.4965134,0,0.67906284,-0.27155674,-0.020774193,0.6816883,1
16352000,-0.43633232,0.34906584,1.4960397,0,0.6792243,-0.27156168,-0.02070988,0.68152744,1
16376000,-0.43633232,0.34906584,1.495786,0,0.67931074,-0.27156428,-0.020675413,0.6814413,1
16400000,-0.43633232,0.34906584,1.4884248,0,0.68181425,-0.27163854,-0.019675769,0.6789364,1
16424000,-0.43633232,0.34906584,1.4879471,0,0.68197644,-0.27164325,-0.019610897,0.6787736,1
16448000,-0.43633232,0.34906584,1.4876925,0,0.68206286,-0.27164572,-0.019576296,0.6786867,1
16472000,-0.43633232,0.34906584,1.4803059,0,0.6845647,-0.27171618,-0.018572897,0.676163,1
16496000,-0.43633232,0.34906584,1.4800445,0,0.6846531,-0.27171862,-0.018537387,0.6760736,1
16520000,-0.43633232,0.34906584,1.4795611,0,0.68481654,-0.2717231,-0.018471703,0.6759081,1
16544000,-0.43633232,0.34906584,1.4793019,0,0.6849041,-0.27172548,-0.018436506,0.67581934,1
16568000,-0.43633232,0.34906584,1.4718924,0,0.68740314,-0.2717919,-0.017429695,0.67327726,1
16592000,-0.43633232,0.34906584,1.4716302,0,0.68749136,-0.2717942,-0.01739408,0.67318714,1
16616000,-0.43633232,0.34906584,1.4711498,0,0.68765306,-0.27179837,-0.017328784,0.673022,1
16640000,-0.43633232,0.34906584,1.470669,0,0.6878149,-0.2718025,-0.017263442,0.6728567,1
16664000,-0.4636282,0.34144822,1.4634494,0,0.6875144,-0.27892965,-0.028247021,0.66986877,0.39609665
16688000,-0.46153235,0.3338325,1.4629426,0,0.68901306,-0.275884,-0.030291729,0.6695008,0.41869074
16712000,-0.45841753,0.3262177,1.4624628,0,0.6906257,-0.27248096,-0.0320004,0.6691534,0.4399714
16736000,-0.45523563,0.3186027,1.4616729,0,0.692332,-0.26905295,-0.033646822,0.6686964,0.4601092
16760000,-0.4518321,0.31098652,1.461091,0,0.69397885,-0.26553753,-0.035250157,0.6683117,0.47906807
16784000,-0.45773613,0.3033683,1.4531722,0,0.6968237,-0.2653936,-0.03899116,0.66519356,0.49678954
16808000,-0.4539719,0.29574,1.4525427,0,0.69850963,-0.26174897,-0.04048846,0.66478,0.51422733
16832000,-0.45037037,0.2881014,1.4516822,0,0.7002308,-0.25815552,-0.042016424,0.6642794,0.53033626
16856000,-0.44638076,0.28045246,1.4510604,0,0.7019023,-0.25441077,-0.043453135,0.66386765,0.5451046
16880000,-0.45180842,0.2727933,1.4429636,0,0.70483816,-0.25414294,-0.047070198,0.6606051,0.5585808
16904000,-0.44771314,0.26511118,1.4423361,0,0.70649934,-0.25034887,-0.048501015,0.6601756,0.57247585
16928000,-0.44384822,0.2574069,1.441497,0,0.70818126,-0.24662715,-0.049992718,0.6596629,0.5850809
16952000,-0.43988165,0.24968132,1.4409292,0,0.709766,-0.24284896,-0.051495217,0.6592457,0.5964533
16976000,-0.4363503,0.24193549,1.4401573,0,0.71134514,-0.2392174,-0.053126648,0.65874165,0.6066495
17000000,-0.44193244,0.23416361,1.4322515,0,0.7141673,-0.23902221,-0.056917414,0.65543413,0.61660475
17024000,-0.43864384,0.2263671,1.4315293,0,0.7156787,-0.23546104,-0.058669783,0.6549198,0.625456
17048000,-0.4350981,0.21854746,1.4310824,0,0.7171114,-0.23178641,-0.060381234,0.65450776,0.6332978
17072000,-0.4320166,0.21070623,1.4304346,0,0.7185372,-0.22827154,-0.062231496,0.6540058,0.6402089
17096000,-0.4287049,0.20284072,1.4300627,0,0.7198808,-0.22465199,-0.0640489,0.65360606,0.6467649
17120000,-0.4351016,0.19676425,1.4220133,0,0.7224325,-0.22534081,-0.0675044,0.65019685,0.6524664
17144000,-0.4320033,0.19805352,1.4217075,0,0.72274345,-0.22463007,-0.06597904,0.65025383,0.65737385
17168000,-0.4293783,0.19919385,1.421202,0,0.7230813,-0.2240502,-0.06464097,0.6502127,0.66154563
17192000,-0.42652646,0.20012519,1.420964,0,0.723379,-0.22331439,-0.063337535,0.6502629,0.66559875
17216000,-0.42364278,0.2009545,1.4207497,0,0.72368264,-0.22253427,-0.062064588,0.6503153,0.6690111
17240000,-0.42105678,0.20169029,1.4203176,0,0.724033,-0.22183909,-0.060899362,0.650273,0.6718272
17264000,-0.4276417,0.20234168,1.4126612,0,0.72571295,-0.22466165,-0.061935782,0.6473267,0.67409706
17288000,-0.425001,0.20288914,1.4122536,0,0.726083,-0.22388399,-0.060829088,0.6472861,0.67610884
17312000,-0.4220017,0.2033815,1.4121013,0,0.72641534,-0.22295082,-0.059655726,0.6473444,0.6776393
17336000,-0.41913733,0.20381956,1.4117116,0,0.7268141,-0.2220564,-0.058520116,0.647308,0.67874575
17360000,-0.41589013,0.20420879,1.4115561,0,0.7271832,-0.22100027,-0.057305068,0.6473634,0.6794837
17384000,-0.41283736,0.20455907,1.4111651,0,0.7276099,-0.22000885,-0.056141667,0.6473237,0.6798893
17408000,-0.40940416,0.20484124,1.4110051,0,0.72800905,-0.2188508,-0.054906406,0.6473736,0.6802236
17432000,-0.41580838,0.20509659,1.4031591,0,0.7298111,-0.22148082,-0.0560143,0.644348,0.6802427
17456000,-0.41215715,0.20532593,1.4029983,0,0.7302422,-0.22022271,-0.05473333,0.64440084,0.6799988
17480000,-0.4087203,0.20553331,1.402588,0,0.7307304,-0.21904206,-0.053502418,0.6443534,0.6795255
17504000,-0.40488434,0.2057325,1.4024082,0,0.73118657,-0.21770583,-0.05217141,0.64439785,0.67872924
17528000,-0.40128514,0.20592137,1.4019908,0,0.7316924,-0.2164582,-0.05089493,0.6443462,0.6777559
17552000,-0.39730698,0.20609657,1.4018041,0,0.7321637,-0.21506074,-0.049526647,0.6443852,0.6766319
17576000,-0.39367765,0.20625605,1.4013913,0,0.73266965,-0.21379066,-0.048252635,0.6443294,0.67534995
17600000,-0.3896742,0.2063566,1.4012194,0,0.7331414,-0.21235853,-0.046906367,0.6443659,0.6742816
17624000,-0.3958989,0.20645359,1.393361,0,0.7349926,-0.2148594,-0.048030972,0.6413379,0.6730988
17648000,-0.39187282,0.20654047,1.3931776,0,0.7354737,-0.2134102,-0.046687216,0.6413694,0.67179066
17672000,-0.38782558,0.20662329,1.3929873,0,0.73595685,-0.21195106,-0.045337535,0.641396,0.6703917
17696000,-0.38408086,0.20673913,1.3925582,0,0.7364784,-0.21061757,-0.04404722,0.6413264,0.66861314
17720000,-0.37997615,0.20685692,1.3923665,0,0.73695886,-0.20914572,-0.042665996,0.64134955,0.6667862
17744000,-0.37615913,0.20696913,1.3919332,0,0.73748463,-0.20778215,-0.04135412,0.6412744,0.66491085
17768000,-0.37208474,0.20707496,1.3917392,0,0.7379582,-0.20631558,-0.03998728,0.6412898,0.6630116
17792000,-0.36834645,0.20713267,1.3913172,0,0.7384723,-0.2049617,-0.038723305,0.6412097,0.6613971
17816000,-0.36425096,0.20719174,1.3911245,0,0.73894656,-0.20347077,-0.037368037,0.64121866,0.65975934
17840000,-0.36041373,0.20725055,1.3906943,0,0.7394678,-0.20207843,-0.036071815,0.6411322,0.65808475
17864000,-0.35621703,0.20731002,1.3904976,0,0.7399477,-0.20054796,-0.03468398,0.64113575,0.656389
17888000,-0.36248347,0.20736465,1.3826461,0,0.7418211,-0.2030245,-0.03587506,0.6381187,0.65468514
17912000,-0.35827693,0.20742762,1.3824393,0,0.74230653,-0.20148659,-0.03448788,0.63811827,0.6529703
17936000,-0.3543115,0.20749226,1.381996,0,0.7428397,-0.20004147,-0.033153526,0.63802296,0.65124774
17960000,-0.3499941,0.20755997,1.381779,0,0.7433327,-0.19846155,-0.031728663,0.63801473,0.64954764
17984000,-0.3460867,0.20762226,1.381332,0,0.7438557,-0.19703475,-0.030414216,0.6379114,0.6478285
18008000,-0.34178677,0.20768537,1.3811189,0,0.7443397,-0.1954574,-0.028997652,0.63789797,0.6461111
18032000,-0.33777326,0.20775224,1.3806653,0,0.74486893,-0.19399,-0.027647853,0.6377881,0.64437973
18056000,-0.3334568,0.20782135,1.3804482,0,0.74534875,-0.19240592,-0.026223905,0.63776755,0.64265037
18080000,-0.32946748,0.20788912,1.3799868,0,0.745872,-0.1909453,-0.024881646,0.6376486,0.6409321
18104000,-0.32514888,0.20792842,1.379751,0,0.7463542,-0.18934909,-0.023467317,0.637614,0.63945407
18128000,-0.3211672,0.20797187,1.3792768,0,0.74687696,-0.18788138,-0.022136651,0.63748366,0.63797134
18152000,-0.3169178,0.20801929,1.3790469,0,0.7473435,-0.18631098,-0.02074252,0.6374447,0.63649696
18176000,-0.3130254,0.20806392,1.3785741,0,0.7478513,-0.18487439,-0.01944103,0.6373083,0.63502526
18200000,-0.3088876,0.20813473,1.378338,0,0.7483012,-0.1833506,-0.018073604,0.6372606,0.63338584
18224000,-0.30502546,0.2082104,1.3778609,0,0.7487993,-0.18193243,-0.016770497,0.6371177,0.6317591
18248000,-0.30084974,0.20828629,1.3776104,0,0.74925065,-0.18039384,-0.015388489,0.63705945,0.6301675
18272000,-0.2970422,0.20836398,1.3771201,0,0.74974215,-0.1789944,-0.01410187,0.6369056,0.6286257
18296000,-0.2928689,0.20839931,1.3768573,0,0.7501947,-0.17744207,-0.012735933,0.6368359,0.6274107
18320000,-0.28916135,0.20844075,1.3763602,0,0.7506771,-0.17606667,-0.011495665,0.6366728,0.626199
18344000,-0.28508055,0.20848407,1.3761017,0,0.7511134,-0.17454925,-0.010157362,0.6365989,0.62500435
18368000,-0.28143662,0.20852613,1.3756008,0,0.7515861,-0.1731956,-0.008937895,0.636429,0.6238071
18392000,-0.27754414,0.20854291,1.375349,0,0.7520004,-0.17173862,-0.007671163,0.6363508,0.62276447
18416000,-0.27405334,0.20856604,1.3748516,0,0.75245535,-0.17043453,-0.006509155,0.6361765,0.62173504
18440000,-0.270162,0.20858835,1.3745834,0,0.752869,-0.16897774,-0.005240098,0.6360874,0.6207168
18464000,-0.26664573,0.20861407,1.3740823,0,0.7533222,-0.1676628,-0.004069857,0.6359075,0.6197047
18488000,-0.26281732,0.20865898,1.3738145,0,0.7537233,-0.16623464,-0.002813004,0.63581395,0.61855483
18512000,-0.25934863,0.20871052,1.3733056,0,0.75416803,-0.16494346,-0.001648456,0.63562685,0.6173945
18536000,-0.25563657,0.20875987,1.3730319,0,0.7545559,-0.16355866,-0.000427298,0.63552636,0.6162419
18560000,-0.2522989,0.2088137,1.3725209,0,0.75498587,-0.16231558,0.000695534,0.6353342,0.6151173
18584000,-0.2486262,0.20886259,1.3722658,0,0.75535977,-0.16094369,0.001901619,0.6352362,0.6139637
18608000,-0.24541189,0.20887743,1.3717694,0,0.75577396,-0.15973333,0.002967909,0.635045,0.6131354
18632000,-0.24196286,0.20889482,1.3715086,0,0.75612974,-0.15843457,0.004090421,0.63494056,0.6122848
18656000,-0.2388409,0.2089146,1.3709984,0,0.7565365,-0.15725885,0.005129308,0.63474065,0.6114414
18680000,-0.23541446,0.2089336,1.370723,0,0.75689083,-0.15596753,0.006245561,0.63462704,0.6106065
18704000,-0.23240577,0.20896246,1.3702141,0,0.75728375,-0.15483576,0.007250786,0.63442457,0.6097542
18728000,-0.21782874,0.20899028,1.3773845,0,0.75611097,-0.14936244,0.011349894,0.63707006,0.60889834
18752000,-0.21487767,0.20902267,1.3768691,0,0.7564923,-0.14825349,0.01234059,0.6368579,0.60805196
18776000,-0.21169634,0.20905566,1.3765973,0,0.75681126,-0.1470584,0.013386302,0.63673484,0.6071872
18800000,-0.20893532,0.20904724,1.3760909,0,0.7571754,-0.14600722,0.014299035,0.6365241,0.60666376
18824000,-0.20591077,0.20904453,1.375817,0,0.75748277,-0.14485908,0.015280418,0.63639796,0.60611326
18848000,-0.20337743,0.20904963,1.3753104,0,0.7578264,-0.14389697,0.016124919,0.6361861,0.6055525
18872000,-0.20046392,0.20905188,1.3750384,0,0.7581215,-0.14279124,0.017071947,0.636059,0.6049685
18896000,-0.19794261,0.20907703,1.3745285,0,0.75846124,-0.14183861,0.017919652,0.6358437,0.6042704
18920000,-0.19507656,0.20910446,1.3742528,0,0.7587494,-0.1407575,0.018860806,0.6357128,0.6035573
18944000,-0.19273458,0.20913734,1.3737451,0,0.7590728,-0.13987412,0.019653399,0.63549775,0.60282713
18968000,-0.19008388,0.20916964,1.3734719,0,0.7593421,-0.13887516,0.02052708,0.63536763,0.6020795
18992000,-0.1878924,0.20916018,1.3729596,0,0.75965714,-0.13803467,0.021254964,0.63515013,0.6016541
19016000,-0.18537042,0.20915723,1.3727015,0,0.7599127,-0.13707289,0.022072412,0.6350248,0.6011893
19040000,-0.17175286,0.20916182,1.3796535,0,0.75861675,-0.13198805,0.025938753,0.6375006,0.60072607
19064000,-0.16929898,0.2091648,1.3793861,0,0.7588632,-0.13105452,0.02673959,0.6373667,0.6002301
19088000,-0.16731524,0.20919907,1.3788717,0,0.75915444,-0.13030541,0.027418468,0.6371447,0.5995211
19112000,-0.16501866,0.20923817,1.3785977,0,0.75938815,-0.12944193,0.028182864,0.6370087,0.59878135
19136000,-0.16308269,0.20928082,1.3780872,0,0.75967294,-0.12871274,0.028848756,0.6367871,0.59802765
19160000,-0.16087095,0.20932706,1.3778129,0,0.7598991,-0.12788293,0.029588297,0.6366505,0.59726846
19184000,-0.15920448,0.20937584,1.3773001,0,0.76016533,-0.1272572,0.030170187,0.6364307,0.5964915
19208000,-0.15717556,0.20936759,1.3770286,0,0.760381,-0.12647921,0.030829787,0.6362965,0.59611857
19232000,-0.15518598,0.20937045,1.3767642,0,0.7605903,-0.12571946,0.031480476,0.63616496,0.59571564
19256000,-0.15369588,0.20937085,1.3762512,0,0.7608469,-0.12514469,0.03198669,0.6359462,0.5952985
19280000,-0.14018144,0.20938134,1.3834639,0,0.75937706,-0.12013401,0.035854205,0.63845825,0.5948553
19304000,-0.13876209,0.20941728,1.3829527,0,0.759623,-0.11959706,0.036351673,0.63823825,0.5941485
19328000,-0.13700911,0.20946616,1.382679,0,0.7598119,-0.11894147,0.036946133,0.63810176,0.59343
19352000,-0.1356781,0.2095118,1.382163,0,0.76005256,-0.11844045,0.037418887,0.63788074,0.5927042
19376000,-0.13410407,0.20956632,1.3818843,0,0.7602311,-0.11785405,0.03795829,0.63774467,0.5919876
19400000,-0.13296324,0.20959055,1.3813758,0,0.7604589,-0.11741823,0.038361244,0.63752943,0.5914316
19424000,-0.13157007,0.2096265,1.3811091,0,0.7606233,-0.11689457,0.03883472,0.63740087,0.59085983
19448000,-0.13051373,0.20966162,1.3806046,0,0.76084346,-0.11649394,0.039214283,0.6371881,0.5902665
19472000,-0.12916549,0.20969987,1.3803432,0,0.7610028,-0.11598781,0.03967369,0.63706166,0.5896413
19496000,-0.11644791,0.20970272,1.387327,0,0.7594965,-0.111299336,0.04333651,0.63945246,0.5892865
19520000,-0.11527177,0.20971364,1.3870609,0,0.7596463,-0.110850304,0.04373149,0.6393257,0.5889066
19544000,-0.11450675,0.20972961,1.3865523,0,0.7598502,-0.11055357,0.044010267,0.6391156,0.5885089
19568000,-0.11330353,0.20974924,1.3862866,0,0.7600004,-0.1100967,0.044416934,0.6389877,0.58808863
19592000,-0.1126674,0.20976436,1.385776,0,0.7601975,-0.10984833,0.04465402,0.63877934,0.5876942
19616000,-0.111721806,0.20978679,1.3855048,0,0.76033473,-0.10948986,0.044979475,0.6386548,0.5872664
19640000,-0.11125623,0.20981266,1.3849884,0,0.76052356,-0.109309345,0.045166302,0.63844764,0.5868268
19664000,-0.110407084,0.209843,1.3847172,0,0.7606548,-0.108989835,0.045463804,0.6383249,0.5863597
19688000,-0.09781927,0.2098581,1.3919389,0,0.759016,-0.10438298,0.049109638,0.64077073,0.5860218
19712000,-0.097502984,0.20988095,1.3914276,0,0.759195,-0.10425758,0.049246367,0.6405686,0.58564955
19736000,-0.09680953,0.20990458,1.3911587,0,0.7593159,-0.10399517,0.049491506,0.6404489,0.5852423
19760000,-0.09652494,0.2099377,1.3906449,0,0.75949335,-0.10388486,0.049622007,0.6402464,0.58482933
19784000,-0.095978096,0.2099715,1.3903713,0,0.7596075,-0.103681065,0.049824186,0.6401284,0.58438414
19808000,-0.09587981,0.2100102,1.3898622,0,0.7597733,-0.103643276,0.04989686,0.639932,0.5838721
19832000,-0.09547776,0.21005534,1.3895924,0,0.7598779,-0.10349806,0.050056744,0.6398187,0.58333004
19856000,-0.095469505,0.21010518,1.3890783,0,0.76004004,-0.10349779,0.050105095,0.63962233,0.5827814
19880000,-0.083279386,0.210158,1.396317,0,0.75833505,-0.09907499,0.05366467,0.64205307,0.5822152
19904000,-0.08333772,0.2101721,1.3958107,0,0.75849396,-0.09908801,0.053676426,0.64186233,0.5819274
19928000,-0.08308975,0.21019608,1.3955419,0,0.7585913,-0.09899436,0.05377847,0.6417534,0.58159876
19952000,-0.08329129,0.21022533,1.3950243,0,0.75874573,-0.09906618,0.05375061,0.64156187,0.5812643
19976000,-0.083140224,0.2102592,1.3947495,0,0.75883955,-0.099012226,0.05382562,0.64145297,0.58091354
20000000,-0.082957305,0.21031018,1.3944763,0,0.75893354,-0.09895164,0.053917296,0.6413435,0.5804166
20024000,-0.083287984,0.21036547,1.3939649,0,0.7590781,-0.09908089,0.053857725,0.64115727,0.5798925
20048000,-0.07140339,0.21042429,1.401205,0,0.7573257,-0.0947954,0.057346404,0.6435705,0.57935387
20072000,-0.07195192,0.21048571,1.4007015,0,0.75745845,-0.0950083,0.057217214,0.64339435,0.57878983
20096000,-0.072072044,0.21054764,1.4004359,0,0.75753504,-0.09506594,0.0572148,0.64329594,0.5782049
20120000,-0.0726359,0.21061583,1.3999262,0,0.75766855,-0.09528668,0.057083707,0.6431176,0.5775958
20144000,-0.07282675,0.21068643,1.3996536,0,0.7577435,-0.0953737,0.05706226,0.6430183,0.5769754
20168000,-0.073487446,0.21076043,1.3991417,0,0.75787264,-0.09563304,0.056902543,0.64284176,0.5763442
20192000,-0.07371101,0.21080625,1.3988783,0,0.75794417,-0.09572486,0.056860767,0.6427474,0.5759273
20216000,-0.062504664,0.2108587,1.405892,0,0.7562085,-0.09170473,0.060160052,0.64507335,0.57548505
20240000,-0.06289343,0.21091434,1.4056227,0,0.7562747,-0.09186144,0.060068183,0.6449821,0.5750311
20264000,-0.06333366,0.21097288,1.4053578,0,0.756337,-0.09203869,0.059960663,0.6448938,0.57456434
20288000,-0.064103074,0.21103653,1.404855,0,0.7564604,-0.092335,0.059759993,0.64472526,0.5740793
20312000,-0.06459374,0.21109477,1.4045873,0,0.7565211,-0.09253123,0.05963636,0.64463747,0.5736326
20336000,-0.06556244,0.21115993,1.4040793,0,0.75663656,-0.0929034,0.059372514,0.64447266,0.5731557
20360000,-0.06612367,0.21122774,1.4038062,0,0.756695,-0.093129285,0.05923018,0.64438444,0.5726698
20384000,-0.06702141,0.21129899,1.4033014,0,0.75681216,-0.09347682,0.058991656,0.6442185,0.57216746
20408000,-0.055751808,0.21138422,1.4105628,0,0.75497997,-0.089465,0.06232877,0.6466192,0.57157
20432000,-0.056763317,0.21147361,1.4100565,0,0.75509393,-0.08985981,0.062058397,0.6464574,0.57094496
20456000,-0.057436805,0.21156472,1.4097908,0,0.75514495,-0.090135105,0.061887246,0.6463759,0.5702964
20480000,-0.058534905,0.2116585,1.4092795,0,0.755256,-0.09056404,0.061591092,0.6462145,0.56965625
20504000,-0.059269123,0.21173884,1.409006,0,0.75530696,-0.09085868,0.061396785,0.64613193,0.56912655
20528000,-0.060006823,0.21182461,1.4087392,0,0.7553553,-0.0911566,0.06120318,0.64605176,0.56857806
20552000,-0.061133664,0.211913,1.4082283,0,0.7554645,-0.09159496,0.060896136,0.64589125,0.5680218
20576000,-0.050083164,0.21200497,1.4154977,0,0.75360316,-0.087682806,0.06418055,0.64828604,0.56746894
20600000,-0.05127338,0.2120579,1.4149895,0,0.7537131,-0.08813209,0.06383717,0.6481313,0.5672358
20624000,-0.052198954,0.21211897,1.41472,0,0.75375646,-0.08849199,0.06357225,0.64805776,0.5669662
20648000,-0.053497896,0.21218465,1.4142084,0,0.7538615,-0.088986486,0.06319898,0.64790446,0.5666804
20672000,-0.05448027,0.21225326,1.4139353,0,0.7539028,-0.089370266,0.06291893,0.6478309,0.5663886
20696000,-0.055918083,0.21234448,1.4134262,0,0.75399876,-0.089925654,0.06251063,0.64768183,0.5658869
20720000,-0.056907974,0.21244334,1.4131554,0,0.7540369,-0.0903222,0.062239744,0.6476083,0.5653675
20744000,-0.05788195,0.21254516,1.4128913,0,0.75407326,-0.09071394,0.061974935,0.6475365,0.5648332
20768000,-0.047308397,0.21264865,1.419928,0,0.7522557,-0.08698906,0.065130986,0.649848,0.5642836
20792000,-0.048351943,0.21272404,1.4196632,0,0.7522925,-0.08739732,0.064831965,0.6497803,0.5639568
20816000,-0.049785905,0.212804,1.4191548,0,0.752391,-0.087946124,0.064418636,0.64963335,0.5635991
20840000,-0.050942823,0.21288325,1.4188845,0,0.75242394,-0.088398255,0.06408473,0.6495668,0.56321937
20864000,-0.052459355,0.21296374,1.4183764,0,0.75251776,-0.08897858,0.0636452,0.64942217,0.5628236
20888000,-0.053510554,0.21303913,1.418107,0,0.75255466,-0.089389876,0.0633444,0.64935225,0.5624637
20912000,-0.055058297,0.21311921,1.4175961,0,0.7526472,-0.08998199,0.06289515,0.64920694,0.56207746
20936000,-0.044295877,0.21320243,1.4248894,0,0.7507454,-0.086199045,0.0661053,0.65159893,0.56166744
20960000,-0.045512203,0.21328813,1.4246266,0,0.7507744,-0.08667472,0.06575269,0.6515381,0.5612456
20984000,-0.04700282,0.21337757,1.4241226,0,0.75086945,-0.087246776,0.065322794,0.6513953,0.5608037
21008000,-0.048167195,0.2134777,1.4238538,0,0.75090134,-0.087707594,0.0649931,0.6513299,0.5602511
21032000,-0.04972671,0.21358263,1.4233491,0,0.750992,-0.08831078,0.06454706,0.6511882,0.5596691
21056000,-0.050952114,0.21369009,1.4230864,0,0.751018,-0.08879722,0.06420027,0.6511262,0.55907613
21080000,-0.052568443,0.21379998,1.4225827,0,0.7511046,-0.089423634,0.06373801,0.6509861,0.55848336
21104000,-0.053885017,0.21389218,1.4223216,0,0.75112605,-0.08993959,0.063356,0.6509275,0.55801713
21128000,-0.05553684,0.21399178,1.4218167,0,0.75121087,-0.09057625,0.062878825,0.6507876,0.5575267
21152000,-0.04504217,0.21409422,1.4291193,0,0.74929094,-0.086907916,0.066014625,0.6531862,0.557039
21176000,-0.046333596,0.21419948,1.428862,0,0.74931365,-0.08741745,0.06564369,0.6531296,0.55652565
21200000,-0.047957443,0.21427874,1.4283574,0,0.7494034,-0.088035114,0.065165415,0.65299153,0.556201
21224000,-0.049205158,0.2143703,1.4280949,0,0.7494295,-0.08852383,0.06480411,0.6529313,0.5558626
21248000,-0.05086859,0.21445835,1.4275898,0,0.7495163,-0.08915943,0.064316705,0.65279347,0.55549544
21272000,-0.052203283,0.2145558,1.4273278,0,0.7495374,-0.08968283,0.06392949,0.6527356,0.5551268
21296000,-0.053877477,0.2146206,1.4268268,0,0.7496224,-0.09031536,0.0634301,0.6525995,0.55496925
21320000,-0.05523567,0.21469569,1.4265616,0,0.7496437,-0.09084038,0.06302724,0.65254116,0.5547934
21344000,-0.044960722,0.21477424,1.4336365,0,0.74778485,-0.08724776,0.06610017,0.654856,0.5545889
21368000,-0.046281718,0.21485642,1.4333726,0,0.7478096,-0.08775974,0.06571006,0.6547987,0.5543633
21392000,-0.04757029,0.21496677,1.4331123,0,0.7478328,-0.08826894,0.065341115,0.65474063,0.55388635
21416000,-0.049254287,0.21508192,1.4326104,0,0.7479169,-0.08891978,0.06485536,0.65460473,0.5533909
21440000,-0.05059622,0.21520041,1.4323527,0,0.74793565,-0.08945183,0.06447217,0.65454876,0.5528894
21464000,-0.052323017,0.21532169,1.4318532,0,0.74801564,-0.09012103,0.063975096,0.6544143,0.55236745
21488000,-0.053720664,0.21543546,1.4315941,0,0.74803156,-0.09067248,0.063572265,0.65435904,0.5518955
21512000,-0.055402394,0.21555674,1.4310918,0,0.7481134,-0.09132501,0.06309055,0.6542214,0.5514039
21536000,-0.056771647,0.21568169,1.4308348,0,0.74812853,-0.0918697,0.06270142,0.6541652,0.5509073
21560000,-0.04627024,0.21580909,1.4381608,0,0.7461945,-0.088223495,0.06586055,0.65656126,0.55040264
21584000,-0.048017148,0.2159384,1.4376621,0,0.7462746,-0.08890113,0.06535768,0.6564291,0.54988444
21608000,-0.04927831,0.2160337,1.4374008,0,0.74629956,-0.08939431,0.064991124,0.6563702,0.5496712
21632000,-0.05099725,0.21613817,1.4368953,0,0.7463832,-0.09005347,0.0644889,0.6562344,0.5494456
21656000,-0.052387193,0.216248,1.4366322,0,0.7464014,-0.09059954,0.064085945,0.6561781,0.54920745
21680000,-0.05412199,0.2163623,1.4361275,0,0.7464824,-0.09126814,0.063582644,0.65604216,0.5489482
21704000,-0.05545305,0.21646184,1.435865,0,0.7465027,-0.09178907,0.063195415,0.6559839,0.5488224
21728000,-0.056784064,0.21656685,1.4356056,0,0.74652123,-0.0923119,0.06281021,0.65592635,0.5486676
21752000,-0.058496445,0.21667378,1.4351039,0,0.7466011,-0.092970215,0.062312048,0.65579,0.5484831
21776000,-0.04791936,0.21678318,1.4424435,0,0.74466664,-0.0892971,0.06549313,0.6581856,0.5482741
21800000,-0.049674835,0.2168993,1.4419389,0,0.74474835,-0.08997227,0.06498153,0.65805185,0.54800886
21824000,-0.050946116,0.2170198,1.4416827,0,0.7447694,-0.090476766,0.0646199,0.65799445,0.547714
21848000,-0.052664742,0.21714255,1.4411849,0,0.74484915,-0.091140896,0.06412308,0.6578613,0.54739225
21872000,-0.05400739,0.21726762,1.440924,0,0.7448673,-0.091673456,0.06374021,0.6578037,0.54706854
21896000,-0.055724837,0.2174092,1.4404225,0,0.74494624,-0.09234345,0.063251466,0.6576679,0.5465698
21920000,-0.057047963,0.21755914,1.4401695,0,0.74496067,-0.09287727,0.06288427,0.6576115,0.5460435
21944000,-0.058394898,0.21771082,1.4399143,0,0.7449742,-0.09342049,0.0625101,0.6575549,0.54550993
21968000,-0.060044333,0.21786666,1.4394157,0,0.745053,-0.09407025,0.06204962,0.65741676,0.5449767
21992000,-0.06125823,0.2180102,1.4391633,0,0.74507135,-0.09456148,0.061716303,0.6573568,0.54455703
22016000,-0.051022857,0.21815977,1.4462675,0,0.7431997,-0.09102683,0.064812735,0.65967244,0.54413176
22040000,-0.052277446,0.21831037,1.4460074,0,0.7432208,-0.09153399,0.064467065,0.6596123,0.5437043
22064000,-0.05391733,0.21846342,1.4455007,0,0.7433049,-0.09217729,0.064006716,0.6594727,0.54328215
22088000,-0.055212505,0.21858774,1.4452395,0,0.74332494,-0.09269102,0.06363818,0.6594138,0.54310614
22112000,-0.056572087,0.21871655,1.4449794,0,0.74334115,-0.09323026,0.06325017,0.65935695,0.54290783
22136000,-0.058280103,0.21885413,1.4444764,0,0.7434201,-0.09389429,0.062762074,0.6592203,0.5426968
22160000,-0.059423488,0.21898095,1.4442194,0,0.7434445,-0.09435275,0.06244473,0.6591573,0.54244107
22184000,-0.06107224,0.21911642,1.4437107,0,0.7435273,-0.09499416,0.06197613,0.6590162,0.54219437
22208000,-0.062248226,0.21924008,1.4434451,0,0.7435525,-0.095463574,0.06164756,0.6589507,0.5420505
22232000,-0.063845895,0.21937077,1.4429477,0,0.74363303,-0.09608503,0.061193913,0.6588116,0.54186565
22256000,-0.06503721,0.2195042,1.4426894,0,0.74365383,-0.096563704,0.06086388,0.6587487,0.5416632
22280000,-0.05442682,0.21964005,1.4500542,0,0.7417193,-0.0928981,0.064066954,0.66114885,0.54144496
22304000,-0.056038108,0.21980187,1.4495555,0,0.741801,-0.09353289,0.063617945,0.6610111,0.54097205
22328000,-0.057285503,0.21996829,1.449296,0,0.74181986,-0.094041936,0.06327993,0.6609501,0.54048955
22352000,-0.058761247,0.22013725,1.4487959,0,0.74190694,-0.09462899,0.0628789,0.66080683,0.5399969
22376000,-0.060001485,0.22030836,1.448539,0,0.7419242,-0.09513713,0.06254518,0.66074604,0.5395021
22400000,-0.06164197,0.22048493,1.4480358,0,0.74200314,-0.09578793,0.06209318,0.660606,0.5389516
22424000,-0.062793195,0.22066452,1.4477773,0,0.742024,-0.09626588,0.061792396,0.66054136,0.5383928
22448000,-0.06392795,0.22084449,1.4475191,0,0.7420452,-0.09673791,0.06149728,0.66047615,0.53783244
22472000,-0.06555785,0.22102593,1.4470173,0,0.7421225,-0.097386725,0.06105119,0.6603355,0.5372732
22496000,-0.066758126,0.22117636,1.4467547,0,0.7421427,-0.09787336,0.060723912,0.6602709,0.537008
22520000,-0.0682323,0.22133173,1.4462456,0,0.74223024,-0.09845586,0.060320318,0.6601228,0.53673697
22544000,-0.057611123,0.2214881,1.4536201,0,0.7402968,-0.09479894,0.06353438,0.6625233,0.5364481
22568000,-0.059044182,0.22164743,1.453123,0,0.74038523,-0.09536606,0.06314266,0.6623806,0.53614867
22592000,-0.060103018,0.22182035,1.4528661,0,0.74041086,-0.0958068,0.06286868,0.6623144,0.535731
22616000,-0.06124004,0.22199698,1.4526132,0,0.74043095,-0.09627785,0.062570095,0.66225195,0.53529084
22640000,-0.062724024,0.22217417,1.4521072,0,0.7405177,-0.09686969,0.062169194,0.6621064,0.5348611
22664000,-0.06378114,0.22235277,1.4518495,0,0.74054235,-0.09731178,0.061898313,0.6620393,0.53442013
22688000,-0.065260984,0.22251624,1.4513453,0,0.74062854,-0.097897865,0.061494026,0.6618942,0.5341284
22712000,-0.066272005,0.22268634,1.4510895,0,0.74065465,-0.098320246,0.061235398,0.6618263,0.53382266
22736000,-0.06763022,0.2228593,1.4505888,0,0.74074423,-0.09886472,0.060875166,0.6616781,0.5335113
22760000,-0.068665445,0.2230351,1.4503303,0,0.7407692,-0.099297956,0.060611054,0.66160953,0.5331999
22784000,-0.06962152,0.22321345,1.4500693,0,0.74079853,-0.09970267,0.0603743,0.6615375,0.53289086
22808000,-0.07094687,0.22335534,1.4495685,0,0.7408904,-0.10022505,0.06001392,0.6613885,0.5329068
22832000,-0.07187206,0.22350399,1.4493105,0,0.74092126,-0.10060878,0.059776388,0.66131717,0.5328983
22856000,-0.061433494,0.22365569,1.4564545,0,0.7390626,-0.09701553,0.06293761,0.66363645,0.532892
22880000,-0.062368482,0.22381152,1.4561973,0,0.73909444,-0.097404264,0.06269783,0.6635667,0.53286356
22904000,-0.06374331,0.22399203,1.4556926,0,0.73918533,-0.09795599,0.062333517,0.66341865,0.53258044
22928000,-0.06468651,0.22417629,1.4554307,0,0.73921627,-0.09835707,0.062102064,0.66334647,0.5322827
22952000,-0.06561253,0.22436191,1.4551713,0,0.7392469,-0.098752365,0.06187679,0.66327477,0.5319637
22976000,-0.066941425,0.22454934,1.4546682,0,0.73933804,-0.099289685,0.061530765,0.66312504,0.5316358
23000000,-0.06784255,0.22470939,1.4544075,0,0.7393712,-0.09966742,0.06130456,0.6630523,0.53156096
23024000,-0.06913176,0.22487383,1.4539015,0,0.73946565,-0.10018262,0.060963675,0.6629007,0.53146607
23048000,-0.07001605,0.22504096,1.4536451,0,0.7394975,-0.10055669,0.0607457,0.6628286,0.53134674
23072000,-0.07095325,0.22521064,1.4533907,0,0.73952544,-0.10095124,0.060511116,0.6627589,0.53119177
23096000,-0.07226596,0.2253791,1.4528863,0,0.739617,-0.10147675,0.06016442,0.6626079,0.5310468
23120000,-0.0731333,0.22555201,1.4526284,0,0.7396491,-0.101846516,0.05995463,0.6625345,0.530875
23144000,-0.07441888,0.22572568,1.4521266,0,0.7397402,-0.102363974,0.059619125,0.6623832,0.53068966
23168000,-0.063438505,0.22590165,1.459537,0,0.7378238,-0.09859286,0.06295549,0.66477984,0.53049284
23192000,-0.06467298,0.22609165,1.4590355,0,0.73791945,-0.099095196,0.062640555,0.6646286,0.53015286
23216000,-0.0654973,0.22628638,1.4587779,0,0.73795384,-0.09945546,0.06245175,0.6645545,0.52979326
23240000,-0.06632233,0.22648218,1.458517,0,0.73798907,-0.099816255,0.062263362,0.66447884,0.52943015
23264000,-0.067516275,0.22667906,1.4580137,0,0.7380861,-0.100306064,0.061965056,0.66432524,0.5290604
23288000,-0.06829195,0.22685915,1.4577563,0,0.738123,-0.10064366,0.06178727,0.66424966,0.52882946
23312000,-0.06952974,0.22704339,1.4572545,0,0.7382173,-0.101145715,0.061470017,0.66409814,0.5285771
23336000,-0.07040084,0.22723036,1.4569963,0,0.73824877,-0.101520844,0.061263368,0.66402483,0.5283194
23360000,-0.07150249,0.2274192,1.4564923,0,0.73834985,-0.101974234,0.0609935,0.66386783,0.5280566
23384000,-0.07226985,0.2276101,1.4562318,0,0.73838675,-0.10231238,0.060823105,0.6637904,0.52777964
23408000,-0.072989084,0.2277951,1.4559722,0,0.738426,-0.10263087,0.060666524,0.6637119,0.52755
23432000,-0.0742229,0.22798504,1.4554678,0,0.73851955,-0.103133604,0.060353722,0.6635584,0.5273062
23456000,-0.07500579,0.22817686,1.4552085,0,0.73855466,-0.103477925,0.060178764,0.66348165,0.5270515
23480000,-0.076145776,0.22837177,1.4547051,0,0.7386518,-0.10394784,0.059899274,0.66332537,0.5267855
23504000,-0.06508049,0.22855215,1.4621333,0,0.7367385,-0.10015452,0.06326385,0.66572,0.5266583
23528000,-0.0658444,0.2287386,1.4618748,0,0.73677623,-0.1004893,0.063091695,0.6656441,0.5265094
23552000,-0.06684812,0.22892803,1.4613737,0,0.7368823,-0.10090581,0.06285317,0.6654861,0.52636
23576000,-0.06757167,0.22912018,1.461116,0,0.73692125,-0.1012277,0.062696755,0.66540897,0.52620405
23600000,-0.06856417,0.22931293,1.4606149,0,0.7370272,-0.10164131,0.062463522,0.6652505,0.5260223
23624000,-0.06918142,0.2295096,1.4603595,0,0.73707014,-0.101925656,0.06234422,0.6651706,0.5258066
23648000,-0.070267625,0.2297082,1.4598578,0,0.73717076,-0.10237582,0.062082343,0.6650145,0.5255733
23672000,-0.07094624,0.2299084,1.4596026,0,0.7372099,-0.10268402,0.061944135,0.6649364,0.5253249
23696000,-0.07168915,0.2301113,1.4593433,0,0.7372469,-0.10301667,0.061785832,0.6648587,0.5250455
23720000,-0.07282405,0.23031963,1.4588361,0,0.73734546,-0.10348801,0.061512172,0.6647015,0.52475655
23744000,-0.0735634,0.23052913,1.4585764,0,0.7373818,-0.10382158,0.061357744,0.6646233,0.5244594
23768000,-0.074591056,0.23073964,1.4580686,0,0.7374856,-0.10425423,0.06112091,0.66446245,0.52417016
23792000,-0.075218424,0.23095179,1.4578047,0,0.7375288,-0.10454731,0.061005108,0.664379,0.52385527
23816000,-0.07629055,0.2311673,1.457298,0,0.737629,-0.10499816,0.06075566,0.66421956,0.5235295
23840000,-0.07697162,0.23138425,1.4570358,0,0.7376681,-0.105312735,0.06062392,0.66413826,0.523207
23864000,-0.065836385,0.23160277,1.4644829,0,0.73575455,-0.10151507,0.0640243,0.666529,0.52289176
23888000,-0.066793784,0.23181199,1.4639801,0,0.7358621,-0.10192035,0.063808344,0.6663691,0.52269155
23912000,-0.06743516,0.23202576,1.4637263,0,0.7359023,-0.10221885,0.06368682,0.66629046,0.5224675
23936000,-0.068340585,0.2322407,1.4632195,0,0.73601305,-0.10260689,0.06349082,0.66612726,0.52225757
23960000,-0.06903997,0.2324577,1.4629574,0,0.7360526,-0.102927595,0.0633518,0.6660472,0.5220502
23984000,-0.06962658,0.23267603,1.4626964,0,0.73609734,-0.103207275,0.063250855,0.6659641,0.52184725
24008000,-0.07059312,0.23288754,1.4621882,0,0.736205,-0.10361677,0.06303375,0.6658022,0.52168334
24032000,-0.10829224,0.22437309,1.3247874,0,0.77869093,-0.111156166,0.05507209,0.6150218,0.58160853
24056000,-0.14599136,0.21585768,1.3247874,0,0.77701503,-0.12324469,0.040121038,0.61599404,0.5816386
24080000,-0.18369047,0.21034989,1.3247874,0,0.7749385,-0.13621253,0.026336767,0.61662215,0.5814654
24104000,-0.22138959,0.21051824,1.3247874,0,0.77222073,-0.15084513,0.014775932,0.61701083,0.5812037
24128000,-0.2590887,0.21069726,1.3247874,0,0.76922596,-0.1654268,0.003213964,0.6171831,0.5807737
24152000,-0.2753526,0.21088114,1.3247874,0,0.7678401,-0.17173123,-0.001732759,0.61719286,0.5802366
24176000,-0.27564004,0.21106933,1.3247874,0,0.76779974,-0.1718975,-0.001747541,0.61719674,0.5796237
24200000,-0.2759191,0.21128468,1.3247874,0,0.7677579,-0.17206864,-0.001749083,0.61720115,0.578737
24224000,-0.2761115,0.21150672,1.3247874,0,0.7677228,-0.17220849,-0.001721233,0.6172058,0.57784075
24248000,-0.27624205,0.21173285,1.3247874,0,0.7676927,-0.17232579,-0.0016727,0.6172106,0.57693523
24272000,-0.27625105,0.2119615,1.3247874,0,0.7676729,-0.17239717,-0.001585662,0.61721563,0.57604253
24296000,-0.29341573,0.21219812,1.3125615,0,0.7699031,-0.17908746,-0.005695164,0.6124903,0.5751047
24320000,-0.30443025,0.21244043,1.3046052,0,0.7713143,-0.18343015,-0.008243032,0.6093929,0.57418734
24344000,-0.32449406,0.21268435,1.2898917,0,0.7738748,-0.19132924,-0.012852304,0.60361046,0.5733008
24368000,-0.33456543,0.21293001,1.2822658,0,0.77517474,-0.19535325,-0.01504942,0.6005953,0.57246274
24392000,-0.3533381,0.21321106,1.2679737,0,0.77755153,-0.20284261,-0.019125208,0.5948972,0.57135105
24416000,-0.3626157,0.2134946,1.260607,0,0.77876085,-0.20660606,-0.021010429,0.5919494,0.5702989
24440000,-0.37148073,0.21377671,1.2533697,0,0.77994674,-0.21021861,-0.022760503,0.58904415,0.56931335
24464000,-0.388552,0.2140582,1.239642,0,0.78211963,-0.21713124,-0.026184827,0.5834871,0.56840146
24488000,-0.39673278,0.21437064,1.2326156,0,0.78323865,-0.22051294,-0.02767089,0.58064246,0.56727195
24512000,-0.41269928,0.21468274,1.2192461,0,0.78528404,-0.22705367,-0.03066238,0.57518303,0.5662171
24536000,-0.4201544,0.2149909,1.2124361,0,0.78635424,-0.23017217,-0.031897835,0.5724074,0.56523865
24560000,-0.4351522,0.21529599,1.1993582,0,0.78829896,-0.2363747,-0.034520723,0.5670275,0.5643308
24584000,-0.4359329,0.21559781,1.1976421,0,0.7886615,-0.23679179,-0.034415975,0.5663552,0.5634984
24608000,-0.4501177,0.21588092,1.1847719,0,0.79055893,-0.24269536,-0.036755674,0.56103885,0.5628328
24632000,-0.45626116,0.21616766,1.1783392,0,0.7915793,-0.24531934,-0.03757289,0.55839854,0.56224006
24656000,-0.46211222,0.21645197,1.1719472,0,0.79260814,-0.24783123,-0.038298123,0.55577445,0.5617319
24680000,-0.47501856,0.21673356,1.1594248,0,0.7944246,-0.25326967,-0.04018352,0.55057174,0.5612848
24704000,-0.48038885,0.21701767,1.1531253,0,0.79544073,-0.2556036,-0.040740095,0.5479791,0.5607662
24728000,-0.49251747,0.21731274,1.1408443,0,0.797192,-0.26076186,-0.04234068,0.54285866,0.5603472
24752000,-0.49740443,0.21759787,1.1346852,0,0.79818875,-0.2629128,-0.04273986,0.54031926,0.55998075
24776000,-0.5088056,0.21787247,1.122581,0,0.7999004,-0.2677982,-0.044085965,0.53525686,0.55967444
24800000,-0.51311624,0.21816686,1.1165534,0,0.8008978,-0.26972824,-0.04430484,0.5327725,0.5593421
24824000,-0.51733255,0.21845584,1.1105304,0,0.80189556,-0.2716214,-0.04449021,0.53028846,0.5590413
24848000,-0.5276821,0.2187398,1.0986977,0,0.80356926,-0.27610973,-0.04548306,0.5253296,0.55880296
24872000,-0.52647424,0.2190207,1.0973259,0,0.8040644,-0.27572215,-0.044859625,0.5248288,0.5586168
24896000,-0.53628117,0.21925922,1.0856357,0,0.8057284,-0.2799901,-0.045697436,0.5199221,0.55881727
24920000,-0.5397311,0.21949841,1.0797828,0,0.806735,-0.28157058,-0.045670517,0.51750445,0.55905914
24944000,-0.54909104,0.21973616,1.0681936,0,0.8083652,-0.28567174,-0.04633797,0.5126306,0.55933595
24968000,-0.552094,0.21997188,1.0624148,0,0.80938613,-0.28707412,-0.046179518,0.510245,0.5596382
24992000,-0.56096035,0.22023168,1.0509354,0,0.81098986,-0.29099151,-0.04666269,0.50541276,0.5596825
25016000,-0.56366307,0.22049159,1.0452168,0,0.81200767,-0.29227987,-0.04640077,0.50305367,0.5597522
25040000,-0.56625664,0.2207492,1.0395175,0,0.8130284,-0.29352313,-0.046108365,0.5007025,0.55985355
25064000,-0.5743999,0.22100511,1.0282022,0,0.8146158,-0.29715517,-0.046358347,0.49593425,0.5599861
25088000,-0.5721943,0.22125429,1.026952,0,0.81522423,-0.29634017,-0.04552082,0.49549958,0.5601665
25112000,-0.5799886,0.22150505,1.0157309,0,0.81680036,-0.29983106,-0.045664035,0.49076793,0.56036377
25136000,-0.58196115,0.22175333,1.0101732,0,0.81783617,-0.30081737,-0.045207143,0.48847646,0.5605958
25160000,-0.5892524,0.22200003,0.9990753,0,0.8194026,-0.30410567,-0.04519628,0.48379388,0.5608747
25184000,-0.5909156,0.22224608,0.99354935,0,0.82045436,-0.304964,-0.044651575,0.4815161,0.5611773
25208000,-0.59244436,0.22249429,0.9880573,0,0.82151145,-0.30576596,-0.044074513,0.4792531,0.56142586
25232000,-0.59920424,0.22274587,0.977064,0,0.8230652,-0.30883983,-0.043890104,0.47461066,0.5616802
25256000,-0.5964135,0.22299585,0.97588164,0,0.82374704,-0.30776855,-0.04293909,0.4742105,0.5619547
25280000,-0.6029197,0.2232458,0.9649688,0,0.82528704,-0.31073612,-0.042679965,0.46959856,0.56225646
25304000,-0.6039806,0.2234957,0.95953393,0,0.82636625,-0.31134042,-0.04197622,0.46735856,0.5625607
25328000,-0.6102162,0.22374728,0.94865584,0,0.82789147,-0.31419763,-0.041617125,0.46275645,0.5628573
25352000,-0.611108,0.22399776,0.9432595,0,0.8289679,-0.31472865,-0.040866897,0.46053004,0.56316364
25376000,-0.6170049,0.22424556,0.9324973,0,0.8304733,-0.317443,-0.040410556,0.4559726,0.5634903
25400000,-0.6138548,0.2244865,0.93133134,0,0.83121026,-0.31620532,-0.039404236,0.45557773,0.5638548
25424000,-0.61450326,0.22472991,0.9259769,0,0.8322964,-0.31662735,-0.038599536,0.45336515,0.5642202
25448000,-0.61994654,0.22497249,0.91530526,0,0.8338104,-0.3191464,-0.038026385,0.44884288,0.5645962
25472000,-0.62044144,0.225215,0.90997934,0,0.83489573,-0.3194998,-0.037182003,0.446639,0.5649629
25496000,-0.6256527,0.22545272,0.899379,0,0.83638823,-0.321918,-0.036537208,0.44214094,0.565378
25520000,-0.62217337,0.22569393,0.8982495,0,0.83716905,-0.32052842,-0.035482407,0.44175848,0.565781
25544000,-0.6224368,0.22593331,0.8929653,0,0.8382637,-0.32077664,-0.034589425,0.4395678,0.5661758
25568000,-0.6274536,0.22617184,0.88241863,0,0.8397351,-0.3231064,-0.03388509,0.43508497,0.5665817
25592000,-0.62746143,0.2264062,0.8771728,0,0.8408455,-0.32324082,-0.032937177,0.43290803,0.56699455
25616000,-0.62842435,0.22664528,0.8707993,0,0.842038,-0.32379344,-0.032009892,0.43023872,0.56741756
25640000,-0.62829065,0.22688407,0.86560726,0,0.8431466,-0.3238626,-0.031036414,0.4280813,0.5678598
25664000,-0.63286513,0.22712187,0.85515225,0,0.84460264,-0.3259959,-0.030208059,0.42362782,0.5682813
25688000,-0.6325165,0.2273536,0.84998274,0,0.8457255,-0.32596686,-0.029190518,0.4214759,0.56874645
25712000,-0.62846667,0.22758779,0.84889126,0,0.8465874,-0.3243109,-0.028057523,0.42109972,0.5691917
25736000,-0.6328118,0.22782326,0.8384912,0,0.84803236,-0.32633707,-0.0271727,0.41666156,0.56963944
25760000,-0.6324018,0.22805811,0.833317,0,0.8491481,-0.32627332,-0.026140325,0.41449964,0.5700746
25784000,-0.6366447,0.22829449,0.82293785,0,0.8505669,-0.32825053,-0.025212787,0.41006315,0.5704796
25808000,-0.6324836,0.22852512,0.8218387,0,0.85144764,-0.3265333,-0.024078682,0.4096745,0.5709245
25832000,-0.63198423,0.22875905,0.81669515,0,0.8525539,-0.3264213,-0.023034088,0.40751734,0.57135665
25856000,-0.635955,0.22899234,0.80640864,0,0.8539628,-0.32827097,-0.022052363,0.40311226,0.5718
25880000,-0.63165146,0.22922496,0.80532604,0,0.8548596,-0.32648334,-0.020905547,0.40272412,0.5722195
25904000,-0.6355649,0.22945456,0.7950562,0,0.8562502,-0.32830065,-0.019906715,0.39831883,0.57263863
25928000,-0.6348192,0.2296895,0.7899495,0,0.8573611,-0.32806954,-0.018816732,0.396167,0.57303154
25952000,-0.63404095,0.2299257,0.78484046,0,0.85847205,-0.32782122,-0.017720692,0.39401144,0.57340753
25976000,-0.6341379,0.23016238,0.77861696,0,0.8596522,-0.32795492,-0.016614534,0.3913664,0.57378745
26000000,-0.63324094,0.23039387,0.77352005,0,0.86076856,-0.32764757,-0.01550141,0.38920972,0.5741755
26024000,-0.6368377,0.23062974,0.76332027,0,0.86212593,-0.32931086,-0.014417432,0.3848186,0.5745723
26048000,-0.632172,0.23086596,0.7622601,0,0.86307013,-0.32734343,-0.013241082,0.38442278,0.5749639
26072000,-0.63111246,0.23110221,0.75719357,0,0.864189,-0.32695547,-0.012104094,0.38227075,0.5753386
26096000,-0.63455665,0.23131594,0.74702156,0,0.8655346,-0.32853708,-0.010996468,0.37787858,0.57590896
26120000,-0.629799,0.23153496,0.74595666,0,0.8664914,-0.32651657,-0.009825945,0.37746933,0.5764558
26144000,-0.6286113,0.231755,0.7409122,0,0.86761093,-0.32605907,-0.008681193,0.37531504,0.5769887
26168000,-0.62843555,0.2319757,0.7347349,0,0.86877114,-0.32604173,-0.007542618,0.3726614,0.57749736
26192000,-0.6272099,0.23221375,0.72968614,0,0.8698836,-0.32556286,-0.006385937,0.3705006,0.577793
26216000,-0.6259639,0.23245522,0.72464436,0,0.8709919,-0.32507175,-0.005227536,0.36833972,0.57808787
26240000,-0.6256379,0.23269778,0.7184939,0,0.8721479,-0.32498038,-0.004059419,0.36569017,0.5783566
26264000,-0.62423444,0.23293872,0.713469,0,0.87326646,-0.32441252,-0.00287962,0.36352974,0.57862276
26288000,-0.6191784,0.23314975,0.71241546,0,0.87425303,-0.32223618,-0.001696035,0.36310124,0.5791353
26312000,-0.62244385,0.23336685,0.70229995,0,0.8755284,-0.32370228,-0.00055413,0.3587011,0.57959837
26336000,-0.62108415,0.2335855,0.69726574,0,0.87662566,-0.32313842,0.000601508,0.35652298,0.58002776
26360000,-0.61603755,0.23380578,0.6961995,0,0.8776054,-0.3209564,0.001771547,0.3560795,0.5804451
26384000,-0.6191914,0.2340272,0.6861048,0,0.8788614,-0.32236126,0.002936922,0.35167772,0.5808555
26408000,-0.6140176,0.23424453,0.6850348,0,0.8798581,-0.32011548,0.004116088,0.35122493,0.5812431
26432000,-0.61249626,0.23446383,0.68000764,0,0.88095886,-0.31946504,0.005285375,0.34903526,0.58160186
26456000,-0.6120034,0.2346832,0.67386866,0,0.8820824,-0.31926066,0.006450608,0.34635487,0.58191866
26480000,-0.61039907,0.23490326,0.6688486,0,0.8831824,-0.31856564,0.007627703,0.3441608,0.5822362
26504000,-0.6087841,0.23513149,0.6638286,0,0.8842772,-0.317863,0.008806899,0.34196395,0.58238184
26528000,-0.608108,0.23536482,0.65769255,0,0.885406,-0.317567,0.010002695,0.33927464,0.5824951
26552000,-0.606453,0.23559764,0.65266377,0,0.88649535,-0.31683883,0.011185877,0.3370668,0.5825864
26576000,-0.6010302,0.23583071,0.6515892,0,0.88750875,-0.31445903,0.012374729,0.3365867,0.58265936
26600000,-0.6041566,0.23604865,0.6414988,0,0.8886813,-0.31581116,0.013541155,0.3321529,0.5828569
26624000,-0.5986008,0.23627034,0.6404249,0,0.88971126,-0.3133629,0.014733069,0.33166316,0.58302844
26648000,-0.5967989,0.23649195,0.635403,0,0.89080125,-0.31255168,0.01591777,0.32944077,0.5831887
26672000,-0.59115857,0.23671277,0.6343334,0,0.8918334,-0.31005827,0.017113432,0.32894415,0.5833417
26696000,-0.5941632,0.23689942,0.62424266,0,0.89299667,-0.31133404,0.01827544,0.32449064,0.5838585
26720000,-0.58850825,0.23708807,0.6231659,0,0.8940293,-0.30882192,0.019445412,0.32397896,0.5843321
26744000,-0.5867048,0.23727733,0.61813027,0,0.8951019,-0.30798924,0.020599693,0.32173118,0.58475876
26768000,-0.5810587,0.23746763,0.61704224,0,0.8961241,-0.30547374,0.021761276,0.3212068,0.5851427
26792000,-0.5802756,0.2376717,0.6108924,0,0.8972073,-0.30508,0.022918783,0.318465,0.58529925
26816000,-0.5783287,0.23787972,0.60585666,0,0.89828277,-0.3041732,0.024090186,0.31620634,0.5854118
26840000,-0.5724498,0.23808768,0.60477036,0,0.89932454,-0.30154395,0.025278926,0.31567,0.58550143
26864000,-0.57041126,0.23829633,0.5997332,0,0.9004037,-0.30058774,0.026453733,0.3134016,0.58559227
26888000,-0.5694841,0.23849817,0.59357816,0,0.90148383,-0.3001119,0.027615622,0.31063992,0.58567643
26912000,-0.5673758,0.23870417,0.58853453,0,0.9025606,-0.29911524,0.028792359,0.3083595,0.585729
26936000,-0.5613577,0.23890997,0.58744097,0,0.90360546,-0.2964069,0.029977113,0.30780113,0.5857481
26960000,-0.5553903,0.23911361,0.5863438,0,0.90463525,-0.29371738,0.031150512,0.3072372,0.58573234
26984000,-0.5584847,0.23931712,0.57621515,0,0.90570533,-0.29498196,0.03226336,0.30272543,0.5856999
27008000,-0.552379,0.23950875,0.575116,0,0.90674984,-0.2922203,0.033436626,0.302149,0.5857846
27032000,-0.5504183,0.23970428,0.57005465,0,0.90777934,-0.2912682,0.034560494,0.29984182,0.58582413
27056000,-0.5443297,0.2399,0.56895065,0,0.908809,-0.28850687,0.035723098,0.2992555,0.58584416
27080000,-0.5381843,0.24009632,0.5678457,0,0.9098382,-0.28571603,0.036891356,0.2986634,0.5858337
27104000,-0.5360744,0.2402789,0.5627762,0,0.91087633,-0.2846823,0.03801284,0.29633653,0.5859111
27128000,-0.53513163,0.24046622,0.55658287,0,0.9119065,-0.28415516,0.039119624,0.29351673,0.5859315
27152000,-0.53304136,0.24065189,0.5515037,0,0.9129284,-0.2831223,0.040231794,0.29117855,0.58593154
27176000,-0.5266895,0.24083745,0.5503894,0,0.9139681,-0.28021988,0.041398846,0.29056028,0.58590585
27200000,-0.52030206,0.24101548,0.549274,0,0.9150041,-0.27729636,0.04256419,0.28993538,0.58585525
27224000,-0.5181573,0.24119884,0.54418397,0,0.91601914,-0.27622586,0.043663673,0.2875788,0.58576345
27248000,-0.5116522,0.24138218,0.54306495,0,0.9170571,-0.27324095,0.04483726,0.2869415,0.58564603
27272000,-0.5051286,0.24156447,0.5419446,0,0.91808766,-0.2702434,0.046009466,0.28629842,0.58550096
27296000,-0.5085393,0.24171352,0.5317404,0,0.9190613,-0.2715895,0.046977043,0.28170663,0.5857378
27320000,-0.50206107,0.24186625,0.53061336,0,0.9200812,-0.26860115,0.0481121,0.28105035,0.5859167
27344000,-0.49549353,0.24201915,0.5294853,0,0.92110306,-0.26556772,0.04925614,0.28038695,0.5860576
27368000,-0.49340773,0.24216938,0.5243714,0,0.92208004,-0.26449603,0.05029536,0.27799392,0.5861437
27392000,-0.48688883,0.24232545,0.52324003,0,0.9230806,-0.26147738,0.051422324,0.27732202,0.5860676
27416000,-0.480291,0.2424859,0.5221081,0,0.9240809,-0.2584189,0.052558478,0.2766438,0.58595
27440000,-0.4783342,0.24264634,0.5169849,0,0.92502487,-0.257396,0.05356398,0.2742394,0.5857772
27464000,-0.47177136,0.24280708,0.5158485,0,0.9260062,-0.25434583,0.05468369,0.27355167,0.5855812
27488000,-0.46513057,0.2429494,0.51471126,0,0.9269886,-0.25125366,0.05580152,0.2728551,0.58555496
27512000,-0.4584402,0.24309826,0.5135732,0,0.9279661,-0.2481353,0.056925267,0.27215293,0.5854691
27536000,-0.45639023,0.24324806,0.50843716,0,0.92890286,-0.24705252,0.057909377,0.26972392,0.5853251
27560000,-0.45563358,0.24339655,0.5021666,0,0.92982465,-0.24653386,0.058854662,0.26680195,0.5851452
27584000,-0.44894388,0.24355085,0.50102067,0,0.9307837,-0.24340457,0.05995906,0.26608458,0.5849482
27608000,-0.44691846,0.24366297,0.49587053,0,0.9317022,-0.2423178,0.060905617,0.2636357,0.5851743
27632000,-0.44015855,0.24377227,0.4947197,0,0.932658,-0.23914325,0.061985638,0.2629016,0.5853423
27656000,-0.43325254,0.24388915,0.49356782,0,0.9336196,-0.23589745,0.06308423,0.26215872,0.5854881
27680000,-0.42639282,0.24401322,0.4924152,0,0.93456364,-0.23267008,0.064175874,0.26141307,0.585591
27704000,-0.42434236,0.24414715,0.4872493,0,0.9354626,-0.2315586,0.0651056,0.25894338,0.5854004
27728000,-0.4174937,0.24428762,0.4860958,0,0.9363875,-0.22833051,0.06619024,0.2581909,0.5851645
27752000,-0.41057923,0.24442825,0.48494107,0,0.9373085,-0.22506778,0.067279175,0.25743118,0.58489716
27776000,-0.40375608,0.24456711,0.4837883,0,0.93820757,-0.22184399,0.06835085,0.25667086,0.58459413
27800000,-0.40191635,0.24468327,0.4786147,0,0.93906236,-0.2208147,0.06921354,0.25418904,0.5845616
27824000,-0.3950793,0.24480398,0.47745907,0,0.9399486,-0.21757519,0.07026522,0.2534176,0.58449036
27848000,-0.38829505,0.24492645,0.47630095,0,0.9408178,-0.21435696,0.07130686,0.25264272,0.58439094
27872000,-0.38147855,0.24504898,0.47514275,0,0.94167906,-0.21112001,0.07234813,0.2518624,0.5842322
27896000,-0.3746957,0.24517429,0.4739845,0,0.94252515,-0.20789568,0.07338202,0.2510793,0.58392525
27920000,-0.36638412,0.24530536,0.47396278,0,0.94337326,-0.20398979,0.07448954,0.25077158,0.5835742
27944000,-0.3594033,0.24543813,0.47280055,0,0.94421446,-0.20066573,0.07554436,0.24997097,0.58320546
27968000,-0.3525087,0.2455702,0.47163916,0,0.94503504,-0.19737883,0.076583326,0.24916963,0.5827996
27992000,-0.34555578,0.24569416,0.4704814,0,0.9458496,-0.19406027,0.077620655,0.24836293,0.5824118
28016000,-0.33872798,0.2458239,0.46932223,0,0.9466401,-0.19079804,0.078640714,0.2475566,0.58197546
28040000,-0.3371707,0.24595404,0.46412003,0,0.9474188,-0.18986854,0.07938981,0.2450405,0.5815261
28064000,-0.3303724,0.24608402,0.46295798,0,0.9481907,-0.18661371,0.08039294,0.24422686,0.58104926
28088000,-0.32353058,0.24619567,0.46179515,0,0.94895655,-0.18333313,0.08138803,0.24340586,0.580777
28112000,-0.3167339,0.24631214,0.46063387,0,0.9497061,-0.18007135,0.08237512,0.24258372,0.58046246
28136000,-0.31006688,0.24642883,0.45947373,0,0.95043266,-0.17686817,0.08334187,0.24176358,0.5801122
28160000,-0.30334577,0.24654585,0.45830956,0,0.9511531,-0.17363617,0.08431108,0.24093546,0.57974815
28184000,-0.2952236,0.2466616,0.45829007,0,0.95184404,-0.16978309,0.08534607,0.24058844,0.57935035
28208000,-0.28867605,0.24677177,0.45712844,0,0.95252573,-0.16662732,0.086282924,0.23976067,0.57896495
28232000,-0.28209037,0.24688725,0.45597208,0,0.95319897,-0.16345137,0.087221965,0.23893043,0.5785397
28256000,-0.27546516,0.24700347,0.45481163,0,0.95386475,-0.16025375,0.088161826,0.23809288,0.57809806
28280000,-0.26895913,0.24712114,0.45365098,0,0.95451015,-0.15711041,0.089083664,0.23725694,0.57764
28304000,-0.2624468,0.24723527,0.45249316,0,0.95514524,-0.15396117,0.089999795,0.23641838,0.5771197
28328000,-0.24880517,0.2473569,0.45652962,0,0.95568633,-0.14764,0.091371045,0.2377339,0.5765697
28352000,-0.24802984,0.24747956,0.45130852,0,0.95635176,-0.14704284,0.0919064,0.2352083,0.57601774
28376000,-0.24170224,0.24760234,0.4501512,0,0.956939,-0.14397538,0.09279256,0.23436812,0.5754428
28400000,-0.2355366,0.2477038,0.448996,0,0.95750594,-0.140981,0.093644984,0.23353231,0.5751347
28424000,-0.22939916,0.24781033,0.4478363,0,0.9580614,-0.13799821,0.09449258,0.2326928,0.5747992
28448000,-0.21584292,0.24791788,0.4518879,0,0.958495,-0.13170676,0.0958529,0.2339933,0.57444143
28472000,-0.20980598,0.24802488,0.45072627,0,0.9590161,-0.128768,0.09668517,0.23314989,0.57407385
