timestamp,control[0],control[1],control[2],control[3],control[4],output[2],output[3],output[4],output[5],output[6],output[7],indicated_airspeed_m_s,true_airspeed_m_s,air_temperature_celsius,indicated_airspeed_m_s.1,equivalent_airspeed_m_s,true_airspeed_m_s.1,equivalent_ground_minus_wind_m_s,true_ground_minus_wind_m_s,differential_pressure_raw_pa,differential_pressure_filtered_pa,temperature,gyro_bias[0],gyro_bias[1],gyro_bias[2],accel_bias[0],accel_bias[1],accel_bias[2],instance_count,seq_reached,seq_current,seq_total,item_changed_index,item_do_jump_remaining,valid,warning,finished,failure,stay_in_failsafe,flight_termination,item_do_jump_changed,execution_mode,nav_roll,nav_pitch,nav_bearing,target_bearing,xtrack_error,wp_dist,acceptance_radius,rollspeed_integ,pitchspeed_integ,yawspeed_integ,additional_integ1,x,y,z,temperature.1,pressure,temperature.2,gyro_rad[0],gyro_rad[1],gyro_rad[2],accelerometer_m_s2[0],accelerometer_m_s2[1],accelerometer_m_s2[2],x.1,y.1,z.1,temperature.3,altitude_sp,altitude_filtered,height_rate_setpoint,height_rate,airspeed_sp,airspeed_filtered,airspeed_derivative_sp,airspeed_derivative,throttle_integ,pitch_integ,baro_alt_meter,baro_temp_celcius,baro_pressure_pa,rho,xyz[0],xyz[1],xyz[2],xyz[0].1,xyz[1].1,xyz[2].1,roll_body,pitch_body,yaw_body,q_d[0],q_d[1],q_d[2],q_d[3],thrust_body[0],lat,lon,alt,vel_m_s,vel_n_m_s,vel_e_m_s,vel_d_m_s,cog_rad,ground_contact,maybe_landed,landed,ref_timestamp,ref_lat,ref_lon,x.2,y.2,z.2,vx,vy,vz,ax,ay,az,dist_bottom,roll,pitch,yaw,thrust_body[0].1,timestamp.1,isTakeoff,isClimbing,isDescending,isCruise,isLand
39857009.0,-0.011484954,0.022252666,0.020537735,0.27455685,0.0,1508.0,1500.0,1408.0,1486.0,1513.0,1514.0,16.11696845,16.47105513,12.085724,16.09900531,16.025696300000003,16.37778627,16.16091172,16.51597392,161.21815759999996,161.21815759999996,12.085724,-0.001706971,-0.006078556,0.00128767,-0.205663507,0.21072685,-0.077421806,2.0,-0.327865573,0.672134427,11.0,0.0,0.0,1.0,0.0,0.0,0.0,0.0,0.0,0.0,0.0,0.7054629920000001,0.304757002,-1.354786007,-0.856489053,31.09897866,236.0620526,53.25660010000001,-0.020196247,-0.01521379,0.018684386,0.0,1.851190377,0.648020449,-9.949348356,-5.32e+20,960.5094952,12.08572145,0.00194599,0.002688685,-0.010332095,-0.08046938,0.512170549,-9.868398092,0.070448334,0.009713285,0.009683328,-5.32e+20,52.80250516,49.59053489,4.010765017,2.281801418,15.32990076,18.4432198,-0.062266373,2.660771458,-0.249653368,33.22949564,448.6425819,12.085724,96051.01813,1.14124499,0.230868171,0.865422275,0.472883253,0.051900106,0.013504433,-0.006693451,0.733458939,0.313656855,-1.294927956,0.701658956,0.370427413,-0.097325174,-0.60081494,0.59629004,398701700.4,327344711.5,449178.23,16.50309862,-8.448643148,-14.17796517,-0.027433487000000003,4.174681368,0.0,0.0,0.0,764000.0,39.8714138,32.7364368,-139.05080149999998,-169.1606489,-49.02633304,-8.446045356,-14.30626897,0.06048403400000001,-1.541972459,-2.752702844,-0.392791719,49.19648796,0.329156133,0.320093639,0.130053719,0.5992069999999999,39857009.0,0.0,1.0,0.0,0.0,0.0
39877168.0,0.0008454771422845685,0.02118061590981964,0.021756318016032065,0.33904613430861724,0.0,1508.627254509018,1500.0,1441.2444889779558,1477.8456913827656,1521.1543086172344,1519.6452905811623,16.138216125691383,16.49273640164329,12.085724,16.096446444048095,16.02317521985972,16.375209263847694,16.16166174703407,16.51673991066132,161.26288272825647,161.26288272825647,12.085724,-0.0017061298517034068,-0.006078033496993988,0.0012870251823647295,-0.2056654013086172,0.21069269285571143,-0.07732712444088176,2.0,-0.32623438510420844,0.6737656148957916,11.0,0.0,0.0,1.0,0.0,0.0,0.0,0.0,0.0,0.0,0.0,0.7075054587595191,0.30593783683967934,-1.3445103593867735,-0.8549243133106212,30.70670339995992,235.88252859599197,53.334069168136274,-0.020274987513026053,-0.015269813863727454,0.018347313226452906,0.0,2.2732131018416832,0.6411065154749499,-10.01891028139479,-5.32e+20,960.5057944611223,12.085714518837674,0.0014252414248496995,-0.005512035432865731,-0.011719610200400802,-0.07308573069939879,0.47446922981362727,-9.855030555116233,0.11910957525250501,0.022397797549098195,0.01960009508216433,-5.32e+20,52.91866052006012,49.65523394703407,4.024822952222445,2.4008280543927856,15.329964915591182,18.52977981200401,-0.06399629075551103,2.6283546840360725,-0.249763057250501,33.44874369088176,448.71290860921846,12.085724,96050.21725144288,1.141235470785571,0.9956517518997996,0.48491929434068143,0.3988729477695391,0.08915762819438877,0.021617631356713428,0.003978117150300602,0.7336824799619239,0.31433846048496994,-1.2850345685751503,0.704465320272545,0.3711531546212425,-0.09529488538677354,-0.5973897320741482,0.5953495690881764,398701682.9623247,327344673.6765531,449177.24301503005,16.53270844509018,-8.46399650052505,-14.200994925931864,-0.02414350636472946,4.174643083521042,0.0,0.0,0.0,764000.0,39.8714138,32.7364368,-139.2356760476954,-169.47067935170338,-49.02743945422846,-8.483128871521043,-14.377529962264529,0.04384999022645292,-1.6031468951683365,-3.026180259356713,-0.6055468796913828,49.19759414841684,0.30573264815831663,0.3174096376553106,0.13408943248496993,0.5987619002004008,39877167.70541082,0.0,1.0,0.0,0.0,0.0
39898345.0,0.017228784967935867,0.02498720591983968,0.02132675204208417,0.39233714144288573,0.0,1509.0,1500.0,1466.8537074148296,1472.4301420921845,1526.5698579078155,1523.7635270541082,16.173788042304608,16.52909087661323,12.085724,16.09388757809619,16.02065414226453,16.37263226024048,16.162411771523047,16.517505901322643,161.30760783106209,161.30760783106209,12.085724,-0.0017052887034068138,-0.006077510993987976,0.0012863801102204408,-0.20566729561723446,0.21065853571142285,-0.07723244288176352,2.0,-0.32460319720841685,0.6753968027915832,11.0,0.0,0.0,1.0,0.0,0.0,0.0,0.0,0.0,0.0,0.0,0.7095479257735471,0.30711867167935875,-1.3342347117735471,-0.8533595736212425,30.31442814246493,235.70300456653305,53.41153823627255,-0.02035391305410822,-0.015330427034068136,0.018008214815631262,0.0,2.695235826937876,0.6341925816953908,-10.088472208316633,-5.32e+20,960.5020937476954,12.08570759022044,0.0006934763687374751,-0.008439380422845692,-0.011345010326653308,-0.07188601019238476,0.45226410729458916,-9.842550251176354,0.16777081675951905,0.035082310098196394,0.029516862418837674,-5.32e+20,53.034815880120235,49.71993300406814,4.03888088744489,2.519854690531062,15.330029068637273,18.616339821462926,-0.06572620876553106,2.5959379100721445,-0.249872746246493,33.667991744308615,448.7481923280562,12.085724,96049.81275795592,1.1412306867114228,1.6153978404268536,0.36303492700801604,0.3650511371783567,0.13104379162525048,0.031162321030060124,0.012179835112224448,0.733162283727455,0.31499636583567137,-1.2760941351943889,0.7071204262725451,0.37155800567334674,-0.0932277105270541,-0.5943252435971944,0.5945416245851703,398701665.5246493,327344635.8276553,449176.2560300601,16.56231827018036,-8.4793498530501,-14.224024681863726,-0.020853525729458918,4.1746047990420845,0.0,0.0,0.0,764000.0,39.8714138,32.7364368,-139.42055059539078,-169.78070980340678,-49.02854586845691,-8.520212386787575,-14.448790951983968,0.027215946198396797,-1.6643213315911822,-3.2996576749679356,-0.8183020403827655,49.19870033937877,0.28376837371943886,0.31577030166132264,0.1386315573246493,0.5978523046452906,39898344.701402806,0.0,1.0,0.0,0.0,0.0
39921013.0,0.039547801951903806,0.035938890879759516,0.01848336156312625,0.42922752216432863,0.0,1509.0,1500.0,1481.2805611222445,1471.0256891382767,1527.9743108617233,1525.6452905811623,16.230338768456914,16.58693523991984,12.085724,16.09132871214429,16.018133068396793,16.370055260360722,16.16316179228457,16.518271891983968,161.35233289659317,161.35233289659317,12.085724,-0.0017044475551102206,-0.006076988490981964,0.0012857346653306612,-0.2056691899258517,0.21062437856713428,-0.07713776132264528,2.0,-0.32297200931262526,0.6770279906873747,11.0,0.0,0.0,1.0,0.0,0.0,0.0,0.0,0.0,0.0,0.0,0.7115903931603206,0.3082995065190381,-1.3239590641603207,-0.8517948339318637,29.922152888697394,235.5234804997996,53.48900730440882,-0.020433109581162328,-0.015397761551102205,0.01766614972344689,0.0,3.1172585524068137,0.6272786475430862,-10.15803413747495,-5.32e+20,960.4983930715431,12.085700665330661,-0.0003473364468937878,-0.003643514134268537,-0.00838967498997996,-0.07974306728857716,0.45275420194188376,-9.831369359264528,0.21643205863927856,0.047766822647294586,0.039433630128256514,-5.32e+20,53.15097124018036,49.7846320611022,4.052938822667335,2.6388813262965933,15.330093217955913,18.702899827194386,-0.0674561271482966,2.5635211361082164,-0.24998243486973948,33.887239801462925,448.73215324208417,12.085724,96049.98879693387,1.1412328375671343,2.0227268141402805,0.6199148280120241,0.39008806676753505,0.17970890993787575,0.04280352554509019,0.016764292168336675,0.7315528345911823,0.315619560753507,-1.2685493667915833,0.7095540044088177,0.37149289101002003,-0.09110651329058117,-0.5917890528957916,0.5939277738777555,398701648.08697397,327344597.94148296,449175.2690450902,16.591928095270543,-8.49470320557515,-14.24705443779559,-0.017563545094188376,4.174566514563127,0.0,0.0,0.0,764000.0,39.8714138,32.7364368,-139.60542514308617,-170.0907402551102,-49.02965228268537,-8.557295901681364,-14.520051937975952,0.010581901797595192,-1.7254957683867735,-3.573135090951904,-1.0310572010741483,49.19980653406814,0.2639412105791583,0.31566094799198396,0.14391535548697396,0.5962624239679358,39921013.052104205,0.0,1.0,0.0,0.0,0.0
39943681.0,0.04805272199799599,0.04208520023246493,0.01800249074749499,0.44919770561122246,0.0,1509.0,1500.0,1504.3607214428857,1464.8616783086172,1534.1383216913828,1529.563126252505,16.321704358376753,16.680308537855712,12.085708220440882,16.091882476212426,16.018733216773544,16.370669844288578,16.16686508987976,16.522057851022044,161.45765101102205,161.45765101102205,12.085710429579159,-0.0017035936813627256,-0.006076490929859719,0.0012850749679358716,-0.20567154896793588,0.21058982591583167,-0.07704286750300601,2.0,-0.3213408214168337,0.6786591785831664,11.0,0.0,0.0,1.0,0.0,0.0,0.0,0.0,0.0,0.0,0.0,0.7136328605470942,0.30948034135871744,-1.3136834165470943,-0.850230094751503,29.529877629839678,235.34395648396793,53.5664763725451,-0.020510925651302605,-0.015471455230460921,0.017317865448897796,0.0,3.473877205815631,0.6394711899599199,-10.304723940340681,-5.32e+20,960.4967115172344,12.085691424408816,0.009424637354709418,-0.004334534466933868,-0.005726204995991985,0.557115173026052,0.5159035056873748,-9.854272341517033,0.2645603693246493,0.06338068716432865,0.04836983058316633,-5.32e+20,53.2671265951503,49.84933111813627,4.06699675788978,2.7579079625711422,15.330157372364729,18.78945983292585,-0.06918604553106213,2.5311043621442884,-0.250092124002004,34.10648785352706,448.71626319659316,12.085708220440882,96050.1696359519,1.1412349756973947,2.091937783244489,0.7153128236172345,0.7067941237875751,0.22604997253507014,0.05813326206813627,0.03127898968136272,0.7309339956352705,0.31620073979559116,-1.259230808476954,0.7123208356352705,0.3718355929438878,-0.08896581201002003,-0.5885595877735471,0.5935285307735471,398701630.6492986,327344560.10621244,449174.2820601202,16.621537920360723,-8.5100565581002,-14.270084193727456,-0.014273564458917837,4.174528230084168,0.0,0.0,0.0,764000.0,39.8714138,32.7364368,-139.79681054048098,-170.4126900767535,-49.031946251262525,-8.59394063691984,-14.600822714509018,-0.01742626209418837,-1.714250912721443,-3.7989740001422847,-1.2965558923947895,49.20210050707415,0.24414479009218437,0.3150438172725451,0.15006025386172345,0.5954246337274549,39943680.89378758,0.0,1.0,0.0,0.0,0.0
39965804.0,0.053794857935871736,0.04740051586573146,0.018101051827655312,0.46602201345090183,0.0,1509.0,1500.0,1526.316633266533,1459.363643971944,1539.636356028056,1533.4088176352705,16.418284426913825,16.7789826144489,12.085693,16.10581030527054,16.032744356713426,16.384997756072142,16.183257751663326,16.538819704869738,161.82331981583167,161.82331981583167,12.085638549298597,-0.0017026868396793587,-0.006076102593186373,0.0012843543166332666,-0.20567590592384768,0.21055357446893785,-0.07694706136472945,2.0,-0.3197096335210421,0.6802903664789579,11.0,0.0,0.0,1.0,0.0,0.0,0.0,0.0,0.0,0.0,0.0,0.7156753277975952,0.3106611761983968,-1.3034077689338677,-0.8486653555531063,29.137602371162323,235.16443246633264,53.64394543931865,-0.020588341208416832,-0.015547367360721442,0.016968335791583168,0.0,3.7915635015751503,0.6630370330420842,-10.497324800701403,-5.32e+20,960.4962318725451,12.085680808797594,0.02730571556713425,-0.004192574086172348,-0.0020439993767535107,1.3043733709038074,0.582200169244489,-9.874067060963927,0.3123714481202405,0.0807382744549098,0.05672233966733466,-5.32e+20,53.3832819503006,49.91403017517034,4.0810546931122245,2.876934598963928,15.330221527955912,18.87601984002004,-0.07091596391382765,2.4986875881803607,-0.25020181311623246,34.325735905771545,448.695711246493,12.085693,96050.4035874549,1.1412377275050098,2.1227392726573147,0.7600137397655311,0.8984086877374753,0.2723723938877755,0.07417251221042083,0.04607728937074149,0.7301062518617235,0.31676121873947893,-1.2500670176352706,0.7150775389218437,0.37208431657114227,-0.08680176933667334,-0.5853848714529059,0.5932348236072144,398701613.2388778,327344522.2827655,449173.9717228457,16.660169703366734,-8.527826490128255,-14.30245813490982,-0.018233370028056098,4.174636159368737,0.0,0.0,0.0,764000.0,39.8714138,32.7364368,-139.99207159358718,-170.74173504709418,-49.03494712230461,-8.630324184543086,-14.687254275771544,-0.05220497197595188,-1.6598978271783567,-3.99645566298998,-1.5934506411823646,49.20510151905812,0.22382295737274552,0.31448001862124253,0.1563562741262525,0.594765798268537,39965803.66332665,0.0,1.0,0.0,0.0,0.0
39985963.0,0.0611439135230461,0.053743446438877754,0.018310070593186373,0.48567249154108216,0.0,1509.0,1500.0,1536.9799599198398,1460.2483751663328,1538.7516248336672,1535.2905811623245,16.504515268296593,16.867020789338678,12.085693,16.16531913232465,16.092462348056113,16.446062933286573,16.24289783799599,16.599805521843688,163.07630629899796,163.07630629899796,12.085367939158315,-0.0017015998076152304,-0.0060760869118236475,0.0012834259799599198,-0.20568707230861724,0.21051153336272543,-0.07684814583767535,2.0,-0.3180784456252505,0.6819215543747496,11.0,0.0,0.0,1.0,0.0,0.0,0.0,0.0,0.0,0.0,0.0,0.7177177945571142,0.31184201103807613,-1.2931321213206413,-0.8471006158637275,28.745327117394787,234.9849083995992,53.721414501182366,-0.0206654690501002,-0.015625950432865732,0.016619523949899802,0.0,4.023715710090181,0.711589929250501,-10.790791900841684,-5.32e+20,960.4983928270541,12.085667178557115,0.06535415928056112,0.0035425622965931857,0.005552913947895791,1.9098315302845692,0.6073968636933867,-9.854137973356714,0.3594855711442886,0.10192680694589179,0.0637924834008016,-5.32e+20,53.49943731036072,49.97872923220441,4.095112628334669,2.9959612353567135,15.330285683547094,18.96257985202405,-0.07264588229659319,2.4662708142164327,-0.25031150173947897,34.544983962925855,448.6582379957916,12.085693,96050.82488294589,1.141242701006012,2.2981258613887774,0.7572008583186373,0.39522700048496995,0.32057266266533063,0.08968115225250502,0.05358673644488978,0.7276967910340681,0.31728227968737477,-1.2429453361623246,0.7175188511062124,0.37165313868537075,-0.08456995200400802,-0.582987615743487,0.5931417503286573,398701595.92665327,327344484.45931864,449176.0993074148,16.731307070040078,-8.554303215953908,-14.368498625891784,-0.04831372883366734,4.175270888242485,0.0,0.0,0.0,764000.0,39.8714138,32.7364368,-140.19584745230463,-171.08636805651304,-49.03950105276553,-8.666133904851703,-14.786122532925852,-0.10185851857114228,-1.510836296014028,-4.131636675987976,-1.9593222844188376,49.20965589486974,0.2015823666472946,0.314533332745491,0.162476119751503,0.5941222991222446,39985962.99599198,0.0,1.0,0.0,0.0,0.0
40007685.0,0.06923000228657314,0.06058954305410821,0.018392410871743488,0.5053201880480962,0.0,1509.0,1500.0,1551.5511022044088,1457.613101961924,1541.386898038076,1537.9539078156313,16.583821323607214,16.94805159038076,12.085676673146292,16.224827959378757,16.152180339398797,16.507128110501,16.30253792823647,16.66079134272545,164.32929278216432,164.32929278216432,12.085097332925852,-0.0017005131663326652,-0.006076070839679358,0.00128249725250501,-0.20569823869338677,0.21046949186573144,-0.07674922991983968,2.0,-0.3164472577294589,0.6835527422705411,11.0,0.0,0.0,1.0,0.0,0.0,0.0,0.0,0.0,0.0,0.0,0.7197602617074148,0.31302284587775553,-1.2828564737074148,-0.8455358761743488,28.35305185971944,234.80538433286574,53.798883566953904,-0.020745146741482968,-0.015710430008016033,0.016260334513026053,0.0,4.255867918995992,0.7601428258496993,-11.084259000981964,-5.32e+20,960.5005538206412,12.085653548316634,0.10542956625050096,0.012350558589178348,0.014770502753507003,2.378071661368737,0.5852408277114228,-9.90115515326453,0.40659969416833663,0.12311533904609216,0.07086262713426852,-5.32e+20,53.61276812863727,50.046545194248495,4.107026132144289,3.106049368743487,15.330338823006013,19.03909604709419,-0.07417514450701403,2.4303420652424848,-0.25042555695591184,34.76577525164329,448.65362650460924,12.085676673146292,96050.88646791583,1.1412434009198396,2.2058254900701404,0.9548711865611219,0.24972686474549094,0.3682552736573146,0.10849176598196392,0.061376547406813614,0.7262424968697394,0.31777757640681364,-1.2342609790080161,0.7202313301342685,0.3716131171222445,-0.08233837109418839,-0.5799748333507013,0.5931614636432866,398701578.6925852,327344446.6358717,449179.1560142285,16.81483312278557,-8.584098318523047,-14.447370281002005,-0.0883492850841683,4.176106393258517,0.0,0.0,0.0,764000.0,39.8714138,32.7364368,-140.39962331102205,-171.4310010268537,-49.04405497931864,-8.701943625551102,-14.884990786172345,-0.1515120655571142,-1.361774764458918,-4.2668176893767535,-2.3251939276553104,49.21421027068136,0.17728608865731466,0.3146103774709419,0.16970036409418837,0.593624313743487,40007685.06412826,0.0,1.0,0.0,0.0,0.0
40030353.0,0.07764165383967936,0.06769597493987976,0.01840982869338677,0.5248261178557115,0.0,1509.0,1500.0,1568.1803607214429,1452.9923375931864,1546.0076624068136,1541.028805753507,16.659745583326654,17.02566836280561,12.085650404408819,16.284336786432867,16.211898330741484,16.56819328771543,16.36217802066132,16.721777165971943,165.5822792653307,165.5822792653307,12.084826728877756,-0.0016994267434869738,-0.006076054531062125,0.0012815682885771542,-0.20570940506012023,0.2104274501503006,-0.07665031378356714,2.0,-0.31481606981563126,0.6851839301843687,11.0,0.0,0.0,1.0,0.0,0.0,0.0,0.0,0.0,0.0,0.0,0.7218027290941883,0.3142036807174349,-1.2725808260761524,-0.8439711365030061,27.96077659985972,234.62586026793588,53.87635263509018,-0.020826011639278556,-0.015798129843687378,0.01589691246693387,0.0,4.485503183611222,0.8079263217394789,-11.378883515551102,-5.298897795591183e+20,960.5026448272545,12.085639433807616,0.14682572313827655,0.021926724302605203,0.024886904306613222,2.7629687304789576,0.5378630523146292,-9.989960923947896,0.45368508518837675,0.14423425073346693,0.07802294388777553,-5.298897795591183e+20,53.72419603302605,50.11646103757515,4.117494917298597,3.210115569342685,15.330384540941884,19.10884565198397,-0.07556922324248497,2.3920472738476954,-0.2505425539559118,34.987606226452904,448.6694266905812,12.085650404408819,96050.7239850501,1.1412414411422844,1.965385077791583,1.272736155274549,0.3164581083206413,0.4154272699218437,0.12931327986372745,0.06933817260721442,0.725304458775551,0.3182559700701403,-1.2247128967895793,0.7230953228997997,0.37178324851102207,-0.08010498151302604,-0.5766208586853707,0.5932485293987976,398701561.504008,327344408.81242484,449182.77496092184,16.905855918897796,-8.615901464472946,-14.534006435611225,-0.13440901209619235,4.177063393581164,0.0,0.0,0.0,764000.0,39.8714138,32.7364368,-140.6031728729459,-171.77533254929855,-49.04871695617234,-8.737351885651304,-14.983857711763527,-0.20171329785971942,-1.2107919690480964,-4.400534939466934,-2.690765226571142,49.21887268310621,0.15185726914428857,0.31471366416432867,0.1775422894789579,0.5932240134268537,40030352.80561122,0.0,1.0,0.0,0.0,0.0
40053021.0,0.08198521881963927,0.07331129718236473,0.018823604030060122,0.5396003388376753,0.0,1509.0,1500.0,1574.4529058116232,1453.2545826673347,1545.7454173326653,1542.0306058476954,16.762982141242485,17.13119675815631,12.08562203995992,16.343845613486973,16.271616322084167,16.62925846492986,16.421818106993985,16.782762989218437,166.835265748497,166.835265748497,12.084556118737476,-0.0016983397114228456,-0.00607603822244489,0.0012806393246492986,-0.20572057081763526,0.21038540904408817,-0.07655139825651303,2.0,-0.3131848812925852,0.6868151187074149,11.0,0.0,0.0,1.0,0.0,0.0,0.0,0.0,0.0,0.0,0.0,0.7238451964809619,0.3153845155571142,-1.2623051778356713,-0.8424063974408817,27.568501346092187,234.44633626392786,53.95382170322645,-0.020894859094188378,-0.015874079074148298,0.0156026391503006,0.0,4.630121655312625,0.8297211634569138,-11.71260291749499,-4.56501002004008e+20,960.5023710306614,12.085608961783567,0.19140297928056113,0.03552081171543086,0.03223678096993988,3.137443233913828,0.6064353814789579,-10.121918348691382,0.4997999729619238,0.16300154757515029,0.0882291048737475,-4.56501002004008e+20,53.82908104715431,50.19359702102204,4.122996250460922,3.293476245260521,15.33040474480962,19.155329350981965,-0.07649849389779559,2.345617196328657,-0.2506696652004008,35.213012009759524,448.70299735190383,12.08562203995992,96050.34543068137,1.1412369945350702,2.192594239765531,1.5526550209338679,0.24092356836072143,0.45593270153707416,0.15056656634669338,0.07737269505811624,0.7222809057474949,0.3186900339539078,-1.2179310141382766,0.7255344936372746,0.3710566889498998,-0.0778056665771543,-0.574323462521042,0.5933052658236473,398701544.25450903,327344370.98897797,449186.3939685371,16.99687871501002,-8.647704611032063,-14.620642596312626,-0.18046873910821642,4.178020393903808,0.0,0.0,0.0,764000.0,39.8714138,32.7364368,-140.79907863206412,-172.10948263046092,-49.057028711943886,-8.759199690857717,-15.082679871983968,-0.2704141150921844,-0.9949131580541082,-4.484809510150301,-3.046191561767535,49.22718433224449,0.13019172716232466,0.31521829543486973,0.18367432391382765,0.5931490126052104,40053021.15631262,0.0,1.0,0.0,0.0,0.0
40074599.0,0.08643398211623246,0.0781778977254509,0.018985421787575153,0.5534802276352705,0.0,1509.0,1500.0,1582.4988748216433,1451.5705208396794,1547.4294791603206,1543.8661794248496,16.87446499238477,17.245141645691383,12.085590587575151,16.403354440541083,16.331334313426854,16.69032364214429,16.481458193326652,16.84374881246493,168.0882522044088,168.0882522044088,12.084285511322646,-0.0016972529519038075,-0.006076021913827656,0.0012797103607214428,-0.20573173684769538,0.21034336793787575,-0.07645248272945891,2.0,-0.3115536930420842,0.6884463069579158,11.0,0.0,0.0,1.0,0.0,0.0,0.0,0.0,0.0,0.0,0.0,0.7249634863607215,0.3164078416833668,-1.25253934698998,-0.8408580546913828,27.181295548196395,234.25370338617233,54.01705423685371,-0.02096510088977956,-0.015953169386773547,0.015302839164328659,0.0,4.751193729947896,0.8443181427615231,-12.057150107975952,-3.632164328657316e+20,960.501442335471,12.08557396006012,0.23763310665330656,0.05050008338476952,0.040646478378757504,3.483909466727455,0.6460967387955912,-10.261625541563125,0.5456460680460922,0.1811175368737475,0.09927884824048094,-3.632164328657316e+20,53.93396606128257,50.27073300174349,4.128497583895792,3.3768369214509018,15.330424951402806,19.201813049979958,-0.07742776482565131,2.2991871185370742,-0.2507967761723447,35.43841779306614,448.7150430833667,12.085590587575151,96050.20662877755,1.141235374492986,2.3106547928577155,1.4445640545450908,0.23073079175150293,0.49774140534468936,0.17101024891783564,0.08730108864328656,0.7200598519258516,0.3191077295971944,-1.2099206688336674,0.7281723222184369,0.37065701669939877,-0.07551758894789579,-0.5715390457234469,0.5934121328296593,398701527.03226453,327344333.1655311,449190.01294889784,17.087901511122244,-8.679507757318637,-14.707278754288577,-0.22652846584769534,4.1789773944989985,0.0,0.0,0.0,764000.0,39.8714138,32.7364368,-140.99286734268537,-172.44081285110218,-49.06635131837675,-8.777291769667334,-15.181489628677355,-0.34423860913426846,-0.7610606344829662,-4.555390351214429,-3.3988081301503006,49.23650668486974,0.10922882332064131,0.31549527142685374,0.18907575381162325,0.593150020248497,40074599.05410822,0.0,1.0,0.0,0.0,0.0
40094758.0,0.0910196579278557,0.08207005899799599,0.018819324166332665,0.5661961693987976,0.0,1509.0,1500.0,1592.8529029038075,1447.3533978236474,1551.6466021763526,1546.7868846673348,16.99668015162325,17.37004035026052,12.085555116332666,16.46286326759519,16.391052304769538,16.751388819358716,16.541098279659316,16.904734635711424,169.34123862484967,169.34123862484967,12.08401490745491,-0.0016961665470941881,-0.0060760056052104215,0.001278781396793587,-0.20574290323246494,0.21030132683166333,-0.07635356720240481,2.0,-0.30992250514629255,0.6900774948537074,11.0,0.0,0.0,1.0,0.0,0.0,0.0,0.0,0.0,0.0,0.0,0.7248789863967935,0.31722617485170346,-1.243437028488978,-0.839331051260521,26.800687498016032,234.04400969478957,54.061758339539075,-0.021037157378757516,-0.0160363477254509,0.014995846380761527,0.0,4.841620861342685,0.8495473158376753,-12.415789346773547,-2.4403807615230466e+20,960.499661309018,12.085533063066132,0.28601439731863726,0.06728213162324648,0.05043550131663326,3.7939237591002004,0.6481313165751502,-10.41141882971944,0.5911423373507014,0.19838586856112225,0.11142648926452906,-2.4403807615230466e+20,54.038851075410825,50.34786897891784,4.13399891768537,3.4601975979959922,15.330445161543087,19.248296748977953,-0.07835703610821643,2.2527570403907817,-0.25092388678957916,35.66382357637275,448.6990747517034,12.085555116332666,96050.37985765531,1.1412374331422845,2.286661641743487,0.8314897037995996,0.30557839832665323,0.5412462795791584,0.19040025580961922,0.09969429980761522,0.7188832272184368,0.3195041224569138,-1.200311515517034,0.7310686981402805,0.3706827786693387,-0.07324413634268538,-0.5681207858957916,0.5935842433126253,398701509.845491,327344295.34208417,449193.6318937876,17.178924307234468,-8.711310903250501,-14.793914908717435,-0.27258819223246494,4.179934395448899,0.0,0.0,0.0,764000.0,39.8714138,32.7364368,-141.18390077695392,-172.76847310621238,-49.07698951721443,-8.790495881034067,-15.28028324254509,-0.4247314178476953,-0.5038158526312626,-4.608149205935872,-3.7477678696653305,49.24714443835671,0.08918038235270542,0.3154759607695391,0.19352632339278558,0.5932499506733466,40094757.75951904,0.0,1.0,0.0,0.0,0.0
40114916.0,0.09146622761723447,0.08445511484569139,0.019157671086172345,0.5738876779959919,0.0,1509.1179784268536,1500.0,1598.4561696112223,1448.1385975270541,1550.8614024729459,1547.1198686092184,17.10222921695391,17.477958441382764,12.085501651462925,16.5223720946493,16.450770296112225,16.812453996573147,16.600738365991983,16.965720458957918,170.59422509799597,170.59422509799597,12.083744298316633,-0.0016950796152304607,-0.006075989296593187,0.0012778524328657314,-0.20575406961723447,0.2102592851983968,-0.0762546516753507,2.0,-0.30829131725050096,0.6917086827494989,11.0,0.0,0.0,1.0,0.0,0.0,0.0,0.0,0.0,0.0,0.0,0.7222483449579158,0.3176105653987976,-1.2357392744008016,-0.8378492216372745,26.43404599695391,233.79820062204408,54.06724026663327,-0.021108536603206413,-0.01612104450701403,0.014706448771543089,0.0,4.93204799221042,0.8547764883867734,-12.774428585571142,-1.2533406813627254e+20,960.4978802298598,12.085492171342684,0.3297448576492986,0.08391976914428857,0.059039435713426854,4.089339775300601,0.6717374885070141,-10.607446105370741,0.6366386071823648,0.215654200248497,0.12357413081563126,-1.2533406813627254e+20,54.143736089539075,50.42500495609219,4.139500250947896,3.543558274014028,15.330465366412826,19.29478044270541,-0.07928630686372745,2.206326962244489,-0.25105099740681364,35.88922935967936,448.7381548498998,12.085501651462925,96049.92941286573,1.1412321046012024,2.0198482698076154,0.7905546415751503,0.35106405349098196,0.5878729754088177,0.21060743743286572,0.10506967483967936,0.7146443870460921,0.3198774572264529,-1.194857875517034,0.7333397438637275,0.3694135571002004,-0.07088697700400802,-0.5663122837134269,0.5938703418957916,398701492.60601205,327344257.46593183,449197.2508913828,17.269947108617234,-8.743114049709419,-14.880551068416834,-0.3186479191442886,4.180891395871744,0.0,0.0,0.0,764000.0,39.8714138,32.7364368,-141.37493426392788,-173.09613330861723,-49.087627716052104,-8.803699991873748,-15.379076856412825,-0.5052242265611222,-0.24657107130661324,-4.660908060657315,-4.096727609180361,49.257782186573145,0.07098780694589178,0.315406521995992,0.1993293870761523,0.5933334433346693,40114916.46492986,0.0,1.0,0.0,0.0,0.0
40135075.0,0.09272121093787575,0.08717715956713426,0.019542597266533065,0.581123462755511,0.0,1509.3436124048096,1500.0,1603.5430861723446,1448.550637993988,1550.449362006012,1547.673660963928,17.199319344709416,17.577215748456915,12.085443253527053,16.58188092170341,16.510488287454912,16.873519173787574,16.660378453867736,17.026706280661323,171.8472115811623,171.8472115811623,12.083473688176353,-0.0016939927374749499,-0.006075972987975952,0.001276923623246493,-0.205765236002004,0.21021724361923846,-0.0761557361482966,2.0,-0.3066601293547094,0.6933398706452906,11.0,0.0,0.0,1.0,0.0,0.0,0.0,0.0,0.0,0.0,0.0,0.7191336462044088,0.31791245734869744,-1.2283085476132265,-0.8363759800360722,26.070059731823648,233.54552550721442,54.06526550635271,-0.021179473052104207,-0.016206766480961924,0.01442862969739479,0.0,4.990480226176352,0.8589325112184368,-13.126910765490981,-5.41238476953907e+19,960.4960799755511,12.085441762865731,0.37220099076352703,0.10191978934869737,0.066868003252505,4.336392262032064,0.7121426243807615,-10.82345122791583,0.6796570428837675,0.23257673357715428,0.13409114578156311,-5.41238476953907e+19,54.24862110366733,50.50214093326653,4.145001584264529,3.6269189500861723,15.330485571823646,19.341264136973948,-0.08021557751903807,2.1598968842525053,-0.2511781081783567,36.11463514298597,448.7585377669339,12.085443253527053,96049.69513136272,1.1412293395430864,1.775868903488978,0.8897284692364728,0.5327483728196386,0.6340007312364729,0.22979125314228455,0.11090354393987974,0.7109502444749498,0.32023904904208417,-1.188565715238477,0.7357401424088176,0.36836232687775555,-0.06853601518236473,-0.5641664759278557,0.5941750502004008,398701475.3719439,327344219.59519035,449200.86988356715,17.360969909458916,-8.77491719611423,-14.96718722757515,-0.36470764615631257,4.181848396194389,0.0,0.0,0.0,764000.0,39.8714138,32.7364368,-141.5689679679359,-173.43136872705412,-49.100479331583166,-8.809805145016032,-15.47977493026052,-0.59292574503006,0.04371792707414791,-4.699308153202405,-4.421432488498998,49.27063353102204,0.05372818695591184,0.31539239271743486,0.20501183373547094,0.5934487039819639,40135075.3246493,0.0,1.0,0.0,0.0,0.0
40155235.0,0.09886573401002002,0.09181022445691381,0.019776352440881762,0.5898901568136272,0.0,1509.8304591282565,1500.0,1609.8156312625251,1444.9041798396793,1554.0958201603207,1550.4120490380762,17.280194498917833,17.659822702184368,12.085380220721444,16.641389748757515,16.570206278797595,16.934584351002005,16.720018546472946,17.08769209763527,173.10019806432865,173.10019806432865,12.083203078036071,-0.0016929063326653305,-0.006075956679358717,0.0012759952865731463,-0.20577640238677355,0.21017520251302604,-0.07605682062124249,2.0,-0.30502894145891785,0.6949710585410821,11.0,0.0,0.0,1.0,0.0,0.0,0.0,0.0,0.0,0.0,0.0,0.7160189474509018,0.3182143492985972,-1.2208778203527055,-0.8349027379619238,25.70607346196393,233.29285039238476,54.06329074607215,-0.021249447056112224,-0.0162947458256513,0.01417604559719439,0.0,4.950850179036071,0.8597994001583166,-13.460521959759518,-1.2820260521042069e+20,960.4942209813627,12.085362183086172,0.41346137336072136,0.12417957029859716,0.07301065773346692,4.443719901188377,0.7914660004869738,-11.07374719775551,0.7150810775671342,0.24843941739078151,0.13961039584168336,-1.2820260521042069e+20,54.35350611779559,50.57927691044088,4.150502918054108,3.7102796266312623,15.330505781963927,19.387747835971943,-0.0811448481743487,2.113466806733467,-0.25130521942284567,36.34004092629258,448.6895390182365,12.085380220721444,96050.48678300601,1.1412387358156313,1.7433625343727455,1.084948663639278,1.1489815891903796,0.6767802226392784,0.2453623614609218,0.12223187139679356,0.7107098786653306,0.3205780851222445,-1.177282180026052,0.7389013709018035,0.36873379640681364,-0.0662528231963928,-0.5600488630761523,0.5944703766773548,398701458.18517035,327344181.7717435,449204.4888284569,17.451992705571143,-8.806720342046093,-15.053823382004008,-0.41076737316833656,4.182805396517034,0.0,0.0,0.0,764000.0,39.8714138,32.7364368,-141.77219711162323,-173.78982172144288,-49.1201149255511,-8.794152454094188,-15.586310050280561,-0.702721490801603,0.4352853053106205,-4.693699572064128,-4.671797796306612,49.290269407254506,0.038246625490982,0.3155769924649299,0.20953651594589176,0.5936709095190381,40155234.65731463,0.0,1.0,0.0,0.0,0.0
40177029.0,0.10134329330661324,0.09447522816833667,0.01985147942284569,0.596945192755511,0.0,1510.0,1500.0,1613.6352705410823,1444.6197745511022,1554.3802254488978,1551.6249970641284,17.37680908711423,17.758543427855713,12.085292654769539,16.700898571723446,16.62992427014028,16.995649528216433,16.779658634989982,17.148677918697395,174.353184547495,174.353184547495,12.082932471983968,-0.001691819519038076,-0.006075940370741483,0.0012750665410821644,-0.20578756877154308,0.21013316140681362,-0.07595790468537074,2.0,-0.30339775356312626,0.6966022464368737,11.0,0.0,0.0,1.0,0.0,0.0,0.0,0.0,0.0,0.0,0.0,0.7129042486973948,0.3185162416573146,-1.213447093501002,-0.8334294958877756,25.342087196192384,233.04017531843687,54.06131598987976,-0.021318813965931865,-0.016383209619238476,0.013934356078156313,0.0,4.891437554861723,0.8600027555911823,-13.790326219679358,-2.3126653306613226e+20,960.4923501314629,12.085276720420842,0.4551722235250501,0.14200390802605212,0.07999554358917835,4.57767387953507,0.7856180945410822,-11.362878022104208,0.7489730575330661,0.2640882924428858,0.14412142312024048,-2.3126653306613226e+20,54.45839113192385,50.65641288761523,4.15600425143487,3.793640303176353,15.330525988016031,19.43423153496994,-0.08207411923847696,2.0670367288056113,-0.251432330258517,36.5654467095992,448.66347025030063,12.085292654769539,96050.79101773546,1.141242336689379,1.8147609443266532,1.197309887781563,0.9395445191563125,0.7159421705951903,0.26155543634468936,0.12922445848496994,0.7073403114769539,0.3208978806092185,-1.1702689911222444,0.7414336571743487,0.3677887999719439,-0.06389482494188377,-0.5575954495190381,0.5948367196833668,398701440.6304609,327344142.02685374,449217.81608837674,17.538229743446895,-8.811176295368739,-15.15003112240481,-0.49032740701803607,4.185277841705411,0.0,0.0,0.0,764000.0,39.8714138,32.7364368,-141.97728130621238,-174.15295853947896,-49.141119089699394,-8.774110448478957,-15.694022700000001,-0.8169744121322645,0.8472840598917837,-4.679212909290581,-4.907166223993988,49.31127395995992,0.019609471016032068,0.315422047498998,0.21394395620841683,0.5939493389278557,40177028.851703405,0.0,1.0,0.0,0.0,0.0
40199552.0,0.10174369049298598,0.09606244926252505,0.019869082823647296,0.6029227830460921,0.0,1510.0,1500.0,1616.0689187895791,1446.134985753507,1552.865014246493,1552.0131978236473,17.47711374503006,17.861049521523046,12.085191203787575,16.76040739286573,16.68964226148296,17.056714705791585,16.839298721322645,17.20966374194389,175.60617103066136,175.60617103066136,12.082661867755512,-0.001690732523046092,-0.006075924098196393,0.0012741375771543086,-0.20579873512024047,0.21009112026452906,-0.07585898856713427,2.0,-0.3017665656673347,0.6982334343326653,11.0,0.0,0.0,1.0,0.0,0.0,0.0,0.0,0.0,0.0,0.0,0.7097895499438878,0.3188181341983968,-1.2060163668316632,-0.8319562538496994,24.97810093224449,232.78750026272544,54.05934123551102,-0.021388120905811624,-0.016472330388777552,0.013698978805611224,0.0,4.821459464280561,0.8598515476112224,-14.11807667503006,-3.49817635270541e+20,960.4904732426854,12.085188100380762,0.49712317329058114,0.15754908042284566,0.08765491969338676,4.723510731953907,0.7400409756492986,-11.669249961563127,0.7820378517234468,0.2796217206112224,0.14809395523246494,-3.49817635270541e+20,54.56330252056112,50.73415073897795,4.161380088813628,3.876207904807615,15.330548112004008,19.479630449719437,-0.08298165633266533,2.020731080691383,-0.2515600100941884,36.79147183863728,448.665870343487,12.085191203787575,96050.77021154309,1.1412420735671343,1.89907274483968,1.2221136241442894,0.3054191254689383,0.7525747162845691,0.2779885673106212,0.13379795913426853,0.7024081535270541,0.3212062307775551,-1.1653789893767534,0.7436532987775551,0.36618464127054107,-0.06149930975751503,-0.5559677696372746,0.5952393847655311,398701422.8791583,327344101.2480962,449236.3695669339,17.621890490661322,-8.80091058704008,-15.251391481623246,-0.5879214741583165,4.188566087861724,0.0,0.0,0.0,764000.0,39.8714138,32.7364368,-142.18335227194385,-174.51859384048097,-49.16285677150301,-8.751714824466934,-15.802362026332666,-0.9336102660621242,1.2701893977414827,-4.659974700689379,-5.134486753286573,49.33301208675351,-0.00046320743887773953,0.3151068948557114,0.21833685079759518,0.5942666772104208,40199552.32264529,0.0,1.0,0.0,0.0,0.0
40219712.0,0.1002126073987976,0.09721994521643287,0.020333015312625248,0.6062308982364729,0.0,1510.0,1500.0,1617.2673399639277,1447.7030593006011,1551.2969406993989,1552.2426933126253,17.50006733971944,17.88448837911824,12.085077024649298,16.81991621991984,16.74936025282565,17.117779889278555,16.898938807655313,17.270649565190382,176.85915751382765,176.85915751382765,12.082391257615232,-0.0016896461182364729,-0.006075908416833668,0.001273208613226453,-0.2058099008777555,0.2100490785310621,-0.07576007304008016,2.0,-0.3001353777715431,0.6998646222284569,11.0,0.0,0.0,1.0,0.0,0.0,0.0,0.0,0.0,0.0,0.0,0.7066748511903808,0.3191200261482966,-1.1985856395711423,-0.8304830124028056,24.614114662384768,232.5348251478958,54.05736647523046,-0.02146176121242485,-0.01656797603807615,0.013471650480961925,0.0,4.751557353048096,0.8596998749619238,-14.445504149719438,-4.683687374749497e+20,960.4886012016033,12.085099249779558,0.5390644306212424,0.1745815913867735,0.09899318286172343,4.830932939763527,0.7891747879398797,-11.91811524541082,0.8149618995811622,0.2951353849619238,0.15206996349699398,-4.683687374749497e+20,54.668646158096195,50.82175263953908,4.164699189739479,3.945777889795591,15.330601704629258,19.507250955951903,-0.0835329942284569,1.9764647025470943,-0.25169701878757517,37.02764735605211,448.75891382745493,12.085077024649298,96049.69056226453,1.1412292330400802,1.2851464388296605,0.5375275386533079,-0.05863961737675277,0.7794313036773546,0.292909508767535,0.1366925680801603,0.699268685747495,0.32149549107615233,-1.1578910621503005,0.7462565680761523,0.3653055854749499,-0.05914399792985972,-0.5532998730521043,0.5956154501883768,398701405.1278557,327344060.3511022,449255.5611086172,17.705236663827655,-8.788847324292584,-15.353380994849699,-0.6877175448557113,4.191953945290582,0.0,0.0,0.0,764000.0,39.8714138,32.7364368,-142.38935099519037,-174.884161155511,-49.184631685971944,-8.729182397308618,-15.910660484228456,-1.0502691057535067,1.6929278714128249,-4.640607594232465,-5.361235973991985,49.354787440300605,-0.016429605903807584,0.3151394443466934,0.22351802322244488,0.5947293470360722,40219711.65531062,0.0,1.0,0.0,0.0,0.0
40239871.0,0.10388042288176352,0.10057930162124248,0.02072228064729459,0.6103835585170341,0.0,1510.0,1500.0,1618.517727511022,1451.2532346112225,1547.7467653887775,1553.1313006853707,17.570414227995993,17.95638717238477,12.08494898769539,16.87942504697395,16.809078244168337,17.17884506985972,16.958578893987976,17.331635388436872,178.11214399699398,178.11214399699398,12.082120650380762,-0.0016885594228456913,-0.00607589244488978,0.0012722796492985972,-0.2058210669258517,0.21000703708817636,-0.07566115751302604,2.0,-0.2985041898757515,0.7014958101242484,11.0,0.0,0.0,1.0,0.0,0.0,0.0,0.0,0.0,0.0,0.0,0.703560152727455,0.31942191809819637,-1.1911549126012024,-0.8290097706653307,24.25012839252505,232.28215003306613,54.05539171785571,-0.02152940828256513,-0.016656347278557113,0.01326971517234469,0.0,4.691119693148297,0.8594902357294589,-14.732698526713428,-5.32e+20,960.487332407014,12.084982041362725,0.5796426548256514,0.19310855313226452,0.10653298796392786,4.901659002623247,0.8271732429959919,-12.19876591242485,0.8303537466673346,0.3081870356152305,0.15647902748296594,-5.32e+20,54.77407176857716,50.911225197014026,4.1676282435711425,4.012882959052104,15.330661262885771,19.531499898356714,-0.08401678159318637,1.9325850588717435,-0.251835796248497,37.265747834188375,448.75122900781565,12.08494898769539,96049.78340797595,1.1412303372124248,1.1549491736713426,0.34052111517635264,-0.27154845953106216,0.8054049558496994,0.3050133010160321,0.14176906873947895,0.6960821516653307,0.32177083195591183,-1.1504053561262524,0.7488600099799599,0.3643950760120241,-0.05678684933867735,-0.5506216771082164,0.5959936900300602,398701387.3765531,327344019.4541082,449274.7526503006,17.7885828398998,-8.77678406183567,-15.455370505170341,-0.7875136155531063,4.19534180301002,0.0,0.0,0.0,764000.0,39.8714138,32.7364368,-142.58634640981964,-175.24127069899797,-49.21104467679359,-8.689608811442886,-16.013867033206413,-1.1697912354549098,2.0948806131002002,-4.605184196673346,-5.516819235959921,49.38120046048096,-0.032353848306613225,0.31476545655310617,0.22814263653907815,0.5951244590661323,40239870.69739479,0.0,1.0,0.0,0.0,0.0
40260029.0,0.11357178981963927,0.1064897791002004,0.021025035072144288,0.6155147262124249,0.0,1510.0,1500.0,1619.8283243727456,1457.0999140340682,1541.9000859659318,1554.783568723447,17.69567196677355,18.08443264973948,12.084804894789578,16.938933874028056,16.86879623551102,17.239910247074146,17.01821898032064,17.392621211683366,179.36513048016027,179.36513048016027,12.081850046513026,-0.0016874723907815631,-0.006075876136272545,0.0012713506853707416,-0.20583223331062125,0.20996499598196391,-0.07556224198597193,2.0,-0.2968730019799599,0.70312699802004,11.0,0.0,0.0,1.0,0.0,0.0,0.0,0.0,0.0,0.0,0.0,0.7004454546012024,0.3197238100480962,-1.183724185967936,-0.8275365285911823,23.88614212266533,232.02947491823647,54.053416963847695,-0.02159011146492986,-0.01673629023847695,0.01309720073747495,0.0,4.641647742378758,0.8592134352144289,-14.973278004308616,-5.32e+20,960.4867625462925,12.084831976993987,0.6186416406492986,0.21336701647294587,0.10967182096192385,4.929868152713428,0.8522700427735471,-12.516243782004008,0.8254324232044089,0.31838614626052103,0.16138983878757515,-5.32e+20,54.87959235460922,51.002865136292584,4.170105380769539,4.077132125943888,15.330727733046093,19.55184247715431,-0.08442230351503006,1.889153493753507,-0.25197662304008017,37.50607861164328,448.62683829158317,12.084804894789578,96051.23473064128,1.141247598002004,1.5852103834308615,0.7084345759639274,-0.30933189950501,0.8303556210080161,0.3138530859058116,0.14937355428056112,0.6928410855911824,0.32203004550901804,-1.1429222236332666,0.7514636518677356,0.3634481236793588,-0.05442757263527054,-0.5479315481142284,0.5963744491983968,398701369.6252505,327343978.55711424,449293.94419198396,17.87192901933868,-8.76472079971543,-15.55736001212425,-0.887309686250501,4.198729661066132,0.0,0.0,0.0,764000.0,39.8714138,32.7364368,-142.7729104048096,-175.58858089338673,-49.24283143883768,-8.630290986523045,-16.111173991162325,-1.2926308322024047,2.472750575661322,-4.5511576480440885,-5.589948145735471,49.412986777174346,-0.04822924782364728,0.313920446250501,0.2321224089579159,0.595441297236473,40260029.40280561,0.0,1.0,0.0,0.0,0.0
40281719.0,0.11008294978356714,0.10534745247494991,0.020646757641282567,0.6171685892184369,0.0,1510.1505838877756,1500.0,1620.0,1462.0557384028057,1536.9442615971943,1555.0,17.776434119498997,18.166864986252506,12.084637722765532,16.998442701082165,16.928514226853707,17.300975424288577,17.077859066653307,17.45360703492986,180.61811696332663,180.61811696332663,12.081579437194389,-0.0016863859038076152,-0.006075859827655311,0.0012704217214428858,-0.20584339969539078,0.2099229548757515,-0.07546332645891783,2.0,-0.29524181408416833,0.7047581859158316,11.0,0.0,0.0,1.0,0.0,0.0,0.0,0.0,0.0,0.0,0.0,0.6973307559298597,0.320025701997996,-1.1762934587895792,-0.8260632870621243,23.522155858256514,231.77679980340682,54.05144220438878,-0.02165382354509018,-0.01681998886973948,0.012930543296593187,0.0,4.592175791609218,0.858936635244489,-15.213857481903808,-5.32e+20,960.4861926855712,12.084681918076152,0.6564344727254507,0.22755317792985968,0.11974505084969939,4.960669512406814,0.8842471506873747,-12.832155863687374,0.8205110991963928,0.32858525690581164,0.16630065063727456,-5.32e+20,54.98511294064129,51.09450507557114,4.172582517967936,4.141381292835671,15.330794208657315,19.572185055951905,-0.08482782489178357,1.8457219291803608,-0.2521174503767535,37.7464093836473,448.6508723609218,12.084637722765532,96050.95280280562,1.1412442336693387,1.147081014721444,0.2813507822104219,0.10847458234869645,0.8384395100220442,0.3248742230360721,0.1528844507234469,0.6901945837174349,0.3222783823326653,-1.13462801548497,0.7541711715911824,0.3627268457675351,-0.052100454617234476,-0.5449028156412825,0.596800356006012,398701351.8194389,327343937.66012025,449313.13573366735,17.955275193326653,-8.75265753759519,-15.659349524529057,-0.9871057569478957,4.202117518577154,0.0,0.0,0.0,764000.0,39.8714138,32.7364368,-142.9594743997996,-175.9358910877755,-49.27461820088177,-8.570973161603206,-16.208480954569136,-1.4154704284048094,2.850620537677354,-4.4971310988697395,-5.663077056056112,49.44477309386773,-0.06250317021042082,0.3135284685731463,0.23613034945691386,0.5957920236633267,40281719.26653307,0.0,1.0,0.0,0.0,0.0
40303361.0,0.10316198451102204,0.104864292747495,0.020341255711422847,0.618318732004008,0.0,1510.2286439178356,1500.0,1620.0,1466.4373675851705,1532.5626324148295,1555.0539892144288,17.859308984028058,18.25150907753507,12.084459078557115,17.05795152813627,16.988232218196394,17.362040601503004,17.137499154709417,17.514592856452907,181.87110344649298,181.87110344649298,12.081308827054107,-0.0016852993266533065,-0.0060758435190380764,0.00126949275751503,-0.2058545660801603,0.20988091359719438,-0.07536441093186373,2.0,-0.29361062618837674,0.7063893738116231,11.0,0.0,0.0,1.0,0.0,0.0,0.0,0.0,0.0,0.0,0.0,0.6942160571763527,0.3203275941202405,-1.1688627317014029,-0.8245900454428858,23.158169592945892,231.52412470581163,54.04946744410822,-0.021717585541082163,-0.016903976310621245,0.012769110246492986,0.0,4.541350160683367,0.8593702741182365,-15.446251850040081,-5.32e+20,960.4852114036072,12.084523732204408,0.6942202115310621,0.241697042751503,0.1294388744669339,4.981554587476954,0.8979843447815632,-13.151918216733467,0.8148935358236472,0.3383102178396794,0.17122777240881765,-5.32e+20,55.09063352667335,51.1861450148497,4.175059654993988,4.205630459899799,15.330860683366733,19.592527634749498,-0.08523334635871743,1.802290364517034,-0.2522582777955912,37.98674015482966,448.72801494288575,12.084459078557115,96050.0616404008,1.1412336280941884,0.7326324406372745,0.026010110769539005,0.29101612481362726,0.8398697871102204,0.3364149662965932,0.15652892076953906,0.6870622991963928,0.3225173665350701,-1.1269729146753507,0.7567869793186371,0.3617950102625251,-0.04976612474549098,-0.5421181189799599,0.5972483125611223,398701334.0226453,327343896.76312625,449332.3272753507,18.038621368216432,-8.740594275302605,-15.761339036032064,-1.0869018276452906,4.205505376006013,0.0,0.0,0.0,764000.0,39.8714138,32.7364368,-143.14639173587173,-176.28531557234464,-49.307246227334666,-8.50928858342084,-16.305903918837675,-1.5388241726813627,3.2278829282244486,-4.443063959336674,-5.727981083809619,49.47740072322645,-0.07519233314228457,0.31316536470541084,0.2400725484248497,0.5961584526192385,40303361.248496994,0.0,1.0,0.0,0.0,0.0
40324268.0,0.09242582796392787,0.10892713373547094,0.020498810126252504,0.6195228066232464,0.0,1510.0553617234468,1500.0,1620.0,1469.6578339939879,1529.3421660060121,1555.2504848436874,17.965463931362727,18.360139321703407,12.084259335631263,17.11746035519038,17.047950209539078,17.423105778717435,17.197139247314627,17.575578673426854,183.1240899296593,183.1240899296593,12.081038216913827,-0.0016842122945891784,-0.006075827210420842,0.0012685637935871744,-0.20586573246492987,0.20983887186372746,-0.07526549540480962,2.0,-0.29197943829258516,0.7080205617074148,11.0,0.0,0.0,1.0,0.0,0.0,0.0,0.0,0.0,0.0,0.0,0.6911013584228457,0.32062948669739477,-1.1614320050681362,-0.8231168033687375,22.794183323086173,231.2714496537074,54.047492683827656,-0.021780282138276555,-0.016987231801603206,0.012619136829659318,0.0,4.486951443763527,0.8616791408857715,-15.657041336232464,-5.32e+20,960.4831441609218,12.084344092785571,0.7324671210801602,0.2581452573587174,0.13537224610821644,4.975233918166333,0.8608391745330661,-13.482466477054109,0.8074382245771543,0.3467836440701403,0.17619794457114227,-5.32e+20,55.19615411270541,51.27778495412826,4.177536791565131,4.269879627418838,15.330927153527053,19.612870213547094,-0.08563886828056112,1.7588587993987976,-0.2523991052144289,38.227070926012026,448.88628536873745,12.084259335631263,96048.25199232464,1.1412121151462926,0.7261976360961924,0.540297807663326,-0.32869839548096125,0.8304484256392786,0.34845933112024047,0.16215468366332664,0.6824112145390782,0.32273599170340683,-1.121327463517034,0.7591193800480961,0.3602176113226453,-0.047399963923847696,-0.5401122838837676,0.597736507254509,398701316.2713427,327343855.86613226,449351.518817034,18.12196754765531,-8.72853101255511,-15.863328542985972,-1.1866978983426852,4.20889323343487,0.0,0.0,0.0,764000.0,39.8714138,32.7364368,-143.3342417280561,-176.64032079959918,-49.34209480054108,-8.441356877440882,-16.403633069258518,-1.6635350289519037,3.6035416129018034,-4.3888896803527055,-5.771175246895791,49.51224902671343,-0.08433564962525049,0.3126982256913827,0.24383001306412824,0.5965528457915832,40324267.641282566,0.0,1.0,0.0,0.0,0.0
40348080.0,0.08022829292985975,0.11087116255911823,0.021087821438877753,0.6202441993386774,0.0,1510.426853707415,1500.0,1619.573146292585,1472.1425138857715,1526.8574861142285,1554.3258381122243,18.01795213715431,18.413904944769538,12.084040678817635,17.17696918224449,17.10766820088176,17.484170955931862,17.256779335651302,17.636564494669337,184.3770763701403,184.3770763701403,12.080767611042084,-0.0016831256893787576,-0.006075810901803607,0.001267635256513026,-0.20587689842284568,0.20979683055711423,-0.0751665798777555,2.0,-0.2903482503967936,0.7096517496032063,11.0,0.0,0.0,1.0,0.0,0.0,0.0,0.0,0.0,0.0,0.0,0.6879866596693387,0.3209313788476954,-1.154001278008016,-0.8216435612945893,22.430197053226454,231.01877455891784,54.04551792781563,-0.021840893128256513,-0.017066050148296593,0.012483945356713428,0.0,4.418893497418837,0.8711566464408818,-15.785239466292584,-5.32e+20,960.4769253390782,12.084082463306613,0.7679098706893787,0.276100885771543,0.13708583078356715,4.963447380302605,0.8720832832444889,-13.86306651036072,0.7929575518316633,0.35047269033867734,0.18133269359519036,-5.32e+20,55.30167469873747,51.369424893406816,4.180013928563126,4.334128794511022,15.330993623687375,19.633212796613225,-0.08604438977555111,1.7154272342805612,-0.2525399322064128,38.46740169719439,448.99150108016033,12.084040678817635,96047.04299144288,1.1411977588276554,0.4880724921883774,0.49500708902404866,-0.23016615778156402,0.8211003306192385,0.35569552614428857,0.1652881198977956,0.6781191710480962,0.3229520839218437,-1.1151587247154309,0.761519636004008,0.35877563129458917,-0.04504711453507015,-0.5378865960781564,0.5982565332825651,398701298.6054108,327343814.41422844,449374.8287286573,18.198773871563127,-8.702857785703406,-15.964787773847696,-1.2914430500781562,4.212879558116232,0.0,0.0,0.0,764000.0,39.8714138,32.7364368,-143.5256572292585,-177.01666008977955,-49.38543208110221,-8.349543591398799,-16.502532716573146,-1.7934338647555108,3.973069634256512,-4.334305825845692,-5.731376733677355,49.55558652416833,-0.09587558490981961,0.31220084579959917,0.24738123394388778,0.5968868942284569,40348080.05410822,0.0,1.0,0.0,0.0,0.0
40372824.0,0.0678831275490982,0.11174354312625251,0.021756079831663326,0.620675753486974,0.0,1511.054108216433,1500.0,1618.9184209338678,1474.2268124529057,1524.7731875470943,1552.945891783567,18.046729893086173,18.443425340300603,12.083810700881765,17.236478009298597,17.16738619222445,17.545236133146293,17.316419421983966,17.69755031791583,185.630062795992,185.630062795992,12.080497006633268,-0.0016820392304609218,-0.006075794593186372,0.001266706865731463,-0.20588806423446893,0.2097547893967936,-0.07506766429659319,2.0,-0.2887170624468938,0.7112829375531061,11.0,0.0,0.0,1.0,0.0,0.0,0.0,0.0,0.0,0.0,0.0,0.6848719609158316,0.32123327079759517,-1.1465705508016033,-0.8201703192745492,22.066210783907813,230.76609944408818,54.04354317326653,-0.02190055147294589,-0.01714279950501002,0.012356271531062125,0.0,4.344422767360721,0.8839997101122244,-15.874662311783567,-5.32e+20,960.4687574136273,12.083782340841685,0.8009523073126252,0.2935806785511022,0.13796462624248498,4.945362454763527,0.8990064444689378,-14.255687011563126,0.7751785873026051,0.3519155488316633,0.18654470869739478,-5.32e+20,55.40724295410821,51.461149728476954,4.182485835390781,4.398333629783568,15.331060261583167,19.65349756705411,-0.08644875147695391,1.6720080789358718,-0.2526808402144288,38.70786066913828,449.0576385178357,12.083810700881765,96046.27858569138,1.141188691549098,0.11930734306212432,0.2251152870721443,0.1804666613446893,0.8113402623386773,0.36070270006212424,0.1676092807194389,0.6739329935350701,0.3231647626272545,-1.1088231126012025,0.763940680983968,0.35736928441082166,-0.04269999174348697,-0.5355870808897796,0.5987912459358717,398701281.02825654,327343772.4745491,449401.75427975954,18.269838633366735,-8.665235904751503,-16.06578145739479,-1.4005331697875751,4.217391297757516,0.0,0.0,0.0,764000.0,39.8714138,32.7364368,-143.71874667294588,-177.4030153773547,-49.43275467028056,-8.246518295883767,-16.60198189240481,-1.9257683717014027,4.33971940986573,-4.27952968241483,-5.6526145226633275,49.6029095586974,-0.10857366964729459,0.3114005884789579,0.2504858335430862,0.5972201432004007,40372823.98396794,0.0,1.0,0.0,0.0,0.0
40392983.0,0.06124167965531063,0.11180134525651303,0.021118114324649297,0.6204375661322645,0.0,1511.681362725451,1500.0,1617.9727080561122,1475.7291365551102,1523.2708634448898,1552.318637274549,18.091239804048097,18.488970321563126,12.08355486258517,17.295986836352704,17.227104183567135,17.60630131036072,17.376059508316633,17.758536141162324,186.8830492791583,186.8830492791583,12.080226396492986,-0.0016809521983967939,-0.006075778284569139,0.001265777901803607,-0.20589923061923848,0.20971274766332665,-0.07496874814228456,2.0,-0.2870858739238477,0.7129141260761522,11.0,0.0,0.0,1.0,0.0,0.0,0.0,0.0,0.0,0.0,0.0,0.6817572621623246,0.321535162747495,-1.1391398241683366,-0.8186970778276553,21.70222452032064,230.51342432925853,54.041568412985974,-0.021960490659318637,-0.017219699026052103,0.012234717761523047,0.0,4.2699520378757505,0.8968427737835671,-15.964085157274548,-5.32e+20,960.4605894308617,12.083482218376753,0.8225144288256512,0.2985236968657315,0.15098604346092181,4.887743302170341,0.851369206238477,-14.526725554128255,0.7573996227735471,0.3533584073246493,0.1917567232264529,-5.32e+20,55.51331615136272,51.55377383008016,4.184902339032064,4.462068878274549,15.331128676232465,19.67316993068136,-0.08684083008016032,1.6287203752665331,-0.25282260851503,38.949677619519036,448.9736793727455,12.08355486258517,96047.2365475952,1.1412000586553106,-0.4810669404769533,0.3589261265751502,0.32517806519238457,0.7968519715611222,0.3660100215230461,0.17372079954108216,0.6690826821823648,0.3233538798617235,-1.1033222141262524,0.7662444883166332,0.35566694013627254,-0.04034733006613227,-0.5335988804268538,0.599323229266533,398701263.96693385,327343728.1276553,449446.49797474954,18.312608383507012,-8.568729805907816,-16.164480876452906,-1.5310357466953906,4.224492337539078,0.0,0.0,0.0,764000.0,39.8714138,32.7364368,-143.91183605931863,-177.7893707222445,-49.480077259458916,-8.143492999795592,-16.70143106250501,-2.0581028786472944,4.706369184901803,-4.224753539557114,-5.573852311649299,49.650232593226455,-0.12162105896593185,0.30754246329058116,0.2498852160240481,0.5978450210420841,40392983.31663327,0.0,1.0,0.0,0.0,0.0
40413142.0,0.05611433229458919,0.11080997038476954,0.021309833539078154,0.6199718229458917,0.0,1512.0,1500.0,1616.7231318837676,1477.5495854629257,1521.4504145370743,1551.3827655310622,18.193399525511023,18.593354425390782,12.083282726212426,17.355495663406813,17.28682217490982,17.66736648757515,17.435699594649297,17.819521964408818,188.13603576232467,188.13603576232467,12.079955789438879,-0.0016798651663326657,-0.006075761975951904,0.0012648489378757515,-0.205910397004008,0.20967070623847697,-0.07486983229659319,2.0,-0.28545468570941884,0.7145453142905812,11.0,0.0,0.0,1.0,0.0,0.0,0.0,0.0,0.0,0.0,0.0,0.6786425634088177,0.321837055006012,-1.131709097226453,-0.8172238360721443,21.338238253647297,230.26074921442887,54.039593655791585,-0.022019095384769538,-0.017296281597194388,0.012114741951903808,0.0,4.189852652214428,0.9037507323887776,-16.04047210028056,-5.32e+20,960.4532345619239,12.083176880280561,0.8365329053967936,0.3068779438737475,0.15734279712424848,4.824635304106213,0.8519101325731462,-14.760662194488978,0.7393950192344689,0.3541786604829659,0.1976522604288577,-5.32e+20,55.62576372032064,51.65775020679359,4.186619437014028,4.519876093046092,15.331219496492986,19.685111426412824,-0.08707784364529057,1.5870921067755512,-0.2529752296492986,39.20863758757515,448.9925840492986,12.083282726212426,96047.01590953908,1.1411974265751503,-0.6200987321082171,0.2790128660020046,0.29782318186172385,0.7807119378897796,0.36810493569739483,0.18025979767334668,0.6646297059519038,0.3235394069519038,-1.097317791511022,0.7686053416933867,0.35411684168136276,-0.03801991883366734,-0.5314001517795591,0.5998374195791583,398701246.8747495,327343683.8116233,449491.24170060124,18.35537813056112,-8.472223707064128,-16.26318029551102,-1.6615383232945888,4.231593377012024,0.0,0.0,0.0,764000.0,39.8714138,32.7364368,-144.10005126853707,-178.17158559659322,-49.52895374567134,-8.036411944276553,-16.798010184909817,-2.1862802682384768,5.049995776002003,-4.166805937056112,-5.482102747961924,49.699109355050105,-0.13375181405210418,0.303217662242485,0.2490066149258517,0.5983698075250501,40413142.34068136,0.0,1.0,0.0,0.0,0.0
