timestamp,control[0],control[1],control[2],control[3],control[4],output[2],output[3],output[4],output[5],output[6],output[7],indicated_airspeed_m_s,true_airspeed_m_s,air_temperature_celsius,indicated_airspeed_m_s.1,equivalent_airspeed_m_s,true_airspeed_m_s.1,equivalent_ground_minus_wind_m_s,true_ground_minus_wind_m_s,differential_pressure_raw_pa,differential_pressure_filtered_pa,temperature,gyro_bias[0],gyro_bias[1],gyro_bias[2],accel_bias[0],accel_bias[1],accel_bias[2],instance_count,seq_reached,seq_current,seq_total,item_changed_index,item_do_jump_remaining,valid,warning,finished,failure,stay_in_failsafe,flight_termination,item_do_jump_changed,execution_mode,nav_roll,nav_pitch,nav_bearing,target_bearing,xtrack_error,wp_dist,acceptance_radius,rollspeed_integ,pitchspeed_integ,yawspeed_integ,additional_integ1,x,y,z,temperature.1,pressure,temperature.2,gyro_rad[0],gyro_rad[1],gyro_rad[2],accelerometer_m_s2[0],accelerometer_m_s2[1],accelerometer_m_s2[2],x.1,y.1,z.1,temperature.3,altitude_sp,altitude_filtered,height_rate_setpoint,height_rate,airspeed_sp,airspeed_filtered,airspeed_derivative_sp,airspeed_derivative,throttle_integ,pitch_integ,baro_alt_meter,baro_temp_celcius,baro_pressure_pa,rho,xyz[0],xyz[1],xyz[2],xyz[0].1,xyz[1].1,xyz[2].1,roll_body,pitch_body,yaw_body,q_d[0],q_d[1],q_d[2],q_d[3],thrust_body[0],lat,lon,alt,vel_m_s,vel_n_m_s,vel_e_m_s,vel_d_m_s,cog_rad,ground_contact,maybe_landed,landed,ref_timestamp,ref_lat,ref_lon,x.2,y.2,z.2,vx,vy,vz,ax,ay,az,dist_bottom,roll,pitch,yaw,thrust_body[0].1,timestamp.1,isTakeoff,isClimbing,isDescending,isCruise,isLand
17004000.0,0.030550681,0.022802366,-0.0054211630000000005,0.15,0.0,900.0,900.0,900.0,900.0,900.0,900.0,-0.9104252,-0.92822003,12.404602,2.1199784,2.1199784,2.1614149,0.017836163000000002,0.018184783,-0.50768536,-0.50768536,12.404602,-0.001309919,-0.005995154,0.001351315,0.007448109,0.002061199,-0.13097872,2.0,-1.0,0.0,11.0,0.0,0.0,1.0,0.0,0.0,0.0,0.0,0.0,0.0,0.0,0.0,-0.21463214,-2.1518862000000003,-2.2198448,-4.628144,267.71826,54.35934399999999,-0.000595754,-0.005478074,0.0,-0.00315549,0.002074199,0.13180372,-9.8866625,-5.32e+20,966.1697,12.404602,-0.00105139,-0.00722827,-0.00456394,-0.18400937,0.1651815,-9.881439,-0.000446498,-0.007482907,0.005402242,-5.32e+20,-0.07487635,-0.086876355,0.40060008,-0.25882685,13.254067,18.128925,-0.09749716,18.815306,0.10999999,-19.249914,399.5596,12.404602,96616.97,1.1479694,-0.21554455,-0.12937921,-0.2580495,-0.0014571679999999998,0.005326035,-0.001247779,0.0,-0.19640963,1.5995768,0.6935009,0.07032019,-0.06832491,0.71375304,1.0,398714138.0,327364368.0,400129.0,0.0,-0.01,-0.01,0.0,4.116708,0.0,0.0,1.0,764000.0,39.8714138,32.7364368,0.005086632,0.002754522,-0.040557988,0.010028364,0.002099646,0.014033304,-0.028869266,0.030902022,-0.03529526,0.1,-0.0559025,-0.33916706,-0.0072464919999999985,1.0,17004000.0,1.0,0.0,0.0,0.0,0.0
17049348.0,0.028417875080160318,0.02281892460721443,-0.005202804837675351,0.15,0.0,900.0,900.0,900.0,900.0,900.0,900.0,-0.10350774738877744,-0.10552932148096184,12.404602,2.8923202402885773,2.8922834543026053,2.9488032572645295,0.8947060396833667,0.9121816390581162,10.070899289791583,10.070899289791583,12.404597805771543,-0.0012969261843687374,-0.006006924571142285,0.0014122898476953906,0.007396997022044088,0.002184089607214429,-0.1309627629198397,2.0,-1.0,0.0,11.0,0.0,0.0,1.0,0.0,0.0,0.0,0.0,0.0,0.0,0.0,0.0,-0.20021711815430865,-2.1434072072204406,-2.2175931670501003,-5.263512096256513,268.49853830861724,55.36639748677354,-0.0008545303186372746,-0.00608394854509018,0.0,-0.003686467983967936,-0.04538146320440882,0.16042870108416835,-9.893214197486973,-5.32e+20,966.1649329891784,12.404602,0.0027739195791583173,-0.005689554809619238,-0.0005202570480961924,-0.10717782644088177,0.1933741758456914,-9.983168695448898,-0.0025063878076152304,-0.00960703640480962,-0.0009370471202404805,-5.32e+20,-0.0820218794749499,-0.0940218844749499,0.40060008,-0.2651074472264529,13.254053635370742,19.143244653066134,-0.11778381806613226,18.058406436593188,0.10999999,-20.036959927815634,399.63555314428856,12.404602,96616.06413496994,1.1479586567234468,-0.24703958471943888,-0.10985250498396794,0.017587243062124266,0.0016000150240480964,0.004591156521042084,-0.0019480899659318634,0.0,-0.18015263957314628,1.5995768,0.6940294596573147,0.06451583456112224,-0.06268524823246492,0.7142970473567134,1.0,398714138.0,327364368.0,400126.3007695391,0.0,-0.005501240679358718,-0.01,0.006748139194388777,4.400943740056112,0.0,0.0,0.9539314679258517,764000.0,39.8714138,32.7364368,0.0049460327134268536,0.0027074903186372744,-0.038985921699398796,0.010168367603206413,0.0015310012545090182,0.014845011717434872,-0.05150683057314629,0.0342987938236473,4.178920040080053e-05,0.1,-0.0761287316012024,-0.31014193018236474,-0.0072464919999999985,1.0,17049348.174348697,1.0,0.0,0.0,0.0,0.0
17090697.0,0.03194547635871743,0.022985971076152308,-0.005329682829659319,0.15,0.0,900.0,900.0,900.0,900.0,900.0,900.0,-0.649585080711423,-0.6622803065470942,12.404602,3.664662080577154,3.6645885081783565,3.736191614955912,1.7715759159398798,1.8061784955430862,20.649483941022044,20.649483941022044,12.40459361727455,-0.0012839337955911822,-0.006018694715430862,0.0014732651222444891,0.007345884617234469,0.0023069797875751503,-0.13094680626653304,2.0,-1.0,0.0,11.0,0.0,0.0,1.0,0.0,0.0,0.0,0.0,0.0,0.0,0.0,0.0,-0.18580209588176352,-2.1349282148677355,-2.215341533527054,-5.898880192513026,269.27881661723444,56.373450973547094,-0.0011474465871743487,-0.006636369995991983,0.0,-0.004047382977955912,-0.09147116419038076,0.1868948660501002,-9.898490453615231,-5.107935871743487e+20,966.1606100521043,12.404602,-0.0052067608657314635,-0.007447725442885772,-0.0010250098777555114,-0.15063811548296593,0.1949554636292585,-9.933227963581162,-0.004523609166332665,-0.011408288004008017,-0.00638233878757515,-5.107935871743487e+20,-0.0891674089498998,-0.1011674139498998,0.40060008,-0.2713880450260521,13.25404027501002,20.157564300400804,-0.1380704757054108,17.301506873186373,0.10999999,-20.8240058498998,399.5955415639279,12.404602,96616.529522505,1.1479641863507013,-0.2192193114529059,0.22677887472344682,-0.003919660136272596,-0.0028807224348697397,0.0047180737074148296,-0.0021630484228456915,0.0,-0.1646045661703407,1.5995768,0.6944958310801603,0.058960971134268535,-0.057288003462925854,0.7147770558737475,1.0,398714138.0,327364368.0,400123.60148176353,0.0,-0.0010024809318637277,-0.01,0.013496278388777554,4.685179479539078,0.0,0.0,0.9078629354248496,764000.0,39.8714138,32.7364368,0.00479589856513026,0.0026406878096192385,-0.03749356170741483,0.010273821947895792,0.000918493623246493,0.01562364216232465,-0.071044786753507,0.033198518841683365,0.03494525824248497,0.1,-0.09698131199799599,-0.2747058271402806,-0.0072464919999999985,1.0,17090696.775551103,1.0,0.0,0.0,0.0,0.0
17132046.0,0.030282398126252504,0.0227898189498998,-0.005299667054108216,0.15,0.0,900.0,900.0,900.0,900.0,900.0,900.0,-0.5016812584408817,-0.5114827807815632,12.404602,4.437003920865732,4.436893561907816,4.523579972793588,2.6484457920501003,2.700175352174349,31.228068587935873,31.228068587935873,12.40458942731463,-0.0012709406933867735,-0.006030464713426854,0.0015342405430861723,0.007294772066132264,0.0024298698216432867,-0.1309308488997996,2.0,-1.0,0.0,11.0,0.0,0.0,1.0,0.0,0.0,0.0,0.0,0.0,0.0,0.0,0.0,-0.1713870743226453,-2.1264492218016033,-2.2130899001503006,-6.53424828790982,270.0590948398797,57.38050446032064,-0.001442143759519038,-0.00709306851503006,0.0,-0.004183704096192384,-0.1273014801442886,0.19714672263727456,-9.894187192803608,-3.325130260521042e+20,966.1596226180361,12.404602,-0.0008047373126252506,-0.00603853327254509,0.0051697055731462944,-0.1531173925330661,0.18682695887975953,-9.88294562206012,-0.006220361478957916,-0.010784491919839679,-0.005113046567134268,-3.325130260521042e+20,-0.0963129384248497,-0.10831294342484969,0.40060008,-0.27766864267935876,13.254026916112224,21.1718839491984,-0.15835713405811624,16.54460730977956,0.10999999,-21.611051773446896,399.5653191527054,12.404602,96616.87563256513,1.1479682419058115,-0.6313994429098196,0.21358481929859718,0.17116304425851703,5.4997262525050515e-05,0.006642823188376754,-0.002974557122244489,0.0,-0.1497071377815631,1.5995768,0.6949051938557114,0.05363535752304609,-0.052113498156312624,0.7151983711002003,1.0,398714138.0,327364368.0,400120.90220861725,0.0,0.0034962781022044092,-0.01,0.020244417583166332,4.9694152191683365,0.0,0.0,0.8617944027775551,764000.0,39.8714138,32.7364368,0.004574149645290581,0.0024253843446893786,-0.03659985767334669,0.010119789268537075,-2.34554128256514e-05,0.01615384387975952,-0.06730237642885771,-0.0016779250541082216,0.06659221428857716,0.1,-0.11613551170140281,-0.2403405889258517,-0.0072464919999999985,1.0,17132045.52304609,1.0,0.0,0.0,0.0,0.0
17178570.0,0.02771782416232465,0.02306945441482966,-0.005817578895791583,0.15,0.0,900.0,900.0,900.0,900.0,900.0,900.0,0.1687875518236475,0.1720863432745493,12.404602,5.209345761154309,5.209198616210421,5.310968330058116,3.5253156687334672,3.594172208232465,41.806653242044085,41.806653242044085,12.404585233086172,-0.00125794773747495,-0.006042235284569138,0.0015952153907815632,0.007243660088176353,0.0025527604288577152,-0.13091489253306612,2.0,-1.0,0.0,11.0,0.0,0.0,1.0,0.0,0.0,0.0,0.0,0.0,0.0,0.0,0.0,-0.1569720526172345,-2.117970229735471,-2.2108382672004008,-7.1696163840260505,270.83937313446893,58.38755794709419,-0.001723856631262525,-0.007482147541082164,0.0,-0.004101902775551103,-0.15580686678957914,0.19897248503006013,-9.888790820961923,-1.0973867735470943e+20,966.160409824449,12.404602,-0.00016687890781563004,-0.0016526905290581173,0.002382669414829659,-0.19411208013026054,0.17504245963326653,-9.973513271238476,-0.007703192386773547,-0.009019594769539079,-0.0013625364048096193,-1.0973867735470943e+20,-0.1033578758016032,-0.1153578808016032,0.4006000821943888,-0.28332717808617236,13.254013558797595,22.167685883907815,-0.17827343780961924,15.787603615310621,0.10999999,-22.425286102144288,399.62524048877754,12.404602,96616.19242613226,1.1479601650681364,0.2047574510741484,0.1473168783987977,-0.12373429434068137,0.004556208378757516,0.005731323577154309,4.510732464929891e-05,0.0,-0.13537704771342685,1.5995768,0.695260328014028,0.04850957313827655,-0.047133152569138276,0.7155638625611223,1.0,398714138.0,327364368.0877755,400118.33203747496,0.023445149891783534,0.007851642729458916,0.013445149891783534,0.026562370557114228,5.217250118971944,0.0,0.0,0.8157258707034069,764000.0,39.8714138,32.7364368,0.004294099583166332,0.0034430274849699388,-0.035942964456913834,0.008419746541082166,0.05019121953106206,0.017531499897795587,-0.08353319207414826,0.9992600622164315,0.1124072086312625,0.1,-0.13326001189178358,-0.21927774409018036,-0.0072464919999999985,1.0,17178569.633266535,1.0,0.0,0.0,0.0,0.0
17222742.0,0.028606514631262524,0.023173318815631262,-0.004858111380761524,0.13427084234068137,0.0,900.0,900.0,900.0,900.0,900.0,900.0,0.08551029529058041,0.08717862260921772,12.404602,5.981687601442886,5.981503669945892,6.098356687889779,4.402185544849699,4.488169064857715,52.385237893226446,52.385237893226446,12.404581038857716,-0.0012449554889779558,-0.006054005288577155,0.0016561908056112224,0.007192547543086173,0.002675650468937876,-0.13089893516633266,2.0,-1.0,0.0,11.0,0.0,0.0,1.0,0.0,0.0,0.0,0.0,0.0,0.0,0.0,0.0,-0.14255703020440882,-2.1094912371022043,-2.208586633817635,-7.804984480282565,271.6196514430862,59.39461143386774,-0.001996283997995992,-0.007863552246492987,0.0,-0.0038716961943887776,-0.14588562070541083,0.17943348475350704,-9.919316930276553,-1.5535791583166326e+20,966.1661077947896,12.404602,-0.003930730394789582,-0.0033512935711422793,0.004240173523046092,-0.15548999781362727,0.1795336128677355,-9.950411567539078,-0.008171706306613227,-0.005547819651302607,-0.0013616429699398786,-1.5535791583166326e+20,-0.10898426959318637,-0.12098427502605211,0.4006001144789579,-0.28021343708416835,13.25400032044088,22.902352155731464,-0.19296702647895791,15.029131468977956,0.10999999,-23.622929513887776,399.5522047216433,12.404602,96617.03588821643,1.1479702086112225,-0.13936203719038076,-0.467535749048096,-0.0029929076352706863,0.0013463072765531083,0.0027161226312625276,-0.0017683851002004004,0.0,-0.12149149364128256,1.5995768,0.6955700125190382,0.043540391823647294,-0.04230496733466934,0.7158825788336673,1.0,398714138.0,327364369.5955912,400117.7481761523,0.4077358673747492,0.01,0.3977358673747492,0.026259304028056114,4.904837723388778,0.0,0.0,0.7696573380621242,764000.0,39.8714138,32.7364368,0.003656211266533067,0.020635200458917827,-0.03514658169138277,-0.011254999106212412,0.7413243405250497,0.030784104110220437,-0.46982714427454886,15.117745563603197,0.3521098713687373,0.1,-0.14811767549098198,-0.19190666734468936,-0.0072464919999999985,1.0,17222742.438877754,1.0,0.0,0.0,0.0,0.0
17264090.0,0.02310913231062124,0.023027135873747495,2.036134669338753e-05,0.7513282216833669,0.0,1022.7347761122244,1022.5305583507014,1124.6393563767535,1020.2841644128257,1024.5727345270543,1024.7769515691382,1.520928427,1.5506439727915833,12.404602,6.754029441731463,6.753808723815632,6.885745044867736,5.279055421100201,5.382165921348698,62.96382254306613,62.96382254306613,12.404576851823649,-0.001231962386773547,-0.006065775426853707,0.001717165366733467,0.00714143513226453,0.0027985413627254507,-0.13088297851903807,2.0,-1.0,0.0,11.0,0.0,0.0,1.0,0.0,0.0,0.0,0.0,0.0,0.0,0.0,0.0,-0.12814200864529057,-2.1010122446032065,-2.206335000300601,-8.440352576539079,272.3999297517034,60.40166492064128,-0.002263025250501002,-0.008238019166332666,0.0,-0.0036047928356713428,-0.10745374324649298,0.14404290410420842,-9.976495716651304,-3.989739478957916e+20,966.1754494018036,12.404602,-0.001786138875751503,-0.007206493152304609,0.00014984857715430802,-0.1986868856012024,0.15504380141282564,-9.923216299957915,-0.007887648967935873,-0.0008096275010020032,-0.004142777244488978,-3.989739478957916e+20,-0.11335933563126252,-0.1253593423507014,0.4006001730941884,-0.2693614802204409,13.253987184529059,23.406664988877754,-0.2030535463747495,14.269363959579158,0.10999999,-25.158786415470942,399.5066097947896,12.404602,96617.54695659319,1.1479763300641281,0.13354479116032078,-0.16468241308216425,-0.26430637495991993,0.000868407082164329,0.003296427583166334,-0.004342206821643287,0.0,-0.10795764482164329,1.5995768,0.6958408557715431,0.03869513489178357,-0.03759719231262525,0.7161613533527055,1.0,398714138.0,327364372.5547094,400119.09779138275,1.1432830415691384,0.01,1.1332830415691384,0.019511164833667334,4.047066048266533,0.0,0.0,0.7235888062745491,764000.0,39.8714138,32.7364368,0.0027528259198396797,0.04982806163126253,-0.0342467055490982,-0.04426607244689379,1.9079867570300602,0.052847323132264534,-1.130689358448898,38.96879247304609,0.7356674455230461,0.1,-0.16158693891783565,-0.1717629589799599,-0.0072464919999999985,1.0,17264090.326653305,1.0,0.0,0.0,0.0,0.0
17305439.0,0.020524231543086174,0.023043404727454912,0.0022488403166332654,1.0,0.0,1500.006012024048,1500.0,2000.0,1489.0120240480962,1509.9879759519038,1511.0,0.9617065168296578,0.9804965914989964,12.404602,7.5263712820200395,7.526113778118236,7.67313340284569,6.155925297783567,6.276162777406814,73.54240718857714,73.54240718857714,12.4045726604008,-0.0012189702845691382,-0.006077545997995992,0.0017781409278557114,0.007090323154308617,0.0029214312565130256,-0.13086702143286572,2.0,-1.0,0.0,11.0,0.0,0.0,1.0,0.0,0.0,0.0,0.0,0.0,0.0,0.0,0.0,-0.11372698608617236,-2.0925332515430863,-2.2040833673507016,-9.07572067279559,273.18020805971946,61.408718407414824,-0.0025265410420841684,-0.008572436633266534,0.0,-0.0034395935490981965,9.949979830284551,0.1254816534729459,-9.989711004647294,-5.32e+20,966.184551088978,12.404602,-0.0035489503887775617,-0.008707370723446893,0.003591583999999999,25.14907338400799,0.13152740413627245,-9.930017805723447,-0.0070982180200400815,0.00016183507214429134,-0.005234246016032065,-5.32e+20,-0.11773440123647294,-0.12973440924248494,0.4006002322765532,-0.2585095239238477,13.253974048617234,23.910977812024047,-0.21314006527054108,13.50959645456914,0.10999999,-26.694643321442886,399.64059724148296,12.404602,96616.04319631262,1.1479583446893789,-0.21165806338476983,-0.23388122004208464,0.3644858039839679,0.002818731002004009,0.0034616296212424853,-0.0035659481763527087,0.0,-0.09471043230260522,1.5995768,0.6960763134809619,0.03395083674148297,-0.03298750700601203,0.7164036536773547,1.0,398714138.0,327364375.51322645,400120.4474066132,1.8788302153246488,0.01,1.8688302153246488,0.012763025639278563,3.189294373144289,0.0,0.0,0.6775202734869741,764000.0,39.8714138,32.7364368,-0.0008241056953907763,0.17465279136072126,-0.03159835008216433,-0.09079484771943884,3.5380451290080144,0.08311600388376751,-1.4281530603106212,49.54920276144289,0.9255386694068136,0.1,-0.173732254511022,-0.14229381538276553,-0.0072464919999999985,1.0,17305439.214428857,1.0,0.0,0.0,0.0,0.0
17346787.0,0.020061356933867736,0.023336026531062124,0.003712094789579158,1.0,0.0,1501.1418151543087,1500.0,2000.0,1490.7074148296592,1508.2925851703408,1511.0,3.0933159122925846,3.153752055671342,12.404602,8.298713122308618,8.298418831713427,8.460521760116233,7.032795173759519,7.170159634172344,84.12099184408817,84.12099184408817,12.404568466172345,-0.0012059771823647294,-0.0060893158617234475,0.0018391157815631262,0.007039210468937877,0.003044321857715431,-0.13085106435871743,2.0,-1.0,0.0,11.0,0.0,0.0,1.0,0.0,0.0,0.0,0.0,0.0,0.0,0.0,0.0,-0.09931196452705411,-2.0840542594709417,-2.201831734400802,-9.711088767589178,273.96048626893787,62.415771894188374,-0.0027870943086172346,-0.008896249314629259,0.0,-0.0034608370400801606,32.00552566084168,0.12707412868336673,-9.950278433460921,-5.32e+20,966.1933655302605,12.404602,0.001196740100200403,-0.008014558482965933,0.004054617278557115,51.51426316016032,0.19062888491382768,-9.836640223006013,-0.005703584308617235,-0.0033774951963927843,-0.004302279446893788,-5.32e+20,-0.1221094675490982,-0.13410947684168337,0.40060029116633267,-0.24765756733466934,13.253960912705411,24.41529064517034,-0.2232265848737475,12.749828952364728,0.10999999,-28.23050022729459,399.555162108016,12.404602,96616.99407206413,1.1479697451422846,0.06023905302805614,0.16857813254308623,0.42631825406012025,0.0014563944008016032,0.004379679204408816,-0.001419324709418836,0.0,-0.08172893053907818,1.5995768,0.6962741951523046,0.029300089114228458,-0.028468722152304612,0.716607360763527,1.0,398714138.0,327364378.3729459,400121.79702184367,2.614377388799599,0.01,2.604377388799599,0.006014886444889782,2.3315226980220443,0.0,0.0,0.6314517414068137,764000.0,39.8714138,32.7364368,-0.007602704509018034,0.41400009855511016,-0.026856127665330663,-0.15351155397194388,5.723036704723446,0.12321101901002002,-1.2904340687835671,44.23755187022044,0.8834635741723448,0.1,-0.18749298428657316,-0.1322881542925852,-0.0072464919999999985,1.0,17346787.39478958,1.0,0.0,0.0,0.0,0.0
17388136.0,0.02121882079759519,0.02309157464529058,0.00531326283967936,1.0,0.0,1502.3622973346694,1500.0,2000.0,1489.4208416833667,1509.5791583166333,1511.0,5.198762256294589,5.300313345611223,12.404602,9.071054962597195,9.070723885723448,9.247910117801604,7.909665050150301,8.064156490523045,94.69957649380761,94.69957649380761,12.404564271943888,-0.0011929840801603207,-0.006101086140280561,0.0019000910501002005,0.006988098198396794,0.0031672120440881762,-0.1308351076993988,2.0,-1.0,0.0,11.0,0.0,0.0,1.0,0.0,0.0,0.0,0.0,0.0,0.0,0.0,0.0,-0.08489694296793587,-2.07557526640481,-2.1995801008717435,-10.346456862625251,274.7407645775551,63.422825380961925,-0.003049283637274549,-0.009298925308617235,0.0,-0.0036183696633266533,44.70672246032064,0.14622075115631264,-9.91483350090581,-5.32e+20,966.1932271106213,12.404602,-0.0049658067615230474,-0.008220860693386773,0.0027367107054108216,47.08815644687375,0.197393734737475,-9.855970364276553,-0.005186882789579158,-0.005543845124248497,-0.0026149033647294585,-5.32e+20,-0.1218437789759519,-0.1338437883967936,0.40060031605010016,-0.19030199426052102,13.253953244048096,24.83509543038076,-0.23162283341082163,12.005260238156312,0.10999999,-29.887081475450902,399.50289769238475,12.404602,96617.59923699399,1.1479768750240482,-0.12058881458316638,-0.2078768633486975,0.36800635001603205,0.0024910585250501006,0.007364053020040081,-0.002100543104208416,0.0,-0.06892705155511022,1.5995768,0.6964418458096192,0.024712547841683367,-0.024011348480961925,0.7167798796633267,1.0,398714138.0,327364391.06192386,400122.9195490982,3.6218474439719444,0.009432311334669338,3.612415132637275,0.0009698132464929855,1.6904001514749498,0.0,0.0,0.5853832089118236,764000.0,39.8714138,32.7364368,-0.015742434827655312,0.7090692142785572,-0.02111455714829659,-0.20985676393386776,7.696534628655311,0.1597292988997996,-1.1582341380561123,39.43237900416833,0.8155238866432866,0.1,-0.19949875202004008,-0.1247125944529058,-0.0072464919999999985,1.0,17388135.98997996,1.0,0.0,0.0,0.0,0.0
17429485.0,0.02000883478957916,0.022908320012024048,0.0042593300861723474,1.0,0.0,1502.1342685370741,1500.0,2000.0,1489.2911169218437,1509.7088830781563,1511.0,7.137715765845691,7.27717332714629,12.404602,9.843396802885772,9.843028939891783,10.035298472182363,8.786534926699398,8.958153346715429,105.27816111048095,105.27816111048095,12.404560086372745,-0.0011799918436873748,-0.0061128565771543086,0.001961066476953908,0.0069369860861723445,0.003290102072144289,-0.13081915033266533,2.0,-1.0,0.0,11.0,0.0,0.0,1.0,0.0,0.0,0.0,0.0,0.0,0.0,0.0,0.0,-0.07048192054308619,-2.067096274204409,-2.197328467501002,-10.981824964028055,275.5210428861723,64.42987886773547,-0.003310373925851703,-0.009831886466933866,0.0,-0.0038453931182364726,41.86639136917836,0.19453223358116228,-9.88601372088978,-5.32e+20,966.1782142845692,12.404602,-0.0008482078396793652,-0.006850179847695394,-0.0022808883607214384,42.14271107693387,0.19524476550300607,-9.890554136997997,-0.006128797839679358,-0.00542909472745491,0.0003275270561122223,-5.32e+20,-0.11198439379358718,-0.12398440106212426,0.4006002711763527,-0.03681084968737487,13.253956885050101,25.080199191623244,-0.23652483573146293,11.292111535831664,0.10999999,-31.793232655651302,399.56633764749495,12.404602,96616.85529422846,1.1479680417975953,0.09074441782164297,-0.2202792482625252,-0.1577351538396788,0.0023942680641282576,0.00868881138076152,-0.0014911295490981952,0.0,-0.05627394343887777,1.5995768,0.6965810116012023,0.020177370022044092,-0.019604853406813633,0.7169231098236473,1.0,398714138.0,327364427.1496994,400123.4987462926,5.280000669899799,0.0075062023967935885,5.272494466637274,0.0,1.5676964347935873,0.0,0.0,0.539314676258517,764000.0,39.8714138,32.7364368,-0.02614357871943887,1.0967158079819637,-0.013712647108216439,-0.25561622401002004,9.31865219683567,0.19030511071142284,-1.035203699743487,35.46868023286574,0.7046121784589179,0.1,-0.20956093829659317,-0.11866271175150302,-0.0072464919999999985,1.0,17429484.743486974,1.0,0.0,0.0,0.0,0.0
17475442.0,0.0193182516492986,0.02300027961723447,0.0031270208136272544,1.0,0.0,1501.8476953907816,1500.0,2000.0,1489.6953907815632,1509.3046092184368,1511.0,8.765506166082163,8.936709193222447,12.404602,10.615738644869738,10.615333990480963,10.822686833366733,9.663404803278558,9.852150204248495,115.85674580300602,115.85674580300602,12.404555893486974,-0.001166998875751503,-0.00612462728256513,0.0020220413246492984,0.006885873394789579,0.0034129926793587174,-0.13080319396593187,2.0,-1.0,0.0,11.0,0.0,0.0,1.0,0.0,0.0,0.0,0.0,0.0,0.0,0.0,0.0,-0.05632579003206413,-2.0584961991082165,-2.1950846336132264,-11.619099682204409,276.30412414789583,65.34703169559118,-0.0035652623466933867,-0.010466620448897795,0.0,-0.00410238902004008,37.16599328937876,0.2421074025731463,-9.861830518717435,-5.32e+20,966.1641814753507,12.404602,-0.0014517064488977945,0.005308560641282567,-0.0009552463807615221,37.587123172625255,0.22578476658316637,-9.802710890428859,-0.006714850300601203,-0.004978157006012024,0.003129172671342686,-5.32e+20,-0.1002169104729459,-0.11221691532064129,0.400600211993988,0.13580078294388773,13.253962776032065,25.29055651278557,-0.24073186430460922,10.58521198741483,0.10999999,-33.74902102821643,399.56576383567136,12.404602,96616.86824044089,1.147968272713427,0.0219351854388778,-0.2603576097575152,-0.3977642758597195,0.0008060472625250493,0.011420132723446896,-0.00333057185571142,0.0,-0.043741414252505016,1.5995768,0.6966899813507014,0.015684571310621242,-0.015239533995991985,0.7170353003046093,1.0,398714138.0,327364468.7346693,400123.9486456914,7.093000736889779,0.005256823236472947,7.0877439136533065,0.0,1.5683638483206412,0.0,0.0,0.49324614433667335,764000.0,39.8714138,32.7364368,-0.037221537194388775,1.5172414069478957,-0.005708961054108219,-0.29894921116032064,10.869555513126253,0.219366177252505,-0.9119345666072145,31.697668499398798,0.5876484532024049,0.1,-0.21964802059519037,-0.12452891362124249,-0.0072464919999999985,1.0,17475441.983967938,1.0,0.0,0.0,0.0,0.0
17523692.0,0.020490122645290584,0.02258930718236473,0.0033265850881763533,1.0,0.0,1501.0,1500.0,2000.0,1488.0,1511.0,1511.0,10.289931848677355,10.49093290961924,12.404602,11.38808048258517,11.38763904507014,11.610075191102204,10.540274681883767,10.746147062064129,126.43533043807616,126.43533043807616,12.404551699258517,-0.0011540062124248496,-0.0061363972925851705,0.002083016733466934,0.0068347612645290575,0.0035358827254509018,-0.1307872365991984,2.0,-1.0,0.0,11.0,0.0,0.0,1.0,0.0,0.0,0.0,0.0,0.0,0.0,0.0,0.0,-0.044200864476953906,-2.048946138947896,-2.192901989468938,-12.271333393967936,277.1091968462926,65.55884318781563,-0.003813129482965932,-0.011140382573146293,0.0,-0.004353334294589179,33.52695277945892,0.2557798283006012,-9.866212792975952,-5.32e+20,966.1720028312625,12.404602,-0.0061759612765531074,-0.0019646767775551113,-0.0018282334488977942,33.8066331447495,0.15948623879559118,-9.854041708346694,-0.0031967367615230446,-0.004206036665330661,0.0036482286192384772,-5.32e+20,-0.08844942659118236,-0.10044942971342685,0.400600153250501,0.30841241657515034,13.25396866006012,25.500913829559117,-0.2449388928777555,9.878312438997996,0.10999999,-35.70480939078157,399.490899651503,12.404602,96617.76200657315,1.1479788613847697,-0.017036219336673278,0.2622323679338678,-0.030670225152304498,0.0024126588937875746,0.006740508198396795,-0.0062697909418837645,0.0,-0.031293139949899795,1.5995768,0.6967704821062125,0.011221356727454907,-0.010902959134268536,0.7171181313507013,1.0,398714138.0,327364510.3757515,400124.3984755511,8.906000803440882,0.003007443076152304,8.902993360364729,0.0,1.5690312611523047,0.0,0.0,0.44717761211022045,764000.0,39.8714138,32.7364368,-0.0512113881242485,2.0960176281583167,0.005224260420841686,-0.33425115826452906,12.224311717034068,0.24276676924448898,-0.7779520023827654,28.56357227567134,0.4667570418296593,0.1,-0.22862094950901804,-0.11650610962725451,-0.0072464919999999985,1.0,17523692.114228457,1.0,0.0,0.0,0.0,0.0
17569530.0,0.019776787270541083,0.021606102825651303,0.002840757789579157,1.0,0.0,1501.0,1500.0,2000.0,1489.4509018036072,1509.5490981963928,1510.2745490981963,11.690119461422846,11.918447724729461,12.404602,12.1604223203006,12.15994409965932,12.397463547615232,11.417144553707415,11.640143918657316,137.01391508537074,137.01391508537074,12.404547505030061,-0.0011410136713426854,-0.006148167424849699,0.002143991294589178,0.006783649012024048,0.003658773619238477,-0.13077127995791585,2.0,-1.0,0.0,11.0,0.0,0.0,1.0,0.0,0.0,0.0,0.0,0.0,0.0,0.0,0.0,-0.032275167683366725,-2.0393029008356716,-2.190725347008016,-12.925034346553108,277.9164266026052,65.70147195346694,-0.0040557433547094195,-0.011794921274549099,0.0,-0.00459053297995992,29.98530346498998,0.26006760878156315,-9.868791696951904,-5.32e+20,966.1789597939879,12.404602,-0.005182683084168333,-0.0065325174629258555,0.003105505108216436,30.133485004749495,0.20192579202605215,-9.88775899158517,9.794959919839918e-05,-0.0035512317154308614,0.004148304843687375,-5.32e+20,-0.07668194355711422,-0.08868194410621241,0.40060009462925855,0.481024049480962,13.253974552565131,25.711271145110217,-0.2491459221763527,9.171412891306613,0.10999999,-37.660597760601206,399.48040571282564,12.404602,96617.86184637275,1.147980005,0.3622532808476957,0.014782959168336274,-0.08890612043887808,0.0011439923086172341,0.006525990687374747,-0.0001414717595190385,0.0,-0.018893292859719434,1.5995768,0.6968252064589179,0.00677509377354709,-0.006582855767535067,0.7171744689659318,1.0,398714138.0,327364552.0046092,400124.8483901803,10.719000872046093,0.0007580636412825635,10.718242805503007,0.0,1.5696986748316635,0.0,0.0,0.401109079761523,764000.0,39.8714138,32.7364368,-0.06531221955110221,2.68489702635471,0.01630616456112225,-0.36695113882965935,13.542900225290582,0.26496072538076154,-0.6223156876292583,25.571368847334668,0.33827993573747484,0.1,-0.23464774136072145,-0.11022019946693387,-0.0072464919999999985,1.0,17569529.541082166,1.0,0.0,0.0,0.0,0.0
17614927.0,0.016860304378757515,0.019891521601202406,0.0026138377875751513,1.0,0.0,1500.9879759519038,1500.0,2000.0,1491.0,1508.0,1509.0,13.00536244765531,13.25938874579158,12.404602,12.932764168016032,12.932249154248495,13.184851909619237,12.29401443553106,12.534140770861722,147.59249977655304,147.59249977655304,12.404543320801602,-0.0011280205691382764,-0.006159937995991985,0.002204966855711423,0.0067325373086172344,0.003781663513026052,-0.13075532286573144,2.0,-1.0,0.0,11.0,0.0,0.0,1.0,0.0,0.0,0.0,0.0,0.0,0.0,0.0,0.0,-0.020349470889779578,-2.029659662272545,-2.18854870453507,-13.578735294629258,278.72365630400805,65.84410072911822,-0.004291247150300601,-0.012394374551102203,0.0,-0.004808277759519038,27.01176772689379,0.19502892664729474,-9.850566310434871,-5.32e+20,966.1742041745491,12.404602,-0.0062482294829659495,-0.001969744150300598,0.0017845583927855616,26.686506569699404,0.14958930977755516,-9.909377161761523,0.0006945829839679359,-0.003921966412825651,0.0049804137334669325,-5.32e+20,-0.02766042506613236,-0.039660425066132356,0.40060012455310623,0.6844059836272541,13.254002123807615,25.754113294729457,-0.25000221361122243,8.50628218403407,0.10999999,-39.86994361509018,399.67921814749496,12.404602,96615.56974248498,1.1479527738617235,-0.7175440507294608,0.6237098861923859,-0.16106088746493014,-0.0047946530501002185,0.012532573981963935,-0.00478139583967938,0.0,-0.006521430965931883,1.5995768,0.6968538039478958,0.002338606114228464,-0.002272250078156319,0.7172038540541082,1.0,398714138.0,327364617.6274549,400125.4474066132,12.093553795090179,0.002982632476953901,12.095045259378756,-0.007456581198396776,1.569819476224449,0.0,0.0,0.35504054697394793,764000.0,39.8714138,32.7364368,-0.07969731957314627,3.3224419228176343,0.027976129693386753,-0.3801378655270541,14.60827822573146,0.27851856995390784,-0.2923183472244495,23.600843182324653,0.14875829451302638,0.1,-0.24128581563727455,-0.09949506217034068,-0.0072464919999999985,1.0,17614926.5250501,1.0,0.0,0.0,0.0,0.0
17660227.0,0.016540688741482974,0.018356058032064134,0.0019626310641282577,1.0,0.0,1500.0,1500.0,2000.0,1491.5971943887776,1507.4028056112224,1508.4028056112224,14.129723758877754,14.405849740040079,12.404602,13.705106005731462,13.704554208837674,13.972240261863726,13.170884307354708,13.42813763008016,158.17108439759517,158.17108439759517,12.404539126573146,-0.0011150277655310621,-0.0061717078657314624,0.0022659417154308617,0.006681424629258517,0.003904554108216433,-0.1307393657975952,2.0,-1.0,0.0,11.0,0.0,0.0,1.0,0.0,0.0,0.0,0.0,0.0,0.0,0.0,0.0,-0.008423774096192398,-2.020016423733467,-2.1863720610861725,-14.23243624294589,279.53088610300597,65.98672949476953,-0.004519234468937876,-0.01292147409018036,0.0,-0.005011183432865731,24.266115422665333,0.09723657458316648,-9.846102170711422,-5.11993987975952e+20,966.1669348781563,12.404602,0.0021523404509018046,-0.004958842619238471,0.010012497292585154,24.332837923386776,0.11198676168136278,-9.935466968883768,0.003452440827655298,-0.00576382030661322,0.015244827625250458,-5.11993987975952e+20,0.03352056285771537,0.021520562857715368,0.4006001834368737,0.8978311397434868,13.254036774208418,25.742279600781565,-0.24976484631062124,7.854784546977958,0.10999999,-42.16204893973948,399.520693791984,12.404602,96617.40285921843,1.1479745878737475,0.28875413936673333,-0.06099841345691323,0.2566281068316621,0.002665226450901812,0.006606665803607224,0.008760966474949883,0.0,0.005845941012024035,1.5995768,0.6968533370581163,-0.0020963684168336626,0.0020368855631262483,0.7172033777294589,1.0,398714138.0,327364695.4651302,400126.12221422844,13.245235996753506,0.007481391809619233,13.24897706290581,-0.018703479426853693,1.5696624245390782,0.0,0.0,0.3089720148877756,764000.0,39.8714138,32.7364368,-0.09372157906813626,3.98420559868537,0.03973616585571141,-0.38792593108216433,15.60292580551102,0.2883039803226453,0.008259187603206347,21.85772965951904,-0.03980216550701388,0.1,-0.2464427705531062,-0.09272502780561125,-0.0072464919999999985,1.0,17660226.61523046,1.0,0.0,0.0,0.0,0.0
17703916.0,0.0124888106252505,0.015428401931863728,0.0002601097294589194,1.0,0.0,1499.0519514869738,1500.0,2000.0,1493.2222921683367,1505.7777078316633,1415.1282565130261,15.097560190060118,15.392408575791583,12.404602,14.477447843446894,14.476859263426853,14.759628623987975,14.04775418503006,14.32213448527054,168.74966905891782,168.74966905891782,12.40453493234469,-0.0011020353647294588,-0.006183478138276553,0.002326916977955912,0.00663031235270541,0.004027444300601203,-0.13072340913226452,2.0,-1.0,0.0,11.0,0.0,0.0,1.0,0.0,0.0,0.0,0.0,0.0,0.0,0.0,0.0,0.003501922697394782,-2.0103731855971945,-2.184195418625251,-14.886137195290582,280.3381158032064,66.12935826042084,-0.004744052016032064,-0.013394471577154309,0.0,-0.005227489476953908,22.131629516172346,-0.10933533621042069,-9.97213635481964,-3.544028056112226e+20,966.16217270501,12.404602,0.006077831625250496,-0.010611871464929857,0.03942138379759516,22.512382198657317,-0.39489715222244426,-10.078094736811623,0.02573845995390779,-0.016037790370741475,0.09017571269939872,-3.544028056112226e+20,0.09470155019639276,0.08270155019639276,0.40060024191783566,1.1112562958597194,13.254071428637275,25.730445906833666,-0.24952747941282566,7.20328691032465,0.10999999,-44.45415427024048,399.4853350492986,12.404602,96617.82450503006,1.1479795968917834,-0.0033030836112220574,-0.2083245676733469,0.8713855085390783,0.0070443757174348575,0.001399099290581163,0.04896411053907812,0.0,0.018223348935871738,1.5995768,0.6968271151703407,-0.0065348604088176325,0.006349438729458916,0.7171763964428858,1.0,398714138.0,327364773.3028056,400126.79702184367,14.396918194388777,0.01198015154509018,14.402908866432865,-0.029950377070140276,1.5695053732565132,0.0,0.0,0.2629034823987976,764000.0,39.8714138,32.7364368,-0.10476765044689379,4.730811884076152,0.05112043321042083,-0.39151696872144287,16.53843924478958,0.28666678895591186,-0.19072608155110188,19.95226401731463,-0.11804737752304609,0.1,-0.2508577403286573,-0.07943380237074149,-0.0072464919999999985,1.0,17703915.885771543,1.0,0.0,0.0,0.0,0.0
17746923.0,0.009052649793587175,-0.24750658218436875,-0.007325213739478957,1.0,0.0,1492.7915800681362,1500.0,2000.0,1496.5623761002005,1502.4376238997995,1355.2304609218436,16.089096835871743,16.403427523166332,12.404602,15.249789681162325,15.249164318016032,15.54701697739479,14.924624061002003,15.216131338757515,179.32825373727454,179.32825373727454,12.404530738116232,-0.00108904226252505,-0.0061952485811623235,0.002387892410821643,0.006579200246492986,0.00415033432264529,-0.13070745176553106,2.0,-1.0,0.0,11.0,0.0,0.0,1.0,0.0,0.0,0.0,0.0,0.0,0.0,0.0,0.0,0.015427619490981962,-2.0007299476312626,-2.182018776164329,-15.539838140621242,281.1453455034068,66.27198702607214,-0.0049665665370741486,-0.013825275376753507,0.0,-0.005481621563126252,20.379217799058118,-0.3839114130360721,-10.17975231232465,-1.1054308617234471e+20,966.1589778865732,12.404602,0.036615584943887766,-0.031117500641282565,0.17098068795791582,20.784560311002004,-0.7242483784208417,-10.358077372064129,0.060232621635270545,-0.031583145334669334,0.20553321380561118,-1.1054308617234471e+20,0.1558825377054108,0.14388253770541082,0.4006003011002004,1.324681451975952,13.254106076052103,25.71861221288577,-0.24929011268537074,6.551789272969939,0.10999999,-46.746259599038076,399.6417445751503,12.404602,96616.00066026051,1.1479579442865733,1.267086445795591,-0.2439913953266533,3.4984217790040075,0.04618212103607214,-0.019570847292585167,0.1822260701042084,0.0,0.030628552370741483,1.5995768,0.6967750215290581,-0.010983075977955913,0.010671439561122244,0.7171227921603206,1.0,398714138.0,327364851.05330664,400127.4718294589,15.548600399038076,0.016478910579158318,15.55684066995992,-0.04119727488376754,1.569348321272545,0.0,0.0,0.21683494973947898,764000.0,39.8714138,32.7364368,-0.11395188929058116,5.530458013955913,0.06226978690781563,-0.39248420926653305,17.436984631963927,0.2778886920781563,-0.702015909523046,17.945303018396793,-0.12732837824649298,0.1,-0.2551324008657315,-0.06425928618436874,-0.0072464919999999985,1.0,17746923.09218437,1.0,0.0,0.0,0.0,0.0
17788272.0,-0.0031600888617234523,-0.23187300543486974,-0.025648665567134275,1.0,0.0,1483.227392805611,1500.0,2000.0,1503.637789498998,1495.362210501002,1388.7915831663327,16.9721245501002,17.303771406172345,12.404598767174349,16.022131528877757,16.02146937260521,16.334405336653305,15.801493934408818,16.11012819809619,189.90683834128257,189.90683834128257,12.404526545470942,-0.0010760501603206411,-0.006207018438877755,0.002448867100200401,0.00652808755511022,0.004273225088176353,-0.1306914953987976,2.0,-1.0,0.0,11.0,0.0,0.0,1.0,0.0,0.0,0.0,0.0,0.0,0.0,0.0,0.0,0.027353316284569145,-1.9910867089218436,-2.1798421337034064,-16.193539095951902,281.95257530360726,66.41461579172345,-0.005185286927855711,-0.014231704362725452,0.0,-0.005796683563126253,18.666853237054106,-0.3151633646172343,-10.24978758997996,-1.3308016032064137e+20,966.1633624240482,12.40459447759519,0.111251315490982,-0.04033673755511021,0.29899728476953913,18.71648811991984,-0.2829296464088175,-10.21532890751503,0.11961576384168339,-0.032842741599198394,0.25278848073146293,-1.3308016032064137e+20,0.22635212033867738,0.21435211675551105,0.400600379248497,1.5208056643266534,13.254150084108216,25.669285369138276,-0.24830269447895792,5.97172170309018,0.10999999,-48.90067816779559,399.5928423953908,12.404598767174349,96616.57901258518,1.1479647920561122,1.0908104871402808,-0.35310596162525004,2.2310940091502998,0.11850258218837678,-0.027596796492985968,0.29803933345290584,0.0,0.043076576633266535,1.5995768,0.6966955934509017,-0.015446223016032067,0.01500794898196393,0.7170410335390781,1.0,398714138.0,327364933.3953908,400128.6355220441,16.611803514689377,0.01364514211823646,16.621315626472946,-0.052444173112224456,1.5695837361803606,0.0,0.0,0.17076641782364727,764000.0,39.8714138,32.7364368,-0.1239434583466934,6.338389759010021,0.07222354207615231,-0.4209379787695391,18.209974419078158,0.270129956244489,-1.1988657784208419,16.187718283366735,-0.08702462319839677,0.1,-0.25939660777955914,-0.05798226932064128,-0.0072464919999999985,1.0,17788271.97995992,1.0,0.0,0.0,0.0,0.0
17831400.0,-0.01960562718637271,-0.21444592090581166,-0.04378680210020037,1.0,0.0,1474.3028358917836,1500.0,2000.0,1513.2308127134268,1485.7691872865732,1397.004008016032,17.720081661683363,18.066325085691382,12.404577317955912,16.794473366593184,16.79377442719439,17.12179369036072,16.678363814649295,17.004125051883765,200.48542297695388,200.48542297695388,12.40452235965932,-0.0010630570581162326,-0.006218788851703407,0.0025098421062124247,0.006476975418837675,0.004396115537074148,-0.1306755380320641,2.0,-1.0,0.0,11.0,0.0,0.0,1.0,0.0,0.0,0.0,0.0,0.0,0.0,0.0,0.0,0.039279013078156295,-1.981443470529058,-2.177665491242485,-16.847240041282564,282.75980500380757,66.55724455737474,-0.005410435773547094,-0.014645850154308616,0.0,-0.006205193983967934,16.987678808557117,0.03812350112625183,-10.205799289418838,-3.770841683366729e+20,966.1740287142285,12.404580728577155,0.1867215812064127,-0.027314650889779586,0.309981337739479,17.069200188697398,0.007119217839678879,-10.309199327875751,0.19962629655511008,-0.02226264290981966,0.2436022472725451,-3.770841683366729e+20,0.3149682521903806,0.3029682366312624,0.40060049459519037,1.6831301009559114,13.25421236711423,25.546710500761524,-0.24584994956112227,5.531202603595191,0.10999999,-50.786106675450895,399.5866329292585,12.404577317955912,96616.63660320641,1.1479654328657316,1.9161165214088163,0.33439913935671417,-0.0019950774108159486,0.19268363534669322,-0.013893901719438911,0.30295938451903814,0.0,0.055582319002003985,1.5995768,0.6965867552785572,-0.01992942133266532,0.01936393975951903,0.7169290380440881,1.0,398714138.0,327365031.6895792,400131.55968997994,17.356348429398796,-0.015596794819639222,17.363610946272544,-0.06369107134068135,1.5712326211903809,0.0,0.0,0.12469788559118244,764000.0,39.8714138,32.7364368,-0.13460412308817635,7.153188423511021,0.08118641485771542,-0.472171925034068,18.87890671791583,0.26321604125851705,-1.6837481547775544,14.636810630220445,-0.005626208709418993,0.1,-0.26354506846492987,-0.046637391284569146,-0.0072464919999999985,1.0,17831399.871743485,1.0,0.0,0.0,0.0,0.0
17877895.0,-0.034354289859719424,-0.18244408256913833,-0.05560862374348696,1.0,0.0,1471.2685370741483,1500.0,2000.0,1519.7566938737475,1479.2433061262525,1412.2404809619238,18.374642924468937,18.733659874428856,12.404557165931864,17.566815204308618,17.566079481783564,17.90918205248497,17.555233686472942,17.898121914088176,211.06400762364729,211.06400762364729,12.404518165430861,-0.0010500639559118238,-0.006230559154308617,0.0025708172224448897,0.006425863172344689,0.004519005875751502,-0.1306595813967936,2.0,-1.0,0.0,11.0,0.0,0.0,1.0,0.0,0.0,0.0,0.0,0.0,0.0,0.0,0.0,0.05120470987174348,-1.971800232246493,-2.1754888487815633,-17.500940993927856,283.5670347771543,66.69987332302605,-0.005625138196392786,-0.015041371426853706,0.0,-0.006665949344689378,15.320952357615234,0.3463606829418834,-10.169799981943887,-5.185731462925851e+20,966.17673477495,12.404560916833669,0.26342346371543074,-0.008322546058116264,0.22896097664128273,15.711404897855713,0.23657445814028027,-10.22691040234469,0.2652475169238476,-0.018627976234468935,0.18082904290180377,-5.185731462925851e+20,0.4035843839318636,0.3915843573486973,0.40060060983166335,1.845454538316633,13.25427465012024,25.424135633486976,-0.24339720464328657,5.090683504100201,0.10999999,-52.67153518310621,399.4658234891783,12.404557165931864,96618.03101717435,1.147982042503006,1.9968146058176357,0.6771710998176341,-1.9853068831202387,0.274603541280561,0.00609417337474947,0.2093661355050102,0.0,0.06814822238276551,1.5995768,0.6964516077374749,-0.024433437124248492,0.023740158322645283,0.7167899327895791,1.0,398714138.0,327365129.98376757,400134.4838689379,18.10089335252505,-0.04483873102605206,18.10590625765531,-0.07493796883767534,1.5728815062004007,0.0,0.0,0.07862935324849706,764000.0,39.8714138,32.7364368,-0.14601609388176354,8.024942598062124,0.08922333812024047,-0.5295687608677354,19.503890493206413,0.2586901728957916,-1.8928016988697394,13.07979347687375,0.09066416408617219,0.1,-0.2675571945410822,-0.03482104057314632,-0.0072464919999999985,1.0,17877894.60721443,1.0,0.0,0.0,0.0,0.0
17924462.0,-0.05136862951503004,-0.16056849497795594,-0.057336366044088184,1.0,0.0,1472.054108216433,1500.0,2000.0,1527.1806008436872,1471.8193991563128,1419.4523293386774,19.046180376553107,19.418050653206414,12.40453622745491,18.33915704220441,18.338384536372743,18.69657040460922,18.43210356829659,18.792118766292585,221.64259231482964,221.64259231482964,12.404513971202405,-0.001037071853707415,-0.006242329993987976,0.0026317927835671343,0.006374750480961923,0.004641895769539078,-0.1306436242985972,2.0,-1.0,0.0,11.0,0.0,0.0,1.0,0.0,0.0,0.0,0.0,0.0,0.0,0.0,0.0,0.06313040666533065,-1.962156993426854,-2.173312206320641,-18.154641941943886,284.37426450420844,66.84250208867735,-0.005849632653306614,-0.015462709785571143,0.0,-0.007228277735470941,13.669812187955914,0.5981905653987974,-10.143803808076152,-5.32e+20,966.1694738943888,12.404533514829659,0.3238111044328657,-0.0008248125551101834,0.08886867488376766,14.163153998436874,0.8073288960901801,-10.212780921122246,0.31285169086372744,-0.02368977797194388,0.05095888889979972,-5.32e+20,0.49220051522845687,0.4802004780480961,0.4006007256232465,2.007778975214429,13.254336933126252,25.30156077066132,-0.2409444587254509,4.650164403605211,0.10999999,-54.55696369076152,399.51198646753505,12.40453622745491,96617.49159204408,1.1479756723266532,1.113516697038077,-0.06235277241082126,-2.6288512805731465,0.32679451372344687,0.008370349366733488,0.08340482023246504,0.0,0.08077937907014027,1.5995768,0.6962897020701402,-0.028959941755511018,0.02813822793386773,0.7166233313787574,1.0,398714138.0,327365228.2779559,400137.40809238475,18.845438265651303,-0.07408066769539076,18.848201569038075,-0.08618486679759518,1.5745303922104208,0.0,0.0,0.03260772362725455,764000.0,39.8714138,32.7364368,-0.1583687848036072,8.968011513292584,0.09610086819839679,-0.5946822326192385,20.07384573292585,0.25715440894388775,-1.756486340651303,11.515126533927857,0.20560095450500993,0.1,-0.27112578335270543,-0.03153468675951905,-0.0072464919999999985,1.0,17924461.93186373,1.0,0.0,0.0,0.0,0.0
17974884.0,-0.06356723886973949,-0.1418464898797595,-0.048501856448897804,1.0,0.0,1476.4937978196394,1500.0,2000.0,1532.0385654368738,1466.9614345631262,1428.741482965932,19.637520337995994,20.021146668436874,12.40450943995992,18.985394913466934,18.984440306953907,19.355255694028056,19.157278524529058,19.531469585691383,230.90402584068138,230.90402584068138,12.404455827635271,-0.0010261022705410822,-0.006252058074148297,0.0026824721623246494,0.006129327655310622,0.004805554647294589,-0.1306164414729459,2.0,-1.0,0.0,11.0,0.0,0.0,1.0,0.0,0.0,0.0,0.0,0.0,0.0,0.0,0.0,0.07528502216032064,-1.9519789571262525,-2.1710999833707416,-18.825805424028058,285.18578730581163,66.94135200927856,-0.006057227094188377,-0.01585694804609218,0.0,-0.007826429018036072,12.050858438456915,0.7116634055751504,-10.08890623492986,-5.32e+20,966.1632123693387,12.404505326012025,0.3450558726733467,-0.033311959557114225,-0.055083131456913764,12.557050745410823,0.8849550111923848,-10.168748661322645,0.34582059001803606,-0.03171011451302604,-0.0739777007114228,-5.32e+20,0.5854115115731463,0.5734114685330661,0.40060076008416834,2.1720807972064127,13.254397263587174,25.17314669751503,-0.23837496958316634,4.224879286010021,0.10999999,-56.40887112667335,399.60274911482963,12.40450943995992,96616.45641957916,1.1479633071362725,0.23021906189979974,-0.29277826934468965,-2.4625093927695394,0.3468400437795591,-0.01412154285771542,-0.0369974474669338,0.0,0.09350035315030059,1.5995768,0.6960944813767536,-0.03351729646492986,0.03256626936072144,0.7164223538957916,1.0,398714137.90861726,327365327.6991984,400140.4605781563,19.55982630348697,-0.10481975376352703,19.560767776132263,-0.09443746707014028,1.5762128731803609,0.0,0.0,0.0,764000.0,39.8714138,32.7364368,-0.17172721811422845,9.912261891881762,0.10287457071543087,-0.6502145379819638,20.597241236533065,0.2588694229799599,-1.5090532962745493,10.00735847426453,0.30375290569138275,0.1,-0.27380804861523045,-0.017422737460921846,-0.0072464919999999985,1.0,17974883.96793587,1.0,0.0,0.0,0.0,0.0
18019014.0,-0.06579908189178357,-0.1255358524769539,-0.03653096144288577,1.0,0.0,1482.511380178357,1500.0,2000.0,1532.7735470941884,1466.2264529058116,1438.5470941883768,20.12194463781563,20.51512208306613,12.404491046252504,19.20259118002004,19.20096009757515,19.576056526032065,19.366344217935872,19.74467057733467,235.6841367513026,235.6841367513026,12.404214126252505,-0.0010220170861723447,-0.00625484027254509,0.002698124547094188,0.005222803507014028,0.005107917633266533,-0.13055106602204408,2.0,-1.0,0.0,11.0,0.0,0.0,1.0,0.0,0.0,0.0,0.0,0.0,0.0,0.0,0.0,0.08832016761523047,-1.939743831717435,-2.1687509008717436,-19.564138107314626,286.01382333286574,66.87180770553107,-0.006264341535070141,-0.016248221026052105,0.0,-0.008477332004008017,10.534805486352706,0.3791003450701403,-9.933215908136273,-5.32e+20,966.1638012430861,12.40447713719439,0.34910596038276553,-0.05169064943486974,-0.16046889090380762,11.025874529258516,0.6502687538697395,-10.037652799178357,0.3358232080300601,-0.04664823378957916,-0.15883672668537074,-5.32e+20,0.6994649380280561,0.6874649199899799,0.4006004253567134,2.345352093757515,13.254448745751503,25.01824585062124,-0.23527592606212425,3.868695929767535,0.10999999,-58.10872605026052,399.68850119498995,12.404491046252504,96615.46036795591,1.1479514896513026,-0.13420698286773547,-0.16293794191983968,-2.0941969709078156,0.35133596668136274,-0.03550598324849699,-0.15154900419438877,0.0,0.10630229930460922,1.5995768,0.6958715738496993,-0.03810236690581162,0.03702124219038076,0.7161929356212424,1.0,398714137.28617233,327365434.0643287,400144.29788957915,20.089789445130258,-0.14471467860921844,20.091525178817637,-0.08437839017835672,1.578100811234469,0.0,0.0,0.0,764000.0,39.8714138,32.7364368,-0.18814234365931862,10.835545078697395,0.10970428366332666,-0.6707936168016032,20.983145624609218,0.2704819974468938,-1.0083561186112224,8.69381097356914,0.3388781226893788,0.1,-0.27640759509018037,-0.011836022430861723,-0.0072464919999999985,1.0,18019014.01002004,1.0,0.0,0.0,0.0,0.0
18063873.0,-0.0714056930220441,-0.11195105242084168,-0.022780424420841678,1.0,0.0,1489.9412989038076,1500.0,2000.0,1532.9687821042085,1466.0312178957915,1445.54223993988,20.607950337454913,21.01062348250501,12.404452789579159,19.393295234368736,19.390957141382767,19.769819116212425,19.543541488797594,19.925383168957914,240.18753748396793,240.18753748396793,12.403961091823646,-0.0010183567855711422,-0.00625719341482966,0.002711614266533066,0.0042754576513026055,0.005418845052104208,-0.13048333180561122,2.0,-1.0,0.0,11.0,0.0,0.0,1.0,0.0,0.0,0.0,0.0,0.0,0.0,0.0,0.0,0.10152301124248497,-1.927116928523046,-2.1663757530400805,-20.31526332458918,286.845004352505,66.77019229699398,-0.006475220468937876,-0.016633582977955915,0.0,-0.009165141967935872,9.058784876533066,0.03465287468136258,-9.781705452973949,-5.32e+20,966.165138708016,12.40445017723447,0.31988095014228457,-0.06197409129058116,-0.22293559708817637,9.40356034406012,0.23907058911623225,-9.81983002856513,0.3226256948557114,-0.057788437324649305,-0.23320386179959923,-5.32e+20,0.820611326993988,0.8086113419378759,0.40059996564128264,2.521675824138277,13.2544972150501,24.854331186653308,-0.23199666854308618,3.536028839322645,0.10999999,-59.75683544557115,399.6085489681363,12.404452789579159,96616.3987364529,1.1479625500561121,-1.121390725376754,-0.4868212272384772,-0.9847441764989973,0.33320137616032064,-0.05314902938476955,-0.2150848361422846,0.0,0.1191896240460922,1.5995768,0.6956198493807615,-0.04271652759519038,0.04150447975350702,0.7159338642785571,1.0,398714136.3855712,327365544.23587173,400148.57171603205,20.517171598396793,-0.18970227280961927,20.52115671224449,-0.06413397388176353,1.5801030291142284,0.0,0.0,0.0,764000.0,39.8714138,32.7364368,-0.20430265852905813,11.767368491082166,0.11642440342284568,-0.6867720400841684,21.355931271222445,0.2816286536633266,-0.5372513568196391,7.433825523977955,0.36089091048497,0.1,-0.27873613239679357,-0.002256708699398792,-0.0072464919999999985,1.0,18063873.328657314,1.0,0.0,0.0,0.0,0.0
18109711.0,-0.0674862161783567,-0.0967996121442886,-0.008807071316633287,1.0,0.0,1496.7470231222444,1500.0,2000.0,1534.0,1465.0,1453.3286573146293,20.972108391763527,21.3819141201002,12.404444070140281,19.58399928707415,19.580954186833665,19.96358170230461,19.720738762104208,20.106095750581165,244.69093821663324,244.69093821663324,12.403708049839679,-0.00101469648496994,-0.006259546557114228,0.002725103985971944,0.0033281123867735488,0.005729773470941883,-0.13041559758917834,2.0,-1.0,0.0,11.0,0.0,0.0,1.0,0.0,0.0,0.0,0.0,0.0,0.0,0.0,0.0,0.11472585562525048,-1.9144900259198396,-2.164000605208417,-21.066388551863728,287.6761853965932,66.66857689436874,-0.006684289773547094,-0.017002565344689375,0.0,-0.009842683913827654,7.924129243823649,-0.20847243066132223,-9.72024226515431,-5.32e+20,966.1704565629259,12.404435223326653,0.2995177436853708,-0.051343789478958,-0.2404239534168337,8.15248800155912,-0.35752921052304565,-9.74511954505411,0.2990853887134269,-0.028406864643286636,-0.22449834005811625,-5.32e+20,0.9417577153687372,0.9297577646412823,0.4005995061703407,2.6979995535190375,13.254545680260522,24.69041653024048,-0.2287174100240481,3.203361749877756,0.10999999,-61.40494483496994,399.66542978376754,12.404444070140281,96615.72938004008,1.1479546106513026,-0.32058332445490795,0.6062533364549108,-0.30875124971142337,0.3081075563687376,-0.03995447312224453,-0.2465649613206413,0.0,0.13217278963527052,1.5995768,0.6953352241202405,-0.04736310048697394,0.04601921123647294,0.7156409711202405,1.0,398714135.48497,327365654.4829659,400152.84556693386,20.944553741663327,-0.23468986801001998,20.950788235671343,-0.04388955758517038,1.5821052469939878,0.0,0.0,0.0,764000.0,39.8714138,32.7364368,-0.21647969023446892,12.792951167154307,0.1220452676292585,-0.674800581735471,21.667466629238476,0.2833904006452906,-0.4791256703206413,6.602996102917837,0.2853934697955913,0.1,-0.28068642944889777,0.0021069850941883485,-0.0072464919999999985,1.0,18109711.194388777,1.0,0.0,0.0,0.0,0.0
18151060.0,-0.06913386861523046,-0.08721733395591182,0.0015051215891783707,1.0,0.0,1502.1033648617233,1500.0,2000.0,1534.4312384268537,1464.5687615731463,1456.803607214429,21.291470658697396,21.707500901923847,12.404419,19.77470333306613,19.770951238997995,20.157344288396796,19.897936028697394,20.28680834220441,249.1943389492986,249.1943389492986,12.403455011142285,-0.0010110361843687374,-0.006261899699398798,0.002738593705410822,0.002380766573146291,0.0060407008897795595,-0.13034786337274548,2.0,-1.0,0.0,11.0,0.0,0.0,1.0,0.0,0.0,0.0,0.0,0.0,0.0,0.0,0.0,0.12792870013026053,-1.901863122767535,-2.1616254573767537,-21.817513773647295,288.50736637354714,66.56696148625251,-0.006891461422845692,-0.01734925531262525,0.0,-0.0105037558997996,6.864878771196391,-0.4116543525631265,-9.685010902392786,-5.32e+20,966.1745862390782,12.40442142026052,0.2696234928076152,-0.009637678394789517,-0.2175641826853707,7.019834892855711,-0.5221633638116232,-9.659807591114228,0.27401081027855706,0.0011604558897795915,-0.1934917509719438,-5.32e+20,1.0629041042925853,1.050904187466934,0.4005990460280561,2.8743232838997996,13.254594145470941,24.526501870541082,-0.22543815250501004,2.870694659432865,0.10999999,-63.053054229859725,399.57430433767536,12.404419,96616.7788864529,1.1479670973727456,-0.9231268486332661,0.40963474121843757,0.10306745253707507,0.274017256256513,-0.006495630841683295,-0.2334734554609218,0.0,0.1452495149218437,1.5995768,0.6950185322765531,-0.05204110545691384,0.05056448178957917,0.7153150554549098,1.0,398714134.5843687,327365764.7422846,400157.1193507014,21.37193589492986,-0.27967746266132276,21.380419769098197,-0.023645141288577122,1.5841074648737477,0.0,0.0,0.0,764000.0,39.8714138,32.7364368,-0.22840740983967936,13.821816943607216,0.1274010081482966,-0.6643671227695391,21.96372332224449,0.2823269451282565,-0.5202353139679361,5.845552630462924,0.1500862116893784,0.1,-0.2825783459739479,0.018840454977955938,-0.0072464919999999985,1.0,18151059.53306613,1.0,0.0,0.0,0.0,0.0
18195358.0,-0.07065240264729458,-0.07944514860521043,0.010432587521042078,1.0,0.0,1504.7374749498997,1500.0,2000.0,1534.98855154509,1464.01144845491,1460.4749498997996,21.586005631763527,22.00768998480962,12.404396138276553,19.96540738741483,19.96094828280561,20.351106874488984,20.075133296272544,20.467520933827654,253.69773968196392,253.69773968196392,12.403201973426853,-0.001007375883767535,-0.006264252841683368,0.0027520834248496995,0.0014334208577154316,0.006351629046092185,-0.13028012915631262,2.0,-1.0,0.0,11.0,0.0,0.0,1.0,0.0,0.0,0.0,0.0,0.0,0.0,0.0,0.0,0.14113154389779556,-1.889236219713427,-2.15925030954509,-22.568638996412822,289.3385474340682,66.46534608649299,-0.007106946240480962,-0.01768675821042084,0.0,-0.011191737466933867,6.027020085729459,-0.45491620588977955,-9.74219455244489,-5.32e+20,966.1702070747496,12.404407348276553,0.24673482781362727,-0.00812273335270539,-0.08997689244088193,6.171080711300602,-0.7165135394989977,-9.776808444036071,0.24625367658316635,0.009988901184368739,-0.08741477969338689,-5.32e+20,1.212671357567134,1.200671457042084,0.4005988278757515,3.053076309126252,13.25466960226453,24.354526424288576,-0.22199713501803608,2.5727404182705413,0.10999999,-64.65376248773548,399.5004892643287,12.404396138276553,96617.63311655312,1.1479773046312627,-0.6915988372344691,-1.462345989743484,4.249453034056107,0.24573014898998,0.003424151515030076,-0.08640919466733485,0.0,0.15841846606012022,1.5995768,0.6946709429258516,-0.056749956559118235,0.05513972247895791,0.7149573125931864,1.0,398714133.31503004,327365878.8364729,400159.72261603206,21.728978365951903,-0.32554430307014026,21.737953126012023,-0.020985644078156306,1.586048302713427,0.0,0.0,0.0,764000.0,39.8714138,32.7364368,-0.241134316256513,14.818003103927856,0.13192416950701402,-0.6771758469539079,22.210874594669338,0.27114222434268537,-0.87215588408016,5.251579482046092,-0.2537550431643283,0.1,-0.2840404807955912,0.028738864096192383,-0.0072464919999999985,1.0,18195357.86973948,1.0,0.0,0.0,0.0,0.0
18241783.0,-0.07278440769539078,-0.07233793922444892,0.010048215294589189,1.0,0.0,1503.9473866613228,1500.0,2000.0,1536.0240480961925,1462.9759519038075,1465.2653870040076,21.80164927268537,22.227506545791584,12.404387994468939,20.156111441523045,20.150945336613226,20.54486946082164,20.252330568597195,20.6482335254509,258.2011404146292,258.2011404146292,12.40294894022044,-0.0010037155831663326,-0.0062666059839679355,0.002765572144288577,0.0004860755931863757,0.006662556727454909,-0.13021239493987977,2.0,-1.0,0.0,11.0,0.0,0.0,1.0,0.0,0.0,0.0,0.0,0.0,0.0,0.0,0.0,0.1543343881402805,-1.8766093171102205,-2.156875161713427,-23.319764213927854,290.16972839458913,66.36373067673347,-0.0072996376613226445,-0.017972855763527053,0.0,-0.011814230939879758,5.2987355547414845,-0.41819291693988025,-9.853582687020037,-5.2966733466933907e+20,966.1617602388778,12.404393003206414,0.22466838347695395,0.0012088323126252087,0.0258571692124245,5.491579868635273,-0.6921186703987986,-9.852150211599197,0.2173922829599199,0.0096346879118235,0.0540229161342683,-5.2966733466933907e+20,1.3873975331402801,1.3753976331402802,0.40059882,3.2339478097595187,13.254768597094188,24.175521529979964,-0.21841505540480963,2.305057632330662,0.10999999,-66.2131344218036,399.5964423943888,12.404387994468939,96616.50954430862,1.1479640123466934,-0.5242425515070148,0.7430057027815633,2.6948584073707424,0.21953596435270542,0.015109062533065964,0.05639030402805575,0.0,0.17167991104208413,1.5995768,0.6942917086913828,-0.06148949478156311,0.059744783028056095,0.7145669080541082,1.0,398714131.5663327,327365998.2460922,400160.0,21.988089583066134,-0.37263528412424834,21.995106948577153,-0.04280895830661315,1.5879036835150302,0.0,0.0,0.0,764000.0,39.8714138,32.7364368,-0.25428018852505,15.799262560521038,0.135970230250501,-0.7017435178577154,22.433601861062126,0.25389459867134295,-1.373949365082163,4.734573991621244,-0.797257449028053,0.1,-0.2851434478456914,0.034522004627254445,-0.0072464919999999985,1.0,18241782.863727454,1.0,0.0,0.0,0.0,0.0
