timestamp,control[0],control[1],control[2],control[3],control[4],output[2],output[3],output[4],output[5],output[6],output[7],indicated_airspeed_m_s,true_airspeed_m_s,indicated_airspeed_m_s.1,equivalent_airspeed_m_s,true_airspeed_m_s.1,equivalent_ground_minus_wind_m_s,true_ground_minus_wind_m_s,Unnamed: 6,Unnamed: 7,differential_pressure_raw_pa,differential_pressure_filtered_pa,temperature,gyro_bias[0],gyro_bias[1],gyro_bias[2],accel_bias[0],accel_bias[1],accel_bias[2],instance_count,seq_reached,seq_current,seq_total,item_changed_index,item_do_jump_remaining,valid,warning,finished,failure,stay_in_failsafe,flight_termination,item_do_jump_changed,execution_mode,nav_roll,nav_pitch,nav_bearing,target_bearing,xtrack_error,wp_dist,acceptance_radius,rollspeed_integ,pitchspeed_integ,yawspeed_integ,additional_integ1,x,y,z,temperature.1,pressure,temperature.2,gyro_rad[0],gyro_rad[1],gyro_rad[2],accelerometer_m_s2[0],accelerometer_m_s2[1],accelerometer_m_s2[2],x.1,y.1,z.1,temperature.3,altitude_sp,altitude_filtered,height_rate_setpoint,height_rate,airspeed_sp,airspeed_filtered,airspeed_derivative_sp,airspeed_derivative,throttle_integ,pitch_integ,timestamp_sample,baro_device_id,baro_alt_meter,baro_temp_celcius,baro_pressure_pa,rho,xyz[0],xyz[1],xyz[2],xyz[0].1,xyz[1].1,xyz[2].1,roll_body,pitch_body,yaw_body,q_d[0],q_d[1],q_d[2],q_d[3],thrust_body[0],lat,lon,alt,vel_m_s,vel_n_m_s,vel_e_m_s,vel_d_m_s,cog_rad,ground_contact,maybe_landed,landed,ref_lat,ref_lon,x.2,y.2,z.2,vx,vy,vz,ax,ay,az,yaw,dist_bottom,roll,pitch,yaw.1,thrust_body[0].1,timestamp.1,isTakeoff,isClimbing,isDescending,isCruise,isLand
33039756.0,-0.034689735,0.144279932,0.236861353,0.28239906,0.0,1621.0,1500.0,1283.0,1516.0,1483.0,1568.507101,15.38904019,15.76929221,15.46710044,15.39698932,15.77734741,15.52927748,15.91290314,,,146.5302371,146.5302371,11.72820497,-0.00174646,-0.006561708,0.000629874,-0.176759709,0.13831737800000002,-0.093806327,2.0,-0.171834367,0.828165633,11.0,0.0,0.0,1.0,0.0,0.0,0.0,0.0,0.0,0.0,0.0,0.6811380890000001,0.008397074000000001,1.774945652,1.605239659,-9.282550005,270.1399044,45.76841142,-0.007643573000000002,-0.030613544,0.091808941,0.0,0.218868105,-0.064357249,-10.9468462,-7.209999999999999e-21,954.1692303,11.72727858,-0.035873897,0.30083201800000003,0.460363187,0.252404951,-0.017586789,-11.09495399,-0.041303772,0.294471243,0.459414377,-7.209999999999999e-21,100.051285,103.6154795,-0.178209746,-1.447015928,15.37020102,15.88094954,-0.010214971,0.190235973,-0.299024435,46.40831322,27540697.74,6620172.0,480.5818219,11.87767084,95684.2264,1.13688682,0.413254492,0.360356007,0.7945672570000001,-0.046124186,0.277573482,0.449180832,0.664980432,0.010872004,1.794766774,0.590877941,0.199540293,0.258344721,0.7377670690000001,0.267120022,398729792.6,327396783.0,504284.1954,15.8386948,13.93391678,7.577385477000001,-0.610220044,0.498203793,0.0,0.0,0.0,39.8714138,32.7364368,177.0762368,278.5886927,-104.2248594,12.97685558,9.077463344,0.13076685300000002,-4.594159174,6.451297635,2.566851622,0.6280298529999999,104.3459844,-0.202085169,0.399736816,0.223340072,0.262697619,33039756.0,0.0,0.0,0.0,1.0,0.0
33262604.0,-0.03540529193386774,0.14983543816232464,0.21539646030861723,0.27989270911823644,0.0,1613.4088176352705,1500.0,1281.0,1517.0,1482.0,1574.0,15.455179781983968,15.837066719438878,15.422024958496994,15.351333387094188,15.730596821442886,15.465205621583166,15.84728275973948,,,145.66454059258515,145.66454059258515,11.727989153707414,-0.0017411348517034069,-0.006554586014028056,0.00062269526252505,-0.1767732389098197,0.1388803067715431,-0.09340909638476953,2.0,-0.15676281521843688,0.8432371847815632,11.0,0.0,0.0,1.0,0.0,0.0,0.0,0.0,0.0,0.0,0.0,0.6271277692885772,0.013998084004008017,1.8046460235571142,1.6107620092404809,-10.66343267002004,267.2523320316633,46.00636524795591,-0.00791225965531062,-0.030280420480961922,0.08807863136072144,0.0,0.1920835737995992,0.08981313621042085,-11.575652006132264,-7.209999999999999e-21,954.1874685687375,11.727860928577154,-0.04111944024448898,0.34550131912424853,0.4646069396973948,0.18891720836272546,0.06671633873747496,-11.799122346993988,-0.03922946592184368,0.333526472991984,0.4669162954328658,-7.209999999999999e-21,100.051285,103.29948226933868,-0.1624097815991984,-1.6418402273767534,15.369931502585171,16.064303691482966,-0.013887433354709421,0.37638405066733466,-0.30065789656713426,45.91542065044088,27753683.018977955,6620172.0,481.7729124204409,11.870245958496994,95670.56838226452,1.1367245874288576,0.11457379719238481,0.15799843598797597,-0.15688999884368737,-0.03936488864128256,0.3057706791062125,0.45842462349498997,0.6044863400260521,0.016518800731462925,1.819869646238477,0.5878912572925852,0.17647403092184374,0.23982245531462926,0.7521405298476954,0.26190646865731465,398730046.9374749,327396986.21643287,504325.2458372746,15.820272313426853,13.058267679078156,8.921591509138278,-0.0065847840040080124,0.5993574620901804,0.0,0.0,0.0,39.8714138,32.7364368,179.63616703627255,280.57309109238474,-104.15676032845691,11.943509122064128,10.393671798677355,0.6125656340400801,-5.5096723524108215,6.404712051521042,2.137338775837675,0.7380752962685372,104.27788571302605,-0.24756777579959918,0.3636944333266533,0.17380545315631263,0.25747890536673346,33262604.40280561,0.0,0.0,0.0,1.0,0.0
33467795.0,-0.04067172292785571,0.14903413753707415,0.19259996757915832,0.27646094821643286,0.0,1601.8176352705411,1500.0,1278.0,1519.0,1480.0,1574.5911823647295,15.449723585951904,15.831341003006012,15.490848656993988,15.419191384188377,15.799950358797595,15.502531383166334,15.885349719478958,,,147.00746348517035,147.00746348517035,11.729467041503007,-0.001736386374749499,-0.006542952072144288,0.0006251704288577154,-0.17670175198196392,0.13963864893987976,-0.09308958148296594,2.0,-0.14169126443687374,0.8583087355631263,11.0,0.0,0.0,1.0,0.0,0.0,0.0,0.0,0.0,0.0,0.0,0.5629434871342686,0.01952394728256513,1.8257246843326653,1.6149952851943887,-11.674570925430862,264.2772814262525,46.28649144246493,-0.008161440781563126,-0.029954202406813627,0.08388651005210421,0.0,0.25237741572945893,0.12295291422244489,-12.28783360466934,6.88551666745491,954.2119016573147,11.728935094829659,-0.04262271297194389,0.3644075361863727,0.47160607508016034,0.14865234506813627,0.154539050995992,-12.376257382024049,-0.043150814839679356,0.3551989831102204,0.4707735545991984,6.88551666745491,100.051285,102.96140616753506,-0.1455060099739479,-1.7791662958957914,15.369783448697396,16.224871309358715,-0.017101746559118235,0.5183144530460921,-0.30222300156112225,45.553544901002,27965576.364669338,6620172.0,483.00117388817637,11.862922626733466,95656.48773937876,1.1365573945931864,0.06638004792585167,0.04137870198597195,0.20596681193587174,-0.036471986853707415,0.35000070619038076,0.46108667753306615,0.5328946783587175,0.02223014406813627,1.8375424346573146,0.5876695017695391,0.15124113568537073,0.21578060729058118,0.7649802938116232,0.2567779966272545,398730275.35110223,327397212.51202404,504270.6087022044,15.8217596247495,12.058754528236472,10.219539971743487,0.4793454122865731,0.7028371759639279,0.0,0.0,0.0,39.8714138,32.7364368,181.96618468957917,282.8259302845692,-104.00060988997997,10.712780640861723,11.67809445755511,1.0080311400661321,-6.566260154639279,6.109955924855711,1.7344358441482965,0.855082998765531,104.12173446733466,-0.29020989015831666,0.32783461318637275,0.12925315625851702,0.2530114689779559,33467795.458917834,0.0,0.0,0.0,1.0,0.0
33674755.0,-0.044861464623246486,0.1437568028997996,0.1707729847254509,0.2729826664529058,0.0,1591.0810743987977,1500.0,1274.6132264529058,1521.0,1478.0,1573.733923779559,15.518236740941884,15.901369403206413,15.559672355490981,15.487049381282565,15.869303894328658,15.5398571347495,15.923416679218438,,,148.3503863777555,148.3503863777555,11.730944927254509,-0.0017318024488977954,-0.00653002749498998,0.0006304086432865732,-0.17660593247294587,0.14045291929659318,-0.0927923082244489,2.0,-0.1266197126553106,0.8733802873446893,11.0,0.0,0.0,1.0,0.0,0.0,0.0,0.0,0.0,0.0,0.0,0.4851852737014028,0.024949551923847693,1.835300402498998,1.6175087001783568,-12.192402333146292,261.18551868937874,46.6228833186974,-0.008394783166332666,-0.029554190306613225,0.07941759676152305,0.0,0.16837061554709418,0.23190044048497,-12.797640660340681,4.274231236643294,954.2413400533065,11.730423677995992,-0.06449399475751502,0.3867418523006012,0.463918944242485,0.1927089908757515,0.24347215215631257,-12.887369209098196,-0.05173956298396794,0.38334002043086174,0.46959651377555106,4.274231236643294,100.051285,102.61493816192385,-0.1281827234448898,-1.8683707515490982,15.36946224771543,16.35378856967936,-0.01968651218837675,0.6140148176012024,-0.30368470689178356,45.32176619769539,28178015.68200401,6620172.0,484.0043648198397,11.855764625270542,95644.97147687375,1.1364204644168336,-0.1390590068316626,-0.26922321925049997,0.10689795222444867,-0.0414149943787575,0.3793219520380761,0.4663391161843687,0.4496660186012024,0.027819379474949897,1.84620582051503,0.5905719096092183,0.12368460184168337,0.18595473455110223,0.7754523348657315,0.2523083469799599,398730487.33426857,327397475.8028056,504128.5688490982,15.84420703737475,10.880491777555111,11.506042503807615,0.8702978510801602,0.8132770627855712,0.0,0.0,0.0,39.8714138,32.7364368,184.0251277995992,285.3335381228457,-103.77295046432866,9.287034096609219,12.887915653847696,1.315550210793587,-7.387410432124248,5.679600188164329,1.345765301731463,0.9764904960360722,103.89407446432865,-0.3466140793527054,0.2877031645390782,0.07720208864128258,0.2480331411222445,33674755.11422846,0.0,0.0,0.0,1.0,0.0
33868302.0,-0.052669332633266536,0.13430520743086172,0.1497888880761523,0.2677544380480962,0.0,1579.4529058116232,1500.0,1269.8176352705411,1522.5470941883768,1476.4529058116232,1569.6352705410823,15.597367931543086,15.982309035631264,15.628496043987976,15.554907386553106,15.938657425771543,15.577182896332664,15.961483630781563,,,149.69330925210417,149.69330925210417,11.732422813006012,-0.001727218749498998,-0.006517102326653307,0.0006356468577154308,-0.17651011196392785,0.14126718987975953,-0.09249503496593187,2.0,-0.1115481608737475,0.8884518391262525,11.0,0.0,0.0,1.0,0.0,0.0,0.0,0.0,0.0,0.0,0.0,0.407180171250501,0.03038128365531062,1.8446387725170341,1.6199846458196394,-12.699649512625252,258.0875227531062,46.9594766359519,-0.008601224150300601,-0.02903691050701403,0.07468762615831663,0.0,0.1776258294509018,0.28279312049499,-13.10222651014028,-7.209999999999999e-21,954.249803075952,11.732381861903809,-0.08770105478356714,0.38507497611022046,0.44783086558917834,0.24209669890180358,0.36114239281362726,-13.155336557855712,-0.08736747146092184,0.3850105753727455,0.4545743974809619,-7.209999999999999e-21,100.051285,102.22540712484971,-0.10870613914228457,-1.925954109270541,15.369285495751503,16.486308171743485,-0.02234044846693387,0.6688383105691382,-0.3052084963426854,45.19438280875751,28390454.991162326,6620172.0,485.19422958196395,11.84876248214429,95631.35302156312,1.136258697965932,0.1830122500440882,0.042672046699398794,-0.19749290157515037,-0.058049830639278564,0.3986191605310621,0.4632013788617234,0.3548853633747495,0.0336576581743487,1.8439947496032065,0.5970195766412826,0.09343998655310622,0.15063493893987975,0.7823874062244488,0.247677713498998,398730679.4332665,327397774.18416834,503903.7522214429,15.895427683166332,9.442475458436874,12.759524184068136,1.2226190533667336,0.933589085739479,0.0,0.0,0.0,39.8714138,32.7364368,185.77615606412826,288.07935911002005,-103.49004920440882,7.6874219545270535,13.97330127715431,1.5424759343446892,-8.1929322647996,4.848648534597195,0.9192432843827655,1.099292290470942,103.61117420440883,-0.38425057488176356,0.2592288807895792,0.03806937483967936,0.24464266108216431,33868301.96993988,0.0,0.0,0.0,1.0,0.0
34066087.0,-0.06257483545691384,0.122766914751503,0.13073526341683364,0.26245670431663326,0.0,1569.0220440881762,1500.0,1264.0220440881762,1527.9948671002005,1471.0051328997995,1563.0220440881762,15.790763113126253,16.180157341643284,15.69731974248497,15.622765385470942,16.00801095721443,15.614508657915831,15.999550588697396,,,151.03623216292587,151.03623216292587,11.733900698757514,-0.0017226354368737474,-0.006504177180360722,0.0006408850721442886,-0.1764142924549098,0.1420814608496994,-0.09219776170741482,2.0,-0.09647661009218436,0.9035233899078157,11.0,0.0,0.0,1.0,0.0,0.0,0.0,0.0,0.0,0.0,0.0,0.3179401184629258,0.03609182902004008,1.8431764038296592,1.6207555016853707,-12.72525,254.7058738733467,47.30523714342686,-0.008766167581162325,-0.028402552168336672,0.06981781855911824,0.0,0.1319894883867735,0.32366658768537077,-13.036855472004007,8.598726591653314,954.3241528985972,11.734494602024048,-0.12680438797595192,0.35662777595991985,0.42091955011623244,0.1277253226873748,0.28116710649499005,-13.099582912785571,-0.1250114383206413,0.36271196396192384,0.42818736088577153,8.598726591653314,100.051285,101.84484608877756,-0.08967803857114227,-1.948619963503006,15.369038536613226,16.62099380745491,-0.025039104234468944,0.6849075119599198,-0.3066169168336673,45.18655764733467,28602894.306673348,6620172.0,486.3200979943888,11.841893505751502,95618.42332669339,1.1361050067675351,-0.5001095114428855,-0.04756464884969802,-0.4280476332665333,-0.0835356354488978,0.396426782995992,0.4473794494609219,0.2631694221543086,0.039265342837675354,1.8418889083767536,0.6017722146533067,0.06387788673346692,0.11621762395791582,0.787579222725451,0.24422624593386774,398730837.044489,327398091.8236473,503628.84426072147,15.958759511082164,7.893194054058116,13.854662607755511,1.4673098924949899,1.05270965203006,0.0,0.0,0.0,39.8714138,32.7364368,187.1884864226453,291.032460188978,-103.16475686673347,5.978053531713427,14.879237278517035,1.70939291404008,-8.47418772764529,3.8975050639719435,0.7150271386813627,1.218608392957916,103.28588686673346,-0.3977699575370743,0.2375228356773547,0.008905467110220427,0.24154150240080158,34066087.19038076,0.0,0.0,0.0,1.0,0.0
34277754.0,-0.06694284057715433,0.10887862364328658,0.11104067587174349,0.25719833418837673,0.0,1559.4529058116232,1500.0,1259.2264529058116,1530.7735470941884,1468.2264529058116,1557.2264529058116,15.834148519218436,16.224289903486973,15.813834590320642,15.738519817394788,16.12636113258517,15.69495019793587,16.081719086092185,,,153.31231925691384,153.31231925691384,11.735924034769539,-0.001718051124248497,-0.00649125298997996,0.000646122513026052,-0.17631847294589176,0.14289573081963927,-0.0919004894488978,2.0,-0.08140505831062125,0.9185949416893787,11.0,0.0,0.0,1.0,0.0,0.0,0.0,0.0,0.0,0.0,0.0,0.22810290498196398,0.041817193250501004,1.8411399537955913,1.6214357292224448,-12.72525,251.30914830801603,47.65148490611222,-0.008867170709418837,-0.02767410246092184,0.0650469472004008,0.0,0.0676901414889782,0.30681772992585177,-12.850121848757516,-7.209999999999999e-21,954.3483809731463,11.736697901362726,-0.1785077485771543,0.31731856377755513,0.39723493463927856,0.07152727317034065,0.22917880742685331,-12.929457108376754,-0.1750087404088176,0.3245800795150301,0.39871236058917836,-7.209999999999999e-21,100.051285,101.47867855330662,-0.07136978751302606,-1.9341751746412825,15.368665491563126,16.733373013867737,-0.027294146627254507,0.6612060970541083,-0.3079109833567134,45.29260555176352,28815333.53795591,6620172.0,487.3082147408818,11.8351739803006,95607.1158630461,1.135970665777555,0.08730515354709067,-0.1868064223306608,-0.5948634492825633,-0.12479882246092183,0.3669611123727455,0.42192991160921856,0.172230683983968,0.04488181479759519,1.834163810220441,0.6072523351623247,0.03453421582965934,0.08186171951102207,0.789499443503006,0.2412303186032064,398730969.18797594,327398444.5240481,503303.9190176353,16.051482379138278,6.160449782318638,14.814604188236473,1.6419490019979959,1.1763386546673347,0.0,0.0,0.0,39.8714138,32.7364368,188.24872958116234,294.1523476378757,-102.81128823567134,4.242975895647296,15.57288145965932,1.8274476021643287,-8.453000776631264,2.881371891330662,0.5162045016032064,1.3307145044829658,102.93241434328657,-0.4085166308617234,0.2112614539218437,-0.023821680080160293,0.24079069677354709,34277754.228456914,0.0,0.0,0.0,1.0,0.0
34485420.0,-0.07475088125250501,0.09349035219438878,0.09112184695190381,0.252626055501002,0.0,1549.2925851703408,1500.0,1254.430861723447,1536.1382765531062,1462.8617234468938,1549.8617234468938,15.97283211953908,16.366170536472946,15.962607783707416,15.886671443627254,16.27785267232465,15.8045553049499,16.19371791044088,,,156.21959968997993,156.21959968997993,11.738316313206413,-0.001713247769539078,-0.0064778189078156315,0.0006507237895791583,-0.17599398052304607,0.14372335448496992,-0.09143124085971945,2.0,-0.06633350752905812,0.9336664924709419,11.0,0.0,0.0,1.0,0.0,0.0,0.0,0.0,0.0,0.0,0.0,0.14239679395591184,0.046996625238476954,1.8319135220741483,1.6206720076593186,-12.370647452244489,247.89868551262526,47.93837215643286,-0.008924141196392786,-0.02686926256513026,0.060480967270541086,0.0,0.0008437682464930204,0.2361825621663327,-12.606752406332665,-7.209999999999999e-21,954.3879043621242,11.739304683767536,-0.23895453648496992,0.2707071183426854,0.3587904366332666,0.011153029332665487,0.25796407647494995,-12.538386813086174,-0.23362448807014027,0.27741975743687375,0.3669837683446894,-7.209999999999999e-21,100.051285,101.09210134268537,-0.05204095428857716,-1.862794470553106,15.368384874529058,16.8425637353507,-0.029483585096192384,0.6002046523647295,-0.3092502663687375,45.53041054655311,29027772.931342684,6620172.0,488.2816026811623,11.82859257773547,95595.97395981963,1.1358383245490982,0.04267583297194222,-0.055831977318636955,-0.12426732888376772,-0.1793407839038076,0.3301354994028056,0.39174144559719437,0.08409779663527056,0.04967518042084168,1.8202629414669338,0.6137308902224449,0.006195183965931869,0.04840740044288578,0.7879987864769539,0.24075021842084168,398731067.4158317,327398810.49559116,502961.044943487,16.16422505268537,4.416167171903808,15.536900629138277,1.754376971725451,1.2932806518817634,0.0,0.0,0.0,39.8714138,32.7364368,188.95750803887776,297.39737576412824,-102.43768541743486,2.556513170070141,16.06051126056112,1.9023632014408818,-8.009982884913827,1.927331585679359,0.2977453160681363,1.4330856571482966,102.55881041262525,-0.40919037442084166,0.19185365996593187,-0.05221308509018035,0.2392408754509018,34485420.26653307,0.0,0.0,0.0,1.0,0.0
34706545.0,-0.08231532438677354,0.07867931871142285,0.07100488641883768,0.24767220983166333,0.0,1540.0077404589179,1500.0,1249.6352705410823,1539.2012115190382,1459.7987884809618,1542.6352705410823,16.094299574789577,16.490286506092186,16.11138097709419,16.03482306985972,16.429344213446896,15.914160404228456,16.30571672478958,,,159.1268800456914,159.1268800456914,11.740708593026051,-0.0017084128156312627,-0.006464313815631262,0.000655234759519038,-0.17563730345490983,0.14455285663326653,-0.09093778783967936,2.0,-0.051261955747494994,0.948738044252505,11.0,0.0,0.0,1.0,0.0,0.0,0.0,0.0,0.0,0.0,0.0,0.060603193521042084,0.05165901027254509,1.815877556941884,1.618540742753507,-11.68020571256513,244.4752122779559,48.16903986306613,-0.008946084693386773,-0.026026768362725453,0.05631195902404809,0.0,-0.013285630809619236,0.20283913194388778,-12.16053199753507,-7.209999999999999e-21,954.4168230759519,11.741675249138277,-0.2931418095470942,0.21679824329058117,0.31894036399398795,-0.07939545930060121,0.14649881572945891,-12.118893829579159,-0.28307883151302604,0.22702233760521043,0.3325709553026052,9.432460625006012,100.051285,100.73935745370741,-0.03440365666132265,-1.749036352703407,15.36817113775551,16.92272311016032,-0.031091042845691384,0.5227778339418838,-0.3104541902705411,45.85559120402806,29240212.248677354,6620172.0,489.34657202745484,11.822137161382766,95583.74233226452,1.1356929313727455,-0.1796996344388777,-0.491320395260521,0.11160496454108215,-0.23071257898797595,0.2839893455170341,0.3604197705110221,0.010237018204408815,0.05443586467334669,1.8068088055731464,0.6188016932224448,-0.0182163038997996,0.02086952228056112,0.7850399063006012,0.23901030071142285,398731132.4801603,327399185.85691386,502600.25018316635,16.295045341362727,2.7336581298917837,16.04050906338677,1.8050462238176352,1.4014209564649298,0.0,0.0,0.0,39.8714138,32.7364368,189.3285942244489,300.72879649118244,-102.05369743847695,0.984444453751503,16.360847216312624,1.9435105423386774,-7.348327741849699,1.1017828589639278,0.14587748719038077,1.523787291260521,102.17482548557113,-0.37727482973547094,0.1887821441723447,-0.007481261490981962,0.23624640028056113,34706545.22244489,0.0,0.0,0.0,1.0,0.0
34904753.0,-0.08543791267334669,0.06870167453106213,0.055915832112224444,0.2442038746733467,0.0,1531.0,1500.0,1245.0,1542.6261870701403,1456.3738129298597,1536.8396793587174,16.190049682505013,16.58816408567134,16.260154170480963,16.182974696092185,16.58083575727455,16.023765513507016,16.417715549138276,,,162.03416040140277,162.03416040140277,11.743100875551104,-0.0017035782925851704,-0.0064508084529058115,0.0006597458897795592,-0.17528062538677355,0.14538235921242487,-0.09044433381963929,2.0,-0.03619040396593186,0.9638095960340681,11.0,0.0,0.0,1.0,0.0,0.0,0.0,0.0,0.0,0.0,0.0,-0.01935713379358719,0.05622105520240482,1.799712772496994,1.6163578186492986,-10.980067769258516,241.0529376046092,48.3882025593988,-0.008916766452905811,-0.02509355725250501,0.05289047865931864,0.0,-0.19558843681162327,0.07899785251302606,-11.789172622825651,-7.209999999999999e-21,954.4616752725451,11.744056331002005,-0.3416421057755511,0.17162730441482965,0.277960745004008,-0.24393922335270538,0.11978012775751491,-11.750400909118236,-0.34257175152905817,0.18813539578557115,0.300385173987976,-7.209999999999999e-21,100.051285,100.42628280240481,-0.018749866478957912,-1.6026618539679358,15.367838594028056,17.000075820821642,-0.032644742935871746,0.4321683860080161,-0.31154655251703406,46.26115133599198,29452651.453406814,6620172.0,490.2320472154309,11.815748593567134,95573.60576823648,1.1355725218436874,-0.31458419068136273,-0.37062319408015987,-0.6438566881382752,-0.28456464919839686,0.23104017453507014,0.32324741076753505,-0.053108855414829695,0.05816733085771543,1.7900206379919839,0.6244185526332666,-0.03928527675350702,-0.002520238322645304,0.7800884365050101,0.23621488541482966,398731168.30460924,327399583.3895792,502220.4731054108,16.427087852024048,1.1403420562985966,16.373190535290583,1.92,1.5006429913426858,0.0,0.0,0.0,39.8714138,32.7364368,189.39658836232465,304.1018228276553,-101.66642301402806,-0.4224071358697399,16.514515628376753,1.950785436755511,-6.438898867012023,0.42940654311222426,-0.011085444675350737,1.6025522458917836,101.78754834228457,-0.33843119936072147,0.1750406391523046,0.03751074328056115,0.23683293170340683,34904753.18236473,0.0,0.0,0.0,1.0,0.0
35100067.0,-0.08304461573146292,0.06186723549098197,0.04592451177955911,0.2412846843486974,0.0,1525.0440881763527,1500.0,1242.0440881763527,1541.0440881763527,1457.9559118236473,1532.0440881763527,16.440016633226453,16.84383845747495,16.408927353867732,16.33112632188377,16.7323272947495,16.13337061278557,16.52971437304609,,,164.94144085711423,164.94144085711423,11.745493151282565,-0.0016987437695390782,-0.006437302725450901,0.0006642576553106212,-0.17492394731863725,0.14621186183567134,-0.0899508797995992,2.0,-0.02111885318436873,0.9788811468156313,11.0,0.0,0.0,1.0,0.0,0.0,0.0,0.0,0.0,0.0,0.0,-0.06851523188176356,0.05909719366933868,1.7813835836633267,1.613306927721443,-10.117016506953908,237.65079981623245,48.41406063266533,-0.008845648651302605,-0.024160717721442886,0.05131147339879759,0.0,-0.20135949372344686,-0.10262316383767561,-11.496470302184369,-7.209999999999999e-21,954.536787970541,11.74666976036072,-0.38494864698196396,0.1353637823046092,0.2398937070440882,-0.33013364255310607,0.005755271679358527,-11.463931904308616,-0.369904660993988,0.15087045053306608,0.24853961939679356,-7.209999999999999e-21,100.051285,100.12206053587175,-0.003538855735470932,-1.4074073740140278,15.367598602725451,17.037984224188378,-0.03340771558517034,0.3179716921883767,-0.312656915507014,46.78947922877756,29665134.314709418,6620172.0,491.27009015350706,11.80942109002004,95561.72921316633,1.135431446004008,-0.41256310964929704,0.22657843013627532,-0.08059641789579053,-0.3469975188316634,0.1905713787815631,0.28502355756112224,-0.10802613758116236,0.061181685286573154,1.7687633803767533,0.6312641247855711,-0.057829170713426865,-0.022378912496994006,0.7730740513627254,0.23691672535470942,398731176.1661323,327399974.9755511,501843.166763527,16.566671778517033,-0.23893251885170422,16.55138679975952,1.9147987996472946,1.5855577714368738,0.0,0.0,0.0,39.8714138,32.7364368,189.19912209018037,307.4924756490982,-101.2834858024048,-1.6397389176693393,16.56063187422846,1.9130907090841682,-5.584983130785569,0.019283202314629037,-0.2895410737314632,1.6699411387695393,101.40460589498998,-0.2919245171302605,0.15331751778156313,0.029432791815631246,0.24014550833667336,35100066.6753507,0.0,0.0,0.0,1.0,0.0
35323091.0,-0.08720533780561122,0.052690879332665336,0.032468729805611225,0.24074001591182365,0.0,1519.0,1500.0,1240.248496993988,1540.8017141783566,1458.1982858216434,1528.0,16.498178381402806,16.903112842024047,16.481321438356712,16.401060933226454,16.803712727094187,16.19216283430862,16.58968611977956,,,166.62056818797595,166.62056818797595,11.747586335671341,-0.0016940061903807616,-0.006423744641282566,0.0006687558937875751,-0.17457156108416833,0.1470491193787575,-0.08945423114028055,2.0,-0.006047301402805615,0.9939526985971944,11.0,0.0,0.0,1.0,0.0,0.0,0.0,0.0,0.0,0.0,0.0,-0.11767332996993987,0.06197333313627255,1.7630543948296593,1.6102560377935873,-9.253965250152305,234.24866202785572,48.43991871593186,-0.00875062250501002,-0.023273744715430863,0.051311069639278555,0.0,-0.27681140915631264,-0.03306180820841684,-11.26692872755511,10.054893370845688,954.548175541483,11.74892687498998,-0.4031226377875751,0.10711150974749499,0.18901657913627257,-0.3739266054769539,-0.056660947178356715,-11.297206668036072,-0.4050664848036072,0.11126385932865732,0.20895201600000002,10.054893370845688,100.051285,99.87516617328657,0.00880591086573146,-1.1871848354348697,15.367463207094188,17.04456628707415,-0.033542069100200404,0.19142711766933873,-0.3136251787214429,47.34647091418837,29877612.949078158,6620172.0,492.19834195470946,11.803124695931864,95551.09039923848,1.1353050142204408,0.03700494007615157,-0.3168895210861724,-0.15101124259318688,-0.37359230520841685,0.1594228098216433,0.23665917144288579,-0.14692383863326652,0.06333775968537074,1.7490267402144288,0.6375327166212424,-0.07128168605010018,-0.036026383665330654,0.7662651974308617,0.24068198184569137,398731159.31583166,327400375.8312625,501455.973655511,16.696162544388777,-1.4654627877114226,16.63,1.8665312138456915,1.6590104556032064,0.0,0.0,0.0,39.8714138,32.7364368,188.7677870733467,310.90124971182365,-100.9149774993988,-2.6570147835531057,16.531075218917838,1.8156294470320642,-4.503038673034069,-0.2815374541362725,-0.5460944403627254,1.7256818260220441,101.03610147154309,-0.25437902882364727,0.1369682927955912,0.003101100967935879,0.2456231465230461,35323091.43086173,0.0,0.0,0.0,1.0,0.0
35538317.0,-0.07950152483166331,0.04737694607815632,0.025407878448897803,0.23866692533066133,0.0,1513.0,1500.0,1240.0,1541.7901892384768,1457.2098107615232,1524.0,16.563800100881764,16.970178203607215,16.524502311843687,16.441079394428858,16.844459452284568,16.231520328336675,16.629758759759522,,,167.82995596853706,167.82995596853706,11.749565134368737,-0.0016958390480961924,-0.006406603018036072,0.0006724109338677354,-0.1745097313707415,0.14841140894789578,-0.08874126509619237,2.0,0.009024249378757497,1.0090242493787576,11.0,0.0,0.0,1.0,0.0,0.0,0.0,0.0,0.0,0.0,0.0,-0.15097863958316632,0.06396596132865731,1.7428619286953908,1.6066119211142285,-8.287561496499,230.85859008597194,48.404942538877755,-0.00864196367735471,-0.022409559595190382,0.05167904013827655,0.0,-0.3611066584829658,-0.09062069719639275,-11.10417480220441,-7.209999999999999e-21,954.6043874380762,11.751044246553105,-0.41176053480360725,0.0876773754348698,0.1451456264529059,-0.3912060378056111,-0.08817680586973942,-11.16915662727455,-0.40615714984969936,0.09106053962725454,0.15054518782765536,-7.209999999999999e-21,100.051285,99.68114965897796,0.018506765777555098,-0.9708252576372749,15.367382375991983,17.01872172486974,-0.03302678484569138,0.08019102271342698,-0.3144782665651303,47.924627144308616,30089968.831743486,6620172.0,493.154389947495,11.796512554729459,95540.14883388778,1.1351750191222445,-0.020523265931858548,-0.26920342997194396,-0.3607177484168282,-0.39977157430060123,0.1253022088957916,0.19925136819238484,-0.17341453267334672,0.06467064610621243,1.7292775650521042,0.644009073234469,-0.08067178193987977,-0.04495468241082164,0.7594230725611223,0.24650662211623245,398731121.67615235,327400783.14769536,501093.9047196393,16.814100373527054,-2.5226731781162313,16.62435984749499,1.761669512226453,1.7216475499338677,0.0,0.0,0.0,39.8714138,32.7364368,188.1519602488978,314.2989113378757,-100.56743831863727,-3.4704721839599193,16.46791165256513,1.6780160568096194,-3.5435134972845708,-0.395187382262525,-0.7624366861783565,1.7696838898577154,100.68856449398798,-0.19650032966132275,0.12669966060921845,-0.023228361783567106,0.25079380248496996,35538316.58717435,0.0,0.0,0.0,1.0,0.0
35747418.0,-0.07090128438276551,0.04681348682164328,0.03800978258717433,0.23619585826452905,0.0,1514.685370741483,1500.0,1236.0,1537.2783896953908,1461.7216103046092,1523.3426853707415,16.631661327775554,17.039432363466936,16.56768317533066,16.481097855631262,16.885206187474953,16.270877815791582,16.66983138973948,,,169.03934375851708,169.03934375851708,11.751543923066132,-0.0016979360521042085,-0.006389317112224449,0.0006760311783567134,-0.17445962848497,0.14979488711022043,-0.08801956910420841,2.0,0.02409580116032063,1.0240958011603207,11.0,0.0,0.0,1.0,0.0,0.0,0.0,0.0,0.0,0.0,0.0,-0.17366073022444886,0.06536653403206413,1.7214208503366735,1.6025702738737475,-7.251899496290583,227.47660356813626,48.32920030887775,-0.00852745380761523,-0.021585250190380764,0.05216188001002004,0.0,-0.41820024355310603,-0.11016060498597208,-11.019331578096192,-7.209999999999999e-21,954.6251854052105,11.753120970541081,-0.3968365373767535,0.07513851720641279,0.10097561447895792,-0.45793552460120285,-0.04947601191783565,-11.076724073346693,-0.3985356583527054,0.0755281358496994,0.11847973028256518,-7.209999999999999e-21,100.051285,99.51742389687375,0.02669304714228456,-0.7734997023226454,15.367238159258516,16.958704393687377,-0.03182932363126253,-0.014924899953907734,-0.3153122783286573,48.57775490731463,30302408.8153507,6620172.0,494.34053246713427,11.789483553006011,95526.56295983968,1.1350135215831663,-0.23955648756312614,0.29608036217034206,-0.05633520699398954,-0.40834553457515027,0.10343522212424851,0.15205723438677357,-0.19070056525450899,0.06614078213627254,1.708965451,0.6508914188897795,-0.08730645433667333,-0.05015315794589177,0.7524589685931864,0.2510191999298597,398731066.9563126,327401178.5222445,500759.1211190381,16.911785573667334,-3.365757739677354,16.578214426332664,1.6205360568096194,1.771231606,0.0,0.0,0.0,39.8714138,32.7364368,187.39263623186375,317.6796006567135,-100.25568161963928,-4.080301472046092,16.392079255951902,1.505378713498998,-2.565864940448899,-0.4332909601262525,-0.8957100103587176,1.8026229631783566,100.37680661963928,-0.14803335422044087,0.11969656241082165,-0.04422998994388776,0.25618706623647297,35747418.49498998,0.0,0.0,0.0,1.0,0.0
35947085.0,-0.06619824700801605,0.04194340708416834,0.05261495845490982,0.23708919066132267,0.0,1522.4147725851703,1500.0,1236.0,1535.3397374448898,1463.6602625551102,1521.8927865831663,16.68372429390782,17.092446804028057,16.610864048817636,16.521116308216435,16.92595291266533,16.310235307775553,16.70990401971944,,,170.24873157995992,170.24873157995992,11.753522711763527,-0.0017000340561122245,-0.006372031521042085,0.0006796514228456914,-0.1744095245991984,0.15117836527254508,-0.08729787311222445,2.0,0.03916735294188376,1.0391673529418837,11.0,0.0,0.0,1.0,0.0,0.0,0.0,0.0,0.0,0.0,0.0,-0.19316810555711422,0.06667693198196392,1.7004882183627255,1.5985996672525051,-6.240635413332666,224.0938319260521,48.252744621442886,-0.0084132593747495,-0.020817757997995994,0.05269777275551102,0.0,-0.49839448505210415,-0.20613341696994017,-11.155320313306612,11.754727271943887,954.6681412426855,11.754727271943887,-0.37213823117835676,0.06527568707815631,0.05246464151302606,-0.5065865082725451,-0.06604767228456913,-11.108805600961924,-0.3788765916713427,0.06875448215831666,0.0772661808917836,9.757489353338691,100.051285,99.39652801641283,0.03273790575350701,-0.6245062713787576,15.367068778496995,16.931874849979963,-0.03129612565731463,-0.07823319984969937,-0.3160221777254509,49.20297064208417,30514848.13268537,6620172.0,495.3035829549098,11.782262211703406,95515.53794270541,1.1348826108056111,-0.1877627449539086,-0.058105438539079415,-0.7373078743727464,-0.39806126051703405,0.08763129946292586,0.11122137550501006,-0.1970236137334669,0.06708832885771543,1.6910988328336674,0.6572613446593186,-0.09018114043486974,-0.051417766687374744,0.7464737588577154,0.2563098651302605,398730997.1470942,327401583.81342685,500439.4429402806,16.987681626192387,-3.990672178094188,16.5023182203006,1.4254182295470943,1.8080749911823648,0.0,0.0,0.0,39.8714138,32.7364368,186.52330966052105,321.05382301302603,-99.98196617028057,-4.49768141792986,16.313702323346693,1.297163024002004,-1.6151650938196398,-0.5075653770621243,-1.0884561338757515,1.825322778476954,100.10309030521042,-0.10817888257515032,0.11516500830260522,-0.060975925114228446,0.25991925565130264,35947084.53306613,0.0,0.0,0.0,1.0,0.0
36142751.0,-0.05663664619839679,0.034739602913827654,0.04832350201803607,0.24076826985971944,0.0,1525.066132264529,1500.0,1238.933867735471,1529.933867735471,1469.066132264529,1518.955351783567,16.69462358519038,17.103468523286573,16.65404492230461,16.56113476803607,16.96669964719439,16.349592800420844,16.749976649699402,,,171.4581193356714,171.4581193356714,11.755501500460923,-0.0017021310601202403,-0.006354745272545091,0.0006832716673346693,-0.17435942171342686,0.15256184343486973,-0.08657617712024047,2.0,0.05423890372344689,1.054238903723447,11.0,0.0,0.0,1.0,0.0,0.0,0.0,0.0,0.0,0.0,0.0,-0.19338972416833666,0.0674395390521042,1.682644296240481,1.5950606212705412,-5.377583746927856,220.70629081362725,48.171954805170344,-0.008310988460921844,-0.020116894969939878,0.053250074226452906,0.0,-0.48660330322645295,0.019915161182364763,-11.018162831442885,0.08677578334869929,954.6919972416833,11.756104820300601,-0.32744161384368736,0.04929595275551103,0.0149442696993988,-0.43538899539278564,-0.09755477995791574,-10.89698511795591,-0.3372236940981964,0.046782674,0.02474051932264531,-7.209999999999999e-21,100.051285,99.30560865410821,0.03728381048496994,-0.5059003438116232,15.366823694148296,16.891677013987977,-0.030497067849699397,-0.11771284272144288,-0.3166547738937876,49.81965799967936,30727287.44002004,6620172.0,496.5570989386773,11.774864928657314,95501.17118116232,1.134711842496994,1.1651045068216417,-0.459831487230461,-0.14536432206012084,-0.37396408090180366,0.07984209608216433,0.06882392948096192,-0.20342205292384768,0.06794378583366734,1.6684919196873746,0.6653237726012025,-0.09319769071342685,-0.05247472128857715,0.7388524223126252,0.25991036793987976,398730919.032465,327401980.762525,500168.05793126253,17.033193825851704,-4.424760206214429,16.453603399278556,1.2467971073106212,1.833354370759519,0.0,0.0,0.0,39.8714138,32.7364368,185.58530856633266,324.4178146973948,-99.755910466994,-4.736517199761523,16.241326493026055,1.0597615190140282,-0.8501248001402807,-0.3430182299659319,-1.0795959308096192,1.8380007864028056,99.87703579134268,-0.06801654599599198,0.11077157280761522,-0.07355336575551102,0.2621150455490982,36142750.571142286,0.0,0.0,0.0,1.0,0.0
36357489.0,-0.04431756414428857,0.030054950076152307,0.042270484841683366,0.24712142941883766,0.0,1522.2705410821643,1500.0,1243.7294589178357,1524.8892856513028,1474.1107143486972,1516.0,16.621868378537076,17.028744364448897,16.640652114148295,16.544621940941884,16.949658470841683,16.33060813541082,16.730404800060118,,,171.09304703326654,171.09304703326654,11.756442274048096,-0.0017047936653306615,-0.006337271553106212,0.0006858867174348698,-0.17435637668136272,0.15396492288777555,-0.08584818416833667,2.0,0.06931045550501001,1.0693104555050101,11.0,0.0,0.0,1.0,0.0,0.0,0.0,0.0,0.0,0.0,0.0,-0.19361134377955913,0.06820214512224448,1.6648003732565129,1.5915215752885772,-4.514532080523046,217.3187497012024,48.09116498751503,-0.008217581108216432,-0.019462456118236472,0.053857716288577155,0.0,-0.43529530023647295,-0.12281825161723448,-10.695819576072145,-7.209999999999999e-21,954.7010115374749,11.757255027234468,-0.2819561764488978,0.02804145817835671,-0.022379332509018038,-0.39572679680561124,-0.06645387793186372,-10.692159857795591,-0.29617126406012023,0.03644149423647294,-0.01562604949298597,-7.209999999999999e-21,100.051285,99.22950185108216,0.0410891876993988,-0.40053556780761523,15.366860538937877,16.851100746252506,-0.029684796470941886,-0.13649111876753506,-0.31729523773346696,50.50221280420842,30941871.79695391,6620172.0,497.6767512539078,11.767303268577155,95488.36567124249,1.134559725703407,0.07856792822244482,0.11025008650701412,0.22255372816032076,-0.33540425279959923,0.05984590182965932,0.017727237707414828,-0.19601725991783567,0.06855249319038076,1.6536800675250503,0.671088407765531,-0.09132323809619239,-0.04885793826452906,0.7341024313366733,0.26203258687174347,398730836.1933868,327402371.4973948,499942.9079877756,17.048337160000003,-4.678289405028056,16.40503594066132,0.9800958426072144,1.8486788196693387,0.0,0.0,0.0,39.8714138,32.7364368,184.61543385170341,327.7706710551102,-99.57861450488977,-4.815525035653306,16.200968595751505,0.8476012944408818,-0.03231458515030057,-0.1649680726012024,-0.8727960637955912,1.8411767279759519,99.69974157342685,-0.022675767364729454,0.10862757364529058,-0.08078455026252505,0.26283883412825654,36357488.60721443,0.0,0.0,0.0,1.0,0.0
36570284.0,-0.03552500261122245,0.027060849084168337,0.0365331784509018,0.25145029879759523,0.0,1519.0,1500.0,1249.2634176352706,1520.5026281903806,1478.4973718096194,1514.0,16.690303036573145,17.0988079350501,16.617288501282566,16.518145777875752,16.92243249214429,16.301340989498996,16.700320929438877,,,170.4504846228457,170.4504846228457,11.757200095551102,-0.0017131685731462925,-0.006317897132264529,0.0006783236332665331,-0.17482963015430864,0.1555663896452906,-0.08505646274749498,2.0,0.08438200628657315,1.0843820062865732,11.0,0.0,0.0,1.0,0.0,0.0,0.0,0.0,0.0,0.0,0.0,-0.18670493019639278,0.06886240992384769,1.6493606959358718,1.5883419723747494,-3.769534331304609,214.02380643166333,48.02072873647295,-0.008140094078156312,-0.018828991144288577,0.05446171350501002,0.0,-0.37575188357114225,-0.0362930908116232,-10.609162632785571,8.046944601186365,954.721633216032,11.758050515731464,-0.23804516144088175,0.030924519316633276,-0.0474900203967936,-0.3204660208717433,-0.1579097163607216,-10.523123632404811,-0.2414198326993988,0.03232434529058117,-0.0348989668957916,8.046944601186365,100.051285,99.1707663149499,0.04402586965130261,-0.32194322582565127,15.366852883426853,16.80959701042084,-0.02885487644488978,-0.14446137674148296,-0.3178439389659319,51.1366494861523,31152166.069939878,6620172.0,498.81735384809616,11.759617284108216,95475.33424653306,1.1344049011903807,0.43205598844288573,0.6079573367735467,0.013994909763527108,-0.2922493747875751,0.045684980825651304,-0.01434339082364731,-0.18235763696392784,0.0693345827755511,1.641579300519038,0.6760944131683367,-0.08728309108416832,-0.04305375290781563,0.7303574678977957,0.2628262435350701,398730746.97174346,327402771.4258517,499762.66576092184,17.038273169258517,-4.766548335667334,16.33,0.7506608535470941,1.8547551880661324,0.0,0.0,0.0,39.8714138,32.7364368,183.6436406202405,331.1212828392786,-99.44260617250501,-4.754941717008016,16.190474261963928,0.6827928472525049,0.5319224810240483,-0.03113976846693385,-0.6451951791683367,1.8365315734468939,99.56372743282564,-0.003117073815631249,0.1052526894529058,-0.08491469049498998,0.2639424508657315,36570284.048096195,0.0,0.0,0.0,1.0,0.0
36785320.0,-0.02892020600601201,0.025215141316633268,0.03223173998396793,0.2570833126913828,0.0,1516.6793587174348,1500.0,1254.3206412825652,1516.6060453707414,1482.3939546292586,1512.6793587174348,16.568954385911823,16.974445919078157,16.593924888416833,16.49166961480962,16.89520651024048,16.272073833587175,16.670237058817637,,,169.80792211242485,169.80792211242485,11.757957917054108,-0.0017216321362725452,-0.006298493492985972,0.0006706049058116232,-0.1753102025751503,0.15717090385971946,-0.08426376196793588,2.0,0.09945355806813629,1.0994535580681364,11.0,0.0,0.0,1.0,0.0,0.0,0.0,0.0,0.0,0.0,0.0,-0.17650442991382764,0.06947537962525051,1.6350320948997996,1.5853284783967936,-3.079092997498998,210.7716556452906,47.95507719685371,-0.008074083196392785,-0.018191476386773545,0.05500410485571142,0.0,-0.3151599671482964,-0.05186801273547108,-10.45695265004008,-7.209999999999999e-21,954.7423618741484,11.758728369358717,-0.1830494497835671,0.026001663418837688,-0.07227145338076153,-0.2794141081783566,-0.08734204254909825,-10.46713853218437,-0.20089960467535067,0.02696561656112225,-0.06680706222044089,-7.209999999999999e-21,100.051285,99.12676342873748,0.04622607665531063,-0.25622255815030054,15.366930961923845,16.790851711883768,-0.02847840972745491,-0.15535880987975953,-0.3183424874168337,51.75542289482966,31364605.38202405,6620172.0,500.01132936392787,11.752238295370741,95461.65608963928,1.1342423370420842,0.2158535963547089,-0.17415647839478543,-0.28271202626252345,-0.2401762438817635,0.04108342934068136,-0.04728111270340682,-0.17427425529258514,0.0697745170460922,1.6239395900781561,0.6828394253567135,-0.08505869333266532,-0.03920311040080159,0.7245388346292586,0.2639531917695391,398730659.62244487,327403159.9715431,499626.1422202405,17.02642119673347,-4.724954125310622,16.338944954248497,0.592110089747495,1.8523275832805612,0.0,0.0,0.0,39.8714138,32.7364368,182.6943587769539,334.4725978529058,-99.33664620683366,-4.584894395897795,16.205950274589178,0.5474148249358717,0.9740545073547097,0.044791917412825795,-0.543954833513026,1.826026361533066,99.45776620683367,0.03200243500000002,0.09942042941082163,-0.07377475831663327,0.2636101963927856,36785319.651302606,0.0,0.0,0.0,1.0,0.0
36997881.0,-0.0207705704048096,0.024500111611222442,0.029365469438877752,0.26051183559118235,0.0,1515.0,1500.0,1258.11623246493,1511.88376753507,1487.11623246493,1512.0,16.56776263741483,16.973002945170343,16.570561275551103,16.465193461743485,16.867980533587176,16.24280667767535,16.640153188196393,,,169.165359702004,169.165359702004,11.758715738557115,-0.0017300946993987975,-0.0062790898537074145,0.0006628861783567134,-0.175790774995992,0.1587754190741483,-0.08347106118837676,2.0,0.11452510984969942,1.1145251098496993,11.0,0.0,0.0,1.0,0.0,0.0,0.0,0.0,0.0,0.0,0.0,-0.16488009920040078,0.07005278558917835,1.6215057471843688,1.5824585338577155,-2.427751247961923,207.47727352324648,47.89141217787576,-0.008029730308617235,-0.01760373925250501,0.05554176407014028,0.0,-0.20044648019639255,-0.039249559879759456,-10.382922438797594,-7.209999999999999e-21,954.7456214218437,11.759243331823647,-0.1364702330921843,0.03882424319438872,-0.09013358460521043,-0.18562266302805636,-0.08813016618837656,-10.390713166452905,-0.15200786486773543,0.028465135354709407,-0.08707572840881768,-7.209999999999999e-21,100.051285,99.09313677064128,0.047907406328657316,-0.19784367426653302,15.366855388817637,16.761037478917835,-0.027883649350701402,-0.16381148981563126,-0.3188584656252505,52.435835476993994,31577150.073386773,6620172.0,501.06373420821643,11.745601256152305,95449.58060332666,1.1340989353346693,0.1515738264228457,0.3640189144849714,-0.5277408536292536,-0.18795017649899798,0.04147407750501003,-0.06563647297194393,-0.15487796479358715,0.07039676066332666,1.6151305659078157,0.6867936005631262,-0.07879691296593185,-0.031614031841683356,0.721875865482966,0.26375135841082165,398730573.4146293,327403555.28977954,499517.4046106212,17.006295700681363,-4.569252700683367,16.391112899118237,0.4877741999498997,1.842737553763527,0.0,0.0,0.0,39.8714138,32.7364368,181.78787619378755,337.83134869138274,-99.25591772825652,-4.329624217034069,16.244521079739478,0.4363260262224448,1.4081979498436878,0.19448844020440853,-0.4601461430460919,1.8108433958657315,99.37704185855712,0.03731327017434872,0.095550882751503,-0.06972972985971942,0.26357515238476953,36997880.65330661,0.0,0.0,0.0,1.0,0.0
37212730.0,-0.014087737176352689,0.024026794915831665,0.027275760364729458,0.26242525416032064,0.0,1514.0,1500.0,1261.0,1508.0,1491.0,1511.7920622645288,16.565260509358716,16.97038375,16.547197663567136,16.438717298677354,16.840754556052104,16.213539521763526,16.610069317575153,,,168.52279729158317,168.52279729158317,11.75947356006012,-0.00173855726252505,-0.006259686214428857,0.0006551664509018036,-0.1762713473286573,0.16037993328857716,-0.08267836049699398,2.0,0.12959666063126254,1.1295966606312626,11.0,0.0,0.0,1.0,0.0,0.0,0.0,0.0,0.0,0.0,0.0,-0.14839391315831663,0.0705087527254509,1.6107187958256513,1.5800787558857716,-1.909920247959919,204.03868688236471,47.83453043092184,-0.00799506065531062,-0.017029271396793586,0.05617281822845691,0.0,-0.18166654243086153,-0.05115149832865693,-10.315038960981964,6.334509137324618,954.743916952505,11.759622581422846,-0.09146641949098192,0.02922022104408816,-0.10147904316032064,-0.15639124582364713,-0.0484873704689376,-10.426396312124249,-0.09310631732665325,0.029343295414829697,-0.09847098102204412,6.334509137324618,100.051285,99.0730540197996,0.04891161168737475,-0.15223372810821637,15.366662981122245,16.749030789458917,-0.02764735990781563,-0.16649765923246493,-0.31931754372344695,53.0646071003006,31789484.00669339,6620172.0,501.9477510282565,11.73993606985972,95439.46905907815,1.1339787319258516,-0.1351815334488983,-0.17303217820239813,0.11309064694990578,-0.13770676782364724,0.04953155902605217,-0.09003407304408821,-0.13576404366933864,0.07074006003406813,1.6062994868456912,0.6906846316452906,-0.07246103034869739,-0.024275437436873736,0.7191059900661323,0.26367876118837674,398730490.2727455,327403956.08336675,499427.55048476957,16.986169380020037,-4.326794805394789,16.445745925851703,0.3689316014649297,1.828394956250501,0.0,0.0,0.0,39.8714138,32.7364368,180.9383983280561,341.2045767801603,-99.19164346611223,-4.011792229390782,16.298881466412826,0.35032906425450894,1.6113643432645293,0.15888915939278572,-0.3919204655691382,1.7917192626452907,99.31277077092184,0.06323402236472947,0.09103329431262525,-0.0549851979258517,0.26288607394789576,37212730.05611222,0.0,0.0,0.0,1.0,0.0
37419578.0,-0.009995946761523036,0.023773151663326653,0.025907148316633266,0.2633403084368738,0.0,1513.0,1500.0,1262.0,1506.2925851703408,1492.7074148296592,1511.0,16.556244215430862,16.96106051006012,16.53616634224449,16.426679689278558,16.82841680683367,16.194948268216436,16.591018408897796,,,168.13316371863726,168.13316371863726,11.759656195290582,-0.001747682597194389,-0.006239760841683367,0.000645194358717435,-0.17683648174148298,0.16199799479158317,-0.0818838095230461,2.0,0.14466821241282565,1.1446682124128256,11.0,0.0,0.0,1.0,0.0,0.0,0.0,0.0,0.0,0.0,0.0,-0.13190772711623247,0.07096471986172345,1.599931845466934,1.5776989770300602,-1.3920892479579163,200.60010021222445,47.77764867396793,-0.007975004322645292,-0.01644974972945892,0.056920064675350705,0.0,-0.07204812327454907,0.015613938102204383,-10.307906920601203,-7.209999999999999e-21,954.7559685829661,11.759889210801603,-0.05026057344889779,0.02786746178356716,-0.1027389474549098,-0.18800680669338618,-0.08246423987975952,-10.3221906350501,-0.05890334762925856,0.026405212717434838,-0.10188967501002004,-7.209999999999999e-21,100.051285,99.06426572835672,0.049350951348697394,-0.11231895102805614,15.366804335631262,16.7314254888978,-0.027292435821643285,-0.16476741011222445,-0.3197572522725451,53.680589529919835,32001923.324028056,6620172.0,502.58303058076154,11.735391223106213,95432.20832490982,1.1338924960541084,-0.24735176323246205,0.16587544486773395,-0.16245780418637237,-0.09353245514428862,0.04329899150901803,-0.10053476167334667,-0.11822846798597196,0.07119934191983968,1.5974535011823647,0.6944525557054108,-0.06664516771543087,-0.017515571673346702,0.7162300997174349,0.2629602797234469,398730413.51583165,327404348.96052104,499363.12918156316,16.968021530260526,-3.994710561264529,16.485827743767533,0.2701076587915832,1.8087987656432867,0.0,0.0,0.0,39.8714138,32.7364368,180.15754131042084,344.59441901963925,-99.13954467044088,-3.6522371578577157,16.36048343701403,0.2765543006913828,1.7785421901803606,0.17340000711823653,-0.31915293120040095,1.7699670780621242,99.26066467044089,0.06732427284168335,0.08892634602004008,-0.04826169491182366,0.2614501545290581,37419578.458917834,0.0,0.0,0.0,1.0,0.0
37624694.0,-0.0030753125010020105,0.022638709108216436,0.026468377474949893,0.26385040681362726,0.0,1512.0,1500.0,1264.0,1502.6220568336673,1496.3779431663327,1511.0,16.545959268376755,16.9505763598998,16.525425499018034,16.41498218781563,16.81642976266533,16.17660848765531,16.572227378637272,,,167.7494878480962,167.7494878480962,11.759825287715431,-0.001759948863727455,-0.006217358881763528,0.0006245262805611222,-0.17780298930060123,0.16368035509418838,-0.08108047433066133,2.0,0.15973976319438876,1.1597397631943887,11.0,0.0,0.0,1.0,0.0,0.0,0.0,0.0,0.0,0.0,0.0,-0.11502481552705411,0.07126969266933868,1.5918882656913826,1.5758507221262525,-1.0070138321382769,197.15473768116235,47.728069846973945,-0.00796615765731463,-0.01587130092184369,0.05774013044488977,0.0,-0.13787910680961926,-0.07216660499198393,-10.255068999659319,-7.209999999999999e-21,954.7527345743487,11.760121821703407,-0.01972325045691383,0.028725332400801624,-0.11137582291783567,-0.09868021107615207,0.012062845086172516,-10.273280465691382,-0.02398299475551103,0.03260003768336673,-0.10671533571543086,-7.209999999999999e-21,100.051285,99.0629031776553,0.04941903910220441,-0.07621869037875753,15.366683584789579,16.724113799298596,-0.02714859037274549,-0.1755169526492986,-0.3202323710501002,54.35818833426853,32214362.636392787,6620172.0,503.12467865811624,11.73188503761523,95426.02969462927,1.1338190584228458,0.3076335019318649,0.00353812106813612,-0.03761733480560986,-0.05418171887374751,0.04095403447895792,-0.10855240423446894,-0.10245703778957917,0.07176155208016032,1.5885842090781563,0.6981091358036072,-0.06141870683166333,-0.011398752967935877,0.7132599385470942,0.2615363150440882,398730341.7160321,327404754.25771546,499307.65015971946,16.955916746052104,-3.652418182731463,16.56020813238477,0.21979185609418841,1.7877174650741485,0.0,0.0,0.0,39.8714138,32.7364368,179.45327682685374,347.997659252505,-99.10219040755511,-3.2637227114849705,16.41386944452906,0.21712250086973953,1.9474801163226454,0.16094870708617232,-0.22737597583166325,1.7472870904028057,99.2233170561523,0.06626305956513025,0.08647993473547094,-0.04214026426653308,0.2616629723246493,37624694.41282565,0.0,0.0,0.0,1.0,0.0
37840081.0,-0.002874384563126254,0.02156250576553106,0.028569072859719442,0.2635459419438878,0.0,1513.0,1500.0,1263.0,1501.0,1498.0,1510.0,16.557276204228458,16.962236143667337,16.514684665791584,16.403284686352706,16.804442711422848,16.15826870008016,16.553436348316634,,,167.36581204769539,167.36581204769539,11.759994373066132,-0.001772215130260521,-0.006194956921843687,0.0006038592024048097,-0.17876949585971946,0.16536271568937874,-0.08027713914428858,2.0,0.1748113149759519,1.1748113149759518,11.0,0.0,0.0,1.0,0.0,0.0,0.0,0.0,0.0,0.0,0.0,-0.09802280268737475,0.07152933615430862,1.5846682766773545,1.574162036242485,-0.661793165735471,193.70734096212428,47.68068344274549,-0.007967371114228457,-0.015277590136272546,0.05859988414028056,0.0,-0.14284439846893787,-0.03813153629458919,-10.243781589398798,4.621230695390787,954.7512462280561,11.76024181963928,0.011009497769539071,0.021248384983967934,-0.10401163259919842,-0.08413138373947891,-0.038020745973948014,-10.24853894006012,-0.0006596342044088186,0.03505772048697395,-0.10808524141683366,4.621230695390787,100.051285,99.0671989737475,0.04920441021843688,-0.049308975134268546,15.366886809318636,16.73390232559118,-0.02734030934068136,-0.1732238843486974,-0.32066906161322645,54.979507576753505,32426801.948697396,6620172.0,503.45951241503,11.729404979759519,95422.19221523046,1.1337734672044089,0.302998483917835,0.043828089517034874,0.2923497998196404,-0.019196203386773553,0.041909917777555115,-0.112550669496994,-0.08926590516032065,0.0716993933006012,1.5796978378236473,0.7016634311302605,-0.05682017054108217,-0.006463572543086174,0.7102090106032064,0.26167993759118235,398730278.2036072,327405153.2747495,499273.52758296597,16.935790431523046,-3.2594941735290583,16.614733498697397,0.15684734963326658,1.764574927248497,0.0,0.0,0.0,39.8714138,32.7364368,178.82863652625247,351.41636357675355,-99.07856810983968,-2.8664316847955913,16.46744293058116,0.16766380655310623,1.9377663169879757,0.1806812049158317,-0.23762761229058119,1.7240652267955912,99.19968810983968,0.0777125861743487,0.08364197177154309,-0.030118886466933868,0.2606321903807615,37840080.8757515,0.0,0.0,0.0,1.0,0.0
38051748.0,-0.00030077299198398246,0.020580412314629266,0.032231743533066126,0.2633501823246493,0.0,1515.0,1500.0,1263.0,1498.9058116232466,1500.0941883767534,1510.0,16.55237147224449,16.957125878096193,16.503943823507015,16.391587175831663,16.792455669238475,16.13992891747495,16.53464532302605,,,166.98213620701404,166.98213620701404,11.76016346747495,-0.0017844813967935872,-0.006172554961923847,0.000583191124248497,-0.17973600241883766,0.16704507528456913,-0.07947380445490983,2.0,0.189882866757515,1.189882866757515,11.0,0.0,0.0,1.0,0.0,0.0,0.0,0.0,0.0,0.0,0.0,-0.08153125359919844,0.07173533562124249,1.5785695550480963,1.572718704715431,-0.3703737496192389,190.25847925631265,47.63332380438878,-0.007984032438877757,-0.01467616914228457,0.059426699112224445,0.0,-0.0033605070801603354,0.057294338230461365,-10.222639832525049,-7.209999999999999e-21,954.7615993260521,11.76030432230461,0.03283928380561115,0.022634505392785692,-0.10152116545490991,-0.10854257914028138,-0.06797986970741662,-10.146300553246494,0.02749903202805608,0.022256845575150324,-0.10796091218837676,-7.209999999999999e-21,100.051285,99.07743366659318,0.048692555474949904,-0.028696194046092232,15.366763791482965,16.703447513346696,-0.026733665286573147,-0.16996432056112226,-0.3210966420541082,55.58714810082164,32639241.266032066,6620172.0,503.7758698761523,11.727888519879759,95418.57548613226,1.1337305839038074,-0.06210176101001473,-0.08287565892785138,0.07671651961722956,0.009309674002003996,0.035629760737474966,-0.10369485307815621,-0.066728462985972,0.07195746468136273,1.5797046218937874,0.7022506809719439,-0.049001329703406836,0.0016304864889779378,0.7102390818116232,0.260605988741483,398730222.74288577,327405550.2496994,499251.04881182365,16.915664112024047,-2.837617948454911,16.67867177501002,0.07433588841082159,1.7395754164809618,0.0,0.0,0.0,39.8714138,32.7364368,178.28652372665331,354.84489363747497,-99.06569674142284,-2.471601040531063,16.51088177587174,0.12244296688777564,1.8880427704889786,0.12870899868737476,-0.18739992139879771,1.7015353603907817,99.18681674142285,0.06514529302605208,0.0814210201723447,-0.027855213801603235,0.2597854824048096,38051747.91382766,0.0,0.0,0.0,1.0,0.0
38239414.0,0.0012773845671342678,0.01996254073747495,0.03472432291583166,0.2625985755511022,0.0,1516.8897795591183,1500.0,1263.0,1497.2153477054107,1501.7846522945893,1509.1102204408817,16.49893792835671,16.902334905531063,16.48973219951904,16.376522178116232,16.777020856613227,16.122090829278555,16.516370181923847,,,166.58539509138276,166.58539509138276,11.760308600901803,-0.0017967486633266533,-0.006150154002004009,0.0005625230460921843,-0.18070250997795592,0.16872743587975952,-0.07867046976553106,2.0,0.20495441753907817,1.204954417539078,11.0,0.0,0.0,1.0,0.0,0.0,0.0,0.0,0.0,0.0,0.0,-0.06616695880561121,0.07182287423046092,1.5749469260501001,1.57181718801002,-0.19776341602004005,186.80638241282566,47.58602326082164,-0.008012075476953907,-0.014096835933867735,0.06024836708617236,0.0,-0.0911671470460922,0.0118786054629259,-10.169028814428858,-7.209999999999999e-21,954.7498823488978,11.760345,0.05146153031462926,0.014913010637274534,-0.09991790934468939,-0.045834056006012036,0.12731589000400823,-10.14679812456914,0.04265756066132265,0.02073061646092184,-0.09604990571142284,-7.209999999999999e-21,100.051285,99.09327637420843,0.047900455577154305,-0.00890258716432865,15.366736784308618,16.691065816793586,-0.026486570783567136,-0.16600034183767534,-0.3215593245791583,56.2495187841483,32851680.57336673,6620172.0,503.9232676002004,11.727239809719439,95416.89197663327,1.1337105336272544,0.5102546694488974,-0.1316427106492983,-0.0259668189939877,0.03703045492985972,0.03657326463927856,-0.10622067313026053,-0.05895372605410821,0.07216519148697395,1.5707964,0.7055876238837675,-0.04632433001603206,0.004670921190380764,0.7070912009218437,0.259804669997996,398730172.60460925,327405956.68296593,499241.76888677356,16.89553779252505,-2.450755836360721,16.71669330731463,0.07215116856513022,1.716606931038076,0.0,0.0,0.0,39.8714138,32.7364368,177.82498293426858,358.28339353086176,-99.06233979262524,-2.0909976215611223,16.54399183813627,0.08714394343687373,1.7737298856693386,0.1060476365691383,-0.18037962536272542,1.6797837958456914,99.18346861611222,0.06942197806212425,0.0784471439498998,-0.01865910783366733,0.2600621042084168,38239413.951903805,0.0,0.0,0.0,1.0,0.0
38432563.0,0.005297250515030063,0.019476334983967936,0.03928848247294588,0.26150545645290585,0.0,1518.0,1500.0,1261.314629258517,1498.0,1501.0,1509.0,16.415060136533068,16.816532016372747,16.447407858597195,16.334181171563127,16.73365990026052,16.10831632016032,16.502273613206413,,,166.08282808657316,166.08282808657316,11.760259728396793,-0.0018077712284569139,-0.0061293472104208425,0.000541785126252505,-0.1816244041042084,0.1702480379779559,-0.07791070316432866,2.0,0.22002596932064125,1.2200259693206412,11.0,0.0,0.0,1.0,0.0,0.0,0.0,0.0,0.0,0.0,0.0,-0.05080266423246496,0.07191041352505011,1.571324296052104,1.57091567052505,-0.025153082420841986,183.35428566933868,47.53872271725451,-0.00804884143486974,-0.013520785835671343,0.060974043002004014,0.0,-0.0708263878096193,0.07311683702805576,-10.19386737725451,2.9076135522184794,954.7535825813627,11.760315,0.05989983866132254,0.011918725731462906,-0.09083287905210416,-0.052327034192384825,0.1271978226212423,-10.0998024850501,0.05876975404208419,0.018298069981963882,-0.08871743481162325,2.9076135522184794,100.051285,99.10848554278557,0.0471401037254509,0.011785578408817598,15.36682359995992,16.68639562472946,-0.026391445825651304,-0.17647653414228454,-0.32198723497194387,56.85041749288577,33064119.890701402,6620172.0,503.8889044681363,11.727409105571143,95417.27686264529,1.1337151062124249,-0.2350012451983985,-0.16305058271543266,0.029083975126251146,0.04917424984368733,0.027455707304609278,-0.10251050294188374,-0.04204524943687378,0.0719565721242485,1.5707964,0.705958187240481,-0.04028389828256514,0.01057485331262524,0.7070275247595191,0.26016720407615235,398730131.51362723,327406354.2388777,499237.6708284569,16.875411246513025,-2.059700736402806,16.749176820581162,0.003117212707414883,1.6931856389498998,0.0,0.0,0.0,39.8714138,32.7364368,177.43921193086175,361.7265205244489,-99.06558695713427,-1.7319588312885779,16.566772676873747,0.055946956368737526,1.6710364666132267,0.02345949097194379,-0.06948427923847743,1.6593635581362727,99.18670794761522,0.06804681654108218,0.07674986733066132,-0.011991309010020048,0.2602707803607215,38432562.95591182,0.0,0.0,0.0,1.0,0.0
