timestamp,roll_body,pitch_body,yaw_body,yaw_sp_move_rate,q_d[0],q_d[1],q_d[2],q_d[3],thrust_body[0]
73952000,0,-0.19424348,1.6155919,0,0.6878363,0.070085965,-0.0670147,0.71935964,1
73976000,0,-0.18556905,1.6155919,0,0.6881205,0.0669653,-0.06403078,0.7196569,1
74000000,0,-0.17714588,1.6155919,0,0.68838406,0.06393381,-0.061132148,0.7199325,1
74024000,0,-0.1689408,1.6155919,0,0.68862903,0.06097973,-0.058307514,0.72018874,1
74048000,0,-0.1609252,1.6155919,0,0.6888572,0.058092877,-0.055547167,0.72042733,1
74072000,0,-0.15307426,1.6155919,0,0.6890699,0.05526443,-0.05284266,0.72064984,1
74096000,0,-0.14539209,1.6155919,0,0.6892678,0.05249594,-0.050195497,0.7208568,1
74120000,0,-0.13785675,1.6155919,0,0.68945205,0.049779627,-0.047598217,0.7210494,1
74144000,0,-0.13044903,1.6155919,0,0.68962365,0.047108624,-0.04504426,0.7212289,1
74168000,0,-0.12315197,1.6155919,0,0.6897834,0.044476897,-0.04252786,0.72139597,1
74192000,0,-0.115967125,1.6155919,0,0.68993175,0.041885056,-0.040049594,0.7215511,1
74216000,0,-0.10887969,1.6155919,0,0.6900693,0.039327823,-0.037604425,0.721695,1
74240000,0,-0.10187636,1.6155919,0,0.69019675,0.036800455,-0.035187807,0.7218283,1
74264000,0,-0.09494532,1.6155919,0,0.6903146,0.034298725,-0.03279571,0.7219515,1
74288000,0,-0.088088326,1.6155919,0,0.69042295,0.031823322,-0.03042878,0.72206485,1
74312000,0,-0.08129489,1.6155919,0,0.6905223,0.02937049,-0.028083436,0.72216874,1
74336000,0,-0.074555494,1.6155919,0,0.69061303,0.02693684,-0.02575643,0.7222636,1
74360000,0,-0.06786151,1.6155919,0,0.69069535,0.024519281,-0.023444813,0.7223497,1
74384000,0,-0.061205074,1.6155919,0,0.69076955,0.022115014,-0.021145903,0.72242737,1
74408000,0,-0.054589096,1.6155919,0,0.6908357,0.019725116,-0.018860733,0.7224965,1
74432000,0,-0.04800646,1.6155919,0,0.69089407,0.017347047,-0.016586876,0.72255754,1
74456000,0,-0.04145069,1.6155919,0,0.69094473,0.014978496,-0.014322118,0.72261053,1
74480000,0,-0.03491584,1.6155919,0,0.6909878,0.012617345,-0.012064436,0.7226556,1
74504000,0,-0.02839858,1.6155919,0,0.69102347,0.010262416,-0.009812702,0.7226929,1
74528000,0,-0.021893818,1.6155919,0,0.6910517,0.007911893,-0.007565183,0.7227225,1
74552000,0,-0.01539689,1.6155919,0,0.6910727,0.005564117,-0.00532029,0.72274435,1
74576000,0,-0.008903516,1.6155919,0,0.6910863,0.003217568,-0.003076569,0.7227586,1
74600000,0,-0.002413207,1.6155919,0,0.69109267,0.000872092,-0.000833875,0.7227652,1
74624000,0,0.004077744,1.6155919,0,0.6910917,-0.001473626,0.001409049,0.72276425,1
74648000,0,0.010572729,1.6155919,0,0.6910835,-0.003820785,0.003653353,0.7227557,1
74672000,0,0.01707486,1.6155919,0,0.691068,-0.006170488,0.005900088,0.7227394,1
74696000,0,0.023583297,1.6155919,0,0.6910451,-0.008522403,0.008148938,0.7227155,1
74720000,0,0.030100752,1.6155919,0,0.6910149,-0.010877485,0.010400819,0.7226839,1
74744000,0,0.03662969,1.6155919,0,0.6909772,-0.013236603,0.012656556,0.7226445,1
74768000,0,0.043172356,1.6155919,0,0.69093215,-0.015600538,0.014916902,0.72259736,1
74792000,0,0.049728833,1.6155919,0,0.6908795,-0.017969297,0.017181858,0.72254235,1
74816000,0,0.056300998,1.6155919,0,0.6908193,-0.020343529,0.019452047,0.7224794,1
74840000,0,0.06289055,1.6155919,0,0.6907515,-0.022723824,0.021728033,0.7224084,1
74864000,0,0.069499016,1.6155919,0,0.690676,-0.0251107,0.024010314,0.72232944,1
74888000,0,0.07612892,1.6155919,0,0.6905925,-0.027505046,0.026299737,0.7222422,1
74912000,0,0.082781434,1.6155919,0,0.6905013,-0.029907253,0.028596675,0.72214675,1
74936000,0,0.089457564,1.6155919,0,0.6904019,-0.032317653,0.030901449,0.72204286,1
74960000,0,0.096158184,1.6155919,0,0.69029456,-0.034736533,0.03321433,0.72193056,1
74984000,0,0.10288402,1.6155919,0,0.69017893,-0.037164126,0.03553554,0.7218096,1
75008000,0,0.10963491,1.6155919,0,0.6900551,-0.03960034,0.037864998,0.7216801,1
75032000,0,0.11641139,1.6155919,0,0.6899228,-0.042045332,0.040202845,0.72154176,1
75056000,0,0.12321379,1.6155919,0,0.6897821,-0.044499192,0.042549174,0.7213946,1
75080000,0,0.1300424,1.6155919,0,0.6896328,-0.04696199,0.04490405,0.72123843,1
75104000,0,0.13689762,1.6155919,0,0.6894748,-0.049433835,0.047267575,0.72107327,1
75128000,0,0.1437795,1.6155919,0,0.68930805,-0.051914703,0.04963973,0.72089887,1
75152000,0,0.15068802,1.6155919,0,0.6891325,-0.054404564,0.05202048,0.7207153,1
75176000,0,0.15762308,1.6155919,0,0.688948,-0.056903332,0.05440975,0.7205223,1
75200000,0,0.16458364,1.6155919,0,0.68875444,-0.059410598,0.056807145,0.72031987,1
75224000,0,0.17156944,1.6155919,0,0.68855184,-0.061926235,0.059212543,0.720108,1
75248000,0,0.17858015,1.6155919,0,0.68834,-0.064450085,0.061625797,0.7198864,1
75272000,0,0.18561536,1.6155919,0,0.688119,-0.066981964,0.06404672,0.71965533,1
75296000,0,0.1926773,1.6155919,0,0.68788856,-0.06952262,0.06647604,0.7194143,1
75320000,0,0.19976538,1.6155919,0,0.68764865,-0.07207181,0.06891353,0.71916336,1
75344000,0,0.20687898,1.6155919,0,0.6873992,-0.07462926,0.071358904,0.71890247,1
75368000,0,0.21401738,1.6155919,0,0.6871401,-0.07719469,0.07381191,0.71863157,1
75392000,0,0.22118121,1.6155919,0,0.6868713,-0.07976827,0.07627271,0.7183504,1
75416000,0,0.22836967,1.6155919,0,0.68659276,-0.082349665,0.07874099,0.7180591,1
75440000,0,0.2355819,1.6155919,0,0.68630433,-0.084938526,0.0812164,0.71775746,1
75464000,0,0.24281704,1.6155919,0,0.686006,-0.08753451,0.08369862,0.7174455,1
75488000,0,0.25007242,1.6155919,0,0.6856979,-0.090136595,0.086186685,0.7171232,1
75512000,0,0.2573471,1.6155919,0,0.68537986,-0.09274441,0.08868022,0.7167906,1
75536000,0,0.26464024,1.6155919,0,0.6850519,-0.09535761,0.09117891,0.71644765,1
75560000,0,0.27195087,1.6155919,0,0.6847141,-0.09797581,0.09368238,0.7160943,1
75584000,0,0.27927807,1.6155919,0,0.6843663,-0.10059863,0.09619026,0.71573055,1
75608000,0,0.2866244,1.6155919,0,0.6840083,-0.103226945,0.0987034,0.71535623,1
75632000,0,0.29398882,1.6155919,0,0.68364024,-0.10586034,0.10122139,0.71497124,1
75656000,0,0.30137026,1.6155919,0,0.683262,-0.108498365,0.103743814,0.7145757,1
75680000,0,0.30876774,1.6155919,0,0.6828736,-0.111140646,0.106270306,0.7141695,1
75704000,0,0.3161826,1.6155919,0,0.6824749,-0.113787614,0.10880128,0.71375257,1
75728000,0,0.3236138,1.6155919,0,0.68206596,-0.116438836,0.11133632,0.71332484,1
75752000,0,0.3310602,1.6155919,0,0.6816467,-0.11909387,0.11387502,0.7128864,1
75776000,0,0.33852077,1.6155919,0,0.68121713,-0.121752314,0.11641695,0.71243715,1
75800000,0,0.34599617,1.6155919,0,0.68077725,-0.12441433,0.118962325,0.71197706,1
75824000,0,0.34906584,1.6155919,0,0.68059385,-0.12550695,0.12000707,0.7117853,1
75848000,0,0.34906584,1.6155919,0,0.68059385,-0.12550695,0.12000707,0.7117853,1
75872000,0,0.34906584,1.6155919,0,0.68059385,-0.12550695,0.12000707,0.7117853,1
75896000,0,0.34906584,1.6155919,0,0.68059385,-0.12550695,0.12000707,0.7117853,1
75920000,0.43633232,0.34906584,2.1527028,0,0.48933902,-0.048078023,0.26807302,0.82847613,1
75944000,0.43633232,0.34906584,2.1527581,0,0.4893161,-0.04808545,0.26807168,0.82848966,1
75968000,0.43633232,0.34906584,2.158445,0,0.48695844,-0.04884748,0.26793388,0.8298777,1
75992000,0.43633232,0.34906584,2.1613064,0,0.48577058,-0.049230777,0.26786372,0.8305735,1
76016000,0.43633232,0.34906584,2.167035,0,0.48338953,-0.04999782,0.2677216,0.83196145,1
76040000,0.43633232,0.34906584,2.1642594,0,0.48454368,-0.049626216,0.26779073,0.8312898,1
76064000,0.43633232,0.34906584,2.1700168,0,0.48214868,-0.050396897,0.26764676,0.83268124,1
76088000,0.43633232,0.34906584,2.1757956,0,0.47974074,-0.05117002,0.26750004,0.83407086,1
76112000,0.43633232,0.34906584,2.1787136,0,0.4785233,-0.051560245,0.2674251,0.83476985,1
76136000,0.43633232,0.34906584,2.1788151,0,0.4784809,-0.051573835,0.26742244,0.8347942,1
76160000,0.43633232,0.34906584,2.181747,0,0.47725666,-0.051965795,0.26734656,0.8354947,1
76184000,0.43633232,0.34906584,2.1875827,0,0.47481674,-0.052745655,0.2671938,0.8368837,1
76208000,0.43633232,0.34906584,2.1905391,0,0.47357914,-0.053140573,0.26711553,0.8375847,1
76232000,0.43633232,0.34906584,2.190658,0,0.47352934,-0.053156458,0.26711237,0.83761287,1
76256000,0.43633232,0.34906584,2.1965382,0,0.47106466,-0.053941563,0.26695496,0.8390015,1
76280000,0.43633232,0.34906584,2.1995244,0,0.46981144,-0.054340072,0.2668741,0.8397038,1
76304000,0.43633232,0.34906584,2.2054322,0,0.46732897,-0.055128157,0.26671243,0.84108794,1
76328000,0.43633232,0.34906584,2.2026443,0,0.46850094,-0.05475632,0.26678902,0.8404357,1
76352000,0.43633232,0.34906584,2.2085745,0,0.4660069,-0.055547133,0.26662546,0.8418212,1
76376000,0.43633232,0.34906584,2.2115922,0,0.4647362,-0.055949375,0.26654136,0.84252334,1
76400000,0.43633232,0.34906584,2.2117379,0,0.46467486,-0.05596879,0.2665373,0.8425572,1
76424000,0.43633232,0.34906584,2.214761,0,0.46340072,-0.05637162,0.26645237,0.8432586,1
76448000,0.43633232,0.34906584,2.2207456,0,0.46087542,-0.057168648,0.26628253,0.84464145,1
76472000,0.43633232,0.34906584,2.2179446,0,0.46205786,-0.05679568,0.2663623,0.8439953,1
76496000,0.43633232,0.34906584,2.2239466,0,0.45952293,-0.05759477,0.26619068,0.84537804,1
76520000,0.43633232,0.34906584,2.2269926,0,0.4582349,-0.05800011,0.26610264,0.84607685,1
76544000,0.43633232,0.34906584,2.2271423,0,0.45817158,-0.05802004,0.26609832,0.84611124,1
76568000,0.43633232,0.34906584,2.2302,0,0.45687744,-0.058426805,0.2660093,0.8468107,1
76592000,0.43633232,0.34906584,2.2362347,0,0.45432025,-0.059229158,0.2658318,0.84818536,1
76616000,0.52896744,0.34140798,2.2334132,0,0.45714518,-0.034352787,0.30342948,0.83532554,0.41904378
76640000,0.5286442,0.33374986,2.2394893,0,0.45398274,-0.031995527,0.30175143,0.83774817,0.44235164
76664000,0.5165474,0.3260906,2.23692,0,0.45425698,-0.031004399,0.29527143,0.83994293,0.46433005
76688000,0.51439834,0.31842214,2.243392,0,0.45089307,-0.029079832,0.29281723,0.842679,0.48596355
76712000,0.5084789,0.31074378,2.2469215,0,0.44870752,-0.027552322,0.28881657,0.8452735,0.5062766
76736000,0.49875712,0.30305505,2.2475035,0,0.4477226,-0.026433386,0.28323495,0.8477168,0.52522945
76760000,0.4924647,0.29535562,2.2510858,0,0.4455188,-0.024952188,0.2790523,0.8503059,0.54279387
76784000,0.48240668,0.28764537,2.2516704,0,0.44455034,-0.02387195,0.27329114,0.85271156,0.5589772
76808000,0.47603118,0.27991542,2.2552767,0,0.44234493,-0.02236244,0.26904756,0.85524523,0.57491964
76832000,0.46970242,0.27216625,2.2588959,0,0.44013605,-0.020816296,0.26481426,0.8577414,0.5894454
76856000,0.4598117,0.2643985,2.2594533,0,0.43921098,-0.019625694,0.2590699,0.85999495,0.6026126
76880000,0.45388666,0.2566129,2.2630649,0,0.43701938,-0.017937757,0.2549864,0.8623655,0.614498
76904000,0.44445786,0.2488003,2.263571,0,0.43614236,-0.016593821,0.24940455,0.8644662,0.6263447
76928000,0.4391696,0.24096194,2.2671251,0,0.4339891,-0.014702648,0.24557292,0.86667824,0.6369402
76952000,0.42633495,0.2330992,2.2643712,0,0.43452626,-0.013660841,0.23849869,0.8684001,0.6463902
76976000,0.42580712,0.22521362,2.27105,0,0.43105534,-0.011059441,0.23669422,0.87065774,0.654734
77000000,0.41366827,0.21730237,2.2682016,0,0.43167102,-0.009821415,0.22987865,0.8721924,0.66256475
77024000,0.40998912,0.20936722,2.2716336,0,0.42960015,-0.007468216,0.22670563,0.8740666,0.6694018
77048000,0.41073692,0.20140994,2.2782483,0,0.42614403,-0.004504524,0.22546151,0.8760982,0.6753173
77072000,0.39976326,0.19470924,2.2752666,0,0.42695582,-0.003520288,0.21934928,0.8772584,0.68040246
77096000,0.3971727,0.19593558,2.2786055,0,0.42557016,-0.004985943,0.21844515,0.8781497,0.685513
77120000,0.3908015,0.19702095,2.2787488,0,0.42556256,-0.006842636,0.21585831,0.8787803,0.6898887
77144000,0.38888127,0.19797963,2.2820086,0,0.42418703,-0.008030921,0.2151891,0.8795991,0.6935924
77168000,0.37888828,0.19882612,2.2788682,0,0.42557874,-0.010198288,0.210973,0.87992567,0.6966782
77192000,0.38158178,0.19953437,2.2853003,0,0.42280734,-0.010624915,0.21226335,0.8809457,0.6994548
77216000,0.37194735,0.20016465,2.2821095,0,0.42419767,-0.012612216,0.20816022,0.88123024,0.70168424
77240000,0.37075907,0.20072466,2.2852795,0,0.42282787,-0.013444595,0.20772497,0.8819786,0.70342934
77264000,0.36540714,0.20122178,2.285285,0,0.42281863,-0.014799699,0.20546088,0.8824914,0.7047274
77288000,0.36428988,0.20164229,2.288453,0,0.4214376,-0.015549429,0.20502543,0.88324016,0.70577
77312000,0.35459107,0.20201638,2.2852347,0,0.42280173,-0.017437935,0.20084094,0.88351434,0.7064228
77336000,0.34466344,0.20234968,2.2819972,0,0.42416012,-0.019368067,0.19654968,0.88378805,0.70674133
77360000,0.34758443,0.20264815,2.2883518,0,0.4213959,-0.019511275,0.1978378,0.88481915,0.7067685
77384000,0.33741865,0.20291424,2.2851279,0,0.42273337,-0.021460868,0.19342463,0.8851118,0.7065153
77408000,0.3359499,0.20310643,2.2882733,0,0.42133528,-0.02216097,0.1927776,0.885902,0.7063333
77432000,0.33007514,0.20328295,2.2882817,0,0.42127416,-0.023478732,0.19020896,0.8864522,0.70593405
77456000,0.32845327,0.20344101,2.2914388,0,0.4198633,-0.024190642,0.18948297,0.88725746,0.705318
77480000,0.31783962,0.20358144,2.288247,0,0.42115316,-0.026186787,0.18484126,0.8875686,0.7045263
77504000,0.3160209,0.2036729,2.2914267,0,0.419722,-0.02690351,0.18400945,0.8883975,0.703842
77528000,0.3097023,0.20375724,2.2914336,0,0.41963598,-0.028268062,0.18121822,0.88896936,0.70297605
77552000,0.30759624,0.20383261,2.2945907,0,0.41820553,-0.029028513,0.18025115,0.88981515,0.7019927
77576000,0.29653487,0.20390004,2.2914042,0,0.41946042,-0.031092081,0.17539005,0.89012617,0.7008885
77600000,0.28994814,0.20394982,2.2914236,0,0.4193493,-0.032497477,0.17246707,0.89069927,0.6997302
77624000,0.2878375,0.20400268,2.2946002,0,0.4179016,-0.033236288,0.1714848,0.8915417,0.6984537
77648000,0.27662602,0.20405453,2.2914276,0,0.41912612,-0.035337687,0.16655082,0.8918214,0.69709
77672000,0.27451923,0.20410669,2.2946029,0,0.41767415,-0.03606563,0.16556449,0.8926567,0.6956553
77696000,0.267935,0.2041732,2.2946446,0,0.4175372,-0.037473924,0.16263717,0.89320076,0.69400483
77720000,0.25674653,0.20424074,2.2914913,0,0.41873267,-0.03959108,0.15771376,0.8934326,0.6922878
77744000,0.25460118,0.20431018,2.294664,0,0.41727445,-0.04032024,0.15670526,0.89425933,0.6905376
77768000,0.24318959,0.20438014,2.2914972,0,0.4184568,-0.04249203,0.15168157,0.89447254,0.6887494
77792000,0.24586031,0.20442562,2.2978826,0,0.4156575,-0.042441655,0.15275013,0.8955975,0.68710774
77816000,0.23444492,0.20447716,2.2947433,0,0.41681674,-0.044604946,0.14771622,0.895798,0.68544245
77840000,0.2230448,0.20453009,2.2915971,0,0.41796723,-0.046779662,0.14269198,0.89596546,0.68376017
77864000,0.22107999,0.20458803,2.2947967,0,0.41648865,-0.0474433,0.1417475,0.8967686,0.6820529
77888000,0.21445318,0.2046139,2.2948654,0,0.41629907,-0.048839524,0.13877884,0.89724594,0.6805629
77912000,0.20300283,0.20464817,2.2917469,0,0.41741326,-0.05102918,0.13372624,0.8973737,0.67905843
77936000,0.2010449,0.20468426,2.2949526,0,0.41592485,-0.05166702,0.1327722,0.8981696,0.67753524
77960000,0.18958358,0.20472358,2.2918208,0,0.41702992,-0.05386758,0.12771529,0.8982611,0.67599976
77984000,0.17817815,0.20476542,2.2886946,0,0.41812143,-0.056072168,0.12268689,0.8983197,0.6744674
78008000,0.18118079,0.20480697,2.295115,0,0.41532063,-0.055861104,0.12386506,0.89946973,0.67294
78032000,0.16976719,0.20485534,2.2919984,0,0.41639814,-0.05806717,0.11883027,0.8995111,0.6713823
78056000,0.16802509,0.20490459,2.295226,0,0.41489586,-0.058642633,0.11796208,0.90028185,0.6698187
78080000,0.15664391,0.20496245,2.2921271,0,0.4159518,-0.060853984,0.11294307,0.90029156,0.6682893
78104000,0.1452992,0.20498644,2.289024,0,0.41699746,-0.06305592,0.10793729,0.90027034,0.66696566
78128000,0.14862745,0.20502359,2.2954683,0,0.41419992,-0.06273104,0.10924123,0.9014264,0.66563046
78152000,0.13718809,0.20506282,2.2923517,0,0.41523987,-0.06495461,0.10419281,0.9013881,0.6642937
78176000,0.12580888,0.20510475,2.2892432,0,0.41626525,-0.067181066,0.099175595,0.90131795,0.6629621
78200000,0.11440026,0.20515226,2.2861338,0,0.4172772,-0.0694297,0.094150305,0.90121865,0.6615926
78224000,0.1128308,0.20520778,2.2893836,0,0.41575775,-0.069934055,0.09334084,0.9019658,0.6602218
78248000,0.10655208,0.2052638,2.2894893,0,0.41548866,-0.071269095,0.09051639,0.90227306,0.65883255
78272000,0.09531178,0.20532669,2.2863815,0,0.41648388,-0.073498696,0.085571155,0.90211785,0.65743214
78296000,0.09422161,0.20536019,2.2896533,0,0.41496736,-0.07387999,0.0849655,0.90284264,0.6562373
78320000,0.08313974,0.20540056,2.2865646,0,0.415946,-0.07607286,0.08008741,0.90265596,0.65504396
78344000,0.07204611,0.20544627,2.283455,0,0.4169211,-0.07828271,0.07521049,0.9024367,0.65383726
78368000,0.07084624,0.20549445,2.286708,0,0.41540527,-0.078676,0.074551076,0.903156,0.65264356
78392000,0.0598536,0.20549996,2.2836,0,0.41637018,-0.08085227,0.0697128,0.9029059,0.65172464
78416000,0.053873513,0.20551483,2.2837074,0,0.41607797,-0.0821072,0.067011416,0.9031318,0.6507751
78440000,0.043084778,0.20553406,2.2806141,0,0.41702563,-0.08426295,0.062272992,0.9028352,0.64985096
78464000,0.042305835,0.20555755,2.2838902,0,0.415513,-0.08453733,0.061787825,0.9035401,0.6489198
78488000,0.031685546,0.20556372,2.2807949,0,0.41645655,-0.08665705,0.057124503,0.9032117,0.6480765
78512000,0.02119885,0.20557927,2.2777016,0,0.41739303,-0.08876536,0.052528452,0.9028535,0.6472226
78536000,0.020675039,0.20559491,2.280977,0,0.41589037,-0.08896726,0.05214961,0.90354884,0.6463425
78560000,0.010175968,0.20560974,2.2778614,0,0.4168248,-0.09108201,0.047550723,0.90316117,0.64543015
78584000,-0.000183244,0.2056342,2.2747555,0,0.4177493,-0.09318411,0.043021936,0.9027465,0.6445213
78608000,-0.005364024,0.20562203,2.274859,0,0.4174601,-0.09426255,0.040675912,0.90287715,0.64383554
78632000,-0.00548811,0.20562343,2.2781346,0,0.41597486,-0.09435547,0.0404657,0.90356207,0.6431354
78656000,-0.015462999,0.20562227,2.2750332,0,0.4169001,-0.09637255,0.036107995,0.90310735,0.6424131
78680000,-0.02535122,0.20562968,2.2719202,0,0.41782376,-0.09838653,0.03179724,0.9026252,0.6416677
78704000,-0.03507479,0.20563726,2.2688127,0,0.41874245,-0.10037743,0.027566107,0.9021193,0.6408998
78728000,-0.03480359,0.2056544,2.2720997,0,0.41727233,-0.100373745,0.027527114,0.9028019,0.64012283
78752000,-0.04439605,0.2056711,2.2689846,0,0.41819146,-0.10234519,0.023359727,0.9022725,0.63932353
78776000,-0.053840186,0.20569415,2.2658663,0,0.41910917,-0.104299225,0.019266399,0.90171945,0.6385217
78800000,-0.063179895,0.20567925,2.2627459,0,0.42002454,-0.10622495,0.015217897,0.9011459,0.6379695
78824000,-0.06257068,0.20567685,2.2660227,0,0.41857994,-0.10612115,0.015318031,0.9018283,0.6373779
78848000,-0.071737856,0.20567535,2.262912,0,0.41949147,-0.10802043,0.01135198,0.9012379,0.6367661
78872000,-0.07576087,0.20568165,2.263028,0,0.41922086,-0.1088674,0.009534143,0.9012829,0.6361335
78896000,-0.0845296,0.20568144,2.2599175,0,0.4201407,-0.11069547,0.005754627,0.9006637,0.63551784
78920000,-0.08340576,0.20568708,2.2632098,0,0.41871947,-0.11047204,0.006080091,0.9013506,0.6348659
78944000,-0.09198348,0.20569508,2.2601016,0,0.41964182,-0.11226686,0.002390463,0.9007171,0.634195
78968000,-0.1006351,0.20570709,2.2569828,0,0.42055574,-0.114088684,-0.001325391,0.9000638,0.6335279
78992000,-0.10909518,0.20568687,2.2538571,0,0.42147645,-0.11586546,-0.004955962,0.8993932,0.6330581
79016000,-0.10763448,0.2056733,2.257143,0,0.42008334,-0.11554432,-0.004491843,0.9000885,0.6325402
79040000,-0.115785345,0.20566244,2.254017,0,0.42101574,-0.11726313,-0.007979121,0.89940614,0.6319965
79064000,-0.12385024,0.20565456,2.2508876,0,0.42194661,-0.11897439,-0.011421405,0.8987078,0.63141626
79088000,-0.13167267,0.20563324,2.2477648,0,0.4228818,-0.120637454,-0.01475263,0.89799774,0.6309323
79112000,-0.13940696,0.2056193,2.2446315,0,0.4238191,-0.12229409,-0.018036664,0.8972715,0.63039774
79136000,-0.13721327,0.20560734,2.2479305,0,0.42247292,-0.12179552,-0.017256025,0.89798915,0.62984174
79160000,-0.14478262,0.20559968,2.2447896,0,0.42341903,-0.12342245,-0.020462349,0.8972539,0.6292607
79184000,-0.15219353,0.2055963,2.2416427,0,0.42437008,-0.12502632,-0.023590986,0.89650536,0.6286629
79208000,-0.15941514,0.20553502,2.2384956,0,0.42532945,-0.12657265,-0.026642226,0.8957479,0.62853795
79232000,-0.15692979,0.20547797,2.241786,0,0.42401537,-0.12597647,-0.02574893,0.89648086,0.6283615
79256000,-0.16386992,0.20542595,2.2386363,0,0.42498994,-0.12746926,-0.028670307,0.89571935,0.62813836
79280000,-0.17063536,0.20537882,2.2354891,0,0.4259679,-0.12893495,-0.031507634,0.8949493,0.6278758
79304000,-0.1772053,0.20536944,2.2323377,0,0.42695215,-0.1303835,-0.034243997,0.8941697,0.62729603
79328000,-0.18379469,0.20536688,2.2291803,0,0.4279313,-0.1318469,-0.0369823,0.8933776,0.62667847
79352000,-0.18057531,0.20536846,2.2324665,0,0.42667437,-0.1311,-0.035759293,0.8941382,0.6260433
79376000,-0.18690667,0.20537597,2.2292948,0,0.42767394,-0.1325144,-0.038377907,0.89334315,0.6253806
79400000,-0.19307914,0.20532805,2.226125,0,0.4286812,-0.13387755,-0.040933326,0.89254344,0.6251669
79424000,-0.1991367,0.20528817,2.2229533,0,0.4296911,-0.13522673,-0.043430958,0.8917359,0.6249049
79448000,-0.20500949,0.20525327,2.2197833,0,0.43070722,-0.13654532,-0.045840707,0.8909238,0.6246143
79472000,-0.20131452,0.20522407,2.223061,0,0.42949986,-0.13566387,-0.04442363,0.89171284,0.62429494
79496000,-0.20706265,0.20524319,2.2198873,0,0.4305212,-0.13698052,-0.04676467,0.89089894,0.62359786
79520000,-0.21259673,0.20526992,2.2167149,0,0.43155098,-0.13826095,-0.04900438,0.89008206,0.6228812
79544000,-0.21323653,0.20530045,2.2167993,0,0.43146706,-0.13841036,-0.049288075,0.8900839,0.6221465
79568000,-0.20922464,0.20533587,2.220069,0,0.43028554,-0.13748235,-0.047719356,0.8908849,0.62138826
79592000,-0.21453167,0.20529623,2.2168853,0,0.43133938,-0.13868573,-0.049871366,0.89007056,0.6212024
79616000,-0.21966663,0.2052671,2.213701,0,0.43240032,-0.13986278,-0.0519404,0.8892528,0.62097675
79640000,-0.22461838,0.20524341,2.2105186,0,0.43346867,-0.1410085,-0.053922962,0.88843334,0.6207201
79664000,-0.2295419,0.20522603,2.207335,0,0.43453494,-0.14215668,-0.05588765,0.88760775,0.6204447
79688000,-0.2250632,0.20524102,2.2106097,0,0.433397,-0.14110139,-0.054127544,0.8884411,0.6198906
79712000,-0.22978415,0.20526803,2.2074246,0,0.43447486,-0.14222522,-0.05599197,0.88761955,0.61931396
79736000,-0.23425642,0.20530277,2.2042391,0,0.43556613,-0.14330378,-0.057740573,0.88679886,0.61872894
79760000,-0.23868927,0.20533794,2.201055,0,0.43665582,-0.1443791,-0.059468135,0.885974,0.6181304
79784000,-0.2431526,0.20537879,2.1978648,0,0.43774188,-0.14546886,-0.06120386,0.88514113,0.61752486
79808000,-0.23831867,0.20538875,2.2011342,0,0.43664363,-0.14431804,-0.05929803,0.88600135,0.6171591
79832000,-0.24257,0.20540814,2.1979415,0,0.437748,-0.14535184,-0.060944855,0.8851752,0.61676276
79856000,-0.24671353,0.20543191,2.1947498,0,0.43885595,-0.14636882,-0.06253962,0.8843475,0.6163627
79880000,-0.25084475,0.20545949,2.1915553,0,0.4399623,-0.14738965,-0.064124495,0.88351434,0.61592853
79904000,-0.24562663,0.2055344,2.1948261,0,0.43889377,-0.14617267,-0.062040947,0.8843963,0.61512035
79928000,-0.24947032,0.20561387,2.191631,0,0.4400179,-0.14715216,-0.06348717,0.8835722,0.6142862
79952000,-0.25324613,0.20569433,2.1884367,0,0.44114336,-0.14812152,-0.06490004,0.88274604,0.613442
79976000,-0.25699955,0.20577717,2.18524,0,0.4422682,-0.14909136,-0.06629915,0.88191557,0.6126049
80000000,-0.26065797,0.20579976,2.1820388,0,0.44340378,-0.15001845,-0.06766695,0.8810839,0.6122335
80024000,-0.25507313,0.20583078,2.1853085,0,0.44237712,-0.14868638,-0.06544225,0.8819933,0.61185384
80048000,-0.25860247,0.2058669,2.1821089,0,0.4435214,-0.14958948,-0.06675096,0.88116753,0.61144805
80072000,-0.2619566,0.20590708,2.1789124,0,0.44467422,-0.15045938,-0.067978874,0.8803441,0.61104155
80096000,-0.2653564,0.20596366,2.175715,0,0.44581985,-0.15135047,-0.06922011,0.8795148,0.61052054
80120000,-0.26853207,0.20602852,2.1725163,0,0.44697943,-0.15219899,-0.07035799,0.8786891,0.6099811
80144000,-0.26254246,0.20609689,2.1757865,0,0.44599006,-0.1507784,-0.0679567,0.8796253,0.6094311
80168000,-0.26552618,0.20616823,2.1725867,0,0.44716537,-0.1515851,-0.06900971,0.8788076,0.6088709
80192000,-0.26857334,0.20624046,2.169385,0,0.448334,-0.15240988,-0.07008764,0.87798375,0.6083169
80216000,-0.2715144,0.20631947,2.166183,0,0.4495077,-0.15321723,-0.07111476,0.87716013,0.60774684
80240000,-0.26536378,0.20640086,2.1694515,0,0.44853568,-0.15175733,-0.068645716,0.8781077,0.60716885
80264000,-0.26820716,0.2064851,2.1662498,0,0.44971746,-0.15254296,-0.069630034,0.8772893,0.6065936
80288000,-0.27091944,0.206536,2.1630473,0,0.45090997,-0.15328787,-0.07056227,0.87647253,0.60630244
80312000,-0.2736754,0.20659564,2.1598442,0,0.45209628,-0.15404955,-0.07150914,0.87565064,0.6059957
80336000,-0.27615872,0.20665827,2.1566408,0,0.45330122,-0.15475383,-0.07233364,0.87483555,0.6056823
80360000,-0.26959202,0.20672487,2.1599102,0,0.45237023,-0.15317962,-0.06969544,0.87580806,0.60534656
80384000,-0.2721999,0.20679598,2.1567051,0,0.45356697,-0.15391332,-0.07057386,0.87498975,0.60499084
80408000,-0.27470374,0.2068818,2.1535,0,0.45476818,-0.15463261,-0.071400985,0.874172,0.6045113
80432000,-0.2771631,0.2069746,2.1502948,0,0.45597008,-0.15534756,-0.07220474,0.8733527,0.6040161
80456000,-0.27046558,0.20707062,2.153564,0,0.45505115,-0.15374766,-0.06950802,0.8743333,0.6035028
80480000,-0.2727494,0.20716932,2.1503584,0,0.45626765,-0.15442243,-0.0702353,0.873522,0.6029773
80504000,-0.27491662,0.20723715,2.1471522,0,0.457494,-0.15505981,-0.07091701,0.87271214,0.6027014
80528000,-0.2770241,0.20731243,2.1439452,0,0.45872262,-0.15568909,-0.07156887,0.8719015,0.6024122
80552000,-0.27010804,0.20739232,2.1472147,0,0.45782527,-0.15402398,-0.06878594,0.8728924,0.60211074
80576000,-0.27206212,0.20747577,2.1440067,0,0.459067,-0.15461853,-0.06937073,0.8720885,0.6018034
80600000,-0.27414677,0.2075517,2.1407988,0,0.46029726,-0.15524203,-0.070012406,0.8712776,0.60157436
80624000,-0.27611068,0.20763396,2.1375897,0,0.46153495,-0.15584269,-0.07059802,0.87046796,0.60132945
80648000,-0.26897487,0.20771916,2.14086,0,0.46065652,-0.154121,-0.0677232,0.8714676,0.60107464
80672000,-0.2707788,0.20780809,2.1376514,0,0.46190733,-0.15468425,-0.06823957,0.87066513,0.60079515
80696000,-0.2725249,0.20792593,2.1344423,0,0.46315858,-0.15524842,-0.06872198,0.8698618,0.60027605
80720000,-0.27420783,0.20805052,2.131232,0,0.4644128,-0.15580267,-0.06917353,0.86905766,0.5997429
80744000,-0.2668162,0.20817776,2.1345034,0,0.46355242,-0.15403163,-0.06618212,0.87006515,0.59920496
80768000,-0.26841703,0.20830782,2.1312928,0,0.4648142,-0.15456542,-0.06659876,0.86926514,0.5986571
80792000,-0.26992154,0.20840213,2.1280825,0,0.46608448,-0.1550631,-0.06698075,0.86846656,0.5983774
80816000,-0.2715914,0.20850143,2.1248717,0,0.46734008,-0.1556031,-0.06743178,0.86766005,0.5980867
80840000,-0.2640644,0.20860413,2.1281452,0,0.46649277,-0.15378185,-0.0643924,0.86867106,0.5977826
80864000,-0.26550943,0.20871013,2.1249323,0,0.4677676,-0.15426841,-0.064746276,0.8678725,0.597492
80888000,-0.2623275,0.20883006,2.1249936,0,0.46797603,-0.15357332,-0.063340634,0.8679871,0.5970527
80912000,-0.26367685,0.20896052,2.121782,0,0.46925467,-0.15404716,-0.063646875,0.8671901,0.59657645
80936000,-0.25586542,0.20909618,2.125055,0,0.46842164,-0.15217242,-0.06047507,0.8681978,0.5960961
80960000,-0.2571434,0.20923623,2.1218414,0,0.46970728,-0.15262938,-0.060750242,0.86740345,0.5956175
80984000,-0.2583098,0.2093785,2.1186266,0,0.47100028,-0.15306227,-0.060975056,0.8666099,0.59514743
81008000,-0.25957185,0.20950565,2.1154125,0,0.47228524,-0.15351233,-0.06124384,0.86581165,0.5948046
81032000,-0.25161362,0.20963725,2.1186883,0,0.4714627,-0.15159315,-0.05801395,0.8668199,0.59445345
81056000,-0.25283468,0.2097684,2.1154742,0,0.47275192,-0.15203078,-0.058266487,0.86602384,0.59409505
81080000,-0.2539601,0.20990825,2.1122594,0,0.47404644,-0.15245062,-0.058474146,0.865228,0.5937297
81104000,-0.24589252,0.21005441,2.1155345,0,0.47322816,-0.15050933,-0.055193767,0.8662307,0.5932413
81128000,-0.24693301,0.21021464,2.1123195,0,0.47452906,-0.15091307,-0.05536218,0.8654378,0.59274906
81152000,-0.24804175,0.21037112,2.109103,0,0.47582403,-0.15133236,-0.055559743,0.8646405,0.5922366
81176000,-0.24908714,0.21053213,2.105885,0,0.4771226,-0.15173948,-0.055727478,0.86384237,0.5917211
81200000,-0.24089137,0.21066192,2.1091623,0,0.4763138,-0.14975262,-0.052400135,0.86484313,0.5914716
81224000,-0.24187957,0.21079189,2.1059458,0,0.47761983,-0.15012804,-0.052553684,0.864048,0.5911982
81248000,-0.23820469,0.21092887,2.1060042,0,0.47785902,-0.14930704,-0.0509361,0.86415476,0.590935
81272000,-0.22989322,0.2110691,2.1092823,0,0.47704747,-0.14730194,-0.04755094,0.8651397,0.59065163
81296000,-0.23081987,0.21121335,2.106062,0,0.47836065,-0.14766145,-0.047678158,0.86434597,0.59034544
81320000,-0.23167343,0.21136215,2.1028428,0,0.47967687,-0.14800608,-0.04777172,0.86355203,0.5900198
81344000,-0.23250732,0.21151322,2.099624,0,0.4809928,-0.14834759,-0.047855243,0.8627565,0.5896808
81368000,-0.22402541,0.21166632,2.1029005,0,0.4801918,-0.146299,-0.044397224,0.8637368,0.5893268
81392000,-0.22477058,0.21182184,2.0996735,0,0.48151872,-0.14661607,-0.044443585,0.8629417,0.5889622
81416000,-0.22559635,0.21198365,2.0964553,0,0.48283386,-0.14695555,-0.044522848,0.8621445,0.5885612
81440000,-0.21714854,0.21214631,2.0997374,0,0.48202267,-0.14491679,-0.041077785,0.86311406,0.5881473
81464000,-0.21792871,0.21231167,2.0965166,0,0.48334333,-0.14524165,-0.04113911,0.86231756,0.58772904
81488000,-0.21401739,0.2124678,2.0965762,0,0.4835895,-0.14436139,-0.039417654,0.8624078,0.5873856
81512000,-0.20546064,0.21262892,2.0998573,0,0.4827756,-0.14230098,-0.03592057,0.8633585,0.5870196
81536000,-0.20626968,0.2127921,2.0966334,0,0.4840975,-0.14262402,-0.035999037,0.86256135,0.58664525
81560000,-0.20705189,0.21295683,2.0934112,0,0.48541903,-0.14294177,-0.03606471,0.86176294,0.5862584
81584000,-0.19843794,0.21312259,2.0966897,0,0.4846052,-0.14086717,-0.03254195,0.8627023,0.58587563
81608000,-0.19925937,0.21329902,2.0934663,0,0.48592484,-0.14119412,-0.032624394,0.8619031,0.5853782
81632000,-0.20006461,0.21348128,2.0902455,0,0.48724264,-0.14152017,-0.032697596,0.8611025,0.5848529
81656000,-0.19134583,0.21366468,2.0935287,0,0.48642802,-0.13942516,-0.029125981,0.8620325,0.5843304
81680000,-0.19212754,0.21384914,2.0903063,0,0.48774928,-0.13974105,-0.0291913,0.8612323,0.5838069
81704000,-0.18823715,0.21401915,2.090369,0,0.48798177,-0.13886352,-0.027477369,0.86129886,0.58339953
81728000,-0.17948826,0.21419343,2.093653,0,0.4871581,-0.13676274,-0.02389,0.8622078,0.5829897
81752000,-0.18034704,0.2143692,2.0904286,0,0.48847717,-0.13708568,-0.023994975,0.8614068,0.58256793
81776000,-0.18123648,0.21454614,2.0872064,0,0.48979178,-0.13741729,-0.024112005,0.86060405,0.5821298
81800000,-0.17259754,0.21472126,2.0904903,0,0.48895562,-0.13534132,-0.020572357,0.8614998,0.5817032
81824000,-0.17356153,0.21490318,2.0872722,0,0.49026427,-0.135688,-0.020723354,0.86069757,0.58125776
81848000,-0.17442712,0.21508887,2.0840485,0,0.4915802,-0.13601297,-0.02082963,0.85989267,0.5808156
81872000,-0.16087022,0.21527605,2.0906196,0,0.48965108,-0.13270755,-0.015389092,0.86162275,0.58037025
81896000,-0.16180563,0.21546258,2.0873973,0,0.49096504,-0.13304129,-0.015530668,0.8608207,0.57992244
81920000,-0.16272451,0.21565308,2.0841746,0,0.49227846,-0.13337341,-0.015663087,0.86001635,0.5794579
81944000,-0.15399034,0.21584348,2.0874567,0,0.4914327,-0.13128376,-0.012074355,0.860879,0.5789973
81968000,-0.1548956,0.21603495,2.08423,0,0.49275,-0.13160765,-0.012203276,0.8600744,0.57854027
81992000,-0.14616865,0.21621333,2.087509,0,0.4918983,-0.12951836,-0.008617394,0.860922,0.5782083
82016000,-0.14719756,0.21639374,2.0842845,0,0.49320832,-0.1298627,-0.008805353,0.86011845,0.5778675
82040000,-0.14330521,0.21657592,2.0843482,0,0.4934222,-0.12898001,-0.007089336,0.8601444,0.57751644
82064000,-0.13458864,0.21676055,2.0876353,0,0.4925549,-0.12690146,-0.003502347,0.86097234,0.57715195
82088000,-0.13557075,0.21694516,2.0844069,0,0.4938713,-0.1272282,-0.003673125,0.86016893,0.5767795
82112000,-0.13662063,0.21714391,2.081181,0,0.4951799,-0.12757859,-0.003868558,0.85936344,0.57639444
82136000,-0.12804604,0.21733306,2.084469,0,0.49429846,-0.12553465,-0.000342552,0.8601802,0.5759867
82160000,-0.12924275,0.2175316,2.0812411,0,0.4956,-0.12591623,-0.000603765,0.85937506,0.57559156
82184000,-0.11583847,0.21773136,2.08782,0,0.49359292,-0.1226935,0.004802965,0.86098164,0.5751822
82208000,-0.116895854,0.21791796,2.0845919,0,0.4949072,-0.12302692,0.004593425,0.86018026,0.5748913
82232000,-0.118181646,0.21810816,2.0813706,0,0.4962028,-0.123419516,0.00428731,0.85937893,0.57458377
82256000,-0.10967488,0.21830015,2.0846598,0,0.4952995,-0.12140275,0.007791553,0.86016226,0.57427394
82280000,-0.11095872,0.21849485,2.081435,0,0.4965978,-0.1217919,0.00748501,0.85936105,0.57396936
82304000,-0.11223513,0.21869403,2.07821,0,0.49789467,-0.122182354,0.007184081,0.85855734,0.57363373
82328000,-0.09887203,0.21889818,2.08479,0,0.4958629,-0.11898205,0.012580857,0.86011916,0.57330066
82352000,-0.10021974,0.21910372,2.0815663,0,0.49715832,-0.11938441,0.012245622,0.85932016,0.5729626
82376000,-0.09176452,0.21931078,2.0848565,0,0.49623457,-0.117396034,0.015737683,0.8600708,0.57261425
82400000,-0.09313028,0.21951082,2.0816298,0,0.49753174,-0.117795706,0.015390929,0.85927266,0.57232344
82424000,-0.08476787,0.21971482,2.0849245,0,0.49659452,-0.115832776,0.018844403,0.8600126,0.57200533
82448000,-0.08133707,0.21991973,2.084992,0,0.49675423,-0.11506908,0.020367444,0.85998815,0.5716856
82472000,-0.082940504,0.2201269,2.0817726,0,0.498036,-0.11552398,0.019916214,0.8591958,0.5713627
82496000,-0.0748138,0.22033136,2.0850625,0,0.49707848,-0.11362517,0.023272056,0.85991895,0.57104397
82520000,-0.07649629,0.22054213,2.0818424,0,0.49835733,-0.114096954,0.022785526,0.8591291,0.57071745
82544000,-0.06826552,0.22075501,2.0851305,0,0.49740073,-0.112179294,0.026190361,0.8598386,0.5703968
82568000,-0.069940805,0.22096959,2.0819097,0,0.4986815,-0.11264649,0.025705624,0.85905,0.570068
82592000,-0.06666655,0.22117884,2.0819743,0,0.49882868,-0.11192028,0.0271612,0.8590147,0.5697872
82616000,-0.05846415,0.22139113,2.0852637,0,0.49786153,-0.11001478,0.030556632,0.8597074,0.56949806
82640000,-0.060347296,0.22160327,2.0820475,0,0.49913096,-0.11052627,0.029978335,0.85892576,0.56920123
82664000,-0.052432667,0.22181782,2.085342,0,0.49814078,-0.10869694,0.033252254,0.8596133,0.568902
82688000,-0.05437741,0.22202104,2.0821257,0,0.49940854,-0.10921594,0.032643184,0.85883486,0.5687042
82712000,-0.04142585,0.22223102,2.0887008,0,0.49727222,-0.10619471,0.037908092,0.860236,0.5684951
82736000,-0.04342209,0.22244355,2.0854797,0,0.49854288,-0.106722265,0.037274655,0.8594625,0.5682944
82760000,-0.045443535,0.22265962,2.0822594,0,0.49980992,-0.10725983,0.036633033,0.858687,0.5680935
82784000,-0.037635762,0.22287767,2.0855505,0,0.4988035,-0.10546695,0.039866388,0.85935,0.5678772
82808000,-0.034673445,0.22308186,2.0856166,0,0.49892357,-0.104816906,0.041186996,0.85929763,0.5677881
82832000,-0.026923228,0.2232903,2.088908,0,0.49790442,-0.10304533,0.04439934,0.8599428,0.5676757
82856000,-0.029186241,0.22350158,2.0856936,0,0.49916178,-0.10362931,0.043645777,0.85918194,0.5675615
82880000,-0.021534365,0.22371538,2.0889864,0,0.49813265,-0.10188772,0.04681856,0.8598201,0.567431
82904000,-0.023919163,0.22394642,2.085773,0,0.49938402,-0.102506995,0.046015836,0.85906374,0.5671152
82928000,-0.02124042,0.2241835,2.085843,0,0.49948305,-0.10194138,0.04722228,0.859008,0.5667902
82952000,-0.013697754,0.22442298,2.089131,0,0.49844387,-0.10024261,0.050356824,0.8596332,0.5664711
82976000,-0.016114075,0.2246641,2.085921,0,0.49969393,-0.10086888,0.049540438,0.8588813,0.5661383
83000000,-0.008640583,0.22490497,2.0892065,0,0.4986489,-0.09919092,0.05264696,0.8594991,0.56578594
83024000,-0.01119963,0.22514962,2.0859919,0,0.49989507,-0.09985086,0.05176884,0.85875183,0.5654246
83048000,0.001047551,0.22539431,2.0925632,0,0.49766713,-0.09707994,0.05676904,0.8600466,0.56505567
83072000,-0.001646776,0.22563924,2.0893517,0,0.49890938,-0.097766094,0.05582838,0.8593104,0.56469935
83096000,0.005550687,0.22586267,2.0926363,0,0.49784034,-0.09616276,0.058818292,0.8599117,0.5645784
83120000,0.00278068,0.22608972,2.089428,0,0.49907935,-0.09685717,0.05783918,0.8591817,0.56443965
83144000,0.014855287,0.2263178,2.0959911,0,0.49682832,-0.09414686,0.06277344,0.86044025,0.5643117
83168000,0.012016139,0.22654602,2.092777,0,0.4980706,-0.09485119,0.06176097,0.8597177,0.56417555
83192000,0.009094107,0.22678922,2.0895643,0,0.49930558,-0.09558599,0.06071891,0.8589939,0.5638725
83216000,0.016041236,0.22703485,2.0928462,0,0.49821857,-0.09406113,0.06360922,0.859584,0.56356233
83240000,0.017897936,0.22728091,2.0929146,0,0.4982702,-0.093706645,0.06446506,0.859529,0.5632563
83264000,0.024732716,0.22752753,2.096199,0,0.49717006,-0.09222011,0.06731185,0.86010844,0.5629451
83288000,0.021581588,0.22777764,2.092986,0,0.49839947,-0.093004875,0.066168,0.85940087,0.5625624
83312000,0.02833404,0.22803266,2.096269,0,0.497294,-0.09154474,0.068982214,0.8599765,0.56217086
83336000,0.025072703,0.22828862,2.0930555,0,0.49851948,-0.092356995,0.06779157,0.8592746,0.56178594
83360000,0.03670529,0.2285463,2.0996149,0,0.49622345,-0.08980529,0.07255788,0.860484,0.56140256
83384000,0.03328249,0.2288043,2.0964022,0,0.49744532,-0.09065125,0.07129442,0.8597951,0.56103635
83408000,0.039797485,0.22903861,2.099683,0,0.4963226,-0.08925284,0.07400635,0.860361,0.56091845
83432000,0.036434926,0.22927679,2.0964732,0,0.49754727,-0.09007323,0.072763056,0.85967386,0.56079906
83456000,0.0477167,0.2295152,2.1030307,0,0.49522316,-0.087622136,0.07738313,0.86086476,0.56067514
83480000,0.044139393,0.22975495,2.0998178,0,0.49644366,-0.08848925,0.076044284,0.8601922,0.5605636
83504000,0.050381444,0.22998932,2.1030955,0,0.49530327,-0.08716951,0.078643456,0.86075044,0.56051683
83528000,0.046743598,0.23022735,2.0998847,0,0.4965209,-0.08804912,0.07727752,0.86008286,0.5604588
83552000,0.04791942,0.23046666,2.0999513,0,0.49653965,-0.08786302,0.077839084,0.8600404,0.5604002
83576000,0.05403798,0.2307085,2.1032283,0,0.49539256,-0.08657972,0.08038747,0.8605975,0.56034744
83600000,0.05020805,0.23097059,2.1000173,0,0.49660248,-0.087514766,0.07894417,0.859939,0.5600622
83624000,0.05620054,0.23123759,2.103298,0,0.49544722,-0.086275354,0.08144457,0.8604971,0.5597569
83648000,0.057255853,0.2315039,2.103365,0,0.49545953,-0.08613166,0.08196093,0.8604555,0.55946
83672000,0.06314216,0.23177211,2.1066432,0,0.4942962,-0.08492741,0.08441956,0.8610064,0.5591688
83696000,0.059101515,0.23202,2.1034353,0,0.4955003,-0.08590021,0.08287828,0.86036724,0.5590893
83720000,0.06492327,0.23227102,2.1067116,0,0.49433488,-0.08470578,0.085305095,0.8609187,0.5589976
83744000,0.06571604,0.2325221,2.1067753,0,0.49433738,-0.0846211,0.085704885,0.86088586,0.5589127
83768000,0.07144475,0.23277451,2.1100504,0,0.4931644,-0.08345831,0.08809537,0.86143064,0.5588186
83792000,0.067271896,0.2330198,2.106841,0,0.49436766,-0.084454544,0.08649313,0.8608059,0.55878973
83816000,0.07286265,0.23326887,2.110115,0,0.49318925,-0.083325475,0.08882346,0.86135453,0.55875087
83840000,0.07350754,0.23351778,2.110177,0,0.49318618,-0.08327692,0.08915907,0.8613263,0.55872273
83864000,0.07895142,0.23376504,2.113451,0,0.49199793,-0.08219099,0.0914288,0.861872,0.5586745
83888000,0.074550316,0.23404102,2.110243,0,0.49319452,-0.08324918,0.08973245,0.8612647,0.55825114
83912000,0.07986738,0.2343212,2.1135182,0,0.49200025,-0.08220967,0.09195532,0.861813,0.55781686
83936000,0.07546592,0.2346008,2.1103103,0,0.4931966,-0.08326868,0.090259835,0.8612065,0.55738986
83960000,0.08568461,0.23487987,2.1168532,0,0.49079427,-0.08117794,0.09446143,0.86232716,0.5569853
83984000,0.0810455,0.23515823,2.1136432,0,0.49198532,-0.08228823,0.092660286,0.86173844,0.5565894
84008000,0.08620647,0.23543942,2.1169128,0,0.49078408,-0.08129534,0.09481887,0.86228263,0.55615526
84032000,0.08148792,0.23572148,2.1137023,0,0.49197167,-0.08242614,0.09298469,0.8616981,0.5557288
84056000,0.09148279,0.23600309,2.1202471,0,0.48955405,-0.08040671,0.0970952,0.8628118,0.5553172
84080000,0.08653511,0.23628362,2.117039,0,0.49073455,-0.08158674,0.09515882,0.8622458,0.55492085
84104000,0.09151395,0.23653238,2.120311,0,0.48952302,-0.08063192,0.09723313,0.86279285,0.55486876
84128000,0.08665004,0.23678589,2.1171014,0,0.49070722,-0.08177932,0.095326826,0.86222464,0.5548147
84152000,0.096505456,0.23704135,2.1236448,0,0.48828024,-0.079796605,0.09937537,0.8633304,0.5547561
84176000,0.09152851,0.23729838,2.1204338,0,0.48946372,-0.080966786,0.09741832,0.8627742,0.5547104
84200000,0.09638818,0.23755513,2.123705,0,0.48824558,-0.08005144,0.09944521,0.8633184,0.5546465
84224000,0.091356955,0.2378155,2.1204948,0,0.48942572,-0.08123619,0.09746594,0.8627651,0.5545721
84248000,0.09118516,0.23807618,2.1205568,0,0.48938957,-0.0813944,0.097451866,0.8627722,0.5544895
84272000,0.09575041,0.23833627,2.1238291,0,0.48816004,-0.080552645,0.099351704,0.8633309,0.55440474
84296000,0.09057805,0.23859014,2.1206193,0,0.48933306,-0.081769064,0.09731075,0.8627848,0.5544011
84320000,0.09510671,0.23884735,2.123891,0,0.48810306,-0.08093486,0.09919354,0.86334556,0.5544008
84344000,0.09484147,0.23910543,2.1239529,0,0.48806354,-0.08111477,0.09913826,0.8633575,0.5544073
84368000,0.099352576,0.23936363,2.1272235,0,0.48683113,-0.08029118,0.10101587,0.86391234,0.5544083
84392000,0.094085194,0.23962459,2.1240132,0,0.48800224,-0.081527844,0.09893346,0.8633766,0.5543229
84416000,0.09863393,0.23989046,2.1272855,0,0.48677152,-0.080698326,0.10082847,0.86393,0.5542228
84440000,0.09821119,0.24015741,2.1273468,0,0.4867259,-0.08092036,0.10070698,0.863949,0.5541289
84464000,0.102742225,0.24042527,2.1306195,0,0.48549214,-0.08010195,0.102596834,0.8644969,0.5540244
84488000,0.09732635,0.24069294,2.1274068,0,0.48665985,-0.081371576,0.10044989,0.86397386,0.55388784
84512000,0.10162025,0.24096252,2.13068,0,0.48541722,-0.08061121,0.10223694,0.86453426,0.5537405
84536000,0.10112671,0.24123216,2.130743,0,0.48536816,-0.080851555,0.102085054,0.8645574,0.5535948
84560000,0.10542878,0.24150272,2.1340153,0,0.4841245,-0.08009515,0.10387778,0.86511135,0.5534492
84584000,0.10000863,0.2417737,2.1308017,0,0.4852935,-0.08136155,0.10172789,0.8645935,0.553307
84608000,0.1042449,0.2420465,2.1340752,0,0.48404762,-0.080621675,0.10349189,0.8651517,0.55309874
84632000,0.10361886,0.24032646,2.1341362,0,0.4840071,-0.08002703,0.10281174,0.8653106,0.54970354
84656000,0.1078636,0.23172703,2.1374106,0,0.4828004,-0.07542033,0.10249057,0.86643595,0.51676035
84680000,0.10219107,0.22312817,2.1341956,0,0.4840213,-0.07288019,0.098118745,0.86647826,0.48628145
84704000,0.10616583,0.21452813,2.1374648,0,0.48277536,-0.068327695,0.09769067,0.867592,0.4583531
84728000,0.100340515,0.20592661,2.1342337,0,0.48400542,-0.065827645,0.0932339,0.8675903,0.43271995
84752000,0.109101385,0.19732316,2.14078,0,0.48145083,-0.060263276,0.094794735,0.86924535,0.40930378
84776000,0.10302521,0.18871723,2.1375332,0,0.4826824,-0.05781625,0.090214014,0.86921597,0.38798195
84800000,0.10671001,0.18010284,2.1408002,0,0.48135716,-0.053308923,0.08968598,0.87029296,0.3691474
84824000,0.100422755,0.17147952,2.1375334,0,0.4826015,-0.05091034,0.08499156,0.87021863,0.35212028
84848000,0.108957015,0.16284686,2.1441228,0,0.47991225,-0.04536145,0.08650561,0.871862,0.3367517
84872000,0.10267656,0.15420444,2.1408448,0,0.48116624,-0.042947922,0.08179557,0.87174773,0.3229137
84896000,0.09631558,0.14554821,2.1375494,0,0.4824369,-0.040561233,0.077035,0.8715933,0.3108023
84920000,0.09978895,0.13687794,2.1408477,0,0.48102614,-0.036056027,0.07642431,0.8726243,0.29994145
84944000,0.093384966,0.12819353,2.1375344,0,0.48231456,-0.03367369,0.071621105,0.8724158,0.29020083
84968000,0.10178663,0.11949487,2.1442058,0,0.4794746,-0.028084323,0.07311786,0.87405336,0.28148252
84992000,0.0954947,0.11077389,2.1408832,0,0.48077354,-0.025654646,0.068341285,0.87380093,0.27438974
85016000,0.09899195,0.10203085,2.1442254,0,0.4792784,-0.02109614,0.06775242,0.87478954,0.26807144
85040000,0.09261742,0.09326615,2.1408858,0,0.4805938,-0.018673936,0.06291266,0.87448436,0.2624367
85064000,0.09627502,0.08448023,2.1442473,0,0.47906467,-0.014049208,0.06239358,0.87544656,0.25741994
85088000,0.09497424,0.075666726,2.1442919,0,0.47893658,-0.01049548,0.059727795,0.87575233,0.25351453
85112000,0.09855223,0.06682637,2.14768,0,0.47735417,-0.005860459,0.05918138,0.8766961,0.25005364
85136000,0.09230763,0.05795998,2.1443167,0,0.47869405,-0.003365543,0.054344878,0.8762918,0.24700153
85160000,0.095936365,0.049068432,2.147723,0,0.47707573,0.0013126,0.05381913,0.8772118,0.24427173
85184000,0.08991413,0.040152665,2.1443446,0,0.47843045,0.003874816,0.049052414,0.8767457,0.23351929
85208000,0.09855674,0.033987865,2.1512086,0,0.4752917,0.008470545,0.05140046,0.87828475,0.2241694
85232000,0.09262319,0.03081985,2.147823,0,0.4767488,0.008534362,0.048029415,0.877685,0.21574533
85256000,0.09648841,0.027860675,2.1512694,0,0.47516602,0.010670736,0.049040522,0.8784637,0.20820543
85280000,0.09054249,0.025079232,2.1478693,0,0.47664207,0.010558553,0.04575142,0.87784266,0.2013543
85304000,0.094326705,0.022350477,2.1513307,0,0.47505245,0.012577787,0.046785228,0.8786228,0.19565082
85328000,0.08838823,0.019795636,2.147916,0,0.47654417,0.012364696,0.04354933,0.8779842,0.1905028
85352000,0.09219673,0.017406644,2.151393,0,0.47494972,0.014243645,0.04467771,0.87876266,0.18589273
85376000,0.09129345,0.015166231,2.1514585,0,0.4748867,0.015012531,0.043750014,0.8788307,0.18171108
85400000,0.09519322,0.012740234,2.1549575,0,0.47327155,0.016926238,0.044917967,0.87960786,0.17897812
85424000,0.08935918,0.010460085,2.1515214,0,0.47478795,0.016620696,0.041784376,0.8789506,0.17653945
85448000,0.09334346,0.008309609,2.1550355,0,0.47316718,0.01843611,0.04305771,0.8797266,0.17433721
85472000,0.08744251,0.00629974,2.1515853,0,0.4746997,0.017993273,0.03995568,0.8790563,0.17240712
85496000,0.09141161,0.004220409,2.1551142,0,0.47307092,0.01977654,0.041241843,0.8798363,0.17121983
85520000,0.08556222,0.002265602,2.1516495,0,0.47461435,0.019319167,0.038172703,0.8791535,0.17016737
85544000,0.09454072,0.00042127,2.1587398,0,0.47136563,0.02211232,0.04176018,0.8806711,0.16917402
85568000,0.08869138,-0.00129647,2.1552682,0,0.47292283,0.021557402,0.03874208,0.87998766,0.16831975
85592000,0.092624396,-0.00299147,2.1588345,0,0.47127473,0.023161566,0.040113043,0.8807693,0.1676986
85616000,0.08682082,-0.004567938,2.1553485,0,0.47284374,0.022552993,0.037146185,0.88007396,0.16712032
85640000,0.090803534,-0.006038551,2.1589293,0,0.47119126,0.024072481,0.038594022,0.8808574,0.16660482
85664000,0.08507465,-0.007409109,2.155429,0,0.47277272,0.023388835,0.035706718,0.88014996,0.16608655
85688000,0.08906739,-0.009039904,2.1590235,0,0.47110894,0.02498341,0.037123002,0.88093936,0.16653739
85712000,0.08332166,-0.010562864,2.1555095,0,0.47269636,0.02436074,0.034190226,0.8802249,0.16695416
85736000,0.09229185,-0.011987336,2.1627212,0,0.46937504,0.026970739,0.037898354,0.8817729,0.16730917
85760000,0.086464316,-0.013319911,2.1592,0,0.47097614,0.026252003,0.03496965,0.8810615,0.16756476
85784000,0.09054882,-0.014554434,2.1628282,0,0.46929586,0.027691199,0.036528204,0.8818505,0.16778815
85808000,0.08477108,-0.01592247,2.1592944,0,0.47090352,0.02699785,0.03361141,0.88113064,0.16854733
85832000,0.08890277,-0.017188678,2.1629345,0,0.46921504,0.028464194,0.035184987,0.8819235,0.1692502
85856000,0.08318639,-0.018377583,2.1593876,0,0.47083375,0.02770448,0.032335706,0.8811938,0.16979319
85880000,0.08721739,-0.019467542,2.1630402,0,0.46914357,0.029071497,0.03390788,0.8819918,0.17030595
85904000,0.08153303,-0.020677725,2.1594808,0,0.47076875,0.028326832,0.031066248,0.8812544,0.17125584
85928000,0.08568774,-0.02179511,2.1631436,0,0.46907037,0.029736985,0.032687955,0.88205457,0.17206836
85952000,0.080058,-0.02281734,2.1595726,0,0.47070587,0.028920617,0.02991318,0.8813086,0.17279552
85976000,0.08420548,-0.023762656,2.1632469,0,0.46900493,0.030255035,0.031573497,0.88211226,0.17339998
86000000,0.08344235,-0.024703356,2.1633341,0,0.46895796,0.030489407,0.031017229,0.8821489,0.17416357
86024000,0.087558284,-0.025568325,2.1670234,0,0.46724707,0.03177546,0.032688055,0.88295066,0.17478286
86048000,0.08192377,-0.026350867,2.1634352,0,0.4689017,0.0308581,0.029961893,0.8822025,0.17531788
86072000,0.08615051,-0.027054917,2.1671348,0,0.46718732,0.032100722,0.031720288,0.88300586,0.17578365
86096000,0.080477364,-0.027819313,2.1635356,0,0.46884885,0.0311649,0.028980449,0.8822525,0.17646882
86120000,0.08469855,-0.028503817,2.1672435,0,0.4671307,0.032399185,0.030741781,0.8830596,0.1770752
86144000,0.07908132,-0.029109418,2.163635,0,0.46879983,0.031405002,0.028063092,0.8822997,0.17761149
86168000,0.08330882,-0.029644037,2.16735,0,0.46708116,0.03257612,0.029862974,0.8831094,0.1780373
86192000,0.077630386,-0.030177152,2.1637325,0,0.46875748,0.031534325,0.027173722,0.88234544,0.17854373
86216000,0.081817396,-0.030636445,2.1674562,0,0.46703705,0.032664195,0.028973838,0.8831591,0.17900395
86240000,0.07623252,-0.03103283,2.1638298,0,0.46871904,0.031582683,0.026357554,0.88238895,0.17938104
86264000,0.080532305,-0.03136713,2.1675608,0,0.4669961,0.032685068,0.028237035,0.8832039,0.17968047
86288000,0.075006045,-0.031788938,2.163926,0,0.46868062,0.031627398,0.025640355,0.8824289,0.18033467
86312000,0.0793129,-0.03215118,2.1676636,0,0.46695387,0.032744937,0.027516704,0.88324666,0.18090405
86336000,0.088480905,-0.03245532,2.1751385,0,0.46348795,0.034901343,0.031624693,0.8848506,0.18138802
86360000,0.08295974,-0.032702923,2.171497,0,0.46518746,0.033784162,0.02906287,0.8840897,0.18179053
86384000,0.087279916,-0.03289747,2.1752515,0,0.4634486,0.03481674,0.030992555,0.88489693,0.18211871
86408000,0.08165229,-0.03309102,2.171603,0,0.4651542,0.03364999,0.028396193,0.88413405,0.18256144
86432000,0.08596299,-0.033240605,2.175362,0,0.46341464,0.0346616,0.030332066,0.8849437,0.18290007
86456000,0.08042393,-0.033333473,2.171707,0,0.46512356,0.033469953,0.027798373,0.88417596,0.18322738
86480000,0.08474406,-0.03337759,2.1754715,0,0.46338415,0.034438096,0.029762777,0.8849878,0.18351223
86504000,0.07923388,-0.03353371,2.171809,0,0.465094,0.03328026,0.027227275,0.8842165,0.18412356
86528000,0.08355626,-0.033634145,2.1755776,0,0.46335188,0.034274783,0.02917939,0.8850305,0.18471505
86552000,0.07796672,-0.033697154,2.1719096,0,0.46506706,0.033056453,0.026630607,0.88425714,0.18522447
86576000,0.082180716,-0.03371455,2.1756809,0,0.46332785,0.033990175,0.028553758,0.8850744,0.1856874
86600000,0.076617055,-0.03357723,2.172006,0,0.46504918,0.03268836,0.026063405,0.88429725,0.18588646
86624000,0.08085451,-0.033414397,2.1757793,0,0.46331325,0.03354882,0.02803823,0.8851154,0.186004
86648000,0.075413406,-0.03321896,2.1720994,0,0.46503484,0.032248974,0.025616223,0.88433397,0.18609704
86672000,0.079682514,-0.032984205,2.1758773,0,0.46329868,0.033085704,0.027621083,0.8851535,0.1861945
86696000,0.07413118,-0.03269043,2.172193,0,0.46502465,0.031716093,0.025173934,0.8843713,0.18621103
86720000,0.07840609,-0.032379344,2.1759758,0,0.4632889,0.03252115,0.02719823,0.88519263,0.1861819
86744000,0.07280146,-0.032034863,2.1722858,0,0.46501762,0.031116057,0.024740167,0.8844085,0.1861778
86768000,0.077064894,-0.031665836,2.1760695,0,0.46328402,0.03189361,0.026771791,0.8852311,0.18615952
86792000,0.07641284,-0.03143616,2.176154,0,0.46326172,0.03163985,0.026537845,0.88525885,0.18647528
86816000,0.08068153,-0.03117035,2.1799402,0,0.4615222,0.032456975,0.028550433,0.88607484,0.18680334
86840000,0.075155616,-0.030880863,2.1762443,0,0.46325278,0.031101808,0.026111675,0.8852952,0.18712334
86864000,0.07948122,-0.03056828,2.180034,0,0.4615128,0.031912092,0.028159412,0.88611203,0.18743171
86888000,0.0739418,-0.030252986,2.176333,0,0.46324483,0.030541742,0.025721487,0.8853304,0.18776996
86912000,0.078205116,-0.02992786,2.180123,0,0.46150693,0.031332806,0.027743543,0.88614887,0.1880704
86936000,0.072647646,-0.029576534,2.176421,0,0.46323875,0.029941589,0.02530694,0.88536596,0.18841024
86960000,0.076893725,-0.029206894,2.180211,0,0.46150312,0.030709734,0.027330583,0.8861855,0.18873912
86984000,0.07141794,-0.028818913,2.1765046,0,0.46323457,0.02932051,0.024939634,0.8853994,0.18907067
87008000,0.07580933,-0.028370023,2.1802955,0,0.46149915,0.030087758,0.027044889,0.8862177,0.1892845
87032000,0.070252,-0.027911264,2.176587,0,0.46323216,0.028647825,0.024635285,0.8854312,0.18950604
87056000,0.07459179,-0.027442595,2.1803803,0,0.4614981,0.029394934,0.026721071,0.88625133,0.18973786
87080000,0.06911146,-0.026964908,2.1766698,0,0.4632293,0.02796388,0.024351103,0.8854624,0.1899729
87104000,0.073401265,-0.02647936,2.1804628,0,0.46149763,0.028692506,0.0264174,0.8862837,0.19020577
87128000,0.06790698,-0.025996389,2.176751,0,0.4632277,0.027255327,0.024043666,0.8854937,0.1904037
87152000,0.07224688,-0.025500312,2.1805465,0,0.46149564,0.02799138,0.026133342,0.8863156,0.19067156
87176000,0.06670567,-0.02499708,2.1768315,0,0.463226,0.026533876,0.023744695,0.88552463,0.19093324
87200000,0.07097637,-0.024573136,2.1806257,0,0.46149552,0.027286485,0.025785703,0.8863478,0.19142634
87224000,0.065493405,-0.024145298,2.1769109,0,0.4632216,0.02587518,0.02340657,0.8855554,0.19193842
87248000,0.06991983,-0.023710905,2.1807053,0,0.46149036,0.026659718,0.025517823,0.8863774,0.19244602
87272000,0.06435996,-0.023272272,2.1769893,0,0.46321633,0.025225345,0.0231082,0.8855847,0.19296138
87296000,0.068655916,-0.022771636,2.180786,0,0.46148822,0.025950948,0.025175782,0.88640934,0.19334003
87320000,0.06309037,-0.022270447,2.1770666,0,0.4632147,0.024486974,0.022779338,0.8856149,0.19373117
87344000,0.06739892,-0.021766225,2.180861,0,0.46148872,0.025214529,0.024851957,0.8864393,0.19413695
87368000,0.061846927,-0.021257887,2.17714,0,0.4632137,0.023749936,0.022464428,0.8856434,0.19453673
87392000,0.06632198,-0.020714996,2.1809325,0,0.46148854,0.024499387,0.024618415,0.88646597,0.19487487
87416000,0.06082147,-0.020168955,2.1772118,0,0.46321136,0.02302958,0.02226368,0.8856689,0.195234
87440000,0.06512723,-0.01962142,2.1810045,0,0.46148956,0.023738276,0.024342382,0.8864939,0.19563085
87464000,0.05966512,-0.019072937,2.1772842,0,0.46320948,0.022275751,0.022006549,0.88569546,0.19603804
87488000,0.069015615,-0.018647503,2.184868,0,0.45974627,0.02415311,0.02633755,0.88733095,0.19677709
87512000,0.06349854,-0.018219512,2.1811476,0,0.4614681,0.022739533,0.023945963,0.88654196,0.19753051
87536000,0.067918435,-0.017786399,2.1849365,0,0.45974392,0.023518076,0.02604976,0.88735783,0.19829133
87560000,0.062553585,-0.017350664,2.1812155,0,0.46146253,0.022135664,0.023728535,0.88656604,0.19906367
87584000,0.06702521,-0.016911795,2.1850045,0,0.45973894,0.022923935,0.025855506,0.88738155,0.19984947
87608000,0.06155032,-0.016430378,2.1812863,0,0.4614565,0.021495502,0.023497125,0.8865911,0.20054868
87632000,0.066002056,-0.015948197,2.1850736,0,0.45973587,0.022260431,0.025624057,0.8874068,0.2012588
87656000,0.060619365,-0.015464408,2.1813507,0,0.46145266,0.020851847,0.023308197,0.88661337,0.20196609
87680000,0.06508711,-0.014979724,2.1851351,0,0.4597344,0.021619722,0.025441596,0.8874286,0.20268214
87704000,0.0596091,-0.014452869,2.181415,0,0.46144974,0.020169683,0.023094583,0.8866363,0.20329599
87728000,0.064060785,-0.013929667,2.185199,0,0.45973375,0.020917175,0.025228467,0.8874518,0.20392834
87752000,0.058573913,-0.013407856,2.1814783,0,0.46144736,0.019466933,0.022877587,0.88665885,0.20456599
87776000,0.06300283,-0.012890379,2.1852605,0,0.45973364,0.020212155,0.024998752,0.88747483,0.20521986
87800000,0.057547685,-0.012362395,2.1815429,0,0.4614435,0.018766023,0.022664625,0.88668144,0.20584649
87824000,0.061934702,-0.011841156,2.185322,0,0.45973298,0.019500367,0.024766745,0.88749754,0.20649177
87848000,0.056568604,-0.011324603,2.1816058,0,0.46143922,0.0180794,0.022470731,0.88670295,0.20714964
87872000,0.061077993,-0.010810453,2.185383,0,0.45972952,0.01884539,0.024624247,0.8875175,0.20780814
87896000,0.055755302,-0.010225188,2.1816652,0,0.46143517,0.017403737,0.022364477,0.8867212,0.20828024
87920000,0.06018154,-0.009644682,2.18544,0,0.45972958,0.018121384,0.024495088,0.8875361,0.208768
87944000,0.054853313,-0.009071635,2.181726,0,0.4614313,0.016683578,0.022231365,0.8867404,0.20927224
87968000,0.05929964,-0.008503564,2.185499,0,0.4597276,0.017411621,0.024366688,0.8875549,0.20979254
87992000,0.05384912,-0.007943532,2.1817868,0,0.46142724,0.015951112,0.022047013,0.8867606,0.21034352
88016000,0.0582574,-0.00739014,2.1855571,0,0.45972618,0.016677285,0.024160707,0.8875753,0.21090981
88040000,0.05288664,-0.0068411,2.181844,0,0.4614234,0.015239676,0.021875152,0.8867795,0.21147965
88064000,0.05733751,-0.006299194,2.1856124,0,0.459724,0.015981067,0.024003783,0.88759357,0.21206096
88088000,0.051959075,-0.005787691,2.1819038,0,0.46141678,0.014557989,0.02170743,0.88679844,0.21273577
88112000,0.056388658,-0.005281452,2.1856697,0,0.45971957,0.015310642,0.023817142,0.8876127,0.21341729
88136000,0.051037643,-0.004778981,2.181959,0,0.46141103,0.013897578,0.021532033,0.88681626,0.21410799
88160000,0.055470157,-0.004282121,2.1857226,0,0.45971593,0.014655405,0.02363966,0.8876304,0.21481295
88184000,0.050092597,-0.003791601,2.1820157,0,0.46140388,0.013241152,0.021341212,0.88683474,0.21553205
88208000,0.05466007,-0.003242033,2.185776,0,0.4597112,0.014006985,0.023519631,0.8876465,0.21608064
88232000,0.049265634,-0.002698969,2.1820707,0,0.4613972,0.01256531,0.021226985,0.88685066,0.21665168
88256000,0.053867064,-0.002163053,2.1858313,0,0.45970535,0.013345196,0.023416094,0.8876624,0.2172529
88280000,0.04845322,-0.001632312,2.1821275,0,0.46138883,0.011904314,0.021113181,0.88686687,0.21786739
88304000,0.053036563,-0.001098281,2.1858864,0,0.45969915,0.012681089,0.023292605,0.88767856,0.21847051
88328000,0.047692455,-0.000576439,2.182185,0,0.4613791,0.011259998,0.021019757,0.8868825,0.21908537
88352000,0.05220174,-6.32E-05,2.18594,0,0.4596927,0.012029178,0.023160324,0.88769454,0.21971159
88376000,0.051821083,0.000442878,2.1860042,0,0.4596723,0.011716318,0.023108069,0.8877107,0.22034334
88400000,0.056316208,0.000877521,2.1897578,0,0.4579834,0.012509196,0.025226602,0.88851464,0.2211678
88424000,0.050993804,0.00131,2.1860576,0,0.45966315,0.011140682,0.022940464,0.8877271,0.22198613
88448000,0.055574026,0.001739989,2.1898077,0,0.45797643,0.01195545,0.025094667,0.8885296,0.22282231
88472000,0.050268665,0.00216827,2.186111,0,0.45965284,0.010592446,0.022816125,0.88774234,0.22366135
88496000,0.05486758,0.00269914,2.1898584,0,0.4579695,0.011366915,0.02500072,0.88854355,0.22419289
88520000,0.049661547,0.003219634,2.1861672,0,0.45964232,0.009985585,0.022788528,0.8877555,0.22475417
88544000,0.054307543,0.003732959,2.1899128,0,0.4579606,0.010778677,0.024988897,0.8885558,0.2253278
88568000,0.049031816,0.004239779,2.186221,0,0.45963225,0.009387406,0.02274367,0.8877684,0.22590786
88592000,0.053672735,0.00478021,2.1899626,0,0.45795387,0.010167396,0.024946868,0.8885677,0.22638005
88616000,0.048392504,0.005311668,2.1862717,0,0.4596237,0.008764079,0.022706397,0.8877802,0.22686309
88640000,0.05313781,0.005834882,2.1900108,0,0.457947,0.009575699,0.024950873,0.88857776,0.22735758
88664000,0.047942348,0.006350282,2.1863241,0,0.4596127,0.008198967,0.022745417,0.88779026,0.22787438
88688000,0.052499358,0.006856054,2.1900628,0,0.45793808,0.008975126,0.024901196,0.8885899,0.22841725
88712000,0.047234107,0.007352468,2.1863785,0,0.45960116,0.007590686,0.02266148,0.88780385,0.2289816
