timestamp,roll_body,pitch_body,yaw_body,q_d[0],q_d[1],q_d[2],q_d[3],thrust_body[0]
34204000,0.008008662,0,2.2651038,0.424347,0.001699235,0.003625904,0.90549076,0.15
34228000,0.008008662,0,2.2651038,0.424347,0.001699235,0.003625904,0.90549076,0.15
34252000,0,0,1.5979786,0.6974314,0,0,0.71665156,0
34276000,0,0,1.5979786,0.6974314,0,0,0.71665156,1
34300000,0,0,1.5979786,0.6974314,0,0,0.71665156,1
34324000,0,0,1.5979786,0.6974314,0,0,0.71665156,1
34348000,0,0,1.5979786,0.6974314,0,0,0.71665156,1
34372000,0,0,1.5979786,0.6974314,0,0,0.71665156,1
34396000,0,0,1.5979786,0.6974314,0,0,0.71665156,1
34420000,0,0,1.5979786,0.6974314,0,0,0.71665156,1
34444000,0,0,1.5979786,0.6974314,0,0,0.71665156,1
34468000,0,0,1.5979786,0.6974314,0,0,0.71665156,1
34492000,0,0,1.5979786,0.6974314,0,0,0.71665156,1
34516000,0,0,1.5979786,0.6974314,0,0,0.71665156,1
34540000,0,0,1.5979786,0.6974314,0,0,0.71665156,1
34564000,0,0,1.5979786,0.6974314,0,0,0.71665156,1
34588000,0,0,1.5979786,0.6974314,0,0,0.71665156,1
34612000,0,0,1.5979786,0.6974314,0,0,0.71665156,1
34636000,0,0,1.5979786,0.6974314,0,0,0.71665156,1
34660000,0,0,1.5979786,0.6974314,0,0,0.71665156,1
34684000,0,0,1.5979786,0.6974314,0,0,0.71665156,1
34708000,0,0,1.5979786,0.6974314,0,0,0.71665156,1
34732000,0,-0.39756376,1.5979786,0.68369746,0.141521,-0.1377255,0.70253915,1
34756000,0,-0.38347143,1.5979786,0.68465096,0.13656732,-0.13290468,0.70351887,1
34780000,0,-0.37012914,1.5979786,0.68552226,0.13187106,-0.12833434,0.70441425,1
34804000,0,-0.35757256,1.5979786,0.6863145,0.12744597,-0.12402794,0.7052283,1
34828000,0,-0.34567416,1.5979786,0.6870402,0.12324819,-0.11994275,0.70597404,1
34852000,0,-0.33433187,1.5979786,0.6877094,0.11924256,-0.116044536,0.70666164,1
34876000,0,-0.3234626,1.5979786,0.6883299,0.11540037,-0.112305395,0.70729923,1
34900000,0,-0.31308103,1.5979786,0.68890357,0.11172738,-0.10873091,0.7078887,1
34924000,0,-0.3031151,1.5979786,0.6894368,0.10819863,-0.105296806,0.70843667,1
34948000,0,-0.2935053,1.5979786,0.6899348,0.10479342,-0.10198293,0.7089484,1
34972000,0,-0.2842021,1.5979786,0.69040173,0.10149456,-0.09877253,0.70942813,1
34996000,0,-0.27520734,1.5979786,0.69083893,0.098302975,-0.09566655,0.70987743,1
35020000,0,-0.26647925,1.5979786,0.69124985,0.09520411,-0.09265079,0.7102997,1
35044000,0,-0.25798252,1.5979786,0.6916373,0.092185654,-0.08971329,0.71069777,1
35068000,0,-0.24968702,1.5979786,0.6920034,0.089237064,-0.08684378,0.711074,1
35092000,0,-0.24159567,1.5979786,0.6923491,0.08635957,-0.08404346,0.7114292,1
35116000,0,-0.23368227,1.5979786,0.6926762,0.08354399,-0.081303395,0.7117653,1
35140000,0,-0.22592399,1.5979786,0.69298637,0.08078233,-0.07861579,0.71208405,1
35164000,0,-0.21830069,1.5979786,0.693281,0.07806753,-0.07597381,0.7123868,1
35188000,0,-0.21079452,1.5979786,0.69356126,0.07539335,-0.07337134,0.71267474,1
35212000,0,-0.20341711,1.5979786,0.69382715,0.07276399,-0.0708125,0.712948,1
35236000,0,-0.19615161,1.5979786,0.6940798,0.070173554,-0.06829154,0.71320766,1
35260000,0,-0.18898314,1.5979786,0.69432014,0.067616805,-0.065803364,0.7134546,1
35284000,0,-0.1818984,1.5979786,0.69454885,0.06508906,-0.06334341,0.7136896,1
35308000,0,-0.17489673,1.5979786,0.69476634,0.06259016,-0.06091153,0.7139131,1
35332000,0,-0.16796675,1.5979786,0.69497323,0.06011609,-0.058503814,0.7141257,1
35356000,0,-0.16109833,1.5979786,0.6951701,0.057663284,-0.056116786,0.71432793,1
35380000,0,-0.15428245,1.5979786,0.69535726,0.055228565,-0.053747367,0.7145203,1
35404000,0,-0.14752023,1.5979786,0.69553506,0.052812386,-0.051395986,0.71470296,1
35428000,0,-0.14080362,1.5979786,0.69570374,0.0504119,-0.04905988,0.7148763,1
35452000,0,-0.13412523,1.5979786,0.69586366,0.048024513,-0.046736524,0.7150406,1
35476000,0,-0.1274783,1.5979786,0.6960151,0.04564784,-0.04442359,0.71519625,1
35500000,0,-0.12086324,1.5979786,0.69615823,0.043282058,-0.042121258,0.71534336,1
35524000,0,-0.114273995,1.5979786,0.6962933,0.04092504,-0.039827455,0.7154821,1
35548000,0,-0.10770504,1.5979786,0.6964203,0.03857484,-0.037540287,0.71561265,1
35572000,0,-0.101151265,1.5979786,0.6965396,0.036229655,-0.035258,0.7157352,1
35596000,0,-0.094614774,1.5979786,0.6966511,0.03389027,-0.03298135,0.71584976,1
35620000,0,-0.08809095,1.5979786,0.696755,0.031555053,-0.030708764,0.7159565,1
35644000,0,-0.081575535,1.5979786,0.6968513,0.029222513,-0.02843878,0.7160555,1
35668000,0,-0.07506464,1.5979786,0.69694024,0.02689128,-0.026170073,0.7161469,1
35692000,0,-0.06855787,1.5979786,0.69702166,0.024561243,-0.023902524,0.7162306,1
35716000,0,-0.062051814,1.5979786,0.69709575,0.022231197,-0.02163497,0.7163067,1
35740000,0,-0.05554334,1.5979786,0.69716245,0.019900054,-0.019366346,0.71637523,1
35764000,0,-0.0490296,1.5979786,0.6972218,0.01756681,-0.01709568,0.7164362,1
35788000,0,-0.042507973,1.5979786,0.69727385,0.015230556,-0.014822082,0.71648973,1
35812000,0,-0.035977,1.5979786,0.69731855,0.012890791,-0.012545067,0.7165356,1
35836000,0,-0.029434457,1.5979786,0.69735587,0.010546745,-0.010263887,0.71657395,1
35860000,0,-0.02287836,1.5979786,0.6973857,0.008197728,-0.007977869,0.71660465,1
35884000,0,-0.016306918,1.5979786,0.6974082,0.005843124,-0.005686415,0.7166277,1
35908000,0,-0.009721294,1.5979786,0.69742316,0.003483377,-0.003389955,0.7166431,1
35932000,0,-0.003119966,1.5979786,0.69743055,0.001117964,-0.001087981,0.7166507,1
35956000,0,0.003498439,1.5979786,0.6974303,-0.00125358,0.00121996,0.7166504,1
35980000,0,0.01013515,1.5979786,0.69742244,-0.00363167,0.003534271,0.7166424,1
36004000,0,0.016790282,1.5979786,0.6974068,-0.00601632,0.005854966,0.7166263,1
36028000,0,0.023464797,1.5979786,0.69738334,-0.008407849,0.008182355,0.7166022,1
36052000,0,0.030159537,1.5979786,0.69735205,-0.01080653,0.010516705,0.7165701,1
36076000,0,0.036875207,1.5979786,0.69731283,-0.013212589,0.012858234,0.7165297,1
36100000,0,0.043612264,1.5979786,0.69726557,-0.01562616,0.015207076,0.71648115,1
36124000,0,0.050371207,1.5979786,0.6972102,-0.018047394,0.017563375,0.7164243,1
36148000,0,0.057152443,1.5979786,0.69714665,-0.020476406,0.01992724,0.71635896,1
36172000,0,0.06395623,1.5979786,0.69707483,-0.02291326,0.02229874,0.71628517,1
36196000,0,0.070780486,1.5979786,0.69699466,-0.02535718,0.024677115,0.71620286,1
36220000,0,0.077625334,1.5979786,0.69690615,-0.027808174,0.027062375,0.71611184,1
36244000,0,0.08449086,1.5979786,0.6968091,-0.030266248,0.029454524,0.7160121,1
36268000,0,0.09137703,1.5979786,0.69670355,-0.032731354,0.03185352,0.7159037,1
36292000,0,0.098284535,1.5979786,0.6965894,-0.03520371,0.034259565,0.7157864,1
36316000,0,0.1052132,1.5979786,0.69646657,-0.037683215,0.036672574,0.71566015,1
36340000,0,0.11216277,1.5979786,0.69633496,-0.040169746,0.039092418,0.7155249,1
36364000,0,0.11913291,1.5979786,0.69619447,-0.042663153,0.041518953,0.71538055,1
36388000,0,0.12612328,1.5979786,0.69604504,-0.045163274,0.04395202,0.715227,1
36412000,0,0.13313483,1.5979786,0.69588673,-0.047670417,0.046391923,0.71506435,1
36436000,0,0.14016704,1.5979786,0.6957193,-0.05018436,0.048838448,0.7148923,1
36460000,0,0.14721937,1.5979786,0.69554275,-0.05270487,0.051291354,0.7147109,1
36484000,0,0.15429123,1.5979786,0.695357,-0.055231705,0.05375042,0.71452004,1
36508000,0,0.1613831,1.5979786,0.69516206,-0.057764996,0.05621577,0.7143197,1
36532000,0,0.16849433,1.5979786,0.6949578,-0.060304467,0.058687136,0.7141098,1
36556000,0,0.17562416,1.5979786,0.69474417,-0.06284982,0.061164226,0.71389025,1
36580000,0,0.18277185,1.5979786,0.6945211,-0.06540075,0.063646734,0.71366113,1
36604000,0,0.18993558,1.5979786,0.69428873,-0.06795656,0.066134006,0.7134223,1
36628000,0,0.19711462,1.5979786,0.69404685,-0.07051696,0.06862573,0.71317375,1
36652000,0,0.20430821,1.5979786,0.69379556,-0.073081635,0.07112163,0.71291554,1
36676000,0,0.21151558,1.5979786,0.69353473,-0.075650275,0.07362138,0.7126475,1
36700000,0,0.21873865,1.5979786,0.6932643,-0.078223534,0.07612562,0.7123696,1
36724000,0,0.22597653,1.5979786,0.6929843,-0.08080104,0.078634,0.7120819,1
36748000,0,0.23322837,1.5979786,0.6926946,-0.08338245,0.08114619,0.71178424,1
36772000,0,0.24049333,1.5979786,0.69239527,-0.085967444,0.08366185,0.7114767,1
36796000,0,0.24777149,1.5979786,0.6920863,-0.088555984,0.08618096,0.7111591,1
36820000,0,0.25506198,1.5979786,0.6917675,-0.09114774,0.088703215,0.7108316,1
36844000,0,0.26236397,1.5979786,0.69143903,-0.09374236,0.091228254,0.7104941,1
36868000,0,0.26967657,1.5979786,0.6911009,-0.09633952,0.093755744,0.7101466,1
36892000,0,0.27700004,1.5979786,0.6907529,-0.09893923,0.09628574,0.70978904,1
36916000,0,0.28433353,1.5979786,0.69039524,-0.10154118,0.0988179,0.7094215,1
36940000,0,0.29167616,1.5979786,0.6900278,-0.104145,0.101351894,0.7090439,1
36964000,0,0.29902712,1.5979786,0.6896506,-0.10675036,0.10388738,0.7086564,1
36988000,0,0.30638555,1.5979786,0.6892637,-0.10935693,0.10642404,0.7082588,1
37012000,0,0.31375474,1.5979786,0.6888669,-0.11196583,0.10896297,0.70785105,1
37036000,0,0.32113376,1.5979786,0.6884602,-0.11457669,0.11150381,0.7074331,1
37060000,0,0.32852173,1.5979786,0.6880436,-0.11718915,0.1140462,0.7070051,1
37084000,0,0.33591777,1.5979786,0.6876172,-0.119802855,0.116589814,0.7065669,1
37108000,0,0.34332165,1.5979786,0.6871809,-0.1224177,0.11913453,0.7061185,1
37132000,0,0.34906584,1.5979786,0.6868358,-0.12444524,0.12110769,0.705764,1
37156000,0,0.34906584,1.5979786,0.6868358,-0.12444524,0.12110769,0.705764,1
37180000,0,0.34906584,1.5979786,0.6868358,-0.12444524,0.12110769,0.705764,1
37204000,0,0.34906584,1.5979786,0.6868358,-0.12444524,0.12110769,0.705764,1
37228000,0,0.34906584,1.5979786,0.6868358,-0.12444524,0.12110769,0.705764,1
37252000,0.43633232,0.34906584,-2.8881369,0.084235474,0.19511251,-0.19001512,-0.95850396,1
37276000,0.43633232,0.34906584,-2.8783414,0.08892892,0.19604081,-0.18905725,-0.9580799,1
37300000,0.43633232,0.34906584,-2.866858,0.094428435,0.19712307,-0.18792853,-0.95755345,1
37324000,0.43633232,0.34906584,-2.861911,0.09679663,0.1975873,-0.18744037,-0.95731694,1
37348000,0.43633232,0.34906584,-2.8520322,0.10152404,0.19851074,-0.18646212,-0.95682716,1
37372000,0.43633232,0.34906584,-2.8421223,0.1062638,0.1994322,-0.18547621,-0.95631236,1
37396000,0.43633232,0.34906584,-2.8371222,0.10865429,0.19989528,-0.18497705,-0.95604366,1
37420000,0.43633232,0.34906584,-2.8254938,0.11421104,0.2009674,-0.1838117,-0.9553958,1
37444000,0.43633232,0.34906584,-2.8155055,0.118981004,0.20188285,-0.18280575,-0.9548135,1
37468000,0.43633232,0.34906584,-2.8104537,0.121392414,0.20234397,-0.18229523,-0.9545099,1
37492000,0.43633232,0.34906584,-2.8004167,0.12618104,0.20325626,-0.18127748,-0.9538887,1
37516000,0.43633232,0.34906584,-2.793655,0.1294053,0.20386799,-0.18058926,-0.95345664,1
37540000,0.43633232,0.34906584,-2.7835689,0.13421196,0.2047761,-0.17955884,-0.9527919,1
37564000,0.43633232,0.34906584,-2.7734625,0.13902482,0.20568083,-0.1785218,-0.9521016,1
37588000,0.43633232,0.34906584,-2.7683434,0.14146131,0.20613708,-0.17799476,-0.9517426,1
37612000,0.43633232,0.34906584,-2.7564888,0.14710009,0.20718849,-0.17676981,-0.95088744,1
37636000,0.43633232,0.34906584,-2.7513363,0.1495493,0.20764321,-0.17623545,-0.9505053,1
37660000,0.43633232,0.34906584,-2.7411275,0.15439913,0.20854007,-0.17517325,-0.94972956,1
37684000,0.43633232,0.34906584,-2.7291799,0.16006985,0.20958279,-0.17392436,-0.94879025,1
37708000,0.43633232,0.34906584,-2.7239666,0.16254243,0.21003544,-0.17337747,-0.94836986,1
37732000,0.43633232,0.34906584,-2.7136736,0.16742106,0.21092494,-0.17229423,-0.9475207,1
37756000,0.43633232,0.34906584,-2.7084527,0.16989392,0.21137398,-0.17174304,-0.9470805,1
37780000,0.43633232,0.34906584,-2.6964133,0.17559198,0.212404,-0.17046753,-0.9460406,1
37804000,0.43633232,0.34906584,-2.6860669,0.18048365,0.21328302,-0.16936642,-0.94511956,1
37828000,0.43633232,0.34906584,-2.6808052,0.18296948,0.21372786,-0.16880473,-0.9446415,1
37852000,0.43633232,0.34906584,-2.6686664,0.18869951,0.21474846,-0.16750443,-0.9435136,1
37876000,0.43633232,0.34906584,-2.6633863,0.19118974,0.21518992,-0.1669369,-0.9430121,1
37900000,0.43633232,0.34906584,-2.6529222,0.196121,0.2160604,-0.16580874,-0.9419989,1
37924000,0.43633232,0.34906584,-2.6458788,0.19943722,0.21664298,-0.16504681,-0.9413024,1
37948000,0.43633232,0.34906584,-2.6354008,0.20436592,0.2175047,-0.16390957,-0.9402446,1
37972000,0.43633232,0.34906584,-2.624891,0.20930395,0.218363,-0.16276434,-0.9391577,1
37996000,0.43633232,0.34906584,-2.6178114,0.21262705,0.21893778,-0.16199036,-0.93841094,1
38020000,0.43633232,0.34906584,-2.6072638,0.2175731,0.21978906,-0.16083348,-0.93727654,1
38044000,0.87266463,0.34160382,-2.6001575,0.16962343,0.25981027,-0.3601047,-0.8798017,0.40352404
38068000,0.87266463,0.3341429,-2.5894501,0.17598139,0.2586001,-0.3598721,-0.87900436,0.42725408
38092000,0.87266463,0.3266803,-2.5832517,0.18035321,0.2565791,-0.36023736,-0.8785607,0.45011294
38116000,0.87266463,0.31921512,-2.5695608,0.18801023,0.25590736,-0.35965785,-0.877388,0.47185728
38140000,0.87266463,0.31174648,-2.562822,0.19261086,0.25398505,-0.359985,-0.87681437,0.49243647
38164000,0.87266463,0.30427375,-2.5488172,0.20039003,0.25337002,-0.35940668,-0.87548524,0.51178205
38188000,0.87266463,0.29679638,-2.5419579,0.2050338,0.25147027,-0.35975105,-0.874816,0.52987665
38212000,0.87266463,0.2893053,-2.5295606,0.21209504,0.2505628,-0.35941744,-0.8735291,0.5479268
38236000,0.87266463,0.2818006,-2.5207562,0.21758084,0.2490062,-0.359554,-0.87256825,0.56466097
38260000,0.87266463,0.27428246,-2.5082145,0.22469044,0.24811836,-0.35924542,-0.87114537,0.58013576
38284000,0.87266463,0.2667512,-2.4993718,0.23018143,0.2465632,-0.3594158,-0.8700824,0.59435797
38308000,0.87266463,0.2592006,-2.4867592,0.23730575,0.24568029,-0.35914272,-0.86852956,0.60829127
38332000,0.87266463,0.25163138,-2.4798431,0.24195,0.24376938,-0.35958892,-0.8676016,0.62103635
38356000,0.87266463,0.2440444,-2.46538,0.24985954,0.24321054,-0.35913527,-0.8657024,0.63263947
38380000,0.87266463,0.2364406,-2.458662,0.25440735,0.24125661,-0.35964328,-0.86471313,0.6431775
38404000,0.87266463,0.22881384,-2.444238,0.26227847,0.2406818,-0.3592426,-0.862686,0.6536717
38428000,0.87266463,0.22116536,-2.4376378,0.2667656,0.23869568,-0.359804,-0.86162716,0.66318613
38452000,0.87266463,0.21349648,-2.4232283,0.27460706,0.23810932,-0.35945383,-0.8594695,0.6717957
38476000,0.87266463,0.20580858,-2.4167826,0.27901542,0.23608717,-0.36007184,-0.8583481,0.6795535
38500000,0.87266463,0.1996281,-2.4083936,0.2839279,0.2350416,-0.36020052,-0.85696906,0.6870777
38524000,0.87266463,0.20116608,-2.3961022,0.28886265,0.23788482,-0.3584664,-0.8552608,0.6938289
38548000,0.87266463,0.20256227,-2.3878312,0.29210064,0.23993957,-0.3572203,-0.8541076,0.6998887
38572000,0.87266463,0.20382783,-2.3756592,0.29702482,0.24262823,-0.35551503,-0.8523596,0.7053028
38596000,0.87266463,0.20496559,-2.3675342,0.30024374,0.24453619,-0.35431015,-0.8511874,0.71027714
38620000,0.87266463,0.20600824,-2.3615,0.30258936,0.24603017,-0.35337114,-0.8503162,0.7147047
38644000,0.87266463,0.2069661,-2.347253,0.30843586,0.24893118,-0.35142335,-0.8481758,0.7186411
38668000,0.87266463,0.2078506,-2.341259,0.31078914,0.25034294,-0.35050258,-0.8472818,0.7221109
38692000,0.87266463,0.20863467,-2.3331459,0.3140576,0.25208086,-0.34932935,-0.84604496,0.72545516
38716000,0.87266463,0.20936851,-2.3187242,0.31999487,0.25488988,-0.34735548,-0.8437882,0.72843075
38740000,0.87266463,0.21005645,-2.3126378,0.3224157,0.25622344,-0.34643942,-0.8428389,0.7310681
38764000,0.87266463,0.21069941,-2.2981267,0.32838663,0.2589888,-0.3444397,-0.8405048,0.7333949
38788000,0.87266463,0.21130636,-2.292046,0.33081236,0.26027843,-0.3435256,-0.8395287,0.7354558
38812000,0.87266463,0.21182525,-2.2837682,0.33417478,0.26190585,-0.3423376,-0.838175,0.7376998
38836000,0.87266463,0.2123215,-2.2689462,0.3402727,0.2646337,-0.3402827,-0.83569795,0.73970085
38860000,0.87266463,0.21279687,-2.262702,0.34278005,0.2658841,-0.33935407,-0.8346533,0.741474
38884000,0.87266463,0.21325478,-2.2542462,0.34620944,0.2674984,-0.33812907,-0.83321804,0.7430304
38908000,0.87266463,0.21370804,-2.24126,0.351517,0.2698677,-0.336287,-0.8309743,0.74429816
38932000,0.87266463,0.21415128,-2.2325811,0.35502657,0.27149948,-0.3350161,-0.82946265,0.7454001
38956000,0.87266463,0.21458241,-2.223822,0.35856533,0.27313393,-0.3337291,-0.82792133,0.74632144
38980000,0.87266463,0.21500215,-2.210576,0.36395282,0.27550295,-0.33181942,-0.8255497,0.74710345
39004000,0.87266463,0.21540955,-2.201661,0.36754376,0.2771387,-0.3304967,-0.8239403,0.747809
39028000,0.87266463,0.21581726,-2.1926923,0.3711497,0.27877718,-0.32915843,-0.8223052,0.7484008
39052000,0.87266463,0.21622162,-2.1859725,0.3738259,0.28003907,-0.32812798,-0.8210751,0.7489059
39076000,0.87266463,0.2166224,-2.169818,0.3803621,0.2828357,-0.3257629,-0.8180508,0.7493141
39100000,0.87266463,0.21700063,-2.1604633,0.38410532,0.28450248,-0.3243485,-0.8162838,0.7497787
39124000,0.87266463,0.2173781,-2.1533875,0.3869123,0.2857938,-0.32325178,-0.81494117,0.7501717
39148000,0.87266463,0.21775669,-2.1438558,0.39071304,0.28747675,-0.3217968,-0.81310964,0.7505009
39172000,0.87266463,0.21813221,-2.1270194,0.39746606,0.29031914,-0.31927565,-0.80981386,0.7507903
39196000,0.87266463,0.21850367,-2.1172986,0.4013204,0.29200917,-0.31777138,-0.8078947,0.7510466
39220000,0.87266463,0.21887845,-2.1099763,0.40419787,0.29331324,-0.31660938,-0.80644274,0.75122774
39244000,0.87266463,0.219252,-2.1027484,0.4070324,0.29459733,-0.3154563,-0.80499965,0.75136673
39268000,0.87266463,0.21962942,-2.1027484,0.40695426,0.29474056,-0.31536433,-0.8050227,0.7514897
39292000,0.87266463,0.21998304,-2.1027484,0.40688112,0.2948748,-0.31527817,-0.8050443,0.75175726
39316000,0.87266463,0.22034319,-2.1027484,0.40680653,0.29501143,-0.31519037,-0.8050663,0.7519922
39340000,0.87266463,0.22070427,-2.1027484,0.40673175,0.29514843,-0.31510234,-0.80508834,0.7522015
39364000,0.87266463,0.2210706,-2.1027484,0.40665588,0.29528743,-0.31501305,-0.8051106,0.7523406
39388000,0.87266463,0.22143795,-2.1027484,0.4065798,0.29542682,-0.3149235,-0.805133,0.75248015
39412000,0.87266463,0.22178744,-2.1027484,0.40650734,0.2955594,-0.31483826,-0.80515414,0.7527755
39436000,0.87266463,0.2221422,-2.1027484,0.40643388,0.295694,-0.31475174,-0.8051757,0.75302315
39460000,0.87266463,0.22250147,-2.1027484,0.4063594,0.29583025,-0.31466413,-0.8051975,0.7532759
39484000,0.87266463,0.22286412,-2.1027484,0.4062842,0.29596782,-0.31457567,-0.8052194,0.75346196
39508000,0.87266463,0.22324193,-2.1027484,0.4062059,0.2961111,-0.3144835,-0.8052423,0.75358546
39532000,0.87266463,0.22362345,-2.1027484,0.4061268,0.2962558,-0.3143904,-0.8052653,0.75361246
39556000,0.87266463,0.22400814,-2.1027484,0.406047,0.29640168,-0.31429654,-0.8052885,0.75366354
39580000,0.87266463,0.22439761,-2.1027484,0.40596616,0.29654935,-0.31420147,-0.805312,0.753678
39604000,0.87266463,0.22480331,-2.1027484,0.405882,0.29670316,-0.31410247,-0.80533636,0.7535405
39628000,0.87266463,0.22521263,-2.1027484,0.40579706,0.29685837,-0.31400254,-0.8053609,0.7533317
39652000,0.87266463,0.22562456,-2.1027484,0.40571156,0.29701453,-0.313902,-0.80538565,0.7531137
39676000,0.87266463,0.22603975,-2.1027484,0.40562537,0.2971719,-0.3138006,-0.8054105,0.75290364
39700000,0.87266463,0.22639824,-2.1027484,0.4055509,0.2973078,-0.31371307,-0.80543196,0.7531344
39724000,0.87266463,0.22676739,-2.1027484,0.40547425,0.29744768,-0.3136229,-0.8054541,0.7533226
39748000,0.87266463,0.22713833,-2.1027484,0.40539715,0.29758826,-0.3135323,-0.8054761,0.7534674
39772000,0.87266463,0.22751334,-2.1027484,0.4053193,0.2977304,-0.31344068,-0.80549854,0.7536077
39796000,0.87266463,0.22791795,-2.1027484,0.4052352,0.2978837,-0.31334183,-0.80552256,0.75343525
39820000,0.87266463,0.22832677,-2.1027484,0.40515023,0.2980386,-0.31324193,-0.8055469,0.75321454
39844000,0.87266463,0.22873802,-2.1027484,0.4050647,0.29819438,-0.3131414,-0.80557126,0.75299513
39868000,0.87266463,0.22915228,-2.1027484,0.40497857,0.29835132,-0.31304017,-0.8055958,0.7527656
39892000,0.87266463,0.22955722,-2.1027484,0.4048944,0.2985047,-0.3129412,-0.80561984,0.7526079
39916000,0.87266463,0.22996294,-2.1027484,0.40480998,0.2986584,-0.312842,-0.8056438,0.75238526
39940000,0.87266463,0.2303735,-2.1027484,0.40472454,0.29881388,-0.31274158,-0.805668,0.7521481
39964000,0.87266463,0.23078294,-2.1027484,0.40463933,0.29896894,-0.3126415,-0.80569214,0.7518942
39988000,0.87266463,0.2311941,-2.1027484,0.4045538,0.29912466,-0.31254095,-0.80571645,0.75161505
40012000,0.87266463,0.2316083,-2.1027484,0.40446755,0.29928148,-0.31243962,-0.8057407,0.7512542
40036000,0.87266463,0.23202735,-2.1027484,0.4043803,0.29944015,-0.3123371,-0.8057653,0.75088143
40060000,0.87266463,0.2324452,-2.1027484,0.40429327,0.29959834,-0.31223488,-0.80578977,0.7504932
40084000,0.87266463,0.23287188,-2.1027484,0.40420437,0.29975986,-0.31213042,-0.8058147,0.7500327
40108000,0.87266463,0.23328906,-2.1027484,0.40411744,0.29991776,-0.31202835,-0.80583906,0.7496122
40132000,0.87266463,0.23371251,-2.1027484,0.40402922,0.30007803,-0.3119247,-0.8058638,0.749158
40156000,0.87266463,0.23413391,-2.1027484,0.4039414,0.3002375,-0.31182152,-0.8058884,0.74868494
40180000,0.87266463,0.23455924,-2.1027484,0.40385273,0.30039847,-0.31171736,-0.80591315,0.74822533
40204000,0.87266463,0.23499492,-2.1027484,0.40376186,0.30056334,-0.31161073,-0.8059385,0.74762464
40228000,0.87266463,0.23543663,-2.1027484,0.40366974,0.30073047,-0.31150255,-0.8059641,0.74704564
40252000,0.87266463,0.23587489,-2.1027484,0.4035783,0.3008963,-0.3113952,-0.8059895,0.74649906
40276000,0.87266463,0.23632108,-2.1027484,0.40348524,0.30106506,-0.31128588,-0.80601525,0.7459729
40300000,0.87266463,0.23677303,-2.1027484,0.40339088,0.301236,-0.31117514,-0.80604136,0.7453209
40324000,0.87266463,0.23723194,-2.1027484,0.4032951,0.3014096,-0.3110627,-0.8060678,0.7447077
40348000,0.87266463,0.2376896,-2.1027484,0.40319955,0.30158266,-0.31095052,-0.80609417,0.7441238
40372000,0.87266463,0.23814912,-2.1027484,0.4031036,0.3017564,-0.31083786,-0.8061205,0.74354404
40396000,0.87266463,0.23862448,-2.1027484,0.4030043,0.30193615,-0.31072134,-0.8061478,0.74288696
40420000,0.87266463,0.23910579,-2.1027484,0.4029037,0.30211815,-0.31060335,-0.80617535,0.74227595
40444000,0.87266463,0.2395842,-2.1027484,0.40280375,0.30229902,-0.31048602,-0.80620277,0.7417105
40468000,0.87266463,0.24007116,-2.1027484,0.40270194,0.30248308,-0.3103666,-0.80623055,0.7411958
40492000,0.87266463,0.24058384,-2.1027484,0.40259477,0.30267686,-0.31024083,-0.80625975,0.74043506
40516000,0.87266463,0.24110274,-2.1027484,0.40248623,0.30287296,-0.3101135,-0.80628926,0.7396642
40540000,0.87266463,0.2416251,-2.1027484,0.40237698,0.3030704,-0.30998534,-0.8063189,0.73896444
40564000,0.87266463,0.2421519,-2.1027484,0.40226674,0.30326945,-0.30985606,-0.80634874,0.7383294
40588000,0.87266463,0.24268246,-2.1027484,0.40215573,0.3034699,-0.30972582,-0.8063787,0.73775667
40612000,0.87266463,0.24319795,-2.1027484,0.40204778,0.30366462,-0.30959928,-0.80640787,0.7374918
40636000,0.87266463,0.24371228,-2.1027484,0.4019401,0.30385894,-0.30947295,-0.80643684,0.7372913
40660000,0.87266463,0.24423483,-2.1027484,0.40183064,0.3040563,-0.30934465,-0.8064662,0.737144
40684000,0.87266463,0.2447551,-2.1027484,0.4017217,0.30425277,-0.30921686,-0.8064955,0.73702955
40708000,0.87266463,0.24530552,-2.1027484,0.4016063,0.30446061,-0.3090816,-0.80652624,0.7368034
40732000,0.87266463,0.24585418,-2.1027484,0.40149134,0.30466777,-0.30894682,-0.806557,0.73660564
40756000,0.87266463,0.24641363,-2.1027484,0.401374,0.304879,-0.3088093,-0.8065882,0.73650765
40780000,0.87266463,0.24696994,-2.1027484,0.40125734,0.30508897,-0.30867255,-0.8066191,0.7365035
40804000,0.87266463,0.24756658,-2.1027484,0.4011322,0.30531418,-0.30852592,-0.8066523,0.7362246
40828000,0.87266463,0.24816692,-2.1027484,0.40100622,0.30554077,-0.30837828,-0.80668557,0.7359943
40852000,0.87266463,0.24877083,-2.1027484,0.40087944,0.30576867,-0.30822974,-0.806719,0.7358618
40876000,0.87266463,0.24937822,-2.1027484,0.40075195,0.30599782,-0.30808038,-0.80675256,0.735817
40900000,0.87266463,0.25000173,-2.1027484,0.400621,0.30623305,-0.30792698,-0.80678695,0.735665
40924000,0.87266463,0.25062928,-2.1027484,0.40048915,0.30646977,-0.30777258,-0.8068214,0.7356134
40948000,0.87266463,0.25125858,-2.1027484,0.4003569,0.30670714,-0.30761763,-0.80685586,0.73562473
40972000,0.87266463,0.25189108,-2.1027484,0.4002239,0.30694565,-0.30746195,-0.8068905,0.73571295
40996000,0.87266463,0.25252718,-2.1027484,0.4000902,0.3071855,-0.30730534,-0.8069252,0.735884
41020000,0.87266463,0.2531685,-2.1027484,0.3999553,0.3074273,-0.30714738,-0.80696017,0.73613983
41044000,0.87266463,0.25381362,-2.1027484,0.39981958,0.3076705,-0.30698848,-0.8069952,0.7364432
41068000,0.87266463,0.25446346,-2.1027484,0.3996828,0.30791542,-0.30682838,-0.80703044,0.7368844
41092000,0.87266463,0.2551306,-2.1027484,0.39954233,0.30816686,-0.30666402,-0.8070665,0.73724174
41116000,0.87266463,0.25580168,-2.1027484,0.399401,0.30841973,-0.30649862,-0.8071026,0.7376568
41140000,0.87266463,0.25648248,-2.1027484,0.39925757,0.30867624,-0.30633077,-0.8071393,0.7381731
41164000,0.87266463,0.25716487,-2.1027484,0.39911377,0.3089333,-0.3061625,-0.8071759,0.7387462
41188000,0.87266463,0.25785226,-2.1027484,0.39896888,0.30919224,-0.30599296,-0.8072127,0.7393824
41212000,0.87266463,0.25854978,-2.1027484,0.3988218,0.30945492,-0.3058209,-0.8072499,0.74005204
41236000,0.87266463,0.25925362,-2.1027484,0.39867336,0.30971995,-0.30564725,-0.8072874,0.7407557
41260000,0.87266463,0.25996205,-2.1027484,0.39852384,0.30998665,-0.3054724,-0.80732495,0.741541
41284000,0.87266463,0.26067635,-2.1027484,0.39837307,0.31025556,-0.3052961,-0.80736285,0.74242187
41308000,0.87266463,0.2614105,-2.1027484,0.39821804,0.31053188,-0.30511484,-0.8074016,0.7431441
41332000,0.87106675,0.26215163,-2.1027484,0.39830968,0.3104927,-0.30428663,-0.8076839,0.74395376
41356000,0.8657931,0.26289722,-2.1027484,0.39897043,0.30972242,-0.30197152,-0.808522,0.7448254
41380000,0.8603944,0.26364776,-2.1027484,0.39964813,0.30892766,-0.29960233,-0.80937237,0.7457596
41404000,0.8548215,0.26440015,-2.1027484,0.40035084,0.3080973,-0.2971596,-0.81024164,0.74677527
41428000,0.8492603,0.26515734,-2.1027484,0.40104917,0.30726948,-0.29471785,-0.81110203,0.7478676
41452000,0.8435229,0.26591867,-2.1027484,0.40177205,0.30640635,-0.29220104,-0.81198084,0.74899274
41476000,0.8376789,0.2666845,-2.1027484,0.4025086,0.3055218,-0.28963712,-0.81286746,0.750126
41500000,0.8317094,0.26746333,-2.1027484,0.4032598,0.30461514,-0.2870162,-0.81376463,0.7511139
41524000,0.82556474,0.26824763,-2.1027484,0.40403467,0.3036734,-0.28431976,-0.8146783,0.7521956
41548000,0.8193232,0.26903597,-2.1027484,0.40482128,0.3027116,-0.28157985,-0.8155968,0.7532452
41572000,0.81293505,0.26982823,-2.1027484,0.40562716,0.3017196,-0.27877614,-0.8165267,0.75431204
41596000,0.8064995,0.2706332,-2.1027484,0.40643525,0.3007207,-0.2759467,-0.8174539,0.75525135
41620000,0.79993534,0.2714452,-2.1027484,0.407259,0.2996962,-0.27305984,-0.81838906,0.7561551
41644000,0.7932915,0.2722633,-2.1027484,0.40809107,0.29865554,-0.27013558,-0.81932503,0.7570703
41668000,0.7864623,0.27308628,-2.1027484,0.40894717,0.29757658,-0.26713082,-0.82027525,0.75798476
41692000,0.7795033,0.27391353,-2.1027484,0.4098191,0.29647022,-0.26406825,-0.8212318,0.75893086
41716000,0.77240455,0.27474692,-2.1027484,0.4107076,0.29533505,-0.26094335,-0.82219523,0.7598523
41740000,0.7651726,0.2755839,-2.1027484,0.41161212,0.29417127,-0.25775915,-0.8231641,0.7607652
41764000,0.7577357,0.27642453,-2.1027484,0.41254273,0.2929638,-0.25448588,-0.82414657,0.7617011
41788000,0.75011665,0.27726978,-2.1027484,0.41349575,0.29171765,-0.25113258,-0.8251391,0.76260865
41812000,0.74235046,0.27811098,-2.1027484,0.41446728,0.29043627,-0.24771559,-0.82613593,0.7636468
41836000,0.73450726,0.27895528,-2.1027484,0.41544563,0.28913695,-0.24426194,-0.82712805,0.7646721
41860000,0.7264536,0.27980402,-2.1027484,0.41644955,0.2877923,-0.24071608,-0.82813114,0.7656284
41884000,0.71819997,0.28065634,-2.1027484,0.41747725,0.28640378,-0.2370822,-0.82914275,0.76659644
41908000,0.7097361,0.28153774,-2.1027484,0.4185252,0.28497908,-0.23334953,-0.8301636,0.76712483
41932000,0.70105714,0.28242302,-2.1027484,0.41959828,0.2835069,-0.22952199,-0.83119243,0.76762986
41956000,0.6921431,0.28331065,-2.1027484,0.42069912,0.28198224,-0.2255915,-0.83223003,0.76811826
41980000,0.68294567,0.28420022,-2.1027484,0.421834,0.28039432,-0.2215377,-0.8332804,0.768622
42004000,0.6735075,0.2850659,-2.1027484,0.4230008,0.27874148,-0.21738458,-0.8343365,0.7695261
42028000,0.66392124,0.2859349,-2.1027484,0.4241813,0.27705377,-0.21316372,-0.83538777,0.7704226
42052000,0.65412396,0.2868051,-2.1027484,0.42538416,0.2753167,-0.20884916,-0.8364396,0.7713216
42076000,0.6440493,0.28767782,-2.1027484,0.42661753,0.27351624,-0.2044126,-0.8374974,0.7721885
42100000,0.63373196,0.2885469,-2.1027484,0.42787704,0.2716569,-0.19986984,-0.83855575,0.77312076
42124000,0.6231163,0.28941867,-2.1027484,0.4291685,0.26972887,-0.19519562,-0.83961856,0.773996
42148000,0.61230135,0.2902923,-2.1027484,0.43047786,0.26775256,-0.19043149,-0.84067434,0.774838
42172000,0.60105634,0.29116666,-2.1027484,0.4318353,0.26567733,-0.18548042,-0.8417428,0.7756201
42196000,0.5895542,0.29204834,-2.1027484,0.43321565,0.2635425,-0.18041314,-0.8428053,0.7762156
42220000,0.57769513,0.29292986,-2.1027484,0.4346323,0.26132292,-0.17518921,-0.84386843,0.7768113
42244000,0.56574255,0.2938049,-2.1027484,0.43605092,0.25907272,-0.16992107,-0.844907,0.7773219
42268000,0.55347157,0.29467857,-2.1027484,0.43749917,0.25674462,-0.16451249,-0.8459387,0.7777594
42292000,0.54079455,0.29554877,-2.1027484,0.43898737,0.25431797,-0.15892656,-0.846968,0.7781957
42316000,0.52777296,0.2964184,-2.1027484,0.44050574,0.25180653,-0.15318817,-0.84798676,0.7785835
42340000,0.51445335,0.29728508,-2.1027484,0.44204757,0.249219,-0.14731747,-0.84898853,0.77891374
42364000,0.5007941,0.29814854,-2.1027484,0.44361666,0.24654542,-0.14129674,-0.8499735,0.779187
42388000,0.4868026,0.29900768,-2.1027484,0.44521087,0.24378623,-0.13512912,-0.8509381,0.77940357
42412000,0.47245494,0.29985008,-2.1027484,0.4468334,0.24093032,-0.12880744,-0.851881,0.7798238
42436000,0.457964,0.30068523,-2.1027484,0.44845575,0.23802854,-0.12241994,-0.8527856,0.78017086
42460000,0.44312665,0.30151534,-2.1027484,0.45010084,0.23503584,-0.1158795,-0.85366243,0.7804341
42484000,0.4280454,0.30234125,-2.1027484,0.45175493,0.23197491,-0.10922965,-0.8545022,0.78062344
42508000,0.41257024,0.3031565,-2.1027484,0.45343477,0.22880866,-0.10240794,-0.8553105,0.780778
42532000,0.39676568,0.30396193,-2.1027484,0.455131,0.2255512,-0.095441766,-0.8560802,0.78084666
42556000,0.380597,0.30476585,-2.1027484,0.45684457,0.22219741,-0.08831421,-0.8568092,0.7808604
42580000,0.36415023,0.3055559,-2.1027484,0.45856565,0.21876109,-0.08106541,-0.85749024,0.7807833
42604000,0.34748223,0.3063338,-2.1027484,0.4602862,0.21525547,-0.07371951,-0.8581184,0.78084165
42628000,0.3305538,0.30709916,-2.1027484,0.462009,0.21167088,-0.06626016,-0.85869247,0.780796
42652000,0.31357238,0.30785075,-2.1027484,0.46371102,0.20805448,-0.058777064,-0.8592035,0.7806466
42676000,0.29637462,0.30859178,-2.1027484,0.46540803,0.2043696,-0.051199764,-0.85965514,0.7804115
42700000,0.27894676,0.3093153,-2.1027484,0.4671007,0.20060982,-0.04352451,-0.86004555,0.7802464
42724000,0.26127324,0.31002796,-2.1027484,0.46878833,0.19677386,-0.035743408,-0.860372,0.7799887
42748000,0.24345186,0.31072778,-2.1027484,0.47046,0.1928835,-0.027899548,-0.8606306,0.77963686
42772000,0.2254868,0.311415,-2.1027484,0.47211418,0.1889397,-0.019995257,-0.8608195,0.7792081
42796000,0.20750146,0.31208172,-2.1027484,0.47373897,0.18496825,-0.01208625,-0.8609367,0.77891785
42820000,0.18946517,0.31273887,-2.1027484,0.47533587,0.18096665,-0.004157215,-0.8609818,0.778505
42844000,0.17144832,0.31337738,-2.1027484,0.4768987,0.17694797,0.003758594,-0.86095464,0.7779864
42868000,0.1536288,0.3139974,-2.1027484,0.47841194,0.17295513,0.011583999,-0.8608567,0.7773726
42892000,0.13587543,0.31458986,-2.1027484,0.47988814,0.16895351,0.01937263,-0.86068976,0.7770916
42916000,0.11813851,0.31516832,-2.1027484,0.4813305,0.16493727,0.02714863,-0.8604531,0.77670586
42940000,0.10056853,0.31572935,-2.1027484,0.482727,0.16094159,0.03484583,-0.86015016,0.7762108
42964000,0.08312578,0.3162715,-2.1027484,0.48408142,0.15695676,0.042480405,-0.8597821,0.77561
42988000,0.0658581,0.31679583,-2.1027484,0.48539057,0.15299544,0.050031558,-0.85935163,0.7748931
43012000,0.048836693,0.31729805,-2.1027484,0.48665014,0.14907363,0.057467237,-0.8588633,0.7741241
43036000,0.032015953,0.31778362,-2.1027484,0.4878643,0.14518328,0.06480799,-0.85831815,0.7732598
43060000,0.01582653,0.31824097,-2.1027484,0.48900405,0.14142531,0.071865946,-0.85773504,0.77227944
43084000,-7.89E-05,0.31867892,-2.1027484,0.490096,0.13771966,0.07879222,-0.85710615,0.7712026
43108000,-0.015604219,0.31908846,-2.1027484,0.49113554,0.13408671,0.08554336,-0.8564397,0.7703346
43132000,-0.030829083,0.31948105,-2.1027484,0.49212912,0.1305126,0.09215618,-0.8557351,0.76935846
43156000,-0.04563794,0.3198536,-2.1027484,0.49307096,0.12702505,0.098580495,-0.85500157,0.7683066
43180000,-0.060082477,0.32020563,-2.1027484,0.4939661,0.12361188,0.1048384,-0.85424036,0.7671719
43204000,-0.074121,0.32053402,-2.1027484,0.49481386,0.120282695,0.11091147,-0.85345775,0.7660609
43228000,-0.08772914,0.32084247,-2.1027484,0.49561435,0.117045775,0.116790414,-0.8526586,0.76485044
43252000,-0.100756325,0.3211212,-2.1027484,0.4963612,0.11393491,0.122408986,-0.8518571,0.7635567
43276000,-0.11321674,0.32137516,-2.1027484,0.49705753,0.11094949,0.12777495,-0.8510568,0.7621972
43300000,-0.12523791,0.3216014,-2.1027484,0.4977125,0.10805719,0.13294229,-0.8502543,0.76115245
43324000,-0.13700952,0.32180902,-2.1027484,0.4983377,0.10521522,0.13799414,-0.84943914,0.7600212
43348000,-0.1481741,0.32199475,-2.1027484,0.4989158,0.10251163,0.14277822,-0.84863937,0.75880224
43372000,-0.15892914,0.32215986,-2.1027484,0.4994589,0.09989828,0.14737912,-0.8478446,0.75751156
43396000,-0.16918184,0.32229862,-2.1027484,0.49996394,0.09739627,0.15175654,-0.84706545,0.75633734
43420000,-0.17900002,0.3224168,-2.1027484,0.50043595,0.09499161,0.15594113,-0.8462995,0.7550697
43444000,-0.18835966,0.3225123,-2.1027484,0.50087506,0.09268968,0.1599226,-0.84555167,0.75373024
43468000,-0.19689389,0.32257196,-2.1027484,0.5012661,0.090577245,0.16354334,-0.84485596,0.7522805
43492000,-0.20499562,0.32260528,-2.1027484,0.50162905,0.08856028,0.16697226,-0.8441834,0.7511043
43516000,-0.2126922,0.32261992,-2.1027484,0.50196624,0.0866355,0.17022315,-0.84353316,0.7498414
43540000,-0.21988906,0.32261324,-2.1027484,0.50227475,0.084825784,0.17325585,-0.84291583,0.7485221
43564000,-0.22669181,0.32258677,-2.1027484,0.5025601,0.08310549,0.17611569,-0.84232414,0.7471414
43588000,-0.2329161,0.3225468,-2.1027484,0.5028159,0.081523865,0.17872685,-0.84177595,0.7457011
43612000,-0.23880568,0.3224699,-2.1027484,0.5030529,0.080009736,0.18118687,-0.8412536,0.74429905
43636000,-0.24417414,0.32238466,-2.1027484,0.5032648,0.07862249,0.18342432,-0.8407727,0.7428456
43660000,-0.24907944,0.32227367,-2.1027484,0.50345457,0.07734017,0.18545988,-0.84033126,0.7413055
43684000,-0.25586832,0.32214236,-2.1043916,0.50302213,0.075729,0.18821837,-0.8401237,0.73971754
43708000,-0.26342303,0.32198834,-2.1068056,0.5022884,0.073993005,0.19126534,-0.84002906,0.73845553
43732000,-0.27443886,0.3218236,-2.111923,0.5005368,0.07165535,0.19566825,-0.84026325,0.7371234
43756000,-0.2924402,0.321645,-2.1222448,0.49682325,0.06811812,0.20283318,-0.8410619,0.735744
43780000,-0.3026265,0.32145262,-2.1274838,0.49495652,0.06604599,0.20689811,-0.8413378,0.73431295
43804000,-0.323102,0.32124123,-2.1404812,0.49013603,0.06228292,0.2150527,-0.8424012,0.7331805
43828000,-0.32901004,0.3210195,-2.1431975,0.4891668,0.06103398,0.21740827,-0.8424514,0.73195964
43852000,-0.33816615,0.32078406,-2.1485708,0.4871703,0.05928594,0.22105224,-0.84278476,0.7306658
43876000,-0.35371518,0.32052574,-2.1591682,0.48314306,0.056589462,0.22724445,-0.84364116,0.7292877
43900000,-0.36206034,0.3202496,-2.1646917,0.48103437,0.055089876,0.23055163,-0.844048,0.7281534
43924000,-0.37022635,0.31996703,-2.1702569,0.478895,0.05365307,0.23378688,-0.844467,0.7269435
43948000,-0.38445866,0.31967366,-2.1808627,0.4747749,0.05138661,0.23945872,-0.8453448,0.7256719
43972000,-0.39200002,0.31937012,-2.1864994,0.47256842,0.050146997,0.24244043,-0.8458056,0.7243314
43996000,-0.39601597,0.3190494,-2.189592,0.4713443,0.049435176,0.24399528,-0.84608334,0.7232427
44020000,-0.41222864,0.31872493,-2.2027493,0.4661486,0.047119744,0.25047407,-0.8472001,0.722078
44044000,-0.4189546,0.31839305,-2.2084565,0.46386856,0.04612893,0.25312355,-0.84771854,0.7208592
44068000,-0.42223808,0.3180451,-2.2117047,0.46254683,0.045627885,0.25437078,-0.84809434,0.7195688
44092000,-0.4372627,0.31767833,-2.2249494,0.4572402,0.04371626,0.2603773,-0.8492491,0.71882814
44116000,-0.44311032,0.31731132,-2.2307763,0.45486882,0.04298328,0.26266262,-0.849856,0.7179885
44140000,-0.44579163,0.31693667,-2.23411,0.45348522,0.042648084,0.2636575,-0.85030407,0.71708155
44164000,-0.4512214,0.3165541,-2.2399633,0.45108578,0.04202632,0.26576853,-0.8509539,0.71611685
44188000,-0.4620728,0.31616524,-2.2507021,0.44671252,0.040857792,0.27009103,-0.85195625,0.7150789
44212000,-0.46721,0.31576824,-2.2566538,0.44425282,0.04034488,0.27208394,-0.85263246,0.7137968
44236000,-0.47214255,0.31536886,-2.2626224,0.44177777,0.039890528,0.27399266,-0.8533283,0.7124408
44260000,-0.48213398,0.31496376,-2.2733665,0.4373581,0.038997844,0.27797094,-0.854359,0.7110249
44284000,-0.486605,0.31454253,-2.279447,0.4348144,0.03868404,0.27968612,-0.8551114,0.7095251
44308000,-0.49087447,0.3141105,-2.2854877,0.43227962,0.038414113,0.2813172,-0.8558734,0.70823205
44332000,-0.50007087,0.31368065,-2.296255,0.42781013,0.037770204,0.28497267,-0.8569379,0.7068673
44356000,-0.5040083,0.3132473,-2.3022978,0.42525887,0.037601084,0.28646955,-0.8577158,0.70545566
44380000,-0.5053718,0.31281194,-2.305984,0.4236674,0.037646443,0.28690827,-0.8583544,0.70400286
44404000,-0.5090448,0.31236857,-2.3120596,0.42109093,0.037547037,0.28829336,-0.8591621,0.70303255
44428000,-0.5199256,0.3119244,-2.325254,0.41558376,0.03698942,0.2926483,-0.86039466,0.70196617
44452000,-0.52085644,0.31147492,-2.3289557,0.41396883,0.03713771,0.29290357,-0.86107963,0.70083416
44476000,-0.52407247,0.31101555,-2.335131,0.4113282,0.037175238,0.2940963,-0.86193645,0.69962776
44500000,-0.53416413,0.31054628,-2.3482945,0.40579554,0.036852874,0.29812667,-0.8631873,0.698564
44524000,-0.5347229,0.31008154,-2.3521142,0.404114,0.03710123,0.29822072,-0.8639328,0.69742626
44548000,-0.53751546,0.30961472,-2.3582888,0.40145424,0.03725203,0.29923648,-0.8648146,0.6962457
44572000,-0.5378873,0.3091465,-2.362093,0.39977196,0.03753692,0.2992501,-0.86557657,0.6950261
44596000,-0.54727334,0.30867237,-2.375188,0.3942314,0.03743264,0.30299383,-0.86681896,0.6940286
44620000,-0.5497241,0.3082012,-2.3813586,0.39155617,0.037675776,0.3038663,-0.8677152,0.6929532
44644000,-0.54979926,0.3077288,-2.3851852,0.38985065,0.03803003,0.30375248,-0.8685071,0.6918205
44668000,-0.55202395,0.30725467,-2.3913517,0.3871675,0.038322344,0.30452767,-0.8694226,0.6906377
44692000,-0.55833393,0.30676457,-2.4020967,0.38256586,0.03853011,0.3069909,-0.8705833,0.6896694
44716000,-0.5603398,0.30628043,-2.4083471,0.3798337,0.038890064,0.3076703,-0.8715234,0.6886029
44740000,-0.5601251,0.30579606,-2.4122536,0.37807727,0.03931298,0.30742756,-0.8723533,0.687493
44764000,-0.561925,0.30531082,-2.4184835,0.37534454,0.039713465,0.30801773,-0.8733066,0.6863255
44788000,-0.5699008,0.30482462,-2.4314976,0.36976644,0.04002261,0.31117225,-0.87455297,0.6850948
44812000,-0.56938404,0.3043318,-2.4354227,0.36798707,0.040505365,0.31079596,-0.8754146,0.6840343
44836000,-0.5709546,0.3038456,-2.4416332,0.3652479,0.040963277,0.3112876,-0.8763653,0.68290114
44860000,-0.5703272,0.30335993,-2.4455788,0.36345378,0.041471265,0.31086218,-0.87723786,0.68171483
44884000,-0.5777836,0.3028694,-2.4585595,0.35785902,0.04193139,0.31379563,-0.87847084,0.68046814
44908000,-0.5789848,0.30236992,-2.4648166,0.35508016,0.04247289,0.31412274,-0.879455,0.67963964
44932000,-0.5781365,0.3018766,-2.4688234,0.35324535,0.043027833,0.31359652,-0.8803542,0.678739
44956000,-0.5792028,0.3013827,-2.4750588,0.35046816,0.04359387,0.3138642,-0.88134044,0.67778456
44980000,-0.578152,0.30088845,-2.4790564,0.34862822,0.044179432,0.31324682,-0.8822602,0.67677414
45004000,-0.58490217,0.30039012,-2.4919264,0.34304172,0.044809565,0.31587434,-0.8834806,0.6757722
45028000,-0.5836802,0.29989776,-2.4958885,0.34120774,0.045419298,0.31518078,-0.88440675,0.6746989
45052000,-0.5843577,0.2994063,-2.502093,0.33842275,0.046057984,0.3152752,-0.88540965,0.67357665
45076000,-0.58297676,0.29891682,-2.5060496,0.33658305,0.046690598,0.31450906,-0.88634974,0.67241657
45100000,-0.58349955,0.29841632,-2.5122898,0.33377174,0.04735569,0.31453067,-0.88736933,0.6713258
45124000,-0.5877079,0.29792345,-2.522901,0.32910484,0.048105903,0.31608427,-0.88851935,0.670176
45148000,-0.58801347,0.2974324,-2.5291092,0.32629615,0.048812196,0.3160093,-0.8895427,0.6689848
45172000,-0.58629614,0.29694432,-2.5331044,0.32441977,0.049498424,0.3150874,-0.89051753,0.6677388
45196000,-0.5864468,0.29644886,-2.5393054,0.32160372,0.050223745,0.31494015,-0.8915499,0.6668102
45220000,-0.58456314,0.29596204,-2.5432782,0.319728,0.050927095,0.31394124,-0.89253646,0.66581535
45244000,-0.59021974,0.29547644,-2.5560207,0.3141264,0.051814884,0.3160829,-0.8937178,0.66477203
45268000,-0.58818436,0.29499286,-2.5600014,0.3122368,0.052539475,0.31501305,-0.8947148,0.663678
45292000,-0.5880327,0.29449767,-2.566222,0.30939022,0.053314716,0.3147238,-0.895759,0.6627548
45316000,-0.5858754,0.29400504,-2.5702536,0.3074678,0.054054014,0.3135929,-0.8967727,0.66176647
45340000,-0.58556473,0.29351446,-2.5764868,0.30460516,0.054852426,0.31322864,-0.89782786,0.6607201
45364000,-0.58320004,0.29302454,-2.5804894,0.3026845,0.055611275,0.31200135,-0.8988574,0.65963614
45388000,-0.5827147,0.29253528,-2.5866954,0.29982263,0.056426182,0.31155533,-0.8999199,0.6584944
45412000,-0.5859201,0.29203764,-2.5972166,0.2951179,0.05736152,0.3126453,-0.90103716,0.65762347
45436000,-0.58526325,0.29154712,-2.6034126,0.29224747,0.05819913,0.312118,-0.9021012,0.6566725
45460000,-0.58266115,0.29105803,-2.6074262,0.2903018,0.05897694,0.31077453,-0.9031422,0.6556527
45484000,-0.58187014,0.2905703,-2.6136236,0.28742006,0.059827566,0.31018215,-0.90421087,0.65459317
45508000,-0.57910836,0.29007012,-2.61765,0.2854561,0.060614504,0.30875993,-0.9052668,0.65357965
45532000,-0.57824665,0.2895773,-2.6238978,0.28254172,0.061471976,0.30812863,-0.9063377,0.6524849
45556000,-0.5753493,0.2890851,-2.6279385,0.28056163,0.06227255,0.30664006,-0.9074025,0.6513314
45580000,-0.574289,0.28859493,-2.6341598,0.2776461,0.06314565,0.30591464,-0.908483,0.6501269
45604000,-0.57120717,0.28809863,-2.6381922,0.2756568,0.06395655,0.3043366,-0.9095615,0.64910823
45628000,-0.57373685,0.28760934,-2.6487052,0.27089635,0.064985104,0.30510122,-0.910662,0.6480269
45652000,-0.5724209,0.2871226,-2.654929,0.2679598,0.06588397,0.30425158,-0.91174984,0.6468886
45676000,-0.5690393,0.2866367,-2.6589627,0.26594996,0.06672092,0.30252945,-0.91284984,0.6456944
45700000,-0.56765294,0.28614354,-2.6652179,0.26298824,0.06761914,0.3016402,-0.9139354,0.64440686
45724000,-0.56423235,0.28565577,-2.6692975,0.26094887,0.06845307,0.29989234,-0.91503245,0.6430641
45748000,-0.5626665,0.28517005,-2.6755538,0.25797352,0.069365986,0.2989156,-0.9161263,0.64167774
45772000,-0.5590456,0.2846862,-2.679629,0.2559224,0.07021224,0.29707015,-0.91723675,0.6402476
45796000,-0.55530655,0.28419337,-2.6837006,0.2538643,0.07106106,0.2951664,-0.9183573,0.6392448
45820000,-0.5534894,0.28370714,-2.6899586,0.2508673,0.07198455,0.2940647,-0.9194617,0.63818985
45844000,-0.5496289,0.283223,-2.6940258,0.24880031,0.072835945,0.29209924,-0.92058206,0.6370906
45868000,-0.5456234,0.28274107,-2.6981015,0.24672069,0.0736993,0.29006332,-0.9217161,0.635945
45892000,-0.5434866,0.28225514,-2.7043679,0.24369586,0.07464005,0.28880394,-0.92283994,0.6348194
45916000,-0.5393923,0.28176516,-2.7084746,0.2415899,0.07549746,0.28671798,-0.92397374,0.6336145
45940000,-0.5372469,0.28129068,-2.714781,0.238539,0.07643391,0.28544703,-0.9250821,0.6323743
45964000,-0.532941,0.28081253,-2.718901,0.23641233,0.07730593,0.28325632,-0.9262283,0.6310756
45988000,-0.5285436,0.28032923,-2.7230144,0.23428066,0.07817601,0.28101912,-0.9273777,0.62970823
46012000,-0.52613497,0.2798459,-2.729319,0.23120645,0.0791121,0.27961463,-0.92849374,0.62871885
46036000,-0.52153015,0.27936628,-2.733436,0.22905716,0.07998881,0.27727357,-0.92965263,0.6276468
46060000,-0.5169616,0.27889004,-2.7375698,0.22689798,0.080855295,0.27494478,-0.93079805,0.62651646
46084000,-0.5142911,0.27002022,-2.7438834,0.22286984,0.07782629,0.27275607,-0.9326716,0.6014172
46108000,-0.50951844,0.26113886,-2.7480383,0.21976747,0.07471347,0.26967877,-0.93455523,0.5693307
46132000,-0.5045474,0.2522465,-2.7521608,0.21667966,0.07159355,0.26651257,-0.9364269,0.5396227
46156000,-0.5012721,0.24334346,-2.7584095,0.2126599,0.06854881,0.26407164,-0.9382659,0.5122305
46180000,-0.4955816,0.23442982,-2.76241,0.20961651,0.06543873,0.26058158,-0.94014674,0.4870873
46204000,-0.48327726,0.22550088,-2.759844,0.20947032,0.062148966,0.25418156,-0.94215256,0.4644851
46228000,-0.4771951,0.21655664,-2.7637582,0.2064928,0.059013437,0.25049528,-0.9439969,0.4438651
46252000,-0.47318217,0.20759699,-2.7698784,0.20254178,0.055911593,0.24772665,-0.9457707,0.4251297
46276000,-0.46690327,0.19862172,-2.7737668,0.19959018,0.052733514,0.24395499,-0.9475594,0.40813395
46300000,-0.46052384,0.18962197,-2.7776682,0.19664216,0.049533278,0.24013557,-0.9493226,0.39343908
46324000,-0.45653236,0.18059786,-2.7838535,0.19267641,0.046339005,0.23739919,-0.95098376,0.38014847
46348000,-0.45032984,0.1715495,-2.7878206,0.18972139,0.04306129,0.23366968,-0.9526542,0.36815643
46372000,-0.43752724,0.16247705,-2.785127,0.18982673,0.039610993,0.22692461,-0.95441186,0.35733393
46396000,-0.43149012,0.15337156,-2.7891219,0.1869031,0.03625312,0.22326034,-0.95598525,0.3482665
46420000,-0.4278354,0.14423355,-2.7954159,0.18293019,0.032893118,0.22070098,-0.9574684,0.34007657
46444000,-0.4220406,0.13506365,-2.7994885,0.17999193,0.029448241,0.21716212,-0.9589454,0.33267623
46468000,-0.41640228,0.12586255,-2.8036,0.17704917,0.02595831,0.21370143,-0.9603704,0.3259827
46492000,-0.40628302,0.11661285,-2.8032334,0.17622,0.02234909,0.20813894,-0.9618343,0.32123244
46516000,-0.40099654,0.10731578,-2.8074186,0.17327699,0.018751435,0.20484234,-0.96315277,0.31691763
46540000,-0.3959434,0.09797268,-2.811652,0.17032231,0.015097663,0.20166242,-0.9644141,0.3129916
46564000,-0.3910279,0.08858499,-2.8159187,0.1673618,0.011395898,0.19855428,-0.9656275,0.3094151
46588000,-0.38153115,0.07915419,-2.8156376,0.16659167,0.007592633,0.19325502,-0.9668723,0.3061353
46612000,-0.37704906,0.069667965,-2.819974,0.16362746,0.003779173,0.19035718,-0.96797514,0.30401346
46636000,-0.3727523,0.060128257,-2.8243477,0.16065256,-8.81E-05,0.187556,-0.9690271,0.30204958
46660000,-0.36134157,0.05053714,-2.8217652,0.16107336,-0.004065851,0.18129787,-0.9701391,0.3001693
46684000,-0.35984334,0.04089679,-2.8285646,0.15694183,-0.00801752,0.17986391,-0.9710582,0.2983786
46708000,-0.35608676,0.031195479,-2.8330362,0.15394889,-0.012043528,0.17733827,-0.9719597,0.2975042
46732000,-0.34522638,0.024003807,-2.8304982,0.154644,-0.014926326,0.17150308,-0.97285616,0.29661447
46756000,-0.34188014,0.019991308,-2.835025,0.15213178,-0.016237319,0.1696098,-0.97356296,0.29120025
46780000,-0.34132195,0.016169485,-2.8419814,0.14843068,-0.017468195,0.16911522,-0.9741988,0.28512108
46804000,-0.33089614,0.012133932,-2.8394704,0.14941737,-0.018868,0.16371626,-0.9749437,0.28055483
46828000,-0.3281613,0.008274689,-2.844076,0.1468868,-0.020172585,0.16214496,-0.9755646,0.2762096
46852000,-0.32548964,0.004595061,-2.8487036,0.14436136,-0.02140033,0.16062345,-0.97616696,0.2720415
46876000,-0.31795207,0.001083604,-2.8486135,0.1442104,-0.022578267,0.15668976,-0.97680193,0.26805985
46900000,-0.3155769,-0.002435332,-2.85328,0.14168344,-0.023763603,0.15533178,-0.9773603,0.26457423
46924000,-0.3132967,-0.005782255,-2.8579686,0.13915953,-0.024876766,0.15403813,-0.97789985,0.2612204
46948000,-0.30328202,-0.008971515,-2.8554795,0.14026096,-0.025925322,0.14888372,-0.9785133,0.257963
46972000,-0.30376816,-0.011998514,-2.8626294,0.1365279,-0.026907502,0.14900422,-0.97899634,0.25478622
46996000,-0.29391363,-0.01532171,-2.8601425,0.13763449,-0.0280409,0.14391375,-0.979571,0.2526698
47020000,-0.29181513,-0.01848138,-2.864885,0.13511093,-0.029105354,0.14273413,-0.98006374,0.2505772
47044000,-0.2897318,-0.02149372,-2.8696449,0.13259055,-0.030103523,0.1415775,-0.9805454,0.24841413
47068000,-0.2825524,-0.024356578,-2.8696105,0.13251272,-0.031033417,0.1378618,-0.9810563,0.24620861
47092000,-0.28053835,-0.027444959,-2.8743985,0.129978,-0.0320871,0.13674095,-0.9815182,0.24483807
47116000,-0.2705559,-0.030372526,-2.8719118,0.13115923,-0.033038564,0.13160333,-0.9820317,0.24338716
47140000,-0.2686618,-0.033172134,-2.876724,0.12863816,-0.033974305,0.13056594,-0.98247164,0.24178538
47164000,-0.26136926,-0.035818446,-2.876706,0.12859623,-0.034805976,0.12680626,-0.9829403,0.24011885
47188000,-0.2594833,-0.038328577,-2.8815422,0.12608746,-0.03561361,0.12579851,-0.9833658,0.2383153
47212000,-0.24957056,-0.041012205,-2.879055,0.12731698,-0.03645782,0.120701924,-0.9838151,0.23713365
47236000,-0.24776167,-0.043543376,-2.8839104,0.124802396,-0.037296455,0.11973534,-0.9842239,0.23583217
47260000,-0.2405745,-0.045943588,-2.883904,0.124792576,-0.03802895,0.11604131,-0.98463947,0.23434395
47284000,-0.238819,-0.048202336,-2.888782,0.122287005,-0.03875005,0.11512469,-0.9850334,0.232773
47308000,-0.22877735,-0.050487675,-2.886291,0.1235746,-0.03939799,0.10998232,-0.9854344,0.23148921
47332000,-0.22699696,-0.05263064,-2.891187,0.12107291,-0.04007628,0.10906491,-0.98581946,0.23009223
47356000,-0.21707062,-0.054643426,-2.8886921,0.12238912,-0.040596552,0.10399243,-0.98618376,0.22857532
47380000,-0.21823701,-0.05652429,-2.8961048,0.1186049,-0.04120718,0.10460033,-0.9865564,0.22693345
47404000,-0.20838737,-0.058616806,-2.8936098,0.11992605,-0.04177875,0.099557966,-0.9868944,0.22588187
47428000,-0.206859,-0.060571115,-2.8985384,0.117421776,-0.042407457,0.09878543,-0.9872462,0.22471726
47452000,-0.19708718,-0.062392164,-2.8960397,0.118769184,-0.04284912,0.093794696,-0.9875527,0.22344369
47476000,-0.19851054,-0.064080216,-2.9034944,0.11497102,-0.043414313,0.094554536,-0.98790497,0.22207923
47500000,-0.18876305,-0.06573945,-2.9009933,0.11633629,-0.043784864,0.0895834,-0.9881921,0.22078918
47524000,-0.17904897,-0.06726524,-2.8984878,0.11771527,-0.04407902,0.084634125,-0.9884519,0.21943393
47548000,-0.17780322,-0.06866875,-2.9034421,0.115229,-0.044490807,0.084042095,-0.98877686,0.21800238
47572000,-0.16810083,-0.06994697,-2.900932,0.11662897,-0.044662356,0.07911093,-0.9890119,0.2165167
47596000,-0.16972059,-0.07137371,-2.9084208,0.11282603,-0.045162555,0.07999416,-0.9893592,0.21536404
47620000,-0.16017042,-0.07267521,-2.905909,0.11422886,-0.04536131,0.075134814,-0.98957,0.2141753
47644000,-0.1590703,-0.07385376,-2.910883,0.11174339,-0.045695744,0.074633636,-0.98987633,0.21294516
47668000,-0.14949007,-0.074920125,-2.908368,0.11316422,-0.04577535,0.069771044,-0.9900659,0.21165413
47692000,-0.14276564,-0.07602349,-2.9083812,0.11326952,-0.045940153,0.066376686,-0.99027956,0.21058685
47716000,-0.14168438,-0.077005245,-2.913365,0.11078966,-0.046200655,0.06589839,-0.99057984,0.20949836
47740000,-0.13205563,-0.077893324,-2.9108427,0.11222928,-0.04618346,0.06101888,-0.99073124,0.2082912
47764000,-0.122476965,-0.07866952,-2.9083176,0.113674946,-0.04610077,0.05616962,-0.99085706,0.20710197
47788000,-0.12143391,-0.07933605,-2.9133022,0.111207455,-0.046232775,0.05572878,-0.9911557,0.20591733
47812000,-0.11473834,-0.079995036,-2.9133108,0.11133712,-0.04618646,0.05237231,-0.99132645,0.20478092
47836000,-0.11382521,-0.08055855,-2.9183,0.10886768,-0.046285212,0.05200267,-0.9916155,0.20363152
47860000,-0.1041677,-0.081022106,-2.9157708,0.110331066,-0.046048395,0.04712937,-0.99170834,0.20250422
47884000,-0.09452683,-0.08139737,-2.9132404,0.11179695,-0.045755565,0.042269062,-0.99177676,0.20137501
47908000,-0.093657434,-0.081804305,-2.9182346,0.10932951,-0.045804117,0.041928917,-0.992064,0.20046127
47932000,-0.0870458,-0.08212384,-2.9182405,0.109469734,-0.045600787,0.038631197,-0.99219173,0.19953442
47956000,-0.0775386,-0.08236491,-2.9157026,0.11093929,-0.04524245,0.033843305,-0.99221987,0.1986038
47980000,-0.076727085,-0.08252779,-2.9206934,0.10847779,-0.04519464,0.03354429,-0.9925043,0.1976799
48004000,-0.06731959,-0.08255736,-2.9181538,0.109949,-0.044735193,0.028817017,-0.99251175,0.19665906
48028000,-0.05790093,-0.0825093,-2.91561,0.11142165,-0.044223744,0.02408913,-0.99249643,0.19567987
48052000,-0.0514104,-0.08240316,-2.9156091,0.11156666,-0.043809265,0.020874105,-0.99257135,0.19470225
48076000,-0.05073385,-0.08222629,-2.920595,0.10910935,-0.043632403,0.020657228,-0.9928568,0.19379328
48100000,-0.04132391,-0.082123615,-2.9180515,0.11057738,-0.043087903,0.015936572,-0.9928052,0.19308543
48124000,-0.03203909,-0.08195159,-2.9155064,0.11204138,-0.042503096,0.011282969,-0.99273,0.19244385
48148000,-0.031472,-0.081732094,-2.9204843,0.109584406,-0.04233485,0.01111933,-0.9930133,0.1917859
48172000,-0.022289304,-0.08145015,-2.9179342,0.11104595,-0.041699633,0.006522397,-0.9929186,0.19119169
48196000,-0.01596764,-0.08093838,-2.9179223,0.1111863,-0.041094393,0.003412289,-0.99294364,0.1903457
48220000,-0.006742495,-0.08039572,-2.9153762,0.11264078,-0.04031021,-0.00118878,-0.9928171,0.18953113
48244000,-0.006310786,-0.07980419,-2.9203405,0.11018702,-0.03999554,-0.001270419,-0.993105,0.18881267
48268000,0.002877656,-0.07917684,-2.9177916,0.111636125,-0.03916996,-0.005848275,-0.9929597,0.18815634
48292000,0.011893782,-0.078453325,-2.9152455,0.11307497,-0.03829396,-0.010333003,-0.9927944,0.18744159
48316000,0.017976124,-0.07770466,-2.9152324,0.11319573,-0.03757816,-0.013310345,-0.9927726,0.18680091
48340000,0.018064812,-0.07694165,-2.9201858,0.110736474,-0.037227213,-0.013219288,-0.99306434,0.1862
48364000,0.027009826,-0.07614989,-2.917635,0.11216464,-0.036315918,-0.017663464,-0.99286866,0.18569466
48388000,0.035869412,-0.07533637,-2.9150884,0.113582894,-0.03538675,-0.022061415,-0.992653,0.18526243
48412000,0.044658054,-0.07431489,-2.9125433,0.11499114,-0.034346677,-0.026409714,-0.9924212,0.1845806
48436000,0.0534459,-0.073282406,-2.9100018,0.11639035,-0.03328964,-0.030753968,-0.992169,0.18398875
48460000,0.050460774,-0.07223942,-2.9174538,0.11263179,-0.0330544,-0.029090386,-0.99266064,0.18349297
48484000,0.059190385,-0.07119111,-2.9149113,0.114023365,-0.03199966,-0.03340557,-0.99240047,0.18309069
48508000,0.06773119,-0.07020287,-2.9123704,0.11540484,-0.030974237,-0.037627347,-0.9921222,0.1829001
48532000,0.076222174,-0.06921046,-2.9098341,0.11677637,-0.029938633,-0.04182103,-0.9918255,0.18279508
48556000,0.08463286,-0.06821539,-2.9073012,0.11813815,-0.02889554,-0.045971524,-0.9915115,0.18278861
48580000,0.084257394,-0.06722639,-2.9122071,0.11568144,-0.028539326,-0.045658506,-0.9918259,0.18281567
48604000,0.08969226,-0.06606442,-2.9121823,0.11574722,-0.027647898,-0.04828837,-0.99171895,0.18265548
48628000,0.09789625,-0.06491066,-2.9096513,0.11708851,-0.026534472,-0.052324608,-0.9913871,0.18260351
48652000,0.10611577,-0.06376168,-2.9071255,0.11842013,-0.025412234,-0.05636528,-0.9910367,0.18265136
48676000,0.11429461,-0.06261921,-2.9046056,0.119741045,-0.02428547,-0.060382567,-0.9906696,0.18280521
48700000,0.122442655,-0.061295245,-2.9020894,0.12104722,-0.02306053,-0.0643703,-0.9902889,0.1826767
48724000,0.12173959,-0.059987232,-2.9069638,0.11858796,-0.0226109,-0.06389051,-0.99062794,0.18266223
48748000,0.12669039,-0.05869579,-2.9069407,0.11861667,-0.021676652,-0.06626856,-0.99048907,0.18276061
48772000,0.13453923,-0.057424825,-2.904429,0.11990411,-0.020493388,-0.070107974,-0.9900949,0.18296018
48796000,0.14235494,-0.0561264,-2.9019232,0.121179685,-0.019289145,-0.07392553,-0.9896861,0.1831727
48820000,0.14998351,-0.05484942,-2.899425,0.12244279,-0.01809777,-0.07764783,-0.98926795,0.18349057
48844000,0.15763631,-0.05359062,-2.8969343,0.123695575,-0.016905008,-0.081379265,-0.9888331,0.18391329
48868000,0.16510186,-0.052348778,-2.8944504,0.124936625,-0.01572346,-0.08501524,-0.98839056,0.18444464
48892000,0.17242877,-0.05085242,-2.8919742,0.12615512,-0.014416339,-0.08856331,-0.9879441,0.18451636
48916000,0.16851218,-0.049385883,-2.8992665,0.12246399,-0.014253854,-0.086487666,-0.9885946,0.18471643
48940000,0.17582257,-0.047947545,-2.89679,0.123678364,-0.012983543,-0.0900317,-0.98814446,0.18503894
48964000,0.1830329,-0.04653945,-2.8943202,0.12488232,-0.01172625,-0.093523994,-0.9876842,0.1854758
48988000,0.19003712,-0.045158263,-2.8918586,0.12607476,-0.010487314,-0.096912116,-0.9872199,0.18602228
49012000,0.19700642,-0.043769054,-2.8894055,0.12725507,-0.009239061,-0.10027849,-0.9867446,0.18660812
49036000,0.20383167,-0.0424073,-2.8869612,0.12842444,-0.008006162,-0.10357146,-0.9862637,0.18731967
49060000,0.21046175,-0.041074283,-2.8845255,0.12958322,-0.00679287,-0.10676605,-0.9857805,0.18815756
49084000,0.21426035,-0.039768115,-2.8845317,0.12952527,-0.005903044,-0.108556315,-0.9855982,0.18911304
49108000,0.22076876,-0.038190957,-2.8821092,0.13065296,-0.004568869,-0.11166993,-0.9851085,0.1895053
49132000,0.22719143,-0.036653128,-2.8796957,0.13177069,-0.003253196,-0.11473967,-0.984612,0.1900246
49156000,0.22541259,-0.035152715,-2.884462,0.1293386,-0.00290238,-0.11376147,-0.98504895,0.19065805
49180000,0.23170526,-0.033689532,-2.882054,0.13045035,-0.001634063,-0.116770536,-0.98455304,0.19140898
49204000,0.23779124,-0.03220383,-2.8796554,0.13154928,-0.000362075,-0.11967249,-0.9840595,0.19215651
49228000,0.24382631,-0.030757708,-2.8772662,0.13263912,0.00089292,-0.12254806,-0.98355883,0.19304912
49252000,0.24972177,-0.029346075,-2.8748863,0.13372007,0.002127375,-0.12535338,-0.98305696,0.1940662
49276000,0.2528225,-0.02796715,-2.874913,0.13361864,0.003010978,-0.12678766,-0.98288447,0.19519918
49300000,0.2585169,-0.02643101,-2.872547,0.13467507,0.004299601,-0.1294807,-0.98238426,0.19601575
49324000,0.2640766,-0.024934633,-2.8701901,0.1357234,0.005564717,-0.13210641,-0.9818839,0.19697851
49348000,0.26946834,-0.023474606,-2.8678434,0.13676357,0.006805442,-0.13464837,-0.9813863,0.19807097
49372000,0.2748608,-0.02204745,-2.86551,0.13779348,0.008034574,-0.13718931,-0.98088104,0.19926398
49396000,0.28008375,-0.020447113,-2.8631864,0.13880168,0.009341536,-0.13963176,-0.9803825,0.20004585
49420000,0.28525856,-0.018893259,-2.8608723,0.13980258,0.010626722,-0.14205013,-0.9798796,0.20096911
49444000,0.29031435,-0.017378757,-2.85857,0.14079522,0.011888357,-0.1444093,-0.9793781,0.2020097
49468000,0.29518452,-0.015902562,-2.856278,0.14178123,0.013122157,-0.14667672,-0.97888297,0.20317265
49492000,0.29992563,-0.014242133,-2.8539953,0.14274457,0.014440799,-0.14886464,-0.97839403,0.2038859
49516000,0.30205455,-0.012628174,-2.8540723,0.14257206,0.015376627,-0.14979309,-0.9782632,0.20472679
49540000,0.29898554,-0.011058094,-2.858743,0.14019492,0.015580103,-0.148218,-0.97884333,0.20570855
49564000,0.30350056,-0.009529866,-2.8564715,0.1411568,0.016815128,-0.1503025,-0.9783666,0.20681717
49588000,0.3078261,-0.008045437,-2.8542109,0.14211337,0.0180186,-0.15229416,-0.97789854,0.20805869
49612000,0.3013931,-0.008943198,-2.8614306,0.13870429,0.016583394,-0.14927205,-0.9788789,0.37376666
49636000,0.30190387,0.001345303,-2.8625426,0.13739108,0.021572202,-0.14882545,-0.9790349,0.40486497
49660000,0.30246288,0.011611595,-2.8643336,0.1357401,0.026502568,-0.14841466,-0.9792065,0.4333421
49684000,0.30287915,0.021855574,-2.866525,0.13389046,0.031382456,-0.14794686,-0.9793877,0.45933262
49708000,0.30321264,0.032065783,-2.8689268,0.13193598,0.036224745,-0.14745167,-0.97956043,0.48234808
