timestamp,control[0],control[1],control[2],control[3],control[4],output[2],output[3],output[4],output[5],output[6],output[7],indicated_airspeed_m_s,true_airspeed_m_s,indicated_airspeed_m_s.1,equivalent_airspeed_m_s,true_airspeed_m_s.1,equivalent_ground_minus_wind_m_s,true_ground_minus_wind_m_s,differential_pressure_raw_pa,differential_pressure_filtered_pa,temperature,gyro_bias[0],gyro_bias[1],gyro_bias[2],accel_bias[0],accel_bias[1],accel_bias[2],instance_count,seq_reached,seq_current,seq_total,item_changed_index,item_do_jump_remaining,valid,warning,finished,failure,stay_in_failsafe,flight_termination,item_do_jump_changed,execution_mode,nav_roll,nav_pitch,nav_bearing,target_bearing,xtrack_error,wp_dist,acceptance_radius,rollspeed_integ,pitchspeed_integ,yawspeed_integ,additional_integ1,x,y,z,temperature.1,pressure,temperature.2,gyro_rad[0],gyro_rad[1],gyro_rad[2],accelerometer_m_s2[0],accelerometer_m_s2[1],accelerometer_m_s2[2],x.1,y.1,z.1,temperature.3,altitude_sp,altitude_filtered,height_rate_setpoint,height_rate,airspeed_sp,airspeed_filtered,airspeed_derivative_sp,airspeed_derivative,throttle_integ,pitch_integ,baro_alt_meter,baro_temp_celcius,baro_pressure_pa,rho,xyz[0],xyz[1],xyz[2],xyz[0].1,xyz[1].1,xyz[2].1,roll_body,pitch_body,yaw_body,q_d[0],q_d[1],q_d[2],q_d[3],thrust_body[0],lat,lon,alt,vel_m_s,vel_n_m_s,vel_e_m_s,vel_d_m_s,cog_rad,ground_contact,maybe_landed,landed,ref_lat,ref_lon,x.2,y.2,z.2,vx,vy,vz,ax,ay,az,yaw,dist_bottom,roll,pitch,yaw.1,thrust_body[0].1,timestamp.1,isTakeoff,isClimbing,isDescending,isCruise,isLand
156586605.0,-0.011742434,0.307472634,-0.270386955,0.19214535,1.0,1366.0,2000.0,1001.0,1503.0,1496.0,1628.0,12.60482822,12.88258669,12.40358454,12.52736254,12.80335157,13.82896125,14.13362658,94.64637655,94.64637655,12.07652974,-0.000724171,-0.00582417,-0.000112184,-0.250593736,0.190577106,-0.022390768,2.0,8.025005001,9.025005001,11.0,0.0,0.0,1.0,0.0,0.0,0.0,0.0,0.0,0.0,0.0,-0.000411172,0.150428116,1.587672186,1.58570209,-0.071076693,357.7292749,37.06309147,-0.004209637,0.215731479,-0.192192972,0.0,-0.406263632,0.206786011,-9.826837366,645681000000000.0,960.3506769,12.07658722,0.012650179,0.01759419,0.00121624,0.086280463,0.127371257,-10.43951961,-0.010887801,-0.087989641,0.001515465,3344830000000000.0,50.05997,50.58989623,-0.026496263,-0.106963319,10.22041174,12.94086539,-0.054409075,-0.06338582799999999,-0.340113701,140.55100430000002,450.0483245,12.076599,96034.86743,1.141053073,-0.389275582,-1.262565694,-0.257201389,0.015616955,0.06128093900000001,-0.002436013,0.000613561,0.08485541,1.588747787,0.70010987,-0.030045089,0.029940189,0.712773552,0.0,398723602.5,327392210.0,450587.0,12.92513051,-0.17460692100000005,12.92460692,0.0061792340000000005,1.5848163730000002,0.0,0.0,0.0,39.8714138,32.7364372,105.17532450000002,238.98791380000003,-50.51752037,-0.222069343,12.97597495,-0.040652491,-0.044910599,-1.014644319,-0.266248574,1.586212552,50.64365634,-0.004432283,0.056535194,-0.0001052,0.0,156586605.0,0.0,0.0,0.0,0.0,1.0
156675697.0,-0.009942424941883767,0.26942547769338676,-0.26809656024448897,0.052670850356713414,1.0,1364.8296593186374,2000.0,1000.0,1501.7074148296592,1497.2925851703408,1620.5162598677355,12.469661671563125,12.744402577354709,12.38497167,12.50874967,12.784339354589179,13.8119923598998,14.116295818256512,94.36641659488978,94.36641659488978,12.076553579959919,-0.0007229179559118237,-0.005826099356713427,-0.00011104329258517034,-0.2506248168697395,0.19065240266733469,-0.022356834154308617,2.0,8.030966914587175,9.030966914587175,11.0,0.0,0.0,1.0,0.0,0.0,0.0,0.0,0.0,0.0,0.0,-2.8996793587174346e-05,0.1317400038176353,1.5881448355290582,1.5857146920480962,-0.08798602761523046,356.60390019118233,36.87299597036072,-0.004191135803607214,0.21641827430661323,-0.19223100628256512,0.0,-0.43550047953106213,0.18969241791783567,-9.243927812661322,3234070060120240.5,960.3463999877756,12.076543045611222,-0.00023319232865731503,-0.05543636252905812,0.0007694482044088182,-0.45321393962525053,0.2009053791282565,-10.073155865014028,-0.011660981721442885,-0.1366203374028056,0.00918463244488978,3344830000000000.0,50.05997,50.58201636599198,-0.026102281749498996,-0.10409418141282566,10.22034023006012,12.952880719559118,-0.05465081576553106,-0.06324340895991984,-0.34066530258517036,140.76815198076153,450.0589188318637,12.07656682024048,96034.75073811624,1.1410517425611222,-0.41465634439278554,-1.1800333513847696,0.09984180452905805,0.005789694126252505,0.007193032382765528,-0.0014314112244488975,0.0009640283326653307,0.07309560990581163,1.58924259951503,0.700099275486974,-0.02573714015230461,0.02594180671943888,0.713109016240481,0.0,398723601.2537074,327392340.1480962,450587.0547719439,12.918112961523047,-0.1864846795250501,12.933745533026052,-0.030412740529058117,1.5857154431983969,0.0,0.0,0.0,39.8714138,32.7364372,105.16067078557114,240.0741645759519,-50.5222947198998,-0.22177830820040081,12.886840672244489,-0.04128419316232465,-0.07269173578757515,-0.9888624285090181,0.238858856735471,1.5865832256072143,50.64843226937875,-0.0029550052685370742,0.029450507599198397,0.00021934921442885773,0.0,156675697.2745491,0.0,0.0,0.0,0.0,1.0
156776109.0,-0.005862527967935871,0.24487958528657316,-0.27059339330661325,0.0,1.0,1361.8296593186374,2000.0,1000.0,1500.4148296593187,1498.5851703406813,1617.7535445390781,12.413501531523046,12.687049179619239,12.36635879,12.49013679,12.765327135030061,13.795023475651304,14.098965056513025,94.08645663977956,94.08645663977956,12.076577415771542,-0.0007216649118236473,-0.005828028128256513,-0.00010990258517034068,-0.2506558981543086,0.19072769933466935,-0.022322900308617236,2.0,8.03692882875952,9.03692882875952,11.0,0.0,0.0,1.0,0.0,0.0,0.0,0.0,0.0,0.0,0.0,0.00035321816232464936,0.11305189163527053,1.5886174840581162,1.5857272930961923,-0.10489536223046092,355.4785253823647,36.68290048072144,-0.004172561164328657,0.21700398044488978,-0.192239336250501,0.0,-0.4837103865691383,0.21640649746292584,-8.731388912062124,3344830000000000.0,960.3448086100201,12.076570286112226,-0.006437835478957914,-0.11622340494589178,0.006455462218436874,-0.512839316993988,0.12781405453507014,-9.487168695392786,-0.01071064955511022,-0.13880737497595189,0.010749415549098196,3344830000000000.0,50.05997,50.57411380783567,-0.025707185498997996,-0.1029736748256513,10.220321675971944,12.951678419118236,-0.05462714253106213,-0.06522003691983967,-0.341220147755511,140.98939516152305,450.096318504008,12.076545484328657,96034.30712531062,1.1410464202905812,-0.5569184347775551,-0.48961251475350726,-0.1295657862845691,-0.0041916843146292595,-0.05724191331062124,0.0018477846593186378,0.0011610995791583166,0.07187336045290581,1.5896197545891784,0.6999828302925852,-0.025237177264529058,0.025579480012024047,0.7132547326492985,0.0,398723599.9488978,327392471.2302605,450588.37062965933,12.84804112729459,-0.17629354374749498,12.857761284188376,-0.022866934208416834,1.5849638241683366,0.0,0.0,0.0,39.8714138,32.7364372,105.14488112084169,241.21589536673346,-50.524865234148294,-0.22251728367935875,12.799356891082164,0.008475004777555114,-0.0564426934248497,-0.87803441549499,0.7940684045711424,1.5871914257635271,50.65100181941884,-0.0012573058597194389,0.022584076889779557,0.00048461745691382764,0.0,156776109.18637276,0.0,0.0,0.0,0.0,1.0
156862373.0,-0.003399335921843687,0.23567868724048097,-0.27395436880761526,0.0,1.0,1359.7463140921848,2000.0,1000.0,1501.0,1498.0,1617.564334472946,12.387983215450904,12.661006387094188,12.347745918777555,12.471523918777555,12.746314922545091,13.7780545896994,14.08163429476954,93.7688070655511,93.7688070655511,12.076648568456914,-0.0007204117454909819,-0.005829957192384769,-0.00010876187775551103,-0.2506869797314629,0.19080299600200407,-0.02228896646292585,2.0,8.042890742761523,9.042890742761523,11.0,0.0,0.0,1.0,0.0,0.0,0.0,0.0,0.0,0.0,0.0,0.000735412743486974,0.0943637794529058,1.5890901325871742,1.585739895022044,-0.12180469696793587,354.35315057354705,36.49280498108216,-0.004152449448897796,0.21753442173947896,-0.19222898104008015,0.0,-0.5534284546573147,0.21701141842284571,-8.512127043328658,3344830000000000.0,960.344519257515,12.076642442785571,-0.010562049480961922,-0.14174371828657314,0.01004241224649299,-0.46902391495991985,0.2250366941202405,-8.91453005122044,-0.013968588761523047,-0.13712717813827657,0.006696025791583166,3344830000000000.0,50.05997,50.56621124797596,-0.025312089126252508,-0.10185316823847695,10.220303118957917,12.950476118677356,-0.054603470174348696,-0.06719666487975952,-0.34177499275551104,141.21063834228457,450.1478485208417,12.076595332665331,96033.73489072145,1.1410395896653307,0.00145915563927837,-0.5612363584809617,0.048870155613226565,-0.0071836603807615244,-0.11201235752104209,0.0077255362224448905,0.001605005100200401,0.06362984591783566,1.590126261985972,0.6999030522164329,-0.02214738638276553,0.022846955058116236,0.7135282127154309,0.0,398723598.6733467,327392602.5953908,450590.082144489,12.758185910941883,-0.1591782606212425,12.755069612505011,-0.0014728353126252456,1.583694298252505,0.0,0.0,0.0,39.8714138,32.7364372,105.12843944669339,242.36977308016031,-50.52029521927856,-0.22351790643086172,12.720864839118235,0.10697230180561125,-0.04928397569338677,-0.8218044765190381,1.2663821900801606,1.5879706913647296,50.64643180160321,0.00045426529258517075,0.03217669851503007,0.0004998760561122243,0.0,156862372.8016032,0.0,0.0,0.0,0.0,1.0
156951657.0,-0.0020400370020040083,0.23482602950100198,-0.2785091938977956,0.0,1.0,1356.1801173627255,2000.0,1000.0,1500.1056323446894,1498.8943676553106,1624.0,12.289648810180362,12.560463209599199,12.32913304,12.45291104,12.72730270006012,13.761085699599198,14.064303533026052,93.20839204288578,93.20839204288578,12.077024531482966,-0.0007191588236472946,-0.005831886256513027,-0.00010762117034068136,-0.25071806047895795,0.19087829249899801,-0.02225503278757515,2.0,8.048852656348698,9.048852656348698,11.0,0.0,0.0,1.0,0.0,0.0,0.0,0.0,0.0,0.0,0.0,0.0010693254288577155,0.07602259638877755,1.5895111513446893,1.5857511258016033,-0.1368641602785571,353.2285875573146,36.304285304569134,-0.004129979048096193,0.21818530018236473,-0.19219316314228457,0.0,-0.6457180951162326,0.2418411072224449,-8.549818856342686,1075477952905811.2,960.3453819653307,12.076784158897796,-0.011947876995991983,-0.14960390615430863,0.010305075995991984,-0.5324539302004008,0.23405967384569146,-8.500754694581163,-0.006492367961923847,-0.10321552823046092,0.00531165417234469,1075477952905811.2,50.05997,50.55655683342685,-0.024829336775551103,-0.10072760116232465,10.220320495270542,12.944230443807616,-0.054478206132264534,-0.06900969240881763,-0.34238433926252504,141.4559532985972,450.05663126032067,12.076696896252505,96034.75709697395,1.1410517373346694,-0.02869025722845684,0.2559644228517035,-0.14974579435871743,-0.008418900675350702,-0.13396714803006013,0.012429166785571141,0.0020677277815631264,0.05557004647895792,1.5906352411823645,0.6998077038016032,-0.01911481560521042,0.02018662084569138,0.7137897135591182,0.0,398723597.1807615,327392734.3286573,450585.44411663327,12.678251961683367,-0.14999999,12.666267702945891,0.0615905629719439,1.5830481649579158,0.0,0.0,0.0,39.8714138,32.7364372,105.11284201963927,243.47153541282566,-50.50658308218437,-0.22407271583166333,12.654760469819639,0.22673490188577156,-0.05346099382765531,-0.7368685668276552,1.4958451654168334,1.5886089935571144,50.63272008218437,0.0020474563166332665,0.04563572902805611,-6.500622244488984e-05,0.0,156951657.46092185,0.0,0.0,0.0,0.0,1.0
157056069.0,-0.0016618581743486974,0.2456512029699399,-0.2859657396192385,0.0,1.0,1353.0741482965932,2000.0,1000.0,1500.0,1499.0,1623.328970268537,12.155331667635272,12.423195942925853,12.31052017,12.43429817,12.708290482945893,13.744116819498998,14.046972776653305,92.63772505360721,92.63772505360721,12.077413366853706,-0.00071790524248497,-0.005833815320641283,-0.0001064804629258517,-0.2507491418857716,0.1909535888737475,-0.022221099771543087,2.0,8.054814569935871,9.054814569935871,11.0,0.0,0.0,1.0,0.0,0.0,0.0,0.0,0.0,0.0,0.0,-1.1439262525050062e-05,0.06784637525250502,1.5884193960440882,1.5857222038837675,-0.09772273884368737,352.12780956372745,36.16193666064128,-0.00411439071743487,0.21880842519038077,-0.19215383112024054,0.0,-0.5923492146633267,0.2564458119038076,-8.633284904719439,12.07699420501002,960.3401093422846,12.07699420501002,-0.00987347644488978,-0.11896372737675351,0.00538820950501002,-0.5257272484288578,0.24061508914428859,-8.418214558609218,-0.005122643318637274,-0.07741905217034069,0.006069846328657314,1839063006012024.0,50.05997,50.54667690641283,-0.024335300719438877,-0.09960138345290581,10.220342504088176,12.937335554388778,-0.05433986512825652,-0.07080165951102205,-0.34300070161523044,141.70436686953906,450.07088957675353,12.076883468076153,96034.61755386773,1.141050093224449,0.26285596098597197,0.5251102879859719,-0.11593984245490979,-0.010304583016032064,-0.12747941179158317,0.00870037350501002,0.0025105196272545093,0.05052433601002004,1.5911199385791583,0.6996834458597194,-0.017163451410821644,0.01857500182765531,0.7140047569539079,0.0,398723595.4759519,327392866.51082164,450573.4633957916,12.609790842104209,-0.14999999,12.593527771182364,0.17283986592785572,1.5831229156973947,0.0,0.0,0.0,39.8714138,32.7364372,105.09824699338678,244.52550508957918,-50.48330075737475,-0.2238564306232465,12.59812858981964,0.347306428757515,-0.028110600575150302,-0.6434058127615231,1.4388269990781564,1.5889828664268537,50.60943775737475,0.003550827132264529,0.042133746897795595,-0.0004884208216432865,0.0,157056069.37274548,0.0,0.0,0.0,0.0,1.0
157146141.0,-0.0007472442765531035,0.24767246316032066,-0.2916970625410822,0.0,1.0,1352.0,2000.0,1000.0,1499.7555110220442,1499.2444889779558,1622.1460379118237,12.18934825244489,12.457989152725451,12.285315723787575,12.409161410400802,12.682591889799598,13.720301633867734,14.0226239597996,92.06705805432865,92.06705805432865,12.077802202224449,-0.0007166148036072145,-0.005835633589178357,-0.0001049988136272545,-0.25077571428857715,0.1910275915671343,-0.022186439821643287,2.0,8.060776483523048,9.060776483523048,11.0,0.0,0.0,1.0,0.0,0.0,0.0,0.0,0.0,0.0,0.0,-0.001553349515030061,0.062983646747495,1.586834519697395,1.5856801932605211,-0.04091334621242482,351.03478483647297,36.034638484769545,-0.004114817102204409,0.2194545098957916,-0.1921218540260521,0.0,-0.5123459023747494,0.20695686283567127,-8.710873851382766,1408772873747496.5,960.3425468436874,12.077259516312626,-0.009311714799599196,-0.09074206820040077,0.003550981631262522,-0.5102350970601203,0.20815217799799585,-8.49946087608016,-0.004228018509018033,-0.06996161810220441,0.00039808267735470197,3344830000000000.0,50.08865266256513,50.537537705951905,0.1592224136352708,-0.09686387382164328,10.220365253547094,12.929555130400802,-0.05418380053707415,-0.03551127342885768,-0.3435719898777555,141.93946308496993,449.9967716446894,12.077129474228457,96035.46039166332,1.1410600796513026,-0.19171384715230516,0.3248493571222447,-0.08924481891983983,-0.004011298805611215,-0.10440853549699397,0.006193670515030063,0.003134454757515031,0.05359153491783567,1.5915202731683367,0.699519800725451,-0.018044194326653305,0.01986709126452906,0.7141089547975952,0.0,398723593.8466934,327392997.5841683,450557.25944388774,12.545100480480961,-0.1522624425511022,12.526066814028056,0.2848433200601203,1.5833424261262525,0.0,0.0,0.0,39.8714138,32.7364372,105.08345276933868,245.5966347733467,-50.44969971400802,-0.22322219785170339,12.54590265476954,0.46111551567535075,0.031052697002004026,-0.588864486753507,1.2459417978637273,1.5891051254348698,50.575836275811625,0.00483852300200401,0.04003743670541082,-0.0008273313947895794,0.0,157146140.60320643,0.0,0.0,0.0,0.0,1.0
157229870.0,0.0003002718056112239,0.24455083893987975,-0.29487748066733466,0.0,1.0,1353.0480961923847,2000.0,1000.0,1499.0,1500.0,1622.1651184128257,12.085938222024048,12.352290804549098,12.253065858937877,12.377051567134268,12.649746536913828,13.68916875284569,13.990773866432866,91.49639106505009,91.49639106505009,12.078191027595189,-0.0007152840561122244,-0.005837333639278557,-0.00010315223446893787,-0.25079746533667335,0.19110021249498996,-0.022151003577154313,2.0,8.066738398110221,9.066738398110221,11.0,0.0,0.0,1.0,0.0,0.0,0.0,0.0,0.0,0.0,0.0,-0.00309525876753507,0.058120918753507014,1.5852496428617233,1.5856381826853707,0.015896045466933847,349.94176010921836,35.9073403088978,-0.004114192813627254,0.22020107443286574,-0.19209772335671343,0.0,-0.47223965872745494,0.15054456053507012,-8.787048862509018,3344830000000000.0,960.352621809018,12.077569839438876,-0.0012152542364729441,-0.07365567823647295,-0.0032295183126252553,-0.5274921850400802,0.20894301708016022,-8.573110729669338,-0.0017906990501001985,-0.07148069274549097,-0.009835169228456913,3344830000000000.0,50.139085420140276,50.528960202424855,0.4815975099078155,-0.0929045196252505,10.220388558657316,12.921103207134268,-0.05401429595991984,0.027898701166332644,-0.3441090980240481,142.16446073246493,450.02463047975954,12.0774480701002,96035.14321370742,1.1410563536172345,0.1405889807294588,0.3889792384609222,-0.2700168163126255,-0.006258132961923848,-0.07118639357915832,-0.0008594455991984004,0.0038089697474949897,0.048298937182364735,1.592032232941884,0.6993865908456913,-0.015922969891783566,0.018252817509018037,0.7143329417555111,0.0,398723592.5711423,327393123.74048096,450522.50606713427,12.496972170360722,-0.1644621253046092,12.481792406513026,0.4001591848857715,1.5841977536853709,0.0,0.0,0.0,39.8714138,32.7364372,105.06784063767536,246.72030613787575,-50.40582298400801,-0.22290973379759518,12.498394025430862,0.56827751201002,0.04220197392985973,-0.40943014496793584,1.1743420555390782,1.5888970546953907,50.53195812056113,0.006223881947895791,0.05521938836072143,-0.001197130028056112,0.0,157229870.15230462,0.0,0.0,0.0,0.0,1.0
157321985.0,8.289195991984007e-05,0.24405093336673347,-0.2923032456052104,0.0,1.0,1351.0,2000.0,1000.0,1499.0,1500.0,1628.0,12.097677688737475,12.364136004028056,12.2208159850501,12.344941723867736,12.616901183066133,13.658035881823647,13.958923783066131,90.92572406917836,90.92572406917836,12.078579862965933,-0.0007139530641282566,-0.005839032785571142,-0.00010130541082164329,-0.25081921738476953,0.1911728334228457,-0.022115567428857716,2.0,8.072700311697394,9.072700311697394,11.0,0.0,0.0,1.0,0.0,0.0,0.0,0.0,0.0,0.0,0.0,-0.004637169020040081,0.053258190663326654,1.5836647669298598,1.5855961723547096,0.07270543805010021,348.8487353160321,35.78004213302605,-0.004100585438877756,0.22093747461523047,-0.19211581543286574,0.0,-0.43560706108016034,0.18305472266933867,-8.87971988193988,3344830000000000.0,960.3568499553106,12.077950136432866,-0.0042742595691382754,-0.07295076141482966,-0.00017294206613226648,-0.44087924653707417,0.18021026069138274,-8.751271846488978,-0.0061161050581162325,-0.07195810351703406,-0.012063236689378755,3344830000000000.0,50.17758833639279,50.521738553346694,0.5979171993426853,-0.07874989318436872,10.220401985450902,12.924051569058117,-0.05407299352705411,0.08746945958116234,-0.34464310564529055,142.39248012064132,449.9031893967936,12.077817611402805,96036.53156210421,1.1410728326112223,-0.09750914603006029,0.2590492613406813,-0.2524160275410823,-0.0039858701362725435,-0.059931338320641285,-0.00038532586773547305,-0.006786813585170341,0.04414947998997996,1.5814590958416834,0.7030965571302605,-0.018078687703406815,0.013114187597194387,0.7107399444729459,0.0,398723591.2955912,327393249.537475,450485.92301002005,12.450130037915832,-0.17673634715831665,12.439228684509018,0.5150126244549099,1.5850545764989978,0.0,0.0,0.0,39.8714138,32.7364372,105.05379943186372,247.76777408396794,-50.355353286973944,-0.21908737762925853,12.460437278677354,0.6563977548156313,0.019152905565130253,-0.36044254981763524,1.0388802801222445,1.5884878135190381,50.48149003643287,0.007886358863727455,0.059860957184368735,-0.0014336633206412824,0.0,157321985.47094187,0.0,0.0,0.0,0.0,1.0
157413891.0,0.001342923945891787,0.25560852882765533,-0.2963759520741483,0.0,1.0,1353.0,2000.0,1000.0,1499.80045702004,1499.19954297996,1628.0,12.071699427955911,12.337514233567134,12.188566120681363,12.312831884268537,12.584055829699398,13.626903004468938,13.9270736896994,90.35505707649298,90.35505707649298,12.078968698336674,-0.0007126220721442885,-0.005840732250501002,-9.94933867735471e-05,-0.2508409687995992,0.1912454533507014,-0.022080131599198395,2.0,8.078662225284567,9.078662225284567,11.0,0.0,0.0,1.0,0.0,0.0,0.0,0.0,0.0,0.0,0.0,-0.006179079272545091,0.04839546262124248,1.5820798900460922,1.5855541613907815,0.12951482968136277,347.7557105547095,35.65274395715432,-0.0040826600621242486,0.2216354021002004,-0.19214651303406813,0.0,-0.5968012052184369,0.17587946853707415,-9.026240830757514,3344830000000000.0,960.3752030310621,12.0784723098998,-0.0032109911382765524,-0.07035510982164328,-0.007632966026052093,-0.47570885600200424,0.17562663013226448,-8.786871548446893,-0.007374700120240482,-0.06916134139478958,-0.006922169769539078,3344830000000000.0,50.180587620941886,50.51855198118236,0.10100842626052062,-0.03425375870741479,10.220386016132265,12.960927585190381,-0.054810828967935876,0.13561456990380766,-0.3451678839759519,142.62949216072144,449.86068077935874,12.078242310380762,96037.0147286974,1.1410786240420843,0.07056017216232492,0.07762344309819676,-0.11420689773146295,-0.0034498945310621207,-0.06422917581963929,-0.0011877438476953943,-0.0073054361042084156,0.04823645572745491,1.5809521463707417,0.7032350923547094,-0.019707716965931862,0.014370416985971942,0.7105388185631262,0.0,398723589.9833667,327393376.34629256,450431.3652212425,12.409594503747496,-0.17324329151503,12.402972193727456,0.610945344973948,1.584810748539078,0.0,0.0,0.0,39.8714138,32.7364372,105.0386475008016,248.8802254196393,-50.29445053268537,-0.21734062899599196,12.423763710340681,0.746295393975952,-0.015510467410821675,-0.29522028519038074,0.9629254631923847,1.5879330146152304,50.42058753268537,0.00700688375350701,0.06099780697795591,-0.0014535333987975953,0.0,157413891.30661324,0.0,0.0,0.0,0.0,1.0
157505831.0,0.0003942729098196393,0.25757086821242486,-0.2935192473927856,0.0,1.0,1351.1482965931864,2000.0,1000.0,1503.629258517034,1495.370741482966,1628.9258517034068,12.06639537719439,12.332118958276553,12.156316256312627,12.280722047334669,12.551210476332665,13.59577012977956,13.895223606332666,89.78439007721443,89.78439007721443,12.079357533707414,-0.0007112910801603207,-0.005842432056112225,-9.765931863727455e-05,-0.2508627204809619,0.1913180742785571,-0.02204469511022044,2.0,8.084624138871744,9.084624138871744,11.0,0.0,0.0,1.0,0.0,0.0,0.0,0.0,0.0,0.0,0.0,-0.00759133780761523,0.04376379005611221,1.5806163784328657,1.5855153690280561,0.18197578665330663,346.66352427875756,35.53050157042084,-0.004058285302605211,0.22238949114028056,-0.19216422017034068,0.0,-0.5114332087454909,0.1923435521462926,-8.88700094971543,3344830000000000.0,960.393624651503,12.07893107759519,-0.0024446788657314627,-0.07125783166933868,-0.003985965334669338,-0.39030244029258515,0.222135711498998,-8.878907435719439,-0.010078888122244488,-0.08032710319038076,-0.010745617647294588,3344830000000000.0,50.18358689549098,50.51536541242485,-0.39590034782164324,0.010242375769539075,10.220370046813626,12.997803602064128,-0.05554866440881764,0.1837596802264529,-0.34569266323246495,142.86650420080161,449.73921660701404,12.078686091563126,96038.41607052104,1.1410953013486973,-0.22868576519038072,-0.13305378536472945,-0.14250103828857702,-0.00040859929859719465,-0.05799414381563126,-0.009383999188376754,-0.006565259384769539,0.04369602798597194,1.5814424710340682,0.7031101226853708,-0.017837787460921843,0.013032200731462926,0.7107375946412826,0.0,398723588.73707414,327393503.3921844,450371.0338791583,12.371084698977956,-0.16468565660921844,12.368741636733468,0.700800576008016,1.5842133823767535,0.0,0.0,0.0,39.8714138,32.7364372,105.02413316232466,249.93470079038076,-50.229257774088175,-0.21722922912825657,12.394755759018036,0.824746004755511,-0.029215673683366732,-0.26504364212024045,0.8867931861162324,1.5874345849438878,50.35539341044088,-0.007733547667334669,0.0740825759759519,-0.0016046306252505012,0.0,157505831.33867735,0.0,0.0,0.0,0.0,1.0
157588880.0,-0.0005931786793587305,0.2582809379719439,-0.29382273268937875,0.0,1.0,1349.791099759519,2000.0,1000.0,1502.0,1497.0,1635.6044501202405,12.088501086272544,12.35460107028056,12.124066381943887,12.248612204068136,12.5183651251503,13.564637256573146,13.863373512965932,89.21372308793588,89.21372308793588,12.079746366893787,-0.0007099603066132264,-0.005844131861723448,-9.5725250501002e-05,-0.2508844725290581,0.19139069520641283,-0.022009259621242484,2.0,8.090586053458917,9.090586053458917,11.0,0.0,0.0,1.0,0.0,0.0,0.0,0.0,0.0,0.0,0.0,-0.0070203878176352714,0.042666479795591176,1.5810093267354708,1.5855258060901805,0.1679205786012024,345.5841631997996,35.48559543190381,-0.004035939879759519,0.22310626229058117,-0.19218189443486974,0.0,-0.41531860798997994,0.20051979606212425,-8.856444721861724,797491382765532.5,960.3932160192385,12.079454944128257,-0.004905157348697399,-0.07678588567535069,-0.0026773599759519007,-0.46570530640681357,0.21637937576953906,-8.964683601869739,-0.014673795891783569,-0.06512906501803606,-0.005828995050100197,797491382765532.5,50.092340808957914,50.519306439499,-0.7072109336312626,0.01305732912224449,10.22036053498998,13.005295104408818,-0.05569868756312625,0.010975579951903708,-0.31335078689178353,143.12844949899798,449.6539395637275,12.079205480801603,96039.3713858517,1.1411065760861723,-0.2142294132625243,0.9767749176472933,-0.06135977981162284,5.994194388773901e-06,-0.0632972803567134,-0.0039022401242484995,-0.005882845947895791,0.03990948661923848,1.5819198054028059,0.7029781643727455,-0.016255278873747496,0.011939422226452907,0.7109250085751503,0.0,398723587.3907816,327393631.2761523,450302.7649362725,12.338383252965931,-0.16,12.338383252965931,0.7809758407154308,1.5838863,0.0,0.0,0.0,39.8714138,32.7364372,105.00888310881763,251.02280129358718,-50.154354828937876,-0.21597487237074148,12.369270217214428,0.9035860729679358,-0.015659532364729445,-0.19528687607014023,0.8992519526953908,1.5870236093446894,50.28049038412826,-0.005620017224448896,0.08387266289378757,-0.002203012551102205,0.0,157588879.5250501,0.0,0.0,0.0,0.0,1.0
157671720.0,-0.0062349830100200355,0.27000870931062126,-0.29838952343286573,0.0,1.0,1349.5110220440881,2000.0,1000.0,1500.7530245791584,1498.2469754208416,1636.0,12.049373386272546,12.31459602262525,12.09181651757515,12.216502360801604,12.48551977470942,13.53350437773547,13.831523424488978,88.64305609376754,88.64305609376754,12.080135199338677,-0.0007086296072144289,-0.005845831667334669,-9.389118236472945e-05,-0.2509062235771543,0.19146331513426854,-0.02197382313226453,2.0,8.096547967046092,9.096547967046092,11.0,0.0,0.0,1.0,0.0,0.0,0.0,0.0,0.0,0.0,0.0,-0.006389548619238477,0.04167589959519038,1.5814583372004007,1.5855377298256512,0.15185670634869736,344.5051894759519,35.443024698096195,-0.0040157485110220445,0.223800381250501,-0.19218843456913828,0.0,-0.37442053258517033,0.21479650475150303,-8.927968758575151,12.080006210300601,960.410550349499,12.080006210300601,-0.011766867172344687,-0.06621776465931863,-0.006338447322645281,-0.4122666651462926,0.19297213975751512,-8.919948199182365,-0.017540849967935875,-0.05892001977354709,0.003957581833667347,12.080006210300601,49.994465510681366,50.523748827635266,-1.0054665587795595,0.012940432496993988,10.220351471462926,13.01071969480962,-0.05580736348897796,-0.17734866250701425,-0.2786970736092184,143.39214868416832,449.58166773527057,12.07976033222445,96040.25404907815,1.1411170891983968,-0.21020235412825589,-0.3579833754288597,0.007524527829658623,-0.00478650554509019,-0.0611780173767535,-0.004189047837675354,-0.005259962002004007,0.044930189751503,1.5822942075430861,0.7028081190841683,-0.01782336330260521,0.01392240187775551,0.7110198218537075,0.0,398723586.14448893,327393760.06833667,450224.8904543086,12.312710759599199,-0.16,12.312710759599199,0.8494369429058117,1.5838863,0.0,0.0,0.0,39.8714138,32.7364372,104.99416758957916,252.0980264831663,-50.07365543983968,-0.21352758404008015,12.348728220400801,0.9781452054428859,0.004314695583166349,-0.16491472954308622,0.8327397485410819,1.58682254502004,50.19979186913828,-0.0028905435611222417,0.08339048601202405,-0.0030365211002004017,0.0,157671720.2945892,0.0,0.0,0.0,0.0,1.0
157765482.0,-0.003314953739478957,0.27321283635470944,-0.3011404608296593,0.0,1.0,1349.6238362845695,2000.0,1000.0,1499.6755262204406,1499.3244737795594,1636.0,12.04833529240481,12.313446241122245,12.059566653206414,12.184392519498997,12.452674424268537,13.502371506713427,13.799673336232464,88.07238909937875,88.07238909937875,12.080524031783568,-0.0007072989078156312,-0.005847531276553106,-9.205711422845691e-05,-0.2509279756252505,0.19153593606212424,-0.02193838744689379,2.0,8.102509880633265,9.102509880633265,11.0,0.0,0.0,1.0,0.0,0.0,0.0,0.0,0.0,0.0,0.0,-0.005758709420841683,0.040685320198396796,1.5819073478837673,1.5855496535611222,0.1357928338777555,343.42621575430866,35.40045396406814,-0.003997549931863727,0.22455141428657316,-0.19216160703607219,0.0,-0.43644751968136275,0.1985252708997996,-9.124088918236472,1741568012024048.8,960.4148444733466,12.080580373947896,-0.010400756008016031,-0.05850819692384769,0.0043516151523046095,-0.42559032549499,0.21866175500601204,-9.014082385843688,-0.017527713945891782,-0.04912502049498998,0.0022371147474949875,1741568012024048.8,49.87966574498998,50.52105618028057,-1.158440912006012,-0.049362993048096215,10.220351460801604,12.971344097995992,-0.055019854026052105,-0.3046106766833667,-0.2505696927054108,143.61767483446894,449.45416331022045,12.080344053206414,96041.69434114228,1.141134236046092,0.26168081621242445,0.2385975394068145,-0.1324438893687377,-0.008448028228456913,-0.05662247493987976,-0.0031543724909819616,-0.004507267182364729,0.04097448177755511,1.5827917729218437,0.7026708379599198,-0.01615586002805611,0.01279574339278557,0.7112163757815632,0.0,398723584.8178357,327393888.0591182,450145.1495923848,12.289111856072143,-0.16,12.288420681543085,0.9213542512605211,1.5838983549118237,0.0,0.0,0.0,39.8714138,32.7364372,104.98012644589178,253.1573239757515,-49.98723867426854,-0.21061378850300602,12.334068873426855,1.0459333947034068,0.022806173000000006,-0.16439878359318635,0.6935602316753507,1.5868062922464932,50.113375077635276,-0.0004958030160320637,0.09803511739278559,-0.0037329146613226455,0.0,157765482.04609218,0.0,0.0,0.0,0.0,1.0
157857521.0,-0.002988302346693389,0.2726665831783567,-0.30022398517635274,0.0,1.0,1348.807615230461,2000.0,1000.0,1500.0,1499.0,1642.0,11.929005143166332,12.1914821050501,12.027316778837676,12.152282683306613,12.419829063827656,13.471238625691383,13.767823242865733,87.5017221101002,87.5017221101002,12.080912865190381,-0.0007059681122244489,-0.005849231278557114,-9.022304609218437e-05,-0.2509497275771543,0.19160855698997997,-0.021902951154308615,2.0,8.108471794220442,9.108471794220442,11.0,0.0,0.0,1.0,0.0,0.0,0.0,0.0,0.0,0.0,0.0,-0.00512787022244489,0.03969474019438878,1.5823563585671343,1.5855615772965932,0.11972896140681363,342.34724198156323,35.357883235150304,-0.003975690490981964,0.22527016140480963,-0.19212638266533066,0.0,-0.4200227838997997,0.18729745399198394,-9.229211724835672,3344830000000000.0,960.4222802621243,12.081272865971945,-0.02025959960721443,-0.058016834829659324,-0.00400812718036072,-0.4114546041022044,0.19821131593186364,-9.048224095533067,-0.015645013631262528,-0.0396838183486974,0.0022767380921843595,3344830000000000.0,49.754362804028055,50.5139355941483,-1.2212549061603206,-0.15025886728256507,10.220357074709419,12.904165873226454,-0.05367618002805611,-0.3939779768897795,-0.2264925001442886,143.81951116212426,449.4731892849699,12.080973410801603,96041.47749452906,1.1411316122384771,-0.1860927511082158,-0.6053776139819657,-0.0016797981262529973,-0.009638306979959928,-0.04611509820240481,0.0017442620661322634,-0.0037094139759519047,0.037151836252505004,1.583282796236473,0.7025313387454909,-0.014519164573146292,0.01173270832064128,0.7114077061422847,0.0,398723583.55190384,327394011.8943888,450056.2558044088,12.275682169979959,-0.16,12.270910205751504,1.0102214233226452,1.583969531965932,0.0,0.0,0.0,39.8714138,32.7364372,104.96558305751502,254.2559516460922,-49.89135987519038,-0.20733634831663328,12.323337828777555,1.1109629203887774,0.0400080381442886,-0.09090018232464933,0.6617960112705411,1.5867627736092185,50.017495218296595,0.0019360315050100181,0.10287930814428858,-0.0032568883767535076,0.0,157857521.0741483,0.0,0.0,0.0,0.0,1.0
157947889.0,0.00011953263527054002,0.28479212300601203,-0.3007330036392786,0.0,1.0,1347.0,2000.0,1000.0,1499.167207783567,1499.832792216433,1641.267524729459,12.007408820881764,12.271509435991986,11.995066914468937,12.120172841002004,12.386983713386773,13.44010575466934,13.735973159498998,87.33586427196393,87.33586427196393,12.081515449158317,-0.0007046375090180361,-0.0058509304729458915,-8.838897795591182e-05,-0.25097147872144293,0.19168117730661322,-0.02186751466533066,2.0,8.114433708807615,9.114433708807615,11.0,0.0,0.0,1.0,0.0,0.0,0.0,0.0,0.0,0.0,0.0,-0.004497031024048095,0.03870416038276553,1.582805368250501,1.5855735010320642,0.10366508954709416,341.2682682699399,35.31531250012024,-0.003953759196392785,0.22596132883567135,-0.19206472606012023,0.0,-0.3460166110861726,0.23795008812825666,-9.223685617513025,3344830000000000.0,960.4439279174348,12.082048965490982,-0.011841045683366722,-0.04340916251302607,-0.0022322622064128036,-0.34613484176953924,0.19745729270140297,-9.132788418366733,-0.011626494264529047,-0.03836478539278557,0.007696611823647278,3344830000000000.0,49.625661847054104,50.50028773242485,-1.2877624981382767,-0.2552708185250503,10.220361903186372,12.826713270320642,-0.05212702942084168,-0.4651106164088177,-0.2053235052805611,144.00817000480964,449.2035138178357,12.081650984268537,96044.59076625251,1.1411686321482966,-0.027225294478955553,0.00678993644288961,-0.38691673551302636,-0.012654625032064144,-0.04396842424849698,-0.0005959939959919978,-0.002913724316633265,0.04282233213226453,1.5836521473667333,0.7023629615350703,-0.01625908101002004,0.014004677424849699,0.7114954444448899,0.0,398723582.26673347,327394135.593988,449966.5821078156,12.262919960340682,-0.15970135896593185,12.253944242845693,1.0996286882945894,1.5840220041082165,0.0,0.0,0.0,39.8714138,32.7364372,104.9524675236473,255.29595104328658,-49.7946592745491,-0.20334908380160321,12.316905202124248,1.1649154655891785,0.02643217101002008,-0.04429686391783562,0.5669571739559117,1.5865799306452908,49.92079603733467,0.0038751531903807646,0.0998254907775551,-0.0026630818857715415,0.0,157947888.8977956,0.0,0.0,0.0,0.0,1.0
158038818.0,0.00039167307014028273,0.2846279920961924,-0.3053107461523046,0.0,1.0,1349.0,2000.0,1000.0,1499.0,1500.0,1642.196030741483,12.006231549358718,12.270258534869738,11.9628170501002,12.088063000921844,12.354138362945891,13.408972873647295,13.704123066132265,87.49156799076151,87.49156799076151,12.082287831102205,-0.0007033068096192384,-0.005852629889779559,-8.655490981963928e-05,-0.25099323076953906,0.19175379784569138,-0.021832079176352708,2.0,8.12039562239479,9.12039562239479,11.0,0.0,0.0,1.0,0.0,0.0,0.0,0.0,0.0,0.0,0.0,-0.003804445735470941,0.03802731766733467,1.5832493423006013,1.5855852806813626,0.0878419068036072,340.2046313296593,35.28719623024048,-0.003938251018036072,0.22671070206212426,-0.1919881973486974,0.0,-0.4492500316813627,0.2978975013627254,-9.361974743941884,3344830000000000.0,960.4489239240481,12.082719218396795,-0.006572706757515025,-0.03632201848897796,-0.00015301641683366704,-0.37042504969539075,0.21637989058917834,-9.278232726931863,-0.004476595963927853,-0.036685639813627255,-0.0029944749719438917,3344830000000000.0,49.489025948857716,50.471397559919836,-1.362895283747495,-0.3698945276933868,10.220364929398798,12.725268177675352,-0.05009806013026052,-0.49366215803607216,-0.19094565496593185,144.166057196994,449.15857023146293,12.082338852244488,96045.10048312625,1.1411746675971943,-0.022159668420841633,0.2912729098597201,0.013839865613225921,-0.007012182635270535,-0.03034432277354709,-0.0030748606773547084,-0.001968604214428857,0.03926405470340681,1.5841521055470942,0.7022195004448898,-0.014664618476953906,0.013087555795591182,0.7116889291482966,0.0,398723580.9911824,327394260.5705411,449866.41183486977,12.253339152745491,-0.14667964434268538,12.243339823286574,1.1699513326352706,1.5831308059138278,0.0,0.0,0.0,39.8714138,32.7364372,104.93824716172344,256.40203141783564,-49.68649927781563,-0.1987726252805611,12.3140239601002,1.215847030282565,0.06856142174148298,-0.009382095823647279,0.5045910903366734,1.5864070545871742,49.81263543022044,0.005859074090180362,0.11065633745290583,-0.0018300938697394787,0.0,158038817.8436874,0.0,0.0,0.0,0.0,1.0
158127621.0,0.0017829589358717404,0.2836095751723447,-0.3015126952965932,0.0,1.0,1347.0,2000.0,1000.0,1499.0154415771542,1499.9845584228458,1646.989389472946,11.935416131262524,12.197855143026052,11.931414598316634,12.056810482104208,12.322168406613226,13.378525622985972,13.67297282276553,87.64727169955913,87.64727169955913,12.08306021278557,-0.0007019634488977956,-0.005854328721442886,-8.472084168336674e-05,-0.2510150461242485,0.19182619668737474,-0.021798331513026053,2.0,8.126357535981963,9.126357535981963,11.0,0.0,0.0,1.0,0.0,0.0,0.0,0.0,0.0,0.0,0.0,-0.0029579665470941888,0.03813243204408818,1.5836807626613227,1.585596703234469,0.07261861950901806,339.17922000761524,35.295106237995995,-0.003918981961923848,0.22743042328456914,-0.1919340411222445,0.0,-0.3000131279438879,0.1511665377014029,-9.384028087973947,3344830000000000.0,960.450593037475,12.083410305751503,-0.0057232339038076185,-0.037528000078156314,-0.006706265869739469,-0.36896145883967935,0.17277637509619242,-9.379566985234469,0.00034223577354709224,-0.026853984615230465,-0.009789716434869736,3292694569138276.5,49.35239005066132,50.442507387414835,-1.4380280693306613,-0.4845182368356713,10.220367945611223,12.62382309503006,-0.04806909047695391,-0.5222136996633266,-0.17656780565130262,144.3239444254509,449.1528511749499,12.083061940501002,96045.15880797595,1.1411753780881764,-0.14304713628256477,-0.15375451672144302,0.04799454900000011,-0.004330255641282569,-0.027459254585170338,0.002063201022044086,-0.0010229850020040084,0.03538441683567134,1.584652107316633,0.7020747215571143,-0.012955097809619238,0.01205854609218437,0.7118834103366734,0.0,398723579.71563125,327394385.9749499,449762.8643771543,12.244781941042085,-0.12956436580160322,12.234782185731461,1.2341336287114228,1.5819359884709419,0.0,0.0,0.0,39.8714138,32.7364372,104.92595552124249,257.4406215238477,-49.58093420629258,-0.19426797096392787,12.311785376332665,1.2554957181102204,0.09897489906012023,0.05647793001803604,0.3960216838476954,1.5859588147655308,49.70707177649298,0.007384813703406813,0.11557982085771543,-0.0010422411042084175,0.0,158127620.83567134,0.0,0.0,0.0,0.0,1.0
158212503.0,-0.0001403813627254499,0.29447210946292585,-0.30581828102805614,0.0,1.0,1348.2665330661323,2000.0,1000.0,1498.548534232465,1500.451465767535,1645.7334669338677,12.068032078436874,12.333358081503006,11.946024445891783,12.072107721482965,12.33772965212425,13.385305451923848,13.679821808056111,87.80297541835672,87.80297541835672,12.083832584989981,-0.0006999693166332664,-0.0058559537054108214,-8.291342685370742e-05,-0.25104034698997996,0.19188654549098197,-0.02185625889779559,2.0,8.132319449569138,9.132319449569138,11.0,0.0,0.0,1.0,0.0,0.0,0.0,0.0,0.0,0.0,0.0,-0.00211021540280561,0.03824401343086172,1.5841120784649299,1.5856081226012022,0.057400292448897765,338.15412471082163,35.30331419701403,-0.0038983305490981964,0.22814758471142285,-0.19188104243887774,0.0,-0.2832335110420843,0.19476078609819653,-9.53604555514429,3205547815631260.5,960.4849888428857,12.084128874869739,-0.004095230492985965,-0.03654558668136269,-0.005051463352705404,-0.33314218401202395,0.24364058402004002,-9.440023723302605,-0.004147852571142282,-0.023833271723446896,-0.017145267472945896,549163563126252.75,49.19309311440882,50.388321581102204,-1.439212347517034,-0.5851858096513027,10.220368,12.550916327214429,-0.04661095191783567,-0.5128175046332666,-0.17167437051703405,144.45604533507014,449.0248383711423,12.083809913466935,96046.62798326653,1.141192814492986,0.17516664504609175,0.016237799689382132,-0.3173118661242503,-0.0054056545611222365,-0.023246391857715456,-0.0038913703967936026,-0.00029545374749498875,0.04209440352905811,1.585014227729459,0.701904425741483,-0.015090624226452905,0.014670185348697398,0.7119601150400802,0.0,398723578.59338677,327394512.6258517,449654.9751677355,12.241887729318636,-0.12,12.23566299997996,1.2794386220601204,1.5812683,0.0,0.0,0.0,39.8714138,32.7364372,104.91317329338678,258.5331376216433,-49.46570674292585,-0.18840394574348696,12.313062551422846,1.2925239065350702,0.08021678351102199,0.05744113028056108,0.3078350699799598,1.5854783340260519,49.59184408164329,0.008989757749499,0.11122894358717435,-0.00034876939078156197,0.0,158212503.0981964,0.0,0.0,0.0,0.0,1.0
158299371.0,0.0016915139198396818,0.29300990345490985,-0.30368081446292583,0.0,1.0,1353.0,2000.0,1000.0,1498.9160190621242,1500.0839809378758,1646.2364729458918,11.975312745851703,12.238449951342686,11.96114997288577,12.087926683787575,12.35382361002004,13.392502508697394,13.687096679579158,87.95867912715431,87.95867912715431,12.084604966933869,-0.0006979678897795591,-0.005857577855711423,-8.115270541082163e-05,-0.2510656869338677,0.19194676024048096,-0.0219152137254509,2.0,8.13828136371543,9.13828136371543,11.0,0.0,0.0,1.0,0.0,0.0,0.0,0.0,0.0,0.0,0.0,-0.0012624632585170334,0.03835559528456914,1.584543394709419,1.585619541967936,0.04218196592184367,337.12902941142283,35.31152215629259,-0.0038760426793587174,0.22886668267735472,-0.19184914605410822,0.0,-0.3899506969198398,0.2881579387094189,-9.476533254993988,840170813627252.2,960.4934373332666,12.084868360420842,-0.0018749154448897834,-0.029174176378757508,-0.009643183923847701,-0.33742154955511017,0.25863854220040083,-9.473527162058117,0.0034670858517034152,-0.02871795936472947,-0.012968217170340676,12.084868360420842,49.033395129098196,50.33368810727455,-1.439087931212425,-0.6856063948577155,10.220368,12.47851460761523,-0.04516291541683367,-0.5027497337795591,-0.16694878565330662,144.58768993146296,448.840879955511,12.084564271082165,96048.74616643286,1.1412180032945891,-0.485766469048096,0.46251497224048005,0.10069549913026007,-0.0013732572104208506,-0.016643032925851696,-0.005259442432865713,0.0006007985771543096,0.039375624591182365,1.585513668202405,0.7017523451523046,-0.013811724092184367,0.014031627773547092,0.7121487319398798,0.0,398723577.7763527,327394641.01062125,449541.5864829659,12.24616654709419,-0.12,12.248499023867735,1.3008326783967936,1.5812683,0.0,0.0,0.0,39.8714138,32.7364372,104.90187823206413,259.5947426442886,-49.350688231683364,-0.18297456145691382,12.317140744408817,1.3239050484308617,0.03734875260521038,0.09086369037074153,0.31101855433266534,1.5848454607995992,49.476825231683364,0.010414078090180362,0.11875773510821645,0.0004664861402805618,0.0,158299371.21643287,0.0,0.0,0.0,0.0,1.0
158388464.0,0.002296577627254509,0.28988345194789583,-0.293982933503006,0.0,1.0,1352.1482965931864,2000.0,1000.0,1499.0,1500.0,1650.0,12.02706820220441,12.29127557995992,11.976275509879759,12.103745636092185,12.369917566432866,13.399699566953908,13.694371552284569,88.11438284595191,88.11438284595191,12.08537734739479,-0.0006959664629258516,-0.005859202006012023,-7.940380761523045e-05,-0.25109102687775553,0.19200697413827655,-0.021974168553106216,2.0,8.144243277743488,9.144243277743488,11.0,0.0,0.0,1.0,0.0,0.0,0.0,0.0,0.0,0.0,0.0,-0.00041471196593186385,0.03846717640480962,1.5849747112204409,1.5856309613346693,0.026963639276553108,336.10393411202404,35.31973011557114,-0.0038588345591182363,0.22953941948697396,-0.19183974108016033,0.0,-0.4175153161122245,0.30302394186573145,-9.523971513925853,2074371430861723.0,960.5037801398798,12.085612936232465,0.006466937362725448,-0.03297142355911824,-0.01149250195791583,-0.3315479293667335,0.273039533496994,-9.499250730675351,0.005966441028056112,-0.022412103691382766,-0.006432102026052105,2074371430861723.0,48.88419471595191,50.27198160581162,-1.4338129413426854,-0.7696780936292585,10.220368573647294,12.433311265731463,-0.04425884071543086,-0.48184451853907817,-0.16351469741482966,144.69051920601203,448.67307120120245,12.085341148937877,96050.69083362725,1.1412411155310622,-0.042861875078156225,-0.017339920330661118,0.4678629216092182,-0.003157800859719439,-0.015400649498997996,-0.00703306475751503,0.0014720053386773546,0.03661388878156313,1.5859944835951905,0.7016046136272545,-0.012525844819639278,0.013369784174348696,0.712330346763527,0.0,398723576.94448894,327394768.62885773,449427.6441791583,12.250445304068137,-0.12061505250501002,12.259489961563126,1.3228417990140282,1.5812683,0.0,0.0,0.0,39.8714138,32.7364372,104.89107236733467,260.6626125869739,-49.23304131905812,-0.17842458510621242,12.323697484529058,1.352259978523046,0.03335189643086171,0.12344675508817635,0.31892219224048096,1.5841461437334667,49.35917952,0.011036903817635271,0.12649414788977956,0.0008220237074148296,0.0,158388464.49098197,0.0,0.0,0.0,0.0,1.0
158484402.0,0.0006653704709418927,0.30080185187575154,-0.2925811093266533,0.0,1.0,1351.8557114228456,2000.0,1000.0,1498.5722433226454,1500.4277566773546,1649.0,12.079079273346693,12.344388829278557,11.991401036873746,12.119564598396794,12.386011525811623,13.40689662224449,13.701646419398799,88.27008655474951,88.27008655474951,12.086149722264528,-0.0006939650360721443,-0.005860826300601202,-7.759899799599198e-05,-0.2511163668216433,0.19206718873947895,-0.022033123525050102,2.0,8.150205191330661,9.150205191330661,11.0,0.0,0.0,1.0,0.0,0.0,0.0,0.0,0.0,0.0,0.0,0.0004330400300601219,0.038578758525050105,1.585406027731463,1.5856423807014026,0.01174531319038073,335.07883891262526,35.3279380748497,-0.0038421650741482967,0.23018325168537074,-0.19183755846693387,0.0,-0.40545031683967936,0.27890073180561115,-9.581624232038076,3344830000000000.0,960.5173297388777,12.086492681643287,0.004662407857715425,-0.020763825911823647,-0.004485869901803595,-0.37453355329659316,0.2782729448857711,-9.53928943438477,0.004135335509018031,-0.01692645276553106,-0.005598231252505016,3344830000000000.0,48.740273373306614,50.2067181711022,-1.4259477979098196,-0.8455281595050103,10.220369434829658,12.401785609018036,-0.04362831560120241,-0.45548929887174344,-0.16073008564128258,144.77885765631265,448.6571047170341,12.08613852264529,96050.85720198396,1.1412430513126253,-0.4298948726853687,-0.05545140854508892,0.01858012316833603,0.0008032874869739732,-0.019066654679358728,-0.007838756545090194,0.0023558480601202423,0.04239072738877755,1.5863731872785571,0.7014378359699399,-0.014276288561122242,0.015708285621242483,0.7124144639659319,0.0,398723576.0422846,327394892.0627255,449310.5572841683,12.254723718456914,-0.12472418730460923,12.259999,1.3483450708577156,1.5812683,0.0,0.0,0.0,39.8714138,32.7364372,104.88032604368738,261.7511540991984,-49.11178641669339,-0.17392449584368735,12.3321725953507,1.3780069803406814,0.06080680091382763,0.10081377230060111,0.2722066995651302,1.5835000571182365,49.23792532737475,0.012211422188376755,0.12169169075751503,5.039714629258423e-05,0.0,158484402.45691383,0.0,0.0,0.0,0.0,1.0
158564903.0,0.0019840119418837684,0.2990522467735471,-0.29530690498997997,0.0,1.0,1350.563126252505,2000.0,1000.0,1498.0,1501.0,1650.0496097875753,12.074617777454911,12.339761483326653,12.006526569498998,12.135383550701404,12.402105478076153,13.414093679018036,13.708921286513025,88.4257902735471,88.4257902735471,12.08692210276553,-0.0006919626092184368,-0.005862450743486974,-7.5850501002004e-05,-0.25114170676553105,0.19212740248897794,-0.022092078645290582,2.0,8.156167104917836,9.156167104917836,11.0,0.0,0.0,1.0,0.0,0.0,0.0,0.0,0.0,0.0,0.0,0.0012777329519038086,0.03858210041282565,1.5858485960801603,1.5856541934889778,-0.003917365525050117,334.0246311222445,35.346387598817635,-0.0038288620440881764,0.23089151333466934,-0.1918758360741483,0.0,-0.4099614565511022,0.2640668420881764,-9.62257140646493,3344830000000000.0,960.5322806915831,12.087388151222445,0.000597612619238453,-0.02013048086973947,-0.008112385142284573,-0.3389974477054109,0.22606437956513034,-9.627575727807615,0.0021485695631262517,-0.013399835881763519,-0.0018672627274548955,3344830000000000.0,48.59607166727455,50.1363238651503,-1.4358181730661324,-0.9188665166272546,10.22035106735471,12.372089699839679,-0.043034768100200405,-0.42508271327655306,-0.15824989874549097,144.8600562709419,448.45413588797595,12.086938593006012,96053.2099293988,1.1412710514288578,-0.23225168320841466,-0.187781658643287,0.1857216262284569,0.0037635260601202314,-0.01463318041482964,-0.006798420927855698,0.0032906234108216444,0.03853805842284568,1.5868705498597193,0.701292213747495,-0.01257963279559118,0.014686990310621241,0.7126114243947895,0.0,398723575.2252505,327395015.3038076,449193.2420963928,12.259025709338678,-0.12890862385170343,12.260022595551103,1.3739944359499,1.5812633576472945,0.0,0.0,0.0,39.8714138,32.7364372,104.87111362084168,262.79694099138277,-48.99322994961924,-0.1684585666012024,12.341125594649299,1.3966778706492986,0.05279352261322649,0.06671713897595194,0.2278742555891783,1.5829084010801604,49.11936615757515,0.013056779266533067,0.13245140070941883,-0.0005263029018036079,0.0,158564902.54509017,0.0,0.0,0.0,0.0,1.0
158655160.0,0.001943360054108216,0.30089496338476956,-0.2976056816553106,0.0,1.0,1350.0,2000.0,1000.0,1498.0,1501.0,1652.2705410821643,12.032187630861722,12.296230015811624,12.021652100861722,12.151202510300601,12.418199438897796,13.421290738496994,13.716196156332666,88.5814939850501,88.5814939850501,12.08769448470942,-0.0006899611823647294,-0.005864075186372745,-7.408937875751503e-05,-0.25116704670941886,0.19218761723847697,-0.02215103376553106,2.0,8.16212901923447,9.16212901923447,11.0,0.0,0.0,1.0,0.0,0.0,0.0,0.0,0.0,0.0,0.0,0.0021196634929859723,0.03848769634068137,1.5863013256292584,1.585666360238477,-0.01998132009218437,332.9441330366733,35.374085871923846,-0.0038154802625250503,0.23155949644488977,-0.19190518176953908,0.0,-0.40554690304609214,0.24675663893186373,-9.71585435131463,3344830000000000.0,960.5478267949898,12.08816668292585,0.0019292071883767535,-0.015427161000000002,-0.004355166438877754,-0.3654282390280561,0.2544993899679359,-9.670791413527054,0.0029581190480961928,-0.008582971214428858,0.007280011482965931,3344830000000000.0,48.45134504531062,50.05632340222445,-1.4788934195691383,-0.9875023907034068,10.220296694529058,12.345819470741484,-0.042510450286573145,-0.38709106147094186,-0.1563396650521042,144.9278874468938,448.2871031759519,12.087754924008015,96055.12529885772,1.14129379549499,-0.2794770568757515,0.4777763789679359,0.18260198601803596,0.0024884406693386775,-0.0070467551903807615,-0.003815346509018036,0.004194068725450901,0.03592235888777555,1.5873450541102205,0.7011436631903808,-0.011334134713426853,0.014089046050100203,0.7127900832765531,0.0,398723574.30821645,327395142.1038076,449065.5760717435,12.266562979078156,-0.12015451825450901,12.263280993186374,1.3964091336032063,1.5805809217555111,0.0,0.0,0.0,39.8714138,32.7364372,104.86089503567135,263.9046507144289,-48.865899858657315,-0.16192472186973947,12.349670200440881,1.4135544823987978,0.08989870226052105,0.10101427384368739,0.16822987381963928,1.5824470848557113,48.99203678831664,0.014254911286573146,0.13073444578757515,-0.0014103643246492989,0.0,158655159.747495,0.0,0.0,0.0,0.0,1.0
158740659.0,0.003353263408817637,0.30618644033266534,-0.29840798454909817,0.0,1.0,1349.0,2000.0,1000.0,1498.9779559118238,1500.0220440881762,1650.0,12.101913961002005,12.36751448006012,12.036777627855711,12.16702146531062,12.43429338971944,13.42848779256513,13.723471030521042,88.73719770114229,88.73719770114229,12.088466866653306,-0.0006879597555110219,-0.005865699607214429,-7.228456913827655e-05,-0.2511923866533066,0.19224783098797596,-0.022209988863727458,2.0,8.168090933092184,9.168090933092184,11.0,0.0,0.0,1.0,0.0,0.0,0.0,0.0,0.0,0.0,0.0,0.0029615944929859738,0.03839329226853708,1.5867540561563127,1.585678526987976,-0.036045275096192424,331.86363499478955,35.4017841493988,-0.003799352264529058,0.23217934455511022,-0.19192786875150303,0.0,-0.34210536114028056,0.20068254525050117,-9.826907879767536,3344830000000000.0,960.559144538477,12.088963724649298,0.005541639765531073,-0.01662192013426849,-0.007713812577154291,-0.3919876468677355,0.2180831771643289,-9.776608478246493,0.009266889170340709,-0.011640055671342716,0.005245225004008015,3344830000000000.0,48.30613726304609,49.975532486132266,-1.520455817036072,-1.055908436192385,10.220239501523046,12.319917866092187,-0.04199356130460922,-0.34877201810020025,-0.1545098039038076,144.9954651637274,448.33218773927854,12.088570873527054,96054.61497348697,1.1412877330400801,0.1624480718717426,0.5168278302985944,-0.29117603878156295,0.003256971186372746,-0.0034510703907815674,-0.006641836585170336,0.004985854124248498,0.04159550141282564,1.5877258816032065,0.7009791502865732,-0.013081666306613223,0.0163573676753507,0.7128741177895792,0.0,398723573.4911824,327395270.0300601,448934.64424008015,12.275121049038075,-0.10731805648296591,12.26756002462926,1.4178032324769538,1.5796847227014028,0.0,0.0,0.0,39.8714138,32.7364372,104.8522604012024,264.943994455511,-48.745141763927855,-0.15716905446893786,12.359478421543086,1.4235419904208417,0.09700899330661318,0.14501610426052108,0.11222123730661311,1.582086422226453,48.871278769438874,0.014772653132264531,0.12307855997394788,-0.0022687363747495005,0.0,158740659.23647293,0.0,0.0,0.0,0.0,1.0
158827412.0,0.001734592677354713,0.30207198412825653,-0.2999397531042084,0.0,1.0,1349.0,2000.0,1000.0,1497.685370741483,1501.314629258517,1650.573146292585,12.091600560320641,12.356976316513025,12.0519031648497,12.182840420761524,12.450387350541082,13.435684856192385,13.73074589785571,88.89290141679359,88.89290141679359,12.089239241743488,-0.0006859583286573147,-0.00586732375751503,-7.054829659318637e-05,-0.2512177265971944,0.19230804573747495,-0.022268943691382766,2.0,8.17405284667936,9.17405284667936,11.0,0.0,0.0,1.0,0.0,0.0,0.0,0.0,0.0,0.0,0.0,0.0038035247635270554,0.03829888819639279,1.587206785727455,1.5856906937374748,-0.052109229414829684,330.78313688436873,35.42948242002004,-0.0037839417094188378,0.23284381111422847,-0.19193510461122243,0.0,-0.337749383757515,0.25915263342284567,-9.776378473160321,3344830000000000.0,960.5702939935871,12.08976181266533,0.003072188983967945,-0.008997794280561137,-0.002404768913827671,-0.36875457084368723,0.24086088501202416,-9.821846232448898,0.01935183347895791,-0.02257733320841683,0.004285039631262515,3344830000000000.0,48.14585798298597,49.869982483887775,-1.5146318221022044,-1.117115680200401,10.220094069919838,12.305562326533066,-0.04170936198396794,-0.300198204521042,-0.1551974418997996,145.05510549138276,448.1694613086172,12.089410625791583,96056.49256931864,1.1413100360681363,0.06703398677555053,0.8175863085110214,0.20426945782765726,0.002375269182364728,-0.0007859377054108072,-0.00665276243286572,0.005699358322645291,0.038060741124248496,1.5882210034949902,0.7008282896833667,-0.01157530705811623,0.015370054975951904,0.713070282260521,0.0,398723572.6056112,327395397.2360721,448805.1838813627,12.28367893236473,-0.09448159665531061,12.277357273266533,1.4373578458637275,1.5786922277955913,0.0,0.0,0.0,39.8714138,32.7364372,104.8425638995992,266.0509676857715,-48.6157100745491,-0.15206932146092184,12.370020138837676,1.4283608613507015,0.07276317729058113,0.14806338124248497,0.06905175232665327,1.5818002466352705,48.74184781523046,0.014818731775551104,0.1321075930981964,-0.002883232693386775,0.0,158827411.8296593,0.0,0.0,0.0,0.0,1.0
158915022.0,0.0024037814589178332,0.3031519675851704,-0.300335649743487,0.0,1.0,1351.0,2000.0,1000.0,1498.7044877755511,1500.2955122244489,1652.8542393907817,12.107458120140281,12.373033764248497,12.067028691843689,12.198659379919839,12.46648130529058,13.442881910040079,13.73802076496994,89.04344431008016,89.04344431008016,12.090018081302604,-0.0006839569018036072,-0.005868947907815631,-6.877494989979961e-05,-0.2512430665410822,0.19236825948697397,-0.022327898126252504,2.0,8.180014760266534,9.180014760266534,11.0,0.0,0.0,1.0,0.0,0.0,0.0,0.0,0.0,0.0,0.0,0.004645456034068136,0.0382044841242485,1.5876595156693387,1.5857028604869738,-0.06817318410420842,329.70263881102204,35.4571806943487,-0.0037681528296593185,0.23348955310020042,-0.19194499299799597,0.0,-0.30280027184569136,0.18550760322244486,-9.852105898671343,3344830000000000.0,960.6004813148296,12.090559200961923,0.011645751150300605,-0.017151703909819647,0.002369138484969944,-0.3750774558517035,0.20222104975951907,-9.771743153831663,0.011068405517034065,-0.013532178046092181,-0.005480644679358721,3344830000000000.0,47.98557870663326,49.76443248164329,-1.5088078281462924,-1.1783229242084168,10.219948634388778,12.291206787194389,-0.041425162270541084,-0.25162439194188374,-0.1558850788957916,145.11474581903806,448.0382144032064,12.090234626673347,96057.98344112224,1.1413277786212426,-0.2945859506012023,-0.0914156867114233,0.017595323637274396,0.0060406197254509065,0.002785653695390785,-0.002718265813627258,0.006351824821643287,0.03470319884769539,1.5887152874609218,0.7006734370721442,-0.010153010192384768,0.014423756565130263,0.7132639954368737,0.0,398723571.75711423,327395523.4967936,448677.67510861723,12.292236569659318,-0.08164514015430861,12.294472338597195,1.4544730821382768,1.577572032707415,0.0,0.0,0.0,39.8714138,32.7364372,104.83464523807615,267.10840254368736,-48.49138690731463,-0.147991451753507,12.379532921162324,1.43187308750501,0.04623748159519037,0.1677190606953908,0.10210243538476957,1.5817557895711423,48.61752364190381,0.01511785640280561,0.1303357352725451,-0.003516942713426854,0.0,158915022.13827655,0.0,0.0,0.0,0.0,1.0
