timestamp,control[0],control[1],control[2],control[3],control[4],output[2],output[3],output[4],output[5],output[6],output[7],indicated_airspeed_m_s,true_airspeed_m_s,indicated_airspeed_m_s.1,equivalent_airspeed_m_s,true_airspeed_m_s.1,equivalent_ground_minus_wind_m_s,true_ground_minus_wind_m_s,differential_pressure_raw_pa,differential_pressure_filtered_pa,temperature,gyro_bias[0],gyro_bias[1],gyro_bias[2],accel_bias[0],accel_bias[1],accel_bias[2],instance_count,seq_reached,seq_current,seq_total,item_changed_index,item_do_jump_remaining,valid,warning,finished,failure,stay_in_failsafe,flight_termination,item_do_jump_changed,execution_mode,nav_roll,nav_pitch,nav_bearing,target_bearing,xtrack_error,wp_dist,acceptance_radius,rollspeed_integ,pitchspeed_integ,yawspeed_integ,additional_integ1,x,y,z,temperature.1,pressure,temperature.2,gyro_rad[0],gyro_rad[1],gyro_rad[2],accelerometer_m_s2[0],accelerometer_m_s2[1],accelerometer_m_s2[2],x.1,y.1,z.1,temperature.3,altitude_sp,altitude_filtered,height_rate_setpoint,height_rate,airspeed_sp,airspeed_filtered,airspeed_derivative_sp,airspeed_derivative,throttle_integ,pitch_integ,baro_alt_meter,baro_temp_celcius,baro_pressure_pa,rho,xyz[0],xyz[1],xyz[2],xyz[0].1,xyz[1].1,xyz[2].1,roll_body,pitch_body,yaw_body,q_d[0],q_d[1],q_d[2],q_d[3],thrust_body[0],lat,lon,alt,vel_m_s,vel_n_m_s,vel_e_m_s,vel_d_m_s,cog_rad,ground_contact,maybe_landed,landed,ref_lat,ref_lon,x.2,y.2,z.2,vx,vy,vz,ax,ay,az,yaw,dist_bottom,roll,pitch,yaw.1,thrust_body[0].1,timestamp.1,isTakeoff,isClimbing,isDescending,isCruise,isLand
21711366.0,-0.022647518,-0.006481776999999999,0.017982158999999998,0.5925675,0.0,1509.0,1500.0,1652.0,1503.0,1496.0,1494.0,19.57335993,20.00257123,19.64840771,19.55334765,19.98204119,19.76798929,20.20139076,241.7647937,241.7647937,12.06286992,-0.003066659,-0.006452917,0.001831931,-0.164668735,0.196350153,-0.114258813,2.0,-1.0,0.0,11.0,0.0,0.0,1.0,0.0,0.0,0.0,0.0,0.0,0.0,0.0,0.6576436210000001,0.258314939,2.889209042,-2.7798667710000005,41.80316807,293.8218149,56.41570581,-0.024178956,-0.026354828,0.017450755,0.0,2.413362863,-0.97733285,-9.165493864,2330470000000000.0,960.5331031,12.08658385,0.132326469,-0.02215036,-0.022169005,2.19848764,-1.003613096,-9.114485143,0.130100487,-0.02208865,-0.005225317,2330470000000000.0,50.33116775,50.91945769,3.970549743,4.461798991,15.33062106,20.06888776,-0.094765342,0.288025829,-0.09053438,1.4788652780000002,448.0602853,12.08867043,96057.7438,1.141324906,0.959081018,-0.376786965,0.470594575,0.121721978,-0.008162237,-0.019086485,0.63472234,0.259304872,2.860667,0.171842437,-0.078301085,0.323590606,0.927161263,0.640097601,398702365.4,327383262.6,447952.1388,19.42,-13.85222845,13.59221244,-4.733338668,2.365581167,0.0,0.0,0.0,39.8714138,32.7364372,-132.1317328,162.38560680000003,-48.43327469,-13.79599253,13.54296927,-4.75336325,0.287382501,0.228910395,0.4471165170000001,2.307117562,48.55941133,0.374673249,0.105568965,0.140171124,0.6400438,21711366.0,0.0,1.0,0.0,0.0,0.0
21733257.0,-0.009791194777555108,-0.011432381244488978,0.018551448462925852,0.6306303366613226,0.0,1509.0,1500.0,1652.0,1499.8136272545091,1499.1863727454909,1492.0881763527054,19.598668734288577,20.028637466953906,19.65066603256513,19.556782394128255,19.98565464503006,19.77200680258517,20.205600799599196,241.95415142024046,241.95415142024046,12.062195677154309,-0.0030633451723446896,-0.006451911380761523,0.0018245086633266532,-0.1648391530480962,0.19624769518436874,-0.11433317784168337,2.0,-1.0,0.0,11.0,0.0,0.0,1.0,0.0,0.0,0.0,0.0,0.0,0.0,0.0,0.6612509307915831,0.25862693268737474,2.8961234606613226,-2.7783821360621244,41.34560586779559,293.61402050841684,56.458765412525054,-0.024246121551102208,-0.026297352208416835,0.01750744375751503,0.0,2.6276012703106213,-0.9545679259038077,-9.2177347988497,1520315611222445.0,960.5140167272544,12.085881675410821,0.13016387781763528,-0.022760201791583168,-0.02467517702004008,2.215693917723447,-1.0393858120080162,-9.099510663200402,0.14456390001402805,-0.026399097302605208,-0.00409751948496994,1520315611222445.0,50.46072233925852,51.034076889879756,3.971296500042084,4.441615111036072,15.330730703086173,20.089636718316633,-0.09517813212825652,0.2984076667675351,-0.09095638957915832,1.6802759852745492,448.1765351388778,12.087929936092184,96056.40300621242,1.141309017470942,1.1849184536432866,0.0221953113847696,0.46616651039478957,0.1315313278236473,-0.010690621861723447,-0.013743772735470942,0.6409021901322646,0.2596142350180361,2.8697492405931864,0.16792355985771543,-0.079406693252505,0.3261081170460922,0.9268925835891784,0.6399873958376754,398702335.76673347,327383300.7727455,448063.70377875754,19.42,-13.843902700180362,13.605295756593186,-4.726202314653307,2.3647923268957918,0.0,0.0,0.0,39.8714138,32.7364372,-132.45436036913827,162.70362266813626,-48.54298066879759,-13.791088530280561,13.550343932164328,-4.743717623018036,0.25915629333667334,0.2269916320701403,0.43520152412224455,2.306724777194389,48.66911706663327,0.36008595236272545,0.110794789004008,0.14527384759118236,0.6399645230460922,21733257.01803607,0.0,1.0,0.0,0.0,0.0
21757344.0,0.001964345525050099,-0.015847241086172345,0.019120019705410822,0.6521842845611223,0.0,1509.0936948216433,1500.0,1651.7254509018037,1494.9799599198398,1504.0200400801602,1490.7254509018037,19.591574526452906,20.02150981466934,19.65292435238477,19.560217141002006,19.98926809731463,19.77602431517034,20.209810841943888,242.14350914048094,242.14350914048094,12.061521437054108,-0.003060031344689379,-0.006450905761523047,0.0018170863266533065,-0.16500957109619238,0.19614523764328656,-0.11440754268336674,2.0,-1.0,0.0,11.0,0.0,0.0,1.0,0.0,0.0,0.0,0.0,0.0,0.0,0.0,0.6648582405831662,0.25893892637474947,2.9030378790480964,-2.7768975008496994,40.888043662845696,293.4062260893788,56.5018250150501,-0.02431124143687375,-0.02624195255711423,0.017558339529058116,0.0,2.8213983526653306,-0.9337958496573147,-9.259802226813628,826623577154308.6,960.4957317358717,12.085179500821642,0.12739806108416835,-0.02159482366533066,-0.02499714046893788,2.2147326699238477,-1.0386915904468939,-9.111003876711424,0.16099909884368738,-0.030885985230460922,-0.003064986114228457,826623577154308.6,50.59027692577154,51.148696092505006,3.9720432570841684,4.421431231072145,15.330840346172344,20.110385676633268,-0.09559092198196392,0.30878950453507015,-0.09137839915831664,1.881686692549098,448.3068883178357,12.087189681042084,96054.90062380763,1.141291177721443,1.3852686168456914,0.080782108739479,0.3509948612144289,0.14745556502404808,-0.014636520739478957,-0.010274579673346693,0.6482784143166334,0.2599222178777555,2.8804074720801602,0.16332683719038077,-0.08069209629659319,0.3291109743406814,0.9265354845430861,0.6399484402845691,398702306.1334669,327383338.97294587,448175.2687849699,19.42,-13.835576953106212,13.618379070440882,-4.7190659613066135,2.364003486517034,0.0,0.0,0.0,39.8714138,32.7364372,-132.7808420036072,163.02561719198394,-48.653829892004005,-13.786760136472946,13.557852802164328,-4.7341689519519035,0.2143765892725451,0.23809022147695394,0.415966984747495,2.3063456503827657,48.77996608062124,0.35117683542284567,0.11587727559118235,0.14991354605010018,0.6399463881763527,21757344.428857714,0.0,1.0,0.0,0.0,0.0
21784334.0,0.01226556678757515,-0.019554292629258518,0.019687642058116232,0.6519272188416834,0.0,1509.3111762324647,1500.0,1651.0881763527054,1487.9699398797595,1511.0300601202405,1490.0881763527054,19.54167049967936,19.970527462004007,19.655182668577154,19.563651891503007,19.992881545971944,19.78004182775551,20.21402088791583,242.33286686072142,242.33286686072142,12.060847200581163,-0.0030567175170340684,-0.006449900142284569,0.00180966398997996,-0.16517998914428858,0.19604278046492984,-0.11448190752505011,2.0,-1.0,0.0,11.0,0.0,0.0,1.0,0.0,0.0,0.0,0.0,0.0,0.0,0.0,0.6684655503747495,0.25925092006212425,2.9099522970721443,-2.775412865274549,40.43048145426854,293.19843163406813,56.54488461757515,-0.02437365865531062,-0.026189295835671342,0.017601581793587173,0.0,2.988189012997996,-0.915656659985972,-9.288428744220441,286797865731463.0,960.4785055038077,12.084477326232465,0.12383528212625251,-0.01808408199799599,-0.022433397703406813,2.1897690708857716,-0.9898184221703407,-9.157465356567135,0.18003935776553107,-0.03560598084569139,-0.0021583126713426853,286797865731463.0,50.719831508657315,51.26331529875752,3.9727900141262524,4.401247351108217,15.330949989258517,20.1311346349499,-0.0960037114729459,0.31917134230260524,-0.09180040873747496,2.083097399823647,448.4558743767535,12.086449741563126,96053.18475571142,1.1412707600821643,1.5519458142685372,-0.31035066839078157,0.08951234482164333,0.17145859503607208,-0.020455193609218436,-0.00928062001002004,0.6572352494749499,0.26022837731663323,2.8931478521202405,0.15783456678557115,-0.08221503844488978,0.332755055511022,0.9260615683146293,0.6400036174268536,398702276.5002004,327383377.20941883,448286.8338274549,19.42,-13.827251209659318,13.631462380661324,-4.711929607959919,2.363214645775551,0.0,0.0,0.0,39.8714138,32.7364372,-133.11241550541084,163.3528681879759,-48.76618953300601,-13.78319221470942,13.565538983246492,-4.724748375927855,0.14772693740881765,0.26638691871543085,0.3870620956212425,2.3059845680741486,48.89232555593187,0.3497695471342685,0.12077038938677355,0.1539415105751503,0.6400090322645291,21784333.643286575,0.0,1.0,0.0,0.0,0.0
21809126.0,0.024309756410821642,-0.01896650838476954,0.020156750703406813,0.6511973098396794,0.0,1509.702976553106,1500.0,1649.9018036072143,1482.2496801202406,1516.7503198797594,1490.5490981963928,19.572002787935872,20.001638353667335,19.657440990260522,19.567086636513025,19.99649500012024,19.7840593348497,20.218230933887774,242.52222458096193,242.52222458096193,12.060172958617235,-0.0030534036893787577,-0.006448894523046093,0.0018022416533066132,-0.16535040774148296,0.19594032328657315,-0.11455627236673348,2.0,-1.0,0.0,11.0,0.0,0.0,1.0,0.0,0.0,0.0,0.0,0.0,0.0,0.0,0.6720728596172344,0.259562913749499,2.9168667156452908,-2.773928230248497,39.97291925118237,292.99063717875754,56.5879442201002,-0.024438981701402806,-0.02613130791983968,0.017645016791583167,0.0,2.9508243599038075,-0.9174208034088176,-9.215448565887776,910165300601202.2,960.4692829270541,12.083775151643287,0.12103936053106212,-0.022502007496993985,-0.018682086773547095,2.1605356782324647,-0.9602177428957915,-9.163350570126253,0.21877259300801602,-0.042088153923847696,-0.002203076498997996,910165300601202.2,50.83848559731463,51.366019151022044,3.9735875413366735,4.386959313641283,15.331027652865732,20.148054456993986,-0.09634055464328657,0.3192724535250501,-0.09219280160721442,2.275362649310621,448.67346081082167,12.08572624757515,96050.6815741483,1.1412409737294589,1.6803987405290581,-0.49333423396593185,0.12548614368336672,0.2093978520340681,-0.027899122462925852,-0.006409106370741484,0.6632306141122244,0.2605354954809619,2.902943634328657,0.15359540380761524,-0.08353095080561122,0.33513446250100204,0.9257942689519038,0.6401607000561123,398702246.8669338,327383415.390982,448398.39881503006,19.42,-13.818925466212425,13.644545696372745,-4.704793255162325,2.362425805034068,0.0,0.0,0.0,39.8714138,32.7364372,-133.45972594188376,163.69636491302603,-48.88321727741483,-13.781974597955912,13.573773186292586,-4.715723690368737,0.013486048002004036,0.34783606823046087,0.3282700349158317,2.3056792543747493,49.00935327741483,0.3362526981603206,0.12592172978757515,0.15830149501202406,0.6401037711422846,21809126.46492986,0.0,1.0,0.0,0.0,0.0
21834312.0,0.036254341547094185,-0.017610745240480962,0.02060802195791583,0.6503419021042084,0.0,1510.0,1500.0,1649.0,1478.0974773947896,1520.9025226052104,1491.1863727454909,19.580781236072145,20.01077192196393,19.659699310961923,19.57052138064128,20.000108453286575,19.788076842925854,20.22244097985972,242.7115823012024,242.7115823012024,12.059498715771543,-0.003050089861723447,-0.00644788871743487,0.0017948193166332665,-0.16552082624048098,0.19583786592184368,-0.1146306370220441,2.0,-1.0,0.0,11.0,0.0,0.0,1.0,0.0,0.0,0.0,0.0,0.0,0.0,0.0,0.6756801689579157,0.25987490743687375,2.9237811343066133,-2.7724435951242485,39.51535704711423,292.7828427420842,56.63100382262525,-0.024502644118236473,-0.026072621943887778,0.017687926044088177,0.0,2.880675641879759,-0.9223811026973948,-9.126151983673347,1720323807615230.2,960.4613456088176,12.083072977054108,0.11817612364128256,-0.02576717249498998,-0.015996245204408815,2.1451697886252505,-0.9450228949398797,-9.160608159390781,0.26066820401002005,-0.04885330440480962,-0.0024006260601202407,1720323807615230.2,50.95487923262525,51.466252095711425,3.9743955967414832,4.373893906711422,15.331098686372746,20.164180224849698,-0.09666164867134269,0.317241633501002,-0.09257905264128256,2.4657313900881763,448.85643325831666,12.084999657915832,96048.58123146291,1.1412159925611223,1.9027027086212422,-0.5839762323667335,0.1416146919619239,0.2509616412364729,-0.0358832670260521,-0.0026984776372745494,0.6693485237915832,0.2608458313827655,2.913101763286573,0.14919966502605211,-0.08492280826653306,0.3375482745611223,0.9255080817995992,0.6403020991583166,398702217.2523046,327383453.56372744,448509.9637937876,19.42,-13.810599720901804,13.657629012965932,-4.697656902266533,2.361636964292585,0.0,0.0,0.0,39.8714138,32.7364372,-133.8095634773547,164.0424704226453,-49.00099464240481,-13.78113440244489,13.582095392865732,-4.7067625782745495,-0.13160890856112223,0.4378206482244489,0.26467857420841684,2.3053828964048093,49.12713064240481,0.3229274848517034,0.13143961416833666,0.16268454300000001,0.6402124849498998,21834312.07214429,0.0,1.0,0.0,0.0,0.0
21861301.0,0.04728078825651302,-0.016065553288577155,0.021054411749498996,0.6493665725250501,0.0,1510.0,1500.0,1649.0,1477.2378768737476,1521.7621231262524,1491.8236472945891,19.506240723286574,19.934840538356713,19.661957627154308,19.573956124769538,20.003721901943887,19.792094355511022,20.226651025831664,242.9009400214429,242.9009400214429,12.058824472925851,-0.0030467760340681365,-0.006446882460921843,0.0017873969799599195,-0.16569124428857715,0.19573540810621243,-0.1147050012264529,2.0,-1.0,0.0,11.0,0.0,0.0,1.0,0.0,0.0,0.0,0.0,0.0,0.0,0.0,0.6792874787494989,0.26018690112424847,2.930695552967936,-2.770958959549098,39.05779483853708,292.575048350501,56.6740634251503,-0.024561159941883768,-0.02601431833266533,0.01772948845290581,0.0,2.8105269238557113,-0.9273414024368738,-9.036855401008015,2530484569138276.5,960.4534082905811,12.08237080246493,0.11485209576953909,-0.02316303799398798,-0.01634953364529058,2.1650131651503006,-0.9571933189278558,-9.152756730468937,0.30256381501202406,-0.05561845488577154,-0.0025981760721442886,2530484569138276.5,51.0700389751503,51.565136266853706,3.9752093988897794,4.361495885853707,15.331166103647295,20.179872549819642,-0.09697414580561123,0.31404707560120243,-0.09296195076953909,2.6550649009058116,448.92901028998,12.084259189498999,96047.76137775551,1.1412062766733466,2.366916142745491,-0.5320791670400802,-0.005834077845691343,0.2958801028837675,-0.04454295763126252,0.0023128206352705395,0.6769134729498998,0.26116357965931863,2.925280541943888,0.14393826963126255,-0.08657883691983968,0.3405366626733467,0.925095925759519,0.6403659629899799,398702187.68276554,327383491.73647296,448621.5287725451,19.42,-13.802273971082164,13.67071232955912,-4.69052054891984,2.360848123551102,0.0,0.0,0.0,39.8714138,32.7364372,-134.15940101282567,164.38857588717434,-49.11877200288577,-13.780294206933867,13.590417599438878,-4.69780146572946,-0.2767038646733466,0.5278052286693387,0.20108711305010024,2.3050865388857713,49.24490800288577,0.3147705860220441,0.137743975002004,0.16699439700000004,0.6403425399398798,21861301.286573146,0.0,1.0,0.0,0.0,0.0
21886041.0,0.05031464877354709,-0.014678482418837674,0.021696258214428856,0.6487621283166333,0.0,1510.4609218436874,1500.0,1648.0781563126252,1473.9413562925852,1525.0586437074148,1492.4609218436874,19.516971175631262,19.945910867575147,19.664215947955913,19.577390873507014,20.007335350601203,19.796111868096194,20.230861071803606,243.09029774168337,243.09029774168337,12.05815023008016,-0.0030434622064128255,-0.006445876665330662,0.0017799746432865728,-0.16586166233667335,0.195632950751503,-0.11477936589178356,2.0,-1.0,0.0,11.0,0.0,0.0,1.0,0.0,0.0,0.0,0.0,0.0,0.0,0.0,0.6828947885410821,0.26049889481162325,2.9376099716292585,-2.76947432443487,38.60023263456914,292.3672539128257,56.71712302767535,-0.024616437789579157,-0.025954783138276556,0.017761580300601203,0.0,2.758669990601202,-0.9314546919158316,-8.939612234915831,3026693026052104.5,960.4452400505011,12.081671439498997,0.1128804416252505,-0.021988177420841686,-0.015309151144288576,2.1535279259438878,-0.9626275208917836,-9.155249416496993,0.34463120835871747,-0.057396458212424846,0.0016265871623246512,3026693026052104.5,51.18519871306613,51.664020442605214,3.976023201038076,4.349097864995992,15.331233520921844,20.19556487478958,-0.09728664293987976,0.3108525177014028,-0.09334484935871744,2.844398411723447,449.03812620941886,12.083522578997997,96046.50764909819,1.141191377258517,1.9830331236032062,-0.3006720561623245,-0.017919064787575135,0.34047835705611224,-0.04343674498997996,0.007181946643286575,0.6840043916472945,0.26148764671342684,2.9372723780761523,0.1387548732745491,-0.08828309551302606,0.3432988603046092,0.9247007224248497,0.6404488596673347,398702157.9749499,327383530.047495,448733.6439076152,19.4224451995992,-13.795985910641283,13.683591872605211,-4.683180427557114,2.3601375238316633,0.0,0.0,0.0,39.8714138,32.7364372,-134.49548003126256,164.7214215981964,-49.23155473591182,-13.785747604208417,13.603373444088177,-4.690679286150301,-0.3668619974789579,0.5841970388136273,0.1894061941963928,2.304862588501002,49.357690735911824,0.30862552853507014,0.14309604411222446,0.1706517303987976,0.640447583006012,21886041.20240481,0.0,1.0,0.0,0.0,0.0
21910486.0,0.051557893913827646,-0.013314623014028058,0.022419867410821644,0.6482375034068136,0.0,1511.036497046092,1500.0,1646.963502953908,1470.0728428256514,1528.9271571743486,1493.0981963927857,19.557354583867735,19.987251028276553,19.66647426953908,19.58082562302605,20.01094880024048,19.8001293796994,20.23507111777555,243.27965546192385,243.27965546192385,12.057475988216433,-0.003040148378757515,-0.006444871046092184,0.0017725523066132265,-0.16603208048296594,0.19553049347494988,-0.11485373073346693,2.0,-1.0,0.0,11.0,0.0,0.0,1.0,0.0,0.0,0.0,0.0,0.0,0.0,0.0,0.6865020983326653,0.26081088840080163,2.944524390290581,-2.7679896893987976,38.14267043138277,292.15945945751514,56.760182630200404,-0.0246700199498998,-0.025894507474949903,0.017789996094188378,0.0,2.7171879851002,-0.9350875652044087,-8.837861841641283,3344830000000000.0,960.4369408503006,12.080973673707415,0.11215425658116232,-0.021365528058116232,-0.014545446943887774,2.138924259809619,-0.9568653268777555,-9.166100398763527,0.3867960350340681,-0.056345798889779565,0.008359644625250497,3344830000000000.0,51.3003584502004,51.762904619138276,3.976837003284569,4.336699844138277,15.331300938196392,20.21125719975952,-0.0975991399759519,0.3076579598016032,-0.0937277480260521,3.033731922442886,449.1499336462926,12.082788823246492,96045.21908390781,1.1411760564929858,1.3889372925671342,-0.0007766749819640359,0.038418217204408765,0.38347337411623245,-0.03910956472545091,0.01228220441282565,0.690758075034068,0.2618140338777555,2.949055552200401,0.13365952436873746,-0.08999926005611222,0.3459059286492986,0.9243215594589178,0.6405553854268536,398702128.145491,327383568.5292585,448846.3471711423,19.42750425488978,-13.791876083386775,13.696253591943886,-4.675622483130261,2.359510561745491,0.0,0.0,0.0,39.8714138,32.7364372,-134.82503335310625,165.0479781739479,-49.3419685048497,-13.794186066352706,13.61852703216433,-4.68442931683968,-0.4309634656833667,0.6246557189398797,0.20234656768737472,2.30467298096994,49.4681045048497,0.30288366732264527,0.14805830915831664,0.17404851749298597,0.6405517545290581,21910486.03006012,0.0,1.0,0.0,0.0,0.0
21938035.0,0.059759003028056104,-0.011746065390781565,0.02318179158717435,0.6473720463326653,0.0,1511.2733554268536,1500.0,1646.7266445731464,1468.182818428858,1530.817181571142,1493.7354709418837,19.581419810601204,20.012024190561124,19.668732585731462,19.584260367154307,20.01456225527054,19.804146885911823,20.239281163747496,243.46901318216433,243.46901318216433,12.056801751743487,-0.0030368345511022046,-0.006443865426853708,0.0017651299699398798,-0.16620249916833668,0.19542803565931863,-0.1149280955751503,2.0,-1.0,0.0,11.0,0.0,0.0,1.0,0.0,0.0,0.0,0.0,0.0,0.0,0.0,0.6901094081242485,0.2611228814509018,2.951438808951904,-2.7665050538236473,37.68510822280561,291.95166500220444,56.80324223272545,-0.024721094318637275,-0.025832753659318638,0.017818123480961925,0.0,2.6942413523627256,-0.9378621489799599,-8.728059041721444,3344830000000000.0,960.4284077440882,12.080278770420842,0.11542485790380762,-0.020772296190380762,-0.01822797743687374,2.173005058410822,-0.903786258737475,-9.201109490983969,0.4291349316633266,-0.05024158050100201,0.0195739057034068,3344830000000000.0,51.41551819272545,51.86178879028056,3.97765080607014,4.324301823280561,15.331368355470941,20.22694952472946,-0.09791163647294589,0.3044634019018036,-0.09411064615430861,3.2230654326232466,449.19976908957915,12.082062636152305,96044.65060314629,1.1411693103046092,1.422194839513026,0.2980545966452902,0.18605579297995975,0.4183395243807615,-0.037612659066132266,0.01894995321442885,0.6966560796633267,0.26213988573747493,2.960085876725451,0.12888370541482966,-0.09167948156312625,0.34813646923046093,0.9239948466412826,0.6407516526052104,398702097.9386773,327383607.65791583,448961.1235675351,19.441776840501003,-13.79544426006012,13.708147518436874,-4.667296737771543,2.3591784123386774,0.0,0.0,0.0,39.8714138,32.7364372,-135.1476609222445,165.36786004569137,-49.44986807795591,-13.805792588396795,13.63601308743487,-4.67910502881964,-0.4674108648937875,0.6482044881823646,0.24141764214829656,2.304519821591182,49.57600407795591,0.295129511987976,0.1528808645531062,0.17738554130460923,0.6407036775951904,21938035.408817634,0.0,1.0,0.0,0.0,0.0
21962275.0,0.06357764164529058,-0.0103684004248497,0.023934282320641286,0.6467793494989981,0.0,1511.6058796833668,1500.0,1646.0213748256513,1465.9002143807616,1533.0997856192384,1494.372745490982,19.616954841022043,20.04844887741483,19.670990901923847,19.58769511501002,20.018175706573146,19.8081643958517,20.24349120971944,243.6583709024048,243.6583709024048,12.056127511543087,-0.003033520723446894,-0.00644285980761523,0.001757707633266533,-0.16637291748096195,0.19532557821643287,-0.11500246041683367,2.0,-1.0,0.0,11.0,0.0,0.0,1.0,0.0,0.0,0.0,0.0,0.0,0.0,0.0,0.6937167179158317,0.2614348748737475,2.9583532272404813,-2.7650204186212424,37.22754601795591,291.74387058416835,56.84630183152304,-0.02477133336472946,-0.0257718668496994,0.017847665436873748,0.0,2.671294719997996,-0.940636732755511,-8.618256241801603,3344830000000000.0,960.4198746006012,12.079583863406814,0.12140675327054108,-0.020861011144288576,-0.01410654245891784,2.420990977789579,-0.8994671375631262,-9.217069172166333,0.47147382829258516,-0.044137361739478964,0.030788166781563122,3344830000000000.0,51.530677931523044,51.9606729651503,3.978464608482966,4.3119038020501,15.331435772745492,20.2426418496994,-0.09822413334268537,0.301268844002004,-0.09449354465531062,3.4123989431763526,449.3185981577154,12.081333515551103,96043.2672411022,1.1411528757154308,1.624582299028056,0.3613262271663327,0.32404378902404807,0.45593381231262525,-0.034899403238476956,0.02506213828056112,0.7015924773386774,0.26246469018236473,2.9701403173987977,0.12452001698597195,-0.09327078016032064,0.3499583931583166,0.9237472971382766,0.6410100888857715,398702067.73186374,327383646.82384765,449075.8999266533,19.456049426112227,-13.799012433006013,13.720041441202405,-4.658970992412826,2.3588462629318636,0.0,0.0,0.0,39.8714138,32.7364372,-135.47143870941886,165.68892773266532,-49.558068956152304,-13.817642218777555,13.653456686993987,-4.673350985004008,-0.5052352921803607,0.6690290730961923,0.283572966745491,2.3043835196272546,49.68420496733467,0.28440739080961924,0.15767660501002004,0.18067114860320643,0.64086738501002,21962275.180360723,0.0,1.0,0.0,0.0,0.0
21984166.0,0.0644156703006012,-0.0091256889498998,0.024676895066132267,0.6463732995991984,0.0,1512.0100200400802,1500.0,1644.996123476954,1463.3854956793587,1535.6145043206413,1495.0100200400802,19.660242444048095,20.09274517272545,19.67324921821643,19.59112986541082,20.021789155330662,19.812181908436873,20.247701255691382,243.8477286226453,243.8477286226453,12.055453268697395,-0.0030302068957915834,-0.006441854188376753,0.0017502852965931865,-0.16654333552905812,0.1952231210280561,-0.11507682525851703,2.0,-1.0,0.0,11.0,0.0,0.0,1.0,0.0,0.0,0.0,0.0,0.0,0.0,0.0,0.697324027707415,0.2617468685611223,2.9652676452745492,-2.7635357836733467,36.7699838156513,291.53607619158316,56.889361427775555,-0.024820950803607217,-0.02571156033466934,0.017878095488977955,0.0,2.6485545118356715,-0.9432839749879759,-8.510766496891785,3344830000000000.0,960.4111434136273,12.078886748537075,0.12957298328857716,-0.021581330973947897,-0.004592565056112224,2.816157860326653,-0.9295584446793587,-9.219804442575152,0.5136292516653307,-0.038033750498997994,0.04197278534468939,3344830000000000.0,51.64583766777555,52.059540006292586,3.979279266913828,4.299523997218437,15.331503301142286,20.258314236092186,-0.09853622945490982,0.2980517348296593,-0.09487648158717435,3.6018117451162324,449.4866757861724,12.08060264046092,96041.30297440883,1.1411295342244487,1.9404267079398798,0.2636483810060121,0.45046164324048094,0.4954462195671343,-0.03128989243486974,0.030816163901803608,0.7058652669178356,0.26278876435671344,2.979533425669339,0.1204354274729459,-0.09480382434068137,0.3514972891202405,0.9235538214689379,0.6413142719779559,398702037.5250501,327383686.0152304,449190.67625931866,19.470322011723454,-13.802580603406815,13.731935361322645,-4.650645247054108,2.3585141135150303,0.0,0.0,0.0,39.8714138,32.7364372,-135.79644714108215,166.01126416332664,-49.666592211362726,-13.829751958917836,13.6708548601002,-4.667137131200401,-0.5445330474529059,0.6869389627995992,0.32902823300801604,2.3042652538857715,49.792728245170345,0.2716831885851703,0.1624659914529058,0.18392204950901803,0.6410440005010021,21984166.198396794,0.0,1.0,0.0,0.0,0.0
22006057.0,0.07336230141883766,-0.007850505763527056,0.025220234072144288,0.6455337541082163,0.0,1512.6472945891783,1500.0,1644.7495766112224,1463.781067286573,1535.218932713427,1495.6472945891783,19.679285813507015,20.112175782064128,19.675507540781563,19.594564609539077,20.02540261036072,19.81619942102204,20.251911301663327,244.03708634288577,244.03708634288577,12.054779025851703,-0.003026893068136273,-0.006440848569138276,0.0017428629599198398,-0.16671375357715432,0.19512066321242486,-0.1151511901002004,2.0,-1.0,0.0,11.0,0.0,0.0,1.0,0.0,0.0,0.0,0.0,0.0,0.0,0.0,0.700931337498998,0.262058862248497,2.972182063935872,-2.762051148098197,36.31242160707415,291.3282817362725,56.9324210303006,-0.024868765513026053,-0.025649062819639277,0.017901276987975952,0.0,2.638736442184369,-0.9379596366232466,-8.548073995609219,3344830000000000.0,960.3900163603206,12.07805158749499,0.15402713804208415,-0.031544078517034065,-0.004202891424849699,2.9219455419018034,-0.9475425962865731,-9.240977046354711,0.5442992491803607,-0.03196818663527055,0.051301782466933864,3344830000000000.0,51.760997410300604,52.15733431050101,3.9801475286332666,4.288284555511022,15.331577785791584,20.27273846755511,-0.09882322158717435,0.29342291599599196,-0.09526180773146292,3.796188171308617,449.67261586673345,12.079892257775551,96039.17583480962,1.1411042356993988,1.8449433881162325,0.5554603181883766,0.2812789805350702,0.5338331804368737,-0.025612157292585175,0.038830775256513024,0.7113163540921843,0.26311365584368734,2.9908815526392787,0.11551319915230461,-0.09664061400801603,0.35347175876753506,0.9232284736933868,0.6417202929759519,398702007.3182365,327383725.14388776,449305.45259198395,19.48459459733467,-13.80614878008016,13.743829281442887,-4.642319501695391,2.3581819634709418,0.0,0.0,0.0,39.8714138,32.7364372,-136.1473945539078,166.36034315090177,-49.781910546032066,-13.847344286092184,13.687295466472946,-4.6512314199458915,-0.6148855518577154,0.6434130180541082,0.44403954791783556,2.304527151420842,49.90804682200401,0.265482989002004,0.1680488918577154,0.18728455028256513,0.6415051323647295,22006057.216432866,0.0,1.0,0.0,0.0,0.0
22029087.0,0.07332575614028057,-0.006607857935871746,0.025955561631262523,0.6448528724168336,0.0,1513.0,1500.0,1644.154077977956,1466.2765531062123,1532.7234468937877,1496.2845691382765,19.70419332765531,20.137697793006012,19.677765860501,19.597999353667333,20.02901606254509,19.820216933607213,20.256121347635272,244.22644406312625,244.22644406312625,12.054104785851703,-0.003023579240480962,-0.006439842665330661,0.001735440623246493,-0.16688417190981963,0.19501820568136274,-0.11522555494188377,2.0,-1.0,0.0,11.0,0.0,0.0,1.0,0.0,0.0,0.0,0.0,0.0,0.0,0.0,0.7045386472905811,0.2623708559358717,2.9790964825971944,-2.7605665128076153,35.85485940134269,291.12048728096187,56.97548063282565,-0.024917938470941883,-0.025584871264529057,0.017924019396793587,0.0,2.6295356508016035,-0.9322545037735471,-8.592298322863728,3344830000000000.0,960.3682971470942,12.077209835831663,0.18365126038276547,-0.040068474765531055,-0.002979018162324652,2.9789142281863725,-0.9619929637815632,-9.208453420114228,0.5744205988196392,-0.025904440314629268,0.06054213801002003,3344830000000000.0,51.87615714997996,52.25475607671343,3.981034405727455,4.277441135867735,15.331654686432866,20.28672924046092,-0.09910149594388777,0.28830384173547097,-0.09564796339478958,3.9922883534288576,449.7401186703407,12.079173861623246,96038.39986362726,1.1410950201683367,1.422553602697396,0.5129151428296599,0.14470681475150313,0.5713827883647293,-0.017494513268537088,0.04738028154509017,0.7165760648216433,0.26343864294589175,3.002156749376754,0.11061999289979961,-0.09849058605611222,0.3553534787955912,0.9229118103987975,0.6421663650881763,398701977.08296597,327383764.2725451,449420.2289246493,19.498867185791582,-13.809716956753507,13.755723204408818,-4.6339937563366735,2.357849813711423,0.0,0.0,0.0,39.8714138,32.7364372,-136.49834199519037,166.70942216693385,-49.89722888354709,-13.864936613266533,13.703736072845691,-4.635325708406814,-0.685238056262525,0.5998870733086172,0.5590508628276551,2.3047890486713425,50.023365398837676,0.25714013064529057,0.17343796482364726,0.190664220250501,0.6419002194308617,22029086.511022042,0.0,1.0,0.0,0.0,0.0
22053527.0,0.062155133074148286,-0.005405535623246492,0.026928846833667336,0.6443686444488977,0.0,1513.0,1500.0,1643.1260757454909,1471.374749498998,1527.625250501002,1496.9218436873748,19.73636907747495,20.17076971016032,19.680024176693387,19.60143409779559,20.032629511202405,19.82423444619238,20.260331393607217,244.41580178336673,244.41580178336673,12.053430549378758,-0.0030202654128256515,-0.006438836408817636,0.0017280182865731463,-0.16705459059519037,0.19491574850300603,-0.11529991978356714,2.0,-1.0,0.0,11.0,0.0,0.0,1.0,0.0,0.0,0.0,0.0,0.0,0.0,0.0,0.7081459570821643,0.2626828496232465,2.9860109012585174,-2.7590818778697397,35.39729719913827,290.91269282565133,57.018540235350706,-0.02496879489178357,-0.025518580054108217,0.017946217581162324,0.0,2.621099936709419,-0.9260774002945892,-8.645095620699399,3344830000000000.0,960.3458439891783,12.076359915511022,0.21968322987374753,-0.046810125747495,-0.0007212073286573129,2.97537486396994,-0.9720634298416834,-9.109376720046091,0.6038619341903808,-0.01984294672344689,0.06967262793386775,3344830000000000.0,51.99131688613227,52.35171610569139,3.981944355398798,4.267088560472946,15.331734581543087,20.300182768957917,-0.09936896517034069,0.28257712694589177,-0.09603514719438878,4.190525021769539,449.6608259757515,12.078445533286574,96039.29858006013,1.141105738488978,0.5949839725971937,0.05595551812424815,0.048553293040080076,0.6078945503927855,-0.006352756827655303,0.056592756202404816,0.7215985765771543,0.26376374855711426,3.013341553713427,0.10576275766132263,-0.10035689682965931,0.3571202415490982,0.9226059109679359,0.6426620780180361,398701946.8124249,327383803.4012024,449535.0052573146,19.51313977777555,-13.813285133426852,13.767617130901803,-4.6256680109779555,2.357517664304609,0.0,0.0,0.0,39.8714138,32.7364372,-136.84928947174348,167.0585012182365,-50.01254722458918,-13.882528940440881,13.720176679218438,-4.61941999651503,-0.7555905606673348,0.5563611285631263,0.6740621777374751,2.305050945569138,50.13868397567134,0.24614158254108215,0.17858680096392784,0.1940651703466934,0.6422134481563125,22053526.62725451,0.0,1.0,0.0,0.0,0.0
22080203.0,0.05145765486973948,-0.003904067721442886,0.0277643037995992,0.6437750440080161,0.0,1513.5591182364728,1500.0,1642.4408817635272,1476.1386379158316,1522.8613620841684,1498.118236472946,19.736332398657314,20.170812975511023,19.683941966993988,19.606451062665332,20.03786166306613,19.829310039719438,20.265624440420844,244.60515955951902,244.60515955951902,12.05275630731463,-0.0030167631623246494,-0.006437921847695391,0.0017219680260521042,-0.16722903101803607,0.19481921518236472,-0.11537085555310621,2.0,-1.0,0.0,11.0,0.0,0.0,1.0,0.0,0.0,0.0,0.0,0.0,0.0,0.0,0.7117532663146293,0.2629948433106213,2.9929253199198396,-2.7575972423727455,34.93973499134268,290.7048983703407,57.06159983787576,-0.025014203264529057,-0.025459608819639278,0.017963314929859718,0.0,2.6146625805250503,-0.9190722566853707,-8.702382632382767,3344830000000000.0,960.3263081983968,12.075554305310622,0.2591812448797595,-0.05049112604208417,0.004041194891783567,2.9069773923807616,-0.9363992642825651,-9.010047013384769,0.6243982029138276,-0.01360084340480962,0.07842987568336673,3344830000000000.0,52.10647662787575,52.44867613466934,3.982854304511022,4.256735985637274,15.331814471062124,20.31363629745491,-0.0996364343967936,0.2768504121563126,-0.09642233155310621,4.38876169011022,449.7890266993988,12.077734040000001,96037.8393607014,1.1410884175891784,0.042936222264529034,0.17120415180961926,0.1768606824749499,0.6297705818597195,9.415087575150288e-05,0.06425732264529058,0.7261725016212425,0.2641044138697395,3.0243477812765533,0.10097795451302605,-0.1022529286513026,0.3586709777895792,0.92232398149499,0.6429386719519038,398701916.5977956,327383842.5298597,449649.78158997995,19.527412364168335,-13.8168533101002,13.779511051803606,-4.617342265619238,2.3571855143386777,0.0,0.0,0.0,39.8714138,32.7364372,-137.1903246765531,167.39738273567136,-50.12386315128256,-13.901931351402805,13.733306427815632,-4.602067658440882,-0.8234676389699399,0.4842900687234469,0.7506771727034068,2.3055829547234468,50.25000005428858,0.23778637995991983,0.18401269249098196,0.196633419503006,0.6426409740681363,22080203.216432866,0.0,1.0,0.0,0.0,0.0
22105621.0,0.04229291092184369,-0.002401932378757516,0.028638628484969942,0.6430810104208418,0.0,1514.196392785571,1500.0,1641.803607214429,1480.3050783166334,1518.6949216833666,1499.196392785571,19.74824967016032,20.183102885811625,19.689638645991984,19.613164102104207,20.044828998537074,19.835519860881764,20.272078421743487,244.79451732384769,244.79451732384769,12.052082064468937,-0.003013058997995992,-0.006437104553106213,0.0017173884709418838,-0.16740778295390782,0.1947290319038076,-0.11543811589378758,2.0,-1.0,0.0,11.0,0.0,0.0,1.0,0.0,0.0,0.0,0.0,0.0,0.0,0.0,0.7151602778056113,0.2633109535871744,2.9589600914428855,-2.7561125957995993,34.483222260641284,290.49274963166334,57.102218154348705,-0.02505974622244489,-0.02540157871543086,0.01797739969539078,0.0,2.6103673846332667,-0.9111794872865732,-8.76448243904409,3344830000000000.0,960.3098996232466,12.074796204148296,0.2990737788036072,-0.054372137220440875,0.0068979046833667354,2.847487679246493,-0.917945031997996,-8.924502924398798,0.6353885936593187,-0.007165133296593192,0.0867870223006012,3344830000000000.0,52.2216363704008,52.54563616561123,3.983764253741483,4.246383410879759,15.331894361763528,20.3270898259519,-0.0999039036232465,0.2711236973667335,-0.09680951579358718,4.586998358450901,449.9530659751503,12.077024766452906,96035.96662074148,1.1410661781783569,-0.35563826760721434,0.36880980896793575,0.2762077381903808,0.6428171782885772,0.006481691885771537,0.07172256446492985,0.7299618402304608,0.2644472944549098,3.034433025228457,0.09658083689378757,-0.10403266006613227,0.3599009444188377,0.9221218053466934,0.6432107891903808,398701886.1749499,327383881.97274554,449763.78478316637,19.54394005547094,-13.825897997795591,13.791404940501002,-4.6070836287495,2.357067023148297,0.0,0.0,0.0,39.8714138,32.7364372,-137.52553882284568,167.73027574248496,-50.23282863793587,-13.922396744028056,13.744491853827656,-4.583865779827656,-0.889891007751503,0.39545571123647305,0.8047436881663326,2.3062735890881765,50.35896563793587,0.22835143895390783,0.18979317875951904,0.19936663074549096,0.6430697854509018,22105621.288577154,0.0,1.0,0.0,0.0,0.0
22127512.0,0.03642052472945893,-0.0009921714649298618,0.029643458140280562,0.6421958360721443,0.0,1514.8336673346694,1500.0,1641.1663326653306,1483.2352157114228,1515.7647842885772,1499.8336673346694,19.79711069517034,20.23324975242485,19.698808000741483,19.623188150360722,20.05518369032064,19.843943878436875,20.280798733727455,244.98387504408817,244.98387504408817,12.051407821623247,-0.0030089606853707417,-0.006436476837675351,0.0017156799378757514,-0.16759495176352707,0.1946512448977956,-0.1154982013246493,2.0,-1.0,0.0,11.0,0.0,0.0,1.0,0.0,0.0,0.0,0.0,0.0,0.0,0.0,0.718117641480962,0.2636363051863727,2.8332242265330665,-2.754627924537074,34.02906550068136,290.2708259711423,57.137356032745494,-0.025107300923847695,-0.025343364322645293,0.017986322176352706,0.0,2.610254029422846,-0.901553929991984,-8.835977593921843,3344830000000000.0,960.2995958496994,12.074130851282565,0.3387643121663326,-0.059662593609218426,0.004690581288577158,2.8283476396993987,-0.9524770056853707,-8.869985534611223,0.627743898513026,-0.0003514715651302715,0.09436310719438877,3344830000000000.0,52.33679611292585,52.642596200961925,3.9846742034128257,4.236030836122245,15.331974256873748,20.340543354448897,-0.1001713728496994,0.26539698257715433,-0.09719669959318637,4.785235026791582,450.1324470985972,12.076315193106213,96033.90549641283,1.141041696002004,-0.4961405243326651,0.5717379459659315,0.24010530588977963,0.6406353293066132,0.014209218066132253,0.07922608099398797,0.7321306301823647,0.26479026542084166,3.0425067928677354,0.0930313043246493,-0.10554198238276553,0.36047860575751506,0.9220911454308618,0.6435416168897795,398701855.26713425,327383922.12104213,449876.0523571142,19.565530228937877,-13.847236893907816,13.803298758657315,-4.592485847671343,2.3574281742825653,0.0,0.0,0.0,39.8714138,32.7364372,-137.85079578677355,168.05292517014024,-50.337773595931864,-13.944680412404809,13.752351430941884,-4.5642107249418835,-0.9538277429859718,0.2779470021262527,0.8202400461142284,2.3072355588436873,50.463910595931864,0.2156631057635271,0.19628275324448896,0.20273146904208417,0.6434656157915832,22127512.306613225,0.0,1.0,0.0,0.0,0.0
22151287.0,0.03064481960921845,0.00041505531062123934,0.030641574519038074,0.6417109623246493,0.0,1515.0,1500.0,1641.0,1486.0802835771542,1512.9197164228458,1500.4709418837676,19.82886222258517,20.26583849749499,19.707977355490982,19.633212198617233,20.065538382104208,19.852367891282565,20.289519050420843,245.1925314446894,245.1925314446894,12.050735212945892,-0.003004862843687375,-0.006435849593186373,0.001713971404809619,-0.1677821205731463,0.19457345789178357,-0.11555828675551102,2.0,-1.0,0.0,11.0,0.0,0.0,1.0,0.0,0.0,0.0,0.0,0.0,0.0,0.0,0.7204652743446894,0.2639741880781563,2.5830459807915838,-2.753143219366734,33.57810347388777,290.03564736873744,57.16506235873747,-0.025157548470941885,-0.025281475641282566,0.01797851350501002,0.0,2.610140673741483,-0.8919283726973948,-8.907472748328658,3344830000000000.0,960.2892921232465,12.073465493707415,0.37793154950701396,-0.05544144477755513,0.01340959702204406,2.86354815151503,-0.9679260134709419,-8.749446986747495,0.6200992028957916,0.00646219016633265,0.10193919208817634,3344830000000000.0,52.451955850741484,52.7395562316032,3.9855841530841682,4.225678260893788,15.33205414727455,20.353996882945893,-0.10043884207615231,0.2596702677875752,-0.09758388339278558,4.983471695132264,450.266105180962,12.07560561975952,96032.37352238478,1.1410234740561123,-0.3005044158777562,0.24572210200200517,0.370574317116232,0.6319072214268537,0.021968467833667318,0.08857330344488976,0.7355612010661322,0.265128453501002,3.052544030246493,0.08864712286773549,-0.10735825943887775,0.36152275198597195,0.9218982121282565,0.6439948800601202,398701824.2651303,327383962.4106212,449988.064397996,19.58786560200401,-13.870385501943888,13.81519256268537,-4.577249341773547,2.3578599285531063,0.0,0.0,0.0,39.8714138,32.7364372,-138.17605275070142,168.3755745507014,-50.442718558637274,-13.966964085490982,13.760211008056112,-4.544555670527054,-1.0177644782204407,0.16043829348697422,0.8357364035911824,2.3081975285991985,50.568855558637274,0.20398510727254512,0.20340433126653304,0.2063862610761523,0.6440407525450902,22151287.09218437,0.0,1.0,0.0,0.0,0.0
22175294.0,0.024959294158316634,0.0018505459679358715,0.03160756474348697,0.6413351222044088,0.0,1515.1082164328657,1500.0,1640.8917835671343,1488.8509713927856,1510.1490286072144,1501.1082164328657,19.843864346032063,20.281285163707416,19.717146709158314,19.643236246873748,20.07589307496994,19.860791903547096,20.29823936769539,245.41092145751506,245.41092145751506,12.050063428176353,-0.0030007650601202407,-0.006435222406813627,0.0017122628717434868,-0.1679692893827655,0.19449567088577155,-0.11561837218637275,2.0,-1.0,0.0,11.0,0.0,0.0,1.0,0.0,0.0,0.0,0.0,0.0,0.0,0.0,0.7225975555831663,0.26431649691583164,2.288915745224449,-2.7516585021122246,33.12826979857715,289.7957872228457,57.190143923667335,-0.02520837267935872,-0.025218928791583165,0.01796396572945892,0.0,2.605171516691383,-0.8786575795991984,-8.980202793507015,3344830000000000.0,960.2784608258517,12.072800953667336,0.4162322174749499,-0.048563362957915836,0.023812857831663328,2.900405256288577,-0.9681688135831663,-8.62557296421042,0.610671014266533,0.013131041212424848,0.10956686678557113,3344830000000000.0,52.56773643106213,52.83696725905811,3.986502596446894,4.215407774372745,15.332133296893787,20.36740762915832,-0.10070547056913828,0.2538928965611223,-0.0979732746993988,5.183212914286574,450.37577982665334,12.074899303727454,96031.11651168337,1.141008504753507,-0.12439922421843677,-0.10792898388176361,0.5017742077254509,0.620509750492986,0.028949627044088176,0.09794509416633267,0.7393679128737475,0.265464277252505,3.0632439834689382,0.0839797956973948,-0.10928376440881764,0.36269825841082165,0.9216523312384769,0.6445189293186372,398701793.2298597,327384002.73927855,450099.9861867736,19.61046417214429,-13.894173284829659,13.82708636280561,-4.561787243597195,2.358316619250501,0.0,0.0,0.0,39.8714138,32.7364372,-138.5054728765531,168.70208537995995,-50.54859253402806,-13.990793844088177,13.766368148056113,-4.524803501228456,-1.0852654459038076,0.04022088993186376,0.8450202490901805,2.309313556783567,50.67472953402806,0.1929596643547094,0.21032441734268537,0.2099245518216433,0.6446415226853708,22175294.34268537,0.0,1.0,0.0,0.0,0.0
22197185.0,0.019547706535070146,0.0034285913346693373,0.03242808567735471,0.6408011307414829,0.0,1515.745490981964,1500.0,1640.254509018036,1491.4049141503006,1507.5950858496994,1501.745490981964,19.80652370266533,20.243243964428856,19.726316057535072,19.653260295130263,20.086247773126253,19.869215921102207,20.30695967967936,245.64357471843687,245.64357471843687,12.049392849659318,-0.00299666674749499,-0.006434594691382765,0.0017105543386773548,-0.16815645819238478,0.1944178838797595,-0.11567845761723447,2.0,-1.0,0.0,11.0,0.0,0.0,1.0,0.0,0.0,0.0,0.0,0.0,0.0,0.0,0.7247298373507014,0.26465880575350703,1.9947855096573148,-2.7501737843286578,32.678436117975956,289.5559270240481,57.2152254885972,-0.02525736634669339,-0.025159508675350703,0.017945361136272545,0.0,2.5764628870961923,-0.8475656336833667,-9.058970083270541,3344830000000000.0,960.2650502114228,12.072140418597193,0.45119990660521037,-0.045119652376753513,0.02358354350701403,2.851530671987976,-0.9270209773507014,-8.599391831116233,0.5925235272805611,0.019091928907815626,0.1174467583006012,3344830000000000.0,52.686552249539076,52.93658316795591,3.987462564523046,4.205538611234469,15.332208833046092,20.38060921753507,-0.10096798880961924,0.24786787164328658,-0.09837345826252505,5.390309715196393,450.44715272805615,12.07420891234469,96030.29007492986,1.1409986276352706,-0.6241933182825646,0.3166492527034064,0.3489260515531063,0.6073655767294589,0.032072010414829655,0.1042534437014028,0.7428348011302605,0.265796800739479,3.0737935302304606,0.0793694004709419,-0.11121324948296593,0.3637104842745491,0.9214277951983968,0.6451776328617235,398701762.1945892,327384043.0150301,450211.9079755511,19.63306273699399,-13.91796106771543,13.838980168216432,-4.546325144891784,2.358773309947896,0.0,0.0,0.0,39.8714138,32.7364372,-138.85524623847695,169.04747448416833,-50.65900834108216,-14.022182234829659,13.764202262164329,-4.5045765472404815,-1.1701915500040079,-0.09323902291382753,0.8239318146212427,2.311182759509018,50.78514534108216,0.18337993411022044,0.21516814236072143,0.21239261354909825,0.6450580007214429,22197185.360721443,0.0,1.0,0.0,0.0,0.0
22220607.0,0.015086734332665337,0.005046139635270538,0.03325795795591182,0.6404655496192385,0.0,1516.3827655310622,1500.0,1640.0,1493.576090993988,1505.423909006012,1502.548306264529,19.83430418777555,20.271742139438878,19.73548540973948,19.663284343386774,20.09660246745491,19.87763993482966,20.315679991663327,245.87622801763527,245.87622801763527,12.048722271142285,-0.002992568817635271,-0.006433967358717435,0.0017088458056112225,-0.16834362738476957,0.19434009687374748,-0.11573854304809619,2.0,-1.0,0.0,11.0,0.0,0.0,1.0,0.0,0.0,0.0,0.0,0.0,0.0,0.0,0.726862118735471,0.26500111459118236,1.7006552740901808,-2.748689066927856,32.228602437374754,289.3160668252505,57.240307049699396,-0.025306521158316633,-0.02509985047895792,0.017917132669338677,0.0,2.5382031306392787,-0.8093036847975953,-9.140166344148296,3344830000000000.0,960.2506019196393,12.07148149496994,0.4887541020420841,-0.042871333859719446,0.03160177951302603,2.767301434973948,-0.8858979810701404,-8.545998654727455,0.5708679953507014,0.024767980484969934,0.12542812478557114,3344830000000000.0,52.81181808442886,53.0408845556513,3.9885107761302607,4.196522277641282,15.332276683266533,20.39336634240481,-0.10122177387174348,0.24131657091382766,-0.0987965740741483,5.613037477266532,450.5538567252505,12.073513740220442,96029.05143797596,1.1409839234609218,-0.8490540290060119,0.42889576510020055,0.1665049209899803,0.5899240648757516,0.035776646376753506,0.11267840739078155,0.7461434690440881,0.2661292273867736,3.084292756721443,0.07477769798196394,-0.11315123156913827,0.36464218162925854,0.9212068108396794,0.6458691390280561,398701731.1593186,327384083.3290581,450323.82976432866,19.655661305671345,-13.941748854428857,13.850873969799599,-4.530863046186373,2.359230001028056,0.0,0.0,0.0,39.8714138,32.7364372,-139.20847145651302,169.39606526893786,-50.77019442549098,-14.054852545611222,13.76062482503006,-4.484269071633267,-1.2580728899298597,-0.2289448136613224,0.7976923589499,2.3131796975991983,50.89633142549098,0.175229019747495,0.22016937922244487,0.21470902663527058,0.6457116180801603,22220607.05811623,0.0,1.0,0.0,0.0,0.0
22244966.0,0.011314347470941883,0.00668955063727455,0.03409457323446893,0.6402613080160322,0.0,1517.0200400801602,1500.0,1639.9799599198398,1495.4350396272544,1503.5649603727456,1503.4638991062125,19.902829695671343,20.34187128196393,19.744654764288576,19.67330839164329,20.106957159238476,19.886063946212424,20.324400303647295,246.10888134228458,246.10888134228458,12.04805169262525,-0.002988471122244489,-0.006433340280561122,0.0017071372725450903,-0.1685307968116233,0.19426230988777557,-0.11579862847895792,2.0,-1.0,0.0,11.0,0.0,0.0,1.0,0.0,0.0,0.0,0.0,0.0,0.0,0.0,0.7289943998857716,0.26534342342885775,1.406525038523046,-2.7472043497815632,31.778768756973946,289.0762066264529,57.26538860845691,-0.025355593318637275,-0.025040251813627255,0.017882380873747494,0.0,2.4935940658697398,-0.7662870057835671,-9.22296649757515,3344830000000000.0,960.2354670166333,12.070823645631263,0.5279064709238477,-0.04112031927054108,0.044822916791583164,2.6645264717915835,-0.8480599028697394,-8.478019967801604,0.5468834128617235,0.030253666408817645,0.13347539181162324,3344535010020040.0,52.941372673486974,53.14830141877756,3.989617662735471,4.188073008739479,15.332339422945893,20.405827933747496,-0.10146975205611222,0.2344153381002004,-0.09923493803006013,5.846158600945892,450.6821288559118,12.072815923547095,96027.56153589179,1.1409662785711423,-0.8940052983286574,0.3388455860941884,-0.02954762918637275,0.5695675250080161,0.03985549458517035,0.12231469703406814,0.7492972684068137,0.2664619659358718,3.094699453222445,0.07022299178957915,-0.11508637546492985,0.3655003696012024,0.9209941205551102,0.6465770139579158,398701700.1220441,327384123.6685371,450435.7515551102,19.678259876893787,-13.965536643486974,13.862767769038078,-4.515400947501002,2.3596866923426854,0.0,0.0,0.0,39.8714138,32.7364372,-139.56385350501003,169.7466198216433,-50.88183299126253,-14.088410984448899,13.756027911963928,-4.463936010142284,-1.3479512837615233,-0.3661796603426854,0.7681091668056113,2.3152658082124247,51.00796999126253,0.16793420331062126,0.22526754371943888,0.21691707183767536,0.6465105310180361,22244966.39679359,0.0,1.0,0.0,0.0,0.0
22266857.0,0.009282183446893789,0.00832052930260521,0.03494736129058116,0.6400389629258517,0.0,1517.6573146292585,1500.0,1639.3426853707415,1495.5162449739478,1503.4837550260522,1504.4628358837674,19.89264847002004,20.331535708416837,19.753824112665328,19.6833324398998,20.117311851022045,19.894487963767535,20.333120615631262,246.34153466693388,246.34153466693388,12.047381114108216,-0.0029843728096192383,-0.0064327132024048096,0.001705428739478958,-0.1687179656212425,0.1941845235190381,-0.11585871390981964,2.0,-1.0,0.0,11.0,0.0,0.0,1.0,0.0,0.0,0.0,0.0,0.0,0.0,0.0,0.7311266816533066,0.2656857322665331,1.1123948029559119,-2.7457196326352706,31.32893508274549,288.8363464276553,57.29047017338677,-0.025398819651302605,-0.02498736248697395,0.017843803458917836,0.0,2.449029382727455,-0.723663296501002,-9.305422230464929,3344830000000000.0,960.2204356855709,12.07016588270541,0.5633120161022044,-0.030205136873747502,0.04938703696392785,2.714591621963928,-0.9108885897274549,-8.518098805292585,0.5230073642645291,0.035709414609218434,0.14147423062124248,3335154328657314.5,53.07092725637275,53.25571828190381,3.990724548723447,4.17962374045491,15.33240216262525,20.418289518917835,-0.10171773024048096,0.22751410528657315,-0.09967330198597195,6.07927972462525,450.7511334539078,12.07213456234469,96026.7743552505,1.140956915733467,-1.0282663079799599,0.41448020368937877,-0.03980577451302605,0.5474358064629259,0.04353579079358717,0.12591245471743487,0.750921402743487,0.2668062942965932,3.1032867640961928,0.0664249520981964,-0.11676008784969939,0.36574365871943887,0.9209641508076152,0.6471172628196392,398701669.02304614,327384164.008016,450547.6734076152,19.700858448116232,-13.989324426372745,13.874661574448899,-4.499938849432866,2.3601433830400804,0.0,0.0,0.0,39.8714138,32.7364372,-139.91497336432866,170.0920893498998,-50.99163302541082,-14.123070581923848,13.748939118416834,-4.444463952466934,-1.4388169459779558,-0.5045147910400801,0.7410296480240481,2.317482465767535,51.11777002541082,0.15774565218837677,0.2301253027975952,0.2188930868757515,0.6469280337915831,22266857.41482966,0.0,1.0,0.0,0.0,0.0
22288748.0,0.008128567132264529,0.009889792124248495,0.03581385068937876,0.6399239484569138,0.0,1518.0,1500.0,1639.2945891783568,1495.394967983968,1503.605032016032,1505.2945891783568,19.879931706472945,20.318605307955913,19.762993463987975,19.69335648815631,20.12766654280561,19.902911981322646,20.34184093056112,246.57418799158316,246.57418799158316,12.046710535591183,-0.002980274791583166,-0.006432085829659318,0.0017037199118236472,-0.16890513443086172,0.19410673685571142,-0.11591879934068136,2.0,-1.0,0.0,11.0,0.0,0.0,1.0,0.0,0.0,0.0,0.0,0.0,0.0,0.0,0.7332589631262525,0.2660280413987976,0.8182645670941887,-2.744234915194389,30.879101405571145,288.5964862288577,57.31555173831663,-0.025446467178356715,-0.024932127935871743,0.017795343166332665,0.0,2.406272900923848,-0.6970498683306613,-9.373845693032065,3344830000000000.0,960.2096252871742,12.069511551743487,0.5943713857935872,-0.02218799378356714,0.05513454778957915,2.713885207773547,-0.9276850661643287,-8.581595988306614,0.5035531516713427,0.039945431929859714,0.14750000773947897,2955601723446894.5,53.20048184220441,53.36313514503006,3.991831435006012,4.1711744718757515,15.33246490230461,20.430751104088177,-0.1019657084248497,0.2206128724729459,-0.10011166594188377,6.31240084801002,450.8382650961924,12.071446823286573,96025.7785170942,1.1409450901302605,-0.946282113911824,0.29804504402004045,-0.26383351511823594,0.5225602527895792,0.049965628911823635,0.13391719433466934,0.7514893411963928,0.26715103095791587,3.1105175460080163,0.06318989147494991,-0.11822078869138276,0.3655760401222445,0.9210749929198397,0.6476701896212425,398701637.953507,327384204.1118236,450658.3637300601,19.72173857460922,-14.016262616633266,13.879109090440881,-4.483903955112225,2.3609699684529057,0.0,0.0,0.0,39.8714138,32.7364372,-140.25685322785571,170.42653496813625,-51.09744730038076,-14.160117394589179,13.736448177975952,-4.426858467503006,-1.5318229099298597,-0.6452352312304608,0.7193778503066133,2.319982134557114,51.22358430038076,0.14621251121442888,0.23496607203406814,0.22092443754509017,0.6473955563346693,22288748.43286573,0.0,1.0,0.0,0.0,0.0
22310639.0,0.00799693488777555,0.01138726304609218,0.036696278384769535,0.6399337879759519,0.0,1518.0,1500.0,1639.9318637274548,1495.0381503166332,1503.9618496833668,1505.9318637274548,19.86426543965932,20.302656435370743,19.772162818737474,19.703380536412826,20.13802123458918,19.911335998877757,20.350561248917835,246.80684131623246,246.80684131623246,12.046039957074148,-0.0029761771162324646,-0.006431458114228457,0.0017020107414829659,-0.16909230324048097,0.1940289498496994,-0.11597888477154308,2.0,-1.0,0.0,11.0,0.0,0.0,1.0,0.0,0.0,0.0,0.0,0.0,0.0,0.0,0.735391244256513,0.2663703508737475,0.5241343308897801,-2.7427501974108215,30.42926772496994,288.3566260300602,57.34063330324649,-0.025499257727454913,-0.024874165266533067,0.01773538646492986,0.0,2.365619837004008,-0.6890606447194387,-9.425945902366733,3344830000000000.0,960.2037249533066,12.068861213066132,0.6203750003266533,-0.017542039274549105,0.06225865590581161,2.654117994222445,-0.890933869254509,-8.67233492019439,0.48924270749098203,0.04276257863527054,0.15123059064529057,2145440961923849.2,53.33003643146293,53.47055200815631,3.9929383216312626,4.162725202953908,15.332527641983967,20.443212689258516,-0.10221368660921844,0.21371163965931866,-0.10055002989779559,6.545521971052105,450.94648330020044,12.07075166509018,96024.53995488977,1.1409303996773545,-0.6127473767414836,-0.04181822389579093,-0.7365320094148288,0.49449289090581167,0.05959391374148294,0.14704842314028052,0.7508286436212425,0.26749624258116234,3.116170324841683,0.06060972486973948,-0.11943370059519037,0.36493042683567134,0.9213496365831664,0.6482378642304609,398701606.9182365,327384243.94148296,450767.62145631266,19.740619693967936,-14.046865566492986,13.874894596292584,-4.467202746783568,2.3622268395551105,0.0,0.0,0.0,39.8714138,32.7364372,-140.5879845248497,170.7481568543086,-51.19862507997996,-14.199941171863728,13.71767310747495,-4.411424301815631,-1.6273186126352703,-0.7887304191983965,0.7040399321943889,2.322811020496994,51.32476207997996,0.1331152555150301,0.2397870775771543,0.2230201582344689,0.6479212651402805,22310639.450901803,0.0,1.0,0.0,0.0,0.0
22334807.0,0.007921737825651302,0.013207896372745486,0.03738217751102204,0.6400712112224448,0.0,1518.569138276553,1500.0,1640.0,1495.879153018036,1503.120846981964,1506.569138276553,19.881692321222445,20.320629587074148,19.78133216779559,19.713404584669338,20.148375926372747,19.919760010741484,20.359281561583167,247.03949464088177,247.03949464088177,12.045369378557115,-0.002972078871743487,-0.0064308309679358714,0.0017003021402805611,-0.1692794720501002,0.19395116284368738,-0.11603896963326653,2.0,-1.0,0.0,11.0,0.0,0.0,1.0,0.0,0.0,0.0,0.0,0.0,0.0,0.0,0.7375235253867736,0.2667126597795591,0.23000409525450977,-2.7412654801963927,29.97943405006012,288.11676588817636,57.36571486248497,-0.02554419132264529,-0.024827694068136272,0.017676000609218437,0.0,2.32496677251503,-0.6810714211082164,-9.478046111701403,3344830000000000.0,960.1978246763528,12.068210874388777,0.6302406415450902,-0.00914674408416836,0.07308468239478955,2.5983224557895794,-0.8414715671022045,-8.687879185172344,0.4749322633106213,0.045579724771543075,0.1549611735511022,1335280200400803.8,53.45959102072144,53.577968871282565,3.9940452076873747,4.154275934601202,15.332590381663326,20.45567428012024,-0.10246166479358718,0.2068104068456914,-0.1009883938537074,6.778643094663327,451.1034947531062,12.070071048376754,96022.72982418838,1.1409088898096191,-0.7957161927334663,0.09833297756713377,-0.01505241846894012,0.479372625743487,0.06179259807414829,0.15008864248697393,0.7527933644108217,0.26783970638076154,3.1258341540561125,0.05633982485370743,-0.12130146356913828,0.36524357819839676,0.9212441323026053,0.6488532781583166,398701575.8829659,327384283.3727455,450874.6908458918,19.756447244188376,-14.083066588897795,13.857448502304608,-4.449483716034068,2.3641409896713426,0.0,0.0,0.0,39.8714138,32.7364372,-140.9191158218437,171.06977868356714,-51.29980285957916,-14.239764943446893,13.69889804266533,-4.395990135559118,-1.7228143153406812,-0.9322256077354706,0.6887020140821644,2.325639907006012,51.42593985957916,0.12334101950300604,0.24457237538476953,0.22501576522444888,0.6484830311322645,22334807.02204409,0.0,1.0,0.0,0.0,0.0
