timestamp,control[0],control[1],control[2],control[3],control[4],output[2],output[3],output[4],output[5],output[6],output[7],indicated_airspeed_m_s,true_airspeed_m_s,indicated_airspeed_m_s.1,equivalent_airspeed_m_s,true_airspeed_m_s.1,equivalent_ground_minus_wind_m_s,true_ground_minus_wind_m_s,differential_pressure_raw_pa,differential_pressure_filtered_pa,temperature,gyro_bias[0],gyro_bias[1],gyro_bias[2],accel_bias[0],accel_bias[1],accel_bias[2],instance_count,seq_reached,seq_current,seq_total,item_changed_index,item_do_jump_remaining,valid,warning,finished,failure,stay_in_failsafe,flight_termination,item_do_jump_changed,execution_mode,nav_roll,nav_pitch,nav_bearing,target_bearing,xtrack_error,wp_dist,acceptance_radius,rollspeed_integ,pitchspeed_integ,yawspeed_integ,additional_integ1,x,y,z,temperature.1,pressure,temperature.2,gyro_rad[0],gyro_rad[1],gyro_rad[2],accelerometer_m_s2[0],accelerometer_m_s2[1],accelerometer_m_s2[2],x.1,y.1,z.1,temperature.3,altitude_sp,altitude_filtered,height_rate_setpoint,height_rate,airspeed_sp,airspeed_filtered,airspeed_derivative_sp,airspeed_derivative,throttle_integ,pitch_integ,baro_alt_meter,baro_temp_celcius,baro_pressure_pa,rho,xyz[0],xyz[1],xyz[2],xyz[0].1,xyz[1].1,xyz[2].1,roll_body,pitch_body,yaw_body,q_d[0],q_d[1],q_d[2],q_d[3],thrust_body[0],lat,lon,alt,vel_m_s,vel_n_m_s,vel_e_m_s,vel_d_m_s,cog_rad,ground_contact,maybe_landed,landed,ref_lat,ref_lon,x.2,y.2,z.2,vx,vy,vz,ax,ay,az,yaw,dist_bottom,roll,pitch,yaw.1,thrust_body[0].1,timestamp.1,isTakeoff,isClimbing,isDescending,isCruise,isLand
10004000.0,0.021800047000000003,0.019315979,0.0006915539999999999,0.15,0.0,900.0,900.0,900.0,900.0,900.0,900.0,-0.235052,-0.23964378,-1.4272593999999998,-1.4272593999999998,-1.4551412,0.039223958,0.03999021,226.41554,226.41554,12.40448,-0.001297855,-0.005307485,-9.95e-05,0.026071498,-0.010134246,-0.11897202,2.0,-1.0,0.0,11.0,0.0,0.0,1.0,0.0,0.0,0.0,0.0,0.0,0.0,0.0,0.0,0.0,2.3211906000000004,2.3001368,-0.6490364000000001,264.34995,27.629995,3.38e-06,5.75e-06,0.0,7.209999999999999e-05,0.12460092,0.15711291,-10.039258,3344830000000000.0,966.16187,12.404602,0.000184627,-0.002096707,-0.002369215,-0.11027032,0.17501229,-9.901809,-0.003801759,0.007915367,0.012969807,3344830000000000.0,0.034319222,0.02231922,0.40060008,-0.25844285,10.195498,6.3063525999999985,0.07778291400000001,16.738129999999998,0.22825381,-19.703861,399.51263,12.404602,96617.48,1.1479754,0.24625652,0.5530996,-0.32534203,-0.00012432399999999998,0.002325163,-8.950000000000001e-05,0.0,0.0,1.6169292,0.6906097,0.0,0.0,0.7232276999999999,1.0,398714137.0,327364372.0,400119.0,0.0,0.01,0.01,-0.01,0.8457865,0.0,0.0,1.0,39.8714138,32.7364372,-0.003356722,-0.0068107540000000005,-0.06823142,-0.003920552,0.015361896000000003,-0.037032127000000005,0.002346249,0.050198488,-0.048724,1.6178726,0.1,0.029142719,0.027163425,0.000233937,1.0,10004000.0,1.0,0.0,0.0,0.0,0.0
10029886.0,0.023480699685370744,0.019445649841683368,0.00046072706613226456,0.15,0.0,900.0,900.0,900.0,900.0,900.0,900.0,0.2692799309619238,0.27454334763527044,-0.9533005040781564,-0.9532157807014028,-0.9718373204509019,0.4806005553547094,0.48998890736472944,228.8997621272545,228.8997621272545,12.4043657503006,-0.0012675805410821645,-0.005333332374749499,-2.4075150300601205e-05,0.02603338277955912,-0.010080050128256513,-0.11900111113226453,2.0,-1.0,0.0,11.0,0.0,0.0,1.0,0.0,0.0,0.0,0.0,0.0,0.0,0.0,0.0,-0.008811714659318636,2.3246732122444893,2.3010547106412824,-0.884984361492986,264.0687069328657,29.05076356042084,3.447234468937876e-06,6.856312625250501e-06,0.0,7.833446893787574e-05,0.08350862939879759,0.1672498930561122,-10.021792159719439,3344830000000000.0,966.1628062094188,12.404602,-0.005172666216432865,-0.00430537703006012,0.0009097764328657308,-0.1144352215230461,0.17914984970941883,-9.960019954699398,-0.004081119440881764,0.003892461008016032,0.009616392511022044,3344830000000000.0,0.02770930172945892,0.01570929972945892,0.40060008,-0.26464818318637273,10.547398204509017,6.996676193446893,0.07101444629458918,17.08860007234469,0.21464810778557114,-19.447457426252505,399.5723161773547,12.404602,96616.80499649298,1.1479674504408819,-0.14198195722444887,0.18641932775551107,0.3290898565731463,-0.0006044838496993988,0.004113400615230461,-0.004323766102204408,0.0,0.0,1.6169292,0.6906097,0.0,0.0,0.7232276999999999,1.0,398714137.1222445,327364372.0,400119.4562775551,0.0,0.008859230931863728,0.01,-0.007718461252505011,0.8793749782865732,0.0,0.0,0.9766466316432866,39.8714138,32.7364372,-0.003401384635270541,-0.006723549671342685,-0.06791714103206413,-0.0037963363186372745,0.015330035418837677,-0.03648643249098197,0.005012040683366734,0.03766568471342686,-0.054218015731462926,1.6177515253907815,0.10077692423847696,0.02952028393987976,0.02669050385771543,0.000233937,1.0,10029885.881763527,1.0,0.0,0.0,0.0,0.0
10053992.0,0.024041009795591185,0.019434641418837675,0.0002505746052104209,0.15,0.0,900.0,900.0,900.0,900.0,900.0,900.0,0.5101433354428858,0.5201124254448898,-0.4793416081563127,-0.47917216118036077,-0.48853344090180373,0.9219771527094188,0.9399876049519037,231.38398425450902,231.38398425450902,12.404251500601202,-0.001237305859719439,-0.005359179971943888,5.135859719438877e-05,0.025995267559118237,-0.010025854256513025,-0.11903020226452905,2.0,-1.0,0.0,11.0,0.0,0.0,1.0,0.0,0.0,0.0,0.0,0.0,0.0,0.0,0.0,-0.017623429318637272,2.328155824711423,2.301972621282565,-1.120932322985972,263.78746386573147,30.471532123066133,3.467755511022044e-06,7.328657314629258e-06,0.0,8.056492985971944e-05,0.04241633857515031,0.17738687611222445,-10.004326321663326,3344830000000000.0,966.1637424188377,12.404602,-0.0067548492104208425,-0.006113924314629258,0.00212432224248497,-0.10614647159519039,0.17264326728857718,-9.975296536937876,-0.004360480104208417,-0.00013044520641282507,0.006262977799599199,3344830000000000.0,0.021099381681362727,0.009099379681362726,0.40060008,-0.27085351637274546,10.899298409018035,7.686999786893788,0.06424597881162325,17.43907014246493,0.20104240557114228,-19.191053854729457,399.6121836272545,12.404602,96616.35006216433,1.1479620936993988,-0.36352594643286573,0.13823916488376745,0.7520612576352705,-0.0002432087555110223,0.005015143292585171,-0.005441874260521042,0.0,-0.012504983723446886,1.6169292,0.6902356493527054,0.0044992739999999976,-0.004296354210420839,0.7228359827795591,1.0,398714137.24448895,327364372.0,400119.9125773547,0.0,0.007718461641282565,0.01,-0.005436922727454911,0.9129634567955912,0.0,0.0,0.953293263509018,39.8714138,32.7364372,-0.003446047270541082,-0.00663634556513026,-0.06760286206412826,-0.003672120637274549,0.015298175060120241,-0.03594073798196393,0.007677832144288577,0.025132881204408822,-0.05971203146292585,1.617630450781563,0.1015538486993988,0.029844515048096192,-0.12827193922845684,0.000233937,1.0,10053992.204408817,1.0,0.0,0.0,0.0,0.0
10074988.0,0.022643243693386775,0.019177761128256515,7.655590781563128e-05,0.15,0.0,900.0,900.0,900.0,900.0,900.0,900.0,0.29053021616432867,0.2962049116673347,-0.005382712234469067,-0.005128541270541187,-0.00522956135270547,1.3633537500641282,1.3899863029278556,233.8682063817635,233.8682063817635,12.404137250901803,-0.0012070307895791583,-0.005385027957915832,0.00012680789579158316,0.025957152338677354,-0.009971658384769539,-0.1190592933967936,2.0,-1.0,0.0,11.0,0.0,0.0,1.0,0.0,0.0,0.0,0.0,0.0,0.0,0.0,0.0,-0.026435143977955912,2.3316384375671344,2.3028905319238477,-1.3568802844789578,263.5062207985972,31.8923006895992,3.406633266533066e-06,6.692985971943888e-06,0.0,7.579739478957915e-05,0.0013240473627254556,0.18752385916833667,-9.98686048749499,3344830000000000.0,966.1646786282565,12.404602,-0.001739091815631262,-0.007223157971943887,-0.00026926213627254504,-0.07609188039278557,0.14753340943286575,-9.915534666406813,-0.004639841156312626,-0.004153351809619238,0.0029095626993987976,3344830000000000.0,0.014489462022044089,0.0024894600220440894,0.40060008,-0.2770588495591182,11.251198613527054,8.37732338034068,0.05747751171743486,17.789540208697396,0.18743670335671342,-18.934650287094186,399.61741294088176,12.404602,96616.27975324649,1.1479612685490983,-0.2937300196492986,0.6467168508256513,0.7704981164529058,0.0015886823667334673,0.004367516438877755,-0.0011137243907815633,0.0,-0.046865524585170334,1.6169292,0.6892078525290581,0.016862144,-0.016101651815631262,0.7217596426693388,1.0,398714137.36673343,327364372.0,400120.3689160321,0.0,0.006577691961923848,0.01,-0.003155384591182365,0.9465519356933868,0.0,0.0,0.9299398957635271,39.8714138,32.7364372,-0.0034907099058116235,-0.006549141847695391,-0.06728858309619239,-0.003547904955911824,0.01526631509018036,-0.03539504347294589,0.010343623216432864,0.012600077306613229,-0.06520604719438879,1.6175093761723447,0.1023307735490982,0.03007553207214429,-0.5532430963426853,0.000233937,1.0,10074988.306613227,1.0,0.0,0.0,0.0,0.0
10095984.0,0.021398974797595192,0.01925129780761523,9.666931462925848e-05,0.15,0.0,900.0,900.0,900.0,900.0,900.0,900.0,0.38574491851703396,0.3932796525591181,0.4685761832424848,0.4689150781943886,0.4780743181963927,1.8047303469739477,1.8399850004589178,236.35242850901804,236.35242850901804,12.404023001202404,-0.0011767561643286574,-0.0054108754989979965,0.00020224829659318635,0.02591903711823647,-0.00991746251302605,-0.11908838452905812,2.0,-1.0,0.0,11.0,0.0,0.0,1.0,0.0,0.0,0.0,0.0,0.0,0.0,0.0,0.0,-0.035246858637274545,2.335121049977956,2.3038084425651304,-1.5928282459719438,263.2249777759519,33.313069251683366,3.2253907815631265e-06,5.567935871743488e-06,0.0,4.445214428857717e-05,-0.027795851028056102,0.19212970466132265,-9.972225167563128,3344830000000000.0,966.1653197422846,12.404602,0.0005173230300601198,-0.007870849180360722,-0.00041899552905811646,-0.061027806713426856,0.20183615389378753,-9.916727244228458,-0.0042458824368737475,-0.0064730655150300595,0.0006299162204408827,3344830000000000.0,0.007879541917835674,-0.004120460082164326,0.40060008,-0.283264182745491,11.603098818036072,9.067646974232465,0.05070904417835671,18.140010279378757,0.17383100114228456,-18.67824671501002,399.6240198112224,12.404602,96616.19062104209,1.1479601831382766,-0.26030571111422846,0.4205135390200403,0.4814428962805613,0.0018277853286573149,0.005402391993987976,-0.0018603236833667327,0.0,-0.18058515243687367,1.6169292,0.6853548343226453,0.0649917405290581,-0.062060573677354694,0.7177246400460923,1.0,398714137.48897797,327364372.0,400120.8252102204,0.0,0.005436922727454911,0.01,-0.0008738460100200412,0.9801404141462926,0.0,0.0,0.9065865275731463,39.8714138,32.7364372,-0.0035276924088176354,-0.0064401612204408815,-0.06689063682164328,-0.0035460130541082164,0.015338935705410821,-0.03485679330460922,0.010027954733466935,0.004235266907815634,-0.06093423042885772,1.6174003625250502,0.10276226595390782,0.029531047929859718,-0.6534587746753507,0.000233937,1.0,10095984.408817636,1.0,0.0,0.0,0.0,0.0
10117429.0,0.020503049623246495,0.01940984418236473,0.00016868583967935877,0.15,0.0,900.0,900.0,900.0,900.0,900.0,900.0,0.6071854986513023,0.6190479146773544,0.942535078609218,0.942958697549098,0.9613781977454907,2.246106943773547,2.289983697879759,238.83665063627254,238.83665063627254,12.403908751503007,-0.0011464817054108217,-0.005436722929859719,0.00027768542685370734,0.025880921897795593,-0.009863266641282564,-0.11911747566132265,2.0,-1.0,0.0,11.0,0.0,0.0,1.0,0.0,0.0,0.0,0.0,0.0,0.0,0.0,0.0,-0.04405857324048096,2.338603662278557,2.3047263532064126,-1.8287762074649299,262.94373476432867,34.733837812104206,3.340400801603204e-06,-1.8999943887775393e-05,0.0,-3.02225250500995e-06,-0.049856806010020044,0.19347438193386773,-9.959258724092185,3344830000000000.0,966.1657868741484,12.404602,0.0013843934709418854,-0.008034857509018037,0.0002526907515030057,-0.05423267724649297,0.27530040538877754,-9.935398753689379,-0.003454931350701404,-0.0077885739058116245,-0.001016633851703407,3344830000000000.0,0.0012696216472945932,-0.010730380352705406,0.40060008,-0.28946951593186376,11.95499902254509,9.757970567953908,0.043940576529058126,18.490480351162326,0.16022529892785572,-18.421843141262524,399.63240816132264,12.404602,96616.08122396794,1.1479588471803608,-0.24679615087775547,-0.03444067177955912,0.09565995093787588,0.0014408504749499002,0.006823107282565131,-0.0039287646993988,0.0,-0.33447147003607214,1.6169292,0.6809684245591182,0.12038541016633267,-0.1149559544248497,0.7131310538456914,1.0,398714137.60561126,327364372.0,400121.2814933867,0.0,0.004296153659318638,0.01,0.001407692681362724,1.013728892488978,0.0,0.0,0.8832331592725451,39.8714138,32.7364372,-0.003560156336673347,-0.006318368779559118,-0.06644346702605211,-0.003616087170340681,0.015473024773547095,-0.03432292277354709,0.007958221691382772,-0.0016774125050100217,-0.050916938953907837,1.6172984445370742,0.10299053218036072,0.02850371476753507,-0.6306911791162325,0.000233937,1.0,10117429.352705412,1.0,0.0,0.0,0.0,0.0
10143315.0,0.02248550194789579,0.019187272418837675,3.613980761523047e-05,0.15,0.0,900.0,900.0,900.0,900.0,900.0,900.0,0.912913028781563,0.9307518874128256,1.416493974531062,1.4170023174589177,1.4446820772945892,2.6874835411282567,2.7399823958557112,241.32087276352706,241.32087276352706,12.403794501803606,-0.0011162072464929859,-0.005462570915831663,0.0003531231122244489,0.025842806677354713,-0.009809070769539078,-0.11914656679358718,2.0,-1.0,0.0,11.0,0.0,0.0,1.0,0.0,0.0,0.0,0.0,0.0,0.0,0.0,0.0,-0.05287028728857716,2.3420862751342684,2.3056442638476953,-2.0647241689579157,262.6624916971944,36.15460637252505,6.830480961923846e-06,-0.0002736743326653306,0.0,-0.00011175750300601199,-0.04636670201202405,0.1830147003206413,-9.952333068310622,3344830000000000.0,966.165624288978,12.404602,-0.0012871944348697394,-0.005120958410821644,0.0007512759018036072,-0.07379589189579158,0.24460483926653306,-9.901535787627255,-0.0012269864208416838,-0.005469189486973948,-0.00037157902204408826,3344830000000000.0,-0.005340298623246492,-0.017340300623246492,0.40060008,-0.2956748491182365,12.306899227054108,10.448294158344689,0.03717210943486974,18.84095041739479,0.14661959671342686,-18.16543956751503,399.65332529358716,12.404602,96615.84097076152,1.1479559952164329,-0.2957733436533066,-0.03504432973547094,-0.10972150527454907,0.0007518279699398799,0.005837840539078157,-0.00030411963927855744,0.0,-0.3203664186432866,1.6169292,0.6817548404709419,0.1153518117995992,-0.11014937690981964,0.7139546284148297,1.0,398714137.66673344,327364372.0,400121.7378320641,0.0,0.003155384591182365,0.01,0.00368923081763527,1.0473173713867736,0.0,0.0,0.8598797915270542,39.8714138,32.7364372,-0.003576325004008016,-0.006150376735470942,-0.06581879463126253,-0.003945674204408817,0.015828772128256514,-0.03380484512825652,-0.00043675417034068006,0.0012524119939879752,-0.020181184344689386,1.617222113244489,0.10248595521643286,0.025567956521042084,-0.592434485739479,0.000233937,1.0,10143314.623246493,1.0,0.0,0.0,0.0,0.0
10168086.0,0.022932558601202406,0.01919695043486974,-7.753732264529048e-05,0.15,0.0,900.0,900.0,900.0,900.0,900.0,900.0,0.47156891290581315,0.48078545724248667,1.890452870452905,1.8910459370901798,1.9279859568436868,3.1288601384829655,3.1899810935531057,243.80509489078156,243.80509489078156,12.403680252104209,-0.001085932509018036,-0.005488418623246493,0.00042856051903807606,0.02580469145691383,-0.009754874897795592,-0.1191756579258517,2.0,-1.0,0.0,11.0,0.0,0.0,1.0,0.0,0.0,0.0,0.0,0.0,0.0,0.0,0.0,-0.06168200161523045,2.3455688877114227,2.306562174488978,-2.3006721304509017,262.3812486300601,37.57537493573146,9.306613226452905e-06,-0.0007403437775551094,0.0,-0.00025804475951903786,-0.04287659801402806,0.17255501870741485,-9.945407412807615,3344830000000000.0,966.165461675952,12.404602,-0.002679847797595191,-0.004736469054108213,0.0006993179859719448,-0.07656673103406815,0.22057720927454913,-9.91165526340481,0.0010009390100200375,-0.0031498050681362747,0.0002734694008016024,3344830000000000.0,-0.011950218615230452,-0.02395022061523045,0.40060008,-0.30188018258316635,12.658799431563125,11.138617751242485,0.030403642062124255,19.191420486412824,0.13301389477755513,-17.909035996553108,399.68587026332665,12.404602,96615.47564541083,1.1479516769278557,-0.2804784567935873,0.06927155525250472,-0.10777806219438908,0.00023937418436873785,0.004405456478957918,0.0012838990921843698,0.0,-0.30688329726252506,1.6169292,0.6824853583266534,0.11053663703006013,-0.10555137042685372,0.7147196313366734,1.0,398714137.75571144,327364372.0,400122.19414288574,0.0,0.0020146155230460934,0.01,0.005970769232464927,1.080905850006012,0.0,0.0,0.8365264235030061,39.8714138,32.7364372,-0.0035924939498998,-0.00598238496993988,-0.06519412223647295,-0.004275261517034067,0.016184519761523044,-0.03328676748296593,-0.008831730310621233,0.004182236492985969,0.010554570264529023,1.617145782230461,0.10198137825250501,0.021583881444889784,-0.5618165014288578,0.000233937,1.0,10168085.943887776,1.0,0.0,0.0,0.0,0.0
10191527.0,0.021545977258517035,0.019483991496993987,-0.0001686803687374749,0.15,0.0,900.0,900.0,900.0,900.0,900.0,900.0,-0.8619614852505,-0.8788017418657303,2.364411766374749,2.3650895563887775,2.4112898363927853,3.570236735837675,3.6399797909178355,246.28931701803606,246.28931701803606,12.40356600240481,-0.0010556574388777555,-0.005514265997995992,0.0005039975931863727,0.025766576236472945,-0.009700679026052105,-0.11920474905811623,2.0,-1.0,0.0,11.0,0.0,0.0,1.0,0.0,0.0,0.0,0.0,0.0,0.0,0.0,0.0,-0.07049371627454909,2.3490514999559116,2.30748008513026,-2.5366200919438877,262.1000055629258,38.99614350226453,1.0571843687374752e-05,-0.0014601871743486969,0.0,-0.0004491782965931862,-0.039386494016032066,0.16209533709418839,-9.938481757637273,3344830000000000.0,966.1652990296593,12.404602,-0.002545140482965932,-0.007372713633266531,-1.01230160320636e-05,-0.05928336632464931,0.20451272602805615,-9.97430053303407,0.0032288411543086155,-0.0008304206492985989,0.0009185101723446887,3344830000000000.0,-0.018560138274549092,-0.03056014027454909,0.40060008,-0.30808551638076154,13.010699636072143,11.828941347134268,0.02363517435671343,19.541890558757515,0.11940819317434871,-17.652632428917833,399.73230171523045,12.404602,96614.96095332666,1.147945607488978,-0.18842698562124255,0.298887038288577,0.14176202320641268,-6.221336072144266e-05,0.0024391049759519053,0.0004396878196392792,0.0,-0.29414291244288576,1.6169292,0.6831491202304609,0.10598231346292586,-0.1012024487735471,0.7154146853847695,1.0,398714137.8779559,327364372.0,400122.6504204409,0.0,0.0008738464549098205,0.01,0.008252307979959917,1.1144943282925852,0.0,0.0,0.8131730551462927,39.8714138,32.7364372,-0.003608663228456914,-0.005814393537074148,-0.06456944984168338,-0.004604849162324649,0.01654026772745491,-0.03276868983767535,-0.01722670678356713,0.007112060991983967,0.04129032487374747,1.6170694515490982,0.10147680128857715,0.016347859651302605,-0.5403210042044089,0.000233937,1.0,10191526.935871743,1.0,0.0,0.0,0.0,0.0
10212964.0,0.021809657438877757,0.01961189778957916,-0.0001827091863727455,0.15,0.0,900.0,900.0,900.0,900.0,900.0,900.0,0.17958149384769495,0.183093695799599,2.838370662296593,2.8391331761883767,2.8945937159418835,4.0116133331923844,4.089978488783567,248.77353914529058,248.77353914529058,12.403451752705411,-0.001025382869739479,-0.005540113873747495,0.0005794346673346693,0.025728461016032062,-0.009646483154308619,-0.11923384019038076,2.0,-1.0,0.0,11.0,0.0,0.0,1.0,0.0,0.0,0.0,0.0,0.0,0.0,0.0,0.0,-0.07930543093386773,2.352534112701403,2.308397995270541,-2.7725680534368737,261.81876249579153,40.41691206378758,-1.8809218436873735e-05,-0.0020877204509018037,0.0,-0.0007614641382765531,7.496254552867734,0.16757876369739477,-9.848704371004008,3344830000000000.0,966.1631833272545,12.404602,-0.0002753690400801611,-0.009407675647294588,-3.9580551102204436e-05,-0.08579212185571142,0.18272265660921844,-9.975171917893787,0.0022214948016032066,-0.0007470848276553106,0.0004748445310621244,3344830000000000.0,-0.024253794907815634,-0.036253796907815626,0.40060008,-0.31221654807414834,13.164270752404809,12.501336967074147,0.013258684106212427,19.61674489963928,0.11347037934669339,-17.46663699254509,399.65457159398795,12.404602,96615.86398168337,1.1479563110961923,0.04329718645290573,0.19604040559318642,0.03578760510020046,0.0008534515991983965,0.0016294809278557115,0.0013068011963927853,0.0,-0.2823262560801603,1.6169292,0.6837304803306614,0.10175290823246493,-0.09716379365330662,0.716023526507014,1.0,398714137.9501002,327364372.0,400122.80659779557,0.0,0.0003333975270541083,0.009399679358717435,0.008732884803607215,1.1156756833326653,0.0,0.0,0.7898196872905812,39.8714138,32.7364372,-0.0036365925270541084,-0.005565466733466935,-0.06396511862925852,-0.004725380695390782,0.01700844004208417,-0.03246740527855711,-0.025315233857715426,0.009941869458917835,0.049987066957915834,1.6170229089438877,0.10131840969539078,0.010641452086172344,-0.5086909343346694,0.000233937,1.0,10212963.91983968,1.0,0.0,0.0,0.0,0.0
10234409.0,0.022195911515030062,0.01966402250501002,-0.0001562609539078158,0.15,0.0,900.0,900.0,900.0,900.0,900.0,900.0,1.5015393344028054,1.5308820067655309,3.312329558106212,3.3131767959859713,3.3778975954909813,4.452989930547094,4.5399771866472935,251.25776126132263,251.25776126132263,12.403337503006012,-0.0009951084108216434,-0.00556596174749499,0.0006548717414829659,0.02569034590781563,-0.00959228728256513,-0.11926293132264529,2.0,-1.0,0.0,11.0,0.0,0.0,1.0,0.0,0.0,0.0,0.0,0.0,0.0,0.0,0.0,-0.08811714559318636,2.35601672544489,2.3093159054128254,-3.0085160149298598,261.53751942865733,41.837680624208424,-6.047074148296585e-05,-0.0026657012685370736,0.0,-0.0011111149739478953,17.288274442825635,0.17783820877755507,-9.734107394887776,3344830000000000.0,966.1604825553106,12.404602,0.0012868648717434916,-0.009822309693386782,0.00014028872945891728,-0.11076430154709423,0.16896512217635268,-9.954098250653306,0.00024497558316633665,-0.0013335940541082149,-0.00029496605210420693,3344830000000000.0,-0.02965261022044088,-0.041652612332665324,0.40060008,-0.3156800970320641,13.254022204408818,13.167963602164328,0.001721180222444906,19.602909761482966,0.10999999,-17.303297957955916,399.5809731250501,12.404602,96616.7154517034,1.1479663990581161,0.2548646185210421,0.03976145647094197,-0.14339592929258496,0.0019825878456913816,0.0013827444068136257,0.002367346933867735,0.0,-0.2708655960581163,1.6169292,0.6842805267835672,0.09764885030260521,-0.09324483322645291,0.7165995812424849,1.0,398714138.0,327364372.0,400122.8592476954,0.0,0.0,0.008592307318637277,0.008592307318637277,1.105679772741483,0.0,0.0,0.7664663194328657,39.8714138,32.7364372,-0.0036680314028056113,-0.00529238617234469,-0.06336685785971945,-0.004783523330661323,0.01751016341282565,-0.0322308185490982,-0.03331230661723446,0.012741829909819636,0.05210666654308618,1.6169852560040079,0.10126333069138277,0.004220214496994,-0.4753428377855713,0.000233937,1.0,10234408.91983968,1.0,0.0,0.0,0.0,0.0
10257850.0,0.021512872266533065,0.01953485775551102,-2.5268649298597313e-05,0.15,0.0,900.0,900.0,900.0,900.0,900.0,900.0,1.747011119543086,1.7811436500420839,3.786288453416833,3.7872204152845685,3.86120147504008,4.894366527901804,4.989975884012023,253.7419833274549,253.7419833274549,12.403223253306614,-0.0009648339519038076,-0.005591809122244489,0.0007303088156312624,0.025652231298597193,-0.009538091410821644,-0.11929202245490982,2.0,-1.0,0.0,11.0,0.0,0.0,1.0,0.0,0.0,0.0,0.0,0.0,0.0,0.0,0.0,-0.096928860252505,2.3594993376893787,2.310233816054108,-3.2444639764228453,261.2562763615231,43.25844918462926,-0.00012675781563126245,-0.003113649695390781,0.0,-0.001508393671342685,29.745064034108204,0.1937381026553106,-9.590198634276552,3344830000000000.0,966.1570908208416,12.404602,-0.002385466541082162,-0.003620454362725456,0.0005857452024048093,-0.08606612890180362,0.19652453099398795,-9.895875573318637,-0.0028761352585170317,-0.002711186759519037,-0.0014499686573146283,3344830000000000.0,-0.034636736242484964,-0.04663673896593186,0.40060008,-0.3182048436352706,13.2540124248497,13.826476260380762,-0.011449268655310612,19.46433443563126,0.10999999,-17.171824755751505,399.6472023775551,12.404602,96615.95083687374,1.1479573419639277,0.2401767145731463,-0.028881279981963874,-0.30032920392184353,0.0028701751302605202,0.002507319747494989,0.002613933627254509,0.0,-0.2600842439639279,1.6169292,0.6847719459619238,0.09378430043286573,-0.08955457954909819,0.7171141883667335,1.0,398714138.0,327364372.0,400122.7451324649,0.0,0.0,0.007451538250501003,0.007451538250501003,1.0776860598156313,0.0,0.0,0.7431129510761524,39.8714138,32.7364372,-0.0037035715430861725,-0.004991079789579159,-0.06277569084569139,-0.004768759863727455,0.018051094054108215,-0.032069836004008014,-0.04120250747895791,0.0155069104008016,0.04654034869739479,1.6169579912044088,0.10132898026052105,-0.004919325653306605,-0.4442694420641283,0.000233937,1.0,10257849.911823647,1.0,0.0,0.0,0.0,0.0
10282630.0,0.02142006456513026,0.01942155934468938,-0.00016338998396793573,0.43446893787575125,0.0,900.0,900.0,900.0,900.0,900.0,900.0,0.8339937722344697,0.8502856983687381,4.260247349062124,4.2612640349178355,4.344505354589178,5.335743124921843,5.4399745817114225,256.22620542705414,256.22620542705414,12.403109003607215,-0.0009345591583166333,-0.005617656496993988,0.0008057458897795591,0.025614116354709417,-0.009483895539078156,-0.11932111358717434,2.0,-1.0,0.0,11.0,0.0,0.0,1.0,0.0,0.0,0.0,0.0,0.0,0.0,0.0,0.0,-0.10574057491182365,2.362981949933868,2.3111517266953907,-3.4804119379158314,260.9750333278557,44.679217745050096,-0.0002097592805611222,-0.0035432087114228455,0.0,-0.0019393829418837673,41.32894838372745,0.2060721117975952,-9.458247388254508,3344830000000000.0,966.1541448659318,12.404602,-0.0023556616332665345,-0.0017357869819639273,-7.457326252504953e-05,-0.08049464664328657,0.18747293409218438,-9.883787652669339,-0.005709795258517033,-0.003972830595190381,-0.002523426066132264,3344830000000000.0,-0.03962086226452905,-0.051620865599198394,0.40060008,-0.32072959023847697,13.254002645290582,14.484988921943888,-0.024619717533066125,19.325759113126253,0.10999999,-17.040351550200402,399.6525526669339,12.404602,96615.8788637475,1.1479565083647294,0.24028867123847694,-0.052562274442885776,-0.18712790535470955,0.0029794614248496998,0.003777603424849699,0.00208227321242485,0.0,-0.2497519110280561,1.6169292,0.6852258892024048,0.09007840759118237,-0.08601582499198396,0.7175895735831664,1.0,398714138.0,327364372.0,400122.63105070137,0.0,0.0,0.00631076918236473,0.00631076918236473,1.0496923468897796,0.0,0.0,0.7197595830541083,39.8714138,32.7364372,-0.0037375206653306615,-0.004686467877755511,-0.062201658232464936,-0.004758776478957916,0.019172196082164326,-0.03185222439478958,-0.05358014392184368,0.14173284057515023,0.044286015012024046,1.6169320828196394,0.10137009890180361,-0.013057421689378755,-0.4230707486452906,0.000233937,1.0,10282629.581162324,1.0,0.0,0.0,0.0,0.0
10308515.0,0.02181499311222445,0.01932137204008016,-0.0005238926492985966,0.9540080160320634,0.0,900.0,900.0,900.0,900.0,900.0,900.0,-1.0363379479959896,-1.0565872479338647,4.734206244983967,4.735307654827655,4.827809234138276,5.77711972166533,5.889973279687374,258.71042755430864,258.71042755430864,12.402994753907816,-0.0009042840881763527,-0.005643503871743487,0.0008811829639278558,0.025576001134268538,-0.00942969966733467,-0.11935020471943888,2.0,-1.0,0.0,11.0,0.0,0.0,1.0,0.0,0.0,0.0,0.0,0.0,0.0,0.0,0.0,-0.11455228957114227,2.366464562178357,2.3120696373366734,-3.7163598994088174,260.69379032184366,46.099986305470935,-0.00030657263727454896,-0.003957571687374748,0.0,-0.0023982288537074143,52.19150983903806,0.2154594616973948,-9.336177202192385,3344830000000000.0,966.1515672797595,12.404602,0.0007333936472945848,-0.0034186162304609196,-0.0016486458677354686,-0.09072845344689379,0.1481679312665331,-9.909823063891784,-0.008305921030060115,-0.0051386603947895775,-0.0035294988216432854,3344830000000000.0,-0.04460498828657314,-0.05660499223246492,0.40060008,-0.32325433684168337,13.253992865731465,15.143501586272544,-0.03779016641082163,19.187183793386772,0.10999999,-16.908878341883767,399.60759578917833,12.404602,96616.37925322646,1.1479624702284568,0.25263045284168334,-0.03908925456312627,0.14929836986573103,0.002445600793587175,0.005168292793587173,0.0009075103967935887,0.0,-0.23979062386372746,1.6169292,0.6856488643026052,0.08650362055711425,-0.0826022613246493,0.7180325478817635,1.0,398714138.0,327364372.0,400122.51699659316,0.0,0.0,0.005170000114228458,0.005170000114228458,1.021698633963928,0.0,0.0,0.6964062153086172,39.8714138,32.7364372,-0.0037701550541082165,-0.0043791244509018045,-0.06164178458517034,-0.004752743102204409,0.020772721172344688,-0.03158781751102205,-0.06966596066533064,0.3699803112064125,0.04476853051302605,1.616907295304609,0.1013909464769539,-0.02036797708016031,-0.41003198886573144,0.000233937,1.0,10308515.462925851,1.0,0.0,0.0,0.0,0.0
10334401.0,0.021600406380761526,0.019427149308617237,0.0008015175791583131,1.0,0.0,1234.2685370741474,1234.2685370741474,1512.8256513026035,1227.6212807454901,1240.3586791743478,1239.2825651302596,0.3978053590761481,0.4055767547214386,5.208165140905811,5.209351274180359,5.311113113687374,6.218496318965931,6.339971977106211,261.19464968156313,261.19464968156313,12.402880498637275,-0.0008740095751503007,-0.005669351803607213,0.0009566200380761523,0.025537885913827656,-0.009375503795591184,-0.11937929585170341,2.0,-1.0,0.0,11.0,0.0,0.0,1.0,0.0,0.0,0.0,0.0,0.0,0.0,0.0,0.0,-0.1233640042304609,2.36994717497996,2.312987547977956,-3.9523078609018034,260.4125472601202,47.52075487146292,-0.000407325905811623,-0.004311166871743486,0.0,-0.0028478160841683355,50.90673001595191,0.17522399098797606,-9.380507678322644,3344830000000000.0,966.1551928819639,12.404602,-0.00027442815831662994,-0.00564061394388777,7.128514228456448e-05,-0.07709261923647298,0.11993375196793593,-9.89787156456513,-0.006901884745490985,-0.004690949781563127,-0.0034008730721442892,3344830000000000.0,-0.04958911430861722,-0.06158911830861722,0.40060008,-0.325779084002004,13.253983086172346,15.802014245030058,-0.05096061584569136,19.048608468076154,0.10999999,-16.777405139138278,399.57438538637274,12.404602,96616.77030346694,1.1479670816472944,0.1192611222404813,-0.11326177825851685,0.4051910094909814,0.0013979348797595215,0.0022614141462925933,-7.085628256512798e-05,0.0,-0.2303492217695391,1.6169292,0.6860276201322645,0.0831126266212425,-0.07936420089579159,0.7184291808617235,1.0,398714138.0,327364372.0,400122.40294248494,0.0,0.0,0.004029231046092187,0.004029231046092187,0.9937049215951904,0.0,0.0,0.6730528470060121,39.8714138,32.7364372,-0.00378157174749499,-0.0040277049318637285,-0.061310367883767536,-0.004810443593186373,0.03010875726853705,-0.030568369869739483,-0.14558339702805592,2.244349090470937,0.08941021005811611,1.6169005883747494,0.10108471563126252,-0.029060673260521024,-0.3889167084609219,0.000233937,1.0,10334401.344689379,1.0,0.0,0.0,0.0,0.0
10359614.0,0.02154462888777555,0.019469692222444893,0.0021421163266533046,1.0,0.0,1500.1683366733466,1500.0,2000.0,1488.2124379759518,1510.7875620240482,1509.0,1.6720969511182364,1.704767525002004,5.682124036827655,5.683394893647293,5.794416993236472,6.659872916320641,6.789970674639278,263.67887180881763,263.67887180881763,12.402766244509017,-0.000843735116232465,-0.005695199621242484,0.0010320571122244488,0.025499770693386773,-0.009321307923847695,-0.11940838698396794,2.0,-1.0,0.0,11.0,0.0,0.0,1.0,0.0,0.0,0.0,0.0,0.0,0.0,0.0,0.0,-0.13217571888977955,2.3734297876673347,2.3139054586192387,-4.188255822394789,260.13130419298597,48.94152343631262,-0.0005119635671342683,-0.004668141054108216,0.0,-0.003284030511022043,48.44217244280562,0.1301690377014029,-9.440999369845692,3344830000000000.0,966.1594209352705,12.404602,-0.001182057388777556,-0.007800567424849696,0.0016274781603206408,8.046856484579104,0.11606061379559107,-9.800691255583166,-0.0051093435130260545,-0.004086528408817636,-0.003162042791583167,3344830000000000.0,-0.05457324033066131,-0.06657324449899799,0.40060008,-0.3283038310480962,13.253973306613227,16.460526903246492,-0.06413106516633266,18.91003314222445,0.10999999,-16.64593193693387,399.5800089008016,12.404602,96616.7133553507,1.1479663808416833,-0.0011568356933866816,-0.17061245977755513,0.6036328216993987,0.0006849863486973943,0.0007810053907815566,-0.0011805994188376725,0.0,-0.221108559492986,1.6169292,0.6863897994408817,0.07979270761523047,-0.0761940094488978,0.7188084545010021,1.0,398714138.0,327364372.0,400122.28887154313,0.0,0.0,0.0028884618096192407,0.0028884618096192407,0.9657112091122245,0.0,0.0,0.6496994788176353,39.8714138,32.7364372,-0.003790927729458918,-0.0036720044729458925,-0.06100113961523046,-0.004874334064128257,0.04019608400200399,-0.02947559093186373,-0.22731181803005995,4.27859296086172,0.138340729276553,1.6168956374729457,0.10074671817635271,-0.03774525020841682,-0.3705898734428858,0.000233937,1.0,10359613.879759518,1.0,0.0,0.0,0.0,0.0
10383055.0,0.022062416813627254,0.01929323963727455,0.0030918838817635256,1.0,0.0,1500.7795591182364,1500.0,2000.0,1488.7353821743486,1510.2646178256514,1509.0,1.6814531133927857,1.714313171735471,6.156082932749498,6.157438513557113,6.2777208727855704,7.10124951367535,7.23996937261523,266.16309393607213,266.16309393607213,12.40265199480962,-0.0008134606573146293,-0.005721046995991984,0.0011074941863727452,0.025461655472945894,-0.009267112052104209,-0.11943747811623247,2.0,-1.0,0.0,11.0,0.0,0.0,1.0,0.0,0.0,0.0,0.0,0.0,0.0,0.0,0.0,-0.1409874335490982,2.3769123999118236,2.3148233692605213,-4.4242037838877755,259.8500611258517,50.36229199673347,-0.000625814138276553,-0.005049532857715431,0.0,-0.0036874275450901797,45.97761486965933,0.08511408441482972,-9.501491061368737,3344830000000000.0,966.1636489442886,12.404602,-0.0007792336813627261,-0.009659514919839678,0.0019111868376753501,37.50255432555106,0.17345135198196385,-9.488984580022045,-0.003316802280561125,-0.003482107036072145,-0.0029232125110220442,3344830000000000.0,-0.05955736635270541,-0.07155737113226453,0.40060008,-0.3308285776513026,13.253963527054108,17.119039561462923,-0.07730151404408817,18.771457816372745,0.10999999,-16.51445873472946,399.6848010941884,12.404602,96615.50568370741,1.1479520488977955,-0.05026764047294583,-0.16131012236272546,0.6715025316793587,0.0009839529719438873,0.004151703416833663,-0.0026861717134268517,0.0,-0.21226319092585172,1.6169292,0.6867196658036073,0.07661281978957916,-0.07315753274549099,0.7191538978677355,1.0,398714138.0,327364372.0,400122.1747563126,0.0,0.0,0.0017476921302605225,0.0017476921302605225,0.9377174961863728,0.0,0.0,0.6263461110721443,39.8714138,32.7364372,-0.0038002837114228458,-0.003316303571142285,-0.06069191178957916,-0.004938224535070141,0.05028341073547093,-0.02838281199398798,-0.309040239032064,6.312836831252502,0.18727124849498988,1.6168906865711423,0.10040872072144288,-0.046055295488977945,-0.3616630515390782,0.000233937,1.0,10383054.871743487,1.0,0.0,0.0,0.0,0.0
10406496.0,0.0215863221743487,0.019282726971943887,0.002054173531062126,1.0,0.0,1500.2184368737476,1500.0,2000.0,1488.5955846793586,1510.4044153206414,1509.0,2.568508103763526,2.618706506164327,6.63004182828056,6.631482133076152,6.761024752334668,7.54262611103006,7.6899680702004005,268.6473160633267,268.6473160633267,12.402537745110221,-0.0007831861983967936,-0.005746894761523047,0.001182931651302605,0.02542354025250501,-0.009212915789579158,-0.119466569248497,2.0,-1.0,0.0,11.0,0.0,0.0,1.0,0.0,0.0,0.0,0.0,0.0,0.0,0.0,0.0,-0.14979914820841683,2.380395012547094,2.3157412799018036,-4.6601517453807615,259.5688180587174,51.78306055715431,-0.0007450078657314629,-0.005437276424849699,0.0,-0.004034761883767534,43.61249465472946,0.0700985208276553,-9.541494565577153,3108457955911824.0,966.1647888410822,12.404602,-0.0025101722685370712,-0.008412408627254512,0.001016069322645292,49.64748685398797,0.19516299565931863,-9.345993854851704,-0.0024788462284569142,-0.00308274398997996,-0.0030650261382765527,3108457955911824.0,-0.06442065607214428,-0.07642066107214429,0.40060008,-0.33204028999599194,13.253957667034067,17.748584219378756,-0.08989252452505009,18.57547064913828,0.10999999,-16.512191493046092,399.6549922124249,12.404602,96615.84462388777,1.147956069228457,-0.22057669052304585,0.04943655785771511,0.494031372651303,0.002069311609218435,0.00531062625250501,-0.0007509760420841721,0.0,-0.20370125466332667,1.6169292,0.687025672216433,0.07353336360721444,-0.07021696399799598,0.7194743839699399,1.0,398714138.0,327364372.7034068,400122.1228144289,0.10958534383767518,0.00020715565130260488,0.10998511102805594,0.0012283897955911824,0.9287487956953907,0.0,0.0,0.6029927429358718,39.8714138,32.7364372,-0.004626052719438877,0.014937126098196363,-0.06006066158917836,-0.021407602561122223,0.4122700282304604,-0.018631406242484987,-0.4977331261062122,10.473402562164324,0.29251570673146277,1.6168780681442885,0.10017473603206413,-0.05494118553907815,-0.34802814768136275,0.000233937,1.0,10406495.863727454,1.0,0.0,0.0,0.0,0.0
10429929.0,0.020558494106212424,0.019365753983967934,-9.287540280561201e-05,1.0,0.0,1499.0021868096192,1500.0,2000.0,1488.0834494308617,1510.9165505691383,1509.0,3.9497573220501,4.026949671519037,7.104000723593186,7.105525752376753,7.244328631883767,7.98400270838477,8.139966767567135,271.1315381905812,271.1315381905812,12.40242349541082,-0.0007529117374749499,-0.005772742745490983,0.0012583693346693385,0.02538542503206413,-0.009158719308617233,-0.11949566038076152,2.0,-1.0,0.0,11.0,0.0,0.0,1.0,0.0,0.0,0.0,0.0,0.0,0.0,0.0,0.0,-0.15861086286573145,2.383877625400802,2.316659190543086,-4.8960997068737475,259.28757499158314,53.20382911759519,-0.0008672266272545089,-0.005828529973947896,0.0,-0.004350079264529058,41.30402913975952,0.07219797960921841,-9.569824870442885,2737412324649299.0,966.1641692771543,12.404602,-0.005440738893787574,-0.005420420290581164,-0.0005380282084168338,52.00921797751503,0.19677383826653308,-9.298488270176353,-0.0021847676252505005,-0.0028002134689378757,-0.0034237126432865726,2737412324649299.0,-0.06921474952104208,-0.08121475452104208,0.40060008,-0.33250010019639276,13.253954051482966,18.361540504549097,-0.10215172265931864,18.346606893446893,0.10999999,-16.583913363747495,399.5496397006012,12.404602,96617.05163711423,1.1479703902264529,-0.4574992202665332,0.37177640507214443,0.17892037335671346,0.003584787186372747,0.005221695064128257,0.0030985508356713453,0.0,-0.19530035455511022,1.6169292,0.6873181214769539,0.07051096943486974,-0.06733088701402805,0.7197806891783567,1.0,398714138.0,327364373.8126253,400122.10674809624,0.282404665086172,0.0005338462264529052,0.28133697263126217,0.0010676924549098184,0.9307580888276552,0.0,0.0,0.5796393745811623,39.8714138,32.7364372,-0.005916874016032063,0.04338561566332662,-0.05924597820841684,-0.047222017058116204,0.9747085796813622,-0.003947798190380777,-0.7473560424589176,15.845182240781558,0.4298382005911822,1.6168610820721443,0.1,-0.06415725466332664,-0.33175423904008017,0.000233937,1.0,10429928.83767535,1.0,0.0,0.0,0.0,0.0
10450924.0,0.022241821501002,0.019428274094188375,0.0013481267414829619,1.0,0.0,1499.669163743487,1500.0,2000.0,1488.0323408436873,1510.9676591563127,1509.0,5.051955357330658,5.150635404825648,7.5779596195150285,7.579569372286572,7.727632511432864,8.425379305739478,8.589965465543084,273.6157603178357,273.6157603178357,12.402309245711423,-0.0007226366673346694,-0.005798590120240481,0.001333806408817635,0.025347309811623246,-0.009104523436873747,-0.11952475151302605,2.0,-1.0,0.0,11.0,0.0,0.0,1.0,0.0,0.0,0.0,0.0,0.0,0.0,0.0,0.0,-0.16742257691382761,2.3873602376452907,2.317577101184369,-5.132047668366733,259.0063319244489,54.624597684128254,-0.0009927729398797591,-0.0061975720280561105,0.0,-0.004546274945891783,39.166360316412835,0.12589402542084152,-9.562964030523046,1960371342685373.0,966.1582453092184,12.404602,-0.007145351498997991,-0.004632693917835674,-0.000268471775551103,48.85204021959921,0.2062484395591182,-9.345842928963927,-0.0035303133266533027,-0.00286989649498998,-0.0044362038456913794,1960371342685373.0,-0.07369505343887774,-0.08569505843887774,0.40060008,-0.3295502000961924,13.253960603787574,18.899272142024046,-0.11290622375150297,17.9686549947495,0.10999999,-16.991159656733466,399.5613823839679,12.404602,96616.9287569539,1.1479689342945891,-0.16097433655911914,0.07331684707615321,0.09411157215430888,0.000999664030060128,0.005076229623246493,-0.0011428292845691254,0.0,-0.18724943886372747,1.6169292,0.6875808719478959,0.06761268707014029,-0.06456332129258517,0.7200558535771544,1.0,398714138.0,327364377.6633267,400122.3349174349,0.8858715913687356,0.0016746152945891748,0.8825223601663308,0.003349231202404803,1.0075317212625248,0.0,0.0,0.5562860068356714,39.8714138,32.7364372,-0.008579223905811615,0.10190128797795575,-0.05789031677555111,-0.10059672978356698,2.1283182174969903,0.025281818743486888,-1.1766732674288563,24.78906347915829,0.661764955901803,1.6168312140761523,0.1,-0.07499776697795588,-0.32059857126452906,0.000233937,1.0,10450924.328657314,1.0,0.0,0.0,0.0,0.0
10473716.0,0.02376838862324649,0.01942407250501002,0.002439389246492985,1.0,0.0,1500.2951931182365,1500.0,2000.0,1487.7755511022044,1511.2244488977956,1509.0,6.117847638703404,6.237332996729456,8.051918515436872,8.053612991971942,8.210936390981962,8.866755902869738,9.039964163294588,276.0999824450902,276.0999824450902,12.402194996012025,-0.0006923618216432866,-0.005824437719438877,0.0014092434829659317,0.025309194591182364,-0.00905032756513026,-0.11955384264529058,2.0,-1.0,0.0,11.0,0.0,0.0,1.0,0.0,0.0,0.0,0.0,0.0,0.0,0.0,0.0,-0.1762342911863727,2.3908428501142285,2.3184950118256515,-5.36799562985972,258.72508887975954,56.04536624841683,-0.001123792663326653,-0.006564256246492985,0.0,-0.004693714939879759,37.028691493066134,0.1795900714569137,-9.556103190378758,1183331258517036.0,966.1523213637274,12.404602,-0.007528183647294594,-0.004470780899799597,-0.00026567106212424735,45.92039266897797,0.19881285439879767,-9.411869176208416,-0.004875859028056109,-0.002939579521042084,-0.005448695272545087,1183331258517036.0,-0.07817535735671342,-0.09017536235671342,0.40060008,-0.3266002997715431,13.253967158336673,19.437003779498998,-0.12366072484368734,17.590703098296594,0.10999999,-17.398405951963927,399.58150381202404,12.404602,96616.70260561122,1.1479662643186372,0.16362169789779465,0.01779716399799508,0.10963826902003959,-0.0007350233747494984,0.005485641136272541,-0.003374353468937879,0.0,-0.17932829997394792,1.6169292,0.6878325992845692,0.06476047441282566,-0.06183974508617235,0.7203194552665332,1.0,398714138.0,327364381.536473,400122.56308677356,1.489338517426852,0.002815384587174346,1.4837077477014013,0.005630769725450896,1.0843053536973946,0.0,0.0,0.5329326388657315,39.8714138,32.7364372,-0.011241573795591176,0.16041696006813613,-0.056534655342685376,-0.1539714427334668,3.281927855312622,0.05451143545290574,-1.6059904921743475,33.73294471529056,0.8936917114368732,1.6168013463046091,0.1,-0.08519846032665328,-0.30733967030260523,0.000233937,1.0,10473715.635270542,1.0,0.0,0.0,0.0,0.0
10499602.0,0.025024824204408814,0.01930489513026052,0.0029279754088176345,1.0,0.0,1500.8506610741483,1500.0,2000.0,1487.1643286573146,1511.8356713426854,1509.0,7.121177326288575,7.260292094965928,8.525877411358715,8.52765661127054,8.694240270531061,9.308132499613226,9.489962860659318,278.5842045723447,278.5842045723447,12.402080746312626,-0.0006620873627254509,-0.005850285705410821,0.0014846805571142284,0.025271079370741484,-0.008996131693386773,-0.11958293377755512,2.0,-1.0,0.0,11.0,0.0,0.0,1.0,0.0,0.0,0.0,0.0,0.0,0.0,0.0,0.0,-0.18504600584569136,2.39432546296994,2.3194129224669338,-5.603943591352705,258.44384587374753,57.46613480883767,-0.0012642442464929856,-0.006926877408817634,0.0,-0.004757138436873747,34.89102266971944,0.2332861178797594,-9.549242349847695,406292721442887.4,966.1463974569139,12.404602,-0.005633304829659323,-0.005387278394789577,-0.0007225476152304599,43.37738199342686,0.16223739436873755,-9.510070571418838,-0.006221404729458915,-0.0030092625470941885,-0.006461187086172343,406292721442887.4,-0.0826556612745491,-0.09465566627454909,0.40060008,-0.3236503990601203,13.253973716753507,19.974735416973946,-0.1344152259358717,17.212751205711424,0.10999999,-17.805652251062124,399.6160636126252,12.404602,96616.29849589178,1.1479615022845693,0.5365903403426846,0.3809149439478951,0.2980645295210417,-0.0010042277434869735,0.006851224543086169,-0.002142465192384772,0.0,-0.17163079432264536,1.6169292,0.6880653313987977,0.06198764973346695,-0.05919197224048097,0.7205631319298598,1.0,398714138.0,327364385.4482966,400122.7912561122,2.0928054430981953,0.003956154266533063,2.084893135236472,0.007912307861723443,1.1610789861322641,0.0,0.0,0.5095792705090181,39.8714138,32.7364372,-0.013903923685370736,0.21893263177154296,-0.05517899390981964,-0.20734615607014018,4.435537493128255,0.08374105177555104,-2.0353077165330653,42.67682594755509,1.1256184673587168,1.6167714789198397,0.1,-0.09429660849298596,-0.2904564478677355,0.000233937,1.0,10499601.517034069,1.0,0.0,0.0,0.0,0.0
10522320.0,0.02388691906412826,0.019381172563126253,0.0026997984569138286,1.0,0.0,1501.0,1500.0,2000.0,1487.4468937875752,1511.5531062124248,1509.0,8.028982571651301,8.185857946627252,8.99983630728056,9.00170023101603,9.17754415008016,9.7495090972505,9.939961556236472,281.06842669959923,281.06842669959923,12.401966496613227,-0.0006318129038076153,-0.005876133244488978,0.001560117631262525,0.025232964150300602,-0.008941935821643286,-0.11961202490981965,2.0,-1.0,0.0,11.0,0.0,0.0,1.0,0.0,0.0,0.0,0.0,0.0,0.0,0.0,0.0,-0.18457079121042086,2.3984737098216433,2.3206153172024044,-5.90202840602004,258.1070142410822,58.27243862703407,-0.0014007417134268535,-0.00724078580761523,0.0,-0.004718958843687375,33.11488285855712,0.20333265307214438,-9.55351195101002,589098024048095.2,966.1469976631263,12.404602,-0.003038795018036077,-0.007615511941883763,-0.001304099490981963,41.15402256122245,0.16965358229458913,-9.489949583729459,-0.005824008350701405,-0.0027620433567134275,0.0021901195010019846,589098024048095.2,-0.08713596474549098,-0.09913597019238476,0.40060008,-0.3207004983486974,13.25398027517034,20.512467058917835,-0.14516972747494988,16.834799313126254,0.10999999,-18.21289855016032,399.6035531184369,12.404602,96616.43979769539,1.1479631750741484,0.44816590681963975,0.2672632674669344,0.18609864404408855,0.0010337120340681316,0.005899585454909822,-0.002301529360721442,0.0,-0.16410987428256515,1.6169292,0.6882819056212425,0.05927747330661324,-0.05660402506613227,0.720789941480962,1.0,398714138.0,327364389.3154309,400123.01938076154,2.696272368769538,0.005096923498997994,2.6860785223246486,0.010193846444889776,1.2378526190140278,0.0,0.0,0.4862259025991984,39.8714138,32.7364372,-0.019433874370741473,0.33967948252104185,-0.05223337688777555,-0.2542477608156312,5.453227128040079,0.10986262950701399,-2.121235442733467,44.623531856933866,1.1817322208076153,1.6167170788537075,0.1,-0.10519493019238475,-0.27268667977154315,0.000233937,1.0,10522319.815631263,1.0,0.0,0.0,0.0,0.0
10544465.0,0.022081741897795593,0.019458557318637274,0.0022597685831663326,1.0,0.0,1501.0,1500.0,2000.0,1488.0,1511.0,1509.0,8.889603409939879,9.063312631983967,9.473795203086171,9.475743851042084,9.660848029338677,10.19088569539078,10.389960251563124,283.5526488268537,283.5526488268537,12.401852246913828,-0.0006015383867735471,-0.00590198067735471,0.0016355547054108216,0.02519484892985972,-0.0088877399498998,-0.11964111604208418,2.0,-1.0,0.0,11.0,0.0,0.0,1.0,0.0,0.0,0.0,0.0,0.0,0.0,0.0,0.0,-0.1803974086693387,2.402887020228457,2.3219309969599196,-6.224856868681364,257.7480465517034,58.834055137655305,-0.0015349436192384767,-0.007530817014028057,0.0,-0.004634811284569138,31.48032335006012,0.1406207574969941,-9.562140403771544,1147792004008015.0,966.1501528080161,12.404602,-0.0002205037735470971,-0.009997126655310622,-0.0019647820601202395,39.06033045581162,0.1911432262264529,-9.438739759214428,-0.0047440491142284585,-0.0023907203466933874,0.01462591769939878,1147792004008015.0,-0.09161626811022044,-0.10361627411022044,0.40060008,-0.3177505976953908,13.253986833587176,21.050198701923847,-0.15592422912024045,16.45684741995992,0.10999999,-18.620144849258516,399.58629301402806,12.404602,96616.63639346694,1.1479654861202406,0.17986786135671384,-0.014350702627254262,-0.004448093388777687,0.003412578112224452,0.004471739557114226,-0.0029630249679358715,0.0,-0.15667571465330662,1.6169292,0.6884904399158316,0.05659807703807616,-0.05404547104609218,0.7210083457054108,1.0,398714138.0,327364393.1719439,400123.2474947896,3.299739294440881,0.006237692567134267,3.2872639093066125,0.012475385134268534,1.3146262520020038,0.0,0.0,0.4628725347955912,39.8714138,32.7364372,-0.02608323433667334,0.48471917153506994,-0.0486670977735471,-0.2986224941903807,6.417858429498997,0.13477093954909816,-2.073116125855712,43.83878946214429,1.1692148330480963,1.6166531021523047,0.1,-0.1166206872304609,-0.25468895979759526,0.000233937,1.0,10544464.743486974,1.0,0.0,0.0,0.0,0.0
10572238.0,0.02230524271943888,0.018862464462925853,0.002311877130260521,1.0,0.0,1501.0,1500.0,2000.0,1488.0,1511.0,1509.0,9.635457476893787,9.82372044750501,9.947754097785571,9.94978747217435,10.144151905831663,10.63226229519038,10.839958950761522,286.0368709541082,286.0368709541082,12.401737997214429,-0.0005712633166332665,-0.005927828663326654,0.0017109917795591185,0.025156733709418837,-0.008833544078156313,-0.1196702071743487,2.0,-1.0,0.0,11.0,0.0,0.0,1.0,0.0,0.0,0.0,0.0,0.0,0.0,0.0,0.0,-0.17352833191583167,2.407493542803607,2.323329253262525,-6.565721636537074,257.37294337134267,59.21731253885771,-0.001661135993987976,-0.007764079058116232,0.0,-0.004468747036072145,29.928005973106213,0.058879921344689445,-9.573300856196393,1924826873747494.5,966.154792047495,12.404602,0.0022791313667334654,-0.009247937857715431,-0.0029422551062124242,37.08205781693387,0.19261958636673346,-9.505732569745492,-0.003267597901803608,-0.001947306579158317,0.029260077468937867,1924826873747494.5,-0.0960965720280561,-0.10809657802805611,0.40060008,-0.31480069759519036,13.25399339200401,21.5879303393988,-0.16667873021242482,16.078895521262524,0.10999999,-19.027391148356713,399.6885575581162,12.404602,96615.45050579158,1.147951352212425,-0.18563336523647261,-0.22599357474148282,0.10838861924649291,0.0009620094649298618,0.006621101450901801,-0.00353848601002004,0.0,-0.1494492934208417,1.6169292,0.6886790026513027,0.053992378300601204,-0.05155729204809619,0.721205782779559,1.0,398714138.0,327364397.08376753,400123.47566412826,3.903206220112224,0.00737846163527054,3.888449296841684,0.01475692327054108,1.3913998844368738,0.0,0.0,0.4395191664388778,39.8714138,32.7364372,-0.033350788394789575,0.6431745966452904,-0.04475805763326653,-0.341601760503006,7.353188230781562,0.15900922170340678,-1.9509692405450902,41.54560291745491,1.1187958514849698,1.6165838372024048,0.1,-0.12676626224048096,-0.23762433387575152,0.000233937,1.0,10572238.08016032,1.0,0.0,0.0,0.0,0.0
10597353.0,0.0227588283507014,0.01866754174749499,0.0019840573807615256,1.0,0.0,1500.7194388777555,1500.0,2000.0,1487.9658770340682,1511.0341229659318,1509.0,10.467236781763525,10.671767864909816,10.421712992204407,10.423831090781563,10.627455784008013,11.073638892184368,11.289957649959918,288.5210930813627,288.5210930813627,12.40162374751503,-0.0005409885270541083,-0.005953676368737475,0.0017864288537074147,0.025118618488977958,-0.008779348206412825,-0.11969929830661323,2.0,-1.0,0.0,11.0,0.0,0.0,1.0,0.0,0.0,0.0,0.0,0.0,0.0,0.0,0.0,-0.16665925544288582,2.4121000653787577,2.3247275095651303,-6.9065864046733445,256.997840190982,59.600569937254505,-0.001791713819639278,-0.00799103016032064,0.0,-0.0042651588597194395,28.418870392545095,-0.02115463548897771,-9.609295741687374,2625650120240479.0,966.15889830501,12.404602,0.0008477530801603403,-0.00843039988176353,-0.0020362091142284667,35.155853562825655,0.18068365135671352,-9.549699764044089,-4.6742200400818126e-05,-0.004136595617234452,0.04652002589579152,2625650120240479.0,-0.10048883221843685,-0.11248883821843686,0.40060008,-0.3115649385370742,13.253999911142285,22.118003168857715,-0.17728005587374746,15.700999333587175,0.10999999,-19.446192166492985,399.69038666332665,12.404602,96615.43444857714,1.1479511341362725,-0.09681759543687574,-0.24617870645491047,0.13879382286372768,-0.0007671198236472918,0.0063814761302605294,-0.0020937863306613345,0.0,-0.142312208741483,1.6169292,0.6888588475110221,0.05141840737875752,-0.04909940860120241,0.7213941240621242,1.0,398714138.0,327364400.9675351,400123.7038334669,4.506673146064126,0.008519230703406811,4.489634684376752,0.01703846168737474,1.4681735171523043,0.0,0.0,0.41616579836272555,39.8714138,32.7364372,-0.04097004630060118,0.8120909289298591,-0.04062537492785572,-0.3836328559138275,8.274527623607211,0.1828258544388777,-1.829075206176353,39.300575020460926,1.06995689645491,1.61651814604008,0.1,-0.13583136719038075,-0.22329975260320645,0.000233937,1.0,10597353.380761523,1.0,0.0,0.0,0.0,0.0
10619336.0,0.023483585364729456,0.01894542669739479,0.001208464995991986,1.0,0.0,1500.1082164328657,1500.0,2000.0,1487.8915377154308,1511.1084622845692,1509.0,11.400285117034064,11.62310481310621,10.895671886292584,10.897874706412825,11.110759664168334,11.515015485871743,11.739956349158314,291.0053152086172,291.0053152086172,12.401509497815631,-0.0005107140681362727,-0.005979523743486974,0.0018618659278557112,0.025080503268537075,-0.008725152334669337,-0.11972838943887776,2.0,-1.0,0.0,11.0,0.0,0.0,1.0,0.0,0.0,0.0,0.0,0.0,0.0,0.0,0.0,-0.15979017930060124,2.416706587953908,2.3261257658677357,-7.247451173140279,256.6227370106213,59.98382733234469,-0.0019274602124248494,-0.008210543366733465,0.0,-0.004017346054108218,26.960627643446898,-0.09917822026853687,-9.674559780434869,3236652525050098.5,966.1623764052104,12.404602,-0.00521660531663325,-0.00753230751703407,0.0010896986012023965,33.29101561933868,0.15294036849098205,-9.56652962492585,0.005230018791583153,-0.009428712961923831,0.06687465381162319,3236652525050098.5,-0.10477732658717433,-0.11677733258717433,0.40060008,-0.30799227427855713,13.254006383987976,22.639049546012025,-0.18770085334869735,15.323168805330662,0.10999999,-19.878611246352705,399.5738454298597,12.404602,96616.79712012025,1.1479673168617233,0.5274432058256495,-0.040717215553106756,0.07204760513827674,-0.001645981296593184,0.00332625873547095,0.0017318170561122148,0.0,-0.13528041357114232,1.6169292,0.689028417731463,0.04888182995390782,-0.04667723062525051,0.7215717453046092,1.0,398714138.0,327364404.8182365,400123.93200280564,5.110140072346692,0.009659999771543084,5.090820071911822,0.019320000434869734,1.5449471501983965,0.0,0.0,0.39281243061723453,39.8714138,32.7364372,-0.04900381231262523,0.9933361875270537,-0.036229113484969946,-0.42454646419038067,9.1793783207515,0.2061455432164328,-1.707479174703407,37.11230552967937,1.0229801155531062,1.616456666841683,0.1,-0.14362306099799596,-0.2122045096673347,0.000233937,1.0,10619335.995991984,1.0,0.0,0.0,0.0,0.0
10647743.0,0.023884754084168337,0.018630847525050103,-0.00032496630661321777,1.0,0.0,1499.4969939879759,1500.0,2000.0,1488.3775581603206,1510.6224418396794,1509.0,11.956827547014026,12.190430996252502,11.36963078541082,11.371918327074146,11.594063544328655,11.956392084589176,12.18995504835671,293.4895373358718,293.4895373358718,12.401395248116232,-0.0004804396092184371,-0.006005371118236473,0.0019373030020040077,0.025042388048096192,-0.008670956462925851,-0.11975748057114229,2.0,-1.0,0.0,11.0,0.0,0.0,1.0,0.0,0.0,0.0,0.0,0.0,0.0,0.0,0.0,-0.15292110315831667,2.4213131105290584,2.3275240226733467,-7.588315941104206,256.24763383026055,60.367084732464924,-0.002072891985971943,-0.008428459529058116,0.0,-0.0037116261903807632,25.787270774609226,-0.16594486399198363,-9.903665536953906,3344830000000000.0,966.1623383927855,12.404602,-0.0011287294909819957,-0.005082831937875766,0.005247471843687352,31.502332122104217,0.13437924005811633,-9.565440436857715,0.022015246480961828,-0.032089718945891646,0.10455255878757494,3344830000000000.0,-0.10670609702004007,-0.11870610251703406,0.40060008,-0.29675811016432874,13.254011790460922,22.954826830440883,-0.1940162918056112,14.94683137496994,0.10999999,-20.620716419919834,399.5520198260521,12.404602,96617.0476504008,1.147970270529058,0.10932095278557441,-0.03200202435070123,0.07627909145891773,0.0005613475991983819,0.0033313882665330628,0.010499839813627204,0.0,-0.12837849958316638,1.6169292,0.6891839993547094,0.046391337939879776,-0.04429906265731464,0.7217346878256513,1.0,398714138.0,327364425.8214429,400123.37774629256,5.913561698535066,0.010800769342685364,5.893698896210417,0.0198628023246493,1.5632731023146291,0.0,0.0,0.3694590623687376,39.8714138,32.7364372,-0.05924750556112219,1.240312525841682,-0.030427595595190413,-0.45950224341082146,9.996320327154304,0.22681579973346683,-1.5874719350020046,35.22664075360723,0.9859314238617236,1.6164176448496992,0.1,-0.15172659539478953,-0.20281838005611227,0.000233937,1.0,10647743.004008016,1.0,0.0,0.0,0.0,0.0
10676346.0,0.023074578492986,0.0176839978456914,-0.0025359681703406604,1.0,0.0,1498.6573146292585,1500.0,2000.0,1489.2282206573145,1509.7717793426855,1508.6573146292585,12.498721552104206,12.74282530621242,11.843589684468936,11.845961948817633,12.077367424488976,12.39776868324649,12.639953746412823,295.97375946312627,295.97375946312627,12.401280998416834,-0.00045016503607214444,-0.006031218607214429,0.0020127401903807613,0.025004272827655313,-0.008616760591182365,-0.11978657170340681,2.0,-1.0,0.0,11.0,0.0,0.0,1.0,0.0,0.0,0.0,0.0,0.0,0.0,0.0,0.0,-0.1460520270160321,2.4259196331042086,2.328922279472946,-7.929180709074146,255.8725306498998,60.75034213252505,-0.0022153261282565123,-0.00863999775751503,0.0,-0.0034030450240480972,24.67520409629259,-0.23028969569539048,-10.168020110961923,3344830000000000.0,966.1615439144289,12.404602,0.0036738949398797674,-0.0029011356853707398,0.012733032985971844,29.782550205270546,0.09788991094388835,-9.562455365561123,0.041276399390781475,-0.058487457943887655,0.1459573839278555,3344830000000000.0,-0.1081271978757515,-0.12012720276152304,0.40060008,-0.2838756553587175,13.25401696751503,23.226442636753507,-0.19944850561322644,14.570815167715432,0.10999999,-21.429447286953906,399.55296570120237,12.404602,96617.03536931863,1.147970120747495,-0.3336901157735492,-0.06196323321843681,0.23529311884969578,0.002252488408817651,0.0045741100641282385,0.023645281452905682,0.0,-0.12153221359719442,1.6169292,0.6893334364789578,0.043920589160320656,-0.04193974753106214,0.7218911821382765,1.0,398714138.0,327364450.8232465,400122.640960521,6.763627803791579,0.011941538907815626,6.743627803791579,0.02,1.5679646581102205,0.0,0.0,0.3461056940120242,39.8714138,32.7364372,-0.06996664132264524,1.5014302119839666,-0.02432375150300604,-0.4931762586112223,10.794349707434865,0.24691605875751493,-1.4678065069619244,33.40607818707416,0.9510186557454912,1.6163834541743487,0.1,-0.15948181065531059,-0.19298662141482972,0.000233937,1.0,10676345.775551101,1.0,0.0,0.0,0.0,0.0
