timestamp,control[0],control[1],control[2],control[3],control[4],output[2],output[3],output[4],output[5],output[6],output[7],indicated_airspeed_m_s,true_airspeed_m_s,indicated_airspeed_m_s.1,equivalent_airspeed_m_s,true_airspeed_m_s.1,equivalent_ground_minus_wind_m_s,true_ground_minus_wind_m_s,differential_pressure_raw_pa,differential_pressure_filtered_pa,temperature,gyro_bias[0],gyro_bias[1],gyro_bias[2],accel_bias[0],accel_bias[1],accel_bias[2],instance_count,seq_reached,seq_current,seq_total,item_changed_index,item_do_jump_remaining,valid,warning,finished,failure,stay_in_failsafe,flight_termination,item_do_jump_changed,execution_mode,nav_roll,nav_pitch,nav_bearing,target_bearing,xtrack_error,wp_dist,acceptance_radius,rollspeed_integ,pitchspeed_integ,yawspeed_integ,additional_integ1,x,y,z,temperature.1,pressure,temperature.2,gyro_rad[0],gyro_rad[1],gyro_rad[2],accelerometer_m_s2[0],accelerometer_m_s2[1],accelerometer_m_s2[2],x.1,y.1,z.1,temperature.3,altitude_sp,altitude_filtered,height_rate_setpoint,height_rate,airspeed_sp,airspeed_filtered,airspeed_derivative_sp,airspeed_derivative,throttle_integ,pitch_integ,baro_alt_meter,baro_temp_celcius,baro_pressure_pa,rho,xyz[0],xyz[1],xyz[2],xyz[0].1,xyz[1].1,xyz[2].1,roll_body,pitch_body,yaw_body,q_d[0],q_d[1],q_d[2],q_d[3],thrust_body[0],lat,lon,alt,vel_m_s,vel_n_m_s,vel_e_m_s,vel_d_m_s,cog_rad,ground_contact,maybe_landed,landed,ref_lat,ref_lon,x.2,y.2,z.2,vx,vy,vz,ax,ay,az,yaw,dist_bottom,roll,pitch,yaw.1,thrust_body[0].1,timestamp.1,isTakeoff,isClimbing,isDescending,isCruise,isLand
48033397.0,0.066805061,-0.094724226,-0.076172209,0.19567987,0.0,1457.0,1500.0,1197.0,1468.828766,1530.171234,1449.0,14.30502169,14.62625463,14.52301018,14.40046139,14.72364754,14.42995992,14.7538083,129.0801906,129.0801906,12.02319748,-0.001741629,-0.005699561,0.0013938929999999998,-0.196392924,0.186454103,-0.045036597000000005,2.0,-1.0,0.0,11.0,0.0,0.0,1.0,0.0,0.0,0.0,0.0,0.0,0.0,0.0,0.191878705,-0.044559563,-2.88769583,-2.887062339,-0.026759902,53.78730188,43.47832568,-0.023786116,-0.056434358,-0.046702656,0.0,-0.103790636,-1.415447893,-6.189654643,8.643298239,959.3637067,12.02218271,0.220808495,-0.170384151,-0.339160874,-0.035520904,-1.4175254069999998,-6.237949187999999,0.218797453,-0.16584748,-0.33865882,8.643298239,52.6271377,52.6762473,3.819503101000001,-1.698265556,15.33234537,19.51286369,-0.083610364,4.155330992,-0.142720819,6.296787919,458.45819410000007,12.022095,95938.1858,1.139904334,-0.102651014,0.237751659,0.640969511,0.220305806,-0.153586188,-0.333090228,0.210597767,-0.041027513,-2.884525722,0.129581145,-0.006761008000000001,-0.106830154,-0.985773972,0.188191773,398701708.4,327367152.9,458924.14,14.80218153,-14.03104221,-4.725146788,-0.544104799,3.466548839,0.0,0.0,0.0,39.87141370000001,32.7364371,-139.4096286,23.38699492,-58.90184187,-13.95831926,-4.3576308510000015,-0.063248347,-0.774042145,3.4032536660000003,4.449084552,-2.952935872,59.14260266,0.320537091,0.272182813,0.0003912880000000001,0.19065805,48033397.0,0.0,1.0,0.0,0.0,0.0
48060425.0,0.0660831547274549,-0.08943100906613226,-0.07365887880961924,0.19485793717434868,0.0,1460.056112224449,1500.0,1195.7775551102204,1467.481239937876,1531.518760062124,1451.4448897795592,14.353543113146292,14.675780126593185,14.486147293226452,14.363697521262525,14.686105383386774,14.39644797470942,14.71959083286573,128.4637233775551,128.4637233775551,12.022827183106212,-0.0017411944208416833,-0.005700281631262525,0.0013908998436873746,-0.1967415799519038,0.18665124302004008,-0.04507380272144289,2.0,-1.0,0.0,11.0,0.0,0.0,1.0,0.0,0.0,0.0,0.0,0.0,0.0,0.0,0.19842198124248497,-0.04309453920240481,-2.886213444428858,-2.8859356262144287,-0.0904148536533066,53.39643551116232,43.55056786997996,-0.0237405035250501,-0.056069370184368736,-0.04642678869539078,0.0,-0.10603037996793588,-1.3915483912765532,-6.251445359472946,5.378553142817635,959.3674813653306,12.022149581743486,0.21875704971943888,-0.16839248938677354,-0.33834167150501004,-0.0681986583987976,-1.4206869172004009,-6.238738567729459,0.2149719510761523,-0.16286942760521042,-0.3332487691182365,5.378553142817635,52.75078786002004,52.64101121232465,3.8433263154388784,-1.544724574496994,15.332330841242484,19.644734938597196,-0.08624807795791584,4.101264168262525,-0.14307472840881763,6.5074318592705405,458.44844534649303,12.022118049198397,95938.28650501002,1.1399055216052103,-0.03725100943086172,0.3901266792905812,0.40407000635070145,0.22113651597995992,-0.1536691412765531,-0.3276204973587174,0.21632987832264527,-0.03941118414228457,-2.883229073482966,0.13015229264529057,-0.005520468480961924,-0.10955648848897795,-0.9854036842745492,0.18896542169739478,398701673.9270541,327367138.5362725,458931.7296102204,14.796855563767535,-14.05900389486974,-4.633272721697395,-0.4242690135991984,3.4601116196312627,0.0,0.0,0.0,39.87141370000001,32.7364371,-139.77949684348698,23.27323619725451,-58.90121973723447,-13.982191878937876,-4.270783479917836,0.050271677488977956,-0.7740588301503006,3.376131594787575,4.396991058703407,-2.9597728284028055,59.14198025218437,0.32246187693186373,0.27705815792985977,0.0026664248036072143,0.19157394238476955,48060424.64529058,0.0,1.0,0.0,0.0,0.0
48086562.0,0.06587981420641283,-0.0845179718036072,-0.07107579257114228,0.19405714373146293,0.0,1462.4448897795592,1500.0,1194.5551102204408,1466.707736472946,1532.292263527054,1453.8897795591183,14.397270039218437,14.720426281182364,14.453904099659319,14.331526745771543,14.653252422885771,14.367732572985972,14.690270556713426,127.9265909470942,127.9265909470942,12.022516103266534,-0.0017406955551102204,-0.005700997146292585,0.0013880076773547093,-0.19707476486172346,0.18683387963326653,-0.04510844476553107,2.0,-1.0,0.0,11.0,0.0,0.0,1.0,0.0,0.0,0.0,0.0,0.0,0.0,0.0,0.20496525770741483,-0.041629515182364726,-2.8847310590801603,-2.8848089134288575,-0.1540698055290581,53.0055691401002,43.62281005995992,-0.023694944659318637,-0.05570174306012024,-0.04615105285571143,0.0,-0.1049902140761523,-1.3719054659458918,-6.308116760172345,2.5674567892585176,959.3713862054108,12.022125660480961,0.21733310212024046,-0.16513033378557113,-0.3346351392344689,-0.09556493911823646,-1.4337424508837675,-6.246391626675351,0.21179060150501003,-0.16046645108416832,-0.32752153095390785,2.5674567892585176,52.87443802004008,52.6057751246493,3.8671495301002006,-1.3911835929939877,15.332316314709418,19.77660618496994,-0.08888579191583165,4.04719734452505,-0.1434286378176353,6.718075799541082,458.42906088096197,12.022152832364728,95938.5065739479,1.139908135749499,0.03630870323647293,0.3604487862104209,0.2754012621342685,0.22248143713026053,-0.15202792421242484,-0.32141791713426854,0.22129582493587174,-0.037757782841683366,-2.882565750258517,0.1304049541523046,-0.00434635501002004,-0.11190105327054108,-0.9851144777114229,0.18968518890380762,398701639.4318637,327367124.15030056,458939.31922044087,14.79152959753507,-14.086965579739479,-4.54139865539479,-0.3044332281983968,3.4536744002625253,0.0,0.0,0.0,39.87141370000001,32.7364371,-140.1521101681363,23.159489046092187,-58.89959267186373,-14.006290163767535,-4.183517220194389,0.16407837427054106,-0.7759295598677355,3.3510374586513025,4.342553875815631,-2.9666179478657315,59.14035295847696,0.32320315350300605,0.2815466665250501,0.004903770667334669,0.1924515110741483,48086562.288577154,0.0,1.0,0.0,0.0,0.0
48111144.0,0.06658279580961925,-0.08026939270541082,-0.06837079035671344,0.19329329659719438,0.0,1463.6673346693387,1500.0,1193.3326653306613,1466.9374797094188,1532.0625202905812,1456.3346693386773,14.432617393827655,14.756544576773546,14.429734964488977,14.307383538657316,14.628594994328656,14.34740031947896,14.66950933507014,127.5281157206413,127.5281157206413,12.0223085198998,-0.0017400843326653304,-0.005701703719438877,0.0013852920160320641,-0.19738091029258517,0.18699116794989978,-0.045138606148296595,2.0,-1.0,0.0,11.0,0.0,0.0,1.0,0.0,0.0,0.0,0.0,0.0,0.0,0.0,0.21150853456112226,-0.0401644907735471,-2.8832486741202406,-2.8836822006432867,-0.2177247577935872,52.614702765150305,43.69505224993988,-0.023649479488977956,-0.055329503090180365,-0.04587554678356713,0.0,-0.09821759311422847,-1.3597019624188376,-6.355840888258517,0.5492240038877756,959.3755185581163,12.022117830721443,0.21700586218036072,-0.1596476751783567,-0.3258822828517034,-0.1136481036773547,-1.4640902418256514,-6.266040665513026,0.20973506775751502,-0.1590685621262525,-0.3212399294308617,0.5492240038877756,52.99808818006012,52.57053903697395,3.8909727451503007,-1.237642611490982,15.33230179206413,19.90847742745491,-0.0915235058737475,3.993130520787575,-0.1437825472264529,6.928719739811624,458.39283562144294,12.022208123547093,95938.93526092185,1.1399132431242485,0.12412952735470942,0.012588323815631297,0.3358925857014028,0.2247250696953908,-0.14737329231863727,-0.3139345007014028,0.2249227089038076,-0.03603958826252505,-2.8830093198877758,0.1301009822284569,-0.00328833751503006,-0.11357838090581163,-0.9849669805671343,0.19031078485571143,398701604.8977956,327367109.72545093,458946.9088306613,14.786203631302605,-14.114927264609218,-4.449524589092184,-0.1845974427975952,3.447237180893788,0.0,0.0,0.0,39.87141370000001,32.7364371,-140.52952120220442,23.045762119138278,-58.89620923779559,-14.030782855651303,-4.095518848791584,0.2783861019058116,-0.7810406918016032,3.329487641476954,4.284020514723446,-2.973477334298597,59.13696937771543,0.32187595425450904,0.28535908278757516,0.007075067501002005,0.19326209961122243,48111144.43286573,0.0,1.0,0.0,0.0,0.0
48139286.0,0.06495525522444891,-0.07515294264529059,-0.06519448036272546,0.19250728238476955,0.0,1465.3346693386773,1500.0,1192.5551102204408,1465.6653306613227,1533.3346693386773,1458.7795591182364,14.394808038496995,14.717912878657314,14.436544955010019,14.314041065330661,14.635382784689378,14.359233121002005,14.681588092945892,127.66165019198398,127.66165019198398,12.022498022905813,-0.0017394726653306614,-0.00570241029258517,0.0013825763547094187,-0.1976870557234469,0.18714845582164327,-0.04516876753106212,2.0,-1.0,0.0,11.0,0.0,0.0,1.0,0.0,0.0,0.0,0.0,0.0,0.0,0.0,0.2180518109699399,-0.03869946680961924,-2.881766289160321,-2.8825554878577155,-0.2813797100581162,52.223836390200404,43.767294439919844,-0.023604026775551103,-0.05495035309218437,-0.045607486831663324,0.0,-0.08082394360320642,-1.3612821363667333,-6.38698760856513,-6.64e-34,959.3800725328657,12.022139813026053,0.22016502546693387,-0.15814635923246492,-0.3187986342364729,-0.08711812243286575,-1.4478205873246492,-6.281777827224449,0.209765433997996,-0.15953288880360722,-0.31393120953907816,-6.64e-34,53.12173834008016,52.5353029492986,3.9147959602004008,-1.084101629987976,15.33228726496994,20.040348674388778,-0.09416122027655312,3.9390636974949897,-0.14413645708016032,7.139363680527055,458.41182652224455,12.022286170841683,95938.71562336673,1.1399106543507014,-0.3012588523426851,0.18651154696793573,0.5441905861222444,0.2253537772745491,-0.14714253406012023,-0.3033933474709419,0.23001222051903808,-0.03436244677755511,-2.8820506236252506,0.13048570324248496,-0.002073991535070141,-0.11597866777955912,-0.9846369420320642,0.19108107186573148,398701570.4082164,327367095.3450902,458954.4984408818,14.780877660621243,-14.142888949478959,-4.357650522789579,-0.06476165695190385,3.4407999619699403,0.0,0.0,0.0,39.87141370000001,32.7364371,-140.92534021823647,22.93211280765531,-58.88608684913828,-14.056788857915832,-4.004711457557114,0.39461621963326654,-0.7985848278517034,3.3215369196773548,4.209770648949898,-2.9803914608597197,59.12684714933868,0.3192525072384769,0.2890362801402806,0.009092655360721442,0.19424633663727453,48139285.69539078,0.0,1.0,0.0,0.0,0.0
48168758.0,0.06279629880360721,-0.06974365623046093,-0.0617120142745491,0.1917050871743487,0.0,1467.113189747495,1500.0,1191.943887775551,1464.2776651703407,1534.7223348296593,1461.2244488977956,14.341674128837676,14.663627114108216,14.454937231262525,14.332214181663327,14.653927120861724,14.383091596252505,14.705944860621242,127.99408918997996,127.99408918997996,12.022835986693387,-0.0017388608877755513,-0.0057031168657314625,0.0013798606933867735,-0.1979932010981964,0.1873057435270541,-0.04519892891382765,2.0,-1.0,0.0,11.0,0.0,0.0,1.0,0.0,0.0,0.0,0.0,0.0,0.0,0.0,0.2244337592925852,-0.03719654997795592,-2.880319663511022,-2.882355866182365,-0.38835571270340646,52.7338213508016,43.84181281386774,-0.02355860840280561,-0.054568542292585176,-0.04534317232865732,0.0,-0.06018681169739481,-1.3683097456533067,-6.412019982208417,-6.64e-34,959.3846676521042,12.022174238036074,0.2240215018216433,-0.15821091646092184,-0.31195969919639277,-0.050080889657314616,-1.4198255554088177,-6.303794865330661,0.21060998821242485,-0.16064134978356714,-0.306254204507014,-6.64e-34,53.24552723533066,52.50169566314629,3.938031928276553,-0.9314367335831664,15.332271753126253,20.16957940234469,-0.09674614418436875,3.8830255897515027,-0.1444918406072144,7.353896747509018,458.4504595873748,12.022376023206412,95938.26529753508,1.1399053220721442,-0.8199282935631265,0.5166279616312626,0.7829598797835671,0.22538994458116232,-0.14812228409018036,-0.29238252802204406,0.2357531105591182,-0.032703526356713426,-2.8804567849178357,0.13118163976753505,-0.0007883547234468947,-0.11870040622444888,-0.9842236086492986,0.19192132384368737,398701535.9408818,327367081.0486974,458961.44321503007,14.775739141262525,-14.170663181923848,-4.265888926763528,0.05469922437875745,3.434371902466934,0.0,0.0,0.0,39.87141370000001,32.7364371,-141.32804149779557,22.81849251456914,-58.87344494142285,-14.08336064739479,-3.9128538471963927,0.5115650688476954,-0.8207773393146294,3.3186705443466935,4.129644792631261,-2.987326053268537,59.11420551611222,0.3165903603787575,0.29272995983767536,0.011036201639278556,0.19529902216432865,48168757.6753507,0.0,1.0,0.0,0.0,0.0
48198230.0,0.06399997916432866,-0.06464735927655312,-0.05694400672945892,0.19082480460921844,0.0,1468.346149496994,1500.0,1191.3326653306613,1467.302232204409,1531.697767795591,1463.6693386773547,14.40751991260521,14.730954274929859,14.47332950751503,14.350387297995992,14.672471457034069,14.406950071503006,14.730301622745491,128.32652818797595,128.32652818797595,12.023173956032064,-0.0017382496653306615,-0.0057038234388777555,0.0013771450320641282,-0.19829934591783566,0.1874630312324649,-0.04522909029659319,2.0,-1.0,0.0,11.0,0.0,0.0,1.0,0.0,0.0,0.0,0.0,0.0,0.0,0.0,0.2292197135511022,-0.0353187627735471,-2.879226799613227,-2.8913278244188376,-0.9239006780440882,62.15579988096192,43.93884915064128,-0.023513483683366733,-0.05418596655110221,-0.04508837019438877,0.0,-0.04674616643687376,-1.378246630983968,-6.4378785380501,-6.64e-34,959.388110362525,12.022221491643286,0.22188130398597194,-0.1590407175531062,-0.30136781383567135,-0.07410670538877755,-1.4482560912905813,-6.402406608396794,0.2117941094549098,-0.16123439814028057,-0.2987327902084168,-6.64e-34,53.37068861839679,52.48420187777555,3.9554583459318637,-0.7874388218997996,15.332246515751503,20.272687836813628,-0.0988088176212425,3.8074858449018034,-0.1448618013286573,7.606904383410821,458.4791828248497,12.022498493847696,95937.93075104209,1.139901314286573,-0.3632169098757515,0.46202999475751505,0.7764876031402805,0.22553728769739478,-0.14471492310821643,-0.2880349602264529,0.24252820147094187,-0.031073022028056112,-2.8777661067014026,0.13240913152104208,0.0006243429318637273,-0.12192822366933867,-0.9836614135791583,0.19291856321242484,398701501.52905816,327367067.4184369,458962.0087180361,14.77245506751503,-14.196582974308617,-4.175239983116232,0.170451227254509,3.4280344541603207,0.0,0.0,0.0,39.87141370000001,32.7364371,-141.7307427773547,22.704872221482965,-58.86080303370741,-14.109932436873747,-3.8209962368356716,0.6285139186172344,-0.8429698507775552,3.3158041690160323,4.049518935757515,-2.994260645122244,59.10156387733467,0.318339768254509,0.2970868286052104,0.012815785567134268,0.19638658859719438,48198230.21042084,0.0,1.0,0.0,0.0,0.0
48227282.0,0.06469242058917836,-0.05957763054308618,-0.05299438410821644,0.18991866358717435,0.0,1470.2838328396795,1500.0,1190.5642494849699,1468.0912653026053,1530.9087346973947,1466.114228456914,14.449547466973948,14.773956825731462,14.491721783767536,14.368560417114228,14.691015793206413,14.430808546753507,14.754658387655311,128.65896718597193,128.65896718597193,12.02351192258517,-0.0017376384428857716,-0.005704530012024049,0.0013744296492985972,-0.19860549101603206,0.18762031921643285,-0.045259251679358715,2.0,-1.0,0.0,11.0,0.0,0.0,1.0,0.0,0.0,0.0,0.0,0.0,0.0,0.0,0.23366464871943887,-0.03336087647094189,-2.878209524973948,-2.902259491008016,-1.5510187578677346,73.4820203821042,44.04069694316633,-0.02346919714228457,-0.053802512240480965,-0.04483785198997995,0.0,-0.05725631367735466,-1.3978659462805612,-6.466486728659319,-6.64e-34,959.3877180657315,12.02231144248497,0.2216009478777555,-0.15759667920641282,-0.2916176364288577,-0.10393335324448894,-1.4379237389559119,-6.495648274488978,0.21410835083767535,-0.16011209039478957,-0.2917292010501002,-6.64e-34,53.496275085190376,52.47169875787575,3.9710854331002006,-0.646125243953908,15.332218261603206,20.367705691322644,-0.10070974046292586,3.7259060639699397,-0.14523627746092185,7.871828341398797,458.4742196212425,12.022635115190381,95937.99493677355,1.1399020751202404,0.09617714010621188,0.12182177871943972,0.7254073698937877,0.2277215863967936,-0.14155309295190383,-0.28262038720440885,0.24844884461923847,-0.029461665158316636,-2.875751630058116,0.13330090568336672,0.0019327538176352691,-0.1247350482765531,-0.9831897353647294,0.19400174608617235,398701467.1450902,327367054.5402806,458955.33808717434,14.771274517815632,-14.22039923985972,-4.085853142755511,0.28199617702003993,3.42179978841483,0.0,0.0,0.0,39.87141370000001,32.7364371,-142.1211168460922,22.598820286192385,-58.84392389901804,-14.135969884168336,-3.7335419478637277,0.7382543852144287,-0.8547078521783567,3.306702095743487,3.9855170699699403,-3.0007698696773546,59.08468489180361,0.3188496774749499,0.30136623816032065,0.014810038142284565,0.1976151439278557,48227281.84569138,0.0,1.0,0.0,0.0,0.0
48255831.0,0.0647743176733467,-0.05453963076352706,-0.05002211326653307,0.18898164124248495,0.0,1473.0631285310621,1500.0,1189.608106268537,1466.2105240601204,1532.7894759398796,1468.5591182364728,14.463130229398798,14.78790984226453,14.51011406002004,14.386733539559119,14.709560129378758,14.454667022004008,14.779015155891784,128.99140618396794,128.99140618396794,12.023849885811623,-0.0017370272204408816,-0.005705236585170341,0.0013717145991983969,-0.1989116364468938,0.18777760753306613,-0.045289413062124244,2.0,-1.0,0.0,11.0,0.0,0.0,1.0,0.0,0.0,0.0,0.0,0.0,0.0,0.0,0.2377023236793587,-0.03130733225250501,-2.8772825223987977,-2.915531528723447,-2.2874975355631255,87.08237158240479,44.14829079076152,-0.023425911591182364,-0.053418008703406815,-0.044592449845691384,0.0,-0.09636956563126249,-1.4290484513206412,-6.498378655753507,-6.64e-34,959.3827458322645,12.022452384268538,0.22354169771743485,-0.1534371203787575,-0.2828726642044088,-0.14068761356513024,-1.3812990165210421,-6.58247675513026,0.21777223210020039,-0.15694122787975953,-0.2853440217715431,-6.64e-34,53.62236920593186,52.46515571328658,3.9845636795430863,-0.5080174170901804,15.332186404689379,20.453061414368737,-0.10241749352905812,3.637113002537074,-0.1456161460981964,8.150983302741484,458.4290265671343,12.022788635931864,95938.53530631262,1.1399085308517034,0.5587749498356711,-0.5594749363206407,0.6210543251643287,0.23233850831062125,-0.13868448665931862,-0.2759315489478958,0.25334906813627256,-0.027873175038076153,-2.8745447034949896,0.1337917509238477,0.0031166207915831654,-0.12703910445891783,-0.9828261564168336,0.1951875665270541,398701432.7943888,327367042.5603206,458940.02574248496,14.772606090360723,-14.241703379839679,-3.99797356243487,0.38851687630861714,3.415687870188377,0.0,0.0,0.0,39.87141370000001,32.7364371,-142.49676920981966,22.501806821362724,-58.82198447887775,-14.161369196192386,-3.6513463017014027,0.8393862791022043,-0.8539606113466933,3.2901530738496994,3.940771193537074,-3.006771101631263,59.06274547777555,0.3178793221142284,0.3055531424689379,0.017060657591182363,0.19901207448897795,48255830.8236473,0.0,1.0,0.0,0.0,0.0
48283889.0,0.06643382046893787,-0.04889638398997996,-0.04875116456913828,0.18812575617234467,0.0,1474.7845970681362,1500.0,1188.7164049358717,1465.9916385290583,1533.0083614709417,1471.560832665331,14.428356714268537,14.7522809349499,14.528506336272546,14.404906656993989,14.728104465551102,14.47852549725451,14.803371924128257,129.32384518196395,129.32384518196395,12.024187854048096,-0.0017364159979959919,-0.005705943158316633,0.0013689990480961925,-0.19921778187775552,0.1879348953486974,-0.04531957444488978,2.0,-1.0,0.0,11.0,0.0,0.0,1.0,0.0,0.0,0.0,0.0,0.0,0.0,0.0,0.24173999863927856,-0.029253788034068137,-2.8763555193226455,-2.928803566438878,-3.023976313258517,100.68272277268537,44.25588463835671,-0.02338485499799599,-0.05303076218036072,-0.044351357320641285,0.0,-0.13548281808617235,-1.4602309568617236,-6.530270582346694,-6.64e-34,959.3777735987976,12.022593321042084,0.22519863493186373,-0.15155076395591183,-0.2766915972905811,-0.12824650063927856,-1.3919397079138276,-6.5913257983967934,0.22143611286172343,-0.15377036536472946,-0.278958841991984,-6.64e-34,53.74846333168337,52.4586126686974,3.998041926486974,-0.369909590226453,15.332154552785571,20.53841713240481,-0.10412524609418837,3.548319941104208,-0.14599601473547094,8.430138263583167,458.3645662785571,12.022967777915833,95939.27765480963,1.139917323256513,0.08573271647895808,-0.5028425251082165,0.3396803435611223,0.2350003420480962,-0.1337511869799599,-0.27034294666332664,0.25940768443887774,-0.026192175899799598,-2.87214860108016,0.13485058965130262,0.004505606002004008,-0.12989980142284568,-0.9822989266673346,0.19624080580561126,398701398.4436874,327367030.5803607,458924.7133476954,14.773937667915833,-14.26300751981964,-3.9100939826152303,0.49503757509619234,3.4095759519619238,0.0,0.0,0.0,39.87141370000001,32.7364371,-142.87192117274552,22.405100580981962,-58.79987305472946,-14.18674681482966,-3.569329404537074,0.940225555755511,-0.8527889797334669,3.2733509201923847,3.896679853677355,-3.0127550660501003,59.04063405472946,0.3180365143486974,0.30970026421242486,0.018671850687374748,0.2001182535470942,48283889.32064128,0.0,1.0,0.0,0.0,0.0
48312119.0,0.06762090262124248,-0.043085406188376765,-0.047968344755511025,0.18730225324649297,0.0,1475.9260966092183,1500.0,1187.8138721603207,1466.0633355070142,1532.9366644929858,1474.621718913828,14.39616853014028,14.719281737294589,14.54689861252505,14.423079773326654,14.746648800601202,14.502383972505012,14.827728691242484,129.65628417995993,129.65628417995993,12.024525822264529,-0.0017358047755511022,-0.005706649731462925,0.0013662833867735473,-0.19952392730861723,0.18809218305410821,-0.045349735827655314,2.0,-1.0,0.0,11.0,0.0,0.0,1.0,0.0,0.0,0.0,0.0,0.0,0.0,0.0,0.2457776735991984,-0.027200243703406814,-2.875428516248497,-2.942075604154309,-3.760455090953907,114.28307396412823,44.3634784859519,-0.023344114490981966,-0.052641815543086175,-0.04411257767334669,0.0,-0.16923220828657315,-1.484078950496994,-6.566347355498999,-6.64e-34,959.3750383577154,12.022740928456914,0.22710614295591183,-0.14908018765330663,-0.271030645256513,-0.10951935400801603,-1.4151015593266534,-6.600040559268537,0.22475260183366733,-0.15074162445290581,-0.2723109522985972,-6.64e-34,53.87455745741483,52.45206962410821,4.011520173428858,-0.23180176336272562,15.332122701983968,20.62377285046092,-0.10583299866132265,3.4595268796713428,-0.14637588326052103,8.709293224426853,458.2935249619238,12.023158448356714,95940.08898104209,1.1399269266753507,-0.4465283078396795,-0.2619433835390786,0.056522060214429015,0.2363513800741483,-0.12939450825450902,-0.26424572818837677,0.2656768189458918,-0.0245047701242485,-2.869495045749499,0.1360310247014028,0.005931722691382764,-0.13286069784368737,-0.9817354222705411,0.19731324787374754,398701364.0929859,327367018.6004008,458909.40095310623,14.775269245450902,-14.284311659799599,-3.8222144029058116,0.601558273773547,3.4034640336232465,0.0,0.0,0.0,39.87141370000001,32.7364371,-143.25144244148296,22.308603137515032,-58.77602329751503,-14.212397914709419,-3.4866911186773546,1.0412112486973948,-0.848628264008016,3.249489808,3.844849194685371,-3.018747839579158,59.01678429751503,0.3180784602645291,0.3137800148096192,0.020242345024048092,0.20121640106212427,48312119.238476954,0.0,1.0,0.0,0.0,0.0
48341591.0,0.06516416368336674,-0.03712068560721443,-0.04769169753106212,0.1865433655711423,0.0,1475.5235870701404,1500.0,1186.8001401763527,1465.8014358577152,1533.1985641422848,1477.4010146052105,14.422778637154309,14.746477102024048,14.565290888777556,14.441252889659319,14.765193130661322,14.52624244775551,14.852085453366733,129.9887231779559,129.9887231779559,12.02486378549098,-0.0017351935531062124,-0.005707356304609218,0.0013635677254509018,-0.19983007273947895,0.18824947075951903,-0.04537989721042084,2.0,-1.0,0.0,11.0,0.0,0.0,1.0,0.0,0.0,0.0,0.0,0.0,0.0,0.0,0.24981534855911822,-0.025146698873747497,-2.8745015136733465,-2.9553476418697393,-4.496933868649299,127.88342517054107,44.4710723335471,-0.02330259904008016,-0.05224799269739479,-0.04387986634068136,0.0,-0.17913156761523047,-1.4753145603466935,-6.621031750448898,-6.64e-34,959.3822497434869,12.022918201302605,0.230405425751503,-0.1417882403186373,-0.2651742980821643,-0.11096542440881763,-1.4281378656593187,-6.684438842695391,0.22652443851703405,-0.1483448170981964,-0.26449494222845693,-6.64e-34,54.000651578156315,52.44552657951904,4.024998419871744,-0.0936939364989981,15.332090851182365,20.709128573507012,-0.1075407517274549,3.370733818238477,-0.14675575128657314,8.988448185769538,458.21206905811624,12.023375316192386,95941.00943314629,1.1399378504428856,-0.3268449998236474,0.07643179950701373,-0.06140558406412816,0.23378655378156313,-0.12962144597995992,-0.25481071760721447,0.2717488512404809,-0.022879371336673348,-2.8668600132244486,0.1371965097715431,0.007322292260521041,-0.1357226100280561,-0.9811707107975952,0.1986007665611223,398701329.74228454,327367006.6204409,458894.08860841685,14.776600817995993,-14.305615799779558,-3.734334823196393,0.7080789724509017,3.397352114785571,0.0,0.0,0.0,39.87141370000001,32.7364371,-143.65088101563126,22.212733563266532,-58.74461242326653,-14.23928625018036,-3.40111501754509,1.1431342135671343,-0.8315919444088177,3.194489158,3.757965928953908,-3.024796673537074,58.98537342326653,0.31650498849098196,0.3175991202905811,0.022257371226452903,0.20256325416833668,48341591.16232465,0.0,1.0,0.0,0.0,0.0
48368386.0,0.06441068016833668,-0.031634903288577154,-0.048163958627254505,0.1858862240681363,0.0,1475.561858468938,1500.0,1186.2271891302605,1466.5272086793584,1532.4727913206416,1480.1114882244487,14.455897396813628,14.780273066452907,14.58368316503006,14.459426005991984,14.783737464068135,14.550100923006012,14.876442218837676,130.3211621759519,130.3211621759519,12.025201752064127,-0.0017345823306613227,-0.005708062877755511,0.0013608520641282564,-0.2001362181703407,0.18840675846492988,-0.04541005859318637,2.0,-1.0,0.0,11.0,0.0,0.0,1.0,0.0,0.0,0.0,0.0,0.0,0.0,0.0,0.25385302318436875,-0.023093154378757516,-2.8735745110981963,-2.9686196799198394,-5.233412646344689,141.4837763769539,44.57866618114229,-0.023261187336673348,-0.051852847238476954,-0.04365335509218437,0.0,-0.1868545156753507,-1.463574159246493,-6.677414165923848,-6.64e-34,959.3903688194389,12.023098181623245,0.23140826711623244,-0.13835424164328658,-0.25642657549098197,-0.11948035213426852,-1.4297639535511022,-6.745057020561123,0.22815531916833667,-0.14600567628256514,-0.2565723369619239,-6.64e-34,54.12704433438878,52.439480180881766,4.038402112026052,0.04429888593186368,15.332059897294588,20.79387661066132,-0.10923633286973948,3.2816925633466933,-0.14713655370941883,9.269206619533065,458.1900083943888,12.023601661863728,95941.2587460521,1.139940809749499,-0.16756529335270548,0.07050093631863738,0.03389789805210411,0.23385226496993985,-0.12780406173947895,-0.25082577746092183,0.27770793932665333,-0.021173173665330662,-2.8642373156072143,0.13834408266933867,0.00874991273747495,-0.13851946918637276,-0.9806065277675351,0.1997113686613227,398701295.3581162,327366994.64048094,458878.77626372746,14.777932393887776,-14.326919939759518,-3.6464552431523045,0.8145996714629258,3.391240196282565,0.0,0.0,0.0,39.87141370000001,32.7364371,-144.05535793627254,22.117022816392787,-58.71128887024048,-14.266487558376753,-3.3147957603887774,1.2452942725871743,-0.8112985826452906,3.1316113810501003,3.662215677741483,-3.030859688773547,58.95204987024048,0.31397969636873746,0.3213375493767535,0.023890484158316634,0.20369277300601202,48368386.06613226,0.0,1.0,0.0,0.0,0.0
48392969.0,0.06506467718236474,-0.02654489031262526,-0.04925507809619238,0.18531316024048097,0.0,1475.964368008016,1500.0,1186.018476224449,1468.069141985972,1530.930858014028,1482.7650909098197,14.494394564048095,14.819523418657315,14.602075441282565,14.47759912232465,14.80228180024048,14.573959398256513,14.900798987074147,130.65360117394792,130.65360117394792,12.025539721402806,-0.001733971108216433,-0.0057087694509018036,0.0013581364028056112,-0.2004423636012024,0.1885640461703407,-0.04544021997595191,2.0,-1.0,0.0,11.0,0.0,0.0,1.0,0.0,0.0,0.0,0.0,0.0,0.0,0.0,0.2578906975330661,-0.021039610160320642,-2.8726475085230465,-2.9818917182464926,-5.969891424040079,155.08412758336672,44.68626002873747,-0.02321986136472946,-0.05145660884168336,-0.043431967266533075,0.0,-0.1927789921482966,-1.4493745395170343,-6.7351997360841676,-6.64e-34,959.3992379627255,12.023280399258518,0.23051345029258516,-0.1381082484468938,-0.2452895726152305,-0.13383661106212422,-1.4219612381803606,-6.78602457227455,0.22966972118236473,-0.14371418805611222,-0.2485616470420842,-6.64e-34,54.25368386725451,52.43384418428858,4.05174419644489,0.18219667475951887,15.332029684569138,20.87812248821643,-0.1109218557755511,3.192446214458918,-0.14751812826853705,9.55129007841082,458.21702882725464,12.023835839519037,95940.95346488978,1.1399371876452906,0.024434790284568908,-0.21994630040480925,0.3054043468897792,0.23609171371743487,-0.1242973575511022,-0.2513444883326653,0.2835736962705411,-0.01940020805410822,-2.8616248109078155,0.13947685389178355,0.010208150132264527,-0.1412625719519038,-0.9800427814148296,0.20067577621643287,398701260.9462926,327366982.6605211,458863.4639190381,14.77926397254509,-14.348224079739479,-3.558575662831663,0.9211203707515028,3.3851282780561123,0.0,0.0,0.0,39.87141370000001,32.7364371,-144.4639982809619,22.021443316092185,-58.67638478026053,-14.293947490741482,-3.2278623982545094,1.3476502537194388,-0.7883137728657316,3.062224361470942,3.5591382169699397,-3.036934422671343,58.917145780260526,0.3106678700661323,0.32500931174148295,0.02520800408817635,0.20464269825651302,48392968.821643285,0.0,1.0,0.0,0.0,0.0
48417551.0,0.06497240687374749,-0.02217619986973949,-0.049829821200400796,0.18488257280561124,0.0,1475.4428857715432,1500.0,1185.4428857715432,1467.533961244489,1531.466038755511,1485.2284569138276,14.525806452805611,14.851713651663326,14.620467717535071,14.495772244228457,14.820826136412826,14.597817873507013,14.925155755310621,130.9860401719439,130.9860401719439,12.025877685170341,-0.0017333598857715432,-0.005709476024048096,0.0013554212985971944,-0.20074850903206412,0.18872133443286573,-0.045470381358717435,2.0,-1.0,0.0,11.0,0.0,0.0,1.0,0.0,0.0,0.0,0.0,0.0,0.0,0.0,0.26192837243887773,-0.018986065941883772,-2.871720505390782,-2.995163756016032,-6.70637020173547,168.68447878977952,44.793853870761524,-0.023181640190380763,-0.05106305239278557,-0.043218653140280554,0.0,-0.1995892652024048,-1.435480756,-6.801886581559118,-6.64e-34,959.4046857004008,12.02349113,0.23110342979759518,-0.1357573133466934,-0.24537303804809618,-0.17741763391783555,-1.4122632787014027,-6.849169445851704,0.22958407330460923,-0.1401530225751503,-0.24272524136272547,-6.64e-34,54.39530816280561,52.453128831943886,4.061345303945892,0.31432377914228427,15.332044564669339,20.93187610012024,-0.1119966299519038,3.090746020456914,-0.1479465650480962,9.91383247166533,458.18485955030064,12.024092273887776,95941.31368452906,1.139941473777555,0.345392677693386,0.013393411761522367,0.3722801936032063,0.23380349401603207,-0.12135440226452907,-0.24754145521643287,0.28923338947494986,-0.01769698924448898,-2.8590324971422847,0.14059474459318635,0.011625580024048093,-0.14390276346292585,-0.9794801459478958,0.20185656693787576,398701225.4759519,327366971.6833668,458833.80861282564,14.78494177757515,-14.372135948857716,-3.474173162775551,1.0224254346012023,3.379183233925852,0.0,0.0,0.0,39.87141370000001,32.7364371,-144.8599928012024,21.932488672785574,-58.638893318096194,-14.32061975272545,-3.145271155446894,1.443437459761523,-0.7976873296432866,3.0188274515831663,3.4730559146032065,-3.0426812057074146,58.87965443509018,0.3032275036472946,0.3285272520821643,0.026784174326653303,0.20589137044088177,48417551.02004008,0.0,1.0,0.0,0.0,0.0
48443480.0,0.06395074306412825,-0.017681354893787585,-0.050239580771543085,0.18439751198396795,0.0,1474.8316633266534,1500.0,1184.6633266533065,1466.7138040881764,1532.2861959118236,1487.7238241282564,14.561000366533067,14.887752285751503,14.638859993787575,14.51394536498998,14.839370472585172,14.621676348757514,14.949512521863728,131.3184791699399,131.3184791699399,12.026215650080161,-0.0017327486633266533,-0.005710182597194389,0.0013527060801603206,-0.20105465446292586,0.18887862258116234,-0.04550054274148296,2.0,-1.0,0.0,11.0,0.0,0.0,1.0,0.0,0.0,0.0,0.0,0.0,0.0,0.0,0.2659660473987976,-0.0169325217234469,-2.870793502372746,-3.0084357937314627,-7.4428489794308605,182.28482999619237,44.90144771392786,-0.02314379176753507,-0.05066888325851704,-0.043009472208416825,0.0,-0.20664313434268536,-1.4216710780360722,-6.871021298647295,-6.64e-34,959.4091925557113,12.0237097003006,0.23144575496192385,-0.13351159288176354,-0.24538117496593187,-0.21608964932665328,-1.4025164345470942,-6.9127015530741485,0.22905840781563128,-0.1362426928717435,-0.2374867692665331,-6.64e-34,54.53838781300601,52.47483382993988,4.070583078987975,0.4458904215350699,15.332063824288577,20.982668231302604,-0.11301208680561121,2.9878362805150305,-0.14837955336272546,10.28418922034068,458.1515506905812,12.024360598056113,95941.69002955912,1.139945961018036,0.48956032014228523,0.1193216890501009,0.3322793710300606,0.23343088461122244,-0.1195349851002004,-0.24275914758116235,0.29459651217234467,-0.015968268372745495,-2.8566295224428857,0.14161608236873746,0.013023646484969937,-0.14639484026052105,-0.9789482056513026,0.20298744698997997,398701189.76813626,327366960.9382766,458801.0434026052,14.791561945971944,-14.396613235010019,-3.3905245749959922,1.1225996264709417,3.373274372158317,0.0,0.0,0.0,39.87141370000001,32.7364371,-145.25052441883767,21.846395921142285,-58.600284130480965,-14.346951749298597,-3.0645556773446896,1.536387002266533,-0.8210394694589177,2.986658083803607,3.3943153995831663,-3.048286316238477,58.84104541454909,0.2944552227134269,0.33114343726653306,0.02842661164328657,0.23492089176352685,48443480.0260521,0.0,1.0,0.0,0.0,0.0
48472953.0,0.06067457853507014,-0.012670288020040088,-0.05034722315631262,0.18373272811623248,0.0,1474.2204408817636,1500.0,1183.4408817635272,1465.6746403607215,1533.3253596392785,1490.3519950701404,14.60795506763527,14.935719910801604,14.65725227004008,14.532118481322644,14.857914808757515,14.645534824008015,14.973869283987975,131.65091816793586,131.65091816793586,12.026553619418838,-0.0017321374408817635,-0.005710889170340682,0.0013499904188376754,-0.20136079989378758,0.18903591028657316,-0.04553070412424849,2.0,-1.0,0.0,11.0,0.0,0.0,1.0,0.0,0.0,0.0,0.0,0.0,0.0,0.0,0.27000372235871745,-0.014878977505010023,-2.8698664997975953,-3.0217078314468937,-8.17932775712625,195.8851812026052,45.00904156152305,-0.023106130685370742,-0.050272416875751506,-0.04280910248897795,0.0,-0.21411155076553107,-1.4080045292384769,-6.944321758557114,-6.64e-34,959.4120982460922,12.023941610320641,0.23075711202605212,-0.13208055060721444,-0.242324025496994,-0.2343786668817635,-1.393125257783567,-6.971585612212426,0.22778392833667335,-0.1317381619298597,-0.23326584981763526,-6.64e-34,54.68146746320642,52.49653882793587,4.079820853587174,0.5774570643707413,15.332083083907815,21.03346035805611,-0.11402754365931864,2.8849265410160325,-0.14881254212024048,10.65454596503006,458.1303680432866,12.024654516593186,95941.9387481964,1.1399489566192385,0.13564941321843738,-0.2438036676132259,0.06337918203206455,0.23925508331863726,-0.12052749177354709,-0.23650472528657315,0.299232026250501,-0.014154630797595194,-2.8547195305390782,0.1423871963266533,0.014381195983967934,-0.14852353061122245,-0.9784967390280561,0.20393172332264528,398701153.706012,327366950.547495,458763.76115611225,14.799550861703407,-14.421911768677354,-3.3079710165290583,1.2211312688356712,3.3674180641022047,0.0,0.0,0.0,39.87141370000001,32.7364371,-145.62991471342684,21.766139859218438,-58.559395396513025,-14.372589792585172,-2.987665730501002,1.6235492678176353,-0.8729002514228457,2.9773867439238475,3.3305481040220446,-3.053602492521042,58.800156949519035,0.28323367982765535,0.3314264528176353,0.030177303086172343,0.3369641672144287,48472952.561122246,0.0,1.0,0.0,0.0,0.0
48499298.0,0.0613862617014028,-0.007764958821643292,-0.051723981032064124,0.18326128733466934,0.0,1473.6690201302606,1500.0,1183.0,1466.1436480561124,1532.8563519438876,1492.6860047995992,14.595180240981964,14.922648776533066,14.675644546292585,14.55029159765531,14.876459144929859,14.669393299258516,14.99822605002004,131.98335716593186,131.98335716593186,12.0268915848497,-0.0017315262184368738,-0.005711595743486975,0.00134727475751503,-0.2016669453246493,0.18919319799198397,-0.04556086550701403,2.0,-1.0,0.0,11.0,0.0,0.0,1.0,0.0,0.0,0.0,0.0,0.0,0.0,0.0,0.27404139731863725,-0.012825432895791584,-2.8689394968316635,-3.0349798691623247,-8.915806534821643,209.48553236993985,45.11663540911824,-0.023067829503006013,-0.04987851988176353,-0.04261946206813627,0.0,-0.20917492690781564,-1.3957751730360721,-7.0084744241883765,0.7905785217835659,959.4147606749499,12.024189628356714,0.23288004513226454,-0.1309435390240481,-0.23717638692985973,-0.26474377105010016,-1.41402218598998,-7.032977323675352,0.22680292893787576,-0.1279504154268537,-0.22929152799398797,0.7905785217835659,54.82454711731463,52.51824382593186,4.089058628577154,0.7090237068156311,15.332102339619238,21.084252488717436,-0.11504300051302604,2.782016801517034,-0.14924553048697395,11.024902713627254,458.11768001022045,12.024967677214429,95942.08425751503,1.139950702501002,-0.12779962714228435,-0.22582560228256537,-2.2380082164374926e-05,0.24066440386973947,-0.11481598480961924,-0.23000486168937875,0.30068680896593186,-0.01236580042685371,-2.8556042188456914,0.14181338746893787,0.01529367029258517,-0.14911773743486975,-0.9784767491783567,0.2049643233226453,398701117.60480964,327366940.1567134,458726.47890961927,14.807539781342685,-14.44721030234469,-3.225417458452906,1.3196629112004008,3.361561755655311,0.0,0.0,0.0,39.87141370000001,32.7364371,-146.01414022645292,21.686124108416834,-58.516708539799595,-14.398694175050101,-2.910269642985972,1.7105978675170341,-0.9174198703406813,2.9615342744048094,3.2650483753146298,-3.058932698252505,58.75747028749499,0.27369500921643286,0.34693210429058113,0.03015843478957916,0.39704764356713423,48499298.45290581,0.0,1.0,0.0,0.0,0.0
48523881.0,0.06434571440480961,-0.002920501474949902,-0.05381648651903807,0.1828998765731463,0.0,1473.1527243246494,1500.0,1182.997995991984,1467.460965721443,1531.539034278557,1494.8540774368737,14.548967728797596,14.87540682258517,14.69403682254509,14.568464713987977,14.895003481102204,14.693251774509017,15.022582818256513,132.31579616392784,132.31579616392784,12.027229548096193,-0.0017309149959919843,-0.005712302318637275,0.0013445590961923847,-0.201973090755511,0.1893504856973948,-0.04559102688977956,2.0,-1.0,0.0,11.0,0.0,0.0,1.0,0.0,0.0,0.0,0.0,0.0,0.0,0.0,0.2780790722785571,-0.010771888068136275,-2.868012493647295,-3.048251906877755,-9.652285312513026,223.08588351543085,45.22422925671343,-0.023029165252505007,-0.049485986523046095,-0.04243588487174349,0.0,-0.19713620095991985,-1.384368634679359,-7.067389817917835,2.033777046679357,959.4172838326654,12.024446868496995,0.23656864948897796,-0.12995845819038077,-0.23085030086172345,-0.30175267228256514,-1.4516918960601202,-7.095835182066133,0.2259899520100201,-0.1245730405270541,-0.22545838761723447,2.033777046679357,54.967626773607215,52.53994882392786,4.098296403785572,0.84059034904008,15.332121593146292,21.13504462156313,-0.11605845736673347,2.679107062018036,-0.14967851863527054,11.395259464408818,458.10933475931864,12.025291762204409,95942.17674847695,1.1399518051262527,-0.3382996457595192,0.006659098909819592,0.05257721252705407,0.23959375366533067,-0.10533394503206413,-0.2233697681503006,0.3003615719118236,-0.01059192956713427,-2.8580517024869736,0.1404875503727455,0.01595663283767535,-0.14885326218236472,-0.9786981023807615,0.20609513259118237,398701081.48176354,327366929.7661323,458689.1966631263,14.815528703186372,-14.472508836012024,-3.14286390059519,1.4181945535651304,3.3557054469879763,0.0,0.0,0.0,39.87141370000001,32.7364371,-146.40117993406818,21.606248223567132,-58.472975139478955,-14.425069976292585,-2.832578971406814,1.7975803114168336,-0.9576667845170341,2.9418514548857715,3.1985403356252506,-3.064271069406814,58.713737038597195,0.2651104924769539,0.37101293025450904,0.029137671398797596,0.43343134946693385,48523880.59719439,0.0,1.0,0.0,0.0,0.0
48548463.0,0.06676235287174348,0.0015515686653306475,-0.055859229825651294,0.18283173138276554,0.0,1473.0591883426855,1500.0,1182.3867735470942,1468.032450761523,1530.967549238477,1497.0221506833666,14.580547062064127,14.907600361062123,14.712429098797594,14.586637830320642,14.913547817274548,14.71711024975952,15.046939586492986,132.64823516192385,132.64823516192385,12.02756751743487,-0.0017303037735470943,-0.0057130095030060125,0.0013418434348697395,-0.20227923618637275,0.1895077734028056,-0.04562118827254509,2.0,-1.0,0.0,11.0,0.0,0.0,1.0,0.0,0.0,0.0,0.0,0.0,0.0,0.0,0.28211674723847696,-0.008718343849699405,-2.8670854910721446,-3.0615239445931866,-10.388764088985969,236.68623472184365,45.33182310430862,-0.022989897266533065,-0.04906738105210421,-0.042255590753507016,0.0,-0.15336380873547106,-1.3766386168837677,-7.102903992857716,5.299375653883757,959.4191847955911,12.024745310080162,0.23407206862725452,-0.12473783125651304,-0.22476825368737477,-0.2875818484649299,-1.3942655993967938,-7.174371482236473,0.22592773506613228,-0.12302929127855712,-0.22225607587374752,5.299375653883757,55.11070642380761,52.56165382192385,4.107534178384769,0.9721569912645287,15.33214085276553,21.185836748316635,-0.11707391422044088,2.576197322519038,-0.15011150739278556,11.765616209098196,457.96447785150303,12.025637084549098,95943.8507339479,1.1399716686332666,0.03465259758717326,0.09481017140480935,0.1291479282785569,0.24170699659118236,-0.09926231981162326,-0.21771480899198398,0.30436497501803605,-0.009111632543086176,-2.856337141014028,0.14118214906012025,0.01709270832865731,-0.1506936878036072,-0.9782950085130261,0.22193518290180356,398701045.4196393,327366919.43647295,458651.91441663326,14.82351762503006,-14.497807369679359,-3.0603103421282567,1.5167261959298595,3.3498491383206415,0.0,0.0,0.0,39.87141370000001,32.7364371,-146.81455682484972,21.527681311543088,-58.41944748056112,-14.453985895531062,-2.7521313804849705,1.883943628551102,-0.9579268022124249,2.8863215950460925,3.1225958313266537,-3.0696858584849704,58.660209110741484,0.2579977329478958,0.39145990287975946,0.026997608032064135,0.46065243688176344,48548462.741482966,0.0,1.0,0.0,0.0,0.0
48573996.0,0.06668054987975952,0.005657039911823638,-0.05708074850701403,0.18275872911823646,0.0,1472.5511022044088,1500.0,1182.0,1468.0679792164328,1530.9320207835672,1499.2034239939878,14.635944903386774,14.964164704509017,14.7308213750501,14.604810948897795,14.932092151202404,14.74096872501002,15.07129635248497,132.98067415991986,132.98067415991986,12.02790548452906,-0.0017296925511022046,-0.005713716462925852,0.001339127773547094,-0.20258538139278556,0.18966506133266534,-0.04565134965531062,2.0,-1.0,0.0,11.0,0.0,0.0,1.0,0.0,0.0,0.0,0.0,0.0,0.0,0.0,0.28615442219839676,-0.006664799631262531,-2.8661584884969944,-3.0747959825330664,-11.125242867254507,250.28658592825647,45.43941695190381,-0.02295223611022044,-0.04866749192585171,-0.042087059104208416,0.0,-0.11384963025050109,-1.3711547085871745,-7.140764558146293,8.258297574979954,959.4216906482966,12.025045690901804,0.2337152446232465,-0.12075486402605211,-0.21899349590781564,-0.2561047164148298,-1.3713421841122244,-7.239136358470941,0.22592997558116232,-0.1212844845230461,-0.2190429528757515,8.258297574979954,55.251257001783564,52.58666189743487,4.116147383076153,1.0989909462264527,15.332159762244489,21.229989373667337,-0.11795658800400802,2.477216598458918,-0.15053402964929857,12.134076991302605,457.84254123867737,12.025985845450903,95945.25883501003,1.1399883900801604,0.12847227824048196,0.15595206031663322,0.025154776935872813,0.24127590948096195,-0.09445423751703408,-0.21223140016633266,0.30577575050100203,-0.006069066372745506,-2.856885168527054,0.14067607856913827,0.018640657198396787,-0.1511789120781563,-0.978262785250501,0.27067366184569114,398701009.37995994,327366909.17414826,458613.9247745491,14.831752603466933,-14.523105916813627,-2.977879807693387,1.6139661018937874,3.3440046423987977,0.0,0.0,0.0,39.87141370000001,32.7364371,-147.22793373807613,21.44911439951904,-58.36591982388777,-14.482901814769539,-2.6716837897875756,1.9703069456853706,-0.9581868199078156,2.830791735430862,3.0466513270280564,-3.0751006475631266,58.60668118288577,0.2503475040480962,0.4084476179178356,0.02556066989178357,0.483549501018036,48573996.1002004,0.0,1.0,0.0,0.0,0.0
48601169.0,0.062293396873747506,0.009130782707414823,-0.05688712118236474,0.1826773570741483,0.0,1471.3286573146293,1500.0,1182.0,1467.1799396272545,1531.8200603727455,1501.4074438436874,14.732387138056112,15.062725167234468,14.749213651302604,14.622984071342685,14.950636481262524,14.764827200260521,15.095653114609219,133.31311315791584,133.31311315791584,12.02824344775551,-0.0017290813286573148,-0.005714423036072144,0.0013364121122244488,-0.20289152621242484,0.1898223496492986,-0.045681511038076154,2.0,-1.0,0.0,11.0,0.0,0.0,1.0,0.0,0.0,0.0,0.0,0.0,0.0,0.0,0.2901920971583166,-0.0046112554128256555,-2.8652314859218437,-3.088068020859719,-11.861721648617234,263.8869371346693,45.547010799499,-0.022917343865731462,-0.048299855072144286,-0.04193879670941884,0.0,-0.08167326651302612,-1.369541328266533,-7.182668456803607,10.688749849478953,959.4252388557114,12.025349413446893,0.2370456802044088,-0.11890464967735472,-0.21374826360320642,-0.19480510678557128,-1.4078746269178357,-7.280170120244488,0.22604329011022042,-0.1191932125991984,-0.2158111997695391,10.688749849478953,55.38744944637275,52.617361883306614,4.12368431997996,1.2176694668877752,15.332178068356713,21.2627007153507,-0.11861044810420841,2.3850064099318637,-0.15093851588176352,12.499270623867734,457.7601012056112,12.026340531723447,95946.20876026052,1.1399996970841684,-0.25871326074749423,0.1705513382324649,-0.38998860966733373,0.23646039650501002,-0.09182351044288578,-0.2070436093246493,0.3027188730260521,-0.000334375691382777,-2.8613321217034073,0.1381009977975952,0.020898352158316626,-0.14932883403206412,-0.9788696515130261,0.37610318298797574,398700973.3789579,327366899.0278557,458574.71613827656,14.840411590140281,-14.54840448715431,-2.8956612700280564,1.708980069238477,3.3381805023687376,0.0,0.0,0.0,39.87141370000001,32.7364371,-147.64131068997992,21.370547487494992,-58.312392171082166,-14.511817734008016,-2.5912361994769544,2.0566702628196394,-0.9584468376032064,2.775261876202405,2.970706822729459,-3.080515436641283,58.55315325503006,0.24177110025050103,0.41947429086372745,0.025335367186372745,0.4989953464689378,48601168.60521042,0.0,1.0,0.0,0.0,0.0
48631704.0,0.06168593790180361,0.013325274016032057,-0.05843977825651303,0.1826536387975952,0.0,1471.0,1500.0,1182.0,1468.0794756352705,1530.9205243647295,1503.3406813627255,14.75438541232465,15.085135746372746,14.76760592755511,14.641157189318637,14.969180815791583,14.788685675511022,15.120009881202405,133.64555215591182,133.64555215591182,12.028581415450901,-0.0017284701062124249,-0.005715129609218437,0.0013336968977955912,-0.20319767147895793,0.18997963751903807,-0.04571167242084168,2.0,-1.0,0.0,11.0,0.0,0.0,1.0,0.0,0.0,0.0,0.0,0.0,0.0,0.0,0.2942297721182365,-0.002557711194388781,-2.8643044828997994,-3.1013400587394786,-12.59820042551102,277.48728834108215,45.65460464709419,-0.022884956014028058,-0.047914819302605216,-0.04178457587975952,0.0,-0.10732322404609211,-1.398429996541082,-7.256436213663327,8.95454852716233,959.4370018647295,12.025679458036072,0.23639683451703408,-0.11262633147895793,-0.2080146179498998,-0.2321988806553105,-1.4382844840621243,-7.350615046789579,0.22703193326653306,-0.11437159124048098,-0.21243262998797596,8.95454852716233,55.51738369314629,52.65623534651303,4.129675757841683,1.3246369521723445,15.332195511963928,21.278982614709417,-0.11893573625050101,2.3025185722765533,-0.1513171032785571,12.859772685010018,457.7286093881764,12.026727510541082,95946.56466088176,1.1400039042865733,-0.5665556821723442,0.23089761821242474,-0.36321409886172373,0.23971853864529055,-0.08613975069939882,-0.20005371570941885,0.3023041129579158,0.009651956571142265,-2.8641465687454915,0.13597778563527055,0.025546371158316622,-0.1484718804529058,-0.9791775578977956,0.4269891265330661,398700937.91422844,327366890.35631263,458525.72039398795,14.852474968997996,-14.573703222845692,-2.815144861420842,1.786121874531062,3.3325197989939883,0.0,0.0,0.0,39.87141370000001,32.7364371,-148.034286002004,21.301430046292584,-58.25648721314629,-14.539567542004008,-2.5182334811482967,2.132349070779559,-0.9507047760320642,2.744104926657315,2.8787310075250505,-3.085463396893788,58.49724802651303,0.23255594043687378,0.4357480152725451,0.02300719995390782,0.5190907258316633,48631703.98597194,0.0,1.0,0.0,0.0,0.0
48662792.0,0.06227757875751503,0.01760721588376753,-0.060464288054108216,0.18265904325651303,0.0,1470.88376753507,1500.0,1182.0,1469.401803727455,1529.598196272545,1505.1743486973949,14.748986678817635,15.079529920360722,14.785998203807614,14.659330305651302,14.987725151963927,14.812544150761523,15.144366649438878,133.9779911539078,133.9779911539078,12.028919384208416,-0.0017278588837675351,-0.005715836182364729,0.0013309817895791583,-0.20350381690981964,0.1901369252244489,-0.04574183380360721,2.0,-1.0,0.0,11.0,0.0,0.0,1.0,0.0,0.0,0.0,0.0,0.0,0.0,0.0,0.2980689592805611,-0.00016826119639279217,-2.8635235459138277,-3.114117258761523,-13.30671311991984,290.5636922236473,45.775479046432864,-0.02285375139679359,-0.04752299326653307,-0.04162970076553106,0.0,-0.15423667191182358,-1.438534664747495,-7.341920725557114,5.688949918298601,959.4517855631262,12.026019181002004,0.23478277468336672,-0.10522567962925852,-0.20259688755911823,-0.29503889290581164,-1.459160634925852,-7.424294872647295,0.22834244608416834,-0.1085459849458918,-0.20900007380561123,5.688949918298601,55.645016719198395,52.69811430362725,4.135098895549098,1.4272981374529057,15.332212638416834,21.289223193887775,-0.1191402042745491,2.223605769412826,-0.15168616733667334,13.218549594328657,457.7104716134269,12.027126643867735,95946.76719378759,1.1400062779298599,-0.7872168670220444,0.26272617560120287,-0.1583510512725455,0.24520991311422846,-0.07952471196993989,-0.192942223002004,0.3028384620581162,0.021195746853707405,-2.866412822382766,0.13399490190981964,0.031065084378757508,-0.1479717279238477,-0.9793751058096193,0.4572947836292585,398700902.6466934,327366882.23286575,458473.12580280565,14.865790187134268,-14.59900201991984,-2.735254347745491,1.8566918534188375,3.3269191934028055,0.0,0.0,0.0,39.87141370000001,32.7364371,-148.4196793396794,21.23582436318637,-58.19969876503006,-14.566883981983969,-2.4479975413667336,2.2040571361202406,-0.9399888579719439,2.722005814917836,2.7807973885931867,-3.090237867048096,58.440459308877756,0.22302305053106214,0.4536675013086172,0.020071821791583167,0.5403622422845691,48662792.37675351,0.0,1.0,0.0,0.0,0.0
48687375.0,0.06105387413827655,0.020199104661322645,-0.06086821379559118,0.1827398499198397,0.0,1469.6613226452905,1500.0,1182.0,1468.4921225851704,1530.5078774148296,1507.0080160320642,14.743369092244489,15.073780358637274,14.804390480060121,14.677503421983968,15.006269488136272,14.836402626012024,15.16872341767535,134.3104301519038,134.3104301519038,12.02925734743487,-0.0017272476613226452,-0.0057165427555110225,0.001328266128256513,-0.20380996234068136,0.1902942129298597,-0.045771995186372746,2.0,-1.0,0.0,11.0,0.0,0.0,1.0,0.0,0.0,0.0,0.0,0.0,0.0,0.0,0.30001909016232464,0.0054180851863727415,-2.864132756214429,-3.1221849690120242,-13.74906587252505,298.6535629551102,46.02274766236473,-0.022825043501002003,-0.04712743210420842,-0.041489450885771544,0.0,-0.2011501197775551,-1.4786393329539078,-7.427405237450902,2.4233513110941907,959.4665692615231,12.026358898436873,0.2379084849739479,-0.10264015917835671,-0.20189505688777554,-0.2546682084669339,-1.4107288848356714,-7.425834309110221,0.2296529583486974,-0.10272037920440882,-0.20556751762324652,2.4233513110941907,55.7726497452505,52.73999326074148,4.140522032703407,1.529959322733467,15.332229764869739,21.29946376753507,-0.1193446728517034,2.144692965995992,-0.15205523139478958,13.577326503647294,457.6411284270541,12.027528443166332,95947.58894569139,1.1400160477094188,-0.4558234188056115,-0.13695213893787545,0.19488178258517005,0.2437008269018036,-0.07473090044689379,-0.19098010543687374,0.30315932266933865,0.03268313910821643,-2.8691749274428857,0.13176619234068135,0.03650519456913827,-0.1473917853987976,-0.979568589496994,0.48261432317835673,398700867.3791583,327366874.1647295,458420.5312116232,14.879105405270542,-14.62430082252505,-2.6553638335170344,1.9272618323066133,3.321318587811623,0.0,0.0,0.0,39.87141370000001,32.7364371,-148.8043110501002,21.17057143462926,-58.142821576553104,-14.59415689250501,-2.378039526947896,2.2753663372124247,-0.9289742138837676,2.7008165700881763,2.6822653043146296,-3.09499491048497,58.3835818453507,0.2127016457715431,0.4688874462785571,0.018716683565130263,0.5565557680360721,48687375.13226453,0.0,1.0,0.0,0.0,0.0
48711958.0,0.05957420519038077,0.02303385163527053,-0.060750528715430865,0.18274952311623247,0.0,1468.8365683767536,1500.0,1182.0,1468.2342592785571,1530.7657407214429,1508.7245538677355,14.760560777014028,15.091375224569138,14.822782756312625,14.695676538316633,15.024813824308618,14.860261101262525,15.193080183106211,134.6428691779559,134.6428691779559,12.029595313466935,-0.0017266364388777555,-0.005717249328657315,0.0013255504669338679,-0.2041161077715431,0.19045150063527055,-0.04580215656913828,2.0,-1.0,0.0,11.0,0.0,0.0,1.0,0.0,0.0,0.0,0.0,0.0,0.0,0.0,0.3004792770761523,0.013525900867735436,-2.8658384086392785,-3.1265381908456917,-13.981491857194388,302.81043467254506,46.369706448637274,-0.02279834526452906,-0.046733635671342685,-0.041353441126252506,0.0,-0.24672344976753494,-1.4847166709398798,-7.5027531517494985,0.47246702132465057,959.4743909198396,12.026718734909819,0.24165028841082162,-0.09767044686372749,-0.19763139222845694,-0.2537109398597193,-1.3822705568296594,-7.485992373468938,0.2298332461242485,-0.09733907538677357,-0.20265710897595193,0.47246702132465057,55.90028277410821,52.7818722150501,4.145945170138277,1.6326205080140277,15.332246891322646,21.309704341182364,-0.11954914114829658,2.0657801625791588,-0.1524242954529058,13.936103412965931,457.58774190200404,12.02794467733467,95948.19897775551,1.1400233028196394,-0.2575031922725452,-0.10255141295591358,0.43133053447895764,0.24098896113026055,-0.06974228243086175,-0.18756433055711424,0.30340250656713424,0.04413870086172341,-2.872081169937876,0.1294664814488978,0.04191432632264527,-0.14678721044889778,-0.9797498957094188,0.5059335960340681,398700832.1116233,327366866.06853706,458367.93662044086,14.892420626212427,-14.64959962513026,-2.575473319569139,1.9978318111943885,3.315717982220441,0.0,0.0,0.0,39.87141370000001,32.7364371,-149.20050754609218,21.106015296452906,-58.08207124739479,-14.622650145711422,-2.3070566715671346,2.345412397422846,-0.9346754011783567,2.678443608705411,2.5832864474909822,-3.099775403781563,58.32283133372746,0.20219680678356716,0.48332044591783563,0.01733678497795592,0.5711672881763526,48711957.60721443,0.0,1.0,0.0,0.0,0.0
48736540.0,0.057792863997996005,0.026154824340681355,-0.0600180880240481,0.18267536044088178,0.0,1468.4805209118235,1500.0,1182.0,1468.7446098496994,1530.2553901503006,1510.303046222445,14.80463481729459,15.136483165951905,14.84117503256513,14.713849654649298,15.043358160480961,14.884119576513026,15.21743694523046,134.97530823707416,134.97530823707416,12.029933282805612,-0.001726025216432866,-0.005717955901803607,0.0013228348056112224,-0.20442225320240487,0.1906087883406814,-0.04583231795190381,2.0,-1.0,0.0,11.0,0.0,0.0,1.0,0.0,0.0,0.0,0.0,0.0,0.0,0.0,0.2991834585991984,0.024605448222444856,-2.86883629642485,-3.126513622759519,-13.966504151082164,302.3319861234469,46.83415722138276,-0.02277401555511022,-0.0463419190981964,-0.04122242865130261,0.0,-0.2907173551182363,-1.450690369737475,-7.566154361739478,0.07106746281763632,959.4740073166332,12.027102283106212,0.2461182016272545,-0.08989079413827658,-0.1891698517975952,-0.2992051970541081,-1.3773523334228457,-7.615236677847696,0.22868148360921844,-0.0924814131222445,-0.20036208849499,0.07106746281763632,56.027915806272546,52.823751166052105,4.151368307903807,1.735281693294589,15.332264017775552,21.31994491482966,-0.11975360911422846,1.986867359162325,-0.15279335951102205,14.294880322284568,457.55316144208416,12.028377924028057,95948.55948286573,1.140027594212425,-0.21601926272344701,0.44344246792585024,0.530140904058116,0.23685953373547095,-0.06452407104809621,-0.18243531669939883,0.30355414290981964,0.05555674809619235,-2.875157288695391,0.12708309042685373,0.047286947775551084,-0.1461536044268537,-0.9799168498977956,0.5268954117154308,398700796.8440882,327366857.93927854,458315.3420292585,14.905735850460927,-14.67489842773547,-2.495582805951904,2.068401790082164,3.3101173766292584,0.0,0.0,0.0,39.87141370000001,32.7364371,-149.61033396793587,21.042280375511023,-58.01675614529058,-14.65258165993988,-2.23486596790982,2.4139697558797595,-0.960077389745491,2.6546755528136274,2.4837810373106213,-3.104583534412826,58.25751615827655,0.19147577745490985,0.49682597427454905,0.01592770453707415,0.5839143017034067,48736539.751503006,0.0,1.0,0.0,0.0,0.0
