timestamp,control[0],control[1],control[2],control[3],control[4],output[2],output[3],output[4],output[5],output[6],output[7],indicated_airspeed_m_s,true_airspeed_m_s,indicated_airspeed_m_s.1,equivalent_airspeed_m_s,true_airspeed_m_s.1,equivalent_ground_minus_wind_m_s,true_ground_minus_wind_m_s,differential_pressure_raw_pa,differential_pressure_filtered_pa,temperature,gyro_bias[0],gyro_bias[1],gyro_bias[2],accel_bias[0],accel_bias[1],accel_bias[2],instance_count,seq_reached,seq_current,seq_total,item_changed_index,item_do_jump_remaining,valid,warning,finished,failure,stay_in_failsafe,flight_termination,item_do_jump_changed,execution_mode,nav_roll,nav_pitch,nav_bearing,target_bearing,xtrack_error,wp_dist,acceptance_radius,rollspeed_integ,pitchspeed_integ,yawspeed_integ,additional_integ1,x,y,z,temperature.1,pressure,temperature.2,gyro_rad[0],gyro_rad[1],gyro_rad[2],accelerometer_m_s2[0],accelerometer_m_s2[1],accelerometer_m_s2[2],x.1,y.1,z.1,temperature.3,altitude_sp,altitude_filtered,height_rate_setpoint,height_rate,airspeed_sp,airspeed_filtered,airspeed_derivative_sp,airspeed_derivative,throttle_integ,pitch_integ,baro_alt_meter,baro_temp_celcius,baro_pressure_pa,rho,xyz[0],xyz[1],xyz[2],xyz[0].1,xyz[1].1,xyz[2].1,roll_body,pitch_body,yaw_body,q_d[0],q_d[1],q_d[2],q_d[3],thrust_body[0],lat,lon,alt,vel_m_s,vel_n_m_s,vel_e_m_s,vel_d_m_s,cog_rad,ground_contact,maybe_landed,landed,ref_lat,ref_lon,x.2,y.2,z.2,vx,vy,vz,ax,ay,az,yaw,dist_bottom,roll,pitch,yaw.1,thrust_body[0].1,timestamp.1,isTakeoff,isClimbing,isDescending,isCruise,isLand
61660241.0,0.016070078,0.046989234000000005,0.035360045,0.213915271,0.0,1517.0,1500.0,1213.0,1492.0,1507.0,1521.0,16.06393313,16.46040129,16.23247374,15.99424239,16.38852451,16.31547272,16.71767292,160.28726980000005,160.28726980000005,11.73374035,-0.001397755,-0.005878646,0.001113519,-0.237841474,0.192352747,-0.009543893,2.0,-0.330466093,0.669533907,11.0,0.0,0.0,1.0,0.0,0.0,0.0,0.0,0.0,0.0,0.0,0.261322694,0.072553181,-3.029657079,-3.053954832,-6.755240509,57.41923967,47.37216587,-0.024641357000000003,0.011551276,0.020895091,0.0,-0.312939333,-1.123959563,-7.5790071710000015,-6.64e-34,954.2587296,11.731995,0.065644035,-0.111319421,-0.004587865,-0.26489877,-1.335915754,-7.526198345,0.065600954,-0.108410729,-0.00564048,-6.64e-34,100.046326,101.2834103,-0.061854311,-1.4062147580000002,15.36849422,16.67767697,-0.026183642000000003,0.309975479,-0.277648857,113.8316087,503.2484408,11.731995,95424.58563,1.133801928,-0.113153967,-0.215996685,-0.022082112,0.068209387,-0.099025409,-0.005575934,0.264244805,0.07343188099999999,-3.026899499,0.051948987,0.043875306,-0.129347113,-0.989263305,0.224542156,398678773.9,327366523.2,503580.1678,16.56444289,-16.5129986,1.398445675,-0.246437279,3.056503932,0.0,0.0,0.0,39.87141370000001,32.7364371,-394.8872037,18.52624852,-103.5787312,-16.45392293,1.486459597,0.032452327,0.32522037600000003,0.268872289,2.060024513,2.962344278,103.8194912,0.100358305,0.226986697,0.07571038599999999,0.22649607,61660241.0,0.0,0.0,0.0,1.0,0.0
61925396.0,0.01370477448296593,0.06705590988376753,0.03757795198597194,0.2159192306212425,0.0,1518.0,1500.0,1215.0,1493.0,1506.0,1531.7187911222447,16.026248408517034,16.42158609513026,16.15431148709419,15.913077076372746,16.305340277675352,16.21180230046092,16.611428495370742,158.13818211703406,158.13818211703406,11.733516023767535,-0.0014014841983967937,-0.005877490380761523,0.0011107062104208417,-0.237919843250501,0.19227538411222445,-0.008964707985971944,2.0,-0.31452422777955913,0.6854757722204409,11.0,0.0,0.0,1.0,0.0,0.0,0.0,0.0,0.0,0.0,0.0,0.2618266434589179,0.07720850832665331,-3.0242321181122245,-3.0379899429258517,-7.041571901376753,52.95011059509018,47.588431424208416,-0.02429189078957916,0.014539973861723447,0.022230808529058118,0.0,-0.3636300077695391,-1.2664455001723447,-8.151186755765531,-6.64e-34,954.267107041483,11.732411630561122,0.059553563503006016,-0.08526854367735472,0.005099182448897796,-0.2617512665551102,-1.2376451226593186,-8.006532962074148,0.0580911806733467,-0.08380671116633266,0.0022945167875751504,-6.64e-34,100.046326,100.89022683587174,-0.04219505070541082,-1.5895802594028057,15.368168730541083,16.820249616513028,-0.02904159716232465,0.4279242973386773,-0.2791955676332666,114.16278836052103,503.1166190821644,11.732566094248497,95426.1115450501,1.1338200191042085,0.1776648854028057,0.3648489465571142,-0.01950806349699384,0.06615974830861723,-0.07036592020240481,0.00391178045490982,0.26323050817434873,0.07852302675951904,-3.0222299576513025,0.0539425063486974,0.046664363070140276,-0.12858005451503005,-0.9891306873366734,0.22904299629859717,398678374.159519,327366569.0551102,503573.000195992,16.484269728416834,-16.406179821843686,1.51,0.2925833911843687,3.0493725188176355,0.0,0.0,0.0,39.87141370000001,32.7364371,-399.54872230360724,18.951174113426855,-103.5055167498998,-16.385750590280562,1.55817529496994,0.5441108014408818,0.1917671602725451,0.2096868700981964,1.5834787286733465,2.9587433073386777,103.74627674989979,0.08237896364729459,0.23958591939078155,0.0764601008256513,0.23197020154308617,61925396.028056115,0.0,0.0,0.0,1.0,0.0
62207424.0,0.01368592543486974,0.0852874175751503,0.038704723116232465,0.21683545028056112,0.0,1519.0,1500.0,1216.0,1493.739478957916,1505.260521042084,1541.1196961482965,16.027986522004007,16.42320280705411,16.100683222124246,15.856173723787576,16.246974934388778,16.14141202228457,16.53924263513026,156.71649466833668,156.71649466833668,11.733753128937876,-0.0014045692765531062,-0.005874314669338677,0.0011084087254509018,-0.23794332965731463,0.19221982979158317,-0.008517368420841684,2.0,-0.29858236181963926,0.7014176381803606,11.0,0.0,0.0,1.0,0.0,0.0,0.0,0.0,0.0,0.0,0.0,0.2581106336573146,0.08227648239278557,-3.020633841224449,-3.0213194698517034,-7.251158270753506,48.47109669018036,47.856037608416834,-0.023920516733466932,0.01758946039278557,0.023566411178356714,0.0,-0.2683362071462926,-1.2113832414108217,-8.476365419270541,-6.64e-34,954.2995288973948,11.733651230841684,0.05376478868737475,-0.06281472253106213,0.014966171388777556,-0.24643567334669336,-1.2610781661122246,-8.551090180460921,0.055247943899799604,-0.060530761322645295,0.01244460680761523,-6.64e-34,100.046326,100.4313046014028,-0.019249061885771544,-1.798369294693387,15.367764177014028,17.01296274270541,-0.032903965122244486,0.5271068117755511,-0.28073617050701405,114.68472231322646,502.8645218178357,11.733858254228457,95428.98751074148,1.1338541787174348,0.21408082383166335,0.24999430096392783,-0.4808615973406819,0.05758014072745491,-0.04081657905410822,0.01220618727054108,0.2655049125571142,0.08342365534869739,-2.895095076204409,0.11473790606613217,0.05763018429058115,-0.12498313660320642,-0.9758525767595191,0.23434388478156312,398677966.53587174,327366618.4841683,503418.34788957913,16.46,-16.384735530541082,1.5152644674168336,0.7263472062645291,3.04881450491984,0.0,0.0,0.0,39.87141370000001,32.7364371,-404.0733867276553,19.379303141302607,-103.31156091623245,-16.38090547296593,1.5846088139358718,0.9119862318777554,-0.056535909661322624,0.08808241440681364,1.1228852437855712,2.95866798656513,103.55232091623246,0.368213325761523,0.24505938015631262,0.07804308945090181,0.23739639250501002,62207423.80360722,0.0,0.0,0.0,1.0,0.0
62489452.0,0.009571690783567132,0.09849555748697394,0.04008484908617234,0.2221087875751503,0.0,1519.3907815631262,1500.0,1220.3907815631262,1494.0,1505.0,1547.3907815631262,16.109879157855712,16.50691685230461,16.144007173186374,15.895147590681363,16.28668765767535,16.202536533426855,16.601647757695392,158.16931185250496,158.16931185250496,11.735813703406814,-0.0014073504148296593,-0.005870187004008016,0.0011063536973947895,-0.23794094498597193,0.1921745550781563,-0.008132178631262525,2.0,-0.28264049572945893,0.7173595042705412,11.0,0.0,0.0,1.0,0.0,0.0,0.0,0.0,0.0,0.0,0.0,0.4584326866853708,0.08709052119038076,-2.7719478469078154,-2.517584733302605,10.364185548460926,136.43615490300604,48.173431976332665,-0.022778374138276554,0.020434887951903808,0.024610790318637273,0.0,-0.3041142553987976,-1.2672053765490983,-8.921497847406814,6.991020424931858,954.3260423252506,11.735421790861723,0.05070585566132264,-0.03577217384368737,0.02112111884969941,-0.25902247797795586,-1.251790003963928,-8.838781734529057,0.04666093619038075,-0.03495586754108216,0.018415823054108223,6.991020424931858,100.046326,99.94819740460922,0.004906437102204415,-1.9720931788897795,15.367364939318637,17.254167789599197,-0.037736053727454914,0.5927390166873747,-0.2821431700521042,115.3871993006012,502.5652538268537,11.735709777134268,95432.40065569138,1.1338948566412825,-0.166346814086173,0.22656025271543012,-0.2263075317394785,0.04984973662925851,-0.018655056945891778,0.027840176791583165,0.6598168916813628,0.08840411328857715,-2.3849168,0.3357570380661323,0.15836703738076152,-0.28526514929659325,-0.8834558849338677,0.24221651818036072,398677568.8945892,327366667.0480962,503176.7944068136,16.477237694468936,-16.405856538657318,1.528618846234469,1.0209957663947897,3.0482655436492987,0.0,0.0,0.0,39.87141370000001,32.7364371,-408.6979486657315,19.813703010300603,-103.02216353507015,-16.420243788316633,1.560886608523046,1.1685524118997996,-0.21759835462324648,-0.10507915061523053,0.795667447260521,2.9625941368577156,103.26292353507014,0.6679426589859718,0.2737621908957916,0.11376446131462928,0.2550954338677355,62489451.96993988,0.0,0.0,0.0,1.0,0.0
62780691.0,0.004349861793587177,0.10818658036873748,0.040202788893787575,0.22701264372745492,0.0,1519.2994085671344,1500.0,1226.0,1495.7005914328656,1503.2994085671344,1552.5210420841684,16.16842420076152,16.566666486112226,16.1873311342485,15.93412145757515,16.326400373567132,16.263661044569137,16.66405288026052,159.62212903667336,159.62212903667336,11.737874267875751,-0.0014101315531062123,-0.005866059338677354,0.0011042989298597195,-0.23793856031462926,0.1921292801042084,-0.007746988841683367,2.0,-0.26669863063927857,0.7333013693607215,11.0,0.0,0.0,1.0,0.0,0.0,0.0,0.0,0.0,0.0,0.0,0.7381273754348697,0.09180577858717434,-2.427920532210421,-1.8243776290701403,34.9135871103006,260.362786504008,48.51019438511022,-0.02232401133266533,0.023398458266533063,0.024996006460921844,0.0,-0.29466850713426856,-1.172959063719439,-9.324143995034067,-6.64e-34,954.3448706398798,11.737657395310622,0.03726383133466934,-0.02008761353907816,0.029288288565130258,-0.3014871156312625,-1.211469874785571,-9.245590294258516,0.043911418573146295,-0.016602878617234473,0.02591521827054108,-6.64e-34,100.046326,99.37271186332666,0.033680826867735464,-2.142746464765531,15.367042513967936,17.49949634985972,-0.04264906929258516,0.6251634869799599,-0.2836242646372746,116.43109119338676,502.27556352545093,11.737891367995992,95435.73742981964,1.1339344676753507,-0.15445175838076214,0.14475775342485003,-0.18185442336873772,0.041292162376753504,-0.0044222201202404835,0.029693910276553104,0.7721739269458918,0.09279966361322645,-2.3849168,0.3255871418797595,0.1788751597014028,-0.3336871092324649,-0.8664002559258517,0.26947774682164327,398677164.0338678,327366716.11623245,502867.28814208414,16.531839347875753,-16.445785795711423,1.47816065404008,1.2257857140901804,3.0514528916292587,0.0,0.0,0.0,39.87141370000001,32.7364371,-413.27504998376753,20.228820545831663,-102.6778833743487,-16.4896524751503,1.4886289087474949,1.3183626908697395,-0.31513629912424845,-0.34151622124448894,0.3982261277815632,2.9690737839098196,102.91864337434869,0.4240005685971944,0.34786809476753505,0.16001464924649297,0.27660041795591184,62780691.29659319,0.0,0.0,0.0,1.0,0.0
63068989.0,0.004366653210420832,0.1148556462004008,0.0412284128737475,0.23307103004008017,0.0,1520.0,1500.0,1230.7845858216433,1498.0,1501.0,1556.1332832164328,16.263450673426853,16.66375949977956,16.230655095310624,15.973095324468938,16.366113095971944,16.324785555711422,16.726457996312625,161.07494632084166,161.07494632084166,11.739934842344688,-0.0014130598857715433,-0.005862002665330661,0.0011021565390781562,-0.23793557188577155,0.19208312231262525,-0.007359682318637276,2.0,-0.25075676454909823,0.7492432354509018,11.0,0.0,0.0,1.0,0.0,0.0,0.0,0.0,0.0,0.0,0.0,0.7898352941623247,0.09750682437675351,-2.319201569240481,-1.7239137451603206,34.15713142274549,275.2813856699399,49.068937928537075,-0.02251216993987976,0.026609706246492986,0.02410864730460922,0.0,-0.32513275254508994,-1.2876936110260517,-9.57101347480962,-6.64e-34,954.391711824048,11.740105490801604,0.0272209679759519,-0.003274083823647296,0.02825901252505012,-0.2558407314308616,-1.2058217520801602,-9.536190218204409,0.021692548158316657,-0.007490371444889777,0.03375859930060119,-6.64e-34,100.046326,98.80652532741483,0.06199018037274548,-2.261278725993988,15.366671096112226,17.745405978496994,-0.04757468819639278,0.631385820513026,-0.2849300333106212,117.6417012753507,501.90695224929857,11.74026473767535,95439.94495707414,1.1339844370761523,-0.33122040967936045,-0.29601912787775503,-0.17169848192785564,0.02430354977354709,0.009460639482965922,0.029742454116232442,0.7790393863747495,0.09854081158116232,-2.3403392964348697,0.34311106364729455,0.1898783248537074,-0.3314699386092185,-0.8580864096853706,0.28055329218236474,398676756.70020044,327366762.5893788,502514.49091482966,16.61196561234469,-16.547293215991985,1.382051523246493,1.3006552054328657,3.0580223863687372,0.0,0.0,0.0,39.87141370000001,32.7364371,-417.9712310629259,20.626203846633267,-102.29598742945892,-16.589930993747497,1.3764117768737476,1.3849366684529056,-0.37491272430060113,-0.4588503054729458,0.10041018039679371,2.9774904944128258,102.53674742945891,0.3368896170861724,0.4300514503627254,0.17338179326653305,0.2873441652705411,63068988.73947896,0.0,0.0,0.0,1.0,0.0
63341790.0,0.1098974573166333,0.1188831279739479,0.04171761980761523,0.23872977254509017,0.0,1520.0,1500.0,1236.7815631262524,1457.2276271943888,1541.7723728056112,1558.0,16.331516058697392,16.733125898617235,16.328958367174348,16.06547002747495,16.46051079240481,16.415861222725454,16.81952039260521,163.33597187314626,163.33597187314626,11.742232460340682,-0.001418590130260521,-0.005859203296593186,0.001098467246492986,-0.2379219001282565,0.1920213381002004,-0.006934922649298597,2.0,-0.23481489845891784,0.7651851015410821,11.0,0.0,0.0,1.0,0.0,0.0,0.0,0.0,0.0,0.0,0.0,0.8092036593967936,0.1034586610761523,-2.2418044758236473,-1.708051877529058,29.76296463272545,274.6041046987976,49.6651033755511,-0.022540360853707413,0.030120589098196395,0.022179538503006014,0.0,-0.19316513726452916,-1.2939047281723446,-9.815731648144288,-6.64e-34,954.4605255613226,11.742588191703408,0.01227767151102204,0.007856408789579161,0.0412800722004008,-0.2026949387034067,-1.2302622098737475,-9.820103258509018,0.016180473741482976,0.011826935358717426,0.032699196114228446,-6.64e-34,100.046326,98.16921591721443,0.09385555378957916,-2.320285134923848,15.36619538987976,17.93807884238477,-0.051437678238476954,0.5901327470661323,-0.286254358252505,119.22747753366734,501.37749789539083,11.742690366372745,95445.99740326653,1.134056392006012,0.04763684722044108,0.5320995430140291,-0.3035155479098174,0.01318513950100201,0.02190955255911823,0.03655634423647296,0.8187935527314629,0.10544118101202406,-2.205930546733467,0.394382527751503,0.22240271533867736,-0.33298471696392784,-0.8271036314589179,0.29121345572545093,398676351.3478958,327366804.9146292,502148.9819248497,16.70077386519038,-16.6494558457515,1.2531801780340681,1.3447279234388778,3.0664132488497,0.0,0.0,0.0,39.87141370000001,32.7364371,-422.5662246513026,20.976578519579157,-101.92443652184369,-16.701232306773548,1.2366879108476954,1.3736671115631265,-0.3603310711482965,-0.569179337985972,-0.1332136094368738,2.9876573594308615,102.16519710921844,0.27225329285771543,0.49711732092184374,0.17096616350701402,0.2979125503006012,63341790.41082165,0.0,0.0,0.0,1.0,0.0
63625735.0,0.09326435621242485,0.1364462894488978,0.052929770553106215,0.26244429609218434,0.0,1524.6335355711424,1500.0,1254.5591182364728,1443.4538343086172,1555.5461656913828,1564.8236472945891,16.529514185591182,16.93572339755511,16.476273431703405,16.205449367054108,16.60365790280561,16.533637106513027,16.939912476372747,166.317481702004,166.317481702004,11.744741402064129,-0.0014242033186372743,-0.005856443679358717,0.0010947297875751505,-0.23790789048296593,0.19195905887174347,-0.006508978669338678,2.0,-0.21887303336873748,0.7811269666312625,11.0,0.0,0.0,1.0,0.0,0.0,0.0,0.0,0.0,0.0,0.0,0.8327310570120241,0.11139665690781564,-2.122974502915832,-1.6908118212004009,24.96134792513026,273.50827504789584,50.3644052952505,-0.02254693271743487,0.03385984764529058,0.019729915438877754,0.0,-0.2799110364689379,-1.2245268979258517,-9.795967955937876,8.0162472501002,954.4888403885772,11.74497567983968,0.3511929603286573,0.02345921695791583,0.061982700671342685,-0.18459284819438881,-1.2219426058697396,-9.769256043086171,0.4034247606973948,0.02415442822845692,0.06773416225651303,8.0162472501002,100.046326,97.58187690396794,0.12322249261322644,-2.2716895216252504,15.365703081342685,18.076648898577155,-0.05421891479759519,0.5067289613607215,-0.28731448276152305,120.93158902124249,501.1191625841683,11.745086036012024,95448.9640409018,1.1340916689639278,1.6500617426172344,0.3481032698256513,0.3087022129639279,0.36480761051703414,0.03719546992184369,0.060695654877755516,0.8431349831563126,0.11344264234268538,-2.0859280339478956,0.4387840227234469,0.2504497611022044,-0.32687656891583167,-0.7986785342304609,0.3009578781022044,398675936.31963927,327366843.2973948,501775.62920701405,16.796289877494992,-16.768327231482967,1.1194546126753506,1.3518545429278557,3.074432342312625,0.0,0.0,0.0,39.87141370000001,32.7364371,-427.327211446493,21.290011503667333,-101.54690828316633,-16.82498967024048,1.025930834008016,1.34644911401002,-0.5145721565370742,-1.084281154981964,0.06848109197194392,3.0033090606192387,101.78766908316634,0.21591951930260522,0.5630511666713427,0.16346090544088177,0.30780420581162327,63625734.92985972,0.0,0.0,0.0,1.0,0.0
63912974.0,0.04275755871743487,0.16736403933266533,0.0581544233747495,0.2784506482765531,0.0,1528.0252387174348,1500.0,1276.0841683366734,1477.092481078156,1521.907518921844,1580.1094070541083,16.57109805733467,16.977928704148297,16.623588506232466,16.345428706633268,16.74680500320641,16.65141298987976,17.060304570140282,169.29899163086174,169.29899163086174,11.747250353787575,-0.0014298165490981962,-0.005853684062124249,0.0010909913707414828,-0.23789388083767535,0.19189678046693387,-0.006083034865731463,2.0,-0.20293116727855712,0.7970688327214429,11.0,0.0,0.0,1.0,0.0,0.0,0.0,0.0,0.0,0.0,0.0,0.8529367625671344,0.1195460627294589,-2.0072148739879756,-1.6736972182925853,20.19761724653307,272.2814201114229,51.05392433943888,-0.022533645635270542,0.03778938375751503,0.016404857603206414,0.0,0.08070028696192379,-1.257270767749499,-9.521819971977957,-6.64e-34,954.5419983911823,11.747518398476954,0.5759586149659319,0.05301978341082163,0.13862974260320637,0.12174410259719447,-1.1849674691823644,-9.447573204725451,0.5725153356332666,0.053583555196392775,0.15092502862324647,-6.64e-34,100.046326,96.98242012711422,0.1531954189498998,-2.089655565703407,15.365202268877756,18.16903154963928,-0.05607657757314629,0.4066453643967936,-0.28825180945090184,122.9462111278557,500.6633943741483,11.74751333975952,95454.18200793587,1.1341535840561123,-0.4359488941302605,-0.13562333550701483,0.6587647710821639,0.5818158338336674,0.0622042566793587,0.13275125006412822,0.8574583219579157,0.12184221392985971,-1.976730108430862,0.47820651041883766,0.2744856696773547,-0.3160718180801604,-0.7720558243667335,0.3117354194529058,398675527.3466934,327366874.7851704,501408.82491743483,16.913906915511024,-16.893907376252507,0.8382778763587175,1.373907328472946,3.091673660138277,0.0,0.0,0.0,39.87141370000001,32.7364371,-431.99675661623246,21.50699634729459,-101.17169611202405,-17.008596378777554,0.550191076913828,1.4528136616853704,-0.7469869980060121,-2.342989518364729,0.7580086801583166,3.038048742294589,101.41245611202405,0.1687044464549098,0.614999497250501,0.14375109841482964,0.3176963304008016,63912974.21442886,0.0,0.0,0.0,1.0,0.0
64200088.0,0.03404574688376754,0.19944952537074145,0.055803379835671345,0.2900763091182365,0.0,1528.0,1500.0,1286.6221748917835,1481.722514486974,1517.277485513026,1596.3446893787575,16.792560408897796,17.204415844048096,16.770903570761522,16.48540805448898,16.889952103607214,16.76918887236473,17.180696663907817,172.28050155971945,172.28050155971945,11.749759295511021,-0.0014351752204408816,-0.005851544012024048,0.0010870904609218439,-0.23791856158717434,0.19182521916032064,-0.005748200340681363,2.0,-0.18698930118837678,0.8130106988116231,11.0,0.0,0.0,1.0,0.0,0.0,0.0,0.0,0.0,0.0,0.0,0.8581007275130261,0.12842542532064127,-1.9091560052364729,-1.6572740714068137,15.641815964849702,270.5200932753507,51.68996173436874,-0.0225162510501002,0.041749085843687375,0.012091141286573149,0.0,0.20039664795991988,-1.1839061658697396,-9.571242678993988,8.30447728709418,954.5927439875752,11.750141714709418,0.40781873872144303,0.08802015652505009,0.2234823324128256,0.13522856846893794,-1.2486100809318637,-9.485100819729459,0.39167661372545093,0.09271492278957913,0.23154478429458916,8.30447728709418,100.046326,96.46032694206413,0.17930012493386774,-1.7502119410300605,15.364790741983967,18.169818434148297,-0.056100559939879766,0.31655207577555117,-0.2889485309519038,125.05264456593186,500.3804042408819,11.75023280270541,95457.413561002,1.1341919490340682,-0.8560304140200401,-0.21679022497194728,0.31111973975751533,0.4173481536573148,0.09630416151503003,0.21855272560521039,0.8631632785871745,0.13082209804208417,-1.8776190325971944,0.5133711008276554,0.2944890460140281,-0.3017185315631263,-0.7474549421282565,0.32151784216432866,398675104.22204405,327366893.458517,501010.87451723445,17.09127034302605,-17.088571648737474,0.2003948367014033,1.5423371558617234,3.1296982221863727,0.0,0.0,0.0,39.87141370000001,32.7364371,-436.63713558797593,21.54529179809619,-100.75662465911823,-17.229981786733465,-0.2724530957434864,1.656494080547094,-0.7867149749539079,-3.6825974402965924,0.7199298003567137,3.097097437717435,100.99738465911823,0.12419622924048099,0.6588815549979959,0.13100224742084168,0.32885802061723446,64200087.78957916,0.0,0.0,0.0,1.0,0.0
64465367.0,0.022443490945891792,0.2247026886533066,0.05030935180160321,0.2999879362725451,0.0,1526.3947895791584,1500.0,1297.3026052104208,1487.3026052104208,1511.6973947895792,1609.3026052104208,17.052684108476953,17.47063032478958,16.981725160961922,16.68863984721443,17.097727762064128,16.925563351422845,17.340461683907815,176.95929919098197,176.95929919098197,11.75315668763527,-0.0014400936893787576,-0.0058504773466933864,0.001082907623246493,-0.23801024346092184,0.1917375819559118,-0.005571146156312625,2.0,-0.1710474360981964,0.8289525639018036,11.0,0.0,0.0,1.0,0.0,0.0,0.0,0.0,0.0,0.0,0.0,0.8581532138136272,0.13713186688777554,-1.8142246932024049,-1.6407656444308618,11.094637277955917,268.47985507775553,52.25183860687375,-0.0225062437254509,0.045595588565130254,0.0071462740561122305,0.0,0.08705367880561134,-1.3632959012024048,-10.30928060709419,-6.64e-34,954.6262275366734,11.753206282805612,0.3099359500881764,0.1437176124048095,0.2544136709438878,0.13920022100000012,-1.2650647336152305,-10.108699773326654,0.2999746455390782,0.1519076829879759,0.25578641298797594,-6.64e-34,100.046326,96.06341352995992,0.1991456213306613,-1.2235290215771548,15.36445587264529,18.086451718837676,-0.05443991353707415,0.25133169095591185,-0.28936477542885775,127.27671842945891,499.8589306440882,11.75333557761523,95463.37101853707,1.13426279902004,-0.7891078145531072,0.04204493163326818,0.08302181612825113,0.324506434228457,0.14761679702004005,0.2511315198476954,0.8600019676993989,0.1392826067274549,-1.7878048602545091,0.5453570518957915,0.30978646421042083,-0.2845520470861724,-0.7250058567695391,0.3338515615290581,398674682.5228457,327366885.1869739,500563.5784198397,17.30359190553106,-17.28259696468938,-0.7426559821523036,1.7214923107494988,3.1843975756613228,0.0,0.0,0.0,39.87141370000001,32.7364371,-441.3659299965932,21.31242611759519,-100.28055953967936,-17.4128080003006,-1.4306744947354697,1.8585938241923845,-0.46842788875350744,-4.770931918162324,0.7499914847174353,-3.1091069391563133,100.52131953967935,0.08186040335270543,0.6859833375310621,0.11966918447695392,0.3407222971943888,64465367.438877754,0.0,0.0,0.0,1.0,0.0
64740286.0,0.01277562838476954,0.24861196204008015,0.043086018523046096,0.3105986896993988,0.0,1522.1342685370741,1500.0,1307.2985971943888,1492.1937896593186,1506.8062103406814,1621.432865731463,17.329008176492987,17.75328246963928,17.20327899472946,16.90256093793587,17.316425269599197,17.088460782565132,17.506880509298597,181.92492874008016,181.92492874008016,11.756704225070141,-0.0014450121583166333,-0.005849410681362725,0.0010787247855711423,-0.23810192493987978,0.19164994475150302,-0.005394090971943888,2.0,-0.15510557000801603,0.844894429991984,11.0,0.0,0.0,1.0,0.0,0.0,0.0,0.0,0.0,0.0,0.0,0.8482915039278558,0.1455029092765531,-1.7253595713226455,-1.6240918115410823,6.564182906915832,265.8986419222445,52.66987418623247,-0.022511759498998,0.04909573001803607,0.0013499361963927863,0.0,0.05102015723847696,-1.3317249348537075,-10.66904295256513,2.270616656364727,954.6778887671343,11.756656386873747,0.2421539181523046,0.18649177123847693,0.27638078438476954,0.08771960667935877,-1.3840049673006012,-10.616300413667334,0.23848389283166332,0.18804853632064128,0.2701009612224449,2.270616656364727,100.046326,95.80920421094189,0.21185611966933868,-0.5491732791903808,15.364246444048096,17.975225010480962,-0.05221956146893788,0.18724570999398799,-0.28957286530661325,129.5981836757515,499.35203030240484,11.756775831723447,95469.17377609218,1.1343316799378758,-0.1225007326132264,0.11967823836072164,0.3542654803927855,0.25295946186172347,0.19169704949699398,0.27037365166332666,0.8473352819659319,0.1475920728436874,-1.704174727296593,0.5757509408416833,0.3205227856472946,-0.26432589856112226,-0.7041954484949899,0.3455150432044088,398674257.67995995,327366840.26833665,500060.5720829659,17.52271582977956,-17.379084850901805,-2.019018212314629,1.9327157843326654,3.2570975661442887,0.0,0.0,0.0,39.87141370000001,32.7364371,-446.1635594707415,20.72303089737475,-99.74878030104209,-17.484835315511024,-2.8729042592785574,2.0367357643747495,0.02678634098396787,-5.689052227126252,0.6775525125350702,-3.0205084697755513,99.98954345967937,0.03947467319038077,0.6974856471943889,0.11648812846092184,0.35125889559118234,64740285.99398798,0.0,0.0,0.0,1.0,0.0
64999063.0,0.005323845474949898,0.26697217910020044,0.034320880823647294,0.3197019659038076,0.0,1517.3568223126254,1500.0,1317.563126252505,1496.4112770060121,1502.5887229939879,1630.2063039398797,17.513528473406815,17.94180961785571,17.424832821523047,17.116482028657312,17.535122778476953,17.251358208076155,17.673299340320643,186.89055828917836,186.89055828917836,11.760251755531062,-0.0014499301903807616,-0.0058483430160320635,0.0010745419478957916,-0.2381936065531062,0.1915623075470942,-0.00521703578757515,2.0,-0.13916370491783567,0.8608362950821644,11.0,0.0,0.0,1.0,0.0,0.0,0.0,0.0,0.0,0.0,0.0,0.8224764899378757,0.15314365020841686,-1.6469885841422847,-1.6089155986292585,2.504056745424847,262.86363830921846,52.93703452589179,-0.022554880236472945,0.05190328711623247,-0.005091123625250506,0.0,0.08895270015831676,-1.4035625734328656,-11.194783050781563,-6.64e-34,954.7529635865732,11.760282633466934,0.18551671405010015,0.23445485727655316,0.297831102747495,0.04082836224448899,-1.3920742387434866,-11.133122797094188,0.17408656632064123,0.24447679023046096,0.2970682053867736,-6.64e-34,100.046326,95.74931005743487,0.21485063621042083,0.1570491491282571,15.364180748236473,17.82796379446894,-0.049275651513026056,0.0937690191042083,-0.2895838941523046,131.77325676312626,498.7460404018036,11.760532526893789,95476.12978855711,1.1344143524689378,0.14907354647094434,0.3205544219739449,-0.23617799976152082,0.19697830464529054,0.24170576213026054,0.2908431133066132,0.8197778008396792,0.15529041747494993,-1.630855476551102,0.6043673225951904,0.32416247663727454,-0.2404749091783567,-0.6868859682745491,0.3564969657975952,398673827.1501002,327366752.83366734,499517.2192689379,17.740932008637277,-17.375957863607216,-3.575798326222446,2.1068907568216435,3.344358028216433,0.0,0.0,0.0,39.87141370000001,32.7364371,-450.8800236200401,19.725880363767534,-99.17763195833666,-17.375883354048096,-4.518749389260522,2.191378045172345,0.7714730551683374,-6.423086205867736,0.5141126718176352,-2.920777223270541,99.41839195833667,-0.019388200843687406,0.6685044567234468,0.1059200955490982,0.36147322491583167,64999063.44088177,0.0,0.0,0.0,1.0,0.0
65276158.0,-0.003045398725450894,0.2824530043907816,0.02672716835270542,0.3324352308216433,0.0,1513.306613226453,1500.0,1328.5386386112225,1500.0,1499.0,1639.693386773547,17.70546261967936,18.138028628396793,17.62318426593186,17.308210816793586,17.731065313907816,17.3839726356513,17.808677876112224,191.271046849499,191.271046849499,11.763865899579159,-0.001452059635270541,-0.005850897941883768,0.0010676950641282565,-0.2381919241983968,0.19138019812825652,-0.004988654865731463,2.0,-0.12322183882765532,0.8767781611723446,11.0,0.0,0.0,1.0,0.0,0.0,0.0,0.0,0.0,0.0,0.0,0.7804017850160321,0.16004006355911823,-1.5793132720440883,-1.5952657685150302,-1.0767084432064102,259.3661291266533,53.050422031382766,-0.022672722290581163,0.05360045458517034,-0.012450578725450896,0.0,-0.05662904955711437,-1.4405484958116233,-11.861795075791582,-6.64e-34,954.8249608563126,11.764437875671343,0.1384017505551103,0.2836762348717435,0.31238137655911824,-0.11824713840280532,-1.3535874820040081,-11.789646323006012,0.13880599641482966,0.28037525928657314,0.30717092868136275,-6.64e-34,100.046326,95.89929675601202,0.2073513962224449,0.8932460172765526,15.364161352765532,17.655916116953907,-0.04583509622244489,-0.10891621932865714,-0.2894707337054108,134.02516903587173,498.21454338537075,11.764530009719438,95482.18507114229,1.1344862985611222,-0.34310118500200265,-0.06361609310620853,-0.005317719759518488,0.15220885865931866,0.28599308219839675,0.3075067841342685,0.7721406519478958,0.16176718835871742,-1.5647963932665332,0.6334244369639278,0.31894686120240484,-0.21151114699799603,-0.6725281915290582,0.36586418952505007,398673407.77094185,327366610.9597194,498927.97756172344,17.940276809158316,-17.125121135651302,-5.263581106645289,2.2264878864348696,3.4399063341282567,0.0,0.0,0.0,39.87141370000001,32.7364371,-455.5891518326653,18.22664421983968,-98.5632646737475,-17.007915220941882,-6.381660852060119,2.2969945418276554,1.880996339773546,-7.107330279635271,0.22162319821442922,-2.8077945540701403,98.80402765410822,-0.11212031413627242,0.5914977291603207,0.09015824486973953,0.3693923154108217,65276158.1763527,0.0,0.0,0.0,1.0,0.0
65543229.0,-0.010633971623246495,0.2903785957094188,0.01909826181763527,0.34394048345090183,0.0,1509.7564812645292,1500.0,1341.06716603006,1504.0,1495.0,1644.0,17.802958677214427,18.23723687492986,17.7173783448497,17.400316561162324,17.82485892597194,17.3806442507014,17.804714089659317,193.02479055330662,193.02479055330662,11.767779047014029,-0.001453044783567134,-0.005854936783567135,0.0010597563767535069,-0.23815197329058116,0.19115936775350703,-0.004739237086172345,2.0,-0.10727997273747494,0.892720027262525,11.0,0.0,0.0,1.0,0.0,0.0,0.0,0.0,0.0,0.0,0.0,0.701483889222445,0.16502330880761523,-1.5258059662244488,-1.5841421686312624,-3.8904338110921843,255.31069545791584,52.96223557452906,-0.022858268961923847,0.053963367855711424,-0.0204382503747495,0.0,-0.23953066021042085,-1.26866374802004,-12.70219671517034,-6.64e-34,954.8985697529058,11.768386165551101,0.10073693983366734,0.3349962976713427,0.32512934544288574,-0.29950606842284566,-1.3741325140420841,-12.689362702184368,0.10303014578356713,0.33346366968136276,0.31988641756913827,0.004150898805611206,100.046326,96.19848022274549,0.19239231259519038,1.4928533474308616,15.364435794669339,17.40482709028056,-0.040807832300601206,-0.36653257445490983,-0.2893066802965932,135.9480422018036,497.51206942424847,11.768657848156312,95490.2225729459,1.1345818592725452,-0.1583001318096191,-0.4613236652424849,0.26493298987575203,0.10369023798997995,0.3428885850881764,0.3221530361042084,0.694994159458918,0.16686651319038076,-1.510833598286573,0.6626301442865732,0.30076446033266535,-0.17562260219639278,-0.6630234765751504,0.36950704392184375,398672988.16272545,327366407.66032064,498288.39044689375,18.11068707715431,-16.597598068977955,-7.205482707236473,2.2775850359418834,3.5510086705791584,0.0,0.0,0.0,39.87141370000001,32.7364371,-460.14343329238477,16.20714325284569,-97.9381615361523,-16.30397800260521,-8.393379513446895,2.314926609721443,3.202551804136273,-7.642158978843687,-0.04268897137274555,-2.682944944745491,98.17892251629257,-0.21063579610621244,0.49765818321643285,0.08595746110821642,0.37016793615230464,65543229.03607214,0.0,0.0,0.0,1.0,0.0
65802115.0,-0.01927638878557113,0.29094007479959927,0.0136682932224449,0.354508217755511,0.0,1507.0,1500.0,1351.9539078156313,1508.9539078156313,1490.0460921843687,1646.0,17.900460855871746,18.336551552004007,17.811572433767534,17.492422295991982,17.91865254496994,17.37731587529058,17.800750303206406,194.77853415711422,194.77853415711422,11.77169219751503,-0.001454030625250501,-0.005858975625250501,0.0010518167354709419,-0.23811202338276552,0.19093853737875752,-0.004489818352705411,2.0,-0.09133810764729461,0.9086618923527053,11.0,0.0,0.0,1.0,0.0,0.0,0.0,0.0,0.0,0.0,0.0,0.6027539960240482,0.16897777122244487,-1.4799173412404811,-1.574377020176353,-6.291692426955907,250.95524445490983,52.76565505867735,-0.023108457274549098,0.05319872234468938,-0.02843173457915831,0.0,-0.39609606563927857,-1.1064459240460929,-13.76715682042084,-6.64e-34,954.974266776954,11.77267488801603,0.0651722769659319,0.3924309292124248,0.34992833829859715,-0.3388770937314631,-1.1279900747134277,-13.564306214769537,0.06110010595390787,0.4024543946192384,0.3416886196713427,-6.64e-34,100.046326,96.68703037230462,0.16796480020040083,2.0431817238817627,15.364671772885773,17.05526721529058,-0.03381190135871744,-0.6586767041623243,-0.28904645072745494,137.79288206152304,496.89663868276557,11.77273682755511,95497.30400118236,1.1346659360801603,0.08076008892584563,0.30117807707815825,-0.1278397692625287,0.06895767659118245,0.3971682955971943,0.34184409814028055,0.5800466285470943,0.16978384621242487,-1.4713766081382764,0.6915711934108216,0.26577198912424854,-0.1309902519599199,-0.6587255748917836,0.36828397870541085,398672593.71302605,327366150.9372745,497655.38343867735,18.230971079378754,-15.721259247895793,-9.199579176234467,2.282257228747495,3.671022411218437,0.0,0.0,0.0,39.87141370000001,32.7364371,-464.3928211591183,13.664671780981967,-97.32692030667336,-15.200540765711425,-10.476514862044086,2.226411280376754,4.927203970414828,-7.798644070503005,-0.5681991031703401,-2.5449209788316636,97.56768407462926,-0.33532370707214415,0.37689397356513044,0.07742242662725451,0.36443189773547097,65802115.48096193,0.0,0.0,0.0,1.0,0.0
66073527.0,-0.034609318893787565,0.2750536431523046,0.004242246559118243,0.3641211324649299,0.0,1502.9158316633266,1500.0,1362.0841683366734,1515.1683366733466,1483.8316633266534,1638.958989571142,17.953688271963927,18.3904863698998,17.90576651268537,17.584528039899798,18.01244616480962,17.373987491643284,17.79678651759519,196.53227786092182,196.53227786092182,11.775605347174348,-0.001454614256513026,-0.005863473743486974,0.0010424980881763527,-0.23807490524048094,0.19067183565931864,-0.004253282533066132,2.0,-0.07539624155711423,0.9246037584428858,11.0,0.0,0.0,1.0,0.0,0.0,0.0,0.0,0.0,0.0,0.0,0.46071328158717445,0.16991483981162323,-1.4575217680881765,-1.569436638807615,-7.393254819661323,246.40635061863728,52.296677705490985,-0.023369141366733466,0.05173937773146293,-0.03583098026452906,0.0,-0.37768678086573154,-0.8659258635050102,-15.111209294569138,-6.64e-34,955.0328724835671,11.776337761903807,0.02132116539679362,0.47050192766332666,0.3630435521563126,-0.38624312210821654,-0.9278814296392788,-14.92069531509018,0.013351451338677385,0.47276409506012024,0.37001513481162324,-6.64e-34,100.046326,97.2614217058517,0.13924521145490984,2.4080809698957912,15.364939213246494,16.693445236993988,-0.02657011947895792,-0.897941506765531,-0.28876274341683367,139.1601932268537,496.3277766627254,11.77655616496994,95503.79137226453,1.1347430028116232,0.25310139428657635,-0.039823704382765654,-0.001311119350701123,0.031462288174348735,0.4692425946873747,0.36396143958316635,0.4289328407895792,0.17075016516432864,-1.4478890099519037,0.7173367647955913,0.21405017669138282,-0.07802790027054111,-0.6583994487374749,0.3594813106412826,398672223.4771543,327365820.1394789,497051.39865991985,18.306677295330662,-14.376198960841684,-11.28834719268537,2.208807432891784,3.8071074899138275,0.0,0.0,0.0,39.87141370000001,32.7364371,-468.323560792986,10.482399845715433,-96.74345333418837,-13.533018964288578,-12.635969806132263,1.9702665225230462,7.031484864276552,-7.879765572673346,-1.2312703361002,-2.3853953986152305,96.98421401300601,-0.4487968510380762,0.2477360659599199,0.06317082144088178,0.35315043835671345,66073526.981963925,0.0,0.0,0.0,1.0,0.0
66355583.0,-0.052906908188376754,0.24273540668937874,-0.005029042260521044,0.36965010661322645,0.0,1497.0,1500.0,1369.0,1525.0,1474.0,1623.571142284569,17.872242093306614,18.306546156773546,17.902208905871742,17.580906294268537,18.008346785751502,17.279171753967937,17.699278216172345,196.30899891262527,196.30899891262527,11.778292341543086,-0.0014479312725450902,-0.0058762705130260525,0.0010082728436873747,-0.238088906755511,0.1895772727274549,-0.004249241691382765,2.0,-0.05945437546693386,0.9405456245330661,11.0,0.0,0.0,1.0,0.0,0.0,0.0,0.0,0.0,0.0,0.0,0.3082067365591182,0.17004130752304608,-1.4412011486232466,-1.5657506609519038,-8.158798745138276,241.80662788136272,51.75294632058116,-0.02356066116232465,0.05000009569539078,-0.04252824890781564,0.0,-0.18056606209418832,-0.5316236094869738,-16.262007355511024,-6.64e-34,955.0893785831663,11.779743495470942,-0.03613209316032069,0.5238611021663326,0.3855352959178357,-0.20958528290581166,-0.5316745324148295,-16.250798393466933,-0.04526264754709421,0.5261611440300601,0.38395849771743484,-6.64e-34,100.046326,97.95802736054108,0.10441491182965931,2.6765180443507015,15.365586953366734,16.264019958617233,-0.017968674505010017,-1.0977418126513026,-0.2884495550621243,140.28057806012023,495.77731662565134,11.77978879755511,95510.08861901805,1.1348178226252505,-0.32105072287775654,0.1838674519619233,0.40761794744088087,-0.024643924068136293,0.5275574543507014,0.3844814992284569,0.25914210286973943,0.16966592676553108,-1.4401126025931863,0.7355494403647296,0.152188047755511,-0.02173251931663325,-0.6597636537795591,0.3465341011523046,398671892.85010016,327365422.3759519,496502.2088130261,18.33,-12.462756412084167,-13.382600893967938,1.8179546009358716,3.9624828240881764,0.0,0.0,0.0,39.87141370000001,32.7364371,-471.6879235300601,6.769092761118236,-96.25588318555111,-11.300960797254508,-14.67301654735471,1.5315048139418836,9.14908154224449,-7.057200205607215,-1.930899931472946,-2.211240871769539,96.49664318555111,-0.5262228854649299,0.13133791256513022,0.038160090559118225,0.3413228858517034,66355582.8997996,0.0,0.0,0.0,1.0,0.0
66614133.0,-0.0744095264088176,0.20699815900601212,-0.011515642458917825,0.3692142655511022,0.0,1494.3759615330662,1500.0,1369.3759615330662,1534.5927669679359,1464.4072330320641,1606.3418933967937,17.81193565797595,18.24456067230461,17.804327639158316,17.48491408519038,17.909787369619238,17.09607698478958,17.511505856452906,194.17802863607216,194.17802863607216,11.779796185751502,-0.0014412479438877755,-0.005889067366733468,0.0009740475991983969,-0.23810290827054112,0.18848271036673347,-0.00424520050501002,2.0,-0.04351251037675352,0.9564874896232465,11.0,0.0,0.0,1.0,0.0,0.0,0.0,0.0,0.0,0.0,0.0,0.15575328841883787,0.16621501140480963,-1.444180713751503,-1.566358156985972,-7.859696627977956,237.00877598276554,50.775802616052104,-0.023626787895791583,0.04813606365731463,-0.04859123487174348,0.0,0.0009137153246490375,-0.21559216730060174,-17.13098163008016,8.737844651150338,955.136263295992,11.78198759771543,-0.12169062989579144,0.5524939278296593,0.3906294605170341,-0.0065831861182367776,-0.15208794645491025,-17.0730388150501,-0.124392783038076,0.549733265775551,0.38504811906012026,8.737844651150338,100.046326,98.67164599537074,0.0687338419659319,2.743809433254509,15.366114665450901,15.856197309498999,-0.009801646390781571,-1.2050309511923847,-0.28815391950901803,141.01510567955913,495.3925560589178,11.782098767094189,95514.49551711424,1.1348702055050102,-0.6275400031022054,0.3995994973326661,0.0736122153927876,-0.10144814795591171,0.5629255106332666,0.38938535709218436,0.10568722780160336,0.16595472240881762,-1.4398350556332666,0.745327468757515,0.09414385309418843,0.027523238138276503,-0.6594182361863727,0.3376429617154309,398671615.6230461,327364967.24188375,496065.17133386777,18.302822033006013,-10.041077501519041,-15.26272340062124,1.3180499178176357,4.1305001564188375,0.0,0.0,0.0,39.87141370000001,32.7364371,-474.353002154509,2.5766036995030115,-95.91138777270541,-8.566121140939883,-16.362899485811624,0.9286241841022053,10.740319954048095,-5.400386264821646,-2.4842689634488977,-2.0291086093346697,96.15214779891784,-0.5238616128216432,0.038741163218436965,0.010745034426853761,0.33416699223246493,66614132.71743487,0.0,0.0,0.0,1.0,0.0
66883436.0,-0.09611458323647293,0.1616428451482966,-0.0182134209258517,0.36200572446893786,0.0,1491.5250501002004,1500.0,1363.0501002004007,1544.577669731463,1454.422330268537,1584.978589004008,17.722486171262524,18.152715456733468,17.70644636244489,17.388921868256514,17.811227953486974,16.912982220861725,17.323733494589177,192.04705839058116,192.04705839058116,11.781300024709418,-0.0014345643046092184,-0.005901864220440881,0.0009398223547094188,-0.23811690878557115,0.1873881472204409,-0.004241159008016033,2.0,-0.027570644286573156,0.9724293557134268,11.0,0.0,0.0,1.0,0.0,0.0,0.0,0.0,0.0,0.0,0.0,0.011010738192384798,0.16170909700601202,-1.4494491150521043,-1.5674831429519036,-7.440503843743487,232.2277404935872,49.74242042492986,-0.02355897069739479,0.046287713629258515,-0.05393512729659318,0.0,0.303917483272545,0.026907258729458892,-17.11589922250501,-6.64e-34,955.1634051018036,11.783199828236473,-0.2355520162304609,0.5200564901042084,0.36645901155110217,0.22965941681763502,0.0015395274448897003,-17.12975460659319,-0.24031261187975947,0.5245878731442886,0.3654371357334669,-6.64e-34,100.046326,99.37418477769539,0.033607116416833685,2.601282993975952,15.366624701022044,15.535821108456913,-0.0033839339238476976,-1.2110463799498998,-0.2879223726232465,141.38254523847695,495.26363598076153,11.783218601563126,95515.97952733467,1.134887807981964,-0.5187935737134274,0.25431614390380897,-0.3528938749238472,-0.20713904910420838,0.5381815318456914,0.3716429533286573,-0.01617317590981961,0.16005584335470943,-1.4475433878737476,0.7473118804789579,0.04689694391382767,0.06523729019038076,-0.6595857013627254,0.33080428314428856,398671402.9937876,327364446.6793587,495798.65321322647,18.22168881012024,-7.13415339562926,-16.75395629735471,0.660377142693387,4.309782312511022,0.0,0.0,0.0,39.87141370000001,32.7364371,-476.24452279779564,-2.0691907807975936,-95.75002440677355,-5.513477043547096,-17.502463548476953,0.1964508347815634,10.937354100400801,-2.994465626949901,-2.7526545991322644,-1.8503856218937875,95.99078452551102,-0.4906512817795592,-0.014135484388777542,0.04144064899198396,0.32794293186372747,66883436.24448898,0.0,0.0,0.0,1.0,0.0
67153214.0,-0.11022964638076148,0.11728515340681371,-0.02570468746292583,0.3495390237875752,0.0,1487.3947895791584,1500.0,1351.7895791583167,1553.2137378637274,1445.7862621362726,1562.2531266212425,17.539489581723444,17.965233403507014,17.608565095731464,17.292929661322646,17.712668531302604,16.729887456432866,17.135961136673345,189.91608807955913,189.91608807955913,11.782803870220441,-0.0014237177795591183,-0.005913042398797596,0.0009004927474949902,-0.2380808615991984,0.18602251404609219,-0.004326052390781563,2.0,-0.011628778591182394,0.9883712214088176,11.0,0.0,0.0,1.0,0.0,0.0,0.0,0.0,0.0,0.0,0.0,-0.0747015116132263,0.15392014997995992,-1.4628625689759518,-1.5704837843967936,-6.619242673072146,227.67183840641283,48.48906494729459,-0.023417203358717435,0.04452791970340682,-0.05663326263126252,0.0,0.2359595247174349,0.11844066674749493,-15.92907794440882,8.313768179160263,955.1677168026054,11.783030839138275,-0.35426904680761506,0.43160811418837697,0.3383731977214429,0.3384382344408804,0.12057112127054118,-16.268219680801607,-0.3714676167875749,0.4143437661202407,0.33209738697194396,8.313768179160263,100.046326,100.04361697983968,0.00013552176953913336,2.3525186029619243,15.367206107094189,15.255501095771544,0.0022340996212424765,-1.1383031597995994,-0.28777537498997996,141.47102223527054,495.230261773948,11.783010793486975,95516.35740266532,1.1348922813346694,-0.5165977049118313,-0.29053423056712446,-0.11222039463928075,-0.3371999324468936,0.4559605804909822,0.33751968559318646,-0.10674730239679349,0.15244647770941885,-1.4640992801382766,0.743303053745491,0.011259803254509057,0.09211376993587173,-0.6624830684729459,0.32556792082965935,398671267.3903808,327363900.88116235,495726.77194108214,18.086636833507015,-4.194122347288582,-17.560087802144288,-0.07523401683366619,4.47774553926052,0.0,0.0,0.0,39.87141370000001,32.7364371,-477.3028296825652,-6.8650212542484885,-95.7954440868537,-2.650777218637279,-17.968782369458918,-0.5465810828396781,9.720050203541085,-0.7059742172605249,-2.638747229348698,-1.6963983968416836,96.03620408685372,-0.4211273889478961,-0.06784143852505,0.090457458753507,0.32379906010020043,67153214.37274548,0.0,0.0,0.0,1.0,0.0
67413781.0,-0.11844407934068135,0.07866824537074152,-0.036679576324649285,0.3392003488977956,0.0,1482.2645290581163,1500.0,1339.5290581162326,1558.6629225250501,1440.3370774749499,1541.7935871743487,17.356841082044088,17.778436473406813,17.35750688773547,17.049455528797598,17.463506805571143,16.453279783907817,16.852851656312627,184.4568232220441,184.4568232220441,11.780676579218436,-0.0014065125330661322,-0.005921747368737475,0.0008533704348697395,-0.2379683855791583,0.18424293693386773,-0.0045467544248497,2.0,0.0043130868937875586,1.0043130868937875,11.0,0.0,0.0,1.0,0.0,0.0,0.0,0.0,0.0,0.0,0.0,-0.14643255682364728,0.14554243217835675,-1.4780210390941884,-1.5738318726533067,-5.738547282539079,223.18601794428858,47.2698862548497,-0.02319448166733467,0.04282654683366734,-0.05682871432665331,0.0,0.14306305015631282,0.15535644757915812,-14.492525045571144,-6.64e-34,955.1315155677354,11.781619865390782,-0.4640326073066131,0.3273895902665332,0.29136791551703406,0.19305635530460888,0.16021768783767518,-14.724248648777557,-0.47596376655911815,0.3115560523086174,0.28910247385370746,-6.64e-34,100.046326,100.61284554328657,-0.028325914106212397,2.057763245206413,15.367697493446894,15.016042960961924,0.007033104114228452,-1.0208373865691382,-0.28773693722645294,141.29680471182365,495.5055136394789,11.781545805991984,95513.19276783567,1.134854719260521,0.10015330560120134,-0.3445494324408824,-0.44871733616031984,-0.45739458145090167,0.3446129017955913,0.29261075681563126,-0.16138098696192382,0.14313562487174347,-1.481346215813627,0.7376189402224448,-0.01123921946492985,0.10685169139879759,-0.6666138476793587,0.3222604359559118,398671195.2072144,327363325.5773547,495838.1723482966,17.877038863066133,-1.4674619173787602,-17.810978894448898,-0.7928663126172338,4.629826609256513,0.0,0.0,0.0,39.87141370000001,32.7364371,-477.6501731619239,-11.712508210781559,-96.03206570893786,-0.2681973620761544,-17.879647199078157,-1.2230736010641277,7.545844634691385,0.9508942796553093,-2.3635741523507017,-1.5717446160641284,96.2728278504008,-0.309406730462926,-0.11277756499198394,0.024931485108216498,0.32082953511022044,67413781.17034069,0.0,0.0,0.0,1.0,0.0
67676331.0,-0.11137358194388779,0.04734246959719439,-0.048018601931863726,0.3324241330661323,0.0,1476.2685370741483,1500.0,1333.1342685370741,1556.2396014168337,1442.7603985831663,1525.4028056112224,16.99874429703407,17.411878348797597,17.076326662865732,16.776979303026053,17.184729356312626,16.15828294266533,16.55099428527054,178.34305432785573,178.34305432785573,11.777835232124248,-0.0013893068917835672,-0.005930453338677355,0.000806248122244489,-0.23785590955911823,0.1824633593507014,-0.004767457064128257,2.0,0.020254952983967935,1.020254952983968,11.0,0.0,0.0,1.0,0.0,0.0,0.0,0.0,0.0,0.0,0.0,-0.1804680185771543,0.13557729323446893,-1.4978843551462928,-1.5781167304549097,-4.697607645326653,218.88914883687374,46.14285367412826,-0.02292747724248497,0.04130577597995992,-0.05703120054509018,0.0,0.10807925832464932,0.1498145415230461,-13.184488105791583,2.1662076071182343,955.0922954412825,11.779034407154308,-0.5290597698076153,0.23209708630060122,0.2477875770260521,0.18002970848296593,0.07139894146092189,-13.499501998777555,-0.5347805909959921,0.2068705453767535,0.23209414572144288,2.1662076071182343,100.046326,101.13635436793587,-0.054501462354709415,1.713262890466934,15.368072965851704,14.82637014478958,0.010834053376753507,-0.8659420146753507,-0.2878154484348698,140.86295387454913,495.8201340761523,11.778937390260522,95509.64090258516,1.1348125656733468,0.30794714985370736,-0.30587255185370776,-0.27135904261122246,-0.5332432121943887,0.23204724386372746,0.23603188356713428,-0.19559446648496998,0.13312273401402805,-1.5040466789118239,0.7296407943406814,-0.025927820591182364,0.11489965784168336,-0.6736012243827656,0.31874676684569136,398671188.00320643,327362760.31703407,496157.9706957916,17.568846889519037,0.6322440241883764,-17.53708619751503,-1.474673207543086,4.748891008991984,0.0,0.0,0.0,39.87141370000001,32.7364371,-477.4340585048096,-16.540024755931864,-96.44205703687375,1.5103767963466932,-17.45474439276553,-1.8140976449559119,5.196664463382765,1.7844794619078155,-1.9087111251703406,-1.4758987961022043,96.68281744410822,-0.21851884133066132,-0.12193184002204409,-0.03746100779759518,0.3168314975350701,67676330.85370742,0.0,0.0,0.0,1.0,0.0
67949878.0,-0.10581957971943888,0.029441293565130245,-0.03424608892585169,0.3267932010280561,0.0,1480.3851271923847,1500.0,1327.004008016032,1551.7822794288577,1447.2177205711423,1516.0046510300601,16.70821433296593,17.11469489318637,16.79514644799599,16.50450307725451,16.905951917054107,15.863286101422846,16.249136906913826,172.22928543366731,172.22928543366731,11.77499387771543,-0.001372102246492986,-0.0059391593086172345,0.0007591258096192384,-0.23774343353907815,0.180683782503006,-0.0049881597034068135,2.0,0.03619681807414831,1.036196818074148,11.0,0.0,0.0,1.0,0.0,0.0,0.0,0.0,0.0,0.0,0.0,-0.20323445934468937,0.1257855299579158,-1.5187148694268537,-1.582537811262525,-3.656668031078156,214.6582529839679,45.18186984601203,-0.022695922056112226,0.04006087237675351,-0.057414193394789585,0.0,0.14571567537074157,0.019991357028056128,-11.923425128917835,1.4556791253126038,955.028012202004,11.775705166312626,-0.5292962976873746,0.1516163960260521,0.18664805710420837,0.14674083322845682,0.19408291837675398,-12.333599076232463,-0.521192058751503,0.12716323823046088,0.18044064106813623,-6.64e-34,100.046326,101.53495339619239,-0.0744315308216433,1.3974220831983968,15.368322996973948,14.70906905016032,0.013185083743486974,-0.7260834496052103,-0.2879808933446894,140.29380138336674,496.4820534234469,11.775396913406814,95502.04075244488,1.1347222360921843,0.4811022242905833,-0.06780858369338608,-0.4453229952625261,-0.5263064923126253,0.1471817646613226,0.17624260004008013,-0.21490508891983973,0.12322827451302605,-1.5288363296553107,0.7208310253547093,-0.03489012754108217,0.1182736203727455,-0.6820530098356713,0.3148446688476954,398671222.66673344,327362207.46513027,496641.2454282565,17.19880721527054,2.063577064535071,-17.060330700621243,-1.97825641587976,4.83322187339479,0.0,0.0,0.0,39.87141370000001,32.7364371,-476.83029368617235,-21.141635870120243,-96.99234147867736,2.6409352739579166,-16.90318007456914,-2.2618541664549103,3.1559634497154296,2.0624712460400803,-1.4260271523186372,-1.4097509189298596,97.23310547867736,-0.13981722461723445,-0.11215118431262525,-0.08206338771543088,0.3127007756192385,67949877.5490982,0.0,0.0,0.0,1.0,0.0
68226440.0,-0.09069452753306606,0.006647353891783533,-0.02875228029458921,0.32299744913827655,0.0,1486.74749498998,1500.0,1323.0,1544.0989260340682,1454.9010739659318,1504.74749498998,16.349517578897796,16.74793956486974,16.505131696673345,16.223187994569138,16.6181637847495,15.559728063827656,15.93855036206413,166.0816982206413,166.0816982206413,11.771874553527054,-0.001359041130260521,-0.00594571018236473,0.0007286874849699399,-0.23759522976553105,0.1791157795310621,-0.005162303593186373,2.0,0.05213868416432868,1.0521386841643288,11.0,0.0,0.0,1.0,0.0,0.0,0.0,0.0,0.0,0.0,0.0,-0.21079272114228456,0.11622774582565128,-1.5408506731803608,-1.5871427342304607,-2.6157284480380745,210.51639180501002,44.444978140621245,-0.0224762754008016,0.03910393331062124,-0.057889742501002005,0.0,0.24767696256312605,0.15496924166533083,-11.179638871823645,-6.64e-34,954.960379986974,11.771294800621243,-0.5005855152805609,0.10181686466332651,0.12959075402003992,0.16078884115831646,0.20597145768537004,-11.445601474789578,-0.4845986278897795,0.07330757343887771,0.10526021591983958,-6.64e-34,100.046326,101.87888588256513,-0.09162789090581165,1.0681015776533063,15.368576113106213,14.652969633547093,0.014312138589178357,-0.5900626328557113,-0.28829071475951906,139.54376653446892,497.1501013755511,11.771154641883767,95494.39256937876,1.1346313694348698,0.29100352289578935,0.050011009390779945,-0.18654891910220509,-0.48468657683767524,0.09665122505210412,0.11119343367935866,-0.21823352890981962,0.11399728771743485,-1.5497320767234468,0.7134520685951904,-0.038065833555110215,0.11652732275951902,-0.689896929519038,0.3099646266753507,398671286.2150301,327361665.8180361,497231.8990016032,16.780054715450902,2.9819085156312637,-16.491358994408817,-2.3850934276633273,4.8916940504428865,0.0,0.0,0.0,39.87141370000001,32.7364371,-475.99057135310625,-25.644512783146297,-97.65333014330662,3.2779538467314637,-16.336029856352706,-2.59101178391984,1.4895927223947871,1.895975559250501,-0.9727860962364724,-1.3666477571222444,97.89409191677355,-0.07165639351102189,-0.08985084022845685,-0.11370520294989983,0.307785643747495,68226439.76953907,0.0,0.0,0.0,1.0,0.0
68513005.0,-0.06562978288977961,-0.008034410715430856,-0.05005453498196389,0.31980224795591183,0.0,1476.4869739478959,1500.0,1320.0,1533.0356948096191,1465.9643051903809,1496.0,15.945217235531063,16.334315250340683,16.169555330701403,15.89628893975952,16.283905596132264,15.21201804446894,15.582945584168337,159.75970266733466,159.75970266733466,11.767321650340682,-0.0013474446773547094,-0.005951500148296593,0.0007041429218436874,-0.23743440238076152,0.17762252776152304,-0.005319997541082164,2.0,0.06808055025450897,1.068080550254509,11.0,0.0,0.0,1.0,0.0,0.0,0.0,0.0,0.0,0.0,0.0,-0.20847152758717438,0.10758570895190384,-1.5606531301883766,-1.5912776890661322,-1.711181556308619,206.41497445010023,43.88568971733467,-0.022291055222444893,0.03851908324248497,-0.05832182101402806,0.0,0.2876691994709408,0.19098288208817604,-10.229361142424853,-6.64e-34,954.8763469326653,11.766790827975951,-0.4250575979238479,0.025370804811623366,0.06730679014629275,0.27269328389980074,0.24582092742084263,-10.422762267414832,-0.39385360667134295,0.008280206761523069,0.047397849306613324,-6.64e-34,100.046326,102.10145680901803,-0.1027566164809619,0.788537327122245,15.36872150496994,14.624658769278556,0.014881257657314632,-0.4806357410761526,-0.2886818597935872,138.76606946593185,497.82653030941884,11.766454948276554,95486.63740905811,1.1345392533807614,0.1358302457114227,0.08187264858516907,-0.4778585792044056,-0.39842222899198415,0.02498493036873754,0.04721631468737486,-0.21304798270941885,0.10544774476753509,-1.5689747320080158,0.7067166931262525,-0.03812403764128257,0.11209752326452907,-0.6975134992885771,0.30458871908416835,398671365.9681363,327361152.298998,497917.2154651302,16.355129534148304,3.4438122059498992,-16.00580843238477,-2.6420757178957914,4.924418010324649,0.0,0.0,0.0,39.87141370000001,32.7364371,-475.03755488837675,-30.0216031870541,-98.38639924749499,3.520772623557114,-15.842255979238477,-2.7520461737975954,0.25627515120441124,1.5166350241402822,-0.08349302652505165,-1.3449371982545089,98.62715924749499,-0.015702070328657246,-0.0612039041843688,-0.13145676332264528,0.3004942191583167,68513005.49298598,0.0,0.0,0.0,1.0,0.0
68785623.0,-0.0499608916993988,-0.010952470482965935,-0.06862435929659316,0.3156522765230461,0.0,1466.6132264529058,1500.0,1315.6976374589178,1526.3934250701402,1472.6065749298598,1494.0,15.61953348468938,16.00116211220441,15.833978964729459,15.5693898849499,15.949647402645292,14.86430802997996,15.227340801402805,153.43770711402806,153.43770711402806,11.762768737154309,-0.0013358482244488978,-0.005957290114228457,0.0006795993587174349,-0.23727357599599197,0.17612927599198397,-0.00547769136272545,2.0,0.08402241534468935,1.0840224153446893,11.0,0.0,0.0,1.0,0.0,0.0,0.0,0.0,0.0,0.0,0.0,-0.19901600433066136,0.09960496698997998,-1.5787705883426852,-1.5950732623887776,-0.9051289944809631,202.34276325210422,43.45465533789579,-0.022128777673346693,0.03826423495991984,-0.05869659583767536,0.0,0.38870521135470953,0.2417746326272542,-9.407853826683368,-6.64e-34,954.7966423242485,11.761798191242486,-0.3174506619478959,-0.025586290919839712,0.0032244137034068304,0.36059865400200436,0.21823458799198403,-9.455397230250501,-0.2866261567915833,-0.030144412218436847,-0.005536140771543003,-6.64e-34,100.046326,102.2704301777555,-0.1112052758036072,0.5208598162404814,15.368873444268536,14.636076098476954,0.014655943174348696,-0.37294922749298615,-0.28918803471543086,137.88523370440882,498.4708868300601,11.761649334989979,95479.27225084168,1.1344516676392786,1.0425038269478974,-0.30697855740480917,-0.16581738264128387,-0.29774142543286586,-0.012537468106212387,-0.0023982238336672855,-0.19798475879759525,0.09783590636272546,-1.583445922486974,0.7017824559639279,-0.0347334811222445,0.10442900607815633,-0.7038376751543086,0.29769067939078153,398671453.49218434,327360642.21663326,498659.44027334667,15.964221236332666,3.5269218130981965,-15.565761334529059,-2.720386742176353,4.935448749893788,0.0,0.0,0.0,39.87141370000001,32.7364371,-474.07606550661325,-34.22262278456913,-99.11486262442885,3.4845274508216435,-15.488635534008017,-2.676466068300601,-0.5588449538396784,1.0312784349258524,0.5463495092344682,-1.3409463481843686,99.35562262442886,0.019924689416833594,-0.03192948986973951,-0.13384769645090183,0.2920498243406814,68785622.83366734,0.0,0.0,0.0,1.0,0.0
