timestamp,control[0],control[1],control[2],control[3],control[4],output[2],output[3],output[4],output[5],output[6],output[7],indicated_airspeed_m_s,true_airspeed_m_s,indicated_airspeed_m_s.1,equivalent_airspeed_m_s,true_airspeed_m_s.1,equivalent_ground_minus_wind_m_s,true_ground_minus_wind_m_s,differential_pressure_raw_pa,differential_pressure_filtered_pa,temperature,gyro_bias[0],gyro_bias[1],gyro_bias[2],accel_bias[0],accel_bias[1],accel_bias[2],instance_count,seq_reached,seq_current,seq_total,item_changed_index,item_do_jump_remaining,valid,warning,finished,failure,stay_in_failsafe,flight_termination,item_do_jump_changed,execution_mode,nav_roll,nav_pitch,nav_bearing,target_bearing,xtrack_error,wp_dist,acceptance_radius,rollspeed_integ,pitchspeed_integ,yawspeed_integ,additional_integ1,x,y,z,temperature.1,pressure,temperature.2,gyro_rad[0],gyro_rad[1],gyro_rad[2],accelerometer_m_s2[0],accelerometer_m_s2[1],accelerometer_m_s2[2],x.1,y.1,z.1,temperature.3,altitude_sp,altitude_filtered,height_rate_setpoint,height_rate,airspeed_sp,airspeed_filtered,airspeed_derivative_sp,airspeed_derivative,throttle_integ,pitch_integ,baro_alt_meter,baro_temp_celcius,baro_pressure_pa,rho,xyz[0],xyz[1],xyz[2],xyz[0].1,xyz[1].1,xyz[2].1,roll_body,pitch_body,yaw_body,q_d[0],q_d[1],q_d[2],q_d[3],thrust_body[0],lat,lon,alt,vel_m_s,vel_n_m_s,vel_e_m_s,vel_d_m_s,cog_rad,ground_contact,maybe_landed,landed,ref_lat,ref_lon,x.2,y.2,z.2,vx,vy,vz,ax,ay,az,yaw,dist_bottom,roll,pitch,yaw.1,thrust_body[0].1,timestamp.1,isTakeoff,isClimbing,isDescending,isCruise,isLand
33000000.0,0.0,0.0,0.0,0.5,0.5,900.0,900.0,900.0,900.0,900.0,900.0,-0.62036705,-0.63248456,0.59011465,0.59011465,0.60164124,0.048542835,0.04949101,0.21329413,0.21329413,12.404602,-0.001369733,-0.00574472,0.000530458,0.022402955,0.003651142,-0.097823836,2.0,-1.0,0.0,11.0,0.0,0.0,1.0,0.0,0.0,0.0,0.0,0.0,0.0,0.0,0.008008662,0.0,2.2651038,1.597891,-0.17724179999999998,,0.28647888,4.65e-06,4.15e-06,-3.22e-06,0.0,-0.14561065,0.24957761,-9.771596,-6.64e-34,966.18164,12.404602,-0.00024082,-0.004164421,-0.001567773,-0.09451174,0.15214983,-9.944138,-0.002175978,-0.002861468,-0.00217294,-6.64e-34,-0.18708567,-0.19908568,0.40060034,0.188378,13.253958,25.785017,-0.25062117,8.144163,0.10999999,-37.8736,399.56427,12.404602,96616.86,1.1479682,0.36868906,0.15161423,0.15694056,-0.000186205,0.004130454,-0.00388481,0.008008662,0.0,2.2651038,0.424347,0.001699235,0.003625904,0.90549076,0.15,398714138.0,327364372.0,400131.0,0.0,0.02,0.02,-0.049999997,0.8356636000000001,0.0,0.0,1.0,39.87141370000001,32.7364371,0.037373297,-0.020362647,-0.027875967,0.028744135,-0.038798727000000005,0.010853265,0.001291657,0.015892081000000002,-0.06428267,1.5977963,0.102481276,0.039471067,0.023486683,-0.007392035,0.15,33000000.0,1.0,0.0,0.0,0.0,0.0
33032371.0,0.0,0.0,0.0,0.5,0.5,900.0,900.0,900.0,900.0,900.0,900.0,0.4805440521943889,0.48993607517034055,0.6086764629258518,0.6086764629258518,0.6205656605511022,0.048531502735470945,0.04947945820641282,0.23379065251503006,0.23379065251503006,12.404602,-0.0013701955551102204,-0.005744150701402806,0.0005291092725450903,0.022424081482965933,0.0036704122204408818,-0.09777629553907816,2.0,-1.0,0.0,11.0,0.0,0.0,1.0,0.0,0.0,0.0,0.0,0.0,0.0,0.0,0.007533279545090181,0.0,1.9458833439378758,1.6881256943587175,-0.3019088369539078,,2.4039132289478964,4.247194388777555e-06,5.036172344689379e-06,-2.3136873747494993e-06,0.0,-0.11852080920841683,0.23746933911823648,-9.796724806513026,-6.64e-34,966.174827482966,12.404602,0.001615818476953908,-0.004421001460921843,-0.0015808581402805611,-0.1421915924749499,0.16194428206412828,-9.885550929519038,-0.001390517128256513,-0.003150965735470942,-0.000625484368737475,-6.64e-34,-0.159685529248497,-0.1716855426052104,0.40060030173346695,0.2988794599098197,13.253970809218437,25.761593981262525,-0.25015245330661323,7.767204511823647,0.10999999,-39.34772569549098,399.61563959819637,12.404602,96616.30222164329,1.1479614899298596,0.27140439268537075,0.2339726903507014,0.5614507082865732,0.002440023136272545,0.005866597877755512,-0.0028358088577154312,0.0034796204368737474,0.0,1.8878325493787576,0.5787811198697395,0.0007382871643286572,0.0015753904829659319,0.7986988094689378,0.06517231305611222,398714138.0,327364372.0,400129.2450430862,0.0,0.015612569448897795,0.017075046523046093,-0.049999997,1.2119792110921845,0.0,0.0,1.0,39.87141370000001,32.7364371,0.037443342210420845,-0.02059997201002004,-0.028392812921843688,0.028427570741482968,-0.03881493925450902,0.010578606623246493,0.016077290176352704,0.00830503590981964,-0.04876755384769539,1.5978246226052104,0.10261125532865732,0.03175628218036072,0.023521762669338676,-0.00739310377755511,0.04929859719438877,33032370.801603206,1.0,0.0,0.0,0.0,0.0
33062000.0,0.0,0.0,0.0,0.5,0.5,900.0,900.0,900.0,900.0,900.0,900.0,0.8564123025611223,0.8731462192865731,0.6272382758517034,0.6272382758517034,0.6394900814448898,0.048520170470941884,0.04946790641282565,0.2542871753727455,0.2542871753727455,12.404602,-0.0013706584529058117,-0.005743581060120241,0.0005277608877755512,0.022445207965931864,0.0036896827835671345,-0.09772875473547094,2.0,-1.0,0.0,11.0,0.0,0.0,1.0,0.0,0.0,0.0,0.0,0.0,0.0,0.0,0.0070578967474949905,0.0,1.6266628878757516,1.7783603887174348,-0.42657587390781565,,4.521347577895792,4.002024048096192e-06,5.5214028056112225e-06,-1.9008416833667335e-06,0.0,-0.09143096875951903,0.22536106857915833,-9.821853613026052,-6.64e-34,966.1680150002004,12.404602,0.002242202765531062,-0.004570074324649298,0.0004813768016032067,-0.1292396326072144,0.18265574628456915,-9.877514660062124,-0.0006050565991983967,-0.0034404638136272545,0.0009219716052104208,-6.64e-34,-0.132285388496994,-0.1442854055531062,0.4006002638096192,0.4093809198196393,13.253983618436873,25.73817096252505,-0.24968373661322646,7.390246023647294,0.10999999,-40.82185139098196,399.64953803386777,12.404602,96615.92385963928,1.1479569809278556,0.10914058071342686,0.15865092155310623,0.5050075642264529,0.002705524993987976,0.006975041877755511,-0.0009349309498997997,0.0008298058196392785,0.0,1.6671017827494992,0.6691361671182365,0.0001760636953907816,0.0003756927775551102,0.7362178517995992,0.358227397018036,398714138.0,327364372.0,400127.49008617236,0.0,0.01122513889779559,0.014150092703406811,-0.049999997,1.5882948221843687,0.0,0.0,1.0,39.87141370000001,32.7364371,0.03751338707815632,-0.02083729702004008,-0.028909659186372744,0.028111006482965932,-0.038831151166332664,0.010303948246492986,0.030862923695390784,0.0007179911623246492,-0.03325243803807615,1.597852945553106,0.10274123465731463,0.028038072693386776,0.023577388725450902,-0.007393627,0.342685370741483,33062000.46292585,1.0,0.0,0.0,0.0,0.0
33089057.0,0.0,0.0,0.0,0.5,0.5,900.0,900.0,900.0,900.0,900.0,900.0,0.5358101887915833,0.5462768535110221,0.6458000887775551,0.6458000887775551,0.6584145026533066,0.04850883820641282,0.049456354619238474,0.27478369854509016,0.27478369854509016,12.404602,-0.0013711216653306613,-0.005743011104208417,0.0005264128176352706,0.022466334448897795,0.003708953661322645,-0.09768121361723446,2.0,-1.0,0.0,11.0,0.0,0.0,1.0,0.0,0.0,0.0,0.0,0.0,0.0,0.0,0.006582513635270542,0.0,1.3074424318136273,1.8685950830761522,-0.5512429108617234,,6.638781926829659,3.9029859719438875e-06,5.631643286573147e-06,-1.9325050100200403e-06,0.0,-0.06525072394388778,0.21331701969338676,-9.846530087885773,-6.64e-34,966.1613031300601,12.404602,0.0015949277314629266,-0.004619786945891783,0.00439379664729459,-0.06019647050701402,0.21430288404408818,-9.91750478306012,0.0001890468336673345,-0.0037303785591182364,0.0024156301442885774,-6.64e-34,-0.10488524773146293,-0.11688526881563126,0.40060022620040076,0.5198823797294589,13.253996427655311,25.714747943647296,-0.24921501993386772,7.013287535470941,0.10999999,-42.295977086472945,399.6656030675352,12.404602,96615.73022697394,1.1479547325851702,-0.09991151742484977,-0.06056413464929862,0.019196744735470925,0.0006967248597194393,0.007463132128256513,0.0016339916873747502,0.0,0.0,1.5979786,0.6974314,0.0,0.0,0.71665156,1.0,398714138.0,327364372.0,400125.7351278557,0.0,0.006837708346693387,0.011225138569138276,-0.049999997,1.964610433262525,0.0,0.0,1.0,39.87141370000001,32.7364371,0.03758437500400802,-0.021073631256513025,-0.029420903478957917,0.027792450016032064,-0.03885406684168337,0.010022851398797597,0.04537391520841684,-0.0066403285230460934,-0.017881407106212426,1.5978809998837673,0.10288814845891783,0.02815058070741483,0.023649324218436876,-0.007393627,1.0,33089057.29258517,1.0,0.0,0.0,0.0,0.0
33118743.0,0.0,0.0,0.0,0.5,0.5,900.0,900.0,900.0,900.0,900.0,900.0,0.1633077423887776,0.16650120868136276,0.6643619017034068,0.6643619017034068,0.6773389232044088,0.04849750594188377,0.049444802825651314,0.29528022106012025,0.29528022106012025,12.404602,-0.0013715842204408818,-0.005742441805611223,0.0005250640901803607,0.02248746093186373,0.0037282238817635273,-0.09763367315631262,2.0,-1.0,0.0,11.0,0.0,0.0,1.0,0.0,0.0,0.0,0.0,0.0,0.0,0.0,0.006107131180360721,0.0,0.9882219757515031,1.9588297774348695,-0.6759099478156313,,8.756216275106212,3.567314629258517e-06,6.188857715430862e-06,-6.166733466933867e-07,0.0,-0.08169151625851703,0.20428219859118235,-9.850011593847695,-6.64e-34,966.1593041400802,12.404602,-0.003445973691382765,-0.004845047927855711,0.0017377561963927853,-0.08761370834268538,0.2677646747254509,-9.936171273080161,0.0013881474448897797,-0.004039801745490981,0.0013884791923847693,-6.64e-34,-0.07748510630861723,-0.08948513142084169,0.4006001879338677,0.6303838396392786,13.254009236873747,25.691324918196393,-0.24874630391182365,6.636329047294589,0.10999999,-43.77010278196393,399.63118265671346,12.404602,96616.1296892986,1.1479594984468937,0.41876968010020044,0.06378654213426854,0.12922997064729458,-0.001790656853707415,0.0070914318376753506,-0.002776920416833668,0.0,0.0,1.5979786,0.6974314,0.0,0.0,0.71665156,1.0,398714138.0,327364372.0,400123.9801038076,0.0,0.002450277795591182,0.00830018509218437,-0.049999997,2.3409260436833668,0.0,0.0,1.0,39.87141370000001,32.7364371,0.03769956733867735,-0.021263540675350703,-0.02966963997194389,0.027380544354709418,-0.03919111712224449,0.009440066198396794,0.04701595161122245,-0.0032812606973947893,-0.0092617664749499,1.5978964521783567,0.10382856327855712,0.028157410276553104,0.02356213895791583,-0.007393627,1.0,33118742.723446894,1.0,0.0,0.0,0.0,0.0
33148429.0,0.0,0.0,0.0,0.5,0.5,900.0,900.0,900.0,900.0,900.0,900.0,-0.3818433191482967,-0.38930114134669347,0.6829237146292585,0.6829237146292585,0.6962633441122245,0.04848617367735471,0.04943325103206414,0.3157767435751503,0.3157767435751503,12.404602,-0.0013720471322645291,-0.005741872507014028,0.0005237153627254509,0.022508587771543086,0.0037474944589178357,-0.09758613233867736,2.0,-1.0,0.0,11.0,0.0,0.0,1.0,0.0,0.0,0.0,0.0,0.0,0.0,0.0,0.005631748725450901,0.0,0.6690015193326653,2.0490644717935873,-0.8005769847695391,,10.873650624096193,3.34935871743487e-06,5.939899799599198e-06,0.0,0.0,-0.10587464544288577,0.19579401941282565,-9.849642921641282,-6.64e-34,966.1581612623246,12.404602,-0.002637723058116231,-0.005554112196392786,-0.0024521191723446906,-0.10572099362925852,0.25318389896593185,-9.929544737168337,0.002660817703406814,-0.004352769236472946,-9.659013627254557e-05,-6.64e-34,-0.05008496524248496,-0.062084994382765525,0.40060014966733465,0.7408852995490982,13.254022046092183,25.667901896312625,-0.24827758753306614,6.25937055947495,0.10999999,-45.24422847745491,399.5980127761523,12.404602,96616.52130036072,1.1479641230501,0.5254947052364729,0.2501672446412826,0.09350681536072139,-0.0028565755130260523,0.005937049138276552,-0.0026059195390781553,0.0,0.0,1.5979786,0.6974314,0.0,0.0,0.71665156,1.0,398714138.0,327364372.0,400122.22511543083,0.0,-0.0019371527555110232,0.005375231615230461,-0.049999997,2.717241654460922,0.0,0.0,1.0,39.87141370000001,32.7364371,0.03782283281162325,-0.02144497137274549,-0.029870433110220446,0.0269515895751503,-0.03958554012024049,0.008802181971943887,0.046307643196392786,0.0020351964348697413,-0.0018751789298597178,1.5979096026012025,0.1049139007755511,0.028142292695390782,0.0235568936252505,-0.007393627,1.0,33148428.511022042,1.0,0.0,0.0,0.0,0.0
33178002.0,0.0,0.0,0.0,0.5,0.5,900.0,900.0,900.0,900.0,900.0,900.0,-1.0104250313266536,-1.030168301388778,0.7014855275551102,0.7014855275551102,0.7151877653066133,0.048474841412825646,0.04942169921042085,0.3362732660901803,0.3362732660901803,12.404602,-0.0013725103306613227,-0.005741303208416833,0.0005223666352705412,0.02252971489779559,0.0037667653226452907,-0.09753859123446894,2.0,-1.0,0.0,11.0,0.0,0.0,1.0,0.0,0.0,0.0,0.0,0.0,0.0,0.0,0.0051563662424849695,0.0,0.3497810626272546,2.1392991661523046,-0.9252440216953908,,12.991084973547094,3.2313026052104207e-06,5.0270140280561125e-06,0.0,-2.595190380761505e-07,-0.13634711598396793,0.1876079129318637,-9.846773216266532,-6.64e-34,966.157789649499,12.404602,0.00303969217234469,-0.006620979919839679,-0.00765450733466934,-0.11406770198396794,0.1827285717975952,-9.90213017946493,0.003959692985971944,-0.004651951501002004,-0.0018834109138276555,-6.64e-34,-0.022413816334669347,-0.034413849334669344,0.4006001114569138,0.8508523454268536,13.254035513226453,25.643540672484967,-0.24779009358517035,5.884539021380761,0.10999999,-46.71365602713426,399.5683090633267,12.404602,96616.8773150501,1.1479682886032063,0.2805966447194389,0.460942098210421,-0.07292321464529053,-0.002463654176352707,0.004186292873747495,0.0013761164308617238,0.0,0.0,1.5979786,0.6974314,0.0,0.0,0.71665156,1.0,398714138.0,327364372.0,400120.49268476956,0.0,-0.0062494901402805605,0.002550402350701403,-0.04984981066733467,3.083985348054108,0.0,0.0,1.0,39.87141370000001,32.7364371,0.03795090768336673,-0.021619590176352708,-0.030036263068136275,0.02651659476953908,-0.040027373685370744,0.008124933078156314,0.04317112970741483,0.008428303378757518,0.004445220897795589,1.5979206800761523,0.10607076155911824,0.02811038391983968,0.02362143293787575,-0.007393627,1.0,33178002.360721443,1.0,0.0,0.0,0.0,0.0
33205002.0,0.0,0.0,0.0,0.5,0.5,900.0,900.0,900.0,900.0,900.0,900.0,-0.060390475214428974,-0.061571277120240575,0.7200473404809619,0.7200473404809619,0.7341121858577154,0.04846350914829659,0.04941014674549098,0.3567697886052104,0.3567697886052104,12.404602,-0.0013729728857715432,-0.005740733909819639,0.0005210179078156313,0.022550841380761525,0.0037860355430861725,-0.0974910507735471,2.0,-1.0,0.0,11.0,0.0,0.0,1.0,0.0,0.0,0.0,0.0,0.0,0.0,0.0,0.004680983116232465,0.0,0.030560606565130266,2.229533860511022,-1.0499110579779558,,15.108519319138276,3.023186372745491e-06,5.194849699398798e-06,0.0,-6.46943887775551e-06,-0.15444793131462925,0.17529288058717435,-9.864422530144289,-6.64e-34,966.1577884410822,12.404602,0.002069679867735471,-0.006107566573146293,-0.005052833557114229,-0.08689829231462926,0.20720948159719438,-9.909589874875753,0.004371575150300601,-0.004563379917835671,-0.0013282420661322645,-6.64e-34,0.01147116244288577,-0.0005288705571142305,0.4006000745330661,0.9485660409979959,13.254064065430862,25.597667746232464,-0.24687206401603207,5.558475394777555,0.10999999,-48.07536180498998,399.59278950721443,12.404602,96616.57593589179,1.147964785537074,0.304685483006012,-0.023425184254508902,-0.28856876008617227,0.0026314044609218427,0.00459013235270541,7.735566933867745e-05,0.0,0.0,1.5979786,0.6974314,0.0,0.0,0.71665156,1.0,398714138.0,327364372.0,400119.2767488978,0.0,-0.008840048496993987,0.00202127824248497,-0.04625606627855711,3.231258647563126,0.0,0.0,1.0,39.87141370000001,32.7364371,0.03802598796392786,-0.021809491539078157,-0.03037002041282565,0.026287903897795593,-0.0403959857995992,0.007659404591182365,0.03189157699198397,-7.784005811623147e-05,0.01125612738076152,1.597930779755511,0.1059367031523046,0.028137325573146292,0.023628921094188376,-0.007393627,1.0,33205002.420841683,1.0,0.0,0.0,0.0,0.0
33232003.0,0.0,0.0,0.0,0.5,0.5,900.0,900.0,900.0,900.0,900.0,900.0,-0.031820290304609256,-0.03244327784168344,0.7386091534068135,0.7386091534068135,0.7530366064088176,0.04845217688376754,0.049398594651302606,0.377266311490982,0.377266311490982,12.404602,-0.0013734358116232466,-0.005740164240480962,0.0005196695511022044,0.022571967863727456,0.0038053061342685373,-0.09744350994188376,2.0,-1.0,0.0,11.0,0.0,0.0,1.0,0.0,0.0,0.0,0.0,0.0,0.0,0.0,0.004205600360721443,0.0,-0.28865984949699397,2.3197685548697393,-1.1745780946312625,,17.225953668436873,3.0152705410821642e-06,5.2811222444889785e-06,0.0,-1.2086172344689376e-05,-0.16537357873947897,0.16058320119839678,-9.89397222557515,-6.64e-34,966.1580020402805,12.404602,0.0006779194669338676,-0.0077987685671342686,-0.0005884540981963924,-0.0939624990480962,0.20009603541482965,-9.883895460026052,0.004269029408817636,-0.004249922853707414,0.0005852060501002007,-6.64e-34,0.05043013955711423,0.038430109523046097,0.4006000387214429,1.0362740745951904,13.254104941082165,25.53422910705411,-0.2456024736452906,5.272233962452906,0.10999999,-49.3491057107014,399.6210965963928,12.404602,96616.24886805611,1.1479609128416834,0.3245010567134269,-0.014787256529058074,-0.40051504394388776,0.003347649160320641,0.006241531380761523,-0.0016603125871743488,0.0,0.0,1.5979786,0.6974314,0.0,0.0,0.71665156,1.0,398714138.0,327364372.0,400118.4900204409,0.0,-0.01,0.0033996298156312625,-0.03980110818236473,3.196176494266533,0.0,0.0,1.0,39.87141370000001,32.7364371,0.03807008315430862,-0.02200832814228457,-0.030801963078156313,0.026179837104208417,-0.04072178617034068,0.007317667056112224,0.01585085723246493,-0.017295451460921846,0.018353829094188378,1.5979403070100198,0.1050478551262525,0.028111804340681362,0.023582814490981967,-0.007393627,1.0,33232002.851703405,1.0,0.0,0.0,0.0,0.0
33259340.0,0.00033153200801603325,0.00026443073747495086,1.2721202404809664e-05,0.4919561066372745,0.49983912211422843,900.0,900.0,900.0,900.0,900.0,900.0,-0.6375702027114225,-0.6500294987635268,0.7571709663326652,0.7571709663326652,0.7719610270020041,0.04844084461923848,0.04938704285771543,0.39776283463527057,0.39776283463527057,12.404602,-0.001373898995991984,-0.00573959431262525,0.0005183214529058117,0.022593094346693387,0.003824576983967936,-0.0973959688517034,2.0,-1.0,0.0,11.0,0.0,0.0,1.0,0.0,0.0,0.0,0.0,0.0,0.0,0.0,0.0037302179058116233,0.0,-0.6078803055591183,2.4100032492284567,-1.2992451315851703,,19.343388020320642,3.1650501002004006e-06,5.279799599198397e-06,0.0,-1.7337675350701398e-05,-0.17054857819238478,0.14497804608016032,-9.932560518819638,-6.64e-34,966.1584132318636,12.404602,-0.0008382752104208413,-0.010756882314629257,0.004855184651302605,-0.12678530739278557,0.17136104811422848,-9.836100957981964,0.003741819496993988,-0.003777715985971944,0.0035440415010020046,-6.64e-34,0.09350316937675351,0.08150314471342687,0.40060000381162325,1.115869409252505,13.254155808717433,25.45654799751503,-0.2440478339759519,5.018280795717435,0.10999999,-50.55152917911823,399.6474672967936,12.404602,96615.95717286573,1.1479574069338678,0.3158480032184368,0.34855799400801596,-0.38911158165731446,0.000729506981963928,0.008504344308617233,-0.003525819939879759,0.0,0.0,1.5979786,0.6974314,0.0,0.0,0.71665156,1.0,398714138.0,327364372.0,400118.051297996,0.0,-0.01,0.00632458333466934,-0.031026247122244482,3.0132385684248497,0.0,0.0,1.0,39.87141370000001,32.7364371,0.03808742382164328,-0.022214397204408817,-0.031316820627254514,0.026160990845691384,-0.04101570392985972,0.0070698226733466926,-0.003666590116232468,-0.0412149762725451,0.02516203155310621,1.5979489783747494,0.10357201927855711,0.02803852429258517,0.023509080827655314,-0.007393627,1.0,33259340.214428857,1.0,0.0,0.0,0.0,0.0
33291711.0,0.005620256897795593,0.00448273059719439,0.00021565466933867744,0.36363685537474943,0.4972727367935872,900.0,900.0,900.0,900.0,900.0,900.0,0.4435054783206418,0.4521685854849705,0.775732779258517,0.775732779258517,0.790885448224449,0.048429512354709416,0.04937549106412826,0.4182593571503006,0.4182593571503006,12.404602,-0.0013743615511022044,-0.0057390250140280565,0.0005169727254509018,0.022614220829659318,0.0038438472044088176,-0.09734842839078156,2.0,-1.0,0.0,11.0,0.0,0.0,1.0,0.0,0.0,0.0,0.0,0.0,0.0,0.0,0.0032548354509018035,0.0,-0.9271007616212427,2.5002379435871744,-1.423912168539078,,21.460822365911824,3.24561122244489e-06,4.95755511022044e-06,0.0,-2.431963927855712e-05,-0.17672622054709416,0.14501502497795593,-9.9620224737996,-6.64e-34,966.1591746687375,12.404602,0.0008980264328657323,-0.005930574238476952,0.002358471945891783,-0.12972750699198396,0.2023683627935872,-9.859803116979961,0.003101562663326653,-0.0036582324288577154,0.00566673711222445,-6.64e-34,0.1365761991963928,0.12457617990380764,0.4005999689018036,1.195464743280561,13.254206676352705,25.37886688168337,-0.24249319430661323,4.764327628352706,0.10999999,-51.753952641242485,399.59849184088176,12.404602,96616.50582096192,1.1479638665931866,-0.06667166353507031,0.03864789889779546,0.20946087238076183,0.00134112097995992,0.004784397565130259,-0.001981708266533066,0.0,0.0,1.5979786,0.6974314,0.0,0.0,0.71665156,1.0,398714138.0,327364372.0,400117.6125755511,0.0,-0.01,0.009249537482965933,-0.02225138669138276,2.8303006425831665,0.0,0.0,1.0,39.87141370000001,32.7364371,0.03808037002404809,-0.022420281893787575,-0.031881098252505014,0.02601381171743487,-0.041351931144288576,0.006725118414829659,-0.017447136018036078,-0.05973012752505011,0.02416455394789579,1.597951791971944,0.10247004919839679,0.027887172769539077,0.023672015697394792,-0.007393627,1.0,33291711.016032062,1.0,0.0,0.0,0.0,0.0
33321676.0,0.017264542316633276,0.009842663995991987,-0.002007187959919842,0.24773660121042076,0.4558091838256513,900.0,900.0,900.0,900.0,900.0,900.0,0.30193041722845637,0.3078282310641277,0.7942945921843688,0.7942945921843688,0.8098098690621243,0.04841818009018036,0.049363939270541085,0.43875587966533064,0.43875587966533064,12.404602,-0.0013748241062124249,-0.005738455715430862,0.0005156239979959919,0.02263534731262525,0.0038631178096192385,-0.09730088754509017,2.0,-1.0,0.0,11.0,0.0,0.0,1.0,0.0,0.0,0.0,0.0,0.0,0.0,0.0,0.0027794526112224446,0.0,-1.246321217683367,2.5904726379458918,-1.5485792054929859,,23.5782567153507,3.2338276553106213e-06,4.800761523046092e-06,0.0,-2.8685170340681367e-05,-0.18476651377154307,0.1741110488136273,-9.974530049621242,-6.64e-34,966.1605869432866,12.404602,0.0009724291743486967,-0.005770912735470943,-0.00033395917234469124,-0.10818335596993985,0.21706145940480961,-9.892328172330663,0.0022512955370741477,-0.004194015629258517,0.006236100010020039,-6.64e-34,0.17964922901603209,0.1676492150941884,0.4005999336072144,1.2750600776933867,13.254257543987976,25.301185769699398,-0.24093855463727454,4.510374460987976,0.10999999,-52.956376103366736,399.5954643320641,12.404602,96616.52588805612,1.1479641018356714,-0.02779464456513009,-0.31388507537875776,0.3422584228837674,0.001765953991983968,0.0030645440641282563,-0.0003962865811623238,0.0,0.0,1.5979786,0.6974314,0.0,0.0,0.71665156,1.0,398714138.0,327364372.0,400117.1738531062,0.0,-0.01,0.01217449124649299,-0.013476525875751499,2.647362716741483,0.0,0.0,1.0,39.87141370000001,32.7364371,0.03802725046292585,-0.022625816827655312,-0.032538702114228456,0.025624283955911823,-0.04176805767735471,0.00619749856513026,-0.0203938468256513,-0.06803940527054109,0.008426463725450887,1.5979435438296594,0.10207410390380761,0.027813655507014028,0.023739556963927856,-0.007393627,1.0,33321676.238476954,1.0,0.0,0.0,0.0,0.0
33349878.0,0.0322204001503006,0.015543527531062121,-0.005672558503006012,0.15,0.3853045167695391,900.0,900.0,900.0,900.0,900.0,900.0,-0.5740039447394796,-0.5852194610180366,0.8128564050541082,0.8128564050541082,0.8287342896693387,0.04840684782565131,0.04935238747695391,0.45925240218036073,0.45925240218036073,12.404602,-0.0013752867174348696,-0.005737886360721443,0.0005142752705410822,0.022656473795591183,0.003882388645290581,-0.09725334646893787,2.0,-1.0,0.0,11.0,0.0,0.0,1.0,0.0,0.0,0.0,0.0,0.0,0.0,0.0,0.002304069541082165,0.0,-1.5655416737454908,2.6807073323607216,-1.6732462424468937,,25.695691067094188,3.151583166332665e-06,4.84070140280561e-06,0.0,-3.10627254509018e-05,-0.19419409389779557,0.22485000710420838,-9.974410145132264,-6.64e-34,966.1624839563126,12.404602,-0.000253155511022043,-0.008605230831663327,-0.0025893350200400828,-0.0708980257995992,0.21823655512825652,-9.921704778182365,0.0012446144949899807,-0.005217835993987975,0.005648553647294588,-6.64e-34,0.22272225883567132,0.21072225028456912,0.4005998980821643,1.3546554123366732,13.254308411623247,25.22350466002004,-0.23938391496793587,4.2564212936793595,0.10999999,-54.15879956549098,399.62018516873746,12.404602,96616.23157975952,1.1479606373607214,0.2762934553186374,-0.6303249830921847,0.15731345741683359,0.001910243893787576,0.0029762431342685363,0.0010724180400801604,0.0,0.0,1.5979786,0.6974314,0.0,0.0,0.71665156,1.0,398714138.0,327364372.0,400116.73512505007,0.0,-0.01,0.015099444723446894,-0.004701664829659324,2.4644247908997996,0.0,0.0,1.0,39.87141370000001,32.7364371,0.037939821505010025,-0.022831091266533068,-0.033265814635270535,0.025054256951903806,-0.04224369255711423,0.00553364470741483,-0.015271607593186375,-0.06874743342084169,-0.018290311991983953,1.597927056995992,0.10220399998597195,0.027792413218436875,0.023741987496993987,-0.007393627,1.0,33349878.14228457,1.0,0.0,0.0,0.0,0.0
33378391.0,0.031585086412825654,0.015659742991983968,-0.005345066128256513,0.15,0.31402327383366724,900.0,900.0,900.0,900.0,900.0,900.0,0.48263527944889884,0.49205998323046185,0.8314182173086173,0.8314182173086173,0.8476587108917836,0.048395515561122246,0.04934083568336673,0.47974892469539077,0.47974892469539077,12.404602,-0.0013757499438877756,-0.0057373163907815635,0.0005129265430861723,0.022677600278557114,0.0039016588657314628,-0.09720580600801604,2.0,-1.0,0.0,11.0,0.0,0.0,1.0,0.0,0.0,0.0,0.0,0.0,0.0,0.0,0.0018286870861723443,0.0,-1.8847621298076156,2.770942027390782,-1.7979132794008017,,27.813125412685373,3.050881763527054e-06,5.6865931863727465e-06,0.0,-3.300961923847695e-05,-0.2036216746392786,0.27558896477955913,-9.974290240643287,-6.64e-34,966.1643809693387,12.404602,-0.0021609268036072164,-0.006158053817635269,0.0015455458116232501,-0.06098010911623245,0.2044201038056112,-9.844512154114229,0.0002379334529058108,-0.006241655743486975,0.0050610072845691375,-6.64e-34,0.26579528865531066,0.25379528547494995,0.4005998631723447,1.4342507463647296,13.254359279258518,25.145823544188378,-0.23782927529859718,4.002468126985971,0.10999999,-55.36122302761523,399.5739308661323,12.404602,96616.80681973948,1.1479674373907816,0.047060508595190176,-0.2029671352665327,0.2921172231182366,0.000503852801603205,0.0044437720621242505,0.000924061376753507,0.0,0.0,1.5979786,0.6974314,0.0,0.0,0.71665156,1.0,398714138.0,327364372.0,400116.296335471,0.0,-0.01,0.018024398200400804,0.0040731956012024124,2.281486865058116,0.0,0.0,1.0,39.87141370000001,32.7364371,0.03785239254709419,-0.023036365705410823,-0.033992927771543086,0.02448422994789579,-0.04271932743687375,0.004869790849699398,-0.010149368975951898,-0.06945546095591182,-0.04500708832464932,1.5979105701623246,0.10233389606813628,0.027708725653306614,0.023809519871743488,-0.007393627,1.0,33378390.73747495,1.0,0.0,0.0,0.0,0.0
33409195.0,0.0322258851002004,0.015904463400801604,-0.0053161415490981965,0.15,0.23701171622845693,900.0,900.0,900.0,900.0,900.0,900.0,0.48642180747695407,0.4959218655390783,0.8499800299619239,0.8499800299619239,0.8665831317154309,0.048384183296593185,0.04932928388977956,0.5002454476092184,0.5002454476092184,12.404602,-0.001376212771543086,-0.005736746819639278,0.0005115782144288578,0.022698726761523045,0.00392092948496994,-0.0971582651482966,2.0,-1.0,0.0,11.0,0.0,0.0,1.0,0.0,0.0,0.0,0.0,0.0,0.0,0.0,0.0013533046312625252,0.0,-2.2039825858697393,2.8611767220220443,-1.9225803163547095,,29.93055976226453,2.950180360721443e-06,5.659118236472946e-06,0.0,-3.643206412825651e-05,-0.19663962405611227,0.2820581770741483,-9.960784262973949,-6.64e-34,966.1662567663327,12.404602,-0.00161173841482966,-0.006124590873747495,0.0034622222965931863,-0.08150876691583166,0.2026512058016032,-9.843617372300601,-0.002504812821643285,-0.006697092809619239,0.0020306310380761535,2.190936775276552,0.3168603981523046,0.3048603975511022,0.400599917991984,1.51964298947495,13.254399678456915,25.06141066513026,-0.2361402113286573,3.7776528453727454,0.10999999,-56.49372181390782,399.56805868837677,12.404602,96616.87123987975,1.147968231927856,0.19907131681362714,-0.013484601040080167,0.3926661995911823,-0.0002487200020040079,0.004250061751503007,-6.849755310621214e-05,0.0,0.0,1.5979786,0.6974314,0.0,0.0,0.71665156,1.0,398714137.92024046,327364371.92024046,400116.35568396794,0.0,-0.009288402719438878,0.018102962953907814,0.006443681304609219,2.43178229353507,0.0,0.0,1.0,39.87141370000001,32.7364371,0.03770284129258517,-0.023199960611222446,-0.03478137837074148,0.024059070955911824,-0.043268979150300604,0.004552035877755511,0.003740283627254504,-0.05713954546092184,-0.046936712987975956,1.5978998854348696,0.10241299650300602,0.027712151434869742,0.02383522037274549,-0.007393627,1.0,33409195.22244489,1.0,0.0,0.0,0.0,0.0
33441005.0,0.03342206646292585,0.016174024663326653,-0.005467341889779559,0.15,0.1574867694248496,900.0,900.0,900.0,900.0,900.0,900.0,-0.17387898674148322,-0.177275304941884,0.8685418428877757,0.8685418428877757,0.8855075522665331,0.04837285103206413,0.04931773209619239,0.5207419707254509,0.5207419707254509,12.404602,-0.0013766753967935873,-0.005736177521042084,0.0005102300881763527,0.02271985331462926,0.003940200306613227,-0.09711072408617234,2.0,-1.0,0.0,11.0,0.0,0.0,1.0,0.0,0.0,0.0,0.0,0.0,0.0,0.0,0.0008779221062124243,0.0,-2.523203042002004,2.951411416380762,-2.0472473533086175,,32.04799411386774,2.8340480961923848e-06,5.0509018036072134e-06,0.0,-4.187294589178358e-05,-0.17843382609018035,0.25824807159318636,-9.9381225705491,-6.64e-34,966.1681180569138,12.404602,0.00011834786773546777,-0.0072829043106212394,0.003766557116232464,-0.11659315804809617,0.20833522775551103,-9.891305968773548,-0.006434981218436878,-0.006763771316633267,-0.002670575224448904,5.880415506649303,0.37368040340280567,0.3616804034028057,0.4006000374308618,1.6092094411282567,13.254432538977955,24.972150412324652,-0.23435435171943886,3.5738190227474944,0.10999999,-57.575869597074146,399.5889608977956,12.404602,96616.60186653306,1.1479650928597196,0.49754229319639187,0.001951021835671236,0.47825848714629277,-0.00035782127454909627,0.0034646113406813675,-0.0015270403887775558,0.0,0.0,1.5979786,0.6974314,0.0,0.0,0.71665156,1.0,398714137.78597194,327364371.78597194,400116.7748202405,0.0,-0.00806284688777555,0.016125693845691378,0.004188540733466929,2.822758979517035,0.0,0.0,1.0,39.87141370000001,32.7364371,0.03751075527054108,-0.023335017775551102,-0.03561182631663327,0.023733102198396794,-0.04386930978156313,0.004471252751503006,0.023632930921843712,-0.0359062157815631,-0.03189472642484968,1.5978931734008017,0.10245731744488978,0.027768720503006012,0.017276795993987897,-0.007393627,1.0,33441004.97194389,1.0,0.0,0.0,0.0,0.0
33468006.0,0.03190338189378757,0.015903743440881763,-0.005413501549098197,0.15,0.08998587191983967,900.0,900.0,900.0,900.0,900.0,900.0,-0.35889236312424855,-0.3659051996713427,0.8871036558136274,0.8871036558136274,0.9044319728176353,0.04836151876753507,0.04930618030260521,0.5412384932404809,0.5412384932404809,12.404602,-0.001377138623246493,-0.00573560822244489,0.0005088813607214428,0.022740980468937876,0.003959470527054108,-0.0970631836252505,2.0,-1.0,0.0,11.0,0.0,0.0,1.0,0.0,0.0,0.0,0.0,0.0,0.0,0.0,0.00040253897995991977,0.0,-2.842423498735471,3.041646110739479,-2.171914390262525,,34.16542845945892,2.5856513026052104e-06,4.580961923847695e-06,0.0,-5.597114228456914e-05,-0.1601498140961924,0.2342269596993988,-9.915397075519039,-6.64e-34,966.1699792873748,12.404602,-0.0024221115410821645,-0.004517242997995991,0.003244752657314629,-0.0980891846513026,0.20732853127254508,-9.908481387891785,-0.010373425166332665,-0.006827740204408818,-0.007383424372745492,9.580337073292586,0.4330115968296593,0.4210115968296594,0.4006001851262526,1.7005973370701404,13.25446210490982,24.880774973146295,-0.23252625403406815,3.3791406043306615,0.10999999,-58.636046366212426,399.60280499098195,12.404602,96616.46371763527,1.147963416517034,-0.18188668192384783,-0.08100356530861724,0.6363103686893787,0.0012185712404809623,0.007338411030060121,-0.0020345116813627255,0.0,0.0,1.5979786,0.6974314,0.0,0.0,0.71665156,1.0,398714137.6517034,327364371.6517034,400117.35982825654,0.0,-0.006600369813627254,0.013200740368737474,-0.00019888981763527096,3.3246832917515032,0.0,0.0,1.0,39.87141370000001,32.7364371,0.03731798928857716,-0.02346961862725451,-0.03644294520440882,0.02340871881162325,-0.04447045083366733,0.004394257801603207,0.04362152831663327,-0.014530351833667333,-0.01658146891983968,1.5978865250941885,0.1025010822745491,0.027770505603206413,-0.04547193920641283,-0.007393627,1.0,33468005.703406814,1.0,0.0,0.0,0.0,0.0
33495006.0,0.03165453457915832,0.015927564166332665,-0.005650970390781563,0.15,0.0375750416372746,900.0,900.0,900.0,900.0,900.0,900.0,-0.6114729778436871,-0.6234188997915828,0.905665468739479,0.905665468739479,0.9233563937815632,0.048350186503006015,0.049294628509018036,0.561735015755511,0.561735015755511,12.404602,-0.0013776014368737475,-0.005735038923847696,0.0005075326332665331,0.02276210721042084,0.00397874074749499,-0.09701564275150301,2.0,-1.0,0.0,11.0,0.0,0.0,1.0,0.0,0.0,0.0,0.0,0.0,0.0,0.0,0.00012887361322645307,-0.005690438316633257,-3.0231589073727454,2.9364029127294593,-2.464573460791583,,36.001692459679354,2.6964128256513022e-06,4.552745490981964e-06,0.0,-0.00010472274949899792,-0.14735787273947898,0.21660590740881763,-9.900888689719439,-6.64e-34,966.1697961226453,12.404602,-0.0034535817314629257,-0.005963196779559114,0.0045066642184368715,-0.08876848442885772,0.20189910643687375,-9.901508435955911,-0.011808818845691382,-0.006248242703406815,-0.006848859877755515,9.885422033278559,0.49234279025651295,0.480342790256513,0.40060033323446903,1.7919852334248496,13.254491674969941,24.789399533967934,-0.23069815676152305,3.184462185501002,0.10999999,-59.69622313947895,399.62171028537074,12.404602,96616.25159863727,1.1479608835611224,0.05275084473547009,-0.20285913218036059,0.34930314565531123,0.0018734514468937875,0.006357362482965936,-0.0015578821683366745,0.0,-0.163493756064128,1.5979786,0.6918043551903807,0.05820177612024039,-0.056640843114228366,0.7108694467294588,1.0,398714137.5174349,327364371.5174349,400117.94483627257,0.0,-0.00513789315230461,0.010275786891783571,-0.004586320368737471,3.8266076035731458,0.0,0.0,1.0,39.87141370000001,32.7364371,0.03709325821643286,-0.02357399279759519,-0.037216507114228456,0.023069380815631264,-0.044647067993987974,0.004448800250501002,0.05043040299799599,-0.004635908206412829,-0.008665671414829663,1.5978936515410822,0.10271820456713426,0.025995150583166336,-0.33411295005410774,-0.007393627,1.0,33495006.02204409,1.0,0.0,0.0,0.0,0.0
33522006.0,0.03203998993186373,0.01614048594188377,-0.00601181985971944,0.15,0.0,900.0,900.0,900.0,900.0,900.0,900.0,-0.8779130901082165,-0.8950622146192385,0.9242272816653306,0.9242272816653306,0.9422808149198397,0.048338854238476954,0.04928307671543086,0.5822315382705411,0.5822315382705411,12.404602,-0.0013780640761523045,-0.005734469541082164,0.0005061839058116233,0.02278323369338677,0.003998011052104209,-0.09696810170340682,2.0,-1.0,0.0,11.0,0.0,0.0,1.0,0.0,0.0,0.0,0.0,0.0,0.0,0.0,0.0,-0.015465439422845699,-3.104490572967936,2.6908468472845692,-2.877816213070141,207.38670116593184,37.63613405859719,3.163386773547095e-06,-2.0610709418837772e-05,0.0,-0.00019154469338677362,-0.1383862721482966,0.20343680219438878,-9.89209620938477,-6.64e-34,966.1681908641283,12.404602,-0.003133496575150299,-0.009090982797595189,0.005628626470941881,-0.08961502450100203,0.19107710832665328,-9.884399803587174,-0.011503065094188376,-0.00522114330260521,-0.002664140589178354,7.829023792336672,0.5516739836833668,0.5396739836833668,0.4006004815170341,1.8833731299539078,13.254521246773548,24.698024094789577,-0.228870059747495,2.989783766496994,0.10999999,-60.75639991448898,399.63724075831664,12.404602,96616.06945547093,1.1479587131843687,0.7231917862204407,-0.29347460167735456,-0.15735734078557118,0.002006225246492986,0.0034119123907815655,-0.001293223823647297,0.0,-0.3939105842204409,1.5979786,0.6839421201723447,0.14023635170741483,-0.13647530383767534,0.7027905478096192,1.0,398714137.3831663,327364371.3831663,400118.52984428854,0.0,-0.0036754166653306607,0.007350833330661322,-0.008973750919839681,4.328531915220442,0.0,0.0,1.0,39.87141370000001,32.7364371,0.036846232154308614,-0.023657284488977956,-0.03794992428657315,0.02271961213226453,-0.04452758821442886,0.00459508745490982,0.04804668643887775,-0.002749524066132266,-0.005909453296593187,1.5979103856653307,0.1030562402244489,0.02269209066533066,-0.705572563006012,-0.007393627,1.0,33522006.166332666,1.0,0.0,0.0,0.0,0.0
33549007.0,0.0313030691503006,0.016387803216432868,-0.005960787074148296,0.15,0.0,900.0,900.0,900.0,900.0,900.0,900.0,-0.9458664531142285,-0.9643516334869738,0.9427890945911823,0.9427890945911823,0.9612052354709418,0.04832752197394789,0.04927152492184369,0.6027280607855711,0.6027280607855711,12.404602,-0.0013785273026052105,-0.005733899571142285,0.0005048351783567134,0.022804360176352702,0.004017281943887776,-0.09692056124248496,2.0,-1.0,0.0,11.0,0.0,0.0,1.0,0.0,0.0,0.0,0.0,0.0,0.0,0.0,0.0,-0.028875963390781557,-3.0973465381883765,2.320403339078157,-3.3983861694629254,207.3765567751503,39.09094078074148,4.54635270541082e-06,-0.00022305208216432854,0.0,-0.0003925661763527053,-0.13207351737875753,0.19336612148296595,-9.887281831739479,-6.64e-34,966.1655959232464,12.404602,2.3148004008013718e-05,-0.005552751064128259,-0.002018039891783561,-0.1212722573066132,0.16195655795591185,-9.902076952675351,-0.009985523821643288,-0.00388252559719439,0.004060979711422842,4.129102225022046,0.6110051771102204,0.5990051771102204,0.40060062921242484,1.9747610258957915,13.25455081270541,24.606648655611224,-0.22704196273346694,2.7951053480801606,0.10999999,-61.816576683627254,399.6071175448898,12.404602,96616.41957410822,1.1479628144168337,0.44070287845491,0.0037890467294587338,-0.25208217038476943,0.002522390426853707,0.007971241579158314,-0.0068064450360721404,0.0,-0.3769590914549099,1.5979786,0.685068997737475,0.13427365246893788,-0.13067250432865732,0.7039484897434869,1.0,398714137.2488978,327364371.2488978,400119.11485230457,0.0,-0.002212939591182366,0.004425879182364732,-0.013361181470941882,4.83045622745491,0.0,0.0,1.0,39.87141370000001,32.7364371,0.03658331421843687,-0.023725548627254508,-0.038654726691382764,0.02236240747294589,-0.04419704861523046,0.0048067712024048095,0.039110445296593195,-0.006571324236472944,-0.006831008757515029,1.5979339685911824,0.10348046368136272,0.01649505859118237,-0.6679608448396793,-0.007393627,1.0,33549006.89779559,1.0,0.0,0.0,0.0,0.0
33579422.0,0.032022733715430865,0.01646902616432866,-0.006024641110220441,0.15,0.0,900.0,900.0,900.0,900.0,900.0,900.0,0.034696495060121624,0.035367814669339914,0.9613509075170341,0.9613509075170341,0.9801296564488978,0.048316189282565127,0.0492599727014028,0.6232245837274549,0.6232245837274549,12.404602,-0.0013789901022044089,-0.005733330028056112,0.000503486877755511,0.022825486659318637,0.004036552408817636,-0.09687302035470942,2.0,-1.0,0.0,11.0,0.0,0.0,1.0,0.0,0.0,0.0,0.0,0.0,0.0,0.0,0.0,-0.04228648735871744,-3.0902025034088174,1.9499598308717432,-3.9189561258557117,207.36641242705412,40.54574750715431,-5.930060120240543e-07,-0.0009173732024048104,0.0,-0.000637431084168337,-0.13099083418637275,0.17926492586172343,-9.888593065603207,-6.64e-34,966.1643159478958,12.404602,0.0004767611162324639,-0.0030593466513026035,-0.0023901526833667304,-0.1630747266392786,0.17888833335470944,-9.896503117378758,-0.007316866521042081,-0.0030083298476953906,0.007834482178356715,1.5943027598637258,0.6748794168036073,0.6628794168036073,0.40060070861122243,2.0682160185410825,13.254579729819639,24.5147352398998,-0.22520311839679358,2.606261803002004,0.10999999,-62.87204979382766,399.5853472609218,12.404602,96616.67157615231,1.1479658416853706,0.23813316754909808,0.2725473328436876,-0.36483924746493,0.0008561443747494965,0.008740660486973946,-0.005025130801603201,0.0,-0.361117274478958,1.5979786,0.6860815506472946,0.1286934376292585,-0.12524194814428857,0.704988955987976,1.0,398714137.11462927,327364371.11462927,400119.5935310621,0.0,-0.000963078348697394,0.001926156697394788,-0.01668553371743487,5.224643621370742,0.0,0.0,1.0,39.87141370000001,32.7364371,0.03633090968937876,-0.023824719108216433,-0.039319047997995994,0.022021197022044088,-0.044216274651302595,0.004937552086172345,0.03012081884168336,-0.010909109863727461,-0.000540076030060112,1.597951106452906,0.10374545491182365,0.009715523593186368,-0.633264039783567,-0.007393627,1.0,33579422.032064125,1.0,0.0,0.0,0.0,0.0
33611007.0,0.03293084097194389,0.016404876230460923,-0.0060972484308617235,0.15,0.0,900.0,900.0,900.0,900.0,900.0,900.0,1.3032540201202407,1.3287127143386777,0.9799127204428858,0.9799127204428858,0.9990540775731462,0.048304856444889785,0.04924842033466934,0.6437211068156312,0.6437211068156312,12.404602,-0.0013794526573146291,-0.005732760729458918,0.0005021387234468938,0.02284661314228457,0.004055822727454909,-0.09682547932064128,2.0,-1.0,0.0,11.0,0.0,0.0,1.0,0.0,0.0,0.0,0.0,0.0,0.0,0.0,0.0,-0.0556970113266533,-3.083058468629259,1.5795163225671343,-4.439526082150301,207.35626809358718,42.00055423503006,-1.683386773547092e-05,-0.0018669561843687372,0.0,-0.0009330201643286571,-0.13412991036272545,0.1619102635731463,-9.894848946292585,-6.64e-34,966.1640974328658,12.404602,-0.001056967292585169,-0.0019092958517034058,0.0008471544909819639,-0.19853337593587178,0.2179952446533066,-9.878000047677356,-0.003719018176352707,-0.0025090194328657315,0.009225412957915832,-6.64e-34,0.7446421233286573,0.7326421233286573,0.40060069959719435,2.1643502778517036,13.254607803967936,24.42212452232465,-0.22335034391182365,2.424981126236473,0.10999999,-63.92142625603206,399.574878009018,12.404602,96616.79145254509,1.147967337058116,0.04419338821442901,0.36773092491182396,-0.42113023770741503,-0.00108809882965932,0.007647319068136272,-0.00010328954909819598,0.0,-0.3461014869659319,1.5979786,0.6870092710521042,0.12339808758717434,-0.12008862432665332,0.7059422464008015,1.0,398714137.02945894,327364371.02945894,400119.928803006,0.0,0.0,0.0,-0.018575971885771543,5.473512018008016,0.0,0.0,1.0,39.87141370000001,32.7364371,0.03608705253507014,-0.023949015853707418,-0.03995045875551102,0.021692989408817635,-0.044519854731462916,0.00500256019238477,0.021087790925851706,-0.01566638387174349,0.011614499244488971,1.5979630046112223,0.10388099265931863,0.002596656763527057,-0.5995161115791583,-0.007393627,1.0,33611007.36072145,1.0,0.0,0.0,0.0,0.0
33638008.0,0.030069318637274543,0.016047494336673348,-0.005836867498997996,0.15,0.0,900.0,900.0,900.0,900.0,900.0,900.0,0.7474580436973942,0.762061242164328,0.9984745333687374,0.9984745333687374,1.0179784981242486,0.048293524180360724,0.04923686854108217,0.6642176293306613,0.6642176293306613,12.404602,-0.0013799152124248496,-0.005732191430861723,0.000500789995991984,0.022867739625250502,0.0040750936192384775,-0.09677793885971943,2.0,-1.0,0.0,11.0,0.0,0.0,1.0,0.0,0.0,0.0,0.0,0.0,0.0,0.0,0.0,-0.0691075352945892,-3.0759144338496993,1.2090728136893782,-4.960096037871744,207.34612370280564,43.45536095717435,-7.606643286573153e-05,-0.0026620286693386785,0.0,-0.0013780995531062128,-0.14442559090380763,0.13904041912424847,-9.909486848496993,-6.64e-34,966.1656783106212,12.404602,-0.005153759496993993,-0.005107074939879763,0.0008320828476953907,-0.1630482270280561,0.23257472258917838,-9.861762978328658,0.0014539685771543147,-0.0026452033106212428,0.006577476955911821,-6.64e-34,0.8335863621062126,0.8215863621062126,0.40060040286372745,2.26921218193988,13.254633127014028,24.327242351482965,-0.22145219228857715,2.268336303771543,0.10999999,-64.95094303298598,399.6024451523046,12.404602,96616.46816076153,1.147963481537074,-0.3665541371563131,-0.45489846671142375,-0.0875599405030057,0.0026410949879759555,0.008351612595190381,-0.0012374323847695401,0.0,-0.3321972502024048,1.5979786,0.6878240461022045,0.11848673180561121,-0.11530898329458918,0.7067794483246492,1.0,398714137.2308617,327364371.2308617,400119.78251743485,0.0,0.0,0.0,-0.015651017737474945,5.234367947246493,0.0,0.0,1.0,39.87141370000001,32.7364371,0.03585793670340681,-0.024116644751503005,-0.04052511198196393,0.021387205571142286,-0.04531383024248497,0.004954136915831664,0.011979912969939869,-0.021147106056112232,0.0338814860180361,1.5979658665450902,0.1037932750240481,-0.004555430771543094,-0.5615616615591182,-0.007393627,1.0,33638008.09218437,1.0,0.0,0.0,0.0,0.0
33671840.0,0.029723455300601203,0.016071193004008017,-0.005783558150300601,0.15,0.0,900.0,900.0,900.0,900.0,900.0,900.0,-0.06921710046092178,-0.0705695797094189,1.017036346294589,1.017036346294589,1.0369029191162324,0.04828219191583167,0.049225316747494995,0.6847141518456914,0.6847141518456914,12.404602,-0.0013803782084168337,-0.005731621691382765,0.0004994412685370741,0.022888866108216433,0.00409436407014028,-0.09673039795791583,2.0,-1.0,0.0,11.0,0.0,0.0,1.0,0.0,0.0,0.0,0.0,0.0,0.0,0.0,0.0,-0.08251805926252505,-3.0687703990701403,0.8386293052525049,-5.4806659940340685,207.33597931202408,44.91016768372746,-0.00016185947895791585,-0.003317855703406814,0.0,-0.0019104369378757514,-0.15156772928056111,0.12469374633867736,-9.920048122925852,-6.64e-34,966.1678864749499,12.404602,-0.004505631821643287,-0.004305873026052104,-0.00030354358517034055,-0.11132782717835674,0.2192175670981964,-9.891231520923847,0.004706174569138277,-0.002908192719438878,0.0038436488096192387,-6.64e-34,0.9225306013246494,0.9105306013246494,0.40060010568937876,2.3740740855871745,13.25465845006012,24.2323601850501,-0.21955404110621243,2.111691481306613,0.10999999,-65.98045980553105,399.5725656222445,12.404602,96616.81423330662,1.1479676161162324,-0.14466059226653305,-0.5514433254288577,0.1445914540561122,0.0020668608697394786,0.00811860604208417,-0.002550073256513026,0.0,-0.31900075608416834,1.5979786,0.6885687222745491,0.11382049878957916,-0.11076789500801604,0.7075446410300601,1.0,398714137.3881764,327364371.3881764,400119.63627595187,0.0,0.0,0.0,-0.01272606403006012,4.995223876925851,0.0,0.0,1.0,39.87141370000001,32.7364371,0.035621981472945895,-0.024281636294589178,-0.041122573344689384,0.02115398514028056,-0.04591649392985972,0.004849393198396794,0.001251338220440881,-0.027007091046092186,0.0503065645751503,1.5979648941302607,0.10369961342084169,-0.012667003997995993,-0.5284547753066132,-0.007393627,1.0,33671839.84569138,1.0,0.0,0.0,0.0,0.0
33707560.0,0.030671645583166332,0.016231749498997996,-0.005763992585170341,0.15,0.0,900.0,900.0,900.0,900.0,900.0,900.0,-0.7781347791342691,-0.7933387231683373,1.0355981592204409,1.0355981592204409,1.0558273402264529,0.04827085965130261,0.04921376495390782,0.7052106743607215,0.7052106743607215,12.404602,-0.0013808413226452905,-0.005731051833667335,0.0004980925410821643,0.022909992591182364,0.0041136344028056115,-0.09668285693787576,2.0,-1.0,0.0,11.0,0.0,0.0,1.0,0.0,0.0,0.0,0.0,0.0,0.0,0.0,0.0,-0.09592858311823646,-3.0616263642905817,0.4681857969338682,-6.001235950426853,207.3258349212425,46.364974411462924,-0.00026312719438877747,-0.0038900311182364722,0.0,-0.0025032203967935867,-0.15458082873747495,0.12150674933066129,-9.925271731432867,-6.64e-34,966.1709160348697,12.404602,-0.0018336511302605215,-0.002893870791583159,-0.00155136835470942,-0.06807148132665326,0.19577415800400802,-9.926551976661322,0.005443438340681371,-0.003337212601202404,0.0009973593386773585,-6.64e-34,1.011474840773547,0.999474840773547,0.4005998082845691,2.4789359891162324,13.254683774228457,24.137478020921844,-0.2176558900420842,1.9550466588416835,0.10999999,-67.00997657689379,399.5233972983968,12.404602,96617.38404372745,1.1479744173587174,0.2783082622645293,-0.2672320903907819,0.23418673192384812,-2.289096993988158e-05,0.0071504369779559155,-0.003410172208416836,0.0,-0.3063215983406814,1.5979786,0.6892623114428857,0.109333532749499,-0.1064012685470942,0.7082573499719439,1.0,398714137.5224449,327364371.5224449,400119.49005751504,0.0,0.0,0.0,-0.009801110553106215,4.756079806723447,0.0,0.0,1.0,39.87141370000001,32.7364371,0.03537685850901803,-0.024443092490981963,-0.04175060761122244,0.0210180325751503,-0.04626271159318637,0.004669153683366734,-0.011649716515030037,-0.03337546290380761,0.05890079517635272,1.5979587818456913,0.10359798430260521,-0.021200635068136263,-0.5002177494068136,-0.007393627,1.0,33707560.228456914,1.0,0.0,0.0,0.0,0.0
33734900.0,0.03151546023246493,0.01608170239478958,-0.005373266442885771,0.15,0.0,900.0,900.0,900.0,900.0,900.0,900.0,-0.2707812460981962,-0.27607075167535056,1.0541599721462926,1.0541599721462926,1.0747517607775552,0.04825952738677355,0.04920221316032065,0.7257071968757515,0.7257071968757515,12.404602,-0.001381303877755511,-0.00573048253507014,0.0004967438136272546,0.022931119074148295,0.004132905294589179,-0.0966353164769539,2.0,-1.0,0.0,11.0,0.0,0.0,1.0,0.0,0.0,0.0,0.0,0.0,0.0,0.0,0.0,-0.10933910641482966,-3.054482329511022,0.09774228805611207,-6.5218059068196395,207.31569053046093,47.819781133607215,-0.00037232041082164335,-0.00440807941482966,0.0,-0.0031699086633266535,-0.14523524243486974,0.1517219387194389,-9.9145190954509,-6.64e-34,966.1764042613227,12.404602,-0.0014357496773547095,-0.008853328116232465,-0.00043991824448897754,-0.10926575729859721,0.19483502142084166,-9.871996285438877,-0.0013468062284569156,-0.004263180126252505,-0.0021855394388777564,-6.64e-34,1.100419080222445,1.088419080222445,0.40059951087975953,2.583797893204409,13.254709103987976,24.042595856793586,-0.21575773841883766,1.7984018363767533,0.10999999,-68.0394933538477,399.52773793166335,12.404602,96617.32532138277,1.1479736956653306,0.05547466277555102,0.023017033967935974,-0.12232748299599211,0.0015442571563126259,0.004960595685370741,-0.0015507798837675344,0.0,-0.2943767087715431,1.5979786,0.689883936503006,0.10510132669739479,-0.10228257244488978,0.7088961110541082,1.0,398714137.6567134,327364371.6567134,400119.34383907815,0.0,0.0,0.0,-0.006876157076152304,4.516935735961924,0.0,0.0,1.0,39.87141370000001,32.7364371,0.03510387244689379,-0.02459380355310621,-0.04247156117835671,0.021177705390781565,-0.04582951228456914,0.004259458753507014,-0.031153593078156322,-0.0412889758997996,0.04369471551703406,1.5979370477975952,0.10347213977354709,-0.029338228154308622,-0.4836185437154309,-0.007393627,1.0,33734899.987975955,1.0,0.0,0.0,0.0,0.0
33762010.0,0.03159178333266533,0.01606854083967936,-0.00539944104008016,0.15,0.0,900.0,900.0,900.0,900.0,900.0,900.0,-0.636953820358719,-0.6493979636913841,1.0727217850721444,1.0727217850721444,1.0936761813286573,0.048248195122244486,0.04919066136673347,0.7462037198456913,0.7462037198456913,12.404602,-0.001381766887775551,-0.005729913236472946,0.0004953955410821644,0.022952246012024047,0.004152175731462926,-0.09658777556112225,2.0,-1.0,0.0,11.0,0.0,0.0,1.0,0.0,0.0,0.0,0.0,0.0,0.0,0.0,0.0,-0.1227496301663327,-3.047338294731463,-0.2727012203667341,-7.042375863212426,207.30554613967936,49.274587860300606,-0.000483931472945892,-0.004962685174348698,0.0,-0.003878948124248498,-0.13588965658717433,0.1819371285631263,-9.903766459014028,-6.64e-34,966.1818924422846,12.404602,6.258454308617593e-05,-0.009585331635270537,-0.0032818596472945966,-0.11613466998797593,0.22825602279158325,-9.865808564172346,-0.008137051252505023,-0.005189147651302607,-0.005368438216432871,-6.64e-34,1.189363319216433,1.177363319216433,0.40059921392985975,2.6886597968376758,13.254734429198397,23.947713692665328,-0.213859587250501,1.6417570139118234,0.10999999,-69.06901012625251,399.5020970054108,12.404602,96617.6249360521,1.14797724648497,0.4198012430541094,0.261438622392786,0.11298137528457006,0.00015569924048095657,0.004731781917835673,-0.0023234047935871784,0.0,-0.2829115611843687,1.5979786,0.6904580121142284,0.10103569815831663,-0.09832598254709418,0.7094860134569139,1.0,398714137.79098195,327364371.79098195,400119.1975751503,0.0,0.0,0.0,-0.003951203144288572,4.2777916652004,0.0,0.0,1.0,39.87141370000001,32.7364371,0.03483088592985972,-0.02474451507014028,-0.043192514290581165,0.021337378661322647,-0.0453963129759519,0.0038497642785571135,-0.05065746918637279,-0.049202488895791596,0.028488636312625226,1.5979153137494988,0.10334629478957916,-0.039675987124248524,-0.4639060544048096,-0.007393627,1.0,33762009.56312625,1.0,0.0,0.0,0.0,0.0
33789029.0,0.03147066151102204,0.016086319300601205,-0.00558249927254509,0.15,0.0,900.0,900.0,900.0,900.0,900.0,900.0,-0.9520326466272578,-0.9706344291062157,1.091283597997996,1.091283597997996,1.112600602006012,0.04823686285771543,0.04917910957314629,0.7667002429058115,0.7667002429058115,12.404602,-0.001382229987975952,-0.0057293439378757515,0.0004940473587174348,0.02297337304008016,0.004171446078156313,-0.09654023455511022,2.0,-1.0,0.0,11.0,0.0,0.0,1.0,0.0,0.0,0.0,0.0,0.0,0.0,0.0,0.0,-0.13616015413426852,-3.040194259951904,-0.6431447285731455,-7.5629458196052095,207.2954017488978,50.72939458789579,-0.0005961584488977953,-0.00554367889779559,0.0,-0.00458380099799599,-0.1285329322224449,0.20377712387374752,-9.894751207196393,-6.64e-34,966.1855189200401,12.404602,0.0012949662745491025,-0.007316128691382774,-0.005847468963927868,-0.10604816379959922,0.2578273667414831,-9.878206911056113,-0.013181086228456918,-0.00548926181362726,-0.007227866198396802,-6.64e-34,1.2793203658156311,1.2673203658156311,0.40059895368336673,2.7912580076112223,13.254765991643287,23.8560842955511,-0.2120263668256513,1.492213778701403,0.10999999,-70.0688632417034,399.48237285951905,12.404602,96617.85547797596,1.147979987214429,0.7794467948617252,0.3528596072645299,0.4913534943747499,-0.00191408748697395,0.005721951795591178,-0.0036743073707414865,0.0,-0.2717871663847696,1.5979786,0.6909983490521042,0.09708843841282566,-0.09448458521843689,0.7100412421963928,1.0,398714137.91262525,327364371.91262525,400119.03374048095,0.0,0.0,0.0,-0.0003241448016032195,4.081570401563126,0.0,0.0,1.0,39.87141370000001,32.7364371,0.03457291996192385,-0.024906386136272544,-0.04390329944088176,0.021411334398797596,-0.045070973959919824,0.003417116178356715,-0.06000578598396801,-0.055139463501002,0.016474359781563124,1.5978926237174347,0.10333142831863727,-0.05115741113827654,-0.44364143419438884,-0.007393627,1.0,33789028.68737475,1.0,0.0,0.0,0.0,0.0
33816130.0,0.032073600418837674,0.015956500422845694,-0.005586531356713427,0.15,0.0,900.0,900.0,900.0,900.0,900.0,900.0,0.7478130291643279,0.7624200759639272,1.1098454109238478,1.1098454109238478,1.1315250232284568,0.04822553059318638,0.04916755777955912,0.7871967654208417,0.7871967654208417,12.404602,-0.0013826925430861724,-0.005728774639278558,0.000492698631262525,0.022994499523046094,0.00419071696993988,-0.09649269409418837,2.0,-1.0,0.0,11.0,0.0,0.0,1.0,0.0,0.0,0.0,0.0,0.0,0.0,0.0,0.0,-0.1495706781022044,-3.0330502251723446,-1.013588236779559,-8.083515775997997,207.28525735811624,52.18420131004008,-0.0007060780581162325,-0.0061635081162324645,0.0,-0.005183583923847696,-0.12976303745290582,0.18945754820240482,-9.893237045462925,-6.64e-34,966.1811076615231,12.404602,-0.0008813145671342675,-0.0028271642725450925,0.00090072337074148,-0.09326579638476955,0.20019804917635273,-9.871496154132265,-0.010685927681362728,-0.0030872789178356726,-0.0033732615390781586,-6.64e-34,1.3736501699939878,1.3616501699939878,0.4005988509679359,2.884082815226453,13.25482449244489,23.778498590941883,-0.2104734813747495,1.3733313646533067,0.10999999,-70.94064470472946,399.54977996172346,12.404602,96617.05173308618,1.1479704541482967,-0.08721650325450869,-0.08392859394789554,0.2717187172404811,-0.0008536715050100206,0.00794684523246493,-0.0021154160881763535,0.0,-0.26114850962124253,1.5979786,0.6914906929799599,0.09331006068737474,-0.0908075413006012,0.710547130462926,1.0,398714137.9797595,327364371.9797595,400118.79413827654,0.0,0.0,0.0,0.006334220539078153,4.070666654398798,0.0,0.0,1.0,39.87141370000001,32.7364371,0.03437980555310621,-0.025116437178356713,-0.04457018575350701,0.021115207154308622,-0.04521131747695391,0.0028853657775551106,-0.025507879390781578,-0.05254281203807615,0.018240563699398797,1.597865806262525,0.10379570810821644,-0.06305715425450902,-0.42738807538677354,-0.007393627,1.0,33816130.12024048,1.0,0.0,0.0,0.0,0.0
33844966.0,0.03162141316232465,0.016151869797595194,-0.005658232114228457,0.15,0.0,900.0,900.0,900.0,900.0,900.0,900.0,0.29855534223045954,0.3043840013507001,1.1284072238496994,1.1284072238496994,1.150449443981964,0.048214198328657316,0.049156005985971946,0.8076932879358718,0.8076932879358718,12.404602,-0.0013831555671342686,-0.005728204871743487,0.0004913499038076152,0.023015626006012025,0.004209987392785571,-0.09644515316432865,2.0,-1.0,0.0,11.0,0.0,0.0,1.0,0.0,0.0,0.0,0.0,0.0,0.0,0.0,0.0,-0.1629812020701403,-3.0259061903927855,-1.3840317454549103,-8.604085732390782,207.27511301422845,53.63900803687375,-0.0008239705490981965,-0.006812379595190381,0.0,-0.005703123138276554,-0.13104000270741484,0.1749406411282565,-9.891763818723447,-6.64e-34,966.1766525104208,12.404602,0.000763851088176356,-0.003748891817635274,0.003935924691382767,-0.1360328502845692,0.18722478562725453,-9.9387963296493,-0.008149625931863726,-0.0006705498016032038,0.0005125251442885813,-6.64e-34,1.469961008793587,1.4579610087935873,0.40059882,2.9724798790621243,13.25489519501002,23.707275247855712,-0.20904759883767535,1.2683395301162323,0.10999999,-71.75440457817636,399.5906577945892,12.404602,96616.58990955912,1.1479649426933867,-0.025557415462925392,-0.11815758545691368,-0.10654723061122293,0.001165197691382768,0.006756932120240479,-0.0008530473547094177,0.0,-0.2508552059078156,1.5979786,0.6919473193166332,0.08965170573547093,-0.08724730183567134,0.7110163416913827,1.0,398714138.0,327364372.0,400118.5176306613,0.0,0.0,0.0,0.014470973963927866,4.150143428316634,0.0,0.0,1.0,39.87141370000001,32.7364371,0.03418750662725451,-0.02532709455711423,-0.04523651965731462,0.020814423825651303,-0.0453575203727455,0.0023523684709418832,0.009541700256513061,-0.04983879021442885,0.020180153645290584,1.597838936755511,0.10426601703206413,-0.0741666113747495,-0.41628286054308616,-0.007393627,1.0,33844966.15430862,1.0,0.0,0.0,0.0,0.0
