timestamp,control[0],control[1],control[2],control[3],control[4]
9000000,0,0,0,0.499,0.5
9004000,0,0,0,0.499,0.5
9008000,0,0,0,0.499,0.5
9012000,0,0,0,0.499,0.5
9020000,0,0,0,0.499,0.5
9028000,0,0,0,0.499,0.5
9032000,0,0,0,0.499,0.5
9036000,0,0,0,0.499,0.5
9040000,0,0,0,0.499,0.5
9044000,0,0,0,0.499,0.5
9048000,0,0,0,0.499,0.5
9052000,0,0,0,0.499,0.5
9056000,0,0,0,0.499,0.5
9060000,0,0,0,0.499,0.5
9064000,0,0,0,0.499,0.5
9068000,0,0,0,0.499,0.5
9072000,0,0,0,0.499,0.5
9076000,0,0,0,0.499,0.5
9080000,0,0,0,0.499,0.5
9084000,0,0,0,0.499,0.5
9088000,0,0,0,0.499,0.5
9092000,0.024302904,0.035073932,0.000846911,0,0.49
9096000,0.023947984,0.03525468,0.000807827,0,0.48000002
9100000,0.023336643,0.03505904,0.000648216,0,0.47000003
9104000,0.022706239,0.034879196,0.000603344,0,0.46000004
9108000,0.022203492,0.034844495,0.000828803,0,0.45000005
9112000,0.021473786,0.03500906,0.001081812,0,0.44000006
9116000,0.029935561,0.035343766,-0.004894823,0.15,0.43000007
9120000,0.029897545,0.035267305,-0.004740156,0.15,0.42000008
9124000,0.029964106,0.03487321,-0.004708251,0.15,0.4100001
9128000,0.030212173,0.03449817,-0.004852565,0.15,0.4000001
9132000,0.030672247,0.03442019,-0.005148545,0.15,0.3900001
9136000,0.031398203,0.034603093,-0.005395036,0.15,0.3800001
9140000,0.03245771,0.03476579,-0.005399868,0.15,0.37000012
9144000,0.0334047,0.034813557,-0.005191519,0.15,0.36000013
9148000,0.03292979,0.03483491,-0.004950319,0.15,0.35000014
9152000,0.031272672,0.03487076,-0.004783436,0.15,0.34000015
9156000,0.030304983,0.034938913,-0.004750923,0.15,0.33000016
9160000,0.030403355,0.035051513,-0.005017421,0.15,0.32000017
9164000,0.0310184,0.0351328,-0.005442249,0.15,0.31000018
9168000,0.031851675,0.035016827,-0.005852242,0.15,0.3000002
9172000,0.031874377,0.035004757,-0.005851736,0.15,0.2900002
9176000,0.03279482,0.034818325,-0.00604299,0.15,0.2800002
9180000,0.033488356,0.03472571,-0.005521621,0.15,0.27000022
9184000,0.032972347,0.03491855,-0.005338648,0.15,0.26000023
9188000,0.032411695,0.035042692,-0.005195901,0.15,0.25000024
9192000,0.03218942,0.034931652,-0.005306364,0.15,0.24000023
9196000,0.03299405,0.034765203,-0.005435051,0.15,0.23000023
9204000,0.03402414,0.034827594,-0.005062419,0.15,0.21000022
9208000,0.03272754,0.035236273,-0.005037233,0.15,0.20000021
9212000,0.031809736,0.035638217,-0.005293354,0.15,0.1900002
9216000,0.031660274,0.03584855,-0.005686408,0.15,0.1800002
9220000,0.03174854,0.035868272,-0.00571532,0.15,0.1700002
9224000,0.03137254,0.035619397,-0.005324762,0.15,0.16000019
9228000,0.030320827,0.035233416,-0.005093912,0.15,0.15000018
9232000,0.029838784,0.03497595,-0.005174948,0.15,0.14000018
9236000,0.030550143,0.034807656,-0.005224933,0.15,0.13000017
9240000,0.031549033,0.03471449,-0.005182651,0.15,0.120000176
9244000,0.032677025,0.034762487,-0.005253684,0.15,0.11000018
9248000,0.034421794,0.034698155,-0.005495925,0.15,0.10000018
9252000,0.03546618,0.03455664,-0.00560054,0.15,0.09000018
9256000,0.034661103,0.03450166,-0.005562808,0.15,0.080000184
9260000,0.03272026,0.034382273,-0.005542561,0.15,0.07000019
9264000,0.030963823,0.034356162,-0.005486884,0.15,0.06000019
9268000,0.030964289,0.034364223,-0.005486684,0.15,0.05000019
9272000,0.030662894,0.03482224,-0.004946446,0.15,0.040000193
9276000,0.031088753,0.035175294,-0.004871815,0.15,0.030000193
9280000,0.031536125,0.035533242,-0.005126237,0.15,0.020000193
9284000,0.031578958,0.035509262,-0.005363512,0.15,0.010000194
9288000,0.031613424,0.035171393,-0.005473503,0.15,1.94E-07
9292000,0.031985544,0.03481816,-0.005633708,0.15,0
9296000,0.03246109,0.03453562,-0.005744006,0.15,0
9300000,0.033139665,0.034424745,-0.005650536,0.15,0
9304000,0.032848693,0.034563288,-0.005589461,0.15,0
9308000,0.031290144,0.034911867,-0.005739139,0.15,0
9316000,0.02958075,0.035275336,-0.00622034,0.15,0
9324000,0.029865347,0.035159193,-0.005928716,0.15,0
9332000,0.030065821,0.034237534,-0.004991466,0.15,0
9336000,0.030244559,0.03429987,-0.004953907,0.15,0
9340000,0.030814812,0.034488738,-0.004844219,0.15,0
9344000,0.031242754,0.03467765,-0.00474744,0.15,0
9348000,0.031168485,0.034825947,-0.004856545,0.15,0
9356000,0.029825795,0.03469011,-0.005173961,0.15,0
9360000,0.02946668,0.03449813,-0.00520939,0.15,0
9364000,0.030008087,0.034552127,-0.005175841,0.15,0
9368000,0.030978981,0.034931082,-0.005324874,0.15,0
9372000,0.030972607,0.034959447,-0.00532445,0.15,0
9380000,0.030626073,0.03531283,-0.005222878,0.15,0
9384000,0.030473735,0.03518793,-0.005162489,0.15,0
9388000,0.03146195,0.034963846,-0.005429053,0.15,0
9392000,0.03186804,0.034677155,-0.005645659,0.15,0
9396000,0.03124128,0.03458265,-0.00560907,0.15,0
9400000,0.03088202,0.03473083,-0.005405974,0.15,0
9404000,0.030894147,0.034745064,-0.005440224,0.15,0
9408000,0.029231975,0.03507589,-0.0048317,0.15,0
9412000,0.029383073,0.035159763,-0.004769564,0.15,0
9416000,0.03059955,0.035154793,-0.005023355,0.15,0
9420000,0.031011546,0.03491973,-0.00543751,0.15,0
9424000,0.030143593,0.034512598,-0.005741927,0.15,0
9428000,0.02917766,0.034098852,-0.005671886,0.15,0
9432000,0.028969357,0.033784878,-0.005561006,0.15,0
9436000,0.02918573,0.03390252,-0.005355365,0.15,0
9440000,0.029371759,0.034497563,-0.005095603,0.15,0
9444000,0.029501902,0.034822784,-0.004982702,0.15,0
9448000,0.030030202,0.034609407,-0.004935904,0.15,0
9452000,0.030622104,0.034394603,-0.004836408,0.15,0
9456000,0.030569578,0.034380045,-0.00466702,0.15,0
9460000,0.0305551,0.034373228,-0.004667667,0.15,0
9464000,0.030067919,0.03451647,-0.005051527,0.15,0
9468000,0.03032881,0.034628764,-0.005279963,0.15,0
9472000,0.031032447,0.03469676,-0.005232155,0.15,0
9476000,0.031954188,0.034675494,-0.005072701,0.15,0
9480000,0.032275178,0.03483977,-0.005078089,0.15,0
9484000,0.03158896,0.035151925,-0.004969575,0.15,0
9488000,0.031097237,0.035232417,-0.004774417,0.15,0
9492000,0.031581983,0.0348093,-0.004729591,0.15,0
9496000,0.032089584,0.034161832,-0.00481184,0.15,0
9500000,0.0313492,0.033978555,-0.004843542,0.15,0
9504000,0.030467609,0.03412524,-0.004825918,0.15,0
9508000,0.03067635,0.034116723,-0.004829793,0.15,0
9512000,0.030972218,0.03413621,-0.004967532,0.15,0
9516000,0.03050564,0.034353726,-0.005126136,0.15,0
9520000,0.030012157,0.034531347,-0.005227184,0.15,0
9524000,0.030130384,0.034644365,-0.00527204,0.15,0
9528000,0.03108559,0.034748342,-0.005363615,0.15,0
9532000,0.031118413,0.034726832,-0.005362981,0.15,0
9536000,0.03350879,0.034470964,-0.005260339,0.15,0
9540000,0.033818122,0.034439277,-0.005115014,0.15,0
9548000,0.03339955,0.034877624,-0.004872299,0.15,0
9552000,0.031934336,0.034546535,-0.004863136,0.15,0
9556000,0.030959848,0.034155946,-0.004976499,0.15,0
9560000,0.030734476,0.03412282,-0.005131673,0.15,0
9564000,0.030797616,0.03411846,-0.005283534,0.15,0
9568000,0.031332225,0.03401902,-0.005309784,0.15,0
9572000,0.031074904,0.034022395,-0.005130878,0.15,0
9576000,0.031584837,0.034120258,-0.005053404,0.15,0
9580000,0.031983368,0.03385926,-0.005179658,0.15,0
9584000,0.03228729,0.03364371,-0.005109123,0.15,0
9588000,0.031852163,0.033747964,-0.004919728,0.15,0
9592000,0.03117036,0.034163255,-0.004724075,0.15,0
9596000,0.030841155,0.034707345,-0.004731935,0.15,0
9600000,0.030682093,0.034923475,-0.004707873,0.15,0
9604000,0.030376446,0.03463727,-0.004526858,0.15,0
9608000,0.029184327,0.034178033,-0.004302879,0.15,0
9612000,0.027732018,0.033936597,-0.00444939,0.15,0
9616000,0.026981099,0.034002792,-0.004978646,0.15,0
9620000,0.027361779,0.03420904,-0.005334284,0.15,0
9624000,0.028774127,0.03443938,-0.005299855,0.15,0
9628000,0.029834835,0.03445396,-0.005191967,0.15,0
9632000,0.029914794,0.034244448,-0.005253762,0.15,0
9636000,0.029556282,0.034298908,-0.005322272,0.15,0
9644000,0.030077904,0.03495786,-0.004770674,0.15,0
9652000,0.03079412,0.035107143,-0.004642632,0.15,0
9656000,0.029961407,0.035139445,-0.004950548,0.15,0
9660000,0.029307133,0.034769706,-0.005030513,0.15,0
9664000,0.029227626,0.034150995,-0.004953702,0.15,0
9668000,0.029752018,0.03367273,-0.004791515,0.15,0
9672000,0.03024671,0.03353687,-0.004679207,0.15,0
9676000,0.030015107,0.033590894,-0.004530051,0.15,0
9680000,0.02967001,0.03366715,-0.004344676,0.15,0
9684000,0.03023122,0.033765838,-0.004321962,0.15,0
9688000,0.030594513,0.033876553,-0.004476167,0.15,0
9692000,0.029334038,0.034045253,-0.004493508,0.15,0
9696000,0.02839759,0.03417648,-0.004728316,0.15,0
9700000,0.028742703,0.03406405,-0.004866822,0.15,0
9704000,0.029956494,0.033902273,-0.004741863,0.15,0
9708000,0.031007662,0.033945218,-0.00463187,0.15,0
9712000,0.03142677,0.03404728,-0.004661896,0.15,0
9720000,0.030507147,0.034037817,-0.00464057,0.15,0
9724000,0.030541694,0.03402915,-0.004639603,0.15,0
9728000,0.031815976,0.033994257,-0.004186597,0.15,0
9732000,0.031540345,0.03398588,-0.004094123,0.15,0
9736000,0.030031756,0.034008343,-0.004218474,0.15,0
9740000,0.028427057,0.033990186,-0.004033789,0.15,0
9744000,0.02842703,0.03388762,-0.004158323,0.15,0
9748000,0.029400242,0.033814736,-0.004235053,0.15,0
9752000,0.03014492,0.033814415,-0.004299078,0.15,0
9756000,0.03020335,0.03373141,-0.004323216,0.15,0
9760000,0.029841758,0.033522747,-0.004275778,0.15,0
9764000,0.029630367,0.033414733,-0.004108912,0.15,0
9768000,0.02994519,0.033534016,-0.003953575,0.15,0
9772000,0.030189164,0.033786044,-0.003747563,0.15,0
9780000,0.030562975,0.034063973,-0.003621129,0.15,0
9784000,0.029666385,0.034330096,-0.003765057,0.15,0
9788000,0.029423047,0.034344386,-0.003609282,0.15,0
9792000,0.028007422,0.03442449,-0.004150317,0.15,0
9796000,0.028944552,0.034376405,-0.004154931,0.15,0
9800000,0.029826052,0.034204155,-0.003804797,0.15,0
9804000,0.029859876,0.03391399,-0.003378654,0.15,0
9808000,0.029365277,0.033637635,-0.003231016,0.15,0
9812000,0.028641617,0.0336418,-0.00321102,0.15,0
9816000,0.02827831,0.03389869,-0.003432967,0.15,0
9820000,0.028020052,0.034015663,-0.003508003,0.15,0
9824000,0.028344655,0.033933528,-0.003503315,0.15,0
9828000,0.028371632,0.033913646,-0.003502857,0.15,0
9836000,0.029925738,0.0337003,-0.002823473,0.15,0
9840000,0.029656231,0.03381875,-0.002628817,0.15,0
9844000,0.030357065,0.033887506,-0.002836815,0.15,0
9852000,0.03131966,0.033813827,-0.003612563,0.15,0
9856000,0.030321615,0.033858676,-0.003694649,0.15,0
9860000,0.029166931,0.033965666,-0.003386118,0.15,0
9864000,0.028634282,0.03398958,-0.003247449,0.15,0
9868000,0.02814788,0.03398085,-0.003234309,0.15,0
9872000,0.027969059,0.033915956,-0.003286271,0.15,0
9876000,0.028042613,0.03389457,-0.003322328,0.15,0
9880000,0.028167957,0.0338246,-0.003335764,0.15,0
9884000,0.027889954,0.03376327,-0.003133277,0.15,0
9888000,0.028961219,0.03303194,-0.00376535,0.15,0
9892000,0.029438512,0.0326697,-0.004101851,0.15,0
9896000,0.03015802,0.032576427,-0.003887146,0.15,0
9900000,0.030549843,0.0327481,-0.003162509,0.15,0
9904000,0.029685302,0.033050485,-0.002644722,0.15,0
9908000,0.027653977,0.033290327,-0.002313362,0.15,0
9912000,0.027643027,0.03330729,-0.002313345,0.15,0
9916000,0.026197677,0.033724137,-0.002680833,0.15,0
9920000,0.02637471,0.033720728,-0.002785193,0.15,0
9924000,0.027173044,0.033770803,-0.002783288,0.15,0
9928000,0.028792266,0.033844605,-0.002503992,0.15,0
9932000,0.029561328,0.033928517,-0.001707661,0.15,0
9936000,0.029131059,0.034104392,-0.001716203,0.15,0
9940000,0.027839983,0.034159362,-0.002009975,0.15,0
9944000,0.0272852,0.033944916,-0.002264917,0.15,0
9948000,0.027304597,0.03364734,-0.00249333,0.15,0
9952000,0.027855463,0.033466633,-0.002589067,0.15,0
9956000,0.028494652,0.03333244,-0.002411878,0.15,0
9960000,0.02917594,0.03331503,-0.002229248,0.15,0
9964000,0.02982136,0.03339126,-0.002292506,0.15,0
9968000,0.029290145,0.033297103,-0.002465272,0.15,0
9972000,0.028087327,0.033048388,-0.002657727,0.15,0
9976000,0.02720474,0.033082563,-0.002819046,0.15,0
9980000,0.026011737,0.033467986,-0.002095063,0.15,0
9984000,0.026611958,0.033796,-0.001836317,0.15,0
9988000,0.026634524,0.03380641,-0.001835335,0.15,0
9992000,0.02756399,0.03391297,-0.00158139,0.15,0
9996000,0.027235793,0.033835642,-0.001606424,0.15,0
10000000,0.027222747,0.033845652,-0.001606631,0.15,0
10004000,0.025714498,0.033740528,-0.001831226,0.15,0
10008000,0.026133107,0.03355747,-0.001909312,0.15,0
10012000,0.02609339,0.03342685,-0.00203398,0.15,0
10016000,0.025327452,0.033553563,-0.00205748,0.15,0
10020000,0.02464666,0.03376945,-0.001991072,0.15,0
10024000,0.024453415,0.034023646,-0.001887227,0.15,0
10028000,0.025172196,0.034154013,-0.002070159,0.15,0
10032000,0.02640541,0.034016818,-0.002193283,0.15,0
10036000,0.027773362,0.033910774,-0.002271049,0.15,0
10040000,0.0279741,0.03400659,-0.002198889,0.15,0
10044000,0.027013635,0.034113146,-0.002025437,0.15,0
10048000,0.026519412,0.03409334,-0.001972302,0.15,0
10052000,0.027516482,0.033957686,-0.002076862,0.15,0
10056000,0.02853705,0.03365957,-0.002082763,0.15,0
10060000,0.028563622,0.03345117,-0.002112686,0.15,0
10064000,0.028558599,0.033454742,-0.002112773,0.15,0
10068000,0.026885431,0.033550784,-0.001945189,0.15,0
10072000,0.026059026,0.03372245,-0.002116042,0.15,0
10076000,0.025425928,0.033942256,-0.002262936,0.15,0
10080000,0.025255255,0.03404412,-0.002403275,0.15,0
10084000,0.025217263,0.033956464,-0.002316881,0.15,0
10088000,0.025073437,0.03363337,-0.002196829,0.15,0
10092000,0.02485851,0.033313878,-0.002146762,0.15,0
10096000,0.02483664,0.033307083,-0.00214764,0.15,0
10100000,0.024170406,0.03332287,-0.001924933,0.15,0
10104000,0.024096224,0.033366207,-0.001762357,0.15,0
10108000,0.02523714,0.033335917,-0.001739864,0.15,0
10116000,0.026109802,0.03363861,-0.002128553,0.15,0
10124000,0.025146747,0.033560574,-0.002207571,0.15,0
10132000,0.02400117,0.033522904,-0.001874259,0.15,0
10136000,0.02369858,0.03353813,-0.002022194,0.15,0
10140000,0.024702186,0.03370417,-0.002105015,0.15,0
10144000,0.026290812,0.033978146,-0.00207214,0.15,0
10148000,0.027652856,0.034190826,-0.0021489,0.15,0
10152000,0.027099658,0.034201287,-0.002039509,0.15,0
10156000,0.02625406,0.033888143,-0.001904605,0.15,0
10160000,0.025679829,0.033488736,-0.001622981,0.15,0
10164000,0.025005322,0.03333127,-0.001402897,0.15,0
10168000,0.025110675,0.03340629,-0.001441705,0.15,0
10172000,0.025348706,0.033664186,-0.001505789,0.15,0
10176000,0.025588105,0.033843692,-0.001899141,0.15,0
10180000,0.025245417,0.033810426,-0.002023253,0.15,0
10184000,0.024724383,0.033827897,-0.001937118,0.15,0
10188000,0.02499622,0.03387924,-0.001815361,0.15,0
10192000,0.026102057,0.033718888,-0.001678375,0.15,0
10196000,0.026585909,0.033463478,-0.00154348,0.15,0
10200000,0.0259509,0.0335334,-0.001485654,0.15,0
10204000,0.025398143,0.033889726,-0.001746704,0.15,0
10208000,0.025322774,0.03404643,-0.002124835,0.15,0
10212000,0.025920827,0.033920072,-0.002262041,0.15,0
10216000,0.027081724,0.033793136,-0.002185241,0.15,0
10220000,0.027355129,0.03379621,-0.002364702,0.15,0
10224000,0.028167766,0.033671252,-0.002339297,0.15,0
10228000,0.027002502,0.033585638,-0.002565943,0.15,0
10232000,0.025385587,0.033580355,-0.002577368,0.15,0
10236000,0.024841001,0.033678636,-0.002335068,0.15,0
10240000,0.025602687,0.03364629,-0.002276476,0.15,0
10244000,0.02139165,0.033610914,-0.000709191,0,0
10248000,0.02259131,0.033362042,-0.001223546,0,0
10252000,0.021977125,0.033498667,-0.001010736,0,0
10260000,0.02362043,0.033717792,0.000120118,0,0
10264000,0.023902567,0.033892266,0.000539322,0,0
10268000,0.023671607,0.03373607,0.001173008,1,0
10272000,0.023373,0.033565287,0.002678182,1,0
10276000,0.023069404,0.033519678,0.00378025,1,0
10280000,0.023016011,0.033583686,0.003787165,1,0
10284000,0.023078585,0.033700395,0.003447417,1,0
10288000,0.02319148,0.033613943,0.003476025,1,0
10292000,0.023259295,0.033438813,0.003301173,1,0
10296000,0.023700321,0.033412516,0.002704749,1,0
10300000,0.024819342,0.033508122,0.00253767,1,0
10304000,0.025883693,0.033590674,0.003195418,1,0
10312000,0.024074499,0.033321235,0.00343112,1,0
10316000,0.022556731,0.03303366,0.002417937,1,0
10320000,0.02242067,0.03298473,0.001240756,1,0
10324000,0.022416802,0.032981116,0.001292493,1,0
10328000,0.022535175,0.033413455,0.001439597,1,0
10332000,0.022399867,0.03366178,0.002157792,1,0
10336000,0.022495922,0.03370809,0.00248587,1,0
10340000,0.022585265,0.03375399,0.003304704,1,0
10344000,0.02234799,0.033857837,0.004258158,1,0
10348000,0.021833086,0.033803847,0.004407655,1,0
10356000,0.02155589,0.03367828,0.004413704,1,0
10360000,0.02118744,0.033438366,0.004526542,1,0
10368000,0.020446239,0.0335247,0.004835758,1,0
10372000,0.021208687,0.033684928,0.003821631,1,0
10376000,0.021443807,0.03352854,0.003133965,1,0
10380000,0.022282183,0.03333905,0.00344759,1,0
10384000,0.023029232,0.033129312,0.004569265,1,0
10388000,0.022842314,0.03299346,0.005564449,1,0
10392000,0.023314832,0.033079136,0.005873668,1,0
10396000,0.024425289,0.033317775,0.004882311,1,0
10400000,0.025094839,0.03350681,0.00348468,1,0
10404000,0.02515928,0.033628393,0.003089717,1,0
10408000,0.024165897,0.033625487,0.003252921,1,0
10412000,0.023200214,0.033545576,0.002883552,1,0
10416000,0.023663415,0.0334601,0.002429964,1,0
10420000,0.024843978,0.03338533,0.002885922,1,0
10428000,0.024771059,0.03372612,0.00458585,1,0
10432000,0.023530858,0.033795822,0.004811582,1,0
10436000,0.02350889,0.033778295,0.00505909,1,0
10440000,0.020741716,0.033394877,0.006021852,1,0
10444000,0.01999453,0.033142745,0.005455955,1,0
10448000,0.01970599,0.033185568,0.004279946,1,0
10452000,0.019742223,0.03351295,0.003462217,1,0
10460000,0.02082496,0.033555474,0.001729138,1,0
10464000,0.021847805,0.033457544,0.001782522,1,0
10468000,0.022683365,0.033493746,0.002632123,1,0
10472000,0.023403203,0.033464085,0.003376524,1,0
10476000,0.024229795,0.03331676,0.003712079,1,0
10480000,0.024144553,0.033129763,0.002969289,1,0
10484000,0.022850087,0.033054702,0.002185214,1,0
10488000,0.02149591,0.033080198,0.001199493,1,0
10492000,0.02102363,0.03310704,0.000570977,1,0
10500000,0.02392827,0.032953657,0.001479258,1,0
10504000,0.024622336,0.032564126,0.00185923,1,0
10508000,0.024628427,0.03259304,0.001837808,1,0
10512000,0.022836465,0.03323903,0.001854634,1,0
10516000,0.020660827,0.033588838,0.00198505,1,0
10520000,0.01926654,0.033541966,0.001824659,1,0
10524000,0.019348893,0.033393867,0.001549971,1,0
10532000,0.02014456,0.03325283,0.001276664,1,0
10536000,0.021339903,0.033106547,0.001417129,1,0
10540000,0.021196572,0.032990232,0.001223202,1,0
10544000,0.021151736,0.032991745,0.000993897,1,0
10548000,0.021823242,0.03308556,0.001125442,1,0
10552000,0.023466779,0.0331809,0.001376887,1,0
10556000,0.025302645,0.03327752,0.001593838,1,0
10560000,0.026295366,0.033254202,0.001779104,1,0
10564000,0.025986893,0.033056732,0.001964726,1,0
10568000,0.024241172,0.032907024,0.001685747,1,0
10572000,0.024230072,0.032870058,0.001643051,1,0
10576000,0.021449363,0.032456733,0.000940796,1,0
10580000,0.02125117,0.032209687,0.001055248,1,0
10584000,0.018377298,0.029630385,0.001317124,1,0
10588000,0.018517092,0.0299603,0.001632529,1,0
10592000,0.019727852,0.03025419,0.001587497,1,0
10596000,0.020652825,0.030263996,0.001503588,1,0
10600000,0.020421093,0.030200273,0.001580612,1,0
10604000,0.020088363,0.030179419,0.001644405,1,0
10608000,0.020130662,0.030011224,0.001471548,1,0
10612000,0.01950541,0.029930519,0.001276793,1,0
10616000,0.018304339,0.030076161,0.00118721,1,0
10624000,0.0176194,0.030304212,0.001608881,1,0
10628000,0.018162252,0.030291399,0.002086436,1,0
10632000,0.018780742,0.03031951,0.002135211,1,0
10640000,0.019587854,0.03017564,0.002075902,1,0
10644000,0.021183072,0.029962001,0.002010358,1,0
10648000,0.022195423,0.029928636,0.002235755,1,0
10652000,0.02215119,0.029809047,0.002347152,1,0
10656000,0.02073478,0.029757828,0.002357057,1,0
10660000,0.019586,0.029745022,0.002606849,1,0
10664000,0.019270603,0.02976464,0.002730516,1,0
10668000,0.01918392,0.02987582,0.002731643,1,0
10672000,0.019240526,0.029973272,0.002560214,1,0
10676000,0.01981375,0.02990239,0.002550174,1,0
10680000,0.020362742,0.02975123,0.002705877,1,0
10684000,0.014483595,0.022950513,0.002869092,1,0
10692000,0.014890442,0.02301998,0.002915373,1,0
10696000,0.013903958,0.023163587,0.002905049,1,0
10700000,0.013416966,0.023264509,0.002923926,1,0
10704000,0.013034277,0.023275128,0.002810996,1,0
10708000,0.012802363,0.023133634,0.00259788,1,0
10712000,0.01303182,0.02288859,0.002320752,1,0
10716000,0.013396359,0.022767004,0.002100465,1,0
10720000,0.013723279,0.022853147,0.001829895,1,0
10724000,0.0142831,-0.26585287,0.001712417,1,0
10728000,0.01475584,-0.26604044,0.001637346,1,0
10732000,0.014800872,-0.26616818,0.001613104,1,0
10736000,0.015520232,-0.26624572,0.001243709,1,0
10740000,0.0158955,-0.2662692,0.000512568,1,0
10744000,0.015826626,-0.26638022,-0.00080542,1,0
10748000,0.015235823,-0.2516173,-0.002503703,1,0
10752000,0.013919358,-0.25185075,-0.00413056,1,0
10756000,0.011748353,-0.25204703,-0.006039169,1,0
10764000,0.008089761,-0.2525926,-0.010647499,1,0
10768000,0.006811281,-0.25283775,-0.01281662,1,0
10772000,0.005527469,-0.23883328,-0.014953333,1,0
10780000,0.003617553,-0.23888248,-0.018605338,1,0
10784000,0.002213478,-0.20117354,-0.020243904,1,0
10788000,0.000571822,-0.20131412,-0.022309795,1,0
10792000,-0.001207475,-0.20151588,-0.023985423,1,0
10796000,-0.002880371,-0.19066237,-0.026112493,1,0
10800000,-0.004617143,-0.19077693,-0.027769981,1,0
10808000,-0.008515031,-0.191051,-0.031104878,1,0
10812000,-0.009938441,-0.19117075,-0.032864638,1,0
10816000,-0.011063016,-0.19122353,-0.034082577,1,0
10820000,-0.012238437,-0.18086171,-0.035837162,1,0
10824000,-0.013473806,-0.18094479,-0.03700927,1,0
10832000,-0.016205905,-0.18123537,-0.039859954,1,0
10836000,-0.017811753,-0.18142347,-0.041408863,1,0
10840000,-0.019634185,-0.18159428,-0.042273305,1,0
10844000,-0.021605907,-0.17192398,-0.04350413,1,0
10848000,-0.023729425,-0.1720708,-0.04407732,1,0
10852000,-0.025722705,-0.1722258,-0.04515908,1,0
10856000,-0.027594438,-0.17234713,-0.0454772,1,0
10860000,-0.029808741,-0.17243809,-0.046323545,1,0
10864000,-0.032138437,-0.17257476,-0.04660128,1,0
10868000,-0.034282852,-0.16334413,-0.047511913,1,0
10872000,-0.036354065,-0.16352424,-0.047742076,1,0
10876000,-0.038412526,-0.16381086,-0.04838071,1,0
10880000,-0.040519275,-0.16413818,-0.04829538,1,0
10884000,-0.034929033,-0.14797334,-0.048674636,1,0
10888000,-0.036491483,-0.1480828,-0.048348915,1,0
10892000,-0.037942924,-0.14023103,-0.048528016,1,0
10900000,-0.039922193,-0.14052126,-0.048814088,1,0
10904000,-0.042766906,-0.14053674,-0.047648214,1,0
10908000,-0.04449981,-0.14067627,-0.047609854,1,0
10912000,-0.045953713,-0.14081846,-0.04704,1,0
10916000,-0.047376957,-0.13324368,-0.046906147,1,0
10924000,-0.049609162,-0.13337992,-0.046625268,1,0
10928000,-0.052306216,-0.13334298,-0.04541329,1,0
10932000,-0.053884566,-0.13352616,-0.04512047,1,0
10936000,-0.055136707,-0.13372383,-0.04430697,1,0
10940000,-0.056276336,-0.1265336,-0.043946873,1,0
10944000,-0.057662357,-0.12671883,-0.0431155,1,0
10948000,-0.05909931,-0.12682556,-0.04262198,1,0
10952000,-0.06043535,-0.12689583,-0.041743897,1,0
10956000,-0.0618527,-0.12696902,-0.04113245,1,0
10960000,-0.06347243,-0.12698431,-0.04010673,1,0
10964000,-0.06506308,-0.11986858,-0.039454266,1,0
10968000,-0.0664095,-0.1199737,-0.038512915,1,0
10972000,-0.06757631,-0.12019898,-0.037944466,1,0
10976000,-0.06838238,-0.12036433,-0.037062876,1,0
10980000,-0.068798214,-0.12036822,-0.036374804,1,0
10984000,-0.059880897,-0.11114409,-0.035309874,1,0
10988000,-0.060199283,-0.10476281,-0.03443827,1,0
10992000,-0.060587272,-0.104680076,-0.03327108,1,0
10996000,-0.06123308,-0.10463867,-0.032330815,1,0
11000000,-0.06209932,-0.10458262,-0.031219026,1,0
11004000,-0.0631694,-0.10450791,-0.030456088,1,0
11008000,-0.06429214,-0.10447563,-0.029508434,1,0
11012000,-0.06523564,-0.09839513,-0.028583268,1,0
11020000,-0.06667442,-0.09863203,-0.026170433,1,0
11024000,-0.06698899,-0.09872677,-0.024988014,1,0
11028000,-0.067236476,-0.098786265,-0.024018392,1,0
11036000,-0.06828674,-0.09283665,-0.021779645,1,0
11040000,-0.06908022,-0.092793465,-0.02065695,1,0
11044000,-0.069714576,-0.09285346,-0.019635716,1,0
11048000,-0.07000254,-0.09301247,-0.018392544,1,0
11052000,-0.0700293,-0.09319899,-0.017131468,1,0
11056000,-0.070195064,-0.09330231,-0.015842192,1,0
11060000,-0.07062948,-0.0875414,-0.014722675,1,0
11064000,-0.07099183,-0.08755445,-0.013523525,1,0
11068000,-0.071169235,-0.087558866,-0.012325646,1,0
11072000,-0.07149668,-0.087570414,-0.011057983,1,0
11076000,-0.07206516,-0.08762008,-0.009853212,1,0
11080000,-0.07247643,-0.08766104,-0.008701943,1,0
11084000,-0.06577032,-0.0776988,-0.007664644,1,0
11088000,-0.06573511,-0.077792466,-0.006629133,1,0
11092000,-0.06592726,-0.07787762,-0.005642389,1,0
11096000,-0.0663624,-0.07793902,-0.004622121,1,0
11100000,-0.06693533,-0.07798309,-0.003560613,1,0
11108000,-0.067785166,-0.072901055,-0.001511419,1,0
11112000,-0.06824025,-0.07298799,-0.000514978,1,0
11116000,-0.06877661,-0.07307791,0.000550294,1,0
11120000,-0.069043785,-0.07312475,0.001566639,1,0
11124000,-0.06917015,-0.073159195,0.002559844,1,0
11128000,-0.06931827,-0.07324788,0.003443714,1,0
11132000,-0.0694096,-0.06831002,0.004289792,1,0
11140000,-0.07009471,-0.0684821,0.005872761,1,0
11144000,-0.07035655,-0.06856291,0.006674629,1,0
11148000,-0.0705443,-0.06867515,0.007492782,1,0
11152000,-0.07078966,-0.06883097,0.008248735,1,0
11156000,-0.07106511,-0.06404451,0.009058058,1,0
11164000,-0.07191987,-0.06428901,0.010501864,1,0
11168000,-0.07223488,-0.06441419,0.011052881,1,0
11172000,-0.07242762,-0.06460874,0.01168458,1,0
11176000,-0.07259131,-0.06487524,0.012275728,1,0
11180000,-0.07266644,-0.060277734,0.012924481,1,0
11188000,-0.07283104,-0.06070216,0.014200197,1,0
11192000,-0.07299541,-0.060912088,0.014654741,1,0
11196000,-0.07313066,-0.061194487,0.015106337,1,0
11200000,-0.073376164,-0.061563727,0.015391694,1,0
11204000,-0.07375343,-0.057189845,0.015755355,1,0
11208000,-0.074123055,-0.057487022,0.016107373,1,0
11212000,-0.074235305,-0.05768612,0.016524933,1,0
11216000,-0.07411371,-0.05793243,0.016896434,1,0
11220000,-0.07417973,-0.058229424,0.017258998,1,0
11224000,-0.07465948,-0.058527935,0.017521625,1,0
11228000,-0.07534944,-0.054157615,0.017829759,1,0
11232000,-0.07583739,-0.054533236,0.01793294,1,0
11236000,-0.07592274,-0.05495328,0.017987903,1,0
11240000,-0.07563389,-0.055395633,0.01798274,1,0
11244000,-0.07515444,-0.055803813,0.018018534,1,0
11248000,-0.07492172,-0.056167733,0.017914401,1,0
11252000,-0.07513602,-0.05193831,0.017899696,1,0
11256000,-0.07544035,-0.05232496,0.017887965,1,0
11260000,-0.075682744,-0.052732177,0.01797612,1,0
11264000,-0.07588393,-0.05322492,0.017944364,1,0
11268000,-0.07591462,-0.05376071,0.017877113,1,0
11272000,-0.075941734,-0.054297965,0.017808486,1,0
11276000,-0.07609117,-0.050259937,0.017844826,1,0
11280000,-0.07632925,-0.050731115,0.017774934,1,0
11284000,-0.0766443,-0.051116373,0.017645484,1,0
11288000,-0.076935,-0.051479887,0.017436001,1,0
11292000,-0.077071406,-0.05186582,0.01726954,1,0
11296000,-0.07694705,-0.052323785,0.01700028,1,0
11300000,-0.07730452,-0.048215766,0.01697898,1,0
11304000,-0.07668758,-0.048932746,0.016302846,1,0
11312000,-0.07682718,-0.050060138,0.015662203,1,0
11316000,-0.07718006,-0.050495684,0.015548512,1,0
11320000,-0.077478245,-0.051162347,0.014904468,1,0
11324000,-0.07786216,-0.047262847,0.014524799,1,0
11328000,-0.07807357,-0.047876235,0.014128993,1,0
11332000,-0.078278914,-0.048506364,0.013780052,1,0
11336000,-0.078534245,-0.049137134,0.013372742,1,0
11340000,-0.07889663,-0.04976994,0.012941961,1,0
11344000,-0.079165444,-0.05039487,0.012503672,1,0
11348000,-0.079045855,-0.046603143,0.012076282,1,0
11356000,-0.07919519,-0.047758352,0.011016754,1,0
11360000,-0.07959556,-0.048392933,0.010414896,1,0
11364000,-0.07981235,-0.049053762,0.009890594,1,0
11372000,-0.07993987,-0.04583618,0.008940976,1,0
11376000,-0.07915429,-0.04646376,0.008233645,1,0
11380000,-0.07913244,-0.04705197,0.007727617,1,0
11384000,-0.07917043,-0.047625918,0.0071635,1,0
11388000,-0.079241686,-0.04820617,0.006524946,1,0
11392000,-0.07936635,-0.04886128,0.005850377,1,0
11396000,-0.07949379,-0.04527534,0.005233062,1,0
11400000,-0.079488814,-0.046010416,0.00463967,1,0
11404000,-0.07954678,-0.04667563,0.004085084,1,0
11412000,-0.08000572,-0.04797496,0.002913757,1,0
11416000,-0.080177,-0.04861432,0.002218453,1,0
11420000,-0.08054364,-0.044992696,0.001554285,1,0
11424000,-0.08103945,-0.04569099,0.000911757,1,0
11428000,-0.081342556,-0.046341956,0.000321676,1,0
11432000,-0.081394844,-0.046922576,-0.000201711,1,0
11436000,-0.08134355,-0.047504146,-0.000757152,1,0
11440000,-0.08118756,-0.048170384,-0.001372024,1,0
11444000,-0.08094311,-0.04461879,-0.002028641,1,0
11452000,-0.08110744,-0.045892157,-0.003212777,1,0
11460000,-0.081219375,-0.04701116,-0.004198856,1,0
11464000,-0.08124004,-0.0477212,-0.004778626,1,0
11468000,-0.08135259,-0.04422042,-0.005322511,1,0
11472000,-0.08138002,-0.044901848,-0.005738563,1,0
11476000,-0.0811902,-0.045517895,-0.006111112,1,0
11480000,-0.0808397,-0.046095826,-0.006520713,1,0
11484000,-0.08053886,-0.046692,-0.007044429,1,0
11488000,-0.080589935,-0.04729911,-0.007624368,1,0
11492000,-0.08106681,-0.0436962,-0.008163467,1,0
11496000,-0.08161577,-0.04438325,-0.008646356,1,0
11500000,-0.08194346,-0.045072604,-0.009110438,1,0
11504000,-0.08198497,-0.045726836,-0.009509983,1,0
11508000,-0.0818521,-0.046363533,-0.009936325,1,0
11512000,-0.08175031,-0.046962276,-0.010410815,1,0
11516000,-0.08178333,-0.043352354,-0.010937424,1,0
11520000,-0.08197915,-0.043922044,-0.011417134,1,0
11524000,-0.08210251,-0.04446881,-0.011838473,1,0
11528000,-0.08199265,-0.045085367,-0.012181129,1,0
11532000,-0.08188471,-0.045704328,-0.012556884,1,0
11536000,-0.081979446,-0.04626654,-0.01301489,1,0
11540000,-0.08218483,-0.04265687,-0.01351583,1,0
11544000,-0.082273886,-0.04327579,-0.013929671,1,0
11548000,-0.08218153,-0.043890983,-0.014232848,1,0
11552000,-0.082037546,-0.044531517,-0.014439073,1,0
11556000,-0.08205934,-0.04517176,-0.014658863,1,0
11560000,-0.08232869,-0.045685258,-0.014926059,1,0
11564000,-0.082613364,-0.04192359,-0.015277017,1,0
11568000,-0.082660355,-0.042405803,-0.015584695,1,0
11576000,-0.08256252,-0.043621354,-0.016065475,1,0
11580000,-0.08252332,-0.044249438,-0.016348531,1,0
11584000,-0.08230635,-0.044823747,-0.016656533,1,0
11588000,-0.082007885,-0.041243434,-0.017017819,1,0
11592000,-0.08203264,-0.04187191,-0.01731082,1,0
11596000,-0.08223179,-0.04248754,-0.017474536,1,0
11600000,-0.08226844,-0.043042134,-0.01750809,1,0
11604000,-0.08245628,-0.043629713,-0.017785858,1,0
11608000,-0.082208216,-0.04407775,-0.017681085,1,0
11612000,-0.08202047,-0.040418036,-0.017979048,1,0
11616000,-0.08194768,-0.04095531,-0.018249806,1,0
11620000,-0.08201018,-0.041496955,-0.018429635,1,0
11624000,-0.08219007,-0.042064503,-0.018673886,1,0
11628000,-0.08242598,-0.0425928,-0.01867733,1,0
11632000,-0.082512535,-0.043193527,-0.018798066,1,0
11636000,-0.0824285,-0.039587084,-0.018924888,1,0
11640000,-0.08216637,-0.04006494,-0.019015593,1,0
11644000,-0.08183006,-0.04051977,-0.019170433,1,0
11648000,-0.08185145,-0.041042753,-0.019365527,1,0
11652000,-0.08219029,-0.041601196,-0.019531392,1,0
11656000,-0.08237825,-0.04214343,-0.01961677,1,0
11660000,-0.082535334,-0.038533594,-0.019811764,1,0
11664000,-0.08268056,-0.039039396,-0.019953404,1,0
11668000,-0.08289849,-0.039590895,-0.020186247,1,0
11676000,-0.08292872,-0.040650573,-0.020324344,1,0
11680000,-0.08298038,-0.041112307,-0.020365596,1,0
11684000,-0.08295793,-0.037415925,-0.020460073,1,0
11688000,-0.08279854,-0.03792227,-0.020542523,1,0
11692000,-0.08277298,-0.03843862,-0.020536147,1,0
11700000,-0.08307423,-0.03948636,-0.020624056,1,0
11704000,-0.08258813,-0.039973356,-0.020686934,1,0
11708000,-0.082294516,-0.03629938,-0.020882547,1,0
11712000,-0.08214018,-0.036748786,-0.02108226,1,0
11716000,-0.08210725,-0.037180793,-0.021169541,1,0
11720000,-0.082175575,-0.0375983,-0.021185473,1,0
11724000,-0.08219984,-0.038027465,-0.0212798,1,0
11728000,-0.082167074,-0.038496032,-0.021424837,1,0
11732000,-0.0822268,-0.03479539,-0.021559037,1,0
11740000,-0.08249598,-0.035725713,-0.021757029,1,0
11744000,-0.0827622,-0.03620542,-0.021823222,1,0
11748000,-0.08292552,-0.03676052,-0.021926673,1,0
11752000,-0.082903445,-0.037306443,-0.022063632,1,0
11756000,-0.08284823,-0.03368829,-0.022198543,1,0
11760000,-0.08277261,-0.034231734,-0.022287361,1,0
11764000,-0.08263676,-0.03473136,-0.0223952,1,0
11768000,-0.082596846,-0.035191648,-0.022547457,1,0
11772000,-0.082558885,-0.03563309,-0.022721838,1,0
11776000,-0.082370274,-0.036099292,-0.022927986,1,0
11780000,-0.08217007,-0.03243809,-0.02317877,1,0
11788000,-0.082347,-0.033397835,-0.02365526,1,0
11792000,-0.082438104,-0.033793285,-0.02383192,1,0
11796000,-0.08267349,-0.03421361,-0.023993172,1,0
11800000,-0.08281962,-0.03471877,-0.02412756,1,0
11804000,-0.08291819,-0.031022755,-0.0242901,1,0
11808000,-0.08245048,-0.03159918,-0.024418928,1,0
11816000,-0.08266342,-0.032605466,-0.02487331,1,0
11820000,-0.08284477,-0.03301402,-0.025224123,1,0
11824000,-0.0831124,-0.03344212,-0.025531974,1,0
11828000,-0.083412394,-0.029697642,-0.02574908,1,0
11832000,-0.08372265,-0.030173067,-0.02590849,1,0
11836000,-0.08379517,-0.030657213,-0.02614998,1,0
11840000,-0.08370035,-0.031098269,-0.026512044,1,0
11844000,-0.08382198,-0.031555176,-0.026742429,1,0
11848000,-0.083985224,-0.03193242,-0.027147938,1,0
11852000,-0.08394822,-0.028149312,-0.0273503,1,0
11856000,-0.08394092,-0.028607002,-0.027615514,1,0
11860000,-0.0839967,-0.029118787,-0.02799022,1,0
11864000,-0.084116615,-0.029602898,-0.028385723,1,0
11868000,-0.08415993,-0.030054403,-0.028723244,1,0
11876000,-0.083685786,-0.026699692,-0.029135963,1,0
11880000,-0.08345324,-0.02719441,-0.029383935,1,0
11884000,-0.08337502,-0.02768702,-0.029733438,1,0
11888000,-0.08344421,-0.028123923,-0.030128993,1,0
11892000,-0.08368051,-0.02858378,-0.030507078,1,0
11896000,-0.0840344,-0.02909103,-0.030893568,1,0
11900000,-0.08435266,-0.025376061,-0.031309232,1,0
11904000,-0.08444592,-0.025903419,-0.031639814,1,0
11908000,-0.084395066,-0.02641096,-0.031918738,1,0
11912000,-0.08438849,-0.02687801,-0.03227332,1,0
11916000,-0.0844373,-0.02735202,-0.03263903,1,0
11920000,-0.08456498,-0.02780922,-0.033059463,1,0
11924000,-0.084784016,-0.02400839,-0.033526883,1,0
11932000,-0.08499427,-0.024943475,-0.034463286,1,0
11936000,-0.08485948,-0.025398035,-0.034839094,1,0
11940000,-0.084799856,-0.025877764,-0.03514903,1,0
11944000,-0.0849154,-0.02636955,-0.03547616,1,0
11948000,-0.08493453,-0.022634268,-0.035809964,1,0
11952000,-0.08476472,-0.023146428,-0.036250062,1,0
11960000,-0.08461521,-0.024070956,-0.037255622,1,0
11964000,-0.084523894,-0.024547221,-0.037713792,1,0
11968000,-0.08442152,-0.025012847,-0.03815288,1,0
11972000,-0.08458737,-0.02124188,-0.03851199,1,0
11976000,-0.0849408,-0.021761516,-0.038821533,1,0
11980000,-0.08529329,-0.022253338,-0.039156124,1,0
11984000,-0.085627146,-0.022703014,-0.039584596,1,0
11988000,-0.08572483,-0.023165155,-0.04000771,1,0
11992000,-0.08547819,-0.023604807,-0.040706456,1,0
11996000,-0.08543586,-0.019820215,-0.041233487,1,0
12004000,-0.085773766,-0.020730741,-0.04193125,1,0
12008000,-0.085973494,-0.021150382,-0.042336673,1,0
12012000,-0.08585792,-0.021550152,-0.04284476,1,0
12020000,-0.08564166,-0.018208161,-0.04370463,1,0
12024000,-0.0858739,-0.018779576,-0.04405622,1,0
12028000,-0.08599328,-0.019321032,-0.0444111,1,0
12032000,-0.08594384,-0.01976923,-0.04480827,1,0
12036000,-0.0861074,-0.020198878,-0.045277037,1,0
12040000,-0.08649648,-0.020703409,-0.045804534,1,0
12044000,-0.08677367,-0.016937181,-0.046273895,1,0
12048000,-0.08684396,-0.017447373,-0.04670096,1,0
12052000,-0.08673821,-0.01791428,-0.047008943,1,0
12056000,-0.086828075,-0.018416442,-0.047428917,1,0
12060000,-0.086210094,-0.019003311,-0.047652584,1,0
12068000,-0.086227335,-0.015636645,-0.04767356,1,0
12072000,-0.08618222,-0.016097605,-0.047833838,1,0
12076000,-0.08616221,-0.016570374,-0.047876507,1,0
12080000,-0.08603229,-0.017013928,-0.047880147,1,0
12084000,-0.0860108,-0.017499823,-0.04786481,1,0
12088000,-0.0862819,-0.018048877,-0.047887176,1,0
12092000,-0.086641975,-0.014258844,-0.04789871,1,0
12096000,-0.08679499,-0.014741549,-0.047932584,1,0
12100000,-0.08674878,-0.015146743,-0.04792735,1,0
12108000,-0.08691635,-0.015958177,-0.04784497,1,0
12112000,-0.08713817,-0.016384657,-0.04787543,1,0
12116000,-0.0872549,-0.012476338,-0.047935918,1,0
12120000,-0.08725308,-0.012978824,-0.047985338,1,0
12124000,-0.08698445,-0.013514116,-0.04795608,1,0
12132000,-0.08659429,-0.014672764,-0.047922768,1,0
12136000,-0.08674373,-0.015206736,-0.047880992,1,0
12140000,-0.086783364,-0.011321716,-0.047769673,1,0
12144000,-0.086799175,-0.011787982,-0.047632597,1,0
12148000,-0.08684018,-0.01217208,-0.047536116,1,0
12152000,-0.08684693,-0.012574691,-0.047563896,1,0
12156000,-0.08682236,-0.013101197,-0.047620863,1,0
12160000,-0.08693493,-0.013677614,-0.04772193,1,0
12164000,-0.087259665,-0.009834093,-0.047781795,1,0
12168000,-0.087470956,-0.01036939,-0.047814555,1,0
12172000,-0.08726358,-0.010863054,-0.047763254,1,0
12180000,-0.08694212,-0.01171462,-0.047646903,1,0
12184000,-0.08712501,-0.012129831,-0.04765137,1,0
12188000,-0.08739886,-0.008196427,-0.04761607,1,0
12192000,-0.08774569,-0.008761783,-0.04759037,1,0
12196000,-0.0880087,-0.009310718,-0.047566622,1,0
12200000,-0.08816477,-0.009792959,-0.0475749,1,0
12204000,-0.08832508,-0.010276666,-0.04753616,1,0
12212000,-0.08835006,-0.006831967,-0.047581904,1,0
12220000,-0.08783081,-0.007861018,-0.047766507,1,0
12224000,-0.08783963,-0.008311066,-0.04767792,1,0
12228000,-0.08767954,-0.00871703,-0.04756787,1,0
12236000,-0.08747316,-0.00525994,-0.04748871,1,0
12244000,-0.08760664,-0.00634175,-0.047654625,1,0
12248000,-0.08786023,-0.006754002,-0.047717057,1,0
12252000,-0.08792075,-0.007193256,-0.047642685,1,0
12256000,-0.08792872,-0.007712829,-0.04759053,1,0
12260000,-0.08791117,-0.003787028,-0.047575396,1,0
12264000,-0.08791453,-0.004288644,-0.04759553,1,0
12268000,-0.08800442,-0.004767291,-0.047599614,1,0
12272000,-0.088744976,-0.005167009,-0.047480136,1,0
12276000,-0.08901876,-0.005618244,-0.047427475,1,0
12280000,-0.08898701,-0.006046699,-0.04748916,1,0
12284000,-0.08875236,-0.002018655,-0.047557693,1,0
12288000,-0.08855318,-0.002508076,-0.047572576,1,0
12292000,-0.088476725,-0.002966005,-0.0474955,1,0
12296000,-0.08850136,-0.003406569,-0.047468692,1,0
12300000,-0.08865333,-0.003869964,-0.04745113,1,0
12304000,-0.08874214,-0.00437429,-0.04748956,1,0
12308000,-0.088597685,-0.00036386,-0.047517877,1,0
12312000,-0.08844462,-0.000815626,-0.04754696,1,0
12316000,-0.08850766,-0.001289837,-0.047524948,1,0
12320000,-0.08853592,-0.001776338,-0.04752752,1,0
12324000,-0.088487655,-0.002267337,-0.047540266,1,0
12328000,-0.08851546,-0.002779759,-0.04764443,1,0
12332000,-0.08852193,0.001231417,-0.047722965,1,0
12336000,-0.08845007,0.000723679,-0.047760844,1,0
12340000,-0.08850849,0.000242786,-0.047764942,1,0
12344000,-0.08839335,-0.000226606,-0.04776334,1,0
12348000,-0.08845221,-0.000713905,-0.04776743,1,0
12352000,-0.08846328,-0.001249202,-0.047728457,1,0
12356000,-0.08838278,0.002752213,-0.047667317,1,0
12360000,-0.088390216,0.002313253,-0.047685128,1,0
12364000,-0.08845498,0.001848245,-0.0476892,1,0
12368000,-0.088668205,0.001519593,-0.04785828,1,0
12372000,-0.088556804,0.000999805,-0.04792858,1,0
12380000,-0.08803099,0.004503509,-0.048020273,1,0
12384000,-0.088091925,0.004077099,-0.048117816,1,0
12388000,-0.08832248,0.003652908,-0.048157483,1,0
12392000,-0.088452995,0.00319499,-0.04815972,1,0
12396000,-0.088498406,0.002737135,-0.048111513,1,0
12400000,-0.08872528,0.002315193,-0.04815064,1,0
12404000,-0.08901711,0.00646509,-0.048196558,1,0
12408000,-0.089060284,0.005975742,-0.048251346,1,0
12412000,-0.088880226,0.005431337,-0.048272055,1,0
12416000,-0.08866917,0.004877178,-0.048326716,1,0
12420000,-0.088597596,0.004334047,-0.048347726,1,0
12424000,-0.08873539,0.003875325,-0.048418578,1,0
12428000,-0.08893602,0.008091373,-0.048440777,1,0
12432000,-0.08912408,0.007704623,-0.048474394,1,0
12436000,-0.08928104,0.00725431,-0.048463114,1,0
12440000,-0.089353316,0.006790184,-0.04846974,1,0
12444000,-0.089334756,0.006341782,-0.0484042,1,0
12448000,-0.08929825,0.005883632,-0.048379272,1,0
12452000,-0.08949393,0.00999324,-0.048379093,1,0
12456000,-0.0897633,0.009453075,-0.04844839,1,0
12460000,-0.0896607,0.008933121,-0.048500735,1,0
12468000,-0.08936384,0.008007912,-0.048593283,1,0
12472000,-0.089503944,0.00747912,-0.048638176,1,0
12476000,-0.08980999,0.011548238,-0.04861509,1,0
12480000,-0.08998388,0.011003364,-0.048603553,1,0
12484000,-0.09004783,0.010521578,-0.048607778,1,0
12488000,-0.08987642,0.010061525,-0.048551254,1,0
12492000,-0.08972296,0.009621313,-0.048563667,1,0
12496000,-0.08966507,0.009105364,-0.048650585,1,0
12500000,-0.08972067,0.013217701,-0.0487149,1,0
12504000,-0.0899457,0.012757216,-0.04880713,1,0
12508000,-0.090340555,0.012323827,-0.04887462,1,0
12512000,-0.09068268,0.011865502,-0.048995763,1,0
12516000,-0.090763,0.011358911,-0.049084336,1,0
12524000,-0.09072459,0.014996726,-0.049183436,1,0
12528000,-0.09060292,0.014499651,-0.04925648,1,0
12532000,-0.09083636,0.014110146,-0.04934404,1,0
12536000,-0.09087407,0.013628434,-0.049326446,1,0
12540000,-0.09070471,0.013088962,-0.04927701,1,0
12544000,-0.09061984,0.012589214,-0.049323812,1,0
12548000,-0.09068528,0.016749531,-0.049328424,1,0
12552000,-0.090740845,0.016220123,-0.04936479,1,0
12556000,-0.09074923,0.015699442,-0.049376577,1,0
12560000,-0.09077527,0.015192794,-0.049458634,1,0
12564000,-0.09082389,0.014727403,-0.04953503,1,0
12568000,-0.090676464,0.014313679,-0.049556177,1,0
12572000,-0.090424456,0.018582184,-0.049445026,1,0
12576000,-0.09036039,0.018178035,-0.04940359,1,0
12580000,-0.09033992,0.01776843,-0.049369488,1,0
12584000,-0.09034555,0.017294344,-0.04940503,1,0
12588000,-0.09036885,0.016717989,-0.0494573,1,0
12596000,-0.09031547,0.020146048,-0.04963608,1,0
12600000,-0.090520285,0.019718023,-0.049661733,1,0
12604000,-0.09081509,0.019359302,-0.049604774,1,0
12608000,-0.091151126,0.018948799,-0.049622737,1,0
12612000,-0.09135809,0.01846182,-0.04960769,1,0
12616000,-0.09152046,0.01795282,-0.049638823,1,0
12620000,-0.09169107,0.022136876,-0.04966722,1,0
12624000,-0.09167815,0.02157313,-0.04971332,1,0
12628000,-0.09173866,0.02107529,-0.04971773,1,0
12632000,-0.09162625,0.020450523,-0.04969965,1,0
12640000,-0.0922636,0.019464143,-0.0498017,1,0
12644000,-0.09229993,0.02376048,-0.049847998,1,0
12648000,-0.092260055,0.023315541,-0.049875133,1,0
12652000,-0.09200243,0.02280234,-0.04991667,1,0
12660000,-0.091196075,0.021651307,-0.050116256,1,0
12664000,-0.09103208,0.02105633,-0.050191402,1,0
12668000,-0.090845495,0.02523238,-0.050235324,1,0
12676000,-0.09090507,0.024207141,-0.050242506,1,0
12680000,-0.09107858,0.023788141,-0.050263785,1,0
12684000,-0.091499634,0.023366418,-0.050243437,1,0
12688000,-0.092129275,0.02293742,-0.050225727,1,0
12692000,-0.09253541,0.027204128,-0.050175183,1,0
12696000,-0.09248239,0.026703147,-0.05016759,1,0
12700000,-0.09220193,0.02623251,-0.050068572,1,0
12704000,-0.091962315,0.025730869,-0.050023694,1,0
12708000,-0.09184847,0.025162512,-0.05003549,1,0
12712000,-0.09191888,0.024567978,-0.050130166,1,0
12716000,-0.09200449,0.02868326,-0.050137673,1,0
12719999,-0.09197481,0.028086878,-0.050173774,1,0
12724000,-0.09201771,0.027653214,-0.050157487,1,0
12728000,-0.09212671,0.02728701,-0.050184682,1,0
12731999,-0.092259675,0.026868599,-0.05022271,1,0
12736000,-0.0925394,0.026409047,-0.050289884,1,0
12740000,-0.09278203,0.030647917,-0.050227724,1,0
12744000,-0.092756316,0.030099705,-0.050219126,1,0
12748000,-0.09254933,0.029553426,-0.050238244,1,0
12751999,-0.092449665,0.028980702,-0.050315432,1,0
12756000,-0.09254822,0.028432632,-0.050326306,1,0
12760000,-0.09251994,0.027953342,-0.050377823,1,0
12763999,-0.09256579,0.028923525,-0.050382316,1,0
12768000,-0.0921139,0.028381774,-0.050410256,1,0
12772000,-0.092218965,0.02781367,-0.05038259,1,0
12776000,-0.09249686,0.027273221,-0.05043047,1,0
12780000,-0.092738666,0.026737561,-0.050481673,1,0
12783999,-0.09293509,0.02621047,-0.050577715,1,0
12788000,-0.09329392,0.025705075,-0.05061955,1,0
12792000,-0.09361847,0.025175415,-0.05072294,1,0
12795999,-0.09366394,0.02465579,-0.050727498,1,0
12800000,-0.09282453,0.024154386,-0.050842658,1,0
12804000,-0.092461586,0.023709523,-0.050835736,1,0
12808000,-0.092507094,0.023226248,-0.050845906,1,0
12812000,-0.09275887,0.022725048,-0.050794404,1,0
12815999,-0.09295267,0.022233408,-0.050809264,1,0
12820000,-0.09303749,0.021703124,-0.050763357,1,0
12824000,-0.09325689,0.021146243,-0.050752454,1,0
12827999,-0.093601376,0.02063116,-0.050730575,1,0
12832000,-0.0938006,0.0201932,-0.05085823,1,0
12836000,-0.09373318,0.019806849,-0.050984733,1,0
12840000,-0.09358056,0.019425996,-0.051064134,1,0
12844000,-0.09350085,0.019060697,-0.05099857,1,0
12847999,-0.09349167,0.018714717,-0.05100628,1,0
12852000,-0.09345415,0.0183382,-0.051017273,1,0
12859999,-0.23692602,0.024086721,0.010032176,1,0
12864000,-0.23703109,0.023647247,0.010090785,1,0
12868000,-0.23758155,0.023290971,0.010182291,1,0
12872000,-0.23736641,0.02282622,0.010179538,1,0
12876000,-0.23591858,0.022350898,0.010177284,1,0
12879999,-0.23303527,0.021934595,0.010231598,1,0
12884000,-0.2217873,0.021613967,0.010454888,1,0
12888000,-0.21777356,0.021219937,0.010575461,1,0
12891999,-0.21392137,0.020792603,0.010693071,1,0
12896000,-0.21012878,0.020381464,0.01075108,1,0
12900000,-0.2063379,0.019981692,0.010783432,1,0
12904000,-0.20269391,0.01953615,0.010796577,1,0
12908000,-0.20092317,0.019055499,0.010756049,1,0
12916000,-0.19509153,0.018123463,0.010779759,1,0
12920000,-0.19234024,0.0176851,0.010802197,1,0
12923999,-0.18962102,0.017263098,0.010777215,1,0
12932000,-0.190409,0.016330067,0.010711607,1,0
12936000,-0.18822482,0.015943492,0.010712476,1,0
12943999,-0.18430366,0.015146898,0.010759303,1,0
12948000,-0.18237068,0.0146192,0.010787884,1,0
12952000,-0.1804568,0.014143081,0.010802968,1,0
12955999,-0.17995344,0.01374823,0.010805996,1,0
12960000,-0.178098,0.01331888,0.010779997,1,0
12964000,-0.17741439,0.012829393,0.010732329,1,0
12968000,-0.17452055,0.012305172,0.010695301,1,0
12972000,-0.17282003,0.011900803,0.010667156,1,0
12975999,-0.17129391,0.011565173,0.010611432,1,0
12980000,-0.171134,0.011265038,0.010540263,1,0
12984000,-0.16982667,0.011010731,0.010500494,1,0
12987999,-0.16861124,0.010704085,0.010448584,1,0
12992000,-0.1673994,0.010285191,0.010453627,1,0
12996000,-0.16610582,0.00987825,0.010540655,1,0
13000000,-0.16469708,0.009556269,0.010588666,1,0
13004000,-0.16454315,0.009232832,0.010530639,1,0
13012000,-0.16259994,0.008494053,0.010342478,1,0
13016000,-0.16089924,0.008274946,0.01030222,1,0
13019999,-0.1595355,0.007928506,0.010256235,1,0
13028000,-0.16232774,0.007158095,0.010076783,1,0
13032000,-0.16116974,0.0067899,0.009998154,1,0
13036000,-0.1604857,0.006493265,0.009964874,1,0
13039999,-0.15965952,0.006244445,0.009937859,1,0
13044000,-0.15882821,0.005860331,0.009850221,1,0
13048000,-0.15779117,0.005500352,0.009889226,1,0
13051999,-0.15751179,0.005135028,0.009867296,1,0
13056000,-0.15637976,0.004858533,0.009809358,1,0
13060000,-0.15557389,0.004620947,0.009706938,1,0
13064000,-0.15501784,0.004384551,0.009596322,1,0
13068000,-0.15432487,0.004110696,0.009505414,1,0
13076000,-0.15300064,0.003502119,0.009292472,1,0
13083999,-0.15123399,0.002915533,0.009158582,1,0
13088000,-0.15079677,0.002576958,0.009100454,1,0
13092000,-0.15033606,0.00223168,0.009046072,1,0
13096000,-0.14949414,0.001914786,0.00894556,1,0
13100000,-0.14915727,0.001698859,0.008903234,1,0
13103999,-0.14808674,0.001504427,0.008782768,1,0
13108000,-0.14738749,0.001296757,0.0086408,1,0
13115999,-0.1465659,0.000837041,0.008420289,1,0
13120000,-0.14592668,0.000621142,0.008335153,1,0
13124000,-0.14945109,0.00040848,0.008277182,1,0
13128000,-0.14860249,0.000170723,0.008198502,1,0
13132000,-0.14799502,-4.69E-05,0.008079462,1,0
13135999,-0.14729112,-0.000207027,0.007974651,1,0
13140000,-0.14651507,-0.000349591,0.00787049,1,0
13144000,-0.14594598,-0.000546211,0.007767651,1,0
13147999,-0.1458876,-0.000781674,0.007693267,1,0
13152000,-0.14533557,-0.000977987,0.007615087,1,0
13156000,-0.14481866,-0.001114802,0.00753358,1,0
13164000,-0.14342076,-0.001420574,0.007397596,1,0
13167999,-0.14276208,-0.00163826,0.007297817,1,0
13172000,-0.14263071,-0.001872787,0.007190341,1,0
13180000,-0.14154465,-0.002376899,0.006995697,1,0
13184000,-0.14153701,-0.002612934,0.006894032,1,0
13188000,-0.1408846,-0.002828995,0.006799569,1,0
13196000,-0.13977031,-0.003309846,0.006777849,1,0
13199999,-0.13923803,-0.003473502,0.006679784,1,0
13204000,-0.13863435,-0.003617665,0.006531768,1,0
13208000,-0.13811125,-0.00381935,0.006377331,1,0
13212000,-0.1376807,-0.004035696,0.006224174,1,0
13216000,-0.13727577,-0.004224042,0.006074229,1,0
13219999,-0.14089093,-0.004389108,0.005983905,1,0
13224000,-0.14051946,-0.004526679,0.005924209,1,0
13228000,-0.14001362,-0.004624547,0.005826463,1,0
13231999,-0.1394667,-0.004686138,0.00572263,1,0
13236000,-0.13894373,-0.004826962,0.00563898,1,0
13244000,-0.1376968,-0.005276185,0.005470528,1,0
13248000,-0.1374811,-0.00557038,0.005343731,1,0
13252000,-0.13677706,-0.005721837,0.005173477,1,0
13256000,-0.1361945,-0.005876664,0.005042492,1,0
13260000,-0.13579166,-0.006064958,0.004927584,1,0
13263999,-0.1353822,-0.006228389,0.004822424,1,0
13268000,-0.13478677,-0.006393635,0.004743232,1,0
13272000,-0.13423307,-0.00657918,0.004647956,1,0
13276000,-0.13386491,-0.006769417,0.004510858,1,0
13280000,-0.13360974,-0.006965387,0.0044059,1,0
13283999,-0.13319772,-0.007113391,0.00436637,1,0
13288000,-0.13271365,-0.007160332,0.00431959,1,0
13292000,-0.1360019,-0.007179852,0.004255533,1,0
13295999,-0.135758,-0.007285675,0.004172911,1,0
13300000,-0.13507336,-0.007447435,0.004070805,1,0
13304000,-0.13526149,-0.007662247,0.003974726,1,0
13308000,-0.13476528,-0.007765778,0.003937582,1,0
13312000,-0.13406421,-0.00788914,0.003877839,1,0
13315999,-0.13326634,-0.008034178,0.003774573,1,0
13320000,-0.1326957,-0.008192499,0.003626448,1,0
13324000,-0.13245477,-0.008404491,0.003487414,1,0
13332000,-0.13169588,-0.008807038,0.003326596,1,0
13336000,-0.13135667,-0.008969737,0.003399768,1,0
13340000,-0.13034509,-0.009058252,0.003339193,1,0
13344000,-0.12944843,-0.009162189,0.003225202,1,0
13347999,-0.12894359,-0.009280255,0.003101112,1,0
13352000,-0.12896462,-0.009427903,0.003002437,1,0
13356000,-0.12831059,-0.009582796,0.00290257,1,0
13364000,-0.1283417,-0.009929595,0.002714499,1,0
13368000,-0.12822716,-0.010113496,0.002601174,1,0
13376000,-0.1276602,-0.010476154,0.002361674,1,0
13379999,-0.12724708,-0.010629056,0.002250736,1,0
13384000,-0.1264548,-0.010755726,0.002168823,1,0
13388000,-0.12927103,-0.010888779,0.002068868,1,0
13391999,-0.1285902,-0.010905599,0.002054281,1,0
13396000,-0.12842296,-0.011021151,0.002006448,1,0
13400000,-0.12827729,-0.011209441,0.001954859,1,0
13404000,-0.12806624,-0.011409329,0.001890655,1,0
13408000,-0.12783337,-0.011545444,0.00181289,1,0
13411999,-0.1272721,-0.011644891,0.001734897,1,0
13416000,-0.12700911,-0.011765143,0.001666985,1,0
13420000,-0.12653987,-0.011948116,0.0015859,1,0
13423999,-0.12606291,-0.012136666,0.001481385,1,0
13428000,-0.12560561,-0.012272967,0.00135224,1,0
13432000,-0.12513357,-0.012362551,0.001239106,1,0
13436000,-0.12421278,-0.012376778,0.001198247,1,0
13440000,-0.12391267,-0.012364227,0.001183341,1,0
13443999,-0.12358135,-0.012425724,0.001152349,1,0
13448000,-0.12318284,-0.01254557,0.001127321,1,0
13452000,-0.122731075,-0.012645153,0.001086111,1,0
13455999,-0.12228179,-0.012739399,0.001030851,1,0
13460000,-0.12144306,-0.012881552,0.00097888,1,0
13464000,-0.12138175,-0.01303779,0.00090209,1,0
13468000,-0.121295564,-0.013190387,0.000812549,1,0
13475999,-0.120852865,-0.013476067,0.00077402,1,0
13480000,-0.120469436,-0.013578992,0.000735466,1,0
13484000,-0.123180516,-0.013673897,0.000645204,1,0
13488000,-0.12287699,-0.013769596,0.000517611,1,0
13492000,-0.12269025,-0.013917917,0.000384172,1,0
13496000,-0.12244941,-0.01408544,0.000310537,1,0
13500000,-0.121913336,-0.01417658,0.000225185,1,0
13504000,-0.122159734,-0.014132749,0.000260072,1,0
13508000,-0.121272355,-0.014195291,0.000189904,1,0
13512000,-0.12073504,-0.014426765,7.50E-05,1,0
13516000,-0.12030248,-0.014663458,-6.20E-05,1,0
13520000,-0.120133996,-0.014748245,-0.000190601,1,0
13524000,-0.11994283,-0.014775078,-0.000271454,1,0
13528000,-0.119544536,-0.01484785,-0.000292715,1,0
13532000,-0.118387066,-0.014938104,-0.000376172,1,0
13536000,-0.11838711,-0.014906174,-0.000288994,1,0
13540000,-0.118284285,-0.014920918,-0.00032479,1,0
13544000,-0.11804143,-0.015040861,-0.000410219,1,0
13548000,-0.11755173,-0.015202075,-0.000541346,1,0
13552000,-0.11700591,-0.015311338,-0.000684269,1,0
13560000,-0.11555757,-0.020391587,-0.001015117,0.3991574,0
13564000,-0.115455344,-0.020483071,-0.001061029,0.3991574,0
13568000,-0.11551519,-0.020582236,-0.001125218,0.3991574,0
13572000,-0.11539537,-0.02063617,-0.001178913,0.3991574,0
13580000,-0.11716222,-0.025776792,-0.001465662,0.42169553,0
13584000,-0.11616758,-0.025892848,-0.001655874,0.42169553,0
13588000,-0.114886545,-0.026093539,-0.001845604,0.42169553,0
13592000,-0.11345105,-0.026279692,-0.001985048,0.42169553,0
13596000,-0.112891786,-0.026377544,-0.002087927,0.42169553,0
13600000,-0.110114306,-0.026546603,-0.00224529,0.42169553,0
13604000,-0.10713914,-0.031744678,-0.002627777,0.44330966,0
13608000,-0.10510242,-0.03200601,-0.002771098,0.44330966,0
13612000,-0.103121266,-0.032317143,-0.002916931,0.44330966,0
13616000,-0.101347476,-0.03263768,-0.003146186,0.44330966,0
13620000,-0.099791974,-0.032934338,-0.003394138,0.44330966,0
13624000,-0.09836585,-0.033202387,-0.003592637,0.44330966,0
13628000,-0.09650236,-0.038393933,-0.003969423,0.46371356,0
13632000,-0.09387098,-0.038714707,-0.004275844,0.46371356,0
13636000,-0.091920316,-0.03894362,-0.004505458,0.46371356,0
13640000,-0.09021186,-0.039247245,-0.004704183,0.46371356,0
13644000,-0.08872235,-0.039609544,-0.004926473,0.46371356,0
13648000,-0.08738094,-0.040002096,-0.00517911,0.46371356,0
13652000,-0.08494671,-0.04538936,-0.005688711,0.48290652,0
13656000,-0.08371422,-0.045718595,-0.005921741,0.48290652,0
13660000,-0.08245138,-0.04598947,-0.006141827,0.48290652,0
13664000,-0.08131707,-0.04623048,-0.006342076,0.48290652,0
13668000,-0.080354795,-0.046471365,-0.006519812,0.48290652,0
13672000,-0.07950457,-0.046695054,-0.006703999,0.48290652,0
13676000,-0.08117756,-0.05193892,-0.007182681,0.50085396,0
13684000,-0.07878715,-0.052377395,-0.007792965,0.50085396,0
13688000,-0.077391684,-0.05268048,-0.008194013,0.50085396,0
13692000,-0.07627379,-0.052958887,-0.008504643,0.50085396,0
13696000,-0.07533326,-0.053142518,-0.008786421,0.50085396,0
13700000,-0.07322664,-0.058325693,-0.009333355,0.51866263,0
13704000,-0.07268444,-0.058581043,-0.009489377,0.51866263,0
13708000,-0.07235514,-0.058867794,-0.009628966,0.51866263,0
13712000,-0.072023176,-0.059120238,-0.009791046,0.51866263,0
13716000,-0.07144561,-0.059355814,-0.009994349,0.51866263,0
13724000,-0.06817511,-0.06469118,-0.010852321,0.53510696,0
13728000,-0.06739828,-0.06468669,-0.011099725,0.53510696,0
13732000,-0.06665542,-0.0648822,-0.01130353,0.53510696,0
13736000,-0.06677535,-0.06484867,-0.011541568,0.53510696,0
13740000,-0.06640637,-0.06498974,-0.011687705,0.53510696,0
13744000,-0.06597241,-0.06515098,-0.011806864,0.53510696,0
13748000,-0.06409389,-0.07034227,-0.012335639,0.55020136,0
13752000,-0.06357332,-0.07049737,-0.012453483,0.55020136,0
13756000,-0.062842615,-0.07065344,-0.012658526,0.55020136,0
13760000,-0.06284161,-0.07064585,-0.012793757,0.55020136,0
13764000,-0.062480107,-0.070696786,-0.013053861,0.55020136,0
13768000,-0.06215422,-0.07074876,-0.013288243,0.55020136,0
13772000,-0.064183,-0.075747795,-0.013911525,0.5639661,0
13776000,-0.06379787,-0.07569015,-0.014109797,0.5639661,0
13780000,-0.06341621,-0.0756536,-0.014299834,0.5639661,0
13784000,-0.063063376,-0.0755997,-0.014646264,0.5639661,0
13788000,-0.06284892,-0.075593024,-0.014808422,0.5639661,0
13792000,-0.062554605,-0.07553783,-0.014944067,0.5639661,0
13796000,-0.06089554,-0.08041729,-0.015534153,0.57745594,0
13800000,-0.06093634,-0.08026289,-0.015666286,0.57745594,0
13804000,-0.060996518,-0.080144204,-0.015768971,0.57745594,0
13808000,-0.06079428,-0.08006404,-0.015844759,0.57745594,0
13812000,-0.06040694,-0.079998985,-0.015922775,0.57745594,0
13816000,-0.059994303,-0.07990508,-0.016027747,0.57745594,0
13820000,-0.05829805,-0.08475253,-0.016644059,0.58965445,0
13824000,-0.05819878,-0.08447522,-0.016793095,0.58965445,0
13828000,-0.057957005,-0.08419522,-0.016951324,0.58965445,0
13832000,-0.057479955,-0.08396094,-0.017091844,0.58965445,0
13836000,-0.0571248,-0.08373737,-0.017210044,0.58965445,0
13844000,-0.05541794,-0.08843335,-0.01798375,0.6006376,0
13848000,-0.05558885,-0.088284425,-0.018084798,0.6006376,0
13852000,-0.054981343,-0.088146254,-0.018257609,0.6006376,0
13856000,-0.05584196,-0.08784249,-0.018067399,0.6006376,0
13860000,-0.05604129,-0.08761076,-0.01812414,0.6006376,0
13864000,-0.05626592,-0.08731511,-0.018251438,0.6006376,0
13868000,-0.05866538,-0.0920016,-0.0189344,0.61042994,0
13876000,-0.05788993,-0.09146047,-0.019215526,0.61042994,0
13880000,-0.058036067,-0.0910994,-0.019253302,0.61042994,0
13884000,-0.057847105,-0.09070473,-0.01957247,0.61042994,0
13888000,-0.057846054,-0.09031047,-0.019631397,0.61042994,0
13892000,-0.056407012,-0.094989315,-0.020238165,0.62009376,0
13896000,-0.056128155,-0.094669655,-0.020271469,0.62009376,0
13900000,-0.055873875,-0.094384566,-0.020270946,0.62009376,0
13904000,-0.055680607,-0.094087064,-0.020283218,0.62009376,0
13908000,-0.05547305,-0.09369287,-0.020316422,0.62009376,0
13916000,-0.0540992,-0.097837105,-0.020997357,0.6286616,0
13920000,-0.054227088,-0.09743761,-0.021074368,0.6286616,0
13924000,-0.053739995,-0.09712523,-0.021199359,0.6286616,0
13928000,-0.054589324,-0.09671641,-0.021264542,0.6286616,0
13932000,-0.05411631,-0.09640685,-0.021384899,0.6286616,0
13936000,-0.05482123,-0.09611398,-0.021294862,0.6286616,0
13940000,-0.053396553,-0.10074465,-0.021883368,0.63622004,0
13944000,-0.053280447,-0.10024,-0.021905944,0.63622004,0
13948000,-0.05281572,-0.099889524,-0.022019953,0.63622004,0
13952000,-0.052837234,-0.09930024,-0.022079445,0.63622004,0
13956000,-0.05261115,-0.098792925,-0.022127751,0.63622004,0
13960000,-0.05265638,-0.09833586,-0.022189036,0.63622004,0
13964000,-0.05161884,-0.10297745,-0.022885727,0.642842,0
13968000,-0.051635418,-0.10253598,-0.022932772,0.642842,0
13972000,-0.051526755,-0.10204072,-0.022938574,0.642842,0
13976000,-0.051518552,-0.10151866,-0.022958843,0.642842,0
13980000,-0.051591404,-0.10104641,-0.023018168,0.642842,0
13984000,-0.05138926,-0.10055931,-0.023191042,0.642842,0
13988000,-0.053696502,-0.105202876,-0.023864713,0.64911747,0
13992000,-0.05367835,-0.10474525,-0.023908507,0.64911747,0
13996000,-0.053280286,-0.1042923,-0.023992958,0.64911747,0
14004000,-0.053851545,-0.10317146,-0.02401703,0.64911747,0
14008000,-0.054060366,-0.10276559,-0.023987103,0.64911747,0
14012000,-0.05321935,-0.105583765,-0.024373027,0.65455776,0
14016000,-0.053244103,-0.10509385,-0.0243642,0.65455776,0
14020000,-0.05288948,-0.104551114,-0.024407048,0.65455776,0
14028000,-0.051943824,-0.10339265,-0.024538517,0.65455776,0
14032000,-0.051795952,-0.10287654,-0.024594806,0.65455776,0
14036000,-0.05027763,-0.101561956,-0.024546094,0.6592206,0
14040000,-0.050897285,-0.10104809,-0.024534773,0.6592206,0
14044000,-0.050532628,-0.100559264,-0.024599036,0.6592206,0
14048000,-0.05045367,-0.10002843,-0.024605267,0.6592206,0
14052000,-0.050118573,-0.09951724,-0.024656583,0.6592206,0
14060000,-0.050025392,-0.09763563,-0.024444267,0.66315866,0
14064000,-0.049933054,-0.09717837,-0.024457237,0.66315866,0
14068000,-0.04959847,-0.09672706,-0.02453007,0.66315866,0
14072000,-0.049426693,-0.0963138,-0.024641711,0.66315866,0
14080000,-0.049781594,-0.09543819,-0.024812618,0.66315866,0
14084000,-0.048295423,-0.094263405,-0.025045719,0.66643506,0
14088000,-0.047990084,-0.093818605,-0.025092613,0.66643506,0
14092000,-0.048074733,-0.093402974,-0.025079029,0.66643506,0
14096000,-0.04840197,-0.092986494,-0.025063932,0.66643506,0
14100000,-0.048557926,-0.09252214,-0.025060661,0.66643506,0
14104000,-0.048537225,-0.09207538,-0.025106946,0.66643506,0
