timestamp,ref_timestamp,ref_lat,ref_lon,x,y,z,vx,vy,vz,ax,ay,az,dist_bottom
9040000,787999,39.8714138,32.7364368,0.004669844,-0.005415202,-0.046151035,0.017144926,0.017327141,-0.04982907,-0.031016342,-0.028253619,-0.034870576,0.10292487
9136000,787999,39.8714138,32.7364368,0.004497586,-0.005765205,-0.04544036,0.014470027,0.019249178,-0.046715677,0.062361386,0.01086363,0.019083729,0.1
9240000,787999,39.8714138,32.7364368,0.004098818,-0.005635716,-0.045745466,0.011858139,0.017720904,-0.04598829,0.14095543,-0.001750275,0.028876586,0.1
9336000,787999,39.8714138,32.7364368,0.003553486,-0.005719445,-0.04640225,0.012450937,0.017082302,-0.043907914,0.034014154,0.00023903,-0.042371448,0.1
9440000,787999,39.8714138,32.7364368,0.003109888,-0.005580633,-0.047044083,0.011148633,0.015426271,-0.044043064,-0.018259946,-0.023129772,-0.14520063,0.1
9544000,787999,39.8714138,32.7364368,0.002757151,-0.005730621,-0.04762227,0.011728718,0.015794184,-0.043040063,-0.023715284,0.09473734,0.061513852,0.1
9640000,787999,39.8714138,32.7364368,0.002672397,-0.005577853,-0.048869807,0.01217196,0.016668802,-0.0408894,0.07290937,0.039208677,0.03802124,0.1
9736000,787999,39.8714138,32.7364368,0.00247738,-0.006019593,-0.049734674,0.009482923,0.015537193,-0.040893264,0.012736097,0.070134945,-0.012902542,0.10020241
9840000,787999,39.8714138,32.7364368,0.002319001,-0.005790293,-0.04856295,0.010067643,0.016087841,-0.037820566,0.028232634,0.003455018,-0.025977379,0.10479492
9936000,787999,39.8714138,32.7364368,0.002227149,-0.005313235,-0.045739528,0.00889702,0.017484007,-0.03665461,-0.033277843,0.006510789,0.017546115,0.10236976
10040000,787999,39.8714138,32.7364368,0.002208268,-0.004028689,-0.043320566,0.009495387,0.019466402,-0.035615183,0.06466456,0.002992063,0.018448567,0.10308638
10136000,787999,39.8714138,32.7364368,0.002089591,-0.002830179,-0.041726757,0.010965715,0.021732654,-0.03259883,0.09335627,0.06805817,0.02940092,0.1
10240000,787999,39.8714138,32.7364368,0.002307009,-0.001138163,-0.04215857,0.010978969,0.021468189,-0.03278653,-0.03850122,-0.022069652,-0.001529232,0.1
10336000,787999,39.8714138,32.7364368,0.001948396,0.009076282,-0.04242432,-0.029070105,0.91629267,-0.009020308,-2.19315,47.91937,1.2222314,0.1
10440000,787999,39.8714138,32.7364368,-0.014203255,0.3757618,-0.03435382,-0.2595426,5.9972754,0.12331213,-1.9612893,43.762398,1.1453172,0.1
10536000,787999,39.8714138,32.7364368,-0.048117552,1.1347511,-0.014205981,-0.42839107,9.716802,0.22142495,-1.5637553,34.477367,0.83378696,0.1
10640000,787999,39.8714138,32.7364368,-0.09725775,2.3155305,0.014765662,-0.5628191,12.887038,0.30011427,-1.2320321,27.175564,0.7782392,0.1
10736000,787999,39.8714138,32.7364368,-0.13706282,3.669717,0.046072092,-0.62554955,15.219301,0.3545055,-0.38516217,22.398882,0.5175527,0.1
10840000,787999,39.8714138,32.7364368,-0.18203358,5.3674755,0.083996885,-0.6332393,17.344023,0.36357772,-1.0291684,18.359917,0.008380971,0.1
10936000,787999,39.8714138,32.7364368,-0.20301591,7.099325,0.109742925,-0.7016187,18.92238,0.32855043,-2.22595,15.05202,0.05167536,0.1
11040000,787999,39.8714138,32.7364368,-0.23885515,9.130821,0.13274476,-0.8312117,20.256243,0.28773013,-1.8544902,11.18134,-0.08384976,0.1
11136000,787999,39.8714138,32.7364368,-0.2617832,11.118625,0.1417611,-0.87125427,21.1842,0.25980264,-1.2392101,8.644617,0.17821042,0.1
11240000,787999,39.8714138,32.7364368,-0.29616547,13.359547,0.14765659,-0.89455754,21.936928,0.23182042,-1.0620462,6.3287754,-0.33308098,0.1
11336000,787999,39.8714138,32.7364368,-0.31790623,15.485021,0.13449124,-0.90097815,22.436024,0.07165609,-1.2106453,4.5334253,-2.102615,0.1
11440000,787999,39.8714138,32.7364368,-0.35678354,17.833496,0.094467856,-0.9943776,22.803513,-0.29480225,-1.958223,2.8508723,-4.079744,0.1
11536000,787999,39.8714138,32.7364368,-0.4016943,20.038887,0.013591193,-1.1349795,23.014143,-0.7748009,-2.3472803,1.7937616,-4.985742,0.13527003
11640000,787999,39.8714138,32.7364368,-0.4801676,22.443165,-0.12458877,-1.3350929,23.13381,-1.318721,-2.523304,0.78232604,-4.8013263,0.27345002
11736000,787999,39.8714138,32.7364368,-0.5747804,24.67328,-0.30103853,-1.5171753,23.183931,-1.7731639,-2.2265382,0.23324227,-4.2125664,0.44989976
11840000,787999,39.8714138,32.7364368,-0.7067299,27.0907,-0.5355363,-1.7115675,23.18948,-2.2051282,-2.1034927,-0.077123635,-3.8341541,0.6843975
11936000,787999,39.8714138,32.7364368,-0.858864,29.329939,-0.78801835,-1.8979602,23.164145,-2.5736449,-2.1064484,-0.46577093,-3.6340334,0.9368796
12040000,787999,39.8714138,32.7364368,-1.0516795,31.748035,-1.0998646,-2.1094058,23.095093,-2.9733043,-2.1307385,-0.8920124,-3.7200458,1.2487259
12136000,787999,39.8714138,32.7364368,-1.2595857,33.974182,-1.4257742,-2.3209486,22.995106,-3.3493931,-2.2581515,-1.2431753,-3.7755284,1.5746355
12240000,787999,39.8714138,32.7364368,-1.5129768,36.371292,-1.8167961,-2.5569036,22.86174,-3.759376,-2.2948356,-1.4397993,-3.8071225,1.9656572
12336000,787999,39.8714138,32.7364368,-1.7804132,38.57829,-2.2120786,-2.7796376,22.727394,-4.129737,-2.0673282,-1.6102191,-3.6709726,2.3609397
12440000,787999,39.8714138,32.7364368,-2.0960743,40.950623,-2.6776214,-3.0139828,22.559904,-4.5133414,-2.0294783,-1.8376921,-3.5312994,2.8264825
12536000,787999,39.8714138,32.7364368,-2.4186037,43.126133,-3.1411564,-3.2372365,22.394428,-4.8620267,-2.0410655,-1.9290893,-3.6118839,3.2900176
12640000,787999,39.8714138,32.7364368,-2.7931263,45.461334,-3.6812558,-3.4768417,22.195475,-5.2467847,-2.0174947,-2.069274,-3.6811166,3.830117
12736000,787999,39.8714138,32.7364368,-3.1692064,47.605648,-4.214972,-3.7068818,21.998676,-5.6115985,-2.0562465,-2.244472,-3.895066,4.3638334
12840000,787999,39.8714138,32.7364368,-3.6001034,49.904076,-4.8324237,-3.947554,21.763836,-6.016674,-2.0264359,-2.458072,-3.6977425,4.981285
12943999,787999,39.8714138,32.7364368,-4.0612516,52.17981,-5.489558,-4.180089,21.527912,-6.397479,-1.6831533,-2.2937407,-3.425896,5.6384196
13039999,787999,39.8714138,32.7364368,-4.504562,54.256695,-6.130007,-4.3373475,21.328545,-6.710179,-0.9793268,-2.0862887,-2.9965541,6.278868
13144000,787999,39.8714138,32.7364368,-5.002148,56.488224,-6.8546677,-4.4334865,21.158148,-6.982472,-0.11644704,-1.5216019,-2.210779,7.003529
13248000,787999,39.8714138,32.7364368,-5.5025086,58.701057,-7.6035266,-4.4517894,21.034527,-7.1859837,0.5078867,-1.0936625,-1.6887858,7.752388
13344000,787999,39.8714138,32.7364368,-5.965451,60.733036,-8.312347,-4.4222198,20.953878,-7.3306303,0.8616963,-0.74739796,-1.4008013,8.461208
13448000,787999,39.8714138,32.7364368,-6.458285,62.92363,-9.095592,-4.34416,20.887194,-7.4658093,1.2353115,-0.6680453,-1.26746,9.244452
13544000,787999,39.8714138,32.7364368,-6.904497,64.94352,-9.827953,-4.23564,20.845877,-7.57279,1.582508,-0.34977725,-1.035557,9.976814
13648000,787999,39.8714138,32.7364368,-7.369691,67.11705,-10.628754,-4.0580907,20.548206,-7.610251,2.2874072,-4.4586487,0.00495091,10.777615
13744000,787999,39.8714138,32.7364368,-7.7809696,69.08655,-11.369776,-3.8502376,20.148344,-7.638297,2.5702367,-3.9547,-0.4778681,11.518637
13848000,787999,39.8714138,32.7364368,-8.200794,71.179756,-12.177777,-3.60977,19.80819,-7.655859,2.4853032,-2.7337224,0.28201658,12.326638
13944000,787999,39.8714138,32.7364368,-8.566362,73.088615,-12.921748,-3.4049234,19.63358,-7.5656137,2.221633,-1.2993809,1.6762073,13.070609
14048000,787999,39.8714138,32.7364368,-8.938503,75.14361,-13.712283,-3.2034206,19.580778,-7.341888,1.9766182,0.005827285,2.7622826,13.861144
14144000,787999,39.8714138,32.7364368,-9.261595,77.040924,-14.417465,-3.027575,19.629421,-7.0561924,2.0140996,0.61907536,3.1487818,14.566326
14248000,787999,39.8714138,32.7364368,-9.589496,79.10341,-15.148473,-2.8218086,19.717102,-6.752787,2.3402953,0.83397824,2.7565708,15.297334
14344000,787999,39.8714138,32.7364368,-9.869494,81.017876,-15.797104,-2.6069212,19.799616,-6.530814,2.4772987,0.6218029,2.2051723,15.945965
14448000,787999,39.8714138,32.7364368,-10.1459675,83.10113,-16.477114,-2.3541822,19.875599,-6.3446255,2.5933273,0.54495615,1.6489614,16.625975
14544000,787999,39.8714138,32.7364368,-10.375719,85.02981,-17.088154,-2.1145992,19.93802,-6.2023478,2.572244,0.55751526,1.4745089,17.237015
14648000,787999,39.8714138,32.7364368,-10.597838,87.12604,-17.736925,-1.851898,19.996208,-6.0685263,2.6838164,0.37525755,1.3349996,17.885786
14744000,787999,39.8714138,32.7364368,-10.776542,89.065025,-18.32533,-1.6038251,20.040222,-5.957649,2.6554615,0.2907987,1.2071178,18.474192
14848000,787999,39.8714138,32.7364368,-10.942394,91.170296,-18.949612,-1.3368034,20.076797,-5.851209,2.5746005,0.20741135,1.0730373,19.098473
14944000,787999,39.8714138,32.7364368,-11.06934,93.11418,-19.51589,-1.0895898,20.097284,-5.762151,2.5850255,0.023279803,0.8480055,19.664751
15048000,787999,39.8714138,32.7364368,-11.180774,95.2226,-20.119953,-0.82572156,20.112738,-5.678129,2.5195334,-0.012670876,0.7935604,20.268814
15144000,787999,39.8714138,32.7364368,-11.257758,97.16872,-20.668648,-0.5887484,20.115257,-5.6153693,2.5083866,-0.040737677,0.68738306,20.817509
15248000,787999,39.8714138,32.7364368,-11.315899,99.27898,-21.256487,-0.34253046,20.10708,-5.557201,2.3800957,-0.20000383,0.6182212,21.405348
15344000,787999,39.8714138,32.7364368,-11.345943,101.22302,-21.79507,-0.123634055,20.091574,-5.512218,2.2565165,-0.27797416,0.50368434,21.943932
15448000,787999,39.8714138,32.7364368,-11.357364,103.32854,-22.375784,0.09847458,20.066925,-5.466791,2.1143951,-0.3371264,0.50183105,22.524645
15544000,787999,39.8714138,32.7364368,-11.346754,105.26752,-22.907274,0.2930006,20.045193,-5.4280787,2.0170465,-0.35669816,0.39996856,23.056135
15648000,787999,39.8714138,32.7364368,-11.317433,107.3684,-23.476837,0.48735705,20.02338,-5.3864474,1.8951257,-0.2935673,0.4207091,23.625698
15744000,787999,39.8714138,32.7364368,-11.270885,109.30171,-23.997744,0.6536647,19.998236,-5.349649,1.7443001,-0.32754868,0.3526313,24.146605
15848000,787999,39.8714138,32.7364368,-11.205383,111.39475,-24.557238,0.822437,19.974863,-5.3161793,1.7101426,-0.28099212,0.30194688,24.706099
15944000,787999,39.8714138,32.7364368,-11.12748,113.32259,-25.069885,0.9631617,19.948694,-5.288727,1.4133539,-0.3027308,0.37312597,25.218746
16048000,787999,39.8714138,32.7364368,-11.029491,115.41565,-25.620977,1.1019316,19.924616,-5.2595725,1.239422,-0.2810389,0.24291593,25.769838
16144000,787999,39.8714138,32.7364368,-10.924654,117.34066,-26.128407,1.2151033,19.897581,-5.2348166,1.1265299,-0.37754908,0.36459136,26.277267
16248000,787999,39.8714138,32.7364368,-10.803005,119.42629,-26.67696,1.3224121,19.872446,-5.2145524,0.98408335,-0.30781537,0.20769517,26.82582
16344000,787999,39.8714138,32.7364368,-10.678545,121.34484,-27.181908,1.4118954,19.847603,-5.20074,0.9011972,-0.322232,0.11253449,27.330769
16448000,787999,39.8714138,32.7364368,-10.535972,123.42324,-27.725208,1.4944186,19.82357,-5.1855893,0.7592374,-0.29085878,0.15056877,27.87407
16544000,787999,39.8714138,32.7364368,-10.394562,125.335045,-28.225096,1.5598692,19.8001,-5.169728,0.60099465,-0.29881135,0.13184546,28.373957
16648000,787999,39.8714138,32.7364368,-10.2390995,127.40453,-28.76493,1.6141353,19.77626,-5.156167,0.51194066,-0.23765069,0.1880871,28.913792
16744000,787999,39.8714138,32.7364368,-10.088162,129.30899,-29.260595,1.6555884,19.752249,-5.1403213,0.40540767,-0.20736036,0.26160944,29.409456
16848000,787999,39.8714138,32.7364368,-9.9233265,131.37645,-29.795347,1.6865673,19.732891,-5.12115,0.21943286,-0.29311863,0.16243754,29.944208
16944000,787999,39.8714138,32.7364368,-9.765959,133.27873,-30.2853,1.7075357,19.71561,-5.107627,0.25861531,-0.15574808,0.10753795,30.43416
17048000,787999,39.8714138,32.7364368,-9.598008,135.33897,-30.81512,1.7180307,19.696882,-5.093491,0.108572476,-0.21871364,0.08022412,30.963982
17144000,787999,39.8714138,32.7364368,-9.4397745,137.23584,-31.304071,1.7221184,19.679047,-5.0783863,0.028090462,-0.09536626,0.15150382,31.452932
17248000,787999,39.8714138,32.7364368,-9.271241,139.29114,-31.832047,1.7152655,19.661957,-5.0670505,-0.06909738,-0.21989572,0.04814751,31.980907
17344000,787999,39.8714138,32.7364368,-9.114031,141.18393,-32.318188,1.7025682,19.647884,-5.0549674,-0.083919816,-0.084891446,0.18860584,32.46705
17448000,787999,39.8714138,32.7364368,-8.948148,143.23212,-32.842037,1.6817772,19.631308,-5.0385013,-0.19886617,-0.19856332,0.19263196,32.9909
17544000,787999,39.8714138,32.7364368,-8.7949,145.1193,-33.323513,1.6594898,19.614468,-5.0252647,-0.110144,-0.17578083,0.1587225,33.472374
17648000,787999,39.8714138,32.7364368,-8.633551,147.16595,-33.84181,1.6286491,19.599493,-5.0083055,-0.2657126,-0.14844722,0.13133323,33.99067
17744000,787999,39.8714138,32.7364368,-8.485563,149.0519,-34.319008,1.5961965,19.584541,-4.9967437,-0.32291278,-0.25198537,0.10089762,34.46787
17848000,787999,39.8714138,32.7364368,-8.332192,151.09512,-34.834892,1.5561537,19.569849,-4.981432,-0.4104785,-0.12890248,0.11711381,34.983753
17944000,787999,39.8714138,32.7364368,-8.192775,152.9783,-35.310226,1.5196874,19.558447,-4.966078,-0.29872558,-0.15442328,0.078581266,35.459087
18048000,787999,39.8714138,32.7364368,-8.046907,155.01814,-35.822895,1.4779867,19.545319,-4.949132,-0.38337433,-0.15225703,0.2472326,35.971756
18152000,787999,39.8714138,32.7364368,-7.9032226,157.05496,-36.335457,1.4350932,19.534548,-4.930545,-0.38211232,-0.113487706,0.18126424,36.484318
18248000,787999,39.8714138,32.7364368,-7.7761064,158.9333,-36.805725,1.391797,19.522821,-4.914808,-0.4050406,-0.22329621,0.046255063,36.954586
18344000,787999,39.8714138,32.7364368,-7.6516047,160.80887,-37.273354,1.3494701,19.507215,-4.900859,-0.43242615,-0.16814585,0.15033408,37.422215
18448000,787999,39.8714138,32.7364368,-7.5230446,162.8421,-37.77934,1.301038,19.492025,-4.8860025,-0.38564023,-0.1458749,0.12676789,37.9282
18544000,787999,39.8714138,32.7364368,-7.407581,164.71695,-38.244694,1.2591987,19.47883,-4.8697605,-0.4614472,-0.103875756,0.13962759,38.393555
18648000,787999,39.8714138,32.7364368,-7.2882986,166.7466,-38.746094,1.213329,19.469305,-4.8485456,-0.34555292,-0.1309344,0.25558284,38.894955
18744000,787999,39.8714138,32.7364368,-7.1816006,168.61812,-39.20733,1.1716287,19.456194,-4.8264723,-0.42709643,-0.19386014,0.19876285,39.35619
18848000,787999,39.8714138,32.7364368,-7.0719867,170.64389,-39.704044,1.1263046,19.442883,-4.805166,-0.3697125,-0.07747672,0.18446705,39.852905
18944000,787999,39.8714138,32.7364368,-6.9743114,172.5118,-40.160275,1.0863394,19.430647,-4.78991,-0.39031813,-0.03190222,0.110662535,40.309135
19048000,787999,39.8714138,32.7364368,-6.873251,174.53229,-40.653465,1.0447439,19.416979,-4.771608,-0.34504697,-0.1029123,0.20889564,40.802326
19144000,787999,39.8714138,32.7364368,-6.7832084,176.39497,-41.107513,1.0097964,19.404959,-4.752187,-0.24680752,-0.06726896,0.21683796,41.256374
19248000,787999,39.8714138,32.7364368,-6.689563,178.41432,-41.597084,0.9721703,19.395071,-4.7319326,-0.27254897,-0.045177523,0.1561716,41.745945
19344000,787999,39.8714138,32.7364368,-6.6059246,180.27827,-42.047718,0.9385809,19.383087,-4.7146964,-0.33866808,-0.15588197,0.15981121,42.19658
19448000,787999,39.8714138,32.7364368,-6.5187044,182.29639,-42.53425,0.904991,19.366926,-4.6980896,-0.20339353,-0.16129784,0.15654135,42.68311
19544000,787999,39.8714138,32.7364368,-6.4411254,184.15826,-42.982773,0.8761668,19.356169,-4.6863375,-0.16817856,-0.11743884,0.18107425,43.131634
19648000,787999,39.8714138,32.7364368,-6.3596973,186.17345,-43.466034,0.8457423,19.34384,-4.6669335,-0.2562875,-0.1622408,0.18427613,43.614895
19744000,787999,39.8714138,32.7364368,-6.2870464,188.03183,-43.910107,0.81941736,19.330774,-4.650856,-0.21411783,-0.06963591,0.14933383,44.058968
19848000,787999,39.8714138,32.7364368,-6.2111278,190.04218,-44.390297,0.7922345,19.315578,-4.63766,-0.17559128,-0.15690549,0.13552885,44.539158
19944000,787999,39.8714138,32.7364368,-6.144349,191.89545,-44.831696,0.768986,19.302732,-4.62532,-0.21496595,-0.13396865,0.10951701,44.980556
20048000,787999,39.8714138,32.7364368,-6.0743313,193.9034,-45.30698,0.7470337,19.285868,-4.610262,-0.092314124,-0.17570913,0.12085493,45.45584
20144000,787999,39.8714138,32.7364368,-6.0127077,195.75748,-45.74441,0.7249643,19.273779,-4.596757,-0.07773745,-0.11972873,0.10208785,45.893272
20248000,787999,39.8714138,32.7364368,-5.947355,197.76369,-46.216175,0.70430815,19.25902,-4.5864434,-0.1294719,-0.14598225,0.13624597,46.365036
20344000,787999,39.8714138,32.7364368,-5.889853,199.61438,-46.649326,0.68550414,19.246353,-4.5737967,-0.1652759,-0.12103165,0.08304044,46.798187
20448000,787999,39.8714138,32.7364368,-5.82815,201.61711,-47.11731,0.66890806,19.230375,-4.560833,-0.063147426,-0.08921348,0.04391465,47.26617
20544000,787999,39.8714138,32.7364368,-5.772909,203.46486,-47.54811,0.6553636,19.214066,-4.5544453,-0.035933588,-0.17398758,0.025402753,47.69697
20648000,787999,39.8714138,32.7364368,-5.7134776,205.4635,-48.013283,0.6427565,19.19342,-4.5449595,-0.029633766,-0.21684657,0.09611341,48.162144
20744000,787999,39.8714138,32.7364368,-5.6627007,207.30576,-48.440506,0.6299223,19.175406,-4.5340385,-0.038504925,-0.126519,0.113254406,48.589367
20848000,787999,39.8714138,32.7364368,-5.6071086,209.30042,-48.903286,0.6202636,19.156391,-4.5237474,-0.016669603,-0.24940537,0.017700715,49.052147
20944000,787999,39.8714138,32.7364368,-5.5584054,211.14313,-49.33187,0.6122807,19.139233,-4.5152583,-0.01606532,-0.18479651,0.08076242,49.480732
21048000,787999,39.8714138,32.7364368,-5.5038652,213.13634,-49.795963,0.6052499,19.120813,-4.5090637,0.0923161,-0.21459371,0.029793007,49.944824
21152000,787999,39.8714138,32.7364368,-5.451376,215.12915,-50.259583,0.59538096,19.10586,-4.5038543,-0.1260358,-0.14999625,0.032349486,50.408443
21248000,787999,39.8714138,32.7364368,-5.4019113,216.9663,-50.686974,0.58833414,19.091162,-4.495336,-0.010318734,-0.12865289,0.018862074,50.835835
21344000,787999,39.8714138,32.7364368,-5.3549323,218.80415,-51.1139,0.583292,19.076689,-4.490645,0.090316854,-0.1190328,0.046982426,51.26276
21448000,787999,39.8714138,32.7364368,-5.301775,220.79135,-51.577095,0.5790259,19.058006,-4.488353,0.019128535,-0.20548049,-0.012275762,51.725956
21544000,787999,39.8714138,32.7364368,-5.255768,222.62288,-52.004383,0.5735976,19.042717,-4.484555,-0.031197632,-0.15497206,0.108269036,52.153244
21648000,787999,39.8714138,32.7364368,-5.2037907,224.60461,-52.466133,0.56959724,19.0145,-4.4794364,0.01005856,-0.6423433,0.14685,52.614994
21744000,787999,39.8714138,32.7364368,-5.158442,226.43259,-52.888767,0.5599204,18.89289,-4.4457765,-0.0796483,-1.7251709,0.644586,53.03763
21848000,787999,39.8714138,32.7364368,-5.1074195,228.39267,-53.34082,0.5492143,18.685837,-4.3317018,-0.014301738,-2.103993,1.4186529,53.48968
21944000,787999,39.8714138,32.7364368,-5.0641494,230.18423,-53.744698,0.53836244,18.477375,-4.1510696,-0.043416787,-2.113162,2.2766967,53.89356
22048000,787999,39.8714138,32.7364368,-5.015116,232.10014,-54.158,0.53433543,18.260109,-3.8831675,-0.021620711,-2.0956888,2.8132873,54.30686
22144000,787999,39.8714138,32.7364368,-4.9713984,233.85112,-54.512203,0.530917,18.07657,-3.578249,-0.016025499,-1.8665646,3.2899382,54.661064
22248000,787999,39.8714138,32.7364368,-4.921371,235.72655,-54.860996,0.5331569,17.88975,-3.1946707,0.016281264,-1.7597547,3.8934422,55.009857
22344000,787999,39.8714138,32.7364368,-4.876344,237.4433,-55.146183,0.5357398,17.726303,-2.8064404,0.09616094,-1.7582517,4.054998,55.295044
22448000,787999,39.8714138,32.7364368,-4.8251023,239.28334,-55.41407,0.5419242,17.552443,-2.3980424,0.13306169,-1.6483119,3.8657,55.56293
22544000,787999,39.8714138,32.7364368,-4.7771993,240.97198,-55.624958,0.55098736,17.397625,-2.0412915,0.07891823,-1.6417317,3.5757625,55.77382
22648000,787999,39.8714138,32.7364368,-4.722259,242.78207,-55.81565,0.5674279,17.241753,-1.6768031,0.17526317,-1.5712181,3.423565,55.96451
22744000,787999,39.8714138,32.7364368,-4.6687903,244.44177,-55.95808,0.5871752,17.10724,-1.3542966,0.25457594,-1.3612766,3.3250492,56.10694
22848000,787999,39.8714138,32.7364368,-4.607429,246.22324,-56.07663,0.6121019,16.972921,-1.0159662,0.26483744,-1.2578757,3.1723347,56.22549
22944000,787999,39.8714138,32.7364368,-4.5471864,247.85895,-56.15543,0.6360469,16.859465,-0.71742207,0.2849365,-1.2507774,3.043492,56.30429
23048000,787999,39.8714138,32.7364368,-4.4785385,249.61653,-56.210587,0.6635033,16.748156,-0.4145947,0.27774015,-1.052102,2.7876503,56.359447
23144000,787999,39.8714138,32.7364368,-4.4114823,251.22919,-56.235394,0.6903137,16.658718,-0.15289572,0.22608581,-0.9019653,2.6508753,56.384254
23248000,787999,39.8714138,32.7364368,-4.3352504,252.96938,-56.2363,0.7311208,16.71997,0.10445459,0.5135559,2.0223882,2.2834063,56.385162
23344000,787999,39.8714138,32.7364368,-4.258326,254.59908,-56.215965,0.79006267,16.997614,0.29621565,0.6383826,3.473527,1.5905601,56.364826
23448000,787999,39.8714138,32.7364368,-4.166875,256.39938,-56.17851,0.89055157,17.410387,0.3823562,1.1006026,4.167313,0.02760533,56.32737
23544000,787999,39.8714138,32.7364368,-4.0699544,258.1019,-56.142456,1.0373195,17.82063,0.31600496,1.8577842,4.217259,-1.3219705,56.291317
23648000,787999,39.8714138,32.7364368,-3.9450564,259.98743,-56.117493,1.2846619,18.229994,0.09975776,2.7847993,3.6190886,-2.647829,56.266354
23744000,787999,39.8714138,32.7364368,-3.8023462,261.76474,-56.119305,1.6084324,18.541811,-0.19098641,3.8242335,2.7889166,-3.3442068,56.268166
23848000,787999,39.8714138,32.7364368,-3.6077945,263.71774,-56.155346,2.0657814,18.78487,-0.546948,4.7875404,1.8624133,-3.4789796,56.304207
23944000,787999,39.8714138,32.7364368,-3.3834178,265.53873,-56.22008,2.5673213,18.929018,-0.8608406,5.5895348,0.9809887,-3.055835,56.368942
24048000,787999,39.8714138,32.7364368,-3.0835495,267.52118,-56.321884,3.1756172,18.997402,-1.1637293,6.2354093,0.18767266,-2.7862413,56.470745
24144000,787999,39.8714138,32.7364368,-2.748141,269.35846,-56.441833,3.7915597,18.992643,-1.4132795,6.6422353,-0.42956063,-2.5046,56.590694
24248000,787999,39.8714138,32.7364368,-2.315758,271.34485,-56.597992,4.511511,18.911575,-1.6572756,7.1931777,-1.1297773,-2.20484,56.746853
24344000,787999,39.8714138,32.7364368,-1.8501252,273.17017,-56.76565,5.2147512,18.777973,-1.8635973,7.553777,-1.745667,-2.10906,56.914513
24448000,787999,39.8714138,32.7364368,-1.2689875,275.13113,-56.970535,6.012441,18.570364,-2.0671256,7.8653765,-2.4085958,-1.8702167,57.119396
24544000,787999,39.8714138,32.7364368,-0.65834194,276.92142,-57.17752,6.770805,18.328447,-2.2321475,7.9394507,-2.9308002,-1.6731181,57.32638
24648000,787999,39.8714138,32.7364368,0.08575856,278.8333,-57.418564,7.6070457,18.012413,-2.3929784,8.133067,-3.491626,-1.4601433,57.567425
24744000,787999,39.8714138,32.7364368,0.8488684,280.56693,-57.6544,8.391367,17.668861,-2.5273035,8.143631,-4.0811157,-1.3146819,57.80326
24848000,787999,39.8714138,32.7364368,1.7588645,282.40738,-57.9248,9.245949,17.240692,-2.6632473,8.279066,-4.705937,-1.2158415,58.07366
24944000,787999,39.8714138,32.7364368,2.6799889,284.06537,-58.187626,10.039327,16.790468,-2.785808,8.312226,-5.195833,-1.3150125,58.336487
25048000,787999,39.8714138,32.7364368,3.765603,285.8125,-58.486324,10.898891,16.248573,-2.9063933,8.239418,-5.681773,-1.0873023,58.635185
25144000,787999,39.8714138,32.7364368,4.847138,287.37125,-58.773052,11.684784,15.697325,-3.0044565,8.075806,-6.2819214,-1.001587,58.921913
25248000,787999,39.8714138,32.7364368,6.103097,288.9994,-59.094395,12.525922,15.038589,-3.106948,7.995269,-6.8959727,-1.0548484,59.243256
25344000,787999,39.8714138,32.7364368,7.3394103,290.43478,-59.40073,13.297044,14.359641,-3.218001,7.9820237,-7.7073283,-1.2637302,59.54959
25448000,787999,39.8714138,32.7364368,8.758388,291.91504,-59.747303,14.11478,13.54791,-3.3616323,7.768532,-8.560822,-1.4262022,59.896164
25544000,787999,39.8714138,32.7364368,10.143811,293.1993,-60.080788,14.840708,12.729728,-3.5077977,7.454736,-9.024531,-1.4962823,60.22965
25648000,787999,39.8714138,32.7364368,11.720265,294.4994,-60.458508,15.581453,11.787601,-3.6634736,6.8183646,-9.48077,-1.3783462,60.60737
25744000,787999,39.8714138,32.7364368,13.244745,295.6063,-60.820637,16.219364,10.876777,-3.7915528,6.386775,-9.80497,-1.3205287,60.969498
25848000,787999,39.8714138,32.7364368,14.966802,296.70422,-61.22558,16.85692,9.863115,-3.9158545,5.750035,-9.96928,-1.1450806,61.37444
25944000,787999,39.8714138,32.7364368,16.6125,297.61908,-61.61052,17.38229,8.908953,-4.0235777,5.1885567,-10.1124,-0.99486756,61.75938
26048000,787999,39.8714138,32.7364368,18.44935,298.50546,-62.037743,17.885948,7.868713,-4.1312613,4.428394,-10.120176,-1.0140938,62.186604
26144000,787999,39.8714138,32.7364368,20.18798,299.22418,-62.44117,18.283833,6.9163194,-4.2249417,3.7215097,-9.915662,-0.8652163,62.59003
26248000,787999,39.8714138,32.7364368,22.109951,299.8989,-62.88795,18.642927,5.912867,-4.3231425,3.055065,-9.431389,-0.86401117,63.03681
26344000,787999,39.8714138,32.7364368,23.913815,300.42813,-63.309338,18.909975,5.0272856,-4.4061303,2.5370216,-8.944021,-0.77460235,63.4582
26448000,787999,39.8714138,32.7364368,25.891294,300.90814,-63.77448,19.136976,4.1211686,-4.486013,1.9147723,-8.452601,-0.6635729,63.92334
26544000,787999,39.8714138,32.7364368,27.736078,301.2677,-64.21108,19.298326,3.3410978,-4.5527167,1.4844838,-7.9120255,-0.68467104,64.35995
26648000,787999,39.8714138,32.7364368,29.752327,301.56906,-64.68896,19.424797,2.5486047,-4.6194386,1.0354977,-7.2860184,-0.68227106,64.83782
26744000,787999,39.8714138,32.7364368,31.622725,301.7765,-65.13636,19.501986,1.8766087,-4.67983,0.6728492,-6.61646,-0.6664702,65.285225
26848000,787999,39.8714138,32.7364368,33.656826,301.92853,-65.62581,19.552277,1.21412,-4.742616,0.30918744,-6.013849,-0.6651682,65.77467
26944000,787999,39.8714138,32.7364368,35.5372,302.01132,-66.08371,19.570648,0.66242105,-4.801295,0.10715378,-5.412267,-0.74007267,66.232574
27048000,787999,39.8714138,32.7364368,37.57413,302.03983,-66.58486,19.567406,0.12661552,-4.858532,-0.09460583,-4.757564,-0.5887141,66.73373
27144000,787999,39.8714138,32.7364368,39.45323,302.02115,-67.052795,19.55098,-0.30527127,-4.908129,-0.21479231,-4.139061,-0.58598906,67.20166
27248000,787999,39.8714138,32.7364368,41.483047,301.95245,-67.5642,19.517479,-0.7201641,-4.9666557,-0.32288626,-3.653378,-0.6311591,67.713066
27344000,787999,39.8714138,32.7364368,43.35378,301.85504,-68.04191,19.479612,-1.0489806,-5.0239244,-0.4435796,-3.0938828,-0.6317878,68.19077
27448000,787999,39.8714138,32.7364368,45.376858,301.71112,-68.56612,19.428745,-1.3603745,-5.088791,-0.4395798,-2.5656805,-0.70930547,68.71498
27544000,787999,39.8714138,32.7364368,47.239685,301.5545,-69.056435,19.379526,-1.5974362,-5.1487265,-0.4440674,-2.1016345,-0.6459038,69.2053
27648000,787999,39.8714138,32.7364368,49.24846,301.35596,-69.59268,19.318438,-1.8109199,-5.209266,-0.59878707,-1.755297,-0.6316108,69.74155
27744000,787999,39.8714138,32.7364368,51.097298,301.15756,-70.093506,19.261164,-1.9676608,-5.264001,-0.5736316,-1.259351,-0.5916394,70.24237
27848000,787999,39.8714138,32.7364368,53.091362,300.92255,-70.64026,19.199594,-2.1033406,-5.3260202,-0.49532226,-0.9708691,-0.67682004,70.78912
27944000,787999,39.8714138,32.7364368,54.927235,300.69815,-71.15143,19.144949,-2.1876252,-5.382402,-0.5080532,-0.5641652,-0.67610663,71.30029
28048000,787999,39.8714138,32.7364368,56.90479,300.44318,-71.70975,19.085905,-2.2513144,-5.438857,-0.5070609,-0.26212978,-0.53245664,71.85861
28144000,787999,39.8714138,32.7364368,58.72571,300.2063,-72.23096,19.037205,-2.278079,-5.4876676,-0.4224353,0.06788292,-0.5104355,72.37982
28248000,787999,39.8714138,32.7364368,60.693584,299.9439,-72.800186,18.988802,-2.282484,-5.5306983,-0.303813,0.27538827,-0.46610084,72.94905
28344000,787999,39.8714138,32.7364368,62.507526,299.70526,-73.329414,18.951824,-2.2622194,-5.5633025,-0.333674,0.4379388,-0.31992325,73.47828
28448000,787999,39.8714138,32.7364368,64.4675,299.44666,-73.90453,18.914444,-2.2213297,-5.58826,-0.21362397,0.5859219,-0.30187237,74.0534
28544000,787999,39.8714138,32.7364368,66.274185,299.21506,-74.4389,18.884895,-2.162734,-5.6055675,-0.21708359,0.8384071,-0.14661065,74.58777
28648000,787999,39.8714138,32.7364368,68.2262,298.9676,-75.01935,18.854273,-2.0878413,-5.618011,-0.16657425,1.0303242,-0.12912972,75.16821
28744000,787999,39.8714138,32.7364368,70.0262,298.749,-75.55775,18.83418,-2.0100603,-5.6246,-0.1540156,1.0657784,0.002567656,75.70661
28848000,787999,39.8714138,32.7364368,71.969986,298.52,-76.14305,18.809458,-1.9169527,-5.6274724,-0.058369942,1.15706,-0.018023884,76.291916
28951999,787999,39.8714138,32.7364368,73.91112,298.3036,-76.728806,18.786371,-1.8132566,-5.622029,-0.029407576,1.1616668,0.11754739,76.87767
29055999,787999,39.8714138,32.7364368,75.84914,298.09573,-77.31343,18.76683,-1.7066046,-5.6132545,-0.092718646,1.2239273,0.098961,77.462296
29152000,787999,39.8714138,32.7364368,77.63782,297.91684,-77.85251,18.750933,-1.598788,-5.601859,0.02611149,1.3335387,0.102248035,78.00137
29256000,787999,39.8714138,32.7364368,79.57297,297.73236,-78.43531,18.732277,-1.4865878,-5.5853057,0.001806533,1.1437505,0.16300659,78.584175
29360000,787999,39.8714138,32.7364368,81.50744,297.56134,-79.01623,18.713955,-1.383549,-5.560924,-0.09564496,1.0383395,0.27546656,79.16509
29463999,787999,39.8714138,32.7364368,83.440834,297.3972,-79.595055,18.691462,-1.3130695,-5.5375247,-0.117685266,0.67944056,0.19614646,79.74392
29567999,787999,39.8714138,32.7364368,85.373856,297.24188,-80.17289,18.672922,-1.2807615,-5.504951,0.012555737,0.32625806,0.40504962,80.321754
29664000,787999,39.8714138,32.7364368,87.15377,297.09802,-80.70364,18.6538,-1.2925559,-5.467597,-0.018826218,-0.19977064,0.3582742,80.85251
29768000,787999,39.8714138,32.7364368,89.080894,296.94205,-81.27567,18.636726,-1.3449821,-5.4214597,-0.12213689,-0.6133677,0.5582794,81.42454
29872000,787999,39.8714138,32.7364368,91.008125,296.777,-81.84333,18.619455,-1.4442985,-5.372843,-0.022729624,-0.9750609,0.48260015,81.992195
29976000,787999,39.8714138,32.7364368,92.93559,296.60284,-82.40463,18.6024,-1.5824144,-5.321464,-0.13343802,-1.445231,0.47402918,82.5535
30079999,787999,39.8714138,32.7364368,94.85798,296.4101,-82.96015,18.576519,-1.7633781,-5.270332,-0.12697147,-1.8635039,0.45961457,83.10902
30183999,787999,39.8714138,32.7364368,96.77847,296.1992,-83.50985,18.547155,-1.988324,-5.212564,-0.3697269,-2.2372103,0.5161842,83.658714
30280000,787999,39.8714138,32.7364368,98.550026,295.98044,-84.01115,18.51538,-2.2345052,-5.1582313,-0.25152647,-2.6300597,0.5537886,84.16001
30384000,787999,39.8714138,32.7364368,100.46755,295.71832,-84.5487,18.475851,-2.5382216,-5.101858,-0.32707605,-3.0777557,0.53607297,84.69756
30480000,787999,39.8714138,32.7364368,102.2345,295.4443,-85.04041,18.42952,-2.858471,-5.0507693,-0.5583672,-3.4913235,0.55927503,85.18928
30584000,787999,39.8714138,32.7364368,104.14426,295.11307,-85.56812,18.36715,-3.2410738,-4.996097,-0.6025075,-3.8162189,0.52043045,85.71699
30680000,787999,39.8714138,32.7364368,105.90071,294.76883,-86.0506,18.293152,-3.6294737,-4.9463854,-0.8548274,-4.054762,0.46926922,86.19946
30784000,787999,39.8714138,32.7364368,107.7955,294.35443,-86.56689,18.19752,-4.0842175,-4.896005,-0.959906,-4.4497514,0.47024897,86.71575
30888000,787999,39.8714138,32.7364368,109.68028,293.88943,-87.07819,18.083307,-4.5783563,-4.845837,-1.1878767,-4.8142953,0.49964055,87.22706
30984000,787999,39.8714138,32.7364368,111.4091,293.41467,-87.5466,17.955872,-5.0599985,-4.802581,-1.4795097,-5.038522,0.46692228,87.695465
31080000,787999,39.8714138,32.7364368,113.1275,292.89127,-88.01047,17.806904,-5.568088,-4.759156,-1.6394142,-5.332475,0.4665693,88.15933
31184000,787999,39.8714138,32.7364368,114.97281,292.26913,-88.50875,17.61427,-6.1457953,-4.71426,-2.1104267,-5.6815414,0.38690397,88.657616
31280000,787999,39.8714138,32.7364368,116.6559,291.64117,-88.96492,17.407745,-6.6994367,-4.67815,-2.2635138,-5.7603264,0.35693866,89.113785
31384000,787999,39.8714138,32.7364368,118.45433,290.90085,-89.4549,17.147795,-7.318359,-4.643117,-2.6768475,-5.9499235,0.33336782,89.60377
31480000,787999,39.8714138,32.7364368,120.09031,290.15842,-89.90421,16.873566,-7.9022574,-4.6236176,-2.9971917,-6.0633388,0.11584069,90.05308
31584000,787999,39.8714138,32.7364368,121.83231,289.2907,-90.390335,16.551996,-8.519049,-4.615932,-3.0716436,-5.633252,0.08009746,90.5392
31680000,787999,39.8714138,32.7364368,123.41074,288.43713,-90.837715,16.262394,-9.032717,-4.598447,-2.9433742,-4.95929,0.31093973,90.98658
31784000,787999,39.8714138,32.7364368,125.09089,287.46198,-91.32004,15.978516,-9.505219,-4.562011,-2.6382895,-4.1632056,0.36568472,91.4689
31888000,787999,39.8714138,32.7364368,126.74337,286.44122,-91.79895,15.723479,-9.897429,-4.5370073,-2.2902818,-3.3475192,0.04711933,91.947815
31984000,787999,39.8714138,32.7364368,128.24652,285.46576,-92.2403,15.504962,-10.186043,-4.551473,-2.2240283,-2.5537999,-0.45193544,92.38917
32080000,787999,39.8714138,32.7364368,129.72864,284.4672,-92.68741,15.289977,-10.397974,-4.640477,-2.1294925,-1.6631385,-1.3981833,92.83627
32184000,787999,39.8714138,32.7364368,131.31207,283.36667,-93.185974,15.084741,-10.516048,-4.8132443,-1.7050334,-0.53884494,-1.7275167,93.33484
32280000,787999,39.8714138,32.7364368,132.75754,282.34543,-93.66126,14.962783,-10.519681,-4.9727488,-0.86056143,0.5411771,-1.5462626,93.81013
32384000,787999,39.8714138,32.7364368,134.31538,281.24182,-94.19029,14.928633,-10.414287,-5.097522,0.035805743,1.710255,-0.92244047,94.33916
32480000,787999,39.8714138,32.7364368,135.75392,280.23984,-94.68821,14.981328,-10.216848,-5.1742187,1.007126,2.6115088,-0.6713494,94.837074
32584000,787999,39.8714138,32.7364368,137.32278,279.1796,-95.23557,15.126507,-9.893393,-5.23216,1.7534,3.7030804,-0.428942,95.38444
32680000,787999,39.8714138,32.7364368,138.78795,278.23737,-95.74494,15.324426,-9.48602,-5.276075,2.336128,4.814583,-0.4509389,95.89381
32784000,787999,39.8714138,32.7364368,140.4022,277.26312,-96.30126,15.597983,-8.934247,-5.3256226,2.7936897,5.9877496,-0.58667827,96.45013
32880000,787999,39.8714138,32.7364368,141.91803,276.42316,-96.81941,15.889676,-8.322907,-5.3776455,3.2109423,6.8924603,-0.659123,96.96828
32984000,787999,39.8714138,32.7364368,143.59264,275.58344,-97.38557,16.229946,-7.554056,-5.4333572,3.2602124,8.021469,-0.49610618,97.53443
33080000,787999,39.8714138,32.7364368,145.1701,274.88663,-97.91298,16.551067,-6.7523017,-5.4848456,3.3184843,8.798987,-0.47390625,98.061844
33184000,787999,39.8714138,32.7364368,146.91655,274.2213,-98.491104,16.887947,-5.7871685,-5.5351934,2.9619784,9.882329,-0.3430154,98.63997
33288000,787999,39.8714138,32.7364368,148.69032,273.66483,-99.07279,17.086454,-4.718496,-5.5294104,0.93104887,10.576404,0.58960354,99.22166
33384000,787999,39.8714138,32.7364368,150.33553,273.2478,-99.604614,17.11745,-3.7146537,-5.431013,-0.23995559,10.320572,1.5055695,99.75348
33480000,787999,39.8714138,32.7364368,151.9788,272.92844,-100.12269,17.056519,-2.7567718,-5.2492146,-1.0975758,9.69189,2.205027,100.27155
33584000,787999,39.8714138,32.7364368,153.75143,272.67917,-100.66106,16.933998,-1.7912718,-4.9826813,-1.4103816,9.066116,2.8713143,100.80992
33680000,787999,39.8714138,32.7364368,155.37369,272.5395,-101.13098,16.787542,-0.95682704,-4.6935825,-1.6099977,8.488382,3.1751556,101.27985
33784000,787999,39.8714138,32.7364368,157.11584,272.47205,-101.60575,16.608118,-0.11269138,-4.3452473,-1.8002757,7.850885,3.470801,101.754616
33880000,787999,39.8714138,32.7364368,158.7061,272.48898,-102.00935,16.437363,0.61716264,-3.9966295,-1.8200423,7.471775,3.7386522,102.15822
33984000,787999,39.8714138,32.7364368,160.41196,272.5813,-102.40806,16.24401,1.3683379,-3.6038654,-1.966116,7.1574144,3.756128,102.55692
34080000,787999,39.8714138,32.7364368,161.96695,272.73865,-102.74018,16.054348,2.048523,-3.243211,-2.0370648,7.096066,3.7446117,102.889046
34184000,787999,39.8714138,32.7364368,163.63176,272.9799,-103.06108,15.835938,2.7774765,-2.8635123,-2.2173896,7.085846,3.6496937,103.209946
34280000,787999,39.8714138,32.7364368,165.14641,273.2722,-103.32145,15.619833,3.4385571,-2.5189116,-2.2498758,6.963879,3.4767885,103.470314
34384000,787999,39.8714138,32.7364368,166.76598,273.6589,-103.56691,15.372204,4.145153,-2.1520038,-2.4839609,6.7830086,3.544694,103.715775
34480000,787999,39.8714138,32.7364368,168.23573,274.08304,-103.759964,15.127952,4.7851114,-1.8166175,-2.6183276,6.627485,3.5202584,103.90883
34584000,787999,39.8714138,32.7364368,169.79935,274.60712,-103.93347,14.847223,5.4626713,-1.4605578,-2.788261,6.454821,3.4000099,104.08234
34680000,787999,39.8714138,32.7364368,171.21469,275.15527,-104.060814,14.567251,6.0836453,-1.1398293,-3.0291162,6.557069,3.2909617,104.20968
34784000,787999,39.8714138,32.7364368,172.71936,275.8166,-104.16518,14.238792,6.75399,-0.80527943,-3.3699853,6.4602423,3.1379263,104.31404
34880000,787999,39.8714138,32.7364368,174.07559,276.4908,-104.23105,13.906694,7.371585,-0.5108863,-3.58859,6.4620886,2.9734516,104.37991
34984000,787999,39.8714138,32.7364368,175.50797,277.28558,-104.271904,13.512439,8.041055,-0.20880952,-4.003565,6.427755,2.9843638,104.42077
35080000,787999,39.8714138,32.7364368,176.79106,278.08234,-104.28334,13.109865,8.659089,0.05097201,-4.3412366,6.4345684,2.621074,104.432205
35184000,787999,39.8714138,32.7364368,178.13809,279.0127,-104.26771,12.633651,9.328944,0.31439424,-4.8214703,6.493638,2.4182022,104.41657
35280000,787999,39.8714138,32.7364368,179.33469,279.93472,-104.228,12.153944,9.94351,0.5405902,-5.258849,6.2914157,2.3337052,104.37686
35384000,787999,39.8714138,32.7364368,180.57877,281.0005,-104.16158,11.587161,10.604806,0.7642611,-5.724482,6.3519344,2.142784,104.31045
35480000,787999,39.8714138,32.7364368,181.6719,282.04587,-104.082,11.019372,11.204905,0.9527592,-6.081473,6.2197137,1.9537395,104.230865
35584000,787999,39.8714138,32.7364368,182.79337,283.24295,-103.97702,10.356035,11.838942,1.1353518,-6.695299,6.0766463,1.658691,104.125885
35680000,787999,39.8714138,32.7364368,183.76392,284.40668,-103.862946,9.694653,12.408463,1.2818699,-7.0907764,5.797758,1.4755343,104.01181
35784000,787999,39.8714138,32.7364368,184.74265,285.7281,-103.725876,8.931396,13.003142,1.4188025,-7.5895495,5.538523,1.2424374,103.87474
35880000,787999,39.8714138,32.7364368,185.57294,287.00162,-103.58809,8.185113,13.516748,1.5254781,-7.9538903,5.22514,1.1708363,103.73695
35984000,787999,39.8714138,32.7364368,186.39105,288.43753,-103.42734,7.342024,14.032784,1.626356,-8.275483,4.7936826,0.8802572,103.5762
36080000,787999,39.8714138,32.7364368,187.06651,289.8095,-103.27071,6.5435605,14.468744,1.7067163,-8.465636,4.326506,0.82183254,103.41958
36184000,787999,39.8714138,32.7364368,187.71202,291.33997,-103.094154,5.662821,14.892453,1.7790779,-8.637062,3.809708,0.6239218,103.24302
36280000,787999,39.8714138,32.7364368,188.22618,292.78897,-102.92653,4.845735,15.232992,1.8332142,-8.579827,3.2925837,0.6236387,103.07539
36384000,787999,39.8714138,32.7364368,188.69475,294.3945,-102.739525,3.9659014,15.547835,1.880568,-8.434694,2.826331,0.40444076,102.88839
36480000,787999,39.8714138,32.7364368,189.04587,295.90396,-102.56232,3.1656532,15.7905245,1.9180396,-8.314862,2.2528648,0.4305774,102.71118
36584000,787999,39.8714138,32.7364368,189.34103,297.56168,-102.368225,2.3246095,16.002382,1.9467819,-8.025691,1.7468721,0.2813786,102.51709
36680000,787999,39.8714138,32.7364368,189.53738,299.1085,-102.186485,1.576176,16.153662,1.9688532,-7.714506,1.3668102,0.20005274,102.33535
36784000,787999,39.8714138,32.7364368,189.67017,300.80002,-101.98849,0.8004197,16.27724,1.9821583,-7.4131265,0.97937036,0.07085781,102.13735
36880000,787999,39.8714138,32.7364368,189.72249,302.37216,-101.80567,0.122199334,16.35923,1.9838862,-6.9358926,0.63261104,0.04439335,101.95454
36984000,787999,39.8714138,32.7364368,189.70686,304.08368,-101.60599,-0.5687856,16.414753,1.9781702,-6.4579163,0.39179587,-0.13290997,101.75485
37080000,787999,39.8714138,32.7364368,189.6306,305.66916,-101.42184,-1.1629767,16.443277,1.9645178,-5.961353,0.23677593,-0.15368032,101.5707
37184000,787999,39.8714138,32.7364368,189.48582,307.38916,-101.223335,-1.7613889,16.453796,1.9393142,-5.481638,-0.025534507,-0.33837277,101.3722
37280000,787999,39.8714138,32.7364368,189.30002,308.97787,-101.04419,-2.2651734,16.444391,1.8993912,-4.992872,-0.20175755,-0.39911732,101.193054
37384000,787999,39.8714138,32.7364368,189.04562,310.69693,-100.85528,-2.763853,16.418114,1.8455275,-4.5272713,-0.3406276,-0.5450304,101.00414
37480000,787999,39.8714138,32.7364368,188.76787,312.28268,-100.68769,-3.1735504,16.38945,1.7845306,-4.067303,-0.35458243,-0.6300965,100.836555
37584000,787999,39.8714138,32.7364368,188.42378,313.99704,-100.51498,-3.5678744,16.351637,1.7068642,-3.5313275,-0.39507696,-0.71027404,100.66384
37680000,787999,39.8714138,32.7364368,188.07173,315.5789,-100.36284,-3.8859026,16.314594,1.629985,-3.101269,-0.49515006,-0.77368313,100.5117
37784000,787999,39.8714138,32.7364368,187.65825,317.28607,-100.20771,-4.1808157,16.27307,1.5343828,-2.582202,-0.5366179,-0.8974438,100.356575
37880000,787999,39.8714138,32.7364368,187.25452,318.85974,-100.07504,-4.4043136,16.23724,1.4376764,-2.1324115,-0.3950335,-1.0368013,100.22391
37984000,787999,39.8714138,32.7364368,186.79321,320.5595,-99.94292,-4.601092,16.19624,1.3231498,-1.6413913,-0.4182546,-1.1079227,100.09178
38080000,787999,39.8714138,32.7364368,186.3508,322.12903,-99.832115,-4.7430887,16.158457,1.2094672,-1.3508781,-0.5153623,-1.1658146,99.98098
38184000,787999,39.8714138,32.7364368,185.85735,323.82187,-99.724686,-4.8516455,16.123306,1.0839182,-0.8436297,-0.35044187,-1.2057498,99.87355
38280000,787999,39.8714138,32.7364368,185.39629,325.38416,-99.63722,-4.9114776,16.099596,0.971415,-0.53399587,-0.2772925,-1.1854068,99.78609
38384000,787999,39.8714138,32.7364368,184.89044,327.0716,-99.5533,-4.9374957,16.078754,0.86253154,-0.11907954,-0.28340253,-0.9904662,99.70216
38480000,787999,39.8714138,32.7364368,184.42345,328.63287,-99.487564,-4.929628,16.069727,0.7732962,0.25839323,-0.07986385,-0.82051563,99.63643
38584000,787999,39.8714138,32.7364368,183.91849,330.31946,-99.42495,-4.890722,16.06665,0.68901145,0.49762693,-0.03270228,-0.6837584,99.573814
38680000,787999,39.8714138,32.7364368,183.45871,331.88245,-99.3754,-4.826545,16.07355,0.6187206,0.74408877,-0.026054868,-0.58468705,99.52426
38784000,787999,39.8714138,32.7364368,182.96715,333.57138,-99.328545,-4.7319646,16.08732,0.54742044,1.0064197,0.1036455,-0.56266224,99.47741
38880000,787999,39.8714138,32.7364368,182.52287,335.13687,-99.29069,-4.6243596,16.103605,0.48866937,1.1619471,0.13522677,-0.57173795,99.43955
38984000,787999,39.8714138,32.7364368,182.05283,336.82846,-99.25448,-4.488465,16.122063,0.429839,1.3817902,0.14984459,-0.4259413,99.40334
39080000,787999,39.8714138,32.7364368,181.6334,338.40048,-99.22683,-4.348776,16.149103,0.3821064,1.5208546,0.18674988,-0.4848167,99.375694
39184000,787999,39.8714138,32.7364368,181.19385,340.0993,-99.20172,-4.1813617,16.180246,0.33560252,1.5728352,0.28651905,-0.32572353,99.350586
39280000,787999,39.8714138,32.7364368,180.80508,341.67816,-99.18356,-4.0167174,16.211592,0.2955694,1.7524695,0.2216371,-0.3438247,99.33243
39384000,787999,39.8714138,32.7364368,180.40108,343.38443,-99.167435,-3.8288622,16.241755,0.25793418,1.8617772,0.2994069,-0.33232567,99.3163
39480000,787999,39.8714138,32.7364368,180.04726,344.96808,-99.15582,-3.6472175,16.273512,0.22746219,1.856001,0.11482904,-0.21651572,99.30469
39584000,787999,39.8714138,32.7364368,179.68304,346.68045,-99.1458,-3.4428759,16.30082,0.19791532,1.9490696,0.10369827,-0.16010179,99.29466
39680000,787999,39.8714138,32.7364368,179.36658,348.2734,-99.138245,-3.2502582,16.331121,0.1715685,1.9901528,0.22988829,-0.23817922,99.28711
39784000,787999,39.8714138,32.7364368,179.04353,349.99515,-99.132355,-3.0441,16.356594,0.14388683,2.0060737,0.07186965,-0.21538045,99.28122
39880000,787999,39.8714138,32.7364368,178.76495,351.59055,-99.13052,-2.8494804,16.384075,0.11972618,1.941046,0.10083207,-0.23182666,99.27939
39984000,787999,39.8714138,32.7364368,178.48322,353.31613,-99.131035,-2.6443725,16.407791,0.0951995,1.8967557,0.11646355,-0.18660817,99.2799
40088000,787999,39.8714138,32.7364368,178.22311,355.05252,-99.134766,-2.4400656,16.430002,0.07489813,1.8652902,0.04586712,-0.11294893,99.28363
40184000,787999,39.8714138,32.7364368,178.001,356.6517,-99.13885,-2.255307,16.445375,0.05768638,1.8162277,-0.030120825,-0.1930762,99.28771
40280000,787999,39.8714138,32.7364368,177.79633,358.2565,-99.144615,-2.0780938,16.460455,0.04438755,1.7923584,0.038628753,-0.117824405,99.29348
40384000,787999,39.8714138,32.7364368,177.59296,359.99188,-99.15054,-1.892321,16.473396,0.031026538,1.7277092,-0.018149279,-0.06449594,99.29941
40480000,787999,39.8714138,32.7364368,177.42224,361.6002,-99.15526,-1.7282002,16.483128,0.022792995,1.706648,-0.004379049,0.009706243,99.30412
40584000,787999,39.8714138,32.7364368,177.25429,363.33878,-99.16153,-1.5566461,16.488583,0.016020766,1.6228061,-0.051087946,-0.045502555,99.310394
40680000,787999,39.8714138,32.7364368,177.11595,364.9466,-99.16805,-1.4034327,16.491905,0.007298668,1.5075742,-0.10146501,-0.0593923,99.31692
40784000,787999,39.8714138,32.7364368,176.982,366.6854,-99.17683,-1.2465007,16.495068,-0.001016236,1.3878736,-0.1488517,-0.06851367,99.32569
40880000,787999,39.8714138,32.7364368,176.87337,368.29312,-99.18704,-1.108738,16.498539,-0.006598496,1.3792096,-0.122912906,-0.026792286,99.33591
40984000,787999,39.8714138,32.7364368,176.76978,370.03137,-99.19751,-0.9668227,16.498749,-0.013459814,1.333113,-0.12254012,-0.04478078,99.346375
41080000,787999,39.8714138,32.7364368,176.68787,371.63638,-99.207794,-0.845735,16.496119,-0.020671235,1.1871336,-0.108609915,-0.003467314,99.35666
41184000,787999,39.8714138,32.7364368,176.6118,373.3727,-99.21853,-0.7236175,16.493303,-0.026420785,1.0908043,-0.10422784,-0.04555471,99.36739
41280000,787999,39.8714138,32.7364368,176.55264,374.97913,-99.22818,-0.61721665,16.490992,-0.031297464,1.0680345,-0.16482683,0.015087425,99.377045
41384000,787999,39.8714138,32.7364368,176.49924,376.7178,-99.23869,-0.5114625,16.487638,-0.03628992,0.9616458,-0.20867068,0.046235505,99.38756
41480000,787999,39.8714138,32.7364368,176.45924,378.32108,-99.25032,-0.42490995,16.48524,-0.03930298,0.7712602,-0.17858914,-0.002563931,99.399185
41584000,787999,39.8714138,32.7364368,176.4251,380.05582,-99.26336,-0.33396608,16.482553,-0.04545843,0.77706385,-0.14757317,-0.003681518,99.412224
41680000,787999,39.8714138,32.7364368,176.4023,381.65796,-99.27544,-0.26139802,16.480959,-0.04711287,0.71128196,-0.14583872,0.036269423,99.4243
41784000,787999,39.8714138,32.7364368,176.38535,383.39352,-99.28895,-0.18980147,16.479092,-0.046419274,0.5307749,-0.14947492,0.030756926,99.43781
41880000,787999,39.8714138,32.7364368,176.37543,384.99448,-99.30141,-0.13254432,16.472967,-0.048535742,0.5660753,-0.2595743,0.03666244,99.45027
41984000,787999,39.8714138,32.7364368,176.37068,386.7289,-99.31495,-0.07549167,16.466112,-0.050733384,0.3824986,-0.17738292,-0.006417743,99.46381
42080000,787999,39.8714138,32.7364368,176.37148,388.32806,-99.32795,-0.030946277,16.457497,-0.052861825,0.3485314,-0.15207246,0.013811513,99.476814
42184000,787999,39.8714138,32.7364368,176.3777,390.06027,-99.34265,0.010694114,16.45142,-0.05650162,0.3062353,-0.16260515,-0.014589167,99.491516
42280000,787999,39.8714138,32.7364368,176.3863,391.65616,-99.35599,0.043160286,16.442474,-0.055820283,0.23539157,-0.15363555,0.058542933,99.50485
42384000,787999,39.8714138,32.7364368,176.39932,393.38586,-99.36952,0.07352578,16.438423,-0.055532917,0.20038804,-0.14999609,0.035587694,99.51839
42480000,787999,39.8714138,32.7364368,176.41339,394.97958,-99.38147,0.0973676,16.430862,-0.0566898,0.15787421,-0.11252742,0.03459211,99.530334
42584000,787999,39.8714138,32.7364368,176.43166,396.70636,-99.39409,0.11646124,16.422216,-0.060643565,0.0946809,-0.23262967,-0.009187496,99.54295
42680000,787999,39.8714138,32.7364368,176.44896,398.29575,-99.40391,0.12849961,16.412392,-0.059946988,0.15218793,-0.19590421,0.08813757,99.55277
42784000,787999,39.8714138,32.7364368,176.4695,400.01746,-99.41437,0.13950379,16.40365,-0.057102595,0.003564346,-0.15634649,0.028341075,99.56323
42880000,787999,39.8714138,32.7364368,176.48845,401.60458,-99.42481,0.14519903,16.395271,-0.053488277,0.09600918,-0.17481937,0.075496726,99.57368
42984000,787999,39.8714138,32.7364368,176.51042,403.32782,-99.4372,0.15117487,16.387566,-0.052469112,0.026186666,-0.12066296,-0.006970949,99.58607
43080000,787999,39.8714138,32.7364368,176.5299,404.9134,-99.4491,0.15193272,16.378065,-0.05442219,0.002060606,-0.19704452,-0.025490297,99.59796
43184000,787999,39.8714138,32.7364368,176.55214,406.631,-99.46273,0.15187322,16.368748,-0.054709416,-0.09945318,-0.0666836,0.048211772,99.611595
43280000,787999,39.8714138,32.7364368,176.5715,408.2132,-99.47537,0.15041958,16.36249,-0.05667293,-0.00724379,-0.1077314,0.020060686,99.62424
43384000,787999,39.8714138,32.7364368,176.59378,409.93204,-99.4899,0.14413565,16.353085,-0.058114607,-0.16200516,-0.17976484,-0.03749318,99.63876
43480000,787999,39.8714138,32.7364368,176.61212,411.51312,-99.502785,0.13715743,16.345549,-0.05611139,-0.18257701,-0.05489829,0.09366962,99.65165
43584000,787999,39.8714138,32.7364368,176.63335,413.22888,-99.515366,0.12841067,16.337809,-0.052323222,-0.07771572,-0.073075,0.08463859,99.66423
43688000,787999,39.8714138,32.7364368,176.65204,414.9399,-99.526054,0.12031345,16.332079,-0.050515067,-0.14292544,-0.08904587,-0.019399447,99.67492
43784000,787999,39.8714138,32.7364368,176.66933,416.52237,-99.53636,0.11092785,16.328285,-0.048751704,-0.17545234,-0.06412083,0.04447251,99.68523
43880000,787999,39.8714138,32.7364368,176.68382,418.0996,-99.54611,0.10057789,16.321747,-0.04587745,-0.10179512,-0.08377927,0.002254732,99.69498
43984000,787999,39.8714138,32.7364368,176.70128,419.81122,-99.55566,0.089870915,16.313797,-0.04319067,-0.104055256,-0.23160024,0.02811942,99.70452
44080000,787999,39.8714138,32.7364368,176.71422,421.38577,-99.56371,0.078991346,16.305828,-0.039543882,-0.14311358,-0.032251406,-0.05813874,99.71258
44184000,787999,39.8714138,32.7364368,176.72905,423.0948,-99.5724,0.068507746,16.298098,-0.036700763,-0.17695157,-0.14971246,0.052390616,99.72127
44280000,787999,39.8714138,32.7364368,176.73964,424.66733,-99.57997,0.057068173,16.293331,-0.034923665,-0.17153116,-0.03168787,-0.012987292,99.728836
44384000,787999,39.8714138,32.7364368,176.75237,426.3724,-99.58823,0.048741765,16.286642,-0.030824387,-0.18997137,-0.11926855,0.054687258,99.73709
44480000,787999,39.8714138,32.7364368,176.76126,427.94205,-99.59496,0.03710166,16.276384,-0.024953406,-0.11221062,-0.13256185,0.045180317,99.74383
44584000,787999,39.8714138,32.7364368,176.771,429.6472,-99.60184,0.024213526,16.269024,-0.022098422,-0.14452283,-0.13859354,-0.016766598,99.7507
44680000,787999,39.8714138,32.7364368,176.77718,431.21692,-99.60794,0.011607066,16.261578,-0.018251175,-0.07922566,-0.10486098,0.06281584,99.756805
44784000,787999,39.8714138,32.7364368,176.78474,432.9181,-99.61354,-0.001183929,16.252754,-0.016004005,-0.17486526,-0.051187117,0.029825604,99.762405
44880000,787999,39.8714138,32.7364368,176.78905,434.4846,-99.619255,-0.014058185,16.241373,-0.014368338,-0.19189256,-0.24510278,0.1000259,99.76812
44984000,787999,39.8714138,32.7364368,176.7945,436.1851,-99.625015,-0.025991214,16.22914,-0.011700721,-0.14607728,-0.1260564,0.06825569,99.77388
45080000,787999,39.8714138,32.7364368,176.79688,437.7509,-99.62897,-0.038278587,16.220533,-0.010868253,-0.15319955,-0.09811695,0.016998498,99.77783
45184000,787999,39.8714138,32.7364368,176.79901,439.44858,-99.63402,-0.049114827,16.212364,-0.007893828,-0.0624349,-0.13305645,0.06709433,99.78288
45280000,787999,39.8714138,32.7364368,176.79875,441.0126,-99.63962,-0.06067503,16.205465,-0.0046703,-0.06344519,-0.06682411,0.037073154,99.78848
45384000,787999,39.8714138,32.7364368,176.79924,442.70837,-99.64642,-0.073263705,16.200083,-0.000741461,-0.19883436,-0.037985474,0.0664303,99.79529
45480000,787999,39.8714138,32.7364368,176.79729,444.271,-99.65209,-0.08422426,16.19499,0.002675301,-0.1309256,-0.07445692,-0.025250947,99.80096
45584000,787999,39.8714138,32.7364368,176.79555,445.9657,-99.657585,-0.09354305,16.192612,0.00508611,-0.0771631,0.00487786,-0.011755153,99.80645
45680000,787999,39.8714138,32.7364368,176.79216,447.5281,-99.66211,-0.10159752,16.187769,0.007116551,-0.02029009,-0.04380589,0.035341825,99.810974
45784000,787999,39.8714138,32.7364368,176.78926,449.2219,-99.66626,-0.106661126,16.183502,0.00956741,-0.08816619,-0.01681558,0.026206484,99.815125
45880000,787999,39.8714138,32.7364368,176.78519,450.7834,-99.66973,-0.11419117,16.178421,0.012472108,-0.066619776,-0.037648335,0.09884219,99.818596
45984000,787999,39.8714138,32.7364368,176.78041,452.47437,-99.67228,-0.12117603,16.173033,0.016911173,-0.080451615,-0.10094308,-0.015313736,99.821144
46080000,787999,39.8714138,32.7364368,176.77472,454.03348,-99.67513,-0.12830375,16.166346,0.017563697,-0.09243768,-0.21580733,0.014638527,99.824
46184000,787999,39.8714138,32.7364368,176.76868,455.72467,-99.678734,-0.13393028,16.156816,0.01761115,-0.16487034,-0.10527805,0.04464108,99.8276
46280000,787999,39.8714138,32.7364368,176.7618,457.28455,-99.68177,-0.14054734,16.14861,0.016400177,-0.056538016,-0.0692704,-0.027729196,99.830635
46384000,787999,39.8714138,32.7364368,176.75415,458.97305,-99.684555,-0.14685833,16.144312,0.01737061,-0.13473853,-0.10932271,0.008827074,99.83342
46480000,787999,39.8714138,32.7364368,176.74632,460.5303,-99.68748,-0.1518716,16.139202,0.020710213,-0.065547146,-0.08412936,0.042852942,99.83634
46584000,787999,39.8714138,32.7364368,176.73824,462.21838,-99.69156,-0.15392795,16.132998,0.021118479,-0.07264181,-0.16505545,0.009361654,99.84042
46680000,787999,39.8714138,32.7364368,176.73027,463.7759,-99.69561,-0.15565789,16.127563,0.020460736,-0.042379808,-0.083090454,-0.021074897,99.844475
46784000,787999,39.8714138,32.7364368,176.7214,465.46237,-99.700516,-0.15709037,16.120039,0.018239357,-0.078329615,-0.12971601,0.02662558,99.84938
46880000,787999,39.8714138,32.7364368,176.7129,467.0184,-99.704315,-0.15988168,16.11306,0.017417204,-0.047814876,-0.06875305,0.059644688,99.85318
46984000,787999,39.8714138,32.7364368,176.70372,468.7026,-99.7094,-0.1596614,16.105257,0.018483697,0.015611519,-0.081814416,-0.00014808,99.85826
47080000,787999,39.8714138,32.7364368,176.69525,470.2561,-99.71363,-0.15871823,16.098608,0.021023618,0.043111224,-0.14866382,0.082643695,99.862495
47184000,787999,39.8714138,32.7364368,176.68633,471.9374,-99.71711,-0.15168303,16.088383,0.021619644,-0.039284952,-0.15700048,-0.028962268,99.865974
47288000,787999,39.8714138,32.7364368,176.67883,473.61786,-99.72035,-0.14563562,16.08036,0.020385925,0.054855376,-0.086070016,0.030159948,99.86922
47384000,787999,39.8714138,32.7364368,176.67224,475.1686,-99.72301,-0.13843241,16.075735,0.02252306,0.006319613,-0.114399046,-0.0793822,99.87187
47480000,787999,39.8714138,32.7364368,176.66658,476.72018,-99.72662,-0.13140766,16.071169,0.022470428,0.0285617,-0.0654812,0.049863007,99.87549
47584000,787999,39.8714138,32.7364368,176.66054,478.39893,-99.73013,-0.12229386,16.067854,0.023326559,-0.010218063,-0.02912615,0.036060806,99.879
47680000,787999,39.8714138,32.7364368,176.65703,479.94894,-99.733574,-0.11119708,16.065863,0.022301085,0.061969437,-0.09607466,0.057438385,99.88244
47784000,787999,39.8714138,32.7364368,176.6541,481.62726,-99.73629,-0.09866119,16.060244,0.022715893,0.07166624,-0.13495608,-0.027361324,99.885155
47888000,787999,39.8714138,32.7364368,176.65382,483.30725,-99.73898,-0.0874581,16.057669,0.021599332,0.05636433,-0.010541087,-0.03621727,99.88785
47984000,787999,39.8714138,32.7364368,176.6534,484.85547,-99.74219,-0.07841692,16.05438,0.018159412,-0.023316983,-0.13962905,-0.08230097,99.89105
48080000,787999,39.8714138,32.7364368,176.65553,486.40375,-99.74504,-0.066826254,16.050955,0.017126912,0.041815434,-0.077602185,-0.026490537,99.893906
48184000,787999,39.8714138,32.7364368,176.65742,488.0796,-99.7495,-0.058189064,16.044945,0.015106923,0.1220106,-0.11432297,-0.010051764,99.89836
48288000,787999,39.8714138,32.7364368,176.66176,489.75726,-99.7543,-0.04740688,16.039774,0.014932458,0.10305769,-0.028928244,0.04530791,99.90317
48384000,787999,39.8714138,32.7364368,176.6649,491.30334,-99.75844,-0.040347755,16.033306,0.016268173,0.008672282,-0.17342503,0.099585384,99.9073
48480000,787999,39.8714138,32.7364368,176.66998,492.84985,-99.764084,-0.0329564,16.025974,0.014194719,0.070864916,-0.11739025,0.03440864,99.91295
48584000,787999,39.8714138,32.7364368,176.67459,494.52255,-99.76951,-0.025568265,16.017405,0.011418448,0.076920345,-0.11758559,-0.019212252,99.91837
48680000,787999,39.8714138,32.7364368,176.68124,496.0684,-99.77564,-0.017560603,16.01214,0.007181063,0.000178274,-0.0642357,0.026229767,99.92451
48784000,787999,39.8714138,32.7364368,176.68683,497.73978,-99.78108,-0.008897792,16.003038,0.004059306,0.120940425,-0.12225069,-0.007016584,99.92995
48880000,787999,39.8714138,32.7364368,176.69473,499.28394,-99.785286,-0.00381718,15.999905,0.004099878,0.002772401,-0.07635785,0.09615905,99.93415
48984000,787999,39.8714138,32.7364368,176.70143,500.95377,-99.79062,0.002275319,15.994117,0.005537885,0.018761437,-0.14043131,-0.013095326,99.93948
49080000,787999,39.8714138,32.7364368,176.71078,502.49677,-99.7965,0.008743536,15.988876,0.007257735,0.051305603,-0.0721821,0.087270506,99.945366
49184000,787999,39.8714138,32.7364368,176.71866,504.1649,-99.80141,0.01239353,15.980894,0.012327632,0.032953847,-0.038642697,0.028228385,99.95027
49280000,787999,39.8714138,32.7364368,176.72862,505.705,-99.805664,0.01594995,15.978791,0.012792336,-0.06802855,-0.03452369,0.009008682,99.95453
49384000,787999,39.8714138,32.7364368,176.73701,507.3706,-99.80926,0.019063078,15.975119,0.010562351,-0.008264912,-0.027993867,-0.03497209,99.95812
49480000,787999,39.8714138,32.7364368,176.74686,508.9123,-99.812325,0.020241585,15.969986,0.008889595,-0.023053603,0.000465516,-0.06073061,99.96119
49584000,787999,39.8714138,32.7364368,176.75514,510.57904,-99.816826,0.017731948,15.96572,0.010729933,-0.01835364,-0.12156134,0.0660587,99.96569
49680000,787999,39.8714138,32.7364368,176.76416,512.11847,-99.82238,0.016121957,15.963492,0.01080729,-0.15575296,0.03207498,0.0907015,99.971245
49784000,787999,39.8714138,32.7364368,176.77145,513.7836,-99.82752,0.011687426,15.961832,0.012432566,-0.09764518,-0.046716448,0.005621463,99.97639
49880000,787999,39.8714138,32.7364368,176.77904,515.32056,-99.83309,0.006331953,15.84733,0.018606978,-0.15035765,-1.5325949,0.17283763,99.98196
49984000,787999,39.8714138,32.7364368,176.78442,516.96765,-99.83617,-0.009663941,15.693885,0.07204517,-0.27721,-1.3035878,0.9920792,99.98503
50080000,787999,39.8714138,32.7364368,176.78883,518.48706,-99.830536,-0.046445895,15.918906,0.18620953,-0.612661,5.515986,1.2431219,99.9794
50184000,787999,39.8714138,32.7364368,176.78558,520.1827,-99.81327,-0.14019597,16.567343,0.28480214,-1.3399178,5.848104,0.5064243,99.962135
50280000,787999,39.8714138,32.7364368,176.77254,521.8046,-99.7939,-0.3114571,17.058107,0.25639763,-2.4678333,4.391479,-1.0071601,99.942764
50384000,787999,39.8714138,32.7364368,176.73123,523.60455,-99.78389,-0.6324104,17.430508,0.072424896,-3.6271338,2.89842,-2.1402407,99.932755
50480000,787999,39.8714138,32.7364368,176.6592,525.2946,-99.79627,-1.0338881,17.650507,-0.14205022,-4.6380634,1.796045,-1.9969715,99.94514
50584000,787999,39.8714138,32.7364368,176.53168,527.1427,-99.8303,-1.5524622,17.788662,-0.33339354,-5.331794,0.92126644,-1.5010759,99.979164
50680000,787999,39.8714138,32.7364368,176.36534,528.8589,-99.87599,-2.0874124,17.848963,-0.45295724,-5.8570504,0.29117262,-1.0765147,100.02486
50784000,787999,39.8714138,32.7364368,176.12282,530.71985,-99.9363,-2.728646,17.84509,-0.55018747,-6.520759,-0.28384838,-0.82128304,100.08517
50880000,787999,39.8714138,32.7364368,175.83801,532.433,-100.00172,-3.3788867,17.781813,-0.6302129,-7.1134048,-0.95219636,-0.75845325,100.15058
50984000,787999,39.8714138,32.7364368,175.45503,534.2779,-100.08164,-4.1383495,17.65003,-0.7112489,-7.5480323,-1.4576378,-0.6946725,100.23051
