timestamp,control[0],control[1],control[2],control[3],control[4],output[2],output[3],output[4],output[5],output[6],output[7],indicated_airspeed_m_s,true_airspeed_m_s,indicated_airspeed_m_s.1,equivalent_airspeed_m_s,true_airspeed_m_s.1,equivalent_ground_minus_wind_m_s,true_ground_minus_wind_m_s,differential_pressure_raw_pa,differential_pressure_filtered_pa,temperature,gyro_bias[0],gyro_bias[1],gyro_bias[2],accel_bias[0],accel_bias[1],accel_bias[2],instance_count,seq_reached,seq_current,seq_total,item_changed_index,item_do_jump_remaining,valid,warning,finished,failure,stay_in_failsafe,flight_termination,item_do_jump_changed,execution_mode,nav_roll,nav_pitch,nav_bearing,target_bearing,xtrack_error,wp_dist,acceptance_radius,rollspeed_integ,pitchspeed_integ,yawspeed_integ,additional_integ1,x,y,z,temperature.1,pressure,temperature.2,gyro_rad[0],gyro_rad[1],gyro_rad[2],accelerometer_m_s2[0],accelerometer_m_s2[1],accelerometer_m_s2[2],x.1,y.1,z.1,temperature.3,altitude_sp,altitude_filtered,height_rate_setpoint,height_rate,airspeed_sp,airspeed_filtered,airspeed_derivative_sp,airspeed_derivative,throttle_integ,pitch_integ,baro_alt_meter,baro_temp_celcius,baro_pressure_pa,rho,xyz[0],xyz[1],xyz[2],xyz[0].1,xyz[1].1,xyz[2].1,roll_body,pitch_body,yaw_body,q_d[0],q_d[1],q_d[2],q_d[3],thrust_body[0],lat,lon,alt,vel_m_s,vel_n_m_s,vel_e_m_s,vel_d_m_s,cog_rad,ground_contact,maybe_landed,landed,ref_timestamp,ref_lat,ref_lon,x.2,y.2,z.2,vx,vy,vz,ax,ay,az,dist_bottom,roll,pitch,yaw,thrust_body[0].1,timestamp.1,isTakeoff,isClimbing,isDescending,isCruise,isLand
7500000.0,0.023378626,0.027724773,0.000216812,0.0,0.49,900.0,900.0,900.0,900.0,900.0,900.0,1.7725104,1.8071663,-1.0221819,-1.0221819,-1.0421511,0.08491505,0.08657395,-0.15905681,-0.15905681,12.404602,-0.000791968,-0.00399999,-0.001867852,0.036838576,-0.009466048,-0.07652218,2.0,-1.0,0.0,11.0,0.0,0.0,1.0,0.0,0.0,0.0,0.0,0.0,0.0,0.0,0.002834744,0.0,1.7401497,1.6260537,-0.032562256,,0.28647888,4.23e-06,1.05e-05,-5.070000000000001e-07,0.0,-0.10107357,0.19310585,-9.919783,82382296.0,966.17255,12.404602,-0.001038678,-0.012786375,-0.001475778,-0.14188766,0.19667032,-9.858751,-0.000989452,-0.005441397,0.006467675,82382296.0,-0.054444425,-0.06644443,0.40060008,-0.2974219,13.253991,22.280006,-0.1805203,16.200602,0.10999999,-21.483692,399.5314,12.404602,96617.26,1.1479728,0.09395741,-0.7344147,-0.40362144,0.003322635,0.000675667,0.004091677,0.002200921,0.0,1.6441618999999998,0.6806978,0.0007490810000000001,0.0008061580000000001,0.7325635,0.15,398714138.0,327364372.0,400121.0,0.0,0.01,-0.01,0.0,5.521349,0.0,0.0,1.0,756000.0,39.87141370000001,32.7364371,-1.89e-06,4.53e-07,-1.78e-06,-0.00034735,5.65e-05,-0.0008527039999999999,-0.038336597,-4.650000000000001e-05,-0.21061672,0.1,0.034590375,0.037087854,-0.0015121420000000002,0.15,7500000.0,1.0,0.0,0.0,0.0,0.0
7552423.0,0.027371816749498998,0.027595949396793586,-0.002284924162324649,0.15,0.3589429194809619,900.0,900.0,900.0,900.0,900.0,900.0,-0.9953568868877755,-1.014803255975952,0.0025254844428858614,0.002399337731463058,0.0024580822625250853,1.0598041876152304,1.0805203845310623,11.65770349229459,11.65770349229459,12.404595838316633,-0.0008023424849699399,-0.004047105517034068,-0.0018308940681362725,0.03673784517434869,-0.009405971759519039,-0.07750367775951904,2.0,-1.0,0.0,11.0,0.0,0.0,1.0,0.0,0.0,0.0,0.0,0.0,0.0,0.0,0.002653823390781563,0.0,1.6906514008256512,1.6259103604629257,-0.018677268885771543,,0.28647888,3.988877755511022e-06,1.092813627254509e-05,-1.422364729458918e-06,0.0,-0.05659427516032064,0.1365405059458918,-9.935861821226453,82382296.0,966.165867418036,12.404602,-0.0004614324068136274,-0.007869658793587173,0.0037733726793587182,-0.08559152991382767,0.20555149369338682,-9.935563433837675,-0.002473781448897796,-0.009363666468937876,0.0011309611282565126,82382296.0,-0.0542537809478958,-0.06625378494789579,0.40060008,-0.2611463904488978,13.253999503406813,22.920400320741486,-0.19332801143486975,15.358045154509018,0.10999999,-23.131227658036075,399.6343345573146,12.404602,96616.07787791584,1.1479588634168336,-0.10519416850100194,0.3505509575430862,0.16054445206212423,0.0027421560821643287,0.0004023713466933873,0.0026557200801603205,0.002194010925851703,0.0,1.6093368203507015,0.6933105388877756,0.0007601510280561123,0.000790852749498998,0.7205592838476954,0.15,398714138.0,327364372.0,400119.50416472944,0.0,0.00750694030260521,-0.00750694030260521,-0.0024930596973947896,4.490590859985972,0.0,0.0,0.9489693527014028,756000.0,39.87141370000001,32.7364371,3.9521242484969946e-05,6.297975951903808e-05,-0.0178935514749499,0.00031172647494989985,0.001102635609218437,-0.009875678270541083,-0.013599268476953906,0.020215679501002004,-0.18400748637474948,0.1,0.03442683981763527,0.03675160390581162,-0.0012769218096192385,0.15,7552422.7615230465,1.0,0.0,0.0,0.0,0.0
7605821.0,0.02878940405811623,0.0270874612745491,-0.0018276541042084168,0.15,0.22544772054909817,900.0,900.0,900.0,900.0,900.0,900.0,-1.2671023566513027,-1.2918645510941884,1.0272328692284571,1.0269805758056114,1.0470672641823648,2.034693325230461,2.074466818719439,23.474463793246496,23.474463793246496,12.40458968006012,-0.0008127173126252505,-0.004094221034068137,-0.0017939361362725452,0.03663711434869739,-0.009345895861723448,-0.07848517486172345,2.0,-1.0,0.0,11.0,0.0,0.0,1.0,0.0,0.0,0.0,0.0,0.0,0.0,0.0,0.0024729034388777556,0.0,1.6411531016513026,1.6257670209258517,-0.004792281771543084,,0.28647888,4.334048096192384e-06,1.0180681362725451e-05,-2.7827655310621246e-06,0.0,-0.029637395006012025,0.09840949379759519,-9.936879173328657,82382296.0,966.1603817088177,12.404602,-0.00393200193987976,-0.008437609154308618,0.0011658126472945882,-0.114539878501002,0.19122769467535072,-9.923458268851704,-0.003711601478957916,-0.01179203068737475,-0.0029339156392785577,82382296.0,-0.05406313655310621,-0.06606313989579159,0.40060008,-0.2248708815551102,13.254008006813626,23.56079464490982,-0.20613572252705412,14.515488312444889,0.10999999,-24.778763319499,399.5585630196393,12.404602,96616.94838567135,1.147969148759519,0.010272828098196296,-0.04897331962925853,0.19403734000400807,-0.0006823262484969947,0.00331777550501002,0.004291005040080162,0.001987859613226453,0.0,1.5716466656272545,0.7067549927134268,0.0007016528356713428,0.0007038736392785571,0.7073562317114228,0.15,398714138.0,327364372.0,400118.00829519035,0.0,0.00501388026252505,-0.00501388026252505,-0.00498611973747495,3.459832719971944,0.0,0.0,0.897938705745491,756000.0,39.87141370000001,32.7364371,0.0001075038236472946,0.0001493523366733467,-0.03415567665531062,0.0011806651062124252,0.002314146320641283,-0.01926802260921844,-0.0006782142304609217,0.03653992846893788,-0.1574912571963928,0.1,0.0341482688496994,0.03634864178156313,-0.0011014717194388777,0.15,7605821.2184368735,1.0,0.0,0.0,0.0,0.0
7657316.0,0.026523258521042082,0.026917299248496996,-0.0015438291783567133,0.15,0.09670936202605206,900.0,900.0,900.0,900.0,900.0,900.0,-0.6171672515010016,-0.6292212562525044,2.0519402533426856,2.0515618132084175,2.0916764467735476,3.009582462845692,3.068413252593187,35.29122409486974,35.29122409486974,12.40458351509018,-0.0008230924549098197,-0.0041413365511022045,-0.0017569782044088175,0.0365363835230461,-0.009285820278557115,-0.07946667227855711,2.0,-1.0,0.0,11.0,0.0,0.0,1.0,0.0,0.0,0.0,0.0,0.0,0.0,0.0,0.0022919831723446893,0.0,1.591654801490982,1.6256236813887777,0.009092705342685376,,0.28647888,4.291963927855711e-06,1.0498597194388777e-05,-3.7181162324649157e-07,0.0,-0.06248089226252506,0.12319104719038079,-9.886494842791583,82382296.0,966.1589803925851,12.404602,0.00011581860521042361,-0.008532829527054107,-0.002583910000000001,-0.1276551024689379,0.22140163923246495,-9.935657381316634,-0.004108134649298597,-0.009122005238476952,-0.0026582753747494987,82382296.0,-0.05387249184368738,-0.06587249484368739,0.40060008,-0.18859537234669335,13.25401651022044,24.20118896236473,-0.21894343429058116,13.672931473527052,0.10999999,-26.426298984108218,399.55693955851706,12.404602,96616.97064663326,1.1479694619799599,0.25494048302004035,-0.33760559395992,-0.23858628560921874,0.001008171857715433,0.0015874795070140268,-0.0007867143627254547,0.0014242246693386771,0.0,1.4831023378737473,0.7373635256152304,0.0005245133386773546,0.0004815710601202404,0.6753793279098196,0.15,398714138.0,327364372.0,400116.5124927856,0.0,0.002520820893787574,-0.002520820893787574,-0.007479179106212425,2.4290745799579154,0.0,0.0,0.8469080591042084,756000.0,39.87141370000001,32.7364371,0.00024980182565130266,0.00030215904408817645,-0.04586716643286574,0.002635624531062125,0.003987451348697395,-0.029691796523046102,-0.020752992545090193,0.041867876957915835,-0.13123473276753506,0.1,0.033519344983967934,0.035931480196392786,-0.0006980782945891783,0.15,7657315.9659318635,1.0,0.0,0.0,0.0,0.0
7711174.0,0.027148774511022048,0.02541539897995992,-0.0013067141603206414,0.15,0.0,900.0,900.0,900.0,900.0,900.0,900.0,-0.11934507046092113,-0.12167473786172278,3.0766476377715435,3.076143050925852,3.13628562836473,3.984471601460922,4.062359687124249,47.10798439963928,47.10798439963928,12.40457736012024,-0.0008334669398797595,-0.004188453068136273,-0.0017200212725450902,0.036435652697394794,-0.009225744038076153,-0.08044817003807615,2.0,-1.0,0.0,11.0,0.0,0.0,1.0,0.0,0.0,0.0,0.0,0.0,0.0,0.0,0.002111062563126252,0.0,1.5421565023026051,1.6254803415370742,0.022977691456913835,,0.28647888,3.987755511022044e-06,9.47064128256513e-06,-1.0135310621242478e-06,0.0,-0.0913530412024048,0.15739926696993986,-9.833449385885771,82382296.0,966.1597891418837,12.404602,-0.0006553514689378792,0.0007797756252504976,0.0012971847014028044,-0.15239308167134263,0.1449270431162325,-9.918989617092183,-0.004156359354709419,-0.006006302911823648,-0.001717573482965932,82382296.0,-0.050413289961923846,-0.06241329164729458,0.40060007496593186,-0.13007968264729455,13.254018783967938,24.784554430480963,-0.23061069453707417,12.834516866953908,0.10999999,-28.164449098797597,399.6678851248497,12.404602,96615.69122667334,1.1479543008717434,-0.31023546560921833,-0.08674910773346707,-0.185075110234469,0.0004283168376753512,0.0016729024609218493,-0.00018911285370741397,0.0009855022965931863,0.0,1.388447213507014,0.7684922331182364,0.0003781479899799599,0.0003158702144288577,0.639740489503006,0.15,398714138.0,327364372.0,400115.4917490982,0.0,0.0004236441042084166,-0.0008195269979959924,-0.009180473002004008,1.7071001184048098,0.0,0.0,0.7958774118056112,756000.0,39.87141370000001,32.7364371,0.0004302676873747496,0.0005200403907815633,-0.056250709713426855,0.004236580106212425,0.005965678428857716,-0.040105919555110225,-0.027466838186372727,0.0396892068276553,-0.11351839100200402,0.1,0.03282649399398798,0.03522886150300601,-0.00020898533066132256,0.15,7711174.326653306,1.0,0.0,0.0,0.0,0.0
7756969.0,0.028702674831663326,0.02582646116232465,-0.0015184501262525052,0.15,0.0,900.0,900.0,900.0,900.0,900.0,900.0,1.0977545754729459,1.1192115265791585,4.101355022571143,4.100724289014028,4.180894810312625,4.9593607390761525,5.056306121298597,58.924744708116236,58.924744708116236,12.4045711951503,-0.0008438417815631262,-0.0042355685851703405,-0.0016830633406813627,0.03633492187174349,-0.009165668154308618,-0.0814296677975952,2.0,-1.0,0.0,11.0,0.0,0.0,1.0,0.0,0.0,0.0,0.0,0.0,0.0,0.0,0.0019301425971943887,0.0,1.4926582031282565,1.625337001314629,0.03686267857114229,,0.28647888,3.819118236472946e-06,9.061823647294589e-06,9.105240480961915e-08,0.0,-0.049225150679358703,0.16902490450901803,-9.818163251164329,82382296.0,966.1652530773547,12.404602,-0.00597232126252505,-0.0057168549498998,0.0005774670921843695,-0.0662830406232465,0.1595472915190381,-9.946332382561122,-0.003655228527054108,-0.005939736092184369,-0.0022786387194388778,82382296.0,-0.0333830343767535,-0.045383035376753506,0.4006000498476954,0.02077723388376758,13.253995190380762,25.131136073767536,-0.23754280507014028,12.013300839519038,0.10999999,-30.27883043963928,399.63375758837674,12.404602,96616.0743178958,1.1479587512184368,-0.17153296905210422,-0.06631395878356702,-0.0413736936753506,-0.002890128881763529,0.00537088568336673,0.0024003593907815637,0.000647999254509018,0.0,1.3213889531062124,0.7895095111943888,0.000255409128256513,0.00019931361923847696,0.613621044488978,0.15,398714138.0,327364372.0,400116.479212024,0.0,0.0,-0.0024652988436873755,-0.007534701156312625,2.2904607925671345,0.0,0.0,0.7448467648637275,756000.0,39.87141370000001,32.7364371,0.0006850262264529058,0.0009097729579158317,-0.06552739876352706,0.005894834813627255,0.008636087871743487,-0.04971236764328657,0.0361347482965932,0.02019067062324649,-0.12470907496593185,0.1,0.03229421162925852,0.034669389585170345,0.00010688083366733474,0.15,7756968.51503006,1.0,0.0,0.0,0.0,0.0
7802762.0,0.026032366192384766,0.025533033941883766,-0.000661580250501001,0.15,0.0,900.0,900.0,900.0,900.0,900.0,900.0,1.0717468738817635,1.0926848143587173,5.126062406685371,5.125305526416835,5.225503992547095,5.934249876691384,6.050252556158318,70.74150500973948,70.74150500973948,12.404565030180361,-0.0008542159378757514,-0.004282684102204409,-0.0016461054088176353,0.03623419201803607,-0.00910559158517034,-0.08241116458517034,2.0,-1.0,0.0,11.0,0.0,0.0,1.0,0.0,0.0,0.0,0.0,0.0,0.0,0.0,0.0017492223446893787,0.0,1.4431599039539078,1.625193661777555,0.05074766568537075,,0.28647888,3.7383166332665333e-06,8.524969939879758e-06,-1.5260879759519056e-06,0.0,-0.011178733152304582,0.17866751405010023,-9.819703511827655,82382296.0,966.1706375136272,12.404602,0.0008367171202404884,-0.005295332324649298,-0.0015671877735470973,-0.04843117689579157,0.17964964737875755,-9.92261574891984,-0.0028791229198396784,-0.006192843126252505,-0.002780743166332666,82382296.0,-0.013117395052104191,-0.025117396052104193,0.4006000196452906,0.19364859828857728,13.253965428456915,25.421267690521045,-0.24334604008416832,11.196185011142285,0.10999999,-32.482906533286574,399.51195856573145,12.404602,96617.50561400801,1.147975840787575,-0.1245192031402805,-0.40999610257715485,-0.12881170742084194,-0.0025324253306613195,0.00043378902204408614,0.002148496725450901,0.0008188009819639281,0.0,1.3035322,0.795013618486974,0.0003254793486973949,0.0002483395310621243,0.6065914000000001,0.15,398714138.0,327364372.0,400117.9750144289,0.0,0.0,-0.004958358212424852,-0.005041641787575148,3.2042584312525055,0.0,0.0,0.6938161182084168,756000.0,39.87141370000001,32.7364371,0.0010018501603206416,0.0013902867895791587,-0.07459366962124249,0.007605215058116234,0.011085265182364731,-0.05925607835671343,0.07360068504809622,0.012136818014028052,-0.1358278102965932,0.10006703691382766,0.03248130272144288,0.03401676824649299,-0.0001256735891783571,0.15,7802762.018036072,1.0,0.0,0.0,0.0,0.0
7848556.0,0.027092014985971948,0.024910838338677355,-0.0006228514148296592,0.15,0.0,900.0,900.0,900.0,900.0,900.0,900.0,-1.2927538894148296,-1.3180032348456914,6.150769791100202,6.14988676412024,6.270113174837676,6.909139014306613,7.044198990018037,82.55826531136273,82.55826531136273,12.404558875210421,-0.0008645910941883767,-0.004329799619238477,-0.0016091474769539078,0.03613346122044088,-0.009045516016032065,-0.08339266231663328,2.0,-1.0,0.0,11.0,0.0,0.0,1.0,0.0,0.0,0.0,0.0,0.0,0.0,0.0,0.0015683017354709418,0.0,1.393661604478958,1.625050322240481,0.0646326527995992,,0.28647888,3.6413426853707416e-06,8.950501002004008e-06,-1.6745490981963927e-06,0.0,-0.09510836490581163,0.2022157466733467,-9.900482386448898,82382296.0,966.1694511521042,12.404602,-0.004136929354709419,-0.006471435711422845,-0.00272047695991984,-0.07363752812024048,0.19509047564529058,-9.905707447066131,-0.0007213166833667334,-0.004962265895791583,-0.0009104619659318636,82382296.0,0.007148243272545092,-0.0048517567274549075,0.40059999008617236,0.3665199636372745,13.253935666533065,25.711399297274546,-0.2491492750981964,10.379069175430862,0.10999999,-34.68698261749499,399.5066183206413,12.404602,96617.57703765531,1.1479767318897796,-0.4510813578857715,-0.08294794528456906,0.2738341924228457,0.00032983646292585153,0.005723855847695391,0.0022142977454909815,0.0010353656472945891,0.0,1.28915988747495,0.7992995010020041,0.00041303565731462923,0.000312043250501002,0.6008233978156313,0.15,398714138.0,327364372.0,400119.4708468938,0.0,0.0,-0.007451417881763527,-0.002548582118236473,4.1180560699939885,0.0,0.0,0.6427854709098196,756000.0,39.87141370000001,32.7364371,0.00146834473747495,0.0020802651623246494,-0.08328045029058116,0.00944205811022044,0.01285774475751503,-0.06875811661523047,0.0328379186012024,0.03632328621643287,-0.1424347585691383,0.10030774027054108,0.03267879344488978,0.03364825412224449,-0.0003386475931863727,0.15,7848555.521042084,1.0,0.0,0.0,0.0,0.0
7899383.0,0.026131733913827653,0.02437217244288577,-0.0001349649719438878,0.15,0.0,900.0,900.0,900.0,900.0,900.0,900.0,-1.0637154708637269,-1.0844934252865726,7.175477175913828,7.174468002222445,7.31472235672946,7.884028151921844,8.038145424248498,94.37502561298598,94.37502561298598,12.404552710240482,-0.000874965879759519,-0.004376915136272545,-0.0015721895450901803,0.03603273039478958,-0.008985440076152304,-0.08437416007615231,2.0,-1.0,0.0,11.0,0.0,0.0,1.0,0.0,0.0,0.0,0.0,0.0,0.0,0.0,0.0013873817555110218,0.0,1.3441633046052104,1.6249069827034068,0.07851763991382767,,0.28647888,3.8512224448897795e-06,8.319659318637275e-06,-1.0178557114228456e-06,0.0,-0.16379876013426858,0.2143517692705411,-9.96192888550501,82382296.0,966.169938606012,12.404602,-0.002754351096192385,-0.004262908563126254,-0.003062496346693382,-0.104807672733467,0.17899933320841682,-9.859547344202404,0.0006424621643286576,-0.0024408805310621217,0.0011570808416833682,82382296.0,0.03645388596392789,0.024453886593186397,0.4005999601563126,0.5520457719078158,13.253927853146292,25.95370184252505,-0.2539954871943888,9.571756061665331,0.10999999,-36.97201932246493,399.57343373146296,12.404602,96616.80674248497,1.1479674604348697,0.12824953753306612,0.2695804266352701,-0.15547525220641298,0.0005102806112224469,0.0054745691843687315,-0.0007686431603206416,0.0008734616252505012,0.0,1.2537722440781562,0.8098522551903807,0.0003536265611222446,0.00025627805210420845,0.586621516262525,0.15,398714138.0,327364372.0,400121.1680819639,0.0,-0.00040280599599198453,-0.009138865957915833,-0.0020695520300601216,4.820424727466935,0.0,0.0,0.5917548239819639,756000.0,39.87141370000001,32.7364371,0.0019652765370741484,0.0027992733627254514,-0.09001130904408818,0.011196035430861725,0.015190019330661325,-0.07702311267535071,0.008805111697394787,0.04491106402805611,-0.16187017180360722,0.10572615263326654,0.032468541537074146,0.033468688985971946,-0.00023429676152304628,0.15,7899383.0921843685,1.0,0.0,0.0,0.0,0.0
7951974.0,0.025937216380761522,0.023594269521042082,-0.00045313721042084215,0.15,0.0,900.0,900.0,900.0,900.0,900.0,900.0,0.7021277387595215,0.7158449194749525,8.200184560028058,8.199049239625252,8.359331539320642,8.858917289537075,9.032091858737475,106.1917858762926,106.1917858762926,12.404546554849698,-0.0008853404068136272,-0.0044240306533066135,-0.0015352316132264529,0.03593199956913828,-0.008925363877755511,-0.08535565783567134,2.0,-1.0,0.0,11.0,0.0,0.0,1.0,0.0,0.0,0.0,0.0,0.0,0.0,0.0,0.001206461517034068,0.0,1.2946650054308617,1.6247636431663326,0.09240262702805613,,0.28647888,3.8549498997996e-06,8.759378757515032e-06,-2.491823647294592e-06,0.0,-0.1899294408897796,0.19842913468737472,-9.97310201547094,82382296.0,966.1747646961925,12.404602,-0.002275388438877754,-0.005421766745490984,-0.0025614598717434898,-0.10747742146893781,0.2394077674228458,-9.958655474587175,3.3611723446892575e-05,0.0031036487875751575,0.0035809743326653334,82382296.0,0.09873007186573156,0.08673007286573155,0.40059992996793586,0.7837246432084171,13.254000099278556,26.02156304533066,-0.2553512609819639,8.800195243763525,0.10999999,-39.55233417198397,399.652665046493,12.404602,96615.84557781562,1.147956102995992,-0.01907828593186396,0.20893305315230487,0.07646901867935921,-0.0006511472585170378,0.006616333601202411,0.003396217653306621,0.0011118567975951905,0.0,1.2526245,0.8101944999999999,0.0004504102745490983,0.00032586360521042097,0.5861608501883767,0.15,398714138.0,327364372.0,400123.6813340681,0.0,-0.002437537318637277,-0.007562462681362721,-0.009750150232464942,4.666211427989979,0.0,0.0,0.5407241773126252,756000.0,39.87141370000001,32.7364371,0.002501325498997997,0.0035538433426853715,-0.09398665713627255,0.012829538965931865,0.01833149351903808,-0.08354016958316635,0.010474447410821647,0.030600105270541064,-0.19956164292985976,0.11846069217835674,0.032683128328657315,0.03328687766933868,-0.0003759245671342686,0.15,7951974.190380761,1.0,0.0,0.0,0.0,0.0
8000271.0,0.02559071539278557,0.02339584165931864,-0.0007407806633266532,0.15,0.0,900.0,900.0,900.0,900.0,900.0,900.0,-0.35621472754909755,-0.36317573032464867,9.224891944428858,9.223630477314629,9.403940720911825,9.833806427579159,10.026038291450902,118.00854621482966,118.00854621482966,12.404540390300602,-0.0008957148496993987,-0.004471147170340681,-0.0014982739679358717,0.03583126874348697,-0.008865288308617235,-0.08633715459519038,2.0,-1.0,0.0,11.0,0.0,0.0,1.0,0.0,0.0,0.0,0.0,0.0,0.0,0.0,0.0010401289138276552,0.0,1.1857980009258515,1.5474939826713425,0.07733541459919833,,0.9898756209979976,3.981282565130261e-06,9.339158316633266e-06,-9.493947895791584e-07,0.0,-0.1888035227855711,0.1748267837314629,-9.961201062981964,82382296.0,966.1782110951904,12.404602,-0.001963677693386774,-0.006240328583166338,-0.0012711473947895767,-0.09322311897595188,0.13289618234669337,-9.949317183420842,-0.0015981064929859738,0.006785696008016029,0.004569597456913826,82382296.0,0.16987809096192388,0.1578780909619239,0.4005998996953908,1.0278225473426854,13.254093889198396,26.042484937034068,-0.2557678159799599,8.038254781515029,0.10999999,-42.21210352507014,399.49391536933865,12.404602,96617.71908418837,1.147978425531062,0.23351206053707382,-0.5876819823086169,-0.08555530078757498,0.0030792106012024006,0.001567918673346695,0.002481674629258517,0.0009104404228456914,0.0,1.2062327055971944,0.8234935207414829,0.000374535492985972,0.00025866674949899803,0.5671576841342686,0.15,398714138.0,327364372.0,400126.423686974,0.0,-0.004930597687374751,-0.005069402312625249,-0.01972238903607215,4.271426119591182,0.0,0.0,0.48969352972745483,756000.0,39.87141370000001,32.7364371,0.0031471259158316637,0.0044814286232464935,-0.09786168196392786,0.014665424388777557,0.021520481408817637,-0.09022629813627255,0.013101977603206413,0.027189026537074154,-0.19479801483366732,0.1244601239498998,0.03225543411022044,0.033110584368737477,-0.0001511883446893789,0.15,8000270.70741483,1.0,0.0,0.0,0.0,0.0
8056651.0,0.02500418685370741,0.02409844955911824,-0.0005672472224448898,0.15,0.0,900.0,900.0,900.0,900.0,900.0,900.0,-0.6249278168717456,-0.6371379492545113,10.249599329871744,10.24821171296994,10.448549903503007,10.808695563767536,11.019984726533066,129.82530655631263,129.82530655631263,12.404534231482966,-0.0009060897194388777,-0.0045182626873747495,-0.001461316749498998,0.035730537917835675,-0.008805211739478958,-0.08731865235470941,2.0,-1.0,0.0,11.0,0.0,0.0,1.0,0.0,0.0,0.0,0.0,0.0,0.0,0.0,0.0009298047094188376,0.0,0.8489930924769535,1.174108517102204,-0.048889749282565266,,4.393866526517038,3.8784569138276555e-06,9.390581162324651e-06,-1.7867735470941687e-07,0.0,-0.11760577037875744,0.14417751841482962,-9.901236695907816,82382296.0,966.1729799124248,12.404602,-0.0018882690541082154,-0.014332517745490984,0.003087167859719443,-0.03069185598196384,0.21770364340681383,-9.883700118997996,-0.005562720591182369,0.0009927202024048029,-0.0001841689699398851,82382296.0,0.2410261090581163,0.2290261090581163,0.4005998698496994,1.2719204504769541,13.254187679118235,26.06340683258517,-0.2561843705931864,7.276314319651302,0.10999999,-44.87187288242485,399.4993111785571,12.404602,96617.6516469539,1.1479775154749499,-0.47298440619238546,0.22758285134669448,-0.12887208362324706,-0.0006568348056112197,0.005453370643286578,-0.00048330433867736127,0.00041137581563126127,0.0,1.4280947651523053,0.7510456505591181,0.0001707247775551097,0.00011472762324649262,0.6509261802805613,0.06613346745290562,398714138.0,327364372.0,400129.1660356713,0.0,-0.007423657056112227,-0.002576342943887773,-0.029694628454909833,3.8766408117655304,0.0,0.0,0.43866288271543086,756000.0,39.87141370000001,32.7364371,0.00393066109218437,0.005628941400801605,-0.1019019487755511,0.016775912827655313,0.024684286234468944,-0.0973181779498998,0.014217192763527054,0.040324328775551116,-0.133179642517034,0.12096692106012025,0.031438080849699394,0.03296376294188377,-0.00014130700601202366,0.05771543086172323,8056651.376753507,1.0,0.0,0.0,0.0,0.0
8109299.0,0.02556415975350702,0.02380972729859719,-0.000650633370741483,0.15,0.0,900.0,900.0,900.0,900.0,900.0,900.0,-1.0694822744789574,-1.0903736336492984,11.274306713426856,11.272792950721445,11.493159085150303,11.783584701382768,12.013931158597195,141.64206680340683,141.64206680340683,12.40452807036072,-0.0009164648196392786,-0.004565378204408817,-0.0014243588176352706,0.035629807092184364,-0.008745136114228457,-0.08830015011422845,2.0,-1.0,0.0,11.0,0.0,0.0,1.0,0.0,0.0,0.0,0.0,0.0,0.0,0.0,0.0008229142284569137,0.0,0.4982129196112218,0.7825676822024041,-0.1819301987975954,,7.963435505256519,3.5690781563126244e-06,9.067134268537072e-06,-1.81791583166334e-07,0.0,-0.0664183409418837,0.11898886456513022,-9.867651936773546,73080383.81743485,966.1682937609219,12.404602,-0.002420478919839681,-0.011548095767535061,0.0008080589198396718,-0.11560769955310646,0.216616220276553,-9.920439386543086,-0.007280685368737476,-0.00446292953306614,-0.0036030350601202457,73080383.81743485,0.31347073446492996,0.30147073540881775,0.4005998298517034,1.5124607159919843,13.254279496312625,26.077665024328656,-0.2564676914408818,6.525575110170339,0.10999999,-47.511962701102206,399.64042531262527,12.404602,96616.02403008015,1.147958166214429,-0.3462462879539071,0.09045800674148191,-0.45198672099599235,-0.001420798314629262,0.0025760527154308523,0.0009205352244489053,3.8997995991982526e-06,0.0,1.6218355975951904,0.6887259469779559,1.6384769539077519e-06,1.0605210420841258e-06,0.7248230766492986,0.9446555443607236,398714138.0,327364372.0,400131.8793126252,0.0,-0.009854407561122248,-0.00010405288176352297,-0.03950070941482967,3.4902364890360715,0.0,0.0,0.3876322354729458,756000.0,39.87141370000001,32.7364371,0.004662594154308619,0.0067599878256513046,-0.10658846133667335,0.018037074056112226,0.027772523635270545,-0.1044761468977956,-0.002264839226452946,0.04565786453907817,-0.13608538379158322,0.12101641664729458,0.030658803663326652,0.03268323965731463,-3.55e-05,0.9438877755511044,8109298.5871743485,1.0,0.0,0.0,0.0,0.0
8155318.0,0.027192593460921843,0.023486454016032065,-0.00046011808416833693,0.15,0.0,900.0,900.0,900.0,900.0,900.0,900.0,0.16060646131262374,0.1637502722785556,12.299014096212426,12.297374190781564,12.537768266412826,12.758473838997997,13.007877596813628,153.45882713927858,153.45882713927858,12.404521908116232,-0.0009268393046092185,-0.004612493721442886,-0.001387400885771543,0.035529076266533066,-0.008685059873747496,-0.0892816476012024,2.0,-1.0,0.0,11.0,0.0,0.0,1.0,0.0,0.0,0.0,0.0,0.0,0.0,0.0,0.0007160237474949899,0.0,0.14743274574549067,0.39102684730260484,-0.3149706474248498,,11.53300448679359,3.4872945891783566e-06,8.712705410821643e-06,0.0,0.0,-0.09478093655511025,0.11342108588777555,-9.931277324539078,32430415.304448858,966.1669448036072,12.404602,-0.004521628549098191,-0.007040003625250504,0.00017773471743487255,-0.07964399758917837,0.17748249810621236,-9.911773160941884,-0.0010239875611222388,-0.007143739342685373,-0.0015304629178356692,32430415.304448858,0.4125762244208418,0.40057623969138284,0.4005995836713427,1.6798487520981966,13.254330767755512,25.954904123807616,-0.25401144957515026,6.0051562739178355,0.10999999,-49.74740166509018,399.51084284929857,12.404602,96617.51700643286,1.1479759251543087,-0.08494533498597204,0.21176624301803587,0.16214443163326658,-0.0015009571643286547,0.0021120306272545113,0.0018981608456913846,0.0,0.0,1.6242758999999998,0.68794835,0.0,0.0,0.7257596,1.0,398714138.0,327364372.0,400131.27708436875,0.0,-0.005180447140280557,0.0,-0.030360893553106203,4.0594634679078165,0.0,0.0,0.33660158884569136,756000.0,39.87141370000001,32.7364371,0.005357375931863728,0.007892583272545092,-0.11183426029659319,0.01864242439679359,0.03078270910220441,-0.11169836936472946,-0.030431161613226468,0.04517312300000001,-0.1891524506893788,0.12409297735470942,0.03053396618236473,0.0324643146753507,-3.55e-05,1.0,8155317.539078156,1.0,0.0,0.0,0.0,0.0
8201111.0,0.026509309553106212,0.023289150166332664,-0.00039820330861723444,0.15,0.0,900.0,900.0,900.0,900.0,900.0,900.0,-0.6234733578817635,-0.635652903280561,13.323721478997998,13.321955430841683,13.58237744767535,13.733362976613227,14.001824031042085,165.2755874206413,165.2755874206413,12.404515750420842,-0.0009372141883767536,-0.004659609238476954,-0.0013504429539078157,0.03542834544088177,-0.008624984032064128,-0.09026314463326654,2.0,-1.0,0.0,11.0,0.0,0.0,1.0,0.0,0.0,0.0,0.0,0.0,0.0,0.0,0.0006091332665330661,0.0,-0.2033474277214429,-0.0005139875971944263,-0.4480110965971944,,15.102573461162326,3.610420841683367e-06,8.132665330661322e-06,0.0,3.835671342685372e-06,-0.10485770182765532,0.11828444978356714,-9.982741376478957,17018841.233076155,966.1648581623247,12.404602,-0.004105447170340682,-0.005850957142284568,-0.0008262382605210429,-0.07893372233266532,0.13713542168136272,-9.910631964687374,0.0030582834388777555,-0.007165677903807614,-0.0003575860380761523,17018841.233076155,0.5128340048236473,0.5008340348356713,0.4005993285691383,1.8440751249519038,13.254380286813628,25.82622120486974,-0.2514368034028056,5.494691956541082,0.10999999,-51.96535148240481,399.5877624182364,12.404602,96616.61859348697,1.1479652556873747,-0.27859889550501005,-0.09319067099599204,0.10078887360721442,-0.0014012757494989982,0.0030038839438877754,0.0012813408196392783,0.0,0.0,1.6242758999999998,0.68794835,0.0,0.0,0.7257596,1.0,398714138.0,327364372.0,400130.52918316633,0.0,-0.00019432767535070092,0.0,-0.020388654749498997,4.670677873208417,0.0,0.0,0.28557094181963927,756000.0,39.87141370000001,32.7364371,0.006135181831663327,0.009214840438877756,-0.11718515981362726,0.020074285468937875,0.03362656396593187,-0.1190172602244489,-0.01829790758917835,0.0547871776753507,-0.18355395665130259,0.12727179207214429,0.030609138973947896,0.03208109093587174,-3.55e-05,1.0,8201111.042084169,1.0,0.0,0.0,0.0,0.0
8254343.0,0.023709210120240472,0.023360552521042084,-0.000312798354709419,0.10390693367535056,0.0,900.0,900.0,900.0,900.0,900.0,900.0,-1.484981907000003,-1.5140013251503035,14.348428871082167,14.346536670901806,14.626986628937878,14.70825211422846,14.995770463246494,177.0923477222445,177.0923477222445,12.404509585450901,-0.0009475883446893788,-0.0047067247555110225,-0.001313485022044088,0.035327614615230464,-0.008564908392785571,-0.09124464239278557,2.0,-1.0,0.0,11.0,0.0,0.0,1.0,0.0,0.0,0.0,0.0,0.0,0.0,0.0,0.0005022427855711421,0.0,-0.5541276009859726,-0.3920548224969948,-0.5810515455671346,,18.672142444829667,3.870881763527055e-06,8.684949899799603e-06,0.0,1.2070741482965949e-05,-0.07479265667334661,0.14131392470340687,-10.004282524108216,51299699.082525134,966.161142949499,12.404602,0.0023200790701403042,-0.006869668388777563,-0.00038280677955911157,-0.12314364501603219,0.12659854835470938,-9.943345047707414,0.002475278170340679,-0.0023950064589178246,-0.0012746125130260544,51299699.082525134,0.6130917850240483,0.6010918301823649,0.40059907346693385,2.0083014978056113,13.254429805871744,25.69753829523046,-0.24886215743286572,4.984227639366733,0.10999999,-54.18330129971944,399.5112719621242,12.404602,96617.54513767535,1.1479763027775551,0.13817207544489124,-0.28158693817635294,0.1829083010200405,0.003571245707414847,0.0026162000681362726,0.0016104206112224492,0.0,0.0,1.6242758999999998,0.68794835,0.0,0.0,0.7257596,1.0,398714138.0,327364372.0,400129.78118897794,0.0,0.004791791991983978,0.0,-0.010416415945891763,5.281892278509019,0.0,0.0,0.23454029459118225,756000.0,39.87141370000001,32.7364371,0.0069823107494990004,0.010693815398797598,-0.1226122718717435,0.022201707645290586,0.036334440250501004,-0.12641482024048098,0.02736357736873756,0.07285820993787578,-0.12851595327054097,0.13047747679158317,0.03047289944288577,0.03163734650100201,-3.55e-05,1.0,8254343.422845691,1.0,0.0,0.0,0.0,0.0
8306766.0,0.022713107024048097,0.022474117096192386,-0.0007929824829659323,1.0,0.0,1499.5170340681364,1500.0,2000.0,1487.610643587174,1511.389356412826,1511.0,0.3698231570721416,0.37704720373747225,15.373136254569141,15.371117900961925,15.671595810200403,15.683141251843688,15.989716901462927,188.90910806372747,188.90910806372747,12.404503423066133,-0.000957963501002004,-0.00475384127254509,-0.0012765270901803607,0.03522688378957915,-0.008504831893787574,-0.09222614015230461,2.0,-1.0,0.0,11.0,0.0,0.0,1.0,0.0,0.0,0.0,0.0,0.0,0.0,0.0,0.0003953523046092183,0.0,-0.9049077741102208,-0.7835956573967942,-0.7140919951382767,,22.241711419899804,3.7358517034068137e-06,8.746893787575144e-06,0.0,3.3862925851703445e-05,6.696005665851736,0.15397889619038074,-9.9346503688998,82382296.0,966.1603857517034,12.404602,0.0013545179799599218,-0.003621134338677354,-0.0018174735190380686,8.708847722885828,0.16073813876953913,-9.846397974799599,0.000628425408817631,0.0009579089418837641,-0.001986925356713426,82382296.0,0.717441683695391,0.7054417401442887,0.40059885559118236,2.172755390432866,13.254481589539079,25.560376426733466,-0.24611788646092184,4.492200791877755,0.10999999,-56.362372119839684,399.6178926492986,12.404602,96616.27126891783,1.1479611330340682,0.2762575957274552,0.42507889907615237,-0.20460653930260506,0.004852194579158308,0.008324973875751493,0.0038263726833667328,0.0,0.0,1.6242758999999998,0.68794835,0.0,0.0,0.7257596,1.0,398714137.9741483,327364372.4911824,400129.0663709419,0.11716267097795671,0.008454039863727452,0.11749363896192462,-0.0011061131102204328,5.668106984002003,0.0,0.0,0.1835096479639278,756000.0,39.87141370000001,32.7364371,0.007745035865731463,0.012049013939879762,-0.12788918855110223,0.023863768665330663,0.039168043014028056,-0.13180748248096194,0.046231127587174355,0.04881689944088171,-0.10700408226653306,0.13244051271342686,0.030478513549098196,0.031155045492985978,-3.55e-05,1.0,8306766.184368738,1.0,0.0,0.0,0.0,0.0
8358492.0,0.025090219472945895,0.022421210066132263,0.0013373323486973972,1.0,0.0,1500.4128256513027,1500.0,2000.0,1487.4128256513027,1511.5871743486973,1511.0,1.3650837408176375,1.391753280120243,16.39784363735471,16.395699141022043,16.716204991462927,16.65803038945892,16.983663335551103,200.72586834649297,200.72586834649297,12.404497265511022,-0.000968338244488978,-0.0048009567895791585,-0.001239569745490982,0.035126153551102206,-0.008444755911823648,-0.0932076373246493,2.0,-1.0,0.0,11.0,0.0,0.0,1.0,0.0,0.0,0.0,0.0,0.0,0.0,0.0,0.0002884618236472945,0.0,-1.255687947717435,-1.1751364922965934,-0.847132443709419,,25.811280400140284,3.763026052104208e-06,7.439118236472948e-06,0.0,6.073787575150301e-05,32.88067631306615,0.12877361588977954,-9.615357704268536,82382296.0,966.1688723587174,12.404602,-0.0015361193286573195,-0.002233677052104207,0.00015359491182364584,44.89777335110222,0.18187780816232466,-9.392248981579158,-0.002809165815631264,-0.0018847315370741496,-0.0011896260040080155,82382296.0,0.8418248305430862,0.829824875496994,0.40059882,2.3383231160981963,13.254544456312626,25.381705276893786,-0.2425432085511022,4.090435842629258,0.10999999,-58.35110814436874,399.5419794613226,12.404602,96617.1517504008,1.1479716333987977,-0.11150408415631313,0.23846056532064105,-0.11435809874148294,-0.001080847442885774,0.005950497867735473,0.0025984030881763516,0.0,0.0,1.6242758999999998,0.68794835,0.0,0.0,0.7257596,1.0,398714137.7825651,327364375.5440882,400128.52359218436,0.8432334800180366,0.0052359688757515005,0.8456154958737478,0.0047640311242485,4.8849718686032055,0.0,0.0,0.13247900092384768,756000.0,39.87141370000001,32.7364371,0.008481485150300602,0.013367997931863728,-0.1330779829478958,0.025283037176352708,0.04195752093186372,-0.13641427476953907,0.051933872983967934,0.010288811677354692,-0.09940033459919839,0.133987536755511,0.030476331356713425,0.030863125374749504,-3.55e-05,1.0,8358491.551102204,1.0,0.0,0.0,0.0,0.0
8407948.0,0.024240130156312618,0.022195171200400803,0.0035390878116232484,1.0,0.0,1500.9158316633266,1500.0,2000.0,1487.0,1512.0,1511.0,4.484480691276559,4.57209407607215,17.422551020140283,17.42028038108217,17.76081418188377,17.63291952707415,17.977609767895796,212.5426286466934,212.5426286466934,12.404491100541081,-0.0009787128136272546,-0.004848072306613226,-0.001202612226452906,0.03502542313827655,-0.008384679755511023,-0.0941891346713427,2.0,-1.0,0.0,11.0,0.0,0.0,1.0,0.0,0.0,0.0,0.0,0.0,0.0,0.0,0.0001815713426853705,0.0,-1.6064681214989989,-1.5666773271963939,-0.9801728931963931,,29.380849378637283,3.43693386773547e-06,7.324168336673343e-06,0.0,8.674829659318643e-05,48.758010817434894,0.122369596749499,-9.416299328252506,82382296.0,966.1741216098196,12.404602,-0.00227648804408817,-0.0009014211503005993,-0.00130885149699399,47.71295219318636,0.16603489424448892,-9.39986420782966,-0.004905934609218441,-0.004559492919839685,-0.001498582613226455,82382296.0,0.9701147968356716,0.9581148267615234,0.40059882,2.5041080584569144,13.254609480801603,25.194939111082164,-0.2388065879699399,3.706273480254508,0.10999999,-60.30272568907816,399.6671053567135,12.404602,96615.68444891785,1.1479541689278558,0.09476381463727657,0.31981110453306694,-0.5085558488256527,-0.0016273402364729425,0.005307134627254503,0.0010947481262525021,0.0,0.0,1.6242758999999998,0.68794835,0.0,0.0,0.7257596,1.0,398714137.51683366,327364379.26432866,400128.0249883767,1.7257766263466956,0.00024986163126251284,1.7306517010681386,0.009750150274549112,3.801346602436871,0.0,0.0,0.08144835370941872,756000.0,39.87141370000001,32.7364371,0.009341150180360722,0.014895439160320646,-0.13799068646092186,0.026209047541082164,0.0435663663486974,-0.14201113630260523,0.038987777839679306,0.01674904854709425,-0.0844218123827655,0.1369993506753507,0.03077418945691383,0.030302857076152302,-3.55e-05,1.0,8407948.380761523,1.0,0.0,0.0,0.0,0.0
8458108.0,0.02250629860521043,0.02174741758517034,0.004169919298597191,1.0,0.0,1501.2832221943888,1500.0,2000.0,1488.0387332164328,1510.9612667835672,1510.0,6.477750197711427,6.604330483274553,18.447258402925854,18.444861618697395,18.805423363987977,18.60780866468938,18.971556198557117,224.3593889637275,224.3593889637275,12.404484945571141,-0.0009890872144288577,-0.004895187823647295,-0.0011656542945891783,0.03492469231262525,-0.008324604186372746,-0.09517063243086173,2.0,-1.0,0.0,11.0,0.0,0.0,1.0,0.0,0.0,0.0,0.0,0.0,0.0,0.0,7.464308617234451e-05,0.0,-1.9572482946933873,-1.958218161851704,-1.1132133418517036,,32.95041835545091,3.552424849699398e-06,7.376633266533064e-06,0.0,0.00011377555511022046,44.14038455414829,0.15334973707214433,-9.45631310350501,82382296.0,966.1729337488979,12.404602,-0.0007536848677354747,0.0034156094228456873,-0.0014969552384769514,42.2901226473547,0.16125380938276546,-9.453001801482966,-0.004336632222444888,-0.006900447322645295,-0.004007204028056117,82382296.0,1.098404763715431,1.0864047782705413,0.40059882,2.6698929998156316,13.254674507735471,25.008172953587174,-0.23506996655711423,3.322111117879759,0.10999999,-62.25434322547095,399.60628156132265,12.404602,96616.43928617235,1.1479631296613226,0.3904438726833646,-0.26739805166332475,-0.052717640919838646,0.003341509553106201,0.011150442252504996,-0.0002950300741482873,0.0,0.0,1.6242758999999998,0.68794835,0.0,0.0,0.7257596,1.0,398714137.2511022,327364383.0845691,400127.5263432866,2.6083197720881777,-0.004736270012024056,2.61568790709419,0.014736270012024056,2.7177213354388763,0.0,0.0,0.030417707082164243,756000.0,39.87141370000001,32.7364371,0.010229129631262527,0.01646774129659319,-0.1426308098036072,0.02702880357915832,0.044818146,-0.14769902401402807,0.0218677398757515,0.04096190001002008,-0.07615653469338683,0.14068007773547095,0.031038460248496994,0.029547213633266532,-3.55e-05,1.0,8458107.651302606,1.0,0.0,0.0,0.0,0.0
8506216.0,0.02490551193787575,0.021664584555110222,0.0024048822565130253,1.0,0.0,1501.0,1500.0,2000.0,1487.573146292585,1511.426853707415,1510.0,8.581868029132266,8.749526093545093,19.228431736292585,19.225674511042087,19.601509675751505,19.349652903186374,19.727912536092184,234.16364838717436,234.16364838717436,12.404393530821643,-0.0009556760420841682,-0.004956775284569138,-0.0010461690280561121,0.03482303700200401,-0.008142971312625251,-0.09586231934068136,2.0,-1.0,0.0,11.0,0.0,0.0,1.0,0.0,0.0,0.0,0.0,0.0,0.0,0.0,5.933266533066116e-06,-0.005361984741482978,-2.179918642783567,-2.2092735441042084,-1.4075146680420845,,36.16024012819639,3.3460921843687376e-06,6.575010020040079e-06,0.0,9.805571543086167e-05,38.94292769647294,0.17465442049298596,-9.498453247174348,82382296.0,966.1691798048096,12.404602,-0.00013517597394789192,-0.00017471030861723877,-0.002207143232464933,36.913417300380765,0.20547620825250512,-9.511475521761524,-0.0027673895090180338,-0.007995085124248496,-0.003515692316633262,82382296.0,1.2367140615631265,1.2247140645511023,0.40059882,2.8393800620100205,13.254745775611223,24.816958138577153,-0.23124424660320642,2.9518930964509016,0.10999999,-64.18564567092184,399.57926557354716,12.404602,96616.73060028057,1.1479666088937877,-0.16634228614228425,0.06678323725851631,0.2375397476292584,0.0006922175130260545,0.00467501196593186,0.0016026196813627228,0.0,-0.0063033609058116375,1.6242758999999998,0.6877821920240481,0.0022783820320641333,-0.0021596811422845735,0.7255843100841683,1.0,398714137.1,327364393.7398798,400127.3313511022,3.670365786605212,-0.008583893246492988,3.6790885233046104,0.01820439417234469,1.7989219147695383,0.0,0.0,0.000597714709418836,756000.0,39.87141370000001,32.7364371,0.010986906847695392,0.01780123476753507,-0.1462884450721443,0.028413017813627255,0.046795003218436874,-0.1515090662024048,0.025133682565130273,0.0628101751222445,-0.126913192731463,0.1448376680981964,0.031472517717434874,0.028563028052104207,-3.55e-05,1.0,8506216.014028056,1.0,0.0,0.0,0.0,0.0
8553667.0,0.023497003334669336,0.021189307619238474,0.002981995863727458,1.0,0.0,1501.0,1500.0,2000.0,1487.0981963927857,1511.9018036072143,1510.0,10.327475398414833,10.529238397703413,19.51600432442886,19.512411805871743,19.893883801823648,19.61915607480962,20.00271548252505,239.88892216913828,239.88892216913828,12.404129329539078,-0.0008501560140280558,-0.005042194609218438,-0.0007907768877755503,0.034719860046092184,-0.007761157933867733,-0.09607674337875752,2.0,-1.0,0.0,11.0,0.0,0.0,1.0,0.0,0.0,0.0,0.0,0.0,0.0,0.0,0.0,-0.01955413386573151,-2.191616592262525,-2.2289762352625253,-1.9673818411743507,264.70909847915834,38.77762699777556,2.4570340681362684e-06,5.335871743486969e-06,0.0,-5.640541082164389e-05,34.52582752721442,0.17751430539078158,-9.524136388781564,82382296.0,966.1618904114229,12.404602,0.0003636171142284532,-0.0038450893887775634,-0.0003330543847695263,32.36707556192384,0.1764084038076149,-9.60223225250501,0.0001665021663326742,-0.007140906114228454,0.0019161045991984132,82382296.0,1.4084722062324655,1.3964722062324655,0.40059882,3.0212263959699404,13.254837854088176,24.610891781202405,-0.22712107868336673,2.6282272933066126,0.10999999,-66.0491276009018,399.5254455008016,12.404602,96617.32927348696,1.1479737809498998,0.07062034916432916,-0.08984666225651265,0.1194670600300598,-0.0001266770120240551,0.006151354777555122,-0.0003251920300601242,0.0,-0.27025613081763633,1.6242758999999998,0.6810201423947895,0.09770621048296632,-0.09261582732464967,0.7184506112985971,1.0,398714137.28036076,327364433.6470942,400128.412550501,5.486968167935878,-0.00764574535470941,5.492259895086178,0.015291491513026037,1.5729826821162325,0.0,0.0,0.0,756000.0,39.87141370000001,32.7364371,0.011704322951903809,0.0190604136993988,-0.1495611657955912,0.02998783419438878,0.04908495053306614,-0.15458325212024052,0.03531065345290584,0.08451620825250507,-0.19575328192184388,0.14912217939078157,0.03068238618837675,-0.5261208124809642,-3.55e-05,1.0,8553666.563126253,1.0,0.0,0.0,0.0,0.0
8599460.0,0.021919892793587168,0.019981913126252502,0.002409634086172341,1.0,0.0,1499.8081704809617,1500.0,2000.0,1489.0,1510.0,1509.0,11.944405077515034,12.177719935150305,19.721889723687376,19.717383328056112,20.102897358577152,19.810490365591185,20.19782498264529,244.93915470100202,244.93915470100202,12.403836543326653,-0.0007378256813627251,-0.005129864733466934,-0.0005225485490981958,0.03461653943687375,-0.007360437216432865,-0.09624608739679358,2.0,-1.0,0.0,11.0,0.0,0.0,1.0,0.0,0.0,0.0,0.0,0.0,0.0,0.0,0.0,-0.03458033962124252,-2.1833870390921843,-2.226826394553106,-2.552333166611224,265.41318165911827,41.3390551490982,-5.959879759519122e-06,-0.0004959944088176384,0.0,-0.0004256645751503016,30.629469513006008,0.08559773632064074,-9.57118697978557,82382296.0,966.157941214028,12.404602,0.0006212849378757522,-0.005477449661322643,0.013975523200400847,29.29046257426853,-0.03104662486573168,-9.594664012539077,0.0020151449138276546,-0.0057461096272545045,0.021334428769539168,82382296.0,1.589811349148297,1.577811349148297,0.40059882,3.2066128858256517,13.254935893406815,24.400571386973947,-0.22291270976352703,2.3178957831783564,0.10999999,-67.89318320292585,399.5838118795591,12.404602,96616.66744144289,1.1479658641182364,-0.07472839170941947,-0.019044260815631014,0.4402480821743489,0.003506118004008011,0.006174506170340673,0.01658559520240487,0.0,-0.2733172214348697,1.6242758999999998,0.6815268899398798,0.09887179850100199,-0.09372068786973946,0.7189852662685371,1.0,398714137.4460922,327364482.97314626,400129.90837595187,7.5487283190280605,-0.0051526858877755455,7.549034175899804,0.01030537154509017,1.5721559340741482,0.0,0.0,0.0,756000.0,39.87141370000001,32.7364371,0.012612157793587176,0.020660289392785577,-0.1518635686533066,0.031205244480961927,0.052960479725450905,-0.155797926492986,0.033395999665330654,0.12737811566132273,-0.17190072957314623,0.15208314981162324,0.02403787882965929,-0.5320378776492984,-3.55e-05,1.0,8599460.066132264,1.0,0.0,0.0,0.0,0.0
8647490.0,0.021564674871743492,0.01920141617234469,-0.0016437314328657411,1.0,0.0,1495.9993963026052,1500.0,2000.0,1490.1744949498998,1508.8255050501002,1507.6997901102204,13.393086851402808,13.65470208446894,19.927775118537074,19.922354840240484,20.31191092533066,20.001824650981966,20.392934482765533,249.98938718877758,249.98938718877758,12.40354374711423,-0.0006254949078156311,-0.005217534857715431,-0.0002543192104208413,0.03451321828857716,-0.006959715498997996,-0.09641543141482967,2.0,-1.0,0.0,11.0,0.0,0.0,1.0,0.0,0.0,0.0,0.0,0.0,0.0,0.0,0.0,-0.04960654637675353,-2.1751574863827656,-2.2246765533827655,-3.1372844924889787,266.11726493907815,43.900483290420844,-8.234522444889796e-05,-0.0017928028216432882,0.0,-0.0009583449719438886,27.569121494188373,-0.1764829044829663,-9.659605251807616,82382296.0,966.1605990042084,12.404602,-0.0020188219198396884,-0.0022973835651302526,0.0536339925270542,26.790799799719437,-0.22674212803807658,-9.646113905470942,0.0016856737735470937,-0.003649320973947893,0.06554127844088181,82382296.0,1.7711504926232466,1.7591504926232466,0.40059882,3.3919993761222447,13.255033927334669,24.190250998336673,-0.21870434128456914,2.0075642730500998,0.10999999,-69.73723879955911,399.5851095563126,12.404602,96616.65232739478,1.147965653282565,-0.0840494350561117,0.20522986027254558,1.0837529523887794,0.002793005505010022,0.004024183436873748,0.07259944795390794,0.0,-0.2489950375831663,1.6242758999999998,0.6826153130440881,0.09012092396593185,-0.08542572573947894,0.7201334740941884,1.0,398714137.71182364,327364532.3432866,400131.4042553106,9.610488470120243,-0.0026596259599198364,9.60580845671343,0.005319252038076146,1.571329185032064,0.0,0.0,0.0,756000.0,39.87141370000001,32.7364371,0.013498885144288578,0.022261940484969944,-0.15416165791983968,0.03243597262124249,0.056845899641282574,-0.15729606663126253,0.033924910204408826,0.16071013612224452,-0.14924425788176351,0.1546934776232465,0.010068607965931845,-0.46855975910621234,-3.55e-05,1.0,8647490.042084169,1.0,0.0,0.0,0.0,0.0
8698598.0,0.014654226509017997,0.014144911342685345,-0.011950970635270581,1.0,0.0,1490.4741309018036,1500.0,2000.0,1493.4972056112224,1505.5027943887776,1506.0756993186374,14.557683940721446,14.84213759408818,20.133660521082163,20.12732635242485,20.520924483206414,20.193158944068138,20.58804398288577,255.03961966472949,255.03961966472949,12.403250950901803,-0.0005131640160320638,-0.005305204981963928,1.3940312625251362e-05,0.03440989790981964,-0.006558993781563124,-0.09658477543286574,2.0,-1.0,0.0,11.0,0.0,0.0,1.0,0.0,0.0,0.0,0.0,0.0,0.0,0.0,0.0,-0.06463275313226458,-2.1669279335551104,-2.2225267123306613,-3.7222358184849718,266.8213482190381,46.461911431743495,-0.0002603826272545097,-0.0026851636112224476,0.0,-0.0016211874088176374,24.77446920494989,-0.27465028359919846,-9.955419508340682,82382296.0,966.1655039436873,12.404602,0.011419411523046168,-0.006395692781563156,0.1273310207094191,23.962188321943877,-0.09708417127254393,-9.841327192402806,0.029682584094188513,-0.017881489238477027,0.10966954754709432,82382296.0,1.9535030282204415,1.9415030299959926,0.4005987365490982,3.574725213863728,13.255135866292585,23.98453322759519,-0.21458794735871745,1.7069237527975942,0.10999999,-71.54149147533067,399.6652264448898,12.404602,96615.7421854509,1.147954856496994,0.7635847296813661,0.19492745898396727,0.9913859550500975,0.02930763162324662,0.004010854374749498,0.12940403918436885,0.0,-0.22681102665731456,1.6242758999999998,0.6835267424288578,0.08212852442084166,-0.07784971468737471,0.721095006757515,1.0,398714137.9775551,327364582.25791585,400132.8258396794,11.659629038236481,-0.00012751201603205587,11.650080352464936,0.0002940631863727291,1.5705113022044086,0.0,0.0,0.0,756000.0,39.87141370000001,32.7364371,0.014279353242484973,0.023789974809619245,-0.15667159761523047,0.033788655264529066,0.06039351055110222,-0.16005978562925852,0.04445212831663331,0.16106629216032062,-0.15156377133466936,0.15657694050701404,-0.005702587202404864,-0.4196678397935871,-3.55e-05,1.0,8698598.174348697,1.0,0.0,0.0,0.0,0.0
8748841.0,0.004047493675350704,-0.2805110106232465,-0.022561134496993988,1.0,0.0,1486.271263496994,1500.0,2000.0,1502.4574730060124,1496.5425269939876,1369.8847226553107,15.736531704729458,16.044075812184367,20.339545913627255,20.332297866773548,20.729938048837678,20.38449323498998,20.783153483006014,260.0898521182365,260.0898521182365,12.402958156853707,-0.0004008336833667335,-0.005392875106212425,0.0002821384669338677,0.03430657653106212,-0.006158273064128256,-0.0967541194509018,2.0,-1.0,0.0,11.0,0.0,0.0,1.0,0.0,0.0,0.0,0.0,0.0,0.0,0.0,0.0,-0.07965895888777555,-2.158698381286573,-2.220376870719439,-4.307187143921843,267.525431498998,49.02333957306613,-0.00050439574749499,-0.0033800670621242485,0.0,-0.0022974767314629255,22.329354436993988,-0.15718090033066134,-10.522504626713427,82307394.03711423,966.1733506086173,12.404601943727455,0.06885674737474948,-0.02595518117635269,0.14742100114028056,22.121635601162325,-0.08339707613627251,-10.527924944869739,0.09499632239679358,-0.05361315013827655,0.15358178852505008,82307394.03711423,2.146043398801603,2.1340434239138277,0.40059781245891785,3.730702981533066,13.255276990060121,23.82508657490982,-0.211396188993988,1.5037086895951903,0.10999999,-72.94559729691383,399.60145548376755,12.404600391903807,96616.462791002,1.1479634331302604,2.526013072112225,-1.8295140823206413,1.7453089673827658,0.1490996328316633,-0.07711024990981963,0.1789651262324649,0.0,-0.20666499486372744,1.6242758999999998,0.684274157757515,0.07486066183567132,-0.07096050256713428,0.7218834911262525,1.0,398714138.0,327364664.8166332,400129.9755553106,12.982551885350702,0.004652986653306612,12.974879144529057,-0.006979479871743485,1.5702035931362726,0.0,0.0,0.0,756000.0,39.87141370000001,32.7364371,0.015049583010020042,0.025366587354709418,-0.15937758691382764,0.03498400936072144,0.06383808058717434,-0.16329808795390782,0.05351251378156313,0.15149786385370742,-0.15279783846292586,0.15773548676553106,-0.027006759020040075,-0.3648789783727455,-3.55e-05,1.0,8748840.5751503,1.0,0.0,0.0,0.0,0.0
8794634.0,-0.018057006214428892,-0.23513220309619223,-0.031317330595190394,1.0,0.0,1481.4327703406814,1500.0,2000.0,1514.9279511022044,1484.0720488977956,1398.5410821643286,16.841540149198398,17.1705132101002,20.545431310721444,20.53726938679359,20.93895161014028,20.57582752024048,20.978262983126253,265.140084628457,265.140084628457,12.402665368476955,-0.00028850289579158294,-0.005480545775551102,0.0005503672605210426,0.03420325615230461,-0.0057575513466933854,-0.09692346346893788,2.0,-1.0,0.0,11.0,0.0,0.0,1.0,0.0,0.0,0.0,0.0,0.0,0.0,0.0,0.0,-0.0946851656432866,-2.1504688280180364,-2.2182270301082165,-4.892138469813628,268.2295147244489,51.58476771438878,-0.000773246046092185,-0.004028730406813628,0.0,-0.0028617630801603218,19.821330110661318,-0.07858039569539077,-10.676339416993986,64860818.20162317,966.1772743653306,12.404589023046093,0.19154860882565153,-0.11111268270140293,0.1845560237755511,19.45977422923847,-0.15950766374549089,-10.538962169318635,0.16563929076352718,-0.08961623802805617,0.1713865280861723,64860818.20162317,2.3394772388336675,2.327477288645291,0.40059681463727453,3.884334952649299,13.255421555811623,23.66969787765531,-0.20828552132865732,1.3090378039539075,0.10999999,-74.31461038519038,399.59273233747496,12.404582267314629,96616.5822717034,1.1479648491723446,1.9319234129478944,-1.3215499003206372,0.09401381639278106,0.2452390185250502,-0.1265163492945892,0.17368098526452896,0.0,-0.18788685366533064,1.6242758999999998,0.6849098563026051,0.06807960671743486,-0.06453273211422846,0.7225541538677355,1.0,398714138.0,327364750.3038076,400126.7345615231,14.239054237815633,0.009639106174348707,14.233874310561125,-0.014458659306613239,1.5699425444068136,0.0,0.0,0.0,756000.0,39.87141370000001,32.7364371,0.015913521,0.027299843843687378,-0.16281711371943888,0.03518582004008016,0.06721115807214428,-0.1672682289458918,0.04102148159519036,0.13565250824849695,-0.11370883228456907,0.1561033634729459,-0.04824764732665335,-0.3295844284068136,-3.55e-05,1.0,8794634.078156313,1.0,0.0,0.0,0.0,0.0
8843923.0,-0.0393457574549099,-0.19187785270140273,-0.0381109743446894,1.0,0.0,1479.9285419939881,1500.0,2000.0,1524.2657605310621,1474.7342394689379,1409.2424849699398,17.773465156072145,18.120795173366737,20.751316708717436,20.742240898977954,21.14796517234469,20.767161813326652,21.173372483246492,270.1903171476954,270.1903171476954,12.402372572264529,-0.0001761720180360717,-0.005568216354709419,0.000818596144288578,0.0340999348997996,-0.005356830503006011,-0.09709280748697395,2.0,-1.0,0.0,11.0,0.0,0.0,1.0,0.0,0.0,0.0,0.0,0.0,0.0,0.0,0.0,-0.10971137152505016,-2.1422392756232465,-2.216077188623246,-5.477089795795595,268.93359795891786,54.14619585571143,-0.0010567785350701414,-0.004709746042084171,0.0,-0.003225668076152306,17.19661346414829,-0.07205228245290579,-10.227227548416831,22995773.417454757,966.1754448496994,12.40455802547094,0.26603877877354726,-0.14016898367535072,0.16605976249498985,16.83367937184368,-0.2131159853547098,-10.116454362565129,0.24076004206212454,-0.12426385184769552,0.15250165248496989,22995773.417454757,2.532911077991985,2.5209111534669346,0.4005958168156313,4.037966923855712,13.255566113727456,23.514309181302604,-0.205174853753507,1.1143669175290574,0.10999999,-75.68362348220441,399.5999353691383,12.40456011703407,96616.48010699399,1.1479636076753508,0.6396525682164271,0.29599317539679815,-0.9427878116573155,0.2933493854348699,-0.10190740048096178,0.10311282626252474,0.0,-0.17019011844088172,1.6242758999999998,0.6854561843246494,0.06168378860320638,-0.05847013111422844,0.7231304742404809,1.0,398714138.0,327364835.7819639,400123.4935677355,15.495556598116238,0.01462522578557116,15.492869475691387,-0.021937838741482994,1.5696814964609218,0.0,0.0,0.0,756000.0,39.87141370000001,32.7364371,0.016736868292585173,0.02926244734068137,-0.16607123588176353,0.035529947456913825,0.07105371715631263,-0.17045414418436874,0.027380215366733414,0.1319097173967936,-0.10167330878156314,0.15510421593386772,-0.07157030260921851,-0.2947094328657313,-3.55e-05,1.0,8843922.571142284,1.0,0.0,0.0,0.0,0.0
8891377.0,-0.05155147498196393,-0.16551813576152305,-0.03954971179759519,1.0,0.0,1481.34513753507,1500.0,2000.0,1525.5475423446894,1473.4524576553106,1429.2144288577153,18.48808475240481,18.849241450981964,20.957202101262524,20.947212411162322,21.356978737074147,20.958496096412826,21.36848198336673,275.24054961242484,275.24054961242484,12.402079776052105,-6.38785771543086e-05,-0.005655886478957916,0.0010868252805611223,0.03399661439478958,-0.004956108911823648,-0.09726215150501001,2.0,-1.0,0.0,11.0,0.0,0.0,1.0,0.0,0.0,0.0,0.0,0.0,0.0,0.0,0.0,-0.12473757815430862,-2.1340097226833667,-2.213927347683367,-6.062041121232465,269.63768123887775,56.70762399905812,-0.0013491343346693388,-0.005375528701402806,0.0,-0.0032826205270541082,14.864457886172344,-0.14745938281763532,-9.946856414448899,18869296.186713435,966.1679717851704,12.404527027895792,0.2968036859679359,-0.11039808366733465,0.09623927430260519,14.69669440727455,-0.24311354888376754,-9.757081096408818,0.28552670813426856,-0.1145038988777555,0.09620447756112221,18869296.186713435,2.7298954330360723,2.7178955243687377,0.40059518920440884,4.192110603617235,13.255706366492985,23.36481516739479,-0.20218216657515029,0.926519716987976,0.10999999,-77.0286542310421,399.6118965330661,12.404533997154308,96616.34965470943,1.1479620695731463,0.26828140856713434,1.8704412476513024,-1.4916109667494992,0.3061567721743487,-0.028510330727454895,0.005610500202404781,0.0,-0.1534193896212425,1.6242758999999998,0.6859228691182365,0.05561802298196392,-0.05272038638677354,0.7236228023246494,1.0,398714138.0,327364924.28998,400121.0433290581,16.703823091122246,0.01723909085571142,16.70362880731463,-0.02862626670941884,1.5695538559539077,0.0,0.0,0.0,756000.0,39.87141370000001,32.7364371,0.017455617298597195,0.03127213586973948,-0.1688270583767535,0.03628551572344689,0.07603797700801602,-0.1716917743987976,0.01240269401603206,0.15789645403206415,-0.15786162211022045,0.15582552660521043,-0.09332987414829659,-0.2615800608617234,-3.55e-05,1.0,8891377.220440881,1.0,0.0,0.0,0.0,0.0
