timestamp,control[0],control[1],control[2],control[3],control[4]
17004000,0.030550681,0.022802366,-0.005421163,0.15,0
17008000,0.029904151,0.022851745,-0.005085327,0.15,0
17012000,0.029261878,0.022822006,-0.00496047,0.15,0
17020000,0.028098736,0.022764359,-0.005208671,0.15,0
17024000,0.028140023,0.022760764,-0.005236926,0.15,0
17028000,0.028561544,0.02284475,-0.00537827,0.15,0
17032000,0.02820833,0.02285716,-0.005504697,0.15,0
17036000,0.027374439,0.022714552,-0.005430612,0.15,0
17040000,0.026707428,0.02272364,-0.005234916,0.15,0
17044000,0.026196338,0.022760445,-0.005201136,0.15,0
17048000,0.025561094,0.022642164,-0.005202848,0.15,0
17052000,0.025602857,0.022562481,-0.005206456,0.15,0
17056000,0.02692383,0.022727152,-0.005407724,0.15,0
17060000,0.028285267,0.023025416,-0.005568653,0.15,0
17064000,0.029303972,0.023161896,-0.005495624,0.15,0
17068000,0.03108668,0.0230952,-0.005302417,0.15,0
17072000,0.032722022,0.023050861,-0.005126946,0.15,0
17076000,0.03269401,0.023081265,-0.005110015,0.15,0
17080000,0.031222668,0.023245277,-0.004905299,0.15,0
17084000,0.030605407,0.023227794,-0.004943023,0.15,0
17088000,0.031065807,0.023218729,-0.005161223,0.15,0
17092000,0.031691626,0.023324754,-0.005307267,0.15,0
17096000,0.031781808,0.023358472,-0.005266287,0.15,0
17100000,0.03169206,0.02315498,-0.005372542,0.15,0
17104000,0.03144367,0.022932382,-0.005475754,0.15,0
17108000,0.030720446,0.02296797,-0.005531536,0.15,0
17112000,0.030129278,0.023046982,-0.005612988,0.15,0
17116000,0.029433884,0.022930436,-0.005562474,0.15,0
17120000,0.027963502,0.022875844,-0.005330898,0.15,0
17124000,0.027350798,0.022958344,-0.005156852,0.15,0
17128000,0.028380677,0.02295574,-0.005190189,0.15,0
17132000,0.029952282,0.022856591,-0.005270696,0.15,0
17136000,0.030226717,0.022768589,-0.00525286,0.15,0
17140000,0.029348625,0.022749556,-0.005376606,0.15,0
17144000,0.028955005,0.022815045,-0.005669908,0.15,0
17148000,0.028965885,0.02300287,-0.005891518,0.15,0
17152000,0.028872563,0.023250591,-0.005970706,0.15,0
17156000,0.028535306,0.023167314,-0.005774402,0.15,0
17164000,0.028024048,0.022817371,-0.005424593,0.15,0
17168000,0.027252443,0.022840198,-0.00556723,0.15,0
17172000,0.027714526,0.023066763,-0.005867518,0.15,0
17180000,0.027070243,0.023161635,-0.005715062,0.15,0
17184000,0.02739831,0.02286858,-0.005635709,0.15,0
17188000,0.027888281,0.022625221,-0.00557555,0.15,0
17192000,0.027832923,0.02257325,-0.005528078,0.15,0
17196000,0.028161073,0.02271666,-0.005479997,0.15,0
17200000,0.02830181,0.022855029,-0.005428293,0.15,0
17204000,0.028115638,0.022959162,-0.005523259,0.15,0
17208000,0.028236143,0.023028845,-0.005661019,0.15,0
17212000,0.028965766,0.0228387,-0.005752897,0.15,0
17216000,0.030119335,0.022424668,-0.00583035,0.15,0
17220000,0.030657068,0.022161597,-0.00572895,0.15,0
17224000,0.030644545,0.022148198,-0.005394022,0.15,0
17228000,0.030672094,0.022232741,-0.00510429,0.15,0
17232000,0.030929595,0.02248964,-0.005059526,0.15,0
17236000,0.030947372,0.02251757,-0.005058547,0.15,0
17240000,0.031233203,0.023319365,-0.005385833,0.15,0
17244000,0.021574005,0.0237114,0.001238254,0,0
17248000,0.02072488,0.023857133,0.001018346,0,0
17252000,0.020201702,0.023740092,0.000205544,0,0
17256000,0.020972418,0.023389168,-0.001006276,0,0
17260000,0.022432406,0.022854403,-0.001388627,0,0
17264000,0.022869974,0.022515396,-0.0006582,0,0
17268000,0.022125171,0.02260698,0.00027952,1,0
17272000,0.02104615,0.022846008,0.001236306,1,0
17276000,0.020350216,0.022954842,0.002199055,1,0
17280000,0.020275304,0.022902846,0.002786599,1,0
17284000,0.020368196,0.022871988,0.002893439,1,0
17288000,0.01998058,0.023076849,0.003016995,1,0
17292000,0.019625021,0.023219112,0.003685171,1,0
17296000,0.020047117,0.02312607,0.004297222,1,0
17300000,0.020427534,0.023008611,0.003800446,1,0
17304000,0.020422034,0.023000598,0.00257775,1,0
17308000,0.020772263,0.023131784,0.001497774,1,0
17312000,0.021202164,0.023248125,0.000723509,1,0
17316000,0.021186475,0.023254622,0.000890402,1,0
17320000,0.02016576,0.023234129,0.002766248,1,0
17324000,0.019701647,0.023284813,0.003442066,1,0
17328000,0.019349826,0.023285583,0.002857241,1,0
17332000,0.019465914,0.02323721,0.002806746,1,0
17336000,0.019397408,0.023350814,0.003468477,1,0
17340000,0.019363971,0.023393044,0.003509317,1,0
17344000,0.017795678,0.023749895,0.003092899,1,0
17348000,0.017554894,0.023671081,0.002227349,1,0
17352000,0.017584706,0.023524048,0.00130391,1,0
17356000,0.018379174,0.023440361,0.001224511,1,0
17360000,0.02007245,0.023460519,0.001566988,1,0
17364000,0.020089287,0.023452405,0.001671422,1,0
17368000,0.022085667,0.02327215,0.003797521,1,0
17372000,0.021058468,0.023253202,0.005030653,1,0
17376000,0.019483054,0.02333081,0.004790392,1,0
17380000,0.019076405,0.023356047,0.003824737,1,0
17384000,0.019532932,0.023275694,0.003118835,1,0
17388000,0.019794665,0.02317523,0.003341158,1,0
17392000,0.0197394,0.023103537,0.003895316,1,0
17396000,0.020062864,0.023031788,0.004975598,1,0
17400000,0.020763587,0.022981558,0.00601122,1,0
17404000,0.021027226,0.022943137,0.006161341,1,0
17408000,0.020726077,0.022809433,0.006178866,1,0
17412000,0.020755934,0.022859247,0.006028764,1,0
17416000,0.021417186,0.023121824,0.005194512,1,0
17420000,0.020966431,0.023074439,0.003986386,1,0
17424000,0.019099303,0.022878634,0.003312033,1,0
17428000,0.018316137,0.022852575,0.003201778,1,0
17432000,0.01927535,0.022869326,0.003552076,1,0
17436000,0.020607783,0.022936253,0.004498708,1,0
17444000,0.020791864,0.02315963,0.005388836,1,0
17448000,0.019987592,0.023207495,0.005279471,1,0
17452000,0.019352386,0.023236345,0.005610708,1,0
17456000,0.019248785,0.023038983,0.004770092,1,0
17460000,0.019537374,0.022705413,0.003788449,1,0
17464000,0.019740967,0.022577953,0.002851986,1,0
17468000,0.019390123,0.022858925,0.002933564,1,0
17472000,0.018999591,0.023365144,0.003382875,1,0
17476000,0.01869646,0.023599137,0.004096702,1,0
17484000,0.018907402,0.023320202,0.004301452,1,0
17488000,0.021281868,0.022270316,0.003772063,1,0
17492000,0.021220144,0.021845419,0.003571782,1,0
17496000,0.021232259,0.021819305,0.00337181,1,0
17500000,0.020728368,0.02200739,0.003089068,1,0
17504000,0.019953892,0.022308666,0.002932152,1,0
17508000,0.019987514,0.022526901,0.00304772,1,0
17516000,0.022830633,0.022714077,0.002668036,1,0
17520000,0.02353967,0.022619374,0.002563383,1,0
17524000,0.0228651,0.022420632,0.003198404,1,0
17528000,0.021062281,0.02241569,0.003731658,1,0
17532000,0.019624295,0.022552721,0.004302394,1,0
17540000,0.019323766,0.022918556,0.004769526,1,0
17544000,0.020467443,0.022876436,0.004022446,1,0
17548000,0.02170628,0.02274431,0.00353796,1,0
17552000,0.022903126,0.022663992,0.00316693,1,0
17556000,0.023376627,0.022527555,0.00312514,1,0
17560000,0.02263463,0.022301856,0.002909636,1,0
17564000,0.021606436,0.022167338,0.002642414,1,0
17568000,0.020614512,0.022246096,0.002425065,1,0
17572000,0.02061443,0.022237837,0.002451764,1,0
17576000,0.02031589,0.022590375,0.002511162,1,0
17580000,0.018513996,0.020147229,0.002483809,1,0
17584000,0.01951566,0.020038785,0.002161241,1,0
17588000,0.019545868,0.020012392,0.002161428,1,0
17592000,0.019556042,0.019809911,0.001983908,1,0
17596000,0.018756345,0.019865736,0.002095067,1,0
17600000,0.018393286,0.019985408,0.002045652,1,0
17604000,0.017841354,0.020015318,0.002121152,1,0
17612000,0.016865646,0.019908866,0.00247884,1,0
17616000,0.016824124,0.01988526,0.002704017,1,0
17620000,0.016819425,0.019867605,0.002760574,1,0
17624000,0.01680882,0.01977843,0.002862854,1,0
17628000,0.016837195,0.019733801,0.002913738,1,0
17636000,0.019812744,0.019116709,0.003006192,1,0
17640000,0.02001107,0.019128932,0.002750108,1,0
17644000,0.019606546,0.019308096,0.002446354,1,0
17648000,0.018952467,0.01961306,0.00226043,1,0
17652000,0.018335272,0.01970673,0.002139328,1,0
17656000,0.017900072,0.019443441,0.001735456,1,0
17660000,0.017486922,0.019136867,0.001441103,1,0
17664000,0.017008374,0.019049173,0.001426396,1,0
17668000,0.016489496,0.01909909,0.001491079,1,0
17672000,0.016213829,0.019188998,0.001403893,1,0
17676000,0.016217723,0.019278554,0.001393605,1,0
17680000,0.011712453,0.015228356,0.001404562,1,0
17684000,0.011880433,0.015272185,0.001470426,1,0
17688000,0.012078635,0.01525128,0.001437693,1,0
17692000,0.012280511,0.015207133,0.001293774,1,0
17696000,0.012337754,0.015184739,0.00104862,1,0
17700000,0.012009271,0.015255662,0.000657349,1,0
17708000,0.011855347,0.015508381,-0.000148126,1,0
17712000,0.012741167,0.015545233,-0.000243659,1,0
17716000,0.013295293,0.015508823,-0.00032112,1,0
17720000,0.012829463,0.015563707,-0.000682174,1,0
17724000,0.012050251,-0.29932228,-0.001292305,1,0
17728000,0.011923447,-0.2994036,-0.001832862,1,0
17732000,0.012395812,-0.29950634,-0.002227879,1,0
17736000,0.012565805,-0.2996502,-0.002508027,1,0
17740000,0.012538981,-0.29976836,-0.002860377,1,0
17744000,0.010482448,-0.29991806,-0.004759178,1,0
17748000,0.009293654,-0.2861942,-0.006831544,1,0
17752000,0.008222663,-0.2862136,-0.008782746,1,0
17756000,0.007321458,-0.28607252,-0.010740352,1,0
17760000,0.006112069,-0.28603715,-0.012504438,1,0
17764000,0.004424881,-0.28609264,-0.014446097,1,0
17768000,0.003020542,-0.28601357,-0.016049333,1,0
17772000,0.001990264,-0.27264288,-0.018018587,1,0
17776000,0.0006119,-0.27240342,-0.019703234,1,0
17780000,-0.000233466,-0.23354173,-0.021877086,1,0
17784000,-0.001586189,-0.23357876,-0.023693243,1,0
17788000,-0.001724704,-0.2336111,-0.02494498,1,0
17792000,-0.004404119,-0.23354475,-0.027354792,1,0
17796000,-0.005515646,-0.22284527,-0.0293672,1,0
17800000,-0.006406375,-0.2227594,-0.030908192,1,0
17804000,-0.007705608,-0.22271235,-0.03305205,1,0
17808000,-0.009542325,-0.22272277,-0.03475347,1,0
17812000,-0.011511025,-0.22280234,-0.036926888,1,0
17816000,-0.013297798,-0.22285323,-0.038236614,1,0
17820000,-0.01497197,-0.21281403,-0.039929945,1,0
17828000,-0.018393029,-0.21301363,-0.04305359,1,0
17832000,-0.020277781,-0.21319939,-0.044309936,1,0
17836000,-0.021994185,-0.21334466,-0.04616727,1,0
17840000,-0.023549953,-0.21343628,-0.04733685,1,0
17844000,-0.024994038,-0.20391503,-0.048996024,1,0
17848000,-0.026341196,-0.2039236,-0.0498098,1,0
17852000,-0.028089695,-0.20397316,-0.05117268,1,0
17856000,-0.030357242,-0.20416215,-0.05183302,1,0
17860000,-0.032511625,-0.20442505,-0.05310235,1,0
17864000,-0.034207396,-0.20463298,-0.05364095,1,0
17868000,-0.035706546,-0.19555221,-0.054826435,1,0
17872000,-0.037618008,-0.19561881,-0.05528982,1,0
17876000,-0.04008011,-0.19575977,-0.05627732,1,0
17884000,-0.035699133,-0.17447636,-0.057330675,1,0
17888000,-0.03685673,-0.1745501,-0.05730172,1,0
17892000,-0.037927724,-0.16681583,-0.05778371,1,0
17896000,-0.03931471,-0.16690294,-0.05752623,1,0
17900000,-0.041081496,-0.16706723,-0.05782729,1,0
17908000,-0.04476051,-0.16755195,-0.057914734,1,0
17912000,-0.046511743,-0.1677822,-0.057694256,1,0
17916000,-0.04822942,-0.16047375,-0.057947464,1,0
17920000,-0.049804777,-0.16061065,-0.05747439,1,0
17924000,-0.051229417,-0.16082725,-0.05744589,1,0
17928000,-0.0524919,-0.16100228,-0.05673638,1,0
17932000,-0.053602073,-0.16107139,-0.056450456,1,0
17940000,-0.05615044,-0.15387316,-0.05544219,1,0
17944000,-0.05748479,-0.15397105,-0.05477172,1,0
17948000,-0.05891034,-0.15410891,-0.054545894,1,0
17956000,-0.06167482,-0.1540847,-0.053035427,1,0
17960000,-0.0629425,-0.15404283,-0.0519225,1,0
17964000,-0.0640722,-0.14703727,-0.051250756,1,0
17968000,-0.0650345,-0.14700551,-0.05015207,1,0
17972000,-0.06590622,-0.14700495,-0.049552135,1,0
17976000,-0.06669513,-0.14697921,-0.0485408,1,0
17980000,-0.058904853,-0.13618398,-0.047798,1,0
17988000,-0.060133852,-0.12970899,-0.045826185,1,0
17992000,-0.060676683,-0.12961408,-0.04461496,1,0
17996000,-0.06150413,-0.12957352,-0.04361533,1,0
18000000,-0.062491734,-0.12950093,-0.042182945,1,0
18004000,-0.06324064,-0.12941052,-0.041048393,1,0
18008000,-0.06380294,-0.12936795,-0.03982299,1,0
18012000,-0.0645247,-0.12335208,-0.03897907,1,0
18016000,-0.06527052,-0.12338181,-0.037740618,1,0
18020000,-0.06586113,-0.123384684,-0.036603954,1,0
18024000,-0.06659535,-0.12333331,-0.035200916,1,0
18028000,-0.06743857,-0.12320221,-0.034009732,1,0
18032000,-0.068068884,-0.123024665,-0.03266886,1,0
18036000,-0.06847321,-0.11699082,-0.03152866,1,0
18040000,-0.06882614,-0.11689952,-0.03014379,1,0
18044000,-0.069355264,-0.116838805,-0.02894161,1,0
18048000,-0.07010089,-0.11671164,-0.027604802,1,0
18052000,-0.07075104,-0.116558775,-0.026416423,1,0
18056000,-0.07109379,-0.11645078,-0.025120284,1,0
18060000,-0.071230434,-0.11065941,-0.024004355,1,0
18068000,-0.07185954,-0.110452324,-0.021501489,1,0
18072000,-0.071979254,-0.11029604,-0.02023589,1,0
18076000,-0.07184651,-0.110150196,-0.019123225,1,0
18080000,-0.06557953,-0.10440002,-0.017862499,1,0
18084000,-0.065726176,-0.09909246,-0.01667214,1,0
18088000,-0.06568793,-0.099083595,-0.015393073,1,0
18092000,-0.066214085,-0.099020846,-0.014335291,1,0
18100000,-0.06676976,-0.09889495,-0.011534367,1,0
18104000,-0.06720748,-0.0988746,-0.010310188,1,0
18108000,-0.067648105,-0.09376439,-0.009178807,1,0
18112000,-0.067959,-0.09382362,-0.008152207,1,0
18116000,-0.06809091,-0.093845434,-0.00718692,1,0
18120000,-0.06814874,-0.09381463,-0.006129999,1,0
18124000,-0.06833137,-0.09382609,-0.005030669,1,0
18128000,-0.068562664,-0.093927205,-0.00396517,1,0
18132000,-0.06862557,-0.08899385,-0.002941394,1,0
18136000,-0.068662725,-0.089035645,-0.001929004,1,0
18140000,-0.06866456,-0.08906019,-0.000888501,1,0
18144000,-0.068569414,-0.08909748,0.000186596,1,0
18148000,-0.068641216,-0.08918307,0.001259112,1,0
18152000,-0.06875742,-0.08931903,0.002259383,1,0
18156000,-0.06886615,-0.084530346,0.003195574,1,0
18160000,-0.06918994,-0.08469632,0.003921533,1,0
18164000,-0.06954807,-0.084858425,0.004612391,1,0
18168000,-0.069713876,-0.08498304,0.005338386,1,0
18172000,-0.06967664,-0.085072204,0.006293875,1,0
18180000,-0.06966389,-0.080536775,0.008117239,1,0
18184000,-0.070095785,-0.08063987,0.008992194,1,0
18188000,-0.070282854,-0.08105847,0.009569884,1,0
18192000,-0.07073093,-0.08138282,0.010241103,1,0
18196000,-0.07115437,-0.08152173,0.01110296,1,0
18200000,-0.071124025,-0.081906855,0.011565407,1,0
18204000,-0.07097965,-0.077432536,0.01215166,1,0
18208000,-0.07102315,-0.07760124,0.012313904,1,0
18212000,-0.071286544,-0.07744311,0.011950055,1,0
18220000,-0.07154828,-0.076928675,0.01096291,1,0
18224000,-0.071562216,-0.076872356,0.010768788,1,0
18228000,-0.07153325,-0.07221928,0.010751367,1,0
18232000,-0.071611755,-0.07231036,0.010647172,1,0
18236000,-0.072098985,-0.07238911,0.010480515,1,0
18240000,-0.072682485,-0.072449595,0.010198828,1,0
18244000,-0.073013805,-0.07249512,0.00988052,1,0
18248000,-0.07310858,-0.072534636,0.009543731,1,0
18252000,-0.0731683,-0.06795891,0.009322921,1,0
18256000,-0.07331285,-0.06807461,0.009099253,1,0
18260000,-0.073382996,-0.06822547,0.008813777,1,0
18264000,-0.07343518,-0.068378635,0.008400502,1,0
18268000,-0.07353496,-0.06852078,0.007958935,1,0
18272000,-0.07353988,-0.06861834,0.007447295,1,0
18280000,-0.073807925,-0.06410436,0.006250831,1,0
18284000,-0.07403633,-0.06413922,0.005553076,1,0
18288000,-0.07427693,-0.06422506,0.004848392,1,0
18292000,-0.07453509,-0.06433081,0.004179502,1,0
18296000,-0.074702755,-0.06445273,0.003482595,1,0
18300000,-0.075046055,-0.0599831,0.003113428,1,0
18304000,-0.075030014,-0.060265552,0.002027385,1,0
18308000,-0.07534665,-0.060534887,0.00134386,1,0
18312000,-0.0758236,-0.060798775,0.000676627,1,0
18316000,-0.0763305,-0.061087757,-0.000100677,1,0
18320000,-0.07671198,-0.061444238,-0.000940025,1,0
18324000,-0.076724485,-0.057374887,-0.001701679,1,0
18332000,-0.07681019,-0.057995796,-0.002878964,1,0
18340000,-0.07722104,-0.058848906,-0.004113102,1,0
18344000,-0.07778485,-0.05955879,-0.004772039,1,0
18348000,-0.07811348,-0.055409845,-0.005339162,1,0
18352000,-0.078239016,-0.05624106,-0.005881604,1,0
18356000,-0.07825363,-0.056850612,-0.006435134,1,0
18360000,-0.07820775,-0.057504144,-0.006937859,1,0
18364000,-0.07814818,-0.058162622,-0.007392275,1,0
18368000,-0.0782099,-0.05884498,-0.007803115,1,0
18372000,-0.07852677,-0.054896615,-0.008324041,1,0
18380000,-0.07899827,-0.056630492,-0.009082969,1,0
18388000,-0.07941719,-0.057873733,-0.010000298,1,0
18392000,-0.07928741,-0.058898196,-0.010249706,1,0
18396000,-0.07947269,-0.05534154,-0.010698686,1,0
18400000,-0.07968888,-0.05607503,-0.011147751,1,0
18404000,-0.07988619,-0.056777008,-0.011601919,1,0
18408000,-0.08001394,-0.05746045,-0.011985971,1,0
18412000,-0.08009348,-0.05815632,-0.012389201,1,0
18416000,-0.08010431,-0.058903877,-0.012728404,1,0
18420000,-0.08004444,-0.05536125,-0.013072154,1,0
18428000,-0.07999592,-0.056937795,-0.013675048,1,0
18432000,-0.079955705,-0.05774354,-0.013854936,1,0
18436000,-0.07992644,-0.0585507,-0.014079884,1,0
18440000,-0.07988875,-0.059373543,-0.01424549,1,0
18444000,-0.0799611,-0.05593787,-0.014331363,1,0
18448000,-0.080122694,-0.0567461,-0.014439631,1,0
18452000,-0.08028005,-0.057441413,-0.014707587,1,0
18456000,-0.08030785,-0.058170892,-0.014968805,1,0
18460000,-0.080071844,-0.059001625,-0.015183323,1,0
18464000,-0.07982547,-0.05981704,-0.015273429,1,0
18468000,-0.079856716,-0.05630378,-0.015336989,1,0
18472000,-0.0801701,-0.057059903,-0.01543976,1,0
18476000,-0.08049918,-0.057777144,-0.01564113,1,0
18484000,-0.08097797,-0.059203316,-0.016063966,1,0
18492000,-0.08068884,-0.05650542,-0.016302586,1,0
18496000,-0.08067314,-0.05736238,-0.016360868,1,0
18500000,-0.08091677,-0.05811836,-0.016563114,1,0
18504000,-0.081200175,-0.058881428,-0.016354978,1,0
18508000,-0.08142833,-0.05954946,-0.01643782,1,0
18512000,-0.08145961,-0.06018302,-0.016601045,1,0
18516000,-0.08121643,-0.056563936,-0.016725264,1,0
18524000,-0.08057497,-0.057869427,-0.016610296,1,0
18528000,-0.08009637,-0.05847817,-0.016575687,1,0
18532000,-0.07999164,-0.059057996,-0.016639603,1,0
18540000,-0.08122434,-0.05606512,-0.01670687,1,0
18548000,-0.08169038,-0.057087198,-0.016762324,1,0
18552000,-0.08176913,-0.05767303,-0.016780604,1,0
18556000,-0.081593774,-0.058338482,-0.01678362,1,0
18560000,-0.08117725,-0.05897092,-0.016739061,1,0
18564000,-0.08137072,-0.0553913,-0.016800463,1,0
18568000,-0.08087788,-0.05590052,-0.016729381,1,0
18572000,-0.081020236,-0.05646147,-0.016761502,1,0
18576000,-0.08102047,-0.05699082,-0.016694473,1,0
18580000,-0.08095096,-0.057452336,-0.016549027,1,0
18584000,-0.08088237,-0.057906486,-0.016372366,1,0
18588000,-0.080854595,-0.054194864,-0.016264116,1,0
18592000,-0.08095194,-0.05470014,-0.016229954,1,0
18596000,-0.081127234,-0.05527848,-0.016237544,1,0
18600000,-0.08114995,-0.055662174,-0.016254954,1,0
18604000,-0.08124449,-0.05612615,-0.016275916,1,0
18608000,-0.081335045,-0.056663223,-0.016331416,1,0
18612000,-0.08133941,-0.053014174,-0.01633522,1,0
18616000,-0.08109714,-0.05351511,-0.01628996,1,0
18620000,-0.08072193,-0.053956114,-0.016238458,1,0
18624000,-0.08047713,-0.0543698,-0.016166497,1,0
18628000,-0.08040092,-0.05478114,-0.016162325,1,0
18632000,-0.080499664,-0.055245247,-0.01621559,1,0
18636000,-0.08070218,-0.05153599,-0.01625973,1,0
18640000,-0.08091641,-0.052004628,-0.016202096,1,0
18644000,-0.08122212,-0.052436206,-0.016192954,1,0
18652000,-0.08177455,-0.053145766,-0.016452242,1,0
18660000,-0.08162809,-0.049808104,-0.016751638,1,0
18664000,-0.08158617,-0.050313964,-0.016865127,1,0
18668000,-0.08157201,-0.050748747,-0.016936257,1,0
18672000,-0.08162592,-0.051162273,-0.017015032,1,0
18676000,-0.081775464,-0.051634174,-0.017093293,1,0
18680000,-0.08188265,-0.05208178,-0.017312437,1,0
18684000,-0.082049675,-0.04822459,-0.017460337,1,0
18688000,-0.08219677,-0.048529167,-0.017645134,1,0
18692000,-0.08220565,-0.04885791,-0.01785091,1,0
18700000,-0.082117245,-0.049656056,-0.018191181,1,0
18704000,-0.08215955,-0.050102394,-0.018389922,1,0
18708000,-0.08219739,-0.04630988,-0.018584747,1,0
18712000,-0.0821075,-0.046724353,-0.018760223,1,0
18716000,-0.08193154,-0.047115613,-0.018921744,1,0
18720000,-0.08186003,-0.04747033,-0.01903909,1,0
18724000,-0.08202065,-0.04788396,-0.019290322,1,0
18728000,-0.08222385,-0.048367172,-0.019684218,1,0
18732000,-0.082182296,-0.044551373,-0.020018056,1,0
18736000,-0.08200987,-0.044844404,-0.020245414,1,0
18740000,-0.08203311,-0.0452201,-0.020451635,1,0
18744000,-0.08218322,-0.045711555,-0.020654403,1,0
18748000,-0.08225554,-0.046210706,-0.020922951,1,0
18752000,-0.08240462,-0.04669658,-0.021225818,1,0
18756000,-0.08260696,-0.04292102,-0.02156626,1,0
18760000,-0.08262437,-0.04328921,-0.021961346,1,0
18764000,-0.08252615,-0.043630432,-0.022370279,1,0
18768000,-0.08253731,-0.0440178,-0.022712559,1,0
18772000,-0.0826336,-0.044489168,-0.023116384,1,0
18780000,-0.082707174,-0.04124812,-0.023998652,1,0
18784000,-0.08271179,-0.04168565,-0.024273429,1,0
18788000,-0.08257946,-0.042102538,-0.024538469,1,0
18792000,-0.08246973,-0.04253542,-0.024858719,1,0
18796000,-0.082699805,-0.04298786,-0.025271088,1,0
18800000,-0.08322919,-0.043446325,-0.025732815,1,0
18804000,-0.08336214,-0.03963543,-0.026092421,1,0
18808000,-0.08390944,-0.04009049,-0.026724642,1,0
18812000,-0.08369991,-0.0405157,-0.027113546,1,0
18816000,-0.083388396,-0.04092188,-0.027424727,1,0
18820000,-0.08341314,-0.041344527,-0.027827911,1,0
18824000,-0.083543375,-0.04179904,-0.028288255,1,0
18828000,-0.08369844,-0.03800841,-0.028713766,1,0
18836000,-0.084098235,-0.038897865,-0.029509595,1,0
18840000,-0.08389286,-0.039431654,-0.030000597,1,0
18844000,-0.08382937,-0.039894573,-0.030384773,1,0
18848000,-0.083939,-0.04037669,-0.03079816,1,0
18852000,-0.08412169,-0.03664134,-0.031316705,1,0
18856000,-0.08426483,-0.037123933,-0.031855777,1,0
18860000,-0.08424842,-0.03755714,-0.03232173,1,0
18868000,-0.08426363,-0.038489502,-0.033039387,1,0
18872000,-0.08419058,-0.03903129,-0.03344999,1,0
18876000,-0.084252715,-0.03530887,-0.0339313,1,0
18880000,-0.08439863,-0.03586687,-0.03441754,1,0
18884000,-0.08462697,-0.036397345,-0.034855284,1,0
18888000,-0.08472671,-0.036863647,-0.03524195,1,0
18892000,-0.08457746,-0.037303936,-0.035600223,1,0
18900000,-0.08466382,-0.03395839,-0.036425862,1,0
18904000,-0.08489987,-0.03449349,-0.036872078,1,0
18908000,-0.0849935,-0.035017774,-0.037240155,1,0
18916000,-0.08486462,-0.036091596,-0.038248084,1,0
18920000,-0.084931076,-0.036569323,-0.038782194,1,0
18924000,-0.085115604,-0.032744527,-0.039385624,1,0
18928000,-0.08509568,-0.03323838,-0.039906196,1,0
18932000,-0.08490756,-0.033787347,-0.040235534,1,0
18936000,-0.084789835,-0.0343721,-0.04053691,1,0
18940000,-0.08478283,-0.034910284,-0.040922176,1,0
18944000,-0.08481448,-0.035384327,-0.041412935,1,0
18948000,-0.08480451,-0.031594716,-0.0419167,1,0
18956000,-0.08506907,-0.03261427,-0.042579263,1,0
18960000,-0.08539225,-0.03310743,-0.042914707,1,0
18964000,-0.08561982,-0.033617884,-0.043329395,1,0
18968000,-0.08562769,-0.034110308,-0.043788992,1,0
18972000,-0.08550074,-0.030320086,-0.04424043,1,0
18976000,-0.08530844,-0.030870467,-0.044651944,1,0
18984000,-0.08486605,-0.03195078,-0.045313496,1,0
18988000,-0.08472052,-0.03237591,-0.045639947,1,0
18992000,-0.08500727,-0.032752655,-0.046014424,1,0
18996000,-0.08553592,-0.028910935,-0.0464139,1,0
19000000,-0.085808605,-0.02950185,-0.046809316,1,0
19004000,-0.08598577,-0.030072847,-0.047210623,1,0
19008000,-0.0861169,-0.030548532,-0.047332123,1,0
19012000,-0.08595183,-0.031011276,-0.04724471,1,0
19016000,-0.08563048,-0.031530805,-0.0471311,1,0
19020000,-0.08544337,-0.027729062,-0.047063448,1,0
19024000,-0.0855408,-0.028223662,-0.047090217,1,0
19028000,-0.085804686,-0.028725132,-0.047074795,1,0
19032000,-0.08595761,-0.029233841,-0.047000993,1,0
19036000,-0.08588115,-0.029705182,-0.046909288,1,0
19040000,-0.08581857,-0.030174606,-0.046798028,1,0
19044000,-0.08597052,-0.026323825,-0.046695657,1,0
19048000,-0.08594651,-0.02680955,-0.04674565,1,0
19052000,-0.085681215,-0.027316667,-0.046864986,1,0
19060000,-0.08569019,-0.028421856,-0.04693142,1,0
19064000,-0.08605579,-0.028992284,-0.046819,1,0
19068000,-0.08628461,-0.025102518,-0.04674714,1,0
19072000,-0.086336926,-0.025571559,-0.046736825,1,0
19076000,-0.08612714,-0.025983863,-0.046716407,1,0
19080000,-0.0858589,-0.026385853,-0.04672028,1,0
19084000,-0.08584709,-0.026887022,-0.04672353,1,0
19088000,-0.08605865,-0.02750348,-0.046676904,1,0
19092000,-0.08613213,-0.023719646,-0.04655338,1,0
19100000,-0.08610526,-0.024646237,-0.04641532,1,0
19104000,-0.08630975,-0.025166133,-0.046393964,1,0
19108000,-0.08646559,-0.025659997,-0.04638411,1,0
19112000,-0.086537965,-0.026074355,-0.046401754,1,0
19116000,-0.08654829,-0.022105468,-0.04634399,1,0
19120000,-0.08631539,-0.022596225,-0.046241418,1,0
19124000,-0.08593188,-0.023143316,-0.046132114,1,0
19128000,-0.08580107,-0.02369691,-0.04611828,1,0
19132000,-0.0858858,-0.024198063,-0.046178833,1,0
19136000,-0.08600209,-0.024652166,-0.04629101,1,0
19140000,-0.086224705,-0.020669695,-0.04636181,1,0
19144000,-0.08640948,-0.021099646,-0.04641954,1,0
19148000,-0.0864567,-0.021559766,-0.046393786,1,0
19152000,-0.0864721,-0.022016104,-0.04632001,1,0
19160000,-0.08647531,-0.02293304,-0.046324898,1,0
19164000,-0.08635309,-0.018994056,-0.046369337,1,0
19168000,-0.08614997,-0.01954359,-0.04637967,1,0
19172000,-0.08604699,-0.020138701,-0.046346966,1,0
19176000,-0.0862018,-0.020638138,-0.04635322,1,0
19180000,-0.08656252,-0.021030698,-0.04638531,1,0
19184000,-0.086841434,-0.021473564,-0.04644405,1,0
19188000,-0.086883545,-0.017544687,-0.046460222,1,0
19196000,-0.086088575,-0.018536923,-0.046502244,1,0
19204000,-0.085625805,-0.019342856,-0.046478823,1,0
19208000,-0.08604098,-0.019802311,-0.046452504,1,0
19212000,-0.08640128,-0.015834134,-0.04643955,1,0
19216000,-0.08652168,-0.016314436,-0.046491064,1,0
19220000,-0.08661105,-0.016782168,-0.046516757,1,0
19224000,-0.08679208,-0.017215231,-0.046531036,1,0
19228000,-0.08696056,-0.017643763,-0.046547655,1,0
19232000,-0.08708242,-0.018111013,-0.04661374,1,0
19236000,-0.087188534,-0.014123576,-0.04666295,1,0
19244000,-0.08678487,-0.015072737,-0.046760682,1,0
19248000,-0.08637101,-0.015569923,-0.046767935,1,0
19252000,-0.08622649,-0.016059006,-0.04677511,1,0
19256000,-0.08633391,-0.016485162,-0.046854414,1,0
19260000,-0.08638325,-0.012435076,-0.046858333,1,0
19264000,-0.08640002,-0.012700956,-0.046982743,1,0
19268000,-0.08633618,-0.013099169,-0.047008615,1,0
19272000,-0.0863975,-0.013557019,-0.046988793,1,0
19276000,-0.086364366,-0.014068587,-0.046880107,1,0
19280000,-0.08632575,-0.014534559,-0.046852343,1,0
19284000,-0.08648487,-0.010440005,-0.046932,1,0
19288000,-0.0866519,-0.010815685,-0.04708278,1,0
19292000,-0.08658904,-0.011222916,-0.047196932,1,0
19296000,-0.08642462,-0.011732879,-0.047298774,1,0
19300000,-0.08647275,-0.0121818,-0.047302775,1,0
19304000,-0.08643164,-0.012703206,-0.04730179,1,0
19308000,-0.08644597,-0.008546788,-0.047275476,1,0
19312000,-0.08654903,-0.008934127,-0.047318548,1,0
19316000,-0.08685733,-0.009420134,-0.047358066,1,0
19324000,-0.08779643,-0.010356567,-0.047493678,1,0
19328000,-0.08785579,-0.010731958,-0.047602355,1,0
19332000,-0.087725006,-0.006640876,-0.047680374,1,0
19336000,-0.08750531,-0.007229185,-0.047694452,1,0
19340000,-0.087176,-0.007862665,-0.04762829,1,0
19344000,-0.08694622,-0.008430652,-0.047614567,1,0
19348000,-0.087002456,-0.008892085,-0.04758701,1,0
19352000,-0.087387055,-0.009289016,-0.047546335,1,0
19356000,-0.08744401,-0.005200534,-0.047550365,1,0
19360000,-0.08779409,-0.005614054,-0.047602937,1,0
19364000,-0.08771942,-0.006085327,-0.047680285,1,0
19368000,-0.08769802,-0.006555852,-0.04779978,1,0
19372000,-0.08747042,-0.007021469,-0.047873937,1,0
19376000,-0.08723208,-0.007540643,-0.047953207,1,0
19380000,-0.08719474,-0.003513644,-0.04802206,1,0
19384000,-0.08732325,-0.003986474,-0.048107855,1,0
19388000,-0.08756821,-0.004440544,-0.04809413,1,0
19392000,-0.087871194,-0.004902798,-0.048062645,1,0
19396000,-0.08793186,-0.005369311,-0.048066773,1,0
19404000,-0.08836187,-0.001704481,-0.048080385,1,0
19408000,-0.08829966,-0.002208674,-0.048156668,1,0
19412000,-0.088204175,-0.002696419,-0.048181362,1,0
19416000,-0.088263966,-0.003185179,-0.048211753,1,0
19420000,-0.0882781,-0.003752602,-0.04826975,1,0
19424000,-0.08853492,-0.004174266,-0.04835444,1,0
19428000,-0.08860101,-3.18E-05,-0.048358615,1,0
19436000,-0.08845461,-0.000677388,-0.048446126,1,0
19440000,-0.088391535,-0.001044206,-0.048451312,1,0
19444000,-0.08851046,-0.001501266,-0.048424035,1,0
19448000,-0.08872741,-0.002107492,-0.048414096,1,0
19452000,-0.088936746,0.001882853,-0.048343748,1,0
19456000,-0.08895319,0.001379214,-0.048356626,1,0
19460000,-0.088778764,0.000884073,-0.048396748,1,0
19464000,-0.0884939,0.000320582,-0.048447862,1,0
19468000,-0.08824602,-0.000249075,-0.04846467,1,0
19472000,-0.08811697,-0.000760466,-0.048528828,1,0
19476000,-0.08813058,0.003397916,-0.0485363,1,0
19480000,-0.08843198,0.002931712,-0.048523847,1,0
19484000,-0.08892102,0.002457971,-0.048461676,1,0
19492000,-0.08920143,0.001547704,-0.048496112,1,0
19496000,-0.088624544,0.001181088,-0.04868406,1,0
19500000,-0.08859118,0.00537887,-0.048700474,1,0
19508000,-0.08887324,0.00436407,-0.04875113,1,0
19516000,-0.0892097,0.003161343,-0.048797768,1,0
19524000,-0.08926961,0.006810956,-0.048831977,1,0
19528000,-0.088762455,0.006316295,-0.048910778,1,0
19532000,-0.08844878,0.005829126,-0.048882842,1,0
19540000,-0.088437326,0.004918167,-0.048865084,1,0
19544000,-0.0890537,0.004505342,-0.048810914,1,0
19548000,-0.089112386,0.00867866,-0.048815154,1,0
19552000,-0.089550905,0.008168124,-0.04884427,1,0
19556000,-0.08948406,0.007731294,-0.048909537,1,0
19560000,-0.08953616,0.007242302,-0.048948884,1,0
19564000,-0.0893179,0.006739102,-0.048937067,1,0
19568000,-0.08940015,0.0062523,-0.04897122,1,0
19572000,-0.08961557,0.01047612,-0.04902502,1,0
19576000,-0.089684054,0.009989256,-0.049087964,1,0
19580000,-0.08959342,0.00947829,-0.04907195,1,0
19584000,-0.08949867,0.008983292,-0.049078636,1,0
19588000,-0.089554295,0.008492023,-0.049082913,1,0
19592000,-0.08973445,0.007998196,-0.048976056,1,0
19596000,-0.08974564,0.012233211,-0.048968352,1,0
19600000,-0.08951,0.01174877,-0.048990935,1,0
19604000,-0.08925589,0.011205127,-0.048954736,1,0
19608000,-0.08926764,0.010617124,-0.048979327,1,0
19612000,-0.08965776,0.010075292,-0.04898306,1,0
19616000,-0.09015991,0.009619514,-0.04900974,1,0
19620000,-0.09047275,0.013909822,-0.04898019,1,0
19624000,-0.0906591,0.013498299,-0.048999563,1,0
19632000,-0.090390965,0.012585087,-0.04914692,1,0
19636000,-0.08999513,0.012079963,-0.049212754,1,0
19640000,-0.0897587,0.011565546,-0.04926852,1,0
19644000,-0.08967693,0.015773524,-0.049250927,1,0
19648000,-0.089685276,0.01526691,-0.04929289,1,0
19652000,-0.089756295,0.014750632,-0.049301885,1,0
19656000,-0.08982245,0.014202405,-0.049293436,1,0
19660000,-0.08993991,0.013646012,-0.049212657,1,0
19664000,-0.09023698,0.013111074,-0.049193762,1,0
19668000,-0.090539016,0.017270628,-0.04917421,1,0
19672000,-0.09053281,0.016719632,-0.049229387,1,0
19676000,-0.090356514,0.016222022,-0.049266968,1,0
19680000,-0.09041017,0.015705036,-0.04930409,1,0
19684000,-0.09071123,0.015155666,-0.04928011,1,0
19688000,-0.09091268,0.014674911,-0.049315907,1,0
19692000,-0.090870686,0.018996634,-0.049281523,1,0
19696000,-0.09071106,0.018542314,-0.049268655,1,0
19700000,-0.09052743,0.018012416,-0.049243294,1,0
19704000,-0.09050637,0.017459871,-0.049269617,1,0
19708000,-0.09059395,0.016934438,-0.049236737,1,0
19712000,-0.09059695,0.016454896,-0.049222484,1,0
19716000,-0.09067826,0.020788476,-0.049191464,1,0
19720000,-0.09085028,0.02039579,-0.049228176,1,0
19724000,-0.09099071,0.019949645,-0.049239334,1,0
19728000,-0.09112458,0.019415688,-0.049315244,1,0
19732000,-0.09117237,0.018806146,-0.0493671,1,0
19736000,-0.09107034,0.018216562,-0.0494942,1,0
19740000,-0.09092137,0.022396203,-0.049567122,1,0
19744000,-0.09085502,0.021865591,-0.049620196,1,0
19748000,-0.090913326,0.021422494,-0.049599506,1,0
19756000,-0.09108278,0.020488782,-0.04963033,1,0
19760000,-0.09114071,0.019997317,-0.04962799,1,0
19764000,-0.0910563,0.02420913,-0.04955002,1,0
19768000,-0.090638876,0.023610383,-0.04961945,1,0
19772000,-0.09052879,0.023173986,-0.04966362,1,0
19776000,-0.09063819,0.02272747,-0.049711876,1,0
19780000,-0.09076185,0.02220215,-0.049689315,1,0
19784000,-0.09079981,0.021608528,-0.04972788,1,0
19788000,-0.09086784,0.0257873,-0.049729638,1,0
19792000,-0.090871684,0.025205104,-0.049751677,1,0
19796000,-0.09075677,0.024642978,-0.049726572,1,0
19800000,-0.090758875,0.024140283,-0.04977511,1,0
19804000,-0.090899065,0.023663199,-0.04982084,1,0
19808000,-0.09092873,0.023149636,-0.049938165,1,0
19812000,-0.09082712,0.02736971,-0.049974017,1,0
19820000,-0.09107775,0.026409885,-0.049928807,1,0
19824000,-0.09121981,0.02601821,-0.05004783,1,0
19828000,-0.09129845,0.025580876,-0.050128818,1,0
19832000,-0.09142315,0.025083119,-0.050167434,1,0
19836000,-0.0915897,0.02939738,-0.050155297,1,0
19840000,-0.0916103,0.02894976,-0.050200246,1,0
19844000,-0.091651544,0.028453529,-0.050204664,1,0
19848000,-0.09132986,0.027989028,-0.050239254,1,0
19852000,-0.09129922,0.02754471,-0.050243057,1,0
19856000,-0.09151259,0.027066536,-0.050241083,1,0
19860000,-0.09175502,0.029802894,-0.050249808,1,0
19864000,-0.091756,0.029312769,-0.050436277,1,0
19868000,-0.09168229,0.028795898,-0.05058139,1,0
19872000,-0.09176182,0.028223524,-0.050648324,1,0
19876000,-0.0918084,0.027634926,-0.050571002,1,0
19880000,-0.09175294,0.027047906,-0.05052404,1,0
19884000,-0.09202294,0.026500424,-0.050429072,1,0
19888000,-0.09255012,0.026013989,-0.050398245,1,0
19892000,-0.09270946,0.025548996,-0.0503229,1,0
19900000,-0.092194445,0.02457226,-0.05027748,1,0
19904000,-0.091739364,0.024010926,-0.050430004,1,0
19908000,-0.09145193,0.023434741,-0.05061741,1,0
19916000,-0.09194018,0.022471039,-0.05087571,1,0
19920000,-0.092296444,0.022083582,-0.05091405,1,0
19924000,-0.09248639,0.02164982,-0.05090276,1,0
19928000,-0.09252655,0.021194825,-0.05091127,1,0
19932000,-0.0923957,0.020725774,-0.050924584,1,0
19936000,-0.09227527,0.020240033,-0.0510834,1,0
19940000,-0.09243744,0.019733557,-0.051168382,1,0
19944000,-0.092596136,0.01922218,-0.05121671,1,0
19948000,-0.09248701,0.01877433,-0.051154602,1,0
19952000,-0.09238807,0.018438745,-0.051165946,1,0
19956000,-0.09241414,0.018142074,-0.051195335,1,0
19960000,-0.09236686,0.017815096,-0.051317446,1,0
19964000,-0.09224366,0.017419253,-0.05135426,1,0
19972000,-0.09227044,0.016513042,-0.05137227,1,0
19976000,-0.09239738,0.016038364,-0.051318333,1,0
19980000,0.07053086,0.022217266,0.009772312,1,0
19984000,0.07027352,0.021821603,0.0098352,1,0
19988000,0.07024461,0.021402499,0.009888615,1,0
19992000,0.06962836,0.021165684,0.009901981,1,0
19996000,0.067981675,0.020816512,0.00988676,1,0
20000000,0.064876504,0.020451788,0.009885876,1,0
20004000,0.060862772,0.020094283,0.009953203,1,0
20012000,0.052093886,0.019364744,0.010139497,1,0
20016000,0.04750777,0.019019118,0.010189837,1,0
20020000,0.04283835,0.018686404,0.01025963,1,0
20024000,0.03820064,0.018385436,0.010341173,1,0
20028000,0.033972792,0.018065926,0.010418003,1,0
20032000,0.030405931,0.017689584,0.010525787,1,0
20036000,0.027154077,0.017334947,0.010668094,1,0
20044000,0.020878177,0.016846737,0.010891253,1,0
20052000,0.017062085,0.016310833,0.011170386,1,0
20056000,0.01206356,0.01605875,0.011214599,1,0
20060000,0.011241392,0.015800696,0.011362456,1,0
20068000,0.004126768,0.01544546,0.011419574,1,0
20076000,9.57E-06,0.015035382,0.011655264,1,0
20080000,-0.001840954,0.014880205,0.011855325,1,0
20084000,-0.003848075,0.014696348,0.011896153,1,0
20092000,-0.008033836,0.014353573,0.012078471,1,0
20100000,-0.011256281,0.013934827,0.01238907,1,0
20104000,-0.012874655,0.013767539,0.012529364,1,0
20108000,-0.013870695,0.013574716,0.012700718,1,0
20112000,-0.016263422,0.013378466,0.01277718,1,0
20116000,-0.018088572,0.01321353,0.012877009,1,0
20124000,-0.021231558,0.012805441,0.013193226,1,0
20128000,-0.022519037,0.012700615,0.013375944,1,0
20132000,-0.02361207,0.012675213,0.013530832,1,0
20136000,-0.02455492,0.01262904,0.013659063,1,0
20140000,-0.025533626,0.012474828,0.013785601,1,0
20144000,-0.026377266,0.012262132,0.013937173,1,0
20148000,-0.027166024,0.012119345,0.014092413,1,0
20156000,-0.029644482,0.011795061,0.014387724,1,0
20160000,-0.031116527,0.011651313,0.014500456,1,0
20164000,-0.03247352,0.01160614,0.014606267,1,0
20168000,-0.03341952,0.011550751,0.014734022,1,0
20172000,-0.034013875,0.011437124,0.014889484,1,0
20180000,-0.035811387,0.011098646,0.015157249,1,0
20184000,-0.03688875,0.010947753,0.015283519,1,0
20188000,-0.037736546,0.010899141,0.015413722,1,0
20192000,-0.038430132,0.010896549,0.015566934,1,0
20196000,-0.039005592,0.010867015,0.015763197,1,0
20200000,-0.039508678,0.010771107,0.015955029,1,0
20204000,-0.040359564,0.010647655,0.016103834,1,0
20208000,-0.041465603,0.010543069,0.01623391,1,0
20212000,-0.04231326,0.010413779,0.016396783,1,0
20216000,-0.04298982,0.010255227,0.016552627,1,0
20220000,-0.044018984,0.010183612,0.016730111,1,0
20228000,-0.045430355,0.010113945,0.016914744,1,0
20232000,-0.046439942,0.010039961,0.017090619,1,0
20236000,-0.04649971,0.00997401,0.01730198,1,0
20240000,-0.046721343,0.009905366,0.017481102,1,0
20244000,-0.046948195,0.009849988,0.017655322,1,0
20248000,-0.047409073,0.009765077,0.017840773,1,0
20252000,-0.04806079,0.009661116,0.018039411,1,0
20256000,-0.048897818,0.00955404,0.018232923,1,0
20260000,-0.04977392,0.00945615,0.018423699,1,0
20264000,-0.05040801,0.009395046,0.018610457,1,0
20268000,-0.050835405,0.009360574,0.018751461,1,0
20276000,-0.052181415,0.009236317,0.019012624,1,0
20280000,-0.05198801,0.009134265,0.019158654,1,0
20284000,-0.052429568,0.009066867,0.019368362,1,0
20288000,-0.052976195,0.009069577,0.01958102,1,0
20292000,-0.053420763,0.009067578,0.019809896,1,0
20300000,-0.054748204,0.008939778,0.020191163,1,0
20304000,-0.055280678,0.008752607,0.020347957,1,0
20308000,-0.056169756,0.008695457,0.020516096,1,0
20312000,-0.055955138,0.008682812,0.020704102,1,0
20316000,-0.056522306,0.008651286,0.020876128,1,0
20324000,-0.057315465,0.008386582,0.02126389,1,0
20328000,-0.057530113,0.008218247,0.021392902,1,0
20332000,-0.057988144,0.00812711,0.021513969,1,0
20336000,-0.05885524,0.008071803,0.021682665,1,0
20340000,-0.05932486,0.008067096,0.021802679,1,0
20344000,-0.059904233,0.007943125,0.021921111,1,0
20348000,-0.060238197,0.007766184,0.022069316,1,0
20352000,-0.060467888,0.00758337,0.022258505,1,0
20356000,-0.060864396,0.007480625,0.02247084,1,0
20360000,-0.06139376,0.007461453,0.022690866,1,0
20364000,-0.0618439,0.007479591,0.022910317,1,0
20368000,-0.062180556,0.00750516,0.02314658,1,0
20372000,-0.06252961,0.00748542,0.023379438,1,0
20376000,-0.0629428,0.007377083,0.023591477,1,0
20380000,-0.0633229,0.007318419,0.023944251,1,0
20384000,-0.063429356,0.007171445,0.02411749,1,0
20388000,-0.063597426,0.00709665,0.024204964,1,0
20392000,-0.06386338,0.007046223,0.02425269,1,0
20396000,-0.064084075,0.00695847,0.024376709,1,0
20400000,-0.06444493,0.006901087,0.024575826,1,0
20404000,-0.06506623,0.006920898,0.024791043,1,0
20408000,-0.065684296,0.006964868,0.02499959,1,0
20412000,-0.066152535,0.006986704,0.0251624,1,0
20416000,-0.06651202,0.006976193,0.02528631,1,0
20420000,-0.06725611,0.006936215,0.025444267,1,0
20424000,-0.06707966,0.006961202,0.025569033,1,0
20428000,-0.067597724,0.006948302,0.025756069,1,0
20432000,-0.06792611,0.006890947,0.025961261,1,0
20436000,-0.06795879,0.006789021,0.026186675,1,0
20440000,-0.06799117,0.006662613,0.026435366,1,0
20448000,-0.06900559,0.006447898,0.02674913,1,0
20452000,-0.06976553,0.006375859,0.026803264,1,0
20456000,-0.07016768,0.006257303,0.026802203,1,0
20460000,-0.070350334,0.006111253,0.026820844,1,0
20464000,-0.070424505,0.005902169,0.026814591,1,0
20468000,-0.07062653,0.005663935,0.026799079,1,0
20472000,-0.070990555,0.005484289,0.026800571,1,0
20480000,-0.07144879,0.005264929,0.02685482,1,0
20484000,-0.07125334,0.005157335,0.026926132,1,0
20488000,-0.07105099,0.005040484,0.026964206,1,0
20492000,-0.07117011,0.004935639,0.026994193,1,0
20496000,-0.071591824,0.004841199,0.027032549,1,0
20500000,-0.07207079,0.004706193,0.027080584,1,0
20504000,-0.07236657,0.004534842,0.027107205,1,0
20508000,-0.072511256,0.004367901,0.027105734,1,0
20512000,-0.07264434,0.004216088,0.02709795,1,0
20516000,-0.07279695,0.004080489,0.027118277,1,0
20520000,-0.07298982,0.003936986,0.027193353,1,0
20524000,-0.07317003,0.003799921,0.027246132,1,0
20528000,-0.073318794,0.00365638,0.027200606,1,0
20532000,-0.07356454,0.003514214,0.027116971,1,0
20536000,-0.07381962,0.00342107,0.027086858,1,0
20540000,-0.073972076,0.003381232,0.027115315,1,0
20544000,-0.07418259,0.00337597,0.027162971,1,0
20548000,-0.07451194,0.003352974,0.027204484,1,0
20552000,-0.07492432,0.003261397,0.027232151,1,0
20556000,-0.07535517,0.003115874,0.027269024,1,0
20560000,-0.07572383,0.002997546,0.027311388,1,0
20564000,-0.076253206,0.002886001,0.027337953,1,0
20568000,-0.076575406,0.002725158,0.02735893,1,0
20572000,-0.076662056,0.002528273,0.027374905,1,0
20576000,-0.07655368,0.002368003,0.027361985,1,0
20580000,-0.07669965,0.00234424,0.02741369,1,0
20588000,-0.07725385,0.002213035,0.027389616,1,0
20596000,-0.07779881,0.002009563,0.027428292,1,0
20600000,-0.07756209,0.001898613,0.027482715,1,0
20604000,-0.077966064,0.00174143,0.027552813,1,0
20612000,-0.07883515,0.001464479,0.02760839,1,0
20620000,-0.07873359,0.001220169,0.027586963,1,0
20624000,-0.07882674,0.001198595,0.027582368,1,0
20628000,-0.07930303,0.001093593,0.027609324,1,0
20632000,-0.07958987,0.000959326,0.027605988,1,0
20636000,-0.07988855,0.000777764,0.02761877,1,0
20640000,-0.07999569,0.000703583,0.027590403,1,0
20644000,-0.080123544,0.000644418,0.02752251,1,0
20648000,-0.080427356,0.000552457,0.027427189,1,0
20652000,-0.08077255,0.000468209,0.027351629,1,0
20656000,-0.08091431,0.000373205,0.027351398,1,0
20660000,-0.081352144,0.000274574,0.027374882,1,0
20664000,-0.08082914,0.000157585,0.027477834,1,0
20668000,-0.08133279,9.66E-05,0.027514521,1,0
20672000,-0.08182068,7.02E-06,0.027523704,1,0
20676000,0.08497839,0.000960931,0.034886383,0.41643417,0
20680000,0.08499377,0.00106887,0.035063468,0.41643417,0
20684000,0.084516734,0.00120011,0.035158563,0.41643417,0
20692000,0.08160523,0.001407549,0.035314314,0.41643417,0
20696000,0.07859014,0.001483122,0.03547308,0.41643417,0
20700000,0.075036906,-0.002772788,0.03705703,0.43980902,0
20708000,0.067781515,-0.002641365,0.03705075,0.43980902,0
20712000,0.06418486,-0.002618317,0.037093498,0.43980902,0
20716000,0.060928717,-0.00259834,0.037259117,0.43980902,0
20720000,0.058028966,-0.002608538,0.03745163,0.43980902,0
20724000,0.05544212,-0.006951647,0.039142914,0.46206564,0
20728000,0.053119145,-0.006878987,0.0393225,0.46206564,0
20732000,0.05094873,-0.006757418,0.039400034,0.46206564,0
20740000,0.047892723,-0.006520016,0.039584097,0.46206564,0
20748000,0.04355912,-0.010860631,0.04086324,0.48329306,0
20752000,0.04220699,-0.010750622,0.041035626,0.48329306,0
20756000,0.041248858,-0.010548816,0.041245602,0.48329306,0
20760000,0.03965777,-0.010464762,0.04139065,0.48329306,0
20764000,0.038676843,-0.010265018,0.041608058,0.48329306,0
20768000,0.037352487,-0.010382151,0.041448403,0.48329306,0
20772000,0.036135063,-0.014533774,0.043039322,0.5034111,0
20776000,0.034602582,-0.014369158,0.043176718,0.5034111,0
20780000,0.032713763,-0.013489006,0.044077333,0.5034111,0
20784000,0.031491604,-0.013344009,0.04422842,0.5034111,0
20788000,0.030300785,-0.013210676,0.044322312,0.5034111,0
20792000,0.029119728,-0.013054391,0.04440534,0.5034111,0
20796000,0.028007446,-0.01711073,0.046127997,0.52361417,0
20800000,0.02695898,-0.016895268,0.0462894,0.52361417,0
20804000,0.025749786,-0.016688552,0.04644871,0.52361417,0
20812000,0.022982802,-0.01619323,0.046695992,0.52361417,0
20816000,0.02190128,-0.015887028,0.04681184,0.52361417,0
20820000,0.02098351,-0.01983333,0.048618335,0.5425152,0
20828000,0.019308656,-0.019243982,0.049028136,0.5425152,0
20832000,0.01948452,-0.018854495,0.049086045,0.5425152,0
20836000,0.018689334,-0.01849226,0.04927156,0.5425152,0
20840000,0.017654791,-0.018153168,0.049458347,0.5425152,0
20844000,0.016609127,-0.021989483,0.051362917,0.5601022,0
20852000,0.014511902,-0.021245427,0.051726647,0.5601022,0
20856000,0.014172995,-0.020780714,0.051776484,0.5601022,0
20860000,0.013143856,-0.020382388,0.051988214,0.5601022,0
20864000,0.012818405,-0.019865591,0.052062683,0.5601022,0
20868000,0.011770864,-0.023582492,0.054030407,0.5763855,0
20872000,0.010442109,-0.02312968,0.054255,0.5763855,0
20876000,0.00919919,-0.022719843,0.05443846,0.5763855,0
20880000,0.007815398,-0.021593887,0.055281565,0.5763855,0
20884000,0.007010611,-0.021175958,0.055517666,0.5763855,0
20888000,0.00640632,-0.020710448,0.055750865,0.5763855,0
20892000,0.005784625,-0.024376651,0.057711974,0.5923851,0
20896000,0.004945701,-0.023877542,0.057884775,0.5923851,0
20900000,0.004116236,-0.02335382,0.058044624,0.5923851,0
20904000,0.003411098,-0.022879703,0.05825388,0.5923851,0
20912000,0.001636183,-0.021880629,0.058701374,0.5923851,0
20916000,0.00127638,-0.025301376,0.060747217,0.60706943,0
20920000,0.000746337,-0.024717558,0.061002634,0.60706943,0
20924000,0.000135542,-0.02414804,0.061314505,0.60706943,0
20932000,-0.001504702,-0.023056798,0.061866794,0.60706943,0
20936000,-0.002226615,-0.022527382,0.062033586,0.60706943,0
20940000,-0.002775267,-0.026048005,0.0639974,0.62046856,0
20944000,-0.003338224,-0.025487877,0.06413643,0.62046856,0
20948000,-0.004140019,-0.024925731,0.0643157,0.62046856,0
20952000,-0.005132871,-0.024350513,0.0645731,0.62046856,0
20956000,-0.006154215,-0.023761144,0.064870164,0.62046856,0
20960000,-0.007003535,-0.02318201,0.065118134,0.62046856,0
20964000,-0.007427331,-0.026668588,0.067213014,0.6326565,0
20968000,-0.007539718,-0.026096493,0.0674715,0.6326565,0
20976000,-0.008435492,-0.024904942,0.067881495,0.6326565,0
20980000,-0.009339738,-0.024361825,0.068069726,0.6326565,0
20984000,-0.010903057,-0.022583872,0.06924169,0.6326565,0
20988000,-0.011687018,-0.026050176,0.07143036,0.6448934,0
20992000,-0.012141704,-0.025466189,0.07170599,0.6448934,0
20996000,-0.012503699,-0.024841825,0.07195182,0.6448934,0
21004000,-0.013535757,-0.023717165,0.072497666,0.6448934,0
21008000,-0.014393705,-0.023169693,0.07268584,0.6448934,0
21012000,-0.014819872,-0.026596092,0.07485843,0.6559504,0
21016000,-0.015215145,-0.025992118,0.07501541,0.6559504,0
21020000,-0.015807979,-0.025390927,0.075218976,0.6559504,0
21028000,-0.016218942,-0.024335347,0.07564683,0.6559504,0
21032000,-0.016355347,-0.023812514,0.075932845,0.6559504,0
21036000,-0.016633723,-0.027241275,0.07821621,0.6659029,0
21040000,-0.017053768,-0.026710307,0.07854114,0.6659029,0
21044000,-0.017703246,-0.02617441,0.0788355,0.6659029,0
21048000,-0.018528301,-0.025592294,0.07905304,0.6659029,0
21052000,-0.019250505,-0.025012918,0.079184204,0.6659029,0
21056000,-0.019824792,-0.024470728,0.07931891,0.6659029,0
21060000,-0.020401843,-0.027862925,0.08148007,0.67481184,0
21064000,-0.020887287,-0.027273946,0.0816371,0.67481184,0
21068000,-0.021656211,-0.02674004,0.081823975,0.67481184,0
21072000,-0.021441683,-0.026156852,0.0820836,0.67481184,0
21076000,-0.021788154,-0.025566481,0.08235019,0.67481184,0
21080000,-0.02283249,-0.024191223,0.083155856,0.67481184,0
21084000,-0.023744745,-0.027538536,0.08540603,0.6834534,0
21088000,-0.024537597,-0.026982851,0.08559812,0.6834534,0
21092000,-0.025028221,-0.0264375,0.08582396,0.6834534,0
21100000,-0.02604526,-0.025359845,0.08626822,0.6834534,0
21104000,-0.02594502,-0.024860103,0.08648721,0.6834534,0
21108000,-0.026392411,-0.028234517,0.088807166,0.6911576,0
21116000,-0.027268514,-0.027125245,0.08928982,0.6911576,0
21124000,-0.02781612,-0.02611243,0.08949215,0.6911576,0
21128000,-0.02824597,-0.025518078,0.08964771,0.6911576,0
21132000,-0.028810933,-0.027990876,0.09147887,0.69798255,0
21136000,-0.02925426,-0.027440595,0.09173131,0.69798255,0
21140000,-0.029558763,-0.026886422,0.091990516,0.69798255,0
21148000,-0.03060013,-0.025833894,0.092389785,0.69798255,0
21156000,-0.03115254,-0.024162356,0.09232759,0.7040079,0
21160000,-0.03152999,-0.023573674,0.09248097,0.7040079,0
21164000,-0.0318738,-0.022960784,0.09265524,0.7040079,0
21172000,-0.032769978,-0.021869391,0.092982605,0.7040079,0
21176000,-0.032470696,-0.021437444,0.093118414,0.7040079,0
21180000,-0.033128202,-0.019882021,0.09337689,0.7092854,0
21184000,-0.03380011,-0.019471925,0.09357363,0.7092854,0
21188000,-0.034523003,-0.0189948,0.09371472,0.7092854,0
21192000,-0.035053488,-0.01843561,0.09384659,0.7092854,0
21196000,-0.035523962,-0.017864518,0.09397453,0.7092854,0
21200000,-0.03590571,-0.017372333,0.09407891,0.7092854,0
21208000,-0.036389098,-0.015964538,0.094147705,0.7143593,0
21212000,-0.036599085,-0.015453839,0.094340876,0.7143593,0
21216000,-0.036887914,-0.014981709,0.09446317,0.7143593,0
21220000,-0.037348423,-0.01455598,0.094567314,0.7143593,0
21224000,-0.037801072,-0.014125386,0.094728544,0.7143593,0
21228000,-0.03842452,-0.013181225,0.09464534,0.7187613,0
21232000,-0.038942456,-0.012693234,0.09478104,0.7187613,0
21236000,-0.039656058,-0.012206497,0.09491504,0.7187613,0
21240000,-0.04020382,-0.011734615,0.09506589,0.7187613,0
21244000,-0.040355057,-0.011280027,0.09520587,0.7187613,0
21252000,-0.040305458,-0.010066943,0.095204204,0.7225915,0
21260000,-0.041417114,-0.009178618,0.0954549,0.7225915,0
21268000,-0.041805483,-0.008342307,0.09560005,0.7225915,0
21276000,-0.042233814,-0.00700845,0.09564679,0.72589463,0
21284000,-0.04380218,-0.00558237,0.09624018,0.72589463,0
21288000,-0.04419104,-0.005174629,0.09628686,0.72589463,0
21292000,-0.044647813,-0.004738309,0.096315384,0.72589463,0
21296000,-0.04517491,-0.004280381,0.0963788,0.72589463,0
21300000,-0.045663763,-0.003571551,0.096352816,0.72910804,0
21304000,-0.04607816,-0.003176229,0.096531436,0.72910804,0
21308000,-0.046367243,-0.002775731,0.09671257,0.72910804,0
21312000,-0.046551995,-0.002370652,0.09684992,0.72910804,0
21316000,-0.046607148,-0.002024951,0.096941516,0.72910804,0
21320000,-0.04671958,-0.001667645,0.09699705,0.72910804,0
21328000,-0.047568906,-0.000509208,0.09704177,0.7318474,0
21332000,-0.047818027,6.01E-05,0.09715733,0.7318474,0
21336000,-0.047990702,0.000590157,0.09724056,0.7318474,0
21340000,-0.04814866,0.001009567,0.0973472,0.7318474,0
21344000,-0.048257176,0.001317559,0.09748761,0.7318474,0
21348000,-0.048575763,0.001831418,0.09750599,0.7341734,0
21352000,-0.049270652,0.002259256,0.097590104,0.7341734,0
21356000,-0.050012942,0.00271756,0.09761758,0.7341734,0
21364000,-0.05100325,0.003614048,0.09777117,0.7341734,0
21368000,-0.0509452,0.00396481,0.09777829,0.7341734,0
21372000,-0.051250026,0.004479038,0.09782448,0.7361241,0
21376000,-0.051636495,0.004837206,0.09797983,0.7361241,0
21380000,-0.052164726,0.005823672,0.09837822,0.7361241,0
21388000,-0.052443024,0.006794849,0.09849319,0.7361241,0
21392000,-0.052677613,0.007239554,0.09857154,0.7361241,0
21396000,-0.05323253,0.007766938,0.09860593,0.73806995,0
21400000,-0.053886037,0.008132203,0.098729946,0.73806995,0
21404000,-0.054434188,0.008523682,0.09882066,0.73806995,0
21408000,-0.05489392,0.008945677,0.09889763,0.73806995,0
21412000,-0.05505391,0.00939071,0.09898123,0.73806995,0
21416000,-0.055131827,0.009815782,0.099061176,0.73806995,0
21420000,-0.055538207,0.010304172,0.09904249,0.7396913,0
21424000,-0.055953644,0.010631202,0.09911695,0.7396913,0
21428000,-0.05624584,0.010981476,0.09923807,0.7396913,0
21436000,-0.057159573,0.011841852,0.09949726,0.7396913,0
21440000,-0.057073813,0.01220849,0.09953503,0.7396913,0
21444000,-0.057388645,0.012750065,0.09951963,0.7409978,0
21448000,-0.05765185,0.013123978,0.09959255,0.7409978,0
21452000,-0.057838596,0.013448708,0.09970397,0.7409978,0
21456000,-0.058190018,0.013808873,0.099837296,0.7409978,0
21460000,-0.058735125,0.014198344,0.09995545,0.7409978,0
21464000,-0.059186697,0.014605012,0.100046664,0.7409978,0
21468000,-0.05940274,0.015109619,0.1000685,0.7420384,0
21472000,-0.05961979,0.015540225,0.100113876,0.7420384,0
21476000,-0.059968993,0.01595202,0.100154065,0.7420384,0
21484000,-0.060539383,0.01730272,0.10079752,0.7420384,0
21492000,-0.06108456,0.018220603,0.10101217,0.74315184,0
21496000,-0.061180227,0.018591156,0.10111301,0.74315184,0
21500000,-0.06148062,0.018932741,0.10128105,0.74315184,0
21504000,-0.061905358,0.0192798,0.10141279,0.74315184,0
21508000,-0.062384807,0.01961447,0.10150944,0.74315184,0
21512000,-0.06268712,0.019969394,0.10154927,0.74315184,0
21516000,-0.062868655,0.020410178,0.101499595,0.7440121,0
21520000,-0.06315979,0.020809129,0.101562366,0.7440121,0
21524000,-0.06358163,0.021188695,0.10174104,0.7440121,0
21528000,-0.06389349,0.02155623,0.10188879,0.7440121,0
21532000,-0.06418512,0.021903053,0.101987705,0.7440121,0
21536000,-0.06459006,0.022217592,0.10213016,0.7440121,0
21540000,-0.06480011,0.022571482,0.102256894,0.74464405,0
21544000,-0.06497313,0.022940198,0.102365315,0.74464405,0
21548000,-0.065452285,0.023353066,0.10242748,0.74464405,0
21556000,-0.06625519,0.024126163,0.10261537,0.74464405,0
21560000,-0.066053525,0.024372224,0.102748945,0.74464405,0
21564000,-0.066282034,0.02472399,0.10287592,0.7450689,0
21572000,-0.06672707,0.025375988,0.10315108,0.7450689,0
21576000,-0.06694977,0.025710523,0.10326449,0.7450689,0
21580000,-0.06691854,0.025757857,0.103247955,0.7450689,0
21588000,-0.06760393,0.026483066,0.10347085,0.74515426,0
21592000,-0.06782797,0.026743041,0.1035317,0.74515426,0
21596000,-0.06828355,0.027127964,0.103646696,0.74515426,0
21600000,-0.0681711,0.027563917,0.10368658,0.74515426,0
21604000,-0.06851514,0.027917305,0.10376719,0.74515426,0
21608000,-0.068994865,0.028303212,0.103894055,0.74515426,0
21612000,-0.06960807,0.028422026,0.10399959,0.7450733,0
21620000,-0.06987946,0.02895593,0.104291275,0.7450733,0
21624000,-0.069852084,0.029229492,0.10440856,0.7450733,0
21628000,-0.06980549,0.02950161,0.1044974,0.7450733,0
21636000,-0.06998276,0.029807117,0.10446738,0.7448224,0
21640000,-0.070233256,0.029939525,0.104522884,0.7448224,0
21644000,-0.070522554,0.03006924,0.10457001,0.7448224,0
21648000,-0.07091343,0.030171214,0.10459657,0.7448224,0
21652000,-0.07114999,0.030241033,0.10462584,0.7448224,0
21656000,-0.07115107,0.030307747,0.10463369,0.7448224,0
21660000,-0.07150605,0.030444056,0.104630314,0.7444165,0
21664000,-0.07158656,0.030407226,0.104584605,0.7444165,0
21668000,-0.071951434,0.03041025,0.1045928,0.7444165,0
21672000,-0.07203753,0.03042454,0.10463302,0.7444165,0
21676000,-0.07199082,0.030465353,0.10467848,0.7444165,0
21680000,-0.072175965,0.030800961,0.10486065,0.7444165,0
21684000,-0.07246532,0.030810261,0.10490517,0.7440464,0
21688000,-0.07284174,0.030824834,0.10493921,0.7440464,0
21692000,-0.07316162,0.030902233,0.10493966,0.7440464,0
21700000,-0.07382851,0.03109767,0.104989365,0.7440464,0
21704000,-0.07368842,0.03112503,0.105035424,0.7440464,0
21708000,-0.073806144,0.031136716,0.10508946,0.74354076,0
21712000,-0.07390323,0.031111417,0.10517466,0.74354076,0
21716000,-0.073963605,0.03105164,0.10520225,0.74354076,0
21720000,-0.074204996,0.031018006,0.1051826,0.74354076,0
21724000,-0.074369095,0.0310328,0.10517442,0.74354076,0
21728000,-0.07445444,0.031066313,0.10518312,0.74354076,0
21732000,-0.07474828,0.031127632,0.105178826,0.7429136,0
21736000,-0.07509934,0.031202583,0.10511747,0.7429136,0
21744000,-0.075480446,0.0313504,0.105078086,0.7429136,0
21748000,-0.07541241,0.031438828,0.10510813,0.7429136,0
21752000,-0.07538414,0.031477872,0.105172604,0.7429136,0
21756000,-0.07536045,0.031473517,0.105281554,0.7422003,0
21760000,-0.07542181,0.03143586,0.1053195,0.7422003,0
21764000,-0.07564651,0.031380393,0.105290495,0.7422003,0
21768000,-0.07587939,0.031336024,0.105284125,0.7422003,0
21772000,-0.07589717,0.031352445,0.105288,0.7422003,0
21776000,-0.07579533,0.031438515,0.10527316,0.7422003,0
21780000,-0.07599102,0.031806193,0.105397716,0.7413638,0
21784000,-0.07643144,0.031852152,0.105443195,0.7413638,0
21788000,-0.07697197,0.031862974,0.10551132,0.7413638,0
21792000,-0.077224165,0.031874508,0.10555215,0.7413638,0
21796000,-0.077345006,0.031882636,0.10555769,0.7413638,0
21800000,-0.07753529,0.03191308,0.10556242,0.7413638,0
21804000,-0.07765155,0.031937446,0.10560217,0.7406104,0
21808000,-0.07776183,0.031947657,0.105608284,0.7406104,0
21812000,-0.077886425,0.03198517,0.10556969,0.7406104,0
21816000,-0.077907756,0.032032363,0.1055289,0.7406104,0
21820000,-0.07794274,0.032010045,0.10552995,0.7406104,0
21828000,-0.07808263,0.0319798,0.10556373,0.7397747,0
21832000,-0.07815157,0.032003805,0.105524406,0.7397747,0
21836000,-0.078222975,0.032012276,0.10551397,0.7397747,0
21840000,-0.07838829,0.03208916,0.105514616,0.7397747,0
21844000,-0.07874041,0.03223501,0.10547081,0.7397747,0
21848000,-0.07900354,0.032307174,0.105431706,0.7397747,0
21852000,-0.07907495,0.03230957,0.10544719,0.73887277,0
21856000,-0.079338446,0.03236944,0.10547535,0.73887277,0
21860000,-0.07963175,0.032434866,0.105492264,0.73887277,0
21868000,-0.07955526,0.032385223,0.10562192,0.73887277,0
21872000,-0.0793499,0.032290585,0.10565579,0.73887277,0
21876000,-0.079415664,0.03227505,0.10567333,0.7378926,0
21880000,-0.08035501,0.033577595,0.10625543,0.7378926,0
21884000,-0.081066236,0.033660203,0.106256604,0.7378926,0
21888000,-0.08151292,0.033664107,0.1061997,0.7378926,0
21892000,-0.08166261,0.0335987,0.1061251,0.7378926,0
21900000,-0.08164107,0.033511255,0.10615685,0.7374508,0
21904000,-0.08146874,0.033548087,0.10615613,0.7374508,0
21908000,-0.0814185,0.033586733,0.106146365,0.7374508,0
21912000,-0.0814016,0.033594064,0.106176496,0.7374508,0
21916000,-0.08141379,0.03358475,0.1061832,0.7374508,0
21920000,-0.08163136,0.033581547,0.10611378,0.7374508,0
21924000,-0.08213422,0.03356357,0.10605374,0.7369031,0
21928000,-0.08263858,0.03360304,0.106016695,0.7369031,0
21932000,-0.08289567,0.03363488,0.106062435,0.7369031,0
21936000,-0.08305162,0.03365072,0.10612875,0.7369031,0
21940000,-0.083335005,0.033711813,0.10614138,0.7369031,0
21944000,-0.083313644,0.03366127,0.106126584,0.7369031,0
21948000,-0.08320437,0.033591464,0.10617831,0.73629564,0
21952000,-0.08312273,0.03360419,0.10621102,0.73629564,0
21956000,-0.08294566,0.033655107,0.10620383,0.73629564,0
21964000,-0.08298709,0.03368043,0.10615161,0.73629564,0
21968000,-0.08334586,0.0337291,0.106075175,0.73629564,0
21972000,-0.08364944,0.033742804,0.106053025,0.73558897,0
21976000,-0.08390022,0.033756427,0.106050715,0.73558897,0
21980000,-0.084250085,0.03392109,0.10611914,0.73558897,0
21984000,-0.08452255,0.03396313,0.106073216,0.73558897,0
21988000,-0.08478701,0.034023203,0.10607998,0.73558897,0
21992000,-0.08471852,0.0339995,0.10603852,0.73558897,0
21996000,-0.08497768,0.034017414,0.10607828,0.73490787,0
22000000,-0.08469354,0.033958122,0.10606617,0.73490787,0
22004000,-0.08477154,0.033931743,0.10609193,0.73490787,0
22008000,-0.08485815,0.03388252,0.10614222,0.73490787,0
22012000,-0.085052386,0.03384023,0.10615604,0.73490787,0
22016000,-0.08534668,0.033810742,0.106136456,0.73490787,0
22020000,-0.08552893,0.03377242,0.10613872,0.7341348,0
22024000,-0.08574933,0.03379675,0.10610886,0.7341348,0
22028000,-0.0860901,0.033806227,0.10608523,0.7341348,0
