timestamp,gyro_rad[0],gyro_rad[1],gyro_rad[2],accelerometer_m_s2[0],accelerometer_m_s2[1],accelerometer_m_s2[2]
17004000,-0.00105139,-0.00722827,-0.00456394,-0.18400937,0.1651815,-9.881439
17008000,0.001145254,-0.007816982,-0.002452692,-0.15344007,0.18125568,-9.832006
17016000,0.002435917,-0.006397975,0.002271147,-0.16663651,0.19394444,-9.959754
17020000,0.00136027,-0.007084768,9.71E-05,-0.2469731,0.17619486,-9.966751
17024000,-0.002485857,-0.005400651,-0.0021949,-0.28334472,0.23534541,-10.002314
17032000,0.00413865,-0.003771201,0.002283895,-0.18949887,0.20956664,-9.924547
17036000,0.005082754,-0.003528983,-0.005388014,-0.13152504,0.22332339,-9.953833
17044000,0.006439782,-0.004232605,0.000961646,-0.08321125,0.20130517,-10.017618
17048000,0.00764348,-0.002515955,-0.003116133,-0.12246052,0.16243184,-9.973482
17052000,0.000726174,-0.005921914,0.002075479,-0.15820295,0.13363603,-9.962806
17056000,-0.003512968,-0.011179007,0.004961276,-0.16847827,0.18286496,-9.940137
17060000,-0.000512149,-0.011181489,0.000874129,-0.1351103,0.24801606,-9.936824
17064000,-0.004820318,-0.006984187,-0.002821604,-0.12172277,0.21002491,-9.96997
17068000,-0.013951991,-0.006183315,-0.002245935,-0.14020398,0.1324428,-9.920313
17072000,-0.007704803,-0.009341752,-0.003360284,-0.15508513,0.17659533,-9.900528
17076000,-0.000814461,-0.011322855,-0.003551296,-0.17915364,0.20659071,-9.936108
17080000,-0.002164642,-0.008953799,-0.003548262,-0.15656903,0.24943654,-9.902594
17084000,-0.006676548,-0.00739783,-0.000462221,-0.15777485,0.21859308,-9.951483
17088000,-0.00897619,-0.009992112,0.004006648,-0.21753296,0.14240375,-9.91346
17096000,-0.00487874,-0.007306552,-0.001248471,-0.14731255,0.16507177,-9.909368
17100000,-0.005892011,-0.002883777,0.004389105,-0.16311228,0.18405348,-9.931769
17104000,-0.004146202,-0.005851983,8.45E-06,-0.12362274,0.24748969,-9.962348
17112000,-0.004259957,-0.005633944,0.00302143,-0.20968214,0.07191595,-9.9249735
17120000,0.006601991,-0.008284361,-0.004375618,-0.14113282,0.18927708,-10.022214
17124000,-0.002266261,-0.007532165,-0.001616011,-0.0844933,0.14458168,-9.965432
17128000,-0.006138169,-0.004066743,0.002801186,-0.09039876,0.12257865,-9.962117
17132000,-0.00595748,-0.004060362,-0.00265614,-0.12687494,0.17869955,-9.954376
17136000,0.003549409,-0.004555207,-0.00136073,-0.18153535,0.14892401,-9.859041
17140000,0.000873935,-0.005660902,0.005535208,-0.15866615,0.18457848,-9.84431
17144000,-0.00262709,-0.00695306,0.006644666,-0.14585164,0.18234164,-9.928519
17152000,0.000427113,-0.010898825,0.003559632,-0.23077415,0.18557195,-9.888776
17160000,0.00239809,-0.000809203,-0.002693148,-0.204443,0.11420496,-9.898964
17164000,0.004067508,-0.008931007,0.005497916,-0.14647178,0.18286414,-9.925981
17168000,0.000324969,-0.008437945,0.007213906,-0.11289421,0.25892833,-9.892099
17176000,0.005890837,-0.008927372,-0.000765315,-0.19682357,0.0886423,-9.941955
17180000,0.003615165,-0.002602665,0.001735858,-0.2244819,0.15957503,-9.966174
17184000,-0.003350331,-0.001660799,0.002594196,-0.16809215,0.19008629,-9.989116
17188000,0.003489864,-0.003292691,1.10E-05,-0.12969783,0.21442915,-9.941239
17192000,0.001448492,-0.005622689,0.001839515,-0.12969783,0.21442915,-9.941239
17196000,-0.002381476,-0.008181684,-0.001502567,-0.16661307,0.1792045,-9.910774
17200000,0.003187528,-0.005460457,0.001220842,-0.1558096,0.1999363,-9.9567375
17204000,0.000155392,-0.008144778,0.004611783,-0.16840936,0.21685788,-9.938268
17212000,-0.005673212,0.000761364,0.004096795,-0.123469405,0.20146574,-9.987588
17216000,-0.006044976,0.002651291,0.00418242,-0.1773407,0.18506992,-9.935468
17220000,-0.002027121,-0.002322919,-0.002937386,-0.17717269,0.17123638,-9.893293
17224000,-0.004314695,-0.00294925,-0.00586838,-0.15930177,0.16511205,-9.925131
17232000,-0.006663011,-0.009660094,0.000141884,-0.15149923,0.16838543,-9.94005
17236000,-0.005766116,-0.011203587,0.002190137,-0.17720057,0.11323471,-9.908126
17240000,-0.003228941,-0.014940253,-4.08E-05,-0.17710541,0.107774734,-9.906544
17248000,0.000197654,-0.011030261,0.002244341,-0.18428771,0.15145455,-9.9332075
17252000,-0.00265504,-0.009093541,0.006017817,-0.14710127,0.16870469,-9.935912
17256000,-0.010389022,-0.003199576,0.007181622,-0.2160074,0.20385225,-9.868893
17264000,-0.002477263,-0.004964666,-0.000367689,-0.21892379,0.23187645,-9.824523
17268000,-0.001067519,-0.009807441,0.000345802,-0.122373484,0.18606645,-9.861227
17272000,-0.000346141,-0.007275058,-0.002453995,-0.18680103,0.16118464,-9.908567
17276000,-0.002153994,-0.005406634,-0.003015111,-0.22335042,0.1931987,-9.843832
17280000,-0.002916618,-0.003916377,-0.001998546,-0.21695025,0.1846621,-9.850937
17284000,-0.001389881,-0.007366617,-0.001221428,-0.21002762,0.13502134,-9.956046
17288000,0.002487366,-0.013084137,-0.003374962,-0.18377997,0.19277366,-9.914039
17292000,-0.001821679,-0.00583055,-0.006310235,-0.15778625,0.17685682,-9.933875
17296000,-0.004493476,-0.004862418,-0.003593759,-0.09977692,0.10522831,-9.962424
17300000,-0.000281759,-0.006569193,0.002404508,1.225347,0.10317325,-9.936135
17304000,-0.001801298,-0.008185626,0.002640589,7.9837832,0.113385275,-9.8751
17308000,-0.005516485,-0.010628024,0.00289307,18.386217,0.105420165,-9.856931
17312000,-0.002857871,-0.007982082,0.003846866,27.480656,0.14074947,-9.958365
17320000,-0.000753277,-0.008160224,-0.006041714,40.560925,0.24944837,-9.813317
17324000,0.000606141,-0.01030244,0.00296267,44.83468,0.20277452,-9.814013
17328000,0.000680728,-0.006311302,0.002489456,47.72063,0.14871827,-9.7983465
17332000,-0.002598641,-0.007913202,-0.003553359,47.72063,0.14871827,-9.7983465
17340000,0.005591329,-0.013719447,0.001080778,51.704086,0.14417516,-9.859558
17344000,0.002942364,-0.009789756,0.002668547,52.311275,0.12894334,-9.861684
17352000,0.002804674,-0.008261864,0.005144951,52.34063,0.22940828,-9.842236
17356000,-0.003998105,-0.008789307,-0.000494561,52.111435,0.20499636,-9.793653
17360000,-0.007311525,-0.010200291,0.00280058,51.84006,0.18635559,-9.855261
17364000,-0.005420356,-0.005012524,-0.000975659,51.557655,0.21315901,-9.889427
17368000,-0.002983137,-0.005881077,-0.008672822,51.241955,0.253464,-9.786444
17372000,0.005242404,-0.008977222,-0.000533005,50.75567,0.24842285,-9.858204
17376000,0.001550115,-0.008449729,0.001444715,50.11465,0.18746628,-9.850487
17380000,-0.003305198,-0.006477218,0.002723828,49.45538,0.13839631,-9.809337
17384000,-0.001982308,-0.004895782,0.000500999,49.082577,0.17058687,-9.887484
17388000,0.000239341,-0.005644859,-0.002649735,48.75479,0.18364432,-9.872944
17396000,-0.004757606,-0.004193349,-0.006855569,47.611023,0.14750631,-9.869289
17404000,-0.001393142,-0.003985256,-0.001060592,46.632496,0.20788972,-9.797107
17408000,-0.000801865,-0.000487308,-0.004178559,46.25438,0.18547668,-9.875799
17412000,-0.005763436,-0.009822689,-0.000500899,45.881138,0.22918147,-9.8737335
17416000,-0.006599187,-0.009308829,0.002964296,45.294666,0.23646419,-9.8869
17420000,0.00575105,0.001494531,0.004236682,44.80987,0.12584737,-9.866941
17424000,0.006641665,-0.00456894,0.001337763,44.462112,0.15542725,-9.88631
17432000,-0.005358736,-0.004061684,-0.00019378,43.57372,0.18626611,-9.887295
17436000,-0.005031359,-0.007272014,-0.003020641,43.10208,0.16706613,-9.842244
17444000,0.000300815,-0.005900065,-0.002646459,42.31629,0.20129544,-9.814339
17448000,0.001432277,-0.008284378,-0.002592774,41.96563,0.18672448,-9.866814
17452000,0.000102624,-0.006797656,-0.003423518,41.67677,0.18945268,-9.889739
17456000,-0.001212041,0.000104983,0.003797211,41.137928,0.17770684,-9.919909
17460000,-0.001773189,-0.000364547,0.004659399,40.585815,0.18293011,-9.8042345
17464000,-2.51E-05,-0.005512148,0.002428353,40.249207,0.22814903,-9.748769
17468000,0.003054578,-0.012967159,-0.001050637,39.94833,0.2257679,-9.842392
17476000,0.003261193,-0.006421785,-0.002568414,39.203663,0.19110496,-9.792369
17484000,-0.008971514,0.001475359,0.001278487,38.337875,0.1792761,-9.822009
17488000,-0.000550502,0.006991517,-0.000632134,38.097763,0.23560548,-9.801813
17492000,-0.002521461,0.002012723,0.000866894,37.75455,0.24629071,-9.808761
17496000,-0.004128175,-0.001807844,0.001464909,37.332447,0.22715268,-9.848054
17500000,0.001133871,-0.002347839,4.21E-05,36.97093,0.19791585,-9.829243
17504000,0.000368266,-0.006121351,0.000988553,36.530113,0.21346393,-9.817661
17512000,-0.010422818,-0.005274542,0.001858723,35.895653,0.20043255,-9.919394
17516000,-0.008943716,-0.005974612,0.004849103,35.49494,0.17646511,-9.876889
17520000,-0.006415585,-0.000139977,-0.002772314,35.075813,0.16160452,-9.81087
17524000,7.92E-05,-0.001832304,-0.007811792,34.669125,0.17054456,-9.771988
17528000,0.003385568,-0.006981118,-0.00585269,34.339184,0.1878357,-9.756242
17532000,-0.000833784,-0.006027237,-0.008503373,34.039627,0.22538894,-9.788576
17540000,-0.004489561,-0.00783301,-0.001534885,33.23887,0.13509063,-9.833397
17544000,-0.006330701,-0.002954308,0.001696714,32.85701,0.24688157,-9.837847
17548000,-0.006656745,-0.006016634,-0.001305473,32.71402,0.19582146,-9.864894
17552000,-0.0101618,-0.005275877,-0.000295831,32.480225,0.12922356,-9.945733
17560000,-0.001348184,-0.000339015,0.00323287,31.833395,0.21603401,-9.855714
17564000,-0.002199784,-0.003793379,0.005571366,31.439774,0.23478378,-9.857816
17572000,0.000265743,-0.007075959,0.001270038,30.899008,0.09964956,-9.875183
17580000,-0.008348475,-0.005670419,0.004312949,30.408064,0.21900769,-9.8635645
17584000,-0.007738056,-0.002222773,0.008311125,29.96523,0.1925207,-9.941057
17592000,-0.00017501,-0.005347402,0.002437222,29.636091,0.23865177,-9.841632
17596000,-0.004515607,-0.007314508,0.003363444,29.445742,0.2417768,-9.877887
17600000,-0.003839572,-0.007949238,0.005096945,29.096373,0.1827726,-9.871966
17608000,0.000328603,-0.005037921,-0.000727617,28.560553,0.20239803,-9.874936
17612000,-0.001521136,-0.005872644,-0.000506769,28.351437,0.184272,-9.783571
17616000,0.000616879,-0.005604275,-0.005657431,28.171392,0.20934495,-9.787969
17620000,0.001456709,-0.004917619,-0.002718262,27.908087,0.17201999,-9.813335
17628000,-0.007097381,0.000433265,-0.00215469,27.20167,0.21408002,-9.846281
17636000,-0.007659808,-0.001170219,-0.000899782,26.834919,0.16352603,-9.909983
17640000,-0.00476244,-0.00290057,0.004921749,26.554955,0.13336232,-9.907084
17644000,-0.003857839,-0.006792896,0.00459525,26.371788,0.15958217,-9.882925
17648000,-0.002202987,-0.010352898,0.000740241,26.045874,0.20994443,-9.899134
17652000,-0.002203305,-0.001189403,0.007266036,25.772532,0.23890196,-9.904202
17656000,-0.00142419,0.003292107,0.013991343,25.565805,0.16371094,-9.884431
17660000,0.000464521,-6.31E-05,0.008345868,25.3405,0.10452772,-9.953131
17664000,0.001594127,-0.004058319,0.004249426,25.027925,0.12214854,-9.998957
17668000,0.00300966,-0.00306349,0.008623663,24.728464,0.122735694,-9.938944
17672000,0.000767137,-0.004688771,0.010246431,24.565033,0.11671612,-9.857385
17680000,0.000580785,-0.006279742,0.007130715,24.210464,0.10890204,-9.9098625
17684000,-0.000325625,-0.006255501,0.005037776,23.842072,0.08278894,-9.888611
17688000,-0.000648891,-0.003432647,0.008667446,23.553217,0.057748444,-9.949249
17692000,-0.001629382,-0.005177899,0.011085203,23.458637,0.07274988,-9.911574
17696000,0.000755716,-0.00532637,0.012753512,23.294771,0.085414745,-9.862843
17704000,0.00229069,-0.01020993,0.02146312,22.934391,0.088629924,-9.860297
17708000,-0.0062139,-0.012630463,0.019991457,22.68159,0.012995228,-9.852773
17712000,-0.007985035,-0.007512051,0.016234504,22.453253,0.057641696,-9.843815
17720000,0.006479239,-0.015078611,0.032382753,22.186417,-0.023608098,-9.88016
17724000,0.00143504,-0.01111994,0.035508383,21.968554,-0.053837907,-9.883781
17728000,-0.003377463,-0.013210121,0.035728656,21.751436,0.051525507,-9.853697
17736000,0.003342579,-0.010901156,0.038946193,21.907412,-0.49768162,-10.0567665
17740000,0.011773086,-0.012831752,0.061458297,22.2058,-0.84274286,-10.309352
17744000,0.011476192,-0.01082188,0.088026024,21.858232,-0.7712699,-10.293252
17748000,0.016336909,-0.008948604,0.10472788,21.614927,-0.825585,-10.2417755
17756000,0.021741683,-0.023697777,0.13305685,21.36961,-0.7202678,-10.392744
17760000,0.03222301,-0.016378377,0.151653,21.245182,-0.6570815,-10.401088
17764000,0.038247816,-0.0214998,0.16110598,21.002674,-0.6667436,-10.323815
17768000,0.035375644,-0.030759245,0.17602931,20.75006,-0.71051174,-10.322776
17772000,0.042195838,-0.034812987,0.19164817,20.541773,-0.7258846,-10.39243
17776000,0.05216006,-0.03670621,0.20424101,20.40343,-0.60202825,-10.387563
17784000,0.062268592,-0.0317175,0.23300242,20.060745,-0.5877376,-10.360202
17788000,0.07000946,-0.038352825,0.24018757,19.834965,-0.56223935,-10.408572
17792000,0.07523438,-0.04246541,0.2523633,19.667961,-0.51305866,-10.340771
17800000,0.0814192,-0.04366648,0.27212793,19.314165,-0.33618495,-10.261534
17804000,0.09436146,-0.04326798,0.28548002,19.167244,-0.31208614,-10.250987
17808000,0.103341386,-0.04157484,0.29625803,18.918219,-0.3221859,-10.176375
17812000,0.1091282,-0.038553,0.3004143,18.656223,-0.31871685,-10.246637
17820000,0.12304234,-0.04207252,0.30223483,18.503654,-0.22231588,-10.333648
17828000,0.13965935,-0.033451535,0.317448,18.133333,-0.22801086,-10.334897
17832000,0.14632013,-0.03124189,0.31897372,18.031569,-0.14220424,-10.329313
17836000,0.14970313,-0.03302295,0.32471472,17.952103,-0.08291239,-10.290948
17840000,0.15726314,-0.032083493,0.32593074,17.748009,-0.1448525,-10.368168
17844000,0.16047569,-0.032466732,0.3216365,17.430202,-0.07767495,-10.364329
17848000,0.1665029,-0.034526758,0.31819922,17.299454,0.014495641,-10.328514
17852000,0.18177313,-0.0290654,0.31627792,17.309198,0.00811602,-10.313027
17856000,0.1905719,-0.021519352,0.31420308,17.153685,0.002459319,-10.299733
17860000,0.19248964,-0.020226602,0.30871305,16.993803,-0.019676358,-10.399403
17864000,0.19634402,-0.022123469,0.30482504,16.890688,0.025413442,-10.368042
17868000,0.20393573,-0.02434727,0.30180898,16.6846,0.066596895,-10.290731
17872000,0.21957888,-0.020997925,0.2952452,16.595427,0.11849547,-10.238969
17876000,0.22947016,-0.015766,0.2851184,16.431448,0.111462966,-10.312333
17884000,0.23501593,-0.01792289,0.26994073,16.283833,0.21313573,-10.35165
17888000,0.23772325,-0.01864522,0.25542277,16.166847,0.260165,-10.36463
17892000,0.2452562,-0.019576611,0.2451704,16.048632,0.24800253,-10.27594
17896000,0.256741,-0.014217828,0.23198499,15.744573,0.20671599,-10.215429
17904000,0.27160498,-0.00501907,0.21309908,15.532026,0.21831538,-10.147831
17908000,0.27873802,-0.003919433,0.20571728,15.397917,0.26945195,-10.219619
17912000,0.28629774,-0.001620646,0.1949536,15.292418,0.3789282,-10.24513
17916000,0.29314214,-0.004805017,0.18074474,15.060483,0.39684892,-10.259313
17924000,0.30206683,0.007131853,0.153873,14.810234,0.7523227,-10.309314
17928000,0.3032705,-0.001263872,0.1377293,14.692321,0.6729673,-10.319045
17936000,0.3147653,-0.006953097,0.11337489,14.422839,0.5757477,-10.242427
17940000,0.31781894,-0.004732724,0.10479667,14.292267,0.64741063,-10.184128
17944000,0.32212985,0.000151232,0.093132265,14.228324,0.81276286,-10.210845
17948000,0.32959163,-0.002231192,0.08088863,13.984452,0.76781625,-10.223691
17956000,0.33492458,-0.014256991,0.046939865,13.65479,0.704533,-10.169468
17960000,0.34024408,-0.012119269,0.038233284,13.598113,0.80183715,-10.143671
17964000,0.33876845,-0.017834703,0.024507906,13.603881,0.8979379,-10.07315
17968000,0.34194914,-0.017536478,0.012817125,13.397882,0.89078486,-10.169204
17976000,0.3428131,-0.023609279,-0.007515646,13.068716,0.8926647,-10.230912
17980000,0.3444705,-0.029104711,-0.02016369,13.026082,0.93296236,-10.212679
17988000,0.34103817,-0.036680933,-0.040967137,12.770296,0.97479105,-10.14257
17996000,0.3512274,-0.03512532,-0.069487624,12.354919,0.8464434,-10.153184
18000000,0.34979734,-0.042322803,-0.08444761,12.220477,0.83074343,-10.106029
18004000,0.3452804,-0.041365184,-0.09187198,12.0075865,0.803954,-10.066962
18008000,0.34756973,-0.03874827,-0.09172177,11.9654045,0.80946386,-10.085777
18012000,0.35324526,-0.036627907,-0.10112957,11.851684,0.7345407,-10.073216
18016000,0.34831485,-0.037966453,-0.11963606,11.678328,0.7594276,-10.092362
18020000,0.3485904,-0.03944888,-0.12835863,11.554585,0.73387504,-10.143482
18024000,0.3554574,-0.04350213,-0.13736135,11.457135,0.736861,-10.096264
18028000,0.3528998,-0.049803946,-0.14681458,11.360012,0.83852804,-10.037875
18032000,0.3489552,-0.052593112,-0.1512422,11.223507,0.76611525,-10.022795
18040000,0.34702533,-0.04988684,-0.17275368,10.927265,0.71574944,-9.95664
18044000,0.3508672,-0.05370694,-0.17616151,10.819511,0.7476453,-9.953994
18048000,0.35195088,-0.061418604,-0.18391342,10.687736,0.6047308,-9.997926
18052000,0.34630615,-0.060023844,-0.19049536,10.486682,0.54743356,-9.973911
18056000,0.34179366,-0.058446083,-0.19383332,10.345468,0.51547754,-9.940951
18064000,0.34142518,-0.06150282,-0.20553765,10.133552,0.47958425,-9.876816
18068000,0.3388825,-0.066870034,-0.21423985,9.954803,0.40113863,-9.885662
18072000,0.32591093,-0.06637556,-0.20897019,9.859991,0.31468812,-9.859653
18080000,0.32821387,-0.06713379,-0.223978,9.484494,0.24371552,-9.698605
18084000,0.3180703,-0.061474998,-0.22414115,9.305065,0.2087223,-9.767235
18088000,0.31340846,-0.06279286,-0.23184589,9.167551,0.17418493,-9.825723
18092000,0.3198525,-0.06379372,-0.23859672,9.059194,0.052020002,-9.800434
18100000,0.31433618,-0.0644997,-0.24133293,8.770334,-0.09932877,-9.786794
18104000,0.31618908,-0.058272492,-0.24547996,8.65237,-0.114875846,-9.746377
18108000,0.3137349,-0.056323096,-0.24319579,8.4801235,-0.2149052,-9.691468
18112000,0.30941457,-0.05278636,-0.23752871,8.490609,-0.25522473,-9.727026
18116000,0.3047867,-0.056557637,-0.23999998,8.440585,-0.26430047,-9.733974
18120000,0.3029038,-0.05677893,-0.24446164,8.240258,-0.3687043,-9.77269
18128000,0.2984031,-0.04194827,-0.24123211,8.026483,-0.3890788,-9.669427
18136000,0.29284817,-0.045702126,-0.24186003,7.907417,-0.38685665,-9.7082205
18144000,0.2814939,-0.040640462,-0.24671751,7.646586,-0.5573812,-9.602964
18148000,0.2837728,-0.034157608,-0.24400887,7.5930176,-0.44363406,-9.58564
18152000,0.2751016,-0.030482829,-0.24317297,7.542582,-0.4291627,-9.6106415
18156000,0.27691123,-0.027531413,-0.23769139,7.4217105,-0.4623121,-9.639849
18160000,0.27897513,-0.022451648,-0.22517549,7.204057,-0.5554922,-9.7122555
18164000,0.27355075,-0.022398435,-0.22136404,7.2431517,-0.496545,-9.676871
18168000,0.2687074,-0.022028737,-0.22354883,7.2857265,-0.48168388,-9.609603
18172000,0.26336223,-0.022382438,-0.23101087,7.154681,-0.57529765,-9.604175
18180000,0.2636083,-0.009914915,-0.21373706,6.9350047,-0.7215204,-9.687242
18184000,0.26234028,-0.00556744,-0.21372046,6.902057,-0.656949,-9.606981
18192000,0.26498052,0.007775419,-0.20567325,6.7420506,-0.5278717,-9.6562605
18196000,0.25702918,0.008170405,-0.20222493,6.6926713,-0.51740885,-9.615269
18204000,0.25018507,0.023624621,-0.18786412,6.672512,-0.4788218,-9.672753
18212000,0.2509839,-0.018088007,-0.11345902,5.121423,-2.1362085,-10.953846
18220000,0.23944968,-0.016937412,-0.09473923,6.1796246,-0.7804643,-9.794532
18224000,0.23968138,-0.013810754,-0.087757416,6.008839,-0.76170874,-9.796473
18228000,0.23212934,-0.013745439,-0.076685324,5.942966,-0.7314128,-9.759031
18232000,0.23791474,-0.012357184,-0.05961879,5.9881854,-0.7581441,-9.79804
18236000,0.24329749,-0.014218424,-0.047547,5.9792595,-0.7925681,-9.83759
18240000,0.23785149,-0.012759191,-0.034415588,5.8684645,-0.7471782,-9.86524
18244000,0.23394446,-0.013178663,-0.020973008,5.7491097,-0.7770148,-9.884139
18248000,0.23058249,-0.012380919,-0.014504464,5.699609,-0.7818636,-9.868014
18252000,0.23133437,-0.009135455,-0.010091304,5.699609,-0.7818636,-9.868014
18256000,0.22986507,-0.00348757,0.00010502,5.6392817,-0.65148085,-9.879996
18260000,0.22342308,-0.001002222,0.013910233,5.5699053,-0.63440394,-9.887265
18264000,0.22518444,0.001167435,0.024789846,5.494354,-0.70546466,-9.844294
18268000,0.22104238,0.00331199,0.0339237,5.523797,-0.6686987,-9.822403
18272000,0.21628337,0.001133962,0.04635969,5.464632,-0.6093252,-9.872245
18280000,0.218008,-7.89E-05,0.07188019,5.2922735,-0.59778696,-9.939842
18284000,0.21469064,0.003395382,0.084829554,5.2807083,-0.5498592,-9.910257
18288000,0.21621907,0.007143736,0.09177838,5.2288404,-0.55143344,-9.990366
18292000,0.21370034,0.007462531,0.10122704,5.1319075,-0.4983819,-9.954081
18296000,0.21066518,0.011572788,0.112558,5.0781446,-0.43144232,-10.001204
18300000,0.2112459,0.01452411,0.12161705,5.036349,-0.4929896,-10.112902
18304000,0.20942263,0.02383433,0.12862922,4.9527426,-0.4784525,-10.053817
18308000,0.21383803,0.030765705,0.13182113,4.9514694,-0.3189698,-10.093273
18312000,0.21402343,0.03152006,0.14018969,4.958807,-0.27323577,-10.22083
18316000,0.21475801,0.04299227,0.1542503,4.9374094,-0.39020318,-10.328857
18324000,0.20154694,0.060826153,0.1574362,4.8809857,-0.16658022,-10.243449
18332000,0.20771779,0.071864344,0.16292563,4.791739,-0.097786084,-10.410945
18340000,0.20484689,0.08905857,0.16662478,4.806725,-0.046751704,-10.412818
18344000,0.20902957,0.10103208,0.16538154,4.673159,0.009004859,-10.565642
18348000,0.20205106,0.10808802,0.16385528,4.5667768,0.061441675,-10.734998
18352000,0.2002261,0.11667388,0.16421568,4.556461,0.09705628,-10.831852
18356000,0.19833024,0.12861696,0.16333266,4.496124,0.07720435,-10.973696
18360000,0.19419809,0.1381652,0.15989609,4.432419,0.024508322,-11.081431
18364000,0.19297574,0.14426872,0.15649614,4.4002175,0.07061669,-11.170566
18372000,0.1963215,0.16723211,0.14863865,4.255328,0.10634483,-11.424434
18380000,0.18985939,0.17902668,0.15175575,4.1486516,0.14122751,-11.596453
18388000,0.18621239,0.19690217,0.13854206,3.963529,0.16837247,-11.94487
18392000,0.18717618,0.20860818,0.14081964,3.8504865,0.12858386,-12.083216
18400000,0.18535985,0.21085455,0.13850872,3.8439374,0.07249944,-12.353445
18404000,0.1838158,0.21671131,0.13371938,3.7868898,0.10709688,-12.432218
18408000,0.18107584,0.21762921,0.13087349,3.6941764,0.14731438,-12.557491
18412000,0.18004504,0.22378758,0.12975875,3.6296294,0.1422631,-12.74155
18416000,0.1755979,0.23017798,0.12326481,3.5700524,0.1309982,-12.7974
18420000,0.17353716,0.23576953,0.121482916,3.505343,0.120171815,-12.929486
18428000,0.16845891,0.24104637,0.108644836,3.3751028,0.13146737,-13.353817
18432000,0.16695143,0.24866834,0.10278996,3.3099918,0.18945962,-13.425095
18440000,0.1616885,0.25597957,0.09108879,3.3653646,0.06173497,-13.607304
18444000,0.16412312,0.26319978,0.080037996,3.349917,0.07568399,-13.6340275
18448000,0.16101505,0.25572065,0.08510627,3.1519177,0.10059727,-13.749191
18456000,0.15406375,0.26317468,0.07817296,3.0372083,0.12893213,-13.960082
18460000,0.14772327,0.2687421,0.07194796,2.9989066,0.10540671,-14.178874
18464000,0.14960653,0.26265824,0.06346654,3.009475,0.12105188,-14.242305
18468000,0.1520378,0.26503953,0.05917209,2.9555485,0.10021605,-14.30105
18472000,0.15415354,0.2650161,0.061288204,2.892292,0.113371894,-14.458565
18480000,0.15075916,0.26093918,0.05275155,2.804905,0.11345179,-14.567025
18484000,0.14739838,0.26048362,0.051803157,2.7862406,0.093331955,-14.648337
18492000,0.14129862,0.2719443,0.044570766,2.78676,0.11426637,-14.819978
18496000,0.14313996,0.27068552,0.03812473,2.6547089,0.121669605,-14.919717
18500000,0.14577155,0.26697624,0.032623984,2.614046,0.11095655,-14.925731
18504000,0.14262412,0.26468542,0.028759083,2.653665,0.14159551,-14.90377
18508000,0.14239873,0.26069766,0.033101086,2.665947,0.17661346,-14.924554
18516000,0.13029286,0.25534523,0.022814022,2.6253314,0.073787175,-15.071378
18520000,0.12992576,0.25417387,0.013602458,2.5518367,0.03961782,-15.09252
18524000,0.12068012,0.25168988,0.012422201,2.4805958,0.113060966,-15.100711
18528000,0.11635832,0.2432651,0.013280671,2.499486,0.107183665,-15.105223
18532000,0.1273753,0.24219045,0.013409659,2.4765816,-0.017888935,-15.119292
18536000,0.13443907,0.24405456,0.007746333,2.3917055,0.005637456,-15.148801
18540000,0.12847939,0.23669645,0.004244649,2.3089533,0.1052971,-15.160407
18548000,0.12684226,0.226086,0.004148917,2.394254,0.026421098,-15.185056
18552000,0.12425512,0.23143421,0.000135063,2.3542595,0.02749292,-15.162747
18556000,0.114911646,0.23074089,-0.002512772,2.3064184,-0.010318893,-15.178077
18560000,0.11151639,0.2229414,-0.005916871,2.3168378,0.029942803,-15.198276
18568000,0.11599898,0.22042626,-0.002813561,2.2371361,-0.06390008,-15.181746
18576000,0.10718668,0.21129741,-0.014790655,2.2051687,-0.011867922,-15.040204
18580000,0.107503414,0.20196971,-0.020328568,2.1889582,-0.038610198,-15.003885
18584000,0.10446404,0.20260206,-0.021771256,2.1254597,-0.09130754,-14.991036
18588000,0.10519286,0.20238508,-0.020685932,2.1130338,-0.094334655,-15.020335
18592000,0.10600156,0.19577345,-0.017996848,2.2014744,-0.038244277,-14.983555
18600000,0.10308399,0.18806683,-0.022492617,1.9864401,-0.09155902,-14.965274
18604000,0.10268057,0.18803148,-0.016078776,1.9432446,-0.042656466,-14.908513
18608000,0.10147761,0.19305041,-0.01542131,1.9388218,-0.06578959,-14.790414
18612000,0.09782489,0.18822098,-0.021776581,1.9311966,-0.15096061,-14.81491
18620000,0.08917395,0.1781831,-0.022357797,1.9141995,-0.1032215,-14.7830925
18628000,0.08822114,0.17263243,-0.017948508,1.9315802,-0.15466854,-14.643031
18632000,0.090295985,0.17581749,-0.01603647,1.8953024,-0.15727042,-14.587147
18636000,0.08931602,0.17311276,-0.01932205,1.9219776,-0.173286,-14.532998
18640000,0.0899476,0.16797167,-0.02466933,1.8924408,-0.1518673,-14.456577
18644000,0.093836635,0.16612983,-0.015477376,1.8200418,-0.167214,-14.507927
18652000,0.09101383,0.15559961,-0.009073695,1.8620646,-0.2552246,-14.3754015
18656000,0.08559861,0.15931018,-0.005743213,1.8552599,-0.24674019,-14.2360325
18660000,0.085842825,0.16306077,-0.00405178,1.7642702,-0.16285513,-14.288571
18664000,0.087212965,0.15983996,-0.003459171,1.7707329,-0.16428553,-14.296957
18668000,0.082751945,0.15265043,-0.005025336,1.8077177,-0.20283872,-14.214466
18676000,0.08425499,0.16023096,0.004460548,1.7587477,-0.31725976,-14.06763
18680000,0.084079675,0.1528869,0.003521186,1.6851143,-0.29335228,-14.056399
18684000,0.08625534,0.1447707,0.006709362,1.6402485,-0.22360778,-14.030337
18692000,0.08050924,0.1439896,0.012890356,1.6883706,-0.30366266,-14.002825
18696000,0.079819866,0.143373,0.012818551,1.6932724,-0.29434133,-13.973724
18700000,0.07952705,0.1485199,0.016938096,1.7489622,-0.3334067,-13.925493
18708000,0.07677881,0.14304385,0.019284993,1.6233093,-0.30855536,-13.829709
18712000,0.07270083,0.14526616,0.021786392,1.5935879,-0.3372565,-13.734903
18716000,0.07132339,0.14055353,0.020888722,1.5478647,-0.30010355,-13.779154
18720000,0.07349841,0.13851157,0.019507919,1.5764477,-0.21259303,-13.809499
18724000,0.07642364,0.14746286,0.0345339,1.6174484,-0.23311216,-13.730118
18732000,0.06639497,0.13568176,0.03340971,1.6206906,-0.31849137,-13.620305
18736000,0.067500696,0.13414429,0.0355562,1.539251,-0.3181834,-13.497451
18744000,0.06863323,0.1488692,0.038199984,1.430394,-0.30730775,-13.624403
18748000,0.06687713,0.14661199,0.04427056,1.5117329,-0.34815407,-13.598317
18752000,0.07193902,0.14972484,0.045168724,1.5640163,-0.33021602,-13.601434
18756000,0.06858754,0.14597918,0.0502067,1.5070465,-0.38826117,-13.586386
18760000,0.06427926,0.14267528,0.057259135,1.5265677,-0.36063266,-13.530749
18764000,0.06445726,0.14274292,0.057544176,1.5838945,-0.29706094,-13.545081
18768000,0.0671008,0.14721416,0.056507044,1.5943695,-0.38729867,-13.505611
18772000,0.06485103,0.15341769,0.06865131,1.538751,-0.3262942,-13.47833
18780000,0.064072736,0.15161307,0.06513603,1.426339,-0.3340656,-13.468174
18784000,0.060410384,0.15191677,0.064676605,1.4892772,-0.34351438,-13.463539
18788000,0.05676197,0.15197212,0.06728339,1.4640625,-0.2294981,-13.473501
18792000,0.05925358,0.15527059,0.07179317,1.3832868,-0.2231495,-13.491257
18800000,0.06891328,0.15710254,0.08012887,1.4130765,-0.33460104,-13.420111
18804000,0.06677931,0.1565598,0.08524111,1.3681197,-0.31031728,-13.475104
18808000,0.063458696,0.15646079,0.08546001,1.357599,-0.27418008,-13.476405
18812000,0.05443409,0.15715376,0.07983308,1.4056526,-0.26810765,-13.484208
18816000,0.0595176,0.15478453,0.08092873,1.3989729,-0.29223135,-13.482825
18820000,0.06365787,0.15929934,0.090676814,1.3664283,-0.22339223,-13.498321
18824000,0.057842597,0.15999195,0.09008132,1.3588067,-0.22645032,-13.481485
18828000,0.06281383,0.15843424,0.087113604,1.2791523,-0.32554826,-13.447759
18836000,0.055151902,0.16477023,0.09412724,1.2482111,-0.33152288,-13.590091
18840000,0.05454756,0.16447483,0.093020506,1.2622998,-0.32509333,-13.538996
18844000,0.05896486,0.16421832,0.08832193,1.2861108,-0.25385374,-13.545185
18848000,0.057653643,0.16969262,0.09664338,1.2975671,-0.23341738,-13.582334
18852000,0.059171055,0.17146626,0.1021325,1.2029357,-0.3229683,-13.575032
18856000,0.055974875,0.16852155,0.10163842,1.1670778,-0.36437017,-13.55073
18864000,0.05750686,0.16897267,0.09370009,1.2012802,-0.32461762,-13.600456
18868000,0.050550953,0.17756578,0.09587973,1.1793836,-0.26932335,-13.588475
18872000,0.052606825,0.17615749,0.099422745,1.1485726,-0.21325766,-13.563486
18876000,0.054451324,0.1782963,0.101991735,1.150732,-0.24503143,-13.596543
18880000,0.05343592,0.18382367,0.10018046,1.213775,-0.27900723,-13.677735
18888000,0.04883431,0.17776223,0.09620013,1.2022465,-0.27526662,-13.7679205
18892000,0.047682676,0.1784182,0.09438228,1.1226525,-0.26627582,-13.766147
18900000,0.05288043,0.18244182,0.10112931,1.1643994,-0.22417901,-13.81989
18904000,0.05106054,0.18418777,0.09292535,1.1294286,-0.22591043,-13.756652
18912000,0.04659725,0.18795651,0.1046592,1.0488995,-0.24563396,-13.779323
18916000,0.04702957,0.18771552,0.10091097,1.0686585,-0.22423959,-13.6975155
18920000,0.0511676,0.1822702,0.10496061,1.0320448,-0.26421374,-13.711972
18924000,0.049123053,0.18567424,0.113096006,1.0185688,-0.19621433,-13.868329
18928000,0.04196791,0.18830796,0.10145164,1.0679255,-0.1981447,-13.88959
18936000,0.042933285,0.19484787,0.09730689,1.0504107,-0.2678214,-13.910075
18940000,0.042905178,0.18950135,0.1005582,1.0196441,-0.22903366,-13.877773
18948000,0.039435055,0.19459392,0.10096722,1.0405397,-0.2080224,-13.966769
18952000,0.04238241,0.19293961,0.0901295,1.0129595,-0.18584166,-13.975363
18956000,0.04523742,0.18915156,0.08955279,1.0896286,-0.20312974,-13.982616
18964000,0.043095686,0.19268641,0.09477449,1.0671809,-0.16813882,-14.047316
18968000,0.039978232,0.19017117,0.09429971,1.1193067,-0.22399423,-14.02805
18972000,0.039013743,0.19494653,0.09336488,1.099855,-0.24790491,-13.9527
18976000,0.03574727,0.1964116,0.08996393,1.0351697,-0.273361,-13.978299
18984000,0.031029852,0.19418325,0.08591932,0.9603436,-0.28205976,-13.997949
18992000,0.04438958,0.18554841,0.0863011,1.0296136,-0.21426354,-14.064614
18996000,0.040320013,0.19494498,0.085348666,0.93653524,-0.26132178,-14.058931
19000000,0.03645453,0.19868088,0.08292917,0.96577936,-0.19742477,-14.100819
19004000,0.042391334,0.19244325,0.08634961,1.0235268,-0.17176439,-14.098771
19008000,0.037604902,0.18725634,0.0801412,0.96267956,-0.24272391,-14.035197
19016000,0.031048574,0.1953056,0.07282174,1.0219638,-0.2629918,-14.163105
19020000,0.032597505,0.19274996,0.077392325,0.9558124,-0.22157067,-14.143182
19024000,0.03687893,0.19035132,0.078982204,0.972822,-0.22108912,-14.201316
19028000,0.03587849,0.19327088,0.06820913,1.0210196,-0.22834145,-14.097711
19036000,0.028712241,0.18746544,0.06569245,0.98734605,-0.19736265,-14.075301
19040000,0.033627965,0.18977945,0.057591494,1.0457885,-0.14883803,-14.176997
19048000,0.024301505,0.1878577,0.07318074,0.9300118,-0.22497454,-14.172023
19056000,0.030608287,0.19925338,0.06382195,1.0085014,-0.25555623,-14.048986
19060000,0.031660695,0.1942538,0.06266752,0.9784254,-0.28619373,-14.181833
19064000,0.03189569,0.18852441,0.05923452,0.9271303,-0.28262746,-14.154655
19068000,0.03165201,0.19265033,0.061683513,0.9910678,-0.26241717,-14.200912
19072000,0.027292907,0.1892749,0.061902214,0.98937494,-0.23330438,-14.1794405
19076000,0.022611812,0.1820886,0.057880174,0.9683559,-0.20954056,-14.079429
19080000,0.023964072,0.18421452,0.061824005,0.9795867,-0.2545903,-14.12867
19088000,0.02861444,0.19727637,0.050147016,0.9390896,-0.31775478,-14.087481
19092000,0.02208784,0.19048087,0.048395623,0.95779175,-0.29868975,-14.116704
19100000,0.027660556,0.18933812,0.048248332,0.88422817,-0.23402685,-14.105443
19104000,0.028102016,0.19312288,0.04643417,0.9412723,-0.30532444,-14.030704
19108000,0.025402306,0.18496734,0.04950875,0.97260404,-0.40164462,-14.048412
19116000,0.024121521,0.18391064,0.038943514,0.98757726,-0.28713262,-14.149845
19120000,0.016130691,0.18655427,0.035370428,0.98180014,-0.26352003,-14.125481
19124000,0.016300408,0.18880934,0.036699016,1.0596857,-0.25682047,-14.068205
19128000,0.02207699,0.18782306,0.04119098,1.0431931,-0.29154956,-14.027053
19132000,0.019079188,0.18366672,0.044902217,0.97740024,-0.31973192,-14.059768
19140000,0.023907525,0.17984407,0.04450985,0.95873743,-0.19604862,-14.00137
19144000,0.019846046,0.18060745,0.045196105,0.9321645,-0.32595646,-14.011813
19148000,0.020280654,0.18080789,0.03778162,0.96804506,-0.35932985,-14.01702
19156000,0.019901315,0.17860475,0.042520594,0.98727363,-0.38708594,-13.974755
19160000,0.018440817,0.17792387,0.045354143,1.0487027,-0.3453139,-13.953942
19164000,0.014474355,0.17985268,0.040371243,1.0040356,-0.28563568,-13.876696
19168000,0.013644911,0.18631884,0.038768698,0.978181,-0.2963401,-13.956681
19172000,0.015809415,0.1880037,0.038673807,0.9018083,-0.34711668,-13.973481
19176000,0.020618493,0.17692614,0.041068442,0.88513714,-0.38819766,-13.892407
19180000,0.02232194,0.17495725,0.044078443,0.979132,-0.39091682,-13.905525
19188000,0.01662114,0.183277,0.04182385,1.043495,-0.338281,-13.906224
19192000,0.009160278,0.18300316,0.04251973,1.0594525,-0.39054915,-13.872557
19196000,0.004444312,0.17718247,0.043473125,1.0702162,-0.43294385,-13.802819
19200000,0.006934219,0.17365044,0.04008227,1.0452118,-0.4302426,-13.810878
19204000,0.015048949,0.17596455,0.037980136,1.0152936,-0.3597661,-13.805346
19208000,0.017327292,0.17853217,0.038656607,1.0218085,-0.33687183,-13.762176
19216000,0.012364067,0.17651749,0.042995874,0.95915896,-0.4466934,-13.864539
19224000,0.017324975,0.17228682,0.039068215,0.89853853,-0.38800374,-13.728928
19228000,0.015581092,0.17435427,0.044185273,1.005849,-0.36965007,-13.723389
19232000,0.017075585,0.17655075,0.043219928,1.0182102,-0.3219558,-13.705233
19236000,0.016594544,0.17617257,0.04556683,0.97387844,-0.36443803,-13.72651
19244000,0.004929526,0.17602803,0.04399004,1.069131,-0.40870473,-13.711527
19252000,0.010156902,0.17661628,0.04838347,1.031359,-0.50439113,-13.719771
19256000,0.009915485,0.17119174,0.04993396,0.98717076,-0.53530216,-13.671158
19264000,0.003693656,0.16863704,0.051364575,1.0132641,-0.441232,-13.764921
19272000,0.007751872,0.17174004,0.04266747,0.98981977,-0.4002165,-13.707007
19276000,0.002294952,0.17415054,0.038908064,1.0577176,-0.4231322,-13.69649
19280000,0.007211258,0.16740939,0.04923778,1.0273167,-0.43366155,-13.627176
19284000,0.00964362,0.16741411,0.053525273,1.0304544,-0.431151,-13.656461
19288000,0.006502407,0.16388834,0.05419497,1.0425932,-0.44973442,-13.738254
19296000,0.003582744,0.17643656,0.055652115,1.0733975,-0.4929604,-13.6542845
19304000,0.003210219,0.16776446,0.050378166,0.9694009,-0.4497125,-13.557092
19308000,0.003556204,0.16275343,0.055606928,1.033803,-0.47069988,-13.620172
19312000,0.006735067,0.16927738,0.055165365,1.0751331,-0.5098855,-13.599254
19316000,0.011807128,0.17502221,0.057265285,1.0466518,-0.47825444,-13.643961
19324000,0.012029712,0.16697784,0.059620164,1.0764079,-0.52542675,-13.617255
19328000,0.00803165,0.16433439,0.06608622,1.0461122,-0.5246728,-13.545551
19332000,0.009117147,0.17518108,0.06183387,1.0566921,-0.49600396,-13.562509
19336000,0.004373039,0.18390508,0.056436066,1.1430007,-0.48573983,-13.625146
19340000,0.001377525,0.18383232,0.05693416,1.1090865,-0.5207557,-13.696237
19344000,0.004142361,0.18080953,0.059749138,1.0712959,-0.43443808,-13.754252
19348000,0.007876202,0.17586881,0.054768283,1.0663847,-0.44057998,-13.672091
19352000,0.013997122,0.17497517,0.05073395,1.0139191,-0.4575631,-13.549719
19356000,0.008977382,0.1787043,0.059684914,1.039462,-0.42371824,-13.574144
19360000,0.002488282,0.17922077,0.059497364,1.0692743,-0.41182092,-13.659082
19368000,0.004496759,0.17887466,0.06518122,1.1590763,-0.3693736,-13.613799
19372000,-0.000914887,0.17814496,0.063083544,1.1116132,-0.43737844,-13.622305
19376000,0.002396603,0.1862778,0.0668253,1.08234,-0.46517795,-13.617864
19380000,0.003485491,0.18410435,0.06987981,1.0571386,-0.48352826,-13.632324
19384000,0.005153683,0.1787501,0.06805514,1.0618625,-0.49395114,-13.735924
19388000,0.007119706,0.18286149,0.061981246,1.1078353,-0.43494365,-13.704844
19392000,0.008823562,0.18191326,0.06395146,1.0994288,-0.43965715,-13.699212
19396000,0.008131474,0.18198822,0.065357774,1.1242659,-0.47506195,-13.712505
19404000,0.007372414,0.18502219,0.06878362,1.1594962,-0.52172214,-13.659783
19408000,0.0042061,0.18454409,0.067425616,1.1712638,-0.48589984,-13.667492
19416000,0.00623337,0.19188341,0.06888746,1.1631422,-0.45819852,-13.594432
19420000,0.007048102,0.18512897,0.071691796,1.1770768,-0.54531556,-13.692581
19424000,0.012779407,0.17886627,0.07169739,1.1251614,-0.56641597,-13.677548
19428000,0.010121531,0.17883952,0.07024668,1.1942707,-0.5207001,-13.698116
19432000,-0.001077497,0.17702599,0.07289677,1.2087896,-0.47123283,-13.734282
19436000,0.003747906,0.17305662,0.07005583,1.1278303,-0.45950896,-13.654057
19440000,0.007137903,0.17273918,0.068311244,1.0713655,-0.46165773,-13.657231
19444000,0.006143545,0.18110679,0.069880806,1.0547969,-0.4602333,-13.680177
19448000,0.009427842,0.19122615,0.06434381,1.0708601,-0.51296234,-13.723735
19456000,0.003523268,0.18044838,0.06997217,1.1246611,-0.518929,-13.711782
19464000,-0.00193063,0.19441408,0.06588498,1.2166175,-0.4436633,-13.741478
19472000,-0.001961383,0.18963811,0.069785096,1.2395355,-0.48399433,-13.67119
19476000,0.000265056,0.18986213,0.06613939,1.201543,-0.46756348,-13.661881
19480000,0.007534085,0.19061671,0.06331829,1.1346215,-0.45607632,-13.766153
19484000,0.008125381,0.19031753,0.06323987,1.1507787,-0.49441534,-13.812827
19492000,-0.004768455,0.1843515,0.07366918,1.1771939,-0.48821768,-13.732118
19500000,0.003068695,0.18505101,0.069239594,1.144084,-0.4864821,-13.703704
19508000,0.001230626,0.1958977,0.070298485,1.1830488,-0.54844093,-13.846213
19512000,0.001643835,0.19289508,0.0703004,1.2046975,-0.4412667,-13.792705
19516000,0.003921249,0.19441162,0.069373034,1.2204553,-0.4622737,-13.716865
19520000,-0.001294716,0.19493122,0.07038013,1.1753749,-0.45357823,-13.748634
19524000,-0.003922492,0.19310202,0.07302764,1.1701355,-0.43081996,-13.786317
19528000,-0.00615318,0.19617255,0.07058678,1.2033224,-0.4983093,-13.842538
19536000,-0.001019538,0.18738602,0.067010984,1.189162,-0.520446,-13.853925
19540000,0.002066809,0.18994868,0.06552686,1.1564125,-0.5602205,-13.738114
19544000,-0.00044508,0.19249825,0.064143196,1.1771379,-0.53804046,-13.730655
19548000,0.003656029,0.19350079,0.065684095,1.2183849,-0.4995342,-13.785764
19552000,-0.00042148,0.18895017,0.06816045,1.2068591,-0.4744156,-13.813062
19560000,-0.000514684,0.19268076,0.06400054,1.2724874,-0.45422813,-13.826573
19564000,-0.002842431,0.19330904,0.06343292,1.1491565,-0.51555663,-13.860673
19568000,0.002467176,0.1883235,0.07099107,1.1115645,-0.50974137,-13.847734
19572000,0.001554039,0.18849221,0.070274174,1.1548991,-0.52354705,-13.774179
19580000,-0.003055337,0.19217375,0.06662872,1.2712433,-0.52590936,-13.858305
19584000,-0.00314531,0.19069196,0.065262936,1.2641382,-0.51681364,-13.860014
19588000,0.00104393,0.19395296,0.05884478,1.2511188,-0.52334285,-13.873642
19592000,4.41E-05,0.18979613,0.06350958,1.2571541,-0.46445858,-13.885335
19596000,-0.005906409,0.1895714,0.064187385,1.2136725,-0.43135348,-13.8392315
19600000,-0.008734109,0.19366959,0.05856086,1.2327085,-0.4745433,-13.898568
19608000,-0.001879839,0.20063882,0.06147617,1.2862084,-0.5539585,-13.861853
19616000,0.002811734,0.19114633,0.058627248,1.3245033,-0.457339,-13.875668
19624000,0.003992024,0.1898075,0.05981091,1.3145863,-0.5763528,-13.90459
19632000,-0.007643205,0.19038723,0.064274885,1.2482456,-0.53648376,-13.861316
19636000,-0.006914553,0.19361883,0.06419703,1.3381246,-0.49681523,-13.86563
19644000,-0.007041946,0.19257133,0.061861824,1.3572702,-0.43288824,-13.954986
19652000,-0.006228979,0.19505577,0.06138603,1.3815408,-0.56970286,-14.021629
19660000,-0.003802284,0.19873837,0.055978604,1.3858966,-0.51971847,-13.927252
19664000,0.000694336,0.19854107,0.0572939,1.3720515,-0.5259683,-13.972518
19668000,-0.002167117,0.20457229,0.05704488,1.3611856,-0.5860888,-13.915055
19672000,-0.008634195,0.20107263,0.059458617,1.3644663,-0.5890473,-13.959849
19676000,-0.006058988,0.19845794,0.059137423,1.4065189,-0.5439032,-13.972001
19680000,0.000224411,0.20433855,0.054053605,1.4030974,-0.561574,-13.955512
19684000,0.001314144,0.20468125,0.057464696,1.4019716,-0.5369704,-13.9924
19688000,-0.003649972,0.19545653,0.056739427,1.3792228,-0.48363507,-13.96668
19692000,-0.005399372,0.1935792,0.05120663,1.3979923,-0.49102673,-13.885871
19696000,-0.00657191,0.20008756,0.053461656,1.4618647,-0.54881084,-13.888502
19700000,-0.007871825,0.20171271,0.053087488,1.4180232,-0.5474445,-13.989379
19704000,-0.003022115,0.20111655,0.051954653,1.3427889,-0.52179,-13.969172
19708000,-0.006318702,0.19872418,0.048661914,1.4126037,-0.49973622,-13.90149
19712000,-0.00770628,0.19622241,0.047537774,1.5010121,-0.5023735,-13.967779
19716000,-0.002585266,0.18982336,0.05006877,1.4073431,-0.55754495,-13.950269
19720000,-0.004128982,0.19092505,0.04833675,1.3940256,-0.62621295,-13.891788
19724000,-0.003490648,0.19382884,0.050641716,1.4242411,-0.64321077,-13.913915
19732000,-0.005665876,0.20361815,0.05384857,1.4323337,-0.46439284,-13.921514
19736000,-0.00779606,0.19980764,0.058246654,1.4531614,-0.51020265,-13.937926
19744000,-0.006611537,0.19986364,0.053372327,1.5164341,-0.5849817,-13.860094
19748000,-0.005429441,0.19423138,0.053391166,1.4458694,-0.6071837,-13.85944
19756000,-0.007863756,0.19859181,0.04741808,1.4976144,-0.65844303,-14.003366
19760000,-0.010380356,0.20488814,0.04821697,1.4231188,-0.6749161,-13.917285
19764000,-0.011492445,0.2047728,0.053963356,1.4409552,-0.5986723,-13.884709
19772000,-0.010796582,0.19452265,0.052648403,1.4036521,-0.562649,-13.867031
19776000,-0.008130995,0.1987703,0.049359012,1.4546431,-0.5020685,-13.908181
19780000,-0.012170009,0.20373958,0.05089163,1.5758812,-0.4885908,-13.963589
19788000,-0.009574754,0.20525691,0.05047526,1.482623,-0.5720122,-13.970895
19792000,-0.013481584,0.20813954,0.047808457,1.4733335,-0.58896995,-13.960137
19796000,-0.014581037,0.20746632,0.04975595,1.5246371,-0.566772,-13.943299
19800000,-0.009330942,0.20279618,0.051120307,1.5246371,-0.566772,-13.943299
19804000,-0.010831474,0.20461473,0.054352168,1.5201313,-0.5955607,-13.900571
19808000,-0.014588966,0.20781752,0.05561841,1.5329175,-0.5599708,-13.853801
19816000,-0.009084998,0.20305845,0.04648737,1.5020589,-0.53374076,-13.978847
19820000,-0.00937195,0.1983933,0.053527493,1.5689464,-0.52260315,-14.003411
19824000,-0.012239629,0.19656783,0.061180584,1.5190247,-0.5541174,-13.9974985
19828000,-0.009553767,0.20019569,0.052330237,1.5142816,-0.5780212,-13.898143
19832000,-0.008735996,0.20105037,0.051638458,1.5321538,-0.62604904,-13.86675
19836000,-0.007288776,0.19493087,0.05560297,1.5289159,-0.598689,-13.912354
19844000,-0.012759434,0.19869599,0.052696522,1.5820053,-0.66012734,-13.978377
19848000,-0.013721428,0.19453037,0.05570103,1.6061537,-0.6061275,-13.931636
19852000,-0.01101769,0.19162345,0.051029146,1.637724,-0.5717666,-13.870563
19860000,-0.010617753,0.1966906,0.05921117,1.6370412,-0.6863093,-13.88508
19864000,-0.013963925,0.19455951,0.06552049,1.5865839,-0.63588995,-13.907996
19868000,-0.011086023,0.20006919,0.060558673,1.5696254,-0.63592964,-13.986467
19872000,-0.008057101,0.20363747,0.053807866,1.58039,-0.63122386,-13.918166
19876000,-0.013978319,0.20444562,0.053548846,1.5590686,-0.5551071,-13.912008
19880000,-0.012209181,0.20653604,0.051472213,1.6020874,-0.6091916,-14.014545
19884000,-0.000339124,0.2033059,0.049172044,1.6543915,-0.591627,-13.985453
19892000,-0.012249847,0.2009761,0.044251993,1.5721257,-0.66600347,-13.917794
19900000,-0.01532127,0.20507225,0.049495485,1.710624,-0.5655071,-14.016166
19904000,-0.02087352,0.20650494,0.056713272,1.6711224,-0.6086712,-14.042022
19908000,-0.014220951,0.20754659,0.061249312,1.6413046,-0.5731256,-14.035765
19916000,-0.008499884,0.1932827,0.05353685,1.6534177,-0.70131415,-13.93793
19924000,-0.010640807,0.1974985,0.05578677,1.7490418,-0.6149753,-13.960397
19928000,-0.011474799,0.19524533,0.053011313,1.7247823,-0.6470205,-13.963812
19932000,-0.015908085,0.19638184,0.06301959,1.7229788,-0.6443778,-13.94077
19936000,-0.011559183,0.19620483,0.06475795,1.6775683,-0.660837,-13.929909
19940000,-0.00648343,0.19778322,0.060355213,1.6640952,-0.6654484,-13.938854
19944000,-0.01369536,0.19709481,0.057029065,1.7355574,-0.6368912,-13.960651
19952000,-0.011937619,0.18101072,0.0595282,1.7203754,-0.6538215,-13.93384
19956000,-0.013208182,0.18051632,0.06278703,1.7614212,-0.5971419,-13.951989
19960000,-0.017165836,0.17927805,0.06318479,1.704185,-0.5249383,-13.967401
19968000,-0.013895029,0.1818508,0.055573113,1.8410555,-0.6693069,-13.911046
19972000,-0.015314823,0.18081895,0.05656773,1.7509164,-0.68692917,-13.926741
19976000,-0.014319964,0.18082356,0.05777893,1.7385556,-0.6527872,-13.900185
19984000,-0.010613608,0.17507273,0.055905007,1.793049,-0.56647253,-13.870968
19992000,0.005912601,0.17029157,0.062966876,1.821766,-0.6283818,-13.699058
19996000,0.039826654,0.17093424,0.066074416,1.8681036,-0.75338274,-13.651015
20000000,0.07538623,0.16898108,0.06457746,1.8837893,-0.76006645,-13.655645
20008000,0.1341665,0.16903564,0.06278914,1.8232894,-0.6224782,-13.655498
20012000,0.16816795,0.16753185,0.06756683,1.8623028,-0.6460562,-13.668294
20016000,0.20256162,0.16620414,0.06771049,1.9187664,-0.62732655,-13.620517
20020000,0.23564404,0.16595517,0.06624102,1.8702337,-0.6570748,-13.559955
20028000,0.28384766,0.16691588,0.07068306,1.8493319,-0.69785225,-13.517108
20032000,0.30170557,0.17007156,0.06698392,1.9329087,-0.6430821,-13.488354
20036000,0.3267583,0.16503097,0.06755206,1.9079996,-0.6315057,-13.4881735
20044000,0.3646459,0.15880765,0.07111591,1.882348,-0.71126914,-13.435092
20048000,0.38150856,0.15999414,0.067265324,1.9084486,-0.62868017,-13.403667
20052000,0.39428478,0.16251278,0.074539915,1.9515065,-0.6736098,-13.444119
20056000,0.41689348,0.15731163,0.0839852,2.020638,-0.7073324,-13.312295
20064000,0.43642747,0.1546965,0.0799533,1.939588,-0.6596182,-13.254846
20068000,0.45070508,0.15360354,0.087482385,1.9440564,-0.6522436,-13.151119
20076000,0.46149215,0.15101819,0.08622463,1.9750304,-0.6643294,-13.171059
20080000,0.47318202,0.15124203,0.09709713,1.9810181,-0.6515969,-13.248521
20084000,0.48626602,0.14750353,0.09643336,2.0419278,-0.6447814,-13.205974
20092000,0.49679157,0.15015858,0.0969378,2.0410607,-0.66236335,-13.061153
20096000,0.49915782,0.15001523,0.095879525,2.0831327,-0.65608203,-13.036256
20100000,0.50597066,0.14662068,0.10004555,2.038128,-0.6180709,-13.019866
20104000,0.5140965,0.1463223,0.10033499,2.040345,-0.64487284,-12.971043
20108000,0.51758516,0.15055186,0.102592215,2.1072216,-0.6327096,-12.985942
20112000,0.5245711,0.14834133,0.10641664,2.126706,-0.63795805,-12.962192
20116000,0.5333286,0.14640242,0.10833297,2.0656934,-0.6303713,-12.914331
20124000,0.5331928,0.14930639,0.103691004,2.0674093,-0.5882398,-12.880126
20128000,0.53575003,0.1400141,0.10720625,2.1255302,-0.59412396,-12.879484
20136000,0.53281265,0.14058475,0.11220166,1.9906077,-0.6636845,-12.831912
20140000,0.5336676,0.1475704,0.110607736,2.0409198,-0.57138896,-12.796525
20144000,0.5260032,0.14624974,0.11027296,2.0741847,-0.5870985,-12.778409
20148000,0.5299472,0.13874187,0.11311748,2.0864463,-0.63026476,-12.776748
20156000,0.5379958,0.15096384,0.117644444,2.107796,-0.58255005,-12.686389
20160000,0.54166067,0.14089474,0.11972364,2.0414464,-0.55487645,-12.647106
20168000,0.5306652,0.14217606,0.120223954,2.1615522,-0.6247595,-12.659913
20172000,0.5277034,0.1440533,0.12119895,2.1752186,-0.6579398,-12.645646
20180000,0.5351943,0.15006809,0.12753494,2.0824354,-0.55589813,-12.608956
20184000,0.53041637,0.14431867,0.12781395,2.1838222,-0.53057766,-12.570612
20188000,0.5255478,0.13851525,0.13068035,2.2347589,-0.5845388,-12.625486
20192000,0.52411675,0.13828257,0.12705609,2.1831527,-0.60106915,-12.559126
20196000,0.5176486,0.1398633,0.12540933,2.1540089,-0.56130385,-12.4621315
20200000,0.51535416,0.1442649,0.1296827,2.1461513,-0.56367403,-12.404991
20204000,0.5247293,0.14334886,0.13284096,2.1779547,-0.5562977,-12.421973
20212000,0.5109126,0.14752315,0.12900494,2.1838646,-0.53755355,-12.511223
20216000,0.51198107,0.14980483,0.13700762,2.1825988,-0.53180957,-12.4415455
20220000,0.5117565,0.14381884,0.14250903,2.147312,-0.5309969,-12.413325
20228000,0.50551313,0.14184318,0.1341348,2.1814384,-0.5815033,-12.428292
20232000,0.50072414,0.14482032,0.13706766,2.1793196,-0.53740704,-12.354324
20236000,0.49425974,0.14447674,0.1362727,2.226591,-0.5280579,-12.326618
20240000,0.4854402,0.1412635,0.13652715,2.2568593,-0.49452266,-12.322917
20244000,0.48530287,0.14263424,0.13656005,2.2363834,-0.49709576,-12.373145
20248000,0.48361707,0.1457089,0.13419889,2.3092384,-0.48250267,-12.333359
20252000,0.48183748,0.14583762,0.13394305,2.3192675,-0.4044802,-12.212498
20256000,0.48338827,0.14721587,0.13471428,2.2348783,-0.4180601,-12.262916
20260000,0.47882462,0.14641562,0.13269171,2.2767372,-0.4376893,-12.345877
20264000,0.4709675,0.14381333,0.13380663,2.3269465,-0.41652215,-12.282721
20268000,0.46799892,0.14426714,0.14039804,2.3148532,-0.43785736,-12.257077
20276000,0.45876163,0.1475772,0.14008458,2.3351433,-0.55485415,-12.281364
20280000,0.4549157,0.1496028,0.13555858,2.3049326,-0.5739751,-12.284105
20284000,0.45360294,0.14466885,0.13718833,2.2360551,-0.49610624,-12.2755165
20288000,0.45054948,0.14006668,0.13449036,2.277649,-0.42331237,-12.263962
20292000,0.44188243,0.14369214,0.13141093,2.329832,-0.46674004,-12.300933
20300000,0.44709322,0.15096803,0.13615151,2.2918327,-0.4975938,-12.245321
20304000,0.4374984,0.14901198,0.13255158,2.2779162,-0.44182795,-12.175376
20308000,0.42734328,0.14449672,0.13333642,2.271264,-0.45162046,-12.249309
20316000,0.4307223,0.14812534,0.13329765,2.2595525,-0.4198019,-12.2523155
20324000,0.4140147,0.15594655,0.13496487,2.3404276,-0.51840746,-12.18569
20328000,0.41279417,0.15655138,0.13910508,2.3065758,-0.45822835,-12.158475
20332000,0.4149433,0.14956057,0.13502052,2.281066,-0.40156913,-12.177545
20336000,0.41153502,0.14869404,0.13622616,2.3096166,-0.4603291,-12.200497
20340000,0.40904716,0.15613174,0.14135915,2.313955,-0.4197897,-12.188977
20344000,0.40421823,0.15942352,0.14145412,2.3271382,-0.41444078,-12.173968
20348000,0.39567158,0.16283554,0.13804525,2.4165914,-0.4902353,-12.201419
20356000,0.39485314,0.15673377,0.13456756,2.2896385,-0.3964363,-12.186578
20360000,0.39123583,0.15513171,0.13445896,2.3115914,-0.39216483,-12.166765
20364000,0.3848465,0.1519907,0.13127716,2.3472896,-0.39234,-12.199551
20368000,0.38155672,0.1502797,0.12752362,2.4189482,-0.4506033,-12.293766
20376000,0.37680176,0.1589669,0.12725529,2.5130363,-0.5059151,-12.089219
20380000,0.36775193,0.16035382,0.12559848,2.468357,-0.44321907,-12.13388
20384000,0.3619579,0.15902418,0.13008218,2.3849914,-0.48406196,-12.171676
20392000,0.35582379,0.1575011,0.13766949,2.4006042,-0.47206062,-12.1256895
20396000,0.35072467,0.16078238,0.1306415,2.4315352,-0.50101924,-12.143845
20404000,0.3533378,0.1490673,0.13006267,2.4301827,-0.47712192,-12.136155
20408000,0.34737214,0.1486153,0.12944894,2.465855,-0.5471692,-12.130405
20416000,0.34042478,0.14849387,0.1336334,2.357977,-0.5247204,-12.080568
20420000,0.3350011,0.1465576,0.13334115,2.4085932,-0.49460182,-12.083832
20424000,0.3370056,0.14425455,0.13218789,2.4232564,-0.46203864,-12.053748
20428000,0.3359575,0.14615257,0.12855592,2.4074829,-0.48176128,-12.006022
20432000,0.32282025,0.14864796,0.12870595,2.4375176,-0.47003523,-12.043297
20436000,0.31943816,0.15073617,0.12297371,2.4632177,-0.44678876,-12.052256
20440000,0.31644621,0.15276392,0.12107167,2.4519184,-0.43393466,-12.043652
20448000,0.324586,0.15528722,0.13488409,2.4059346,-0.4615153,-11.938452
20452000,0.31492785,0.15231517,0.13290344,2.4158204,-0.5256232,-12.042453
20456000,0.31165698,0.15086865,0.12855734,2.471465,-0.5647503,-12.021887
20460000,0.3064689,0.1549864,0.13250029,2.4618428,-0.5137181,-11.940751
20464000,0.30280954,0.16054802,0.13721783,2.4545739,-0.53366023,-11.921864
20468000,0.30472252,0.16003862,0.13518152,2.4924128,-0.52778333,-11.901566
20476000,0.29745856,0.15289207,0.13639851,2.4871488,-0.5219906,-11.988248
20480000,0.28752434,0.15413447,0.13241132,2.4942477,-0.46245253,-11.925142
20484000,0.2795158,0.15333025,0.13477762,2.5099583,-0.44770673,-11.902411
20492000,0.28089234,0.14957745,0.1344207,2.4293177,-0.5826866,-11.92111
20496000,0.28042778,0.14780878,0.13276212,2.4381871,-0.5368283,-11.9203825
20504000,0.2700735,0.15250771,0.13615194,2.537758,-0.38324562,-11.957387
20508000,0.2679151,0.15166342,0.13733953,2.5097435,-0.35280865,-11.926922
20512000,0.26513353,0.15155424,0.13779847,2.4748158,-0.50669724,-11.866058
20516000,0.26218832,0.15007032,0.13428591,2.5062487,-0.5256104,-11.855833
20524000,0.25528762,0.15073322,0.1387325,2.5370238,-0.46512565,-11.858675
20528000,0.25282153,0.15346546,0.1464197,2.4501107,-0.49091396,-11.854661
20532000,0.25358433,0.15111147,0.14467664,2.4583223,-0.53592736,-11.820539
20536000,0.24738227,0.14583147,0.14119512,2.5407412,-0.5383146,-11.846718
20540000,0.24440087,0.14268689,0.14083286,2.5418522,-0.5378595,-11.883149
20544000,0.24531241,0.13865069,0.14093868,2.4900956,-0.5296411,-11.85493
20548000,0.24364433,0.14023978,0.14193995,2.492736,-0.54708207,-11.806772
20552000,0.24380635,0.14361538,0.14231896,2.53172,-0.5056901,-11.810013
20560000,0.23934764,0.13913038,0.14062206,2.564992,-0.6065239,-11.70105
20564000,0.24236274,0.14248268,0.14215948,2.4951603,-0.647067,-11.627615
20572000,0.22668034,0.14840773,0.14338386,2.5978346,-0.62999594,-11.729896
20576000,0.22617713,0.14634374,0.14675942,2.5436203,-0.531099,-11.74189
20580000,0.22914144,0.14085688,0.14509974,2.5959668,-0.53429234,-11.694884
20588000,0.21834902,0.14554054,0.14707355,2.510229,-0.54809576,-11.691414
20596000,0.21385218,0.14164928,0.14851439,2.5842352,-0.5336484,-11.681396
20600000,0.21576074,0.14593174,0.14083692,2.5418472,-0.5305284,-11.588958
20608000,0.21078171,0.14688121,0.14734866,2.5692897,-0.5519907,-11.644326
20612000,0.20772964,0.14865932,0.14531487,2.6328459,-0.56417537,-11.6549835
20616000,0.20432627,0.14837392,0.15035966,2.6396968,-0.6117706,-11.624177
20620000,0.20003884,0.14087899,0.1500144,2.599622,-0.61205405,-11.58623
20624000,0.20116098,0.14059371,0.14935184,2.6683428,-0.54134476,-11.571925
20628000,0.20318212,0.14616495,0.15116772,2.6750062,-0.57759863,-11.586689
20632000,0.19998106,0.15273637,0.150438,2.5607991,-0.63439953,-11.618528
20640000,0.19109647,0.14007759,0.15823057,2.6733997,-0.5201909,-11.559517
20644000,0.19302465,0.14799577,0.16193897,2.693505,-0.53033876,-11.591516
20648000,0.19313987,0.14716719,0.16666655,2.6514447,-0.5497846,-11.571072
20652000,0.18985415,0.14453584,0.16443816,2.6666474,-0.5502265,-11.519577
20656000,0.18208452,0.14736557,0.16079812,2.7042904,-0.5341077,-11.53276
20660000,0.17602897,0.1475206,0.15964644,2.6265025,-0.5503169,-11.539842
20664000,0.18456164,0.14636183,0.1603072,2.5727801,-0.52857107,-11.460682
20668000,0.18684155,0.14267598,0.16258684,2.5846934,-0.58210605,-11.452706
20672000,0.17818516,0.14966728,0.16337125,2.6069,-0.65894824,-11.43187
20676000,0.17408039,0.14881605,0.1637101,2.6359706,-0.58376044,-11.398666
20684000,0.1821883,0.13735843,0.16715878,2.6207833,-0.5175733,-11.523748
20688000,0.19524564,0.13848859,0.17093715,2.6575284,-0.6013009,-11.546624
20692000,0.22308932,0.14139494,0.1619942,2.1485536,-0.6719564,-11.511679
20696000,0.2494357,0.13823386,0.16505398,1.3811206,-0.6762809,-11.495937
20700000,0.2685068,0.13823943,0.17463206,0.8021601,-0.5753781,-11.524917
20708000,0.31590176,0.15008576,0.18772824,-0.10571315,-0.37419996,-11.640986
20712000,0.3325628,0.150268,0.18016446,-0.46181342,-0.43427676,-11.670065
20720000,0.36095202,0.16442811,0.18475881,-0.81201065,-0.4322262,-11.651232
20724000,0.3718337,0.16372554,0.18069424,-0.94034237,-0.4360723,-11.687336
20728000,0.38172793,0.16334577,0.18689954,-1.0819222,-0.3998222,-11.68245
20736000,0.4021817,0.18109122,0.20833853,-1.2328854,-0.37122568,-11.656834
20740000,0.40518096,0.18306093,0.21821384,-1.235419,-0.4092885,-11.743332
20748000,0.4141277,0.18957819,0.21675462,-1.3006272,-0.2977254,-11.679636
20752000,0.4137607,0.18660568,0.21714704,-1.2996335,-0.31019315,-11.716525
20756000,0.4187443,0.18836382,0.2217612,-1.3067884,-0.30320543,-11.711804
20760000,0.42187682,0.19925731,0.22908264,-1.3703692,-0.26347023,-11.702109
20764000,0.4200781,0.20777097,0.24069117,-1.3939995,-0.3036136,-11.745798
20768000,0.4199798,0.20693392,0.24687211,-1.3345696,-0.34310088,-11.764979
20776000,0.43496776,0.21025574,0.24217997,-1.286578,-0.30329585,-11.7752285
20780000,0.43023676,0.21412109,0.24770416,-1.332252,-0.29797393,-11.775937
20784000,0.4322083,0.21966344,0.25799024,-1.2899482,-0.35042375,-11.849106
20788000,0.43551478,0.22222586,0.26106185,-1.2934171,-0.29261348,-11.9515915
20792000,0.43485442,0.22335543,0.26540598,-1.2196195,-0.20586543,-12.0165415
20796000,0.43499494,0.22355495,0.26430556,-1.1703198,-0.2724971,-12.013137
20800000,0.43420914,0.2267315,0.2680441,-1.1499305,-0.25932032,-12.041582
20804000,0.44240388,0.23139368,0.27317324,-1.1545603,-0.22219177,-12.003853
20812000,0.4391796,0.22732891,0.28340825,-1.0351105,-0.21570767,-12.069889
20816000,0.4403803,0.23008442,0.28282914,-0.9804107,-0.21878578,-12.023688
20824000,0.42852458,0.23380496,0.2866692,-1.0125751,-0.28255984,-12.140239
20828000,0.42353582,0.22710624,0.29412183,-0.98703986,-0.25383306,-12.054999
20832000,0.4244241,0.22668882,0.2917843,-0.9682328,-0.22276287,-12.067072
20840000,0.42595574,0.23013964,0.2968254,-0.7664809,-0.14471611,-12.092972
20844000,0.42503986,0.2282723,0.29579166,-0.744036,-0.14899807,-12.139291
20848000,0.4249309,0.22784671,0.29789785,-0.7785463,-0.21708518,-12.197135
20852000,0.4169033,0.226345,0.3025541,-0.7756457,-0.20720701,-12.201935
20856000,0.4113398,0.22141995,0.31026474,-0.75791574,-0.14361699,-12.188969
20860000,0.4147368,0.21996848,0.30823997,-0.7620028,-0.13736418,-12.173978
20864000,0.41382912,0.22177818,0.30072805,-0.6843453,-0.13533618,-12.175696
20872000,0.42228886,0.21889365,0.30823377,-0.6092401,-0.088968195,-12.257664
20876000,0.41525185,0.22365886,0.30939645,-0.531133,-0.06765839,-12.176085
20880000,0.4147945,0.22380705,0.30546385,-0.44229147,-0.034058392,-12.128362
20884000,0.41148838,0.21837014,0.30370343,-0.4389116,-0.10193332,-12.174336
20888000,0.40520805,0.21826705,0.30670282,-0.4067923,-0.14209431,-12.1633215
20892000,0.40819746,0.22109778,0.3084906,-0.35748634,-0.08260556,-12.190126
20896000,0.40831307,0.21364759,0.3112944,-0.3683154,-0.056498148,-12.141313
20900000,0.40194747,0.21435548,0.31131265,-0.36240318,-0.11751935,-12.071533
20904000,0.40002048,0.21824086,0.30532864,-0.3219144,-0.098314434,-12.166802
