timestamp,roll,pitch,yaw,thrust_body[0]
18020000,-0.0559025,-0.33916706,-0.007246492,1
18024000,-0.05791556,-0.3389697,-0.007246492,1
18028000,-0.05991614,-0.33872473,-0.007246492,1
18032000,-0.061894886,-0.3384604,-0.007246492,1
18036000,-0.06386536,-0.32130456,-0.007246492,1
18040000,-0.06583631,-0.32107258,-0.007246492,1
18044000,-0.067830674,-0.32081115,-0.007246492,1
18048000,-0.06983247,-0.32049283,-0.007246492,1
18052000,-0.07180381,-0.3201884,-0.007246492,1
18056000,-0.073749825,-0.31989998,-0.007246492,1
18060000,-0.0756793,-0.3031363,-0.007246492,1
18068000,-0.07955978,-0.30248785,-0.007246492,1
18072000,-0.08141932,-0.30214843,-0.007246492,1
18076000,-0.08327957,-0.30179983,-0.007246492,1
18080000,-0.08515508,-0.30146343,-0.007246492,1
18084000,-0.08697344,-0.2851281,-0.007246492,1
18088000,-0.08876628,-0.2848352,-0.007246492,1
18092000,-0.090597704,-0.28453782,-0.007246492,1
18100000,-0.094223335,-0.2839219,-0.007246492,1
18104000,-0.09603584,-0.28367722,-0.007246492,1
18108000,-0.09783481,-0.2677778,-0.007246492,1
18112000,-0.09960843,-0.26757613,-0.007246492,1
18116000,-0.10135687,-0.26734644,-0.007246492,1
18120000,-0.10309526,-0.26711982,-0.007246492,1
18124000,-0.10484135,-0.2669607,-0.007246492,1
18128000,-0.106554,-0.2668531,-0.007246492,1
18132000,-0.10823143,-0.25138524,-0.007246492,1
18136000,-0.10991382,-0.25125173,-0.007246492,1
18144000,-0.11316723,-0.25105968,-0.007246492,1
18148000,-0.11479975,-0.25102133,-0.007246492,1
18152000,-0.11638249,-0.25101417,-0.007246492,1
18156000,-0.117975794,-0.23597404,-0.007246492,1
18160000,-0.119579144,-0.23602265,-0.007246492,1
18164000,-0.121134974,-0.23610365,-0.007246492,1
18168000,-0.12266361,-0.23619057,-0.007246492,1
18172000,-0.12416301,-0.23627932,-0.007246492,1
18180000,-0.12714991,-0.22180678,-0.007246492,1
18184000,-0.12864122,-0.22202128,-0.007246492,1
18188000,-0.13011925,-0.22231436,-0.007246492,1
18192000,-0.13162458,-0.22262976,-0.007246492,1
18196000,-0.13308442,-0.22294532,-0.007246492,1
18200000,-0.13448979,-0.22328354,-0.007246492,1
18204000,-0.13590862,-0.20916662,-0.007246492,1
18208000,-0.13731875,-0.209418,-0.007246492,1
18212000,-0.13873598,-0.20946218,-0.007246492,1
18220000,-0.14145608,-0.20952919,-0.007246492,1
18224000,-0.14280635,-0.20958789,-0.007246492,1
18228000,-0.14411297,-0.19531462,-0.007246492,1
18232000,-0.14545067,-0.19536366,-0.007246492,1
18236000,-0.14681862,-0.19538619,-0.007246492,1
18240000,-0.1481539,-0.19541016,-0.007246492,1
18244000,-0.14946623,-0.19541813,-0.007246492,1
18248000,-0.15075864,-0.19542733,-0.007246492,1
18252000,-0.15205541,-0.18132867,-0.007246492,1
18256000,-0.15334238,-0.18139623,-0.007246492,1
18260000,-0.15459163,-0.18146999,-0.007246492,1
18264000,-0.15584962,-0.18155132,-0.007246492,1
18268000,-0.15708342,-0.18163975,-0.007246492,1
18272000,-0.15828879,-0.1817001,-0.007246492,1
18280000,-0.16072042,-0.16781351,-0.007246492,1
18284000,-0.16191375,-0.16785486,-0.007246492,1
18288000,-0.16311486,-0.16791894,-0.007246492,1
18292000,-0.16430093,-0.16797467,-0.007246492,1
18296000,-0.1654683,-0.16805196,-0.007246492,1
18300000,-0.1666385,-0.15435061,-0.007246492,1
18304000,-0.16779716,-0.15450914,-0.007246492,1
18308000,-0.16898109,-0.1547167,-0.007246492,1
18312000,-0.17016524,-0.15492146,-0.007246492,1
18316000,-0.17135209,-0.15520078,-0.007246492,1
18320000,-0.17251582,-0.155546,-0.007246492,1
18324000,-0.17362696,-0.1423145,-0.007246492,1
18332000,-0.17587364,-0.1432749,-0.007246492,1
18340000,-0.17814709,-0.14445326,-0.007246492,1
18344000,-0.17930122,-0.1451692,-0.007246492,1
18348000,-0.18041655,-0.13241875,-0.007246492,1
18352000,-0.18152145,-0.13325714,-0.007246492,1
18356000,-0.18261646,-0.13418706,-0.007246492,1
18360000,-0.18368818,-0.13519458,-0.007246492,1
18364000,-0.18474089,-0.13626327,-0.007246492,1
18368000,-0.18579832,-0.13742763,-0.007246492,1
18372000,-0.18687192,-0.12526593,-0.007246492,1
18380000,-0.188961,-0.12790297,-0.007246492,1
18388000,-0.19101597,-0.13079666,-0.007246492,1
18392000,-0.19204071,-0.1323743,-0.007246492,1
18396000,-0.19306293,-0.12065604,-0.007246492,1
18400000,-0.19407958,-0.122251354,-0.007246492,1
18404000,-0.19508891,-0.12389485,-0.007246492,1
18408000,-0.1960833,-0.12554751,-0.007246492,1
18412000,-0.19707298,-0.12724683,-0.007246492,1
18416000,-0.19803783,-0.12900242,-0.007246492,1
18420000,-0.1989923,-0.11759429,-0.007246492,1
18428000,-0.2008699,-0.12126568,-0.007246492,1
18432000,-0.20178941,-0.123182945,-0.007246492,1
18436000,-0.20269492,-0.12510304,-0.007246492,1
18440000,-0.20358612,-0.12708737,-0.007246492,1
18444000,-0.20449229,-0.11601174,-0.007246492,1
18448000,-0.20538159,-0.11799907,-0.007246492,1
18452000,-0.20627119,-0.11995979,-0.007246492,1
18460000,-0.20793848,-0.12410966,-0.007246492,1
18464000,-0.2087657,-0.12617017,-0.007246492,1
18468000,-0.20960791,-0.11519242,-0.007246492,1
18472000,-0.21046281,-0.11727321,-0.007246492,1
18476000,-0.21129337,-0.11932517,-0.007246492,1
18484000,-0.21294884,-0.123432904,-0.007246492,1
18492000,-0.21452254,-0.11468909,-0.007246492,1
18496000,-0.21531768,-0.11683473,-0.007246492,1
18500000,-0.21612854,-0.11895589,-0.007246492,1
18504000,-0.21692152,-0.12106322,-0.007246492,1
18508000,-0.2177146,-0.1231323,-0.007246492,1
18512000,-0.2184677,-0.12517622,-0.007246492,1
18516000,-0.21919201,-0.1142694,-0.007246492,1
18524000,-0.22058268,-0.11833388,-0.007246492,1
18532000,-0.2219368,-0.122234374,-0.007246492,1
18540000,-0.22340108,-0.113206275,-0.007246492,1
18548000,-0.2248035,-0.116864175,-0.007246492,1
18552000,-0.2254958,-0.11873934,-0.007246492,1
18556000,-0.22613548,-0.120611176,-0.007246492,1
18560000,-0.2267553,-0.122426264,-0.007246492,1
18564000,-0.22738568,-0.11135614,-0.007246492,1
18568000,-0.22803299,-0.11314815,-0.007246492,1
18572000,-0.22864561,-0.1149236,-0.007246492,1
18576000,-0.2292329,-0.1166696,-0.007246492,1
18580000,-0.22982185,-0.11834851,-0.007246492,1
18584000,-0.23039314,-0.12003403,-0.007246492,1
18588000,-0.23096986,-0.10886673,-0.007246492,1
18592000,-0.23155175,-0.1104944,-0.007246492,1
18596000,-0.23211777,-0.112108245,-0.007246492,1
18604000,-0.2332482,-0.1152426,-0.007246492,1
18608000,-0.23380671,-0.116842955,-0.007246492,1
18612000,-0.23434384,-0.105583645,-0.007246492,1
18616000,-0.23483516,-0.10710559,-0.007246492,1
18620000,-0.23532352,-0.10859968,-0.007246492,1
18624000,-0.23581074,-0.11006971,-0.007246492,1
18628000,-0.23629564,-0.11151368,-0.007246492,1
18636000,-0.23728472,-0.10160756,-0.007246492,1
18640000,-0.23777851,-0.10302412,-0.007246492,1
18644000,-0.23829794,-0.104413144,-0.007246492,1
18652000,-0.23931637,-0.1070298,-0.007246492,1
18660000,-0.24027091,-0.09688224,-0.007246492,1
18664000,-0.24075763,-0.09820574,-0.007246492,1
18668000,-0.2412191,-0.09947463,-0.007246492,1
18672000,-0.24170543,-0.10076512,-0.007246492,1
18676000,-0.24217957,-0.102079146,-0.007246492,1
18680000,-0.24265234,-0.103337206,-0.007246492,1
18684000,-0.24313918,-0.09171236,-0.007246492,1
18688000,-0.24360876,-0.092894405,-0.007246492,1
18692000,-0.24406564,-0.09407046,-0.007246492,1
18700000,-0.24497263,-0.09644644,-0.007246492,1
18704000,-0.245429,-0.097613804,-0.007246492,1
18708000,-0.24586885,-0.08595507,-0.007246492,1
18712000,-0.24628644,-0.08712951,-0.007246492,1
18716000,-0.24669641,-0.08826782,-0.007246492,1
18720000,-0.24711844,-0.08939183,-0.007246492,1
18724000,-0.24756342,-0.090564,-0.007246492,1
18732000,-0.2483761,-0.07999021,-0.007246492,1
18736000,-0.24877116,-0.08105865,-0.007246492,1
18740000,-0.24919273,-0.08221636,-0.007246492,1
18744000,-0.24959633,-0.083394356,-0.007246492,1
18748000,-0.24999301,-0.08454543,-0.007246492,1
18752000,-0.2504193,-0.085719004,-0.007246492,1
18756000,-0.2508291,-0.07401374,-0.007246492,1
18760000,-0.25121707,-0.0751167,-0.007246492,1
18764000,-0.25160697,-0.076218754,-0.007246492,1
18768000,-0.25201198,-0.07735654,-0.007246492,1
18772000,-0.25240436,-0.07852222,-0.007246492,1
18780000,-0.2531756,-0.067971334,-0.007246492,1
18784000,-0.2535427,-0.06913078,-0.007246492,1
18788000,-0.25389075,-0.07028608,-0.007246492,1
18792000,-0.25425538,-0.07146028,-0.007246492,1
18796000,-0.2546686,-0.072632365,-0.007246492,1
18800000,-0.25509313,-0.07380748,-0.007246492,1
18804000,-0.25550848,-0.06208814,-0.007246492,1
18808000,-0.2559054,-0.06325157,-0.007246492,1
18812000,-0.2562494,-0.064427406,-0.007246492,1
18816000,-0.25662318,-0.06558296,-0.007246492,1
18820000,-0.25702587,-0.066758655,-0.007246492,1
18824000,-0.25739548,-0.06794027,-0.007246492,1
18828000,-0.25779307,-0.05620601,-0.007246492,1
18836000,-0.2585553,-0.058621477,-0.007246492,1
18840000,-0.2589104,-0.059832808,-0.007246492,1
18844000,-0.25928953,-0.061047856,-0.007246492,1
18848000,-0.25966558,-0.06229303,-0.007246492,1
18852000,-0.2600538,-0.05060803,-0.007246492,1
18856000,-0.26042393,-0.051837824,-0.007246492,1
18860000,-0.2607767,-0.05305954,-0.007246492,1
18868000,-0.26149178,-0.055608492,-0.007246492,1
18872000,-0.26184443,-0.05689781,-0.007246492,1
18876000,-0.26220983,-0.045231655,-0.007246492,1
18880000,-0.26256943,-0.046579607,-0.007246492,1
18884000,-0.26294884,-0.047898237,-0.007246492,1
18888000,-0.2632812,-0.04920369,-0.007246492,1
18892000,-0.26360697,-0.050515946,-0.007246492,1
18900000,-0.26432693,-0.04016299,-0.007246492,1
18904000,-0.26467347,-0.0415224,-0.007246492,1
18908000,-0.26501638,-0.04287561,-0.007246492,1
18916000,-0.26567453,-0.045618538,-0.007246492,1
18920000,-0.26603025,-0.046942927,-0.007246492,1
18924000,-0.26637962,-0.035249103,-0.007246492,1
18928000,-0.26668277,-0.03662692,-0.007246492,1
18932000,-0.26698637,-0.038045816,-0.007246492,1
18936000,-0.26729447,-0.039478924,-0.007246492,1
18940000,-0.26760453,-0.040865112,-0.007246492,1
18948000,-0.2681999,-0.03059283,-0.007246492,1
18956000,-0.26882386,-0.03342062,-0.007246492,1
18960000,-0.26915163,-0.034845855,-0.007246492,1
18964000,-0.2694642,-0.03626355,-0.007246492,1
18968000,-0.2697591,-0.03766222,-0.007246492,1
18972000,-0.27004915,-0.02598838,-0.007246492,1
18976000,-0.27031928,-0.027441345,-0.007246492,1
18984000,-0.27081978,-0.030332217,-0.007246492,1
18988000,-0.27107012,-0.031696644,-0.007246492,1
18992000,-0.27138838,-0.03306516,-0.007246492,1
18996000,-0.27168444,-0.021354571,-0.007246492,1
19000000,-0.27195776,-0.022829719,-0.007246492,1
19004000,-0.27226734,-0.024250917,-0.007246492,1
19008000,-0.27254578,-0.025641073,-0.007246492,1
19012000,-0.2727835,-0.02707519,-0.007246492,1
19016000,-0.27302203,-0.028537279,-0.007246492,1
19020000,-0.27327272,-0.0167752,-0.007246492,1
19024000,-0.27354917,-0.018190112,-0.007246492,1
19028000,-0.27381426,-0.01964294,-0.007246492,1
19032000,-0.27405974,-0.021086387,-0.007246492,1
19036000,-0.27428287,-0.02249723,-0.007246492,1
19040000,-0.2745297,-0.023937913,-0.007246492,1
19044000,-0.27479154,-0.012136027,-0.007246492,1
19048000,-0.27499598,-0.01353956,-0.007246492,1
19052000,-0.2752075,-0.014978073,-0.007246492,1
19060000,-0.27568635,-0.017950108,-0.007246492,1
19068000,-0.27616978,-0.00754479,-0.007246492,1
19072000,-0.27638757,-0.00897569,-0.007246492,1
19076000,-0.27657583,-0.010356614,-0.007246492,1
19080000,-0.27677506,-0.011747785,-0.007246492,1
19084000,-0.27700263,-0.013203406,-0.007246492,1
19088000,-0.2772228,-0.014712161,-0.007246492,1
19092000,-0.2774044,-0.002835031,-0.007246492,1
19100000,-0.2778102,-0.005691437,-0.007246492,1
19104000,-0.27802625,-0.00717376,-0.007246492,1
19108000,-0.27822867,-0.00858792,-0.007246492,1
19112000,-0.27843395,-0.009968876,-0.007246492,1
19116000,-0.2786223,0.001991059,-0.007246492,1
19120000,-0.27876312,0.000542101,-0.007246492,1
19124000,-0.27890602,-0.000921658,-0.007246492,1
19128000,-0.27908546,-0.002371048,-0.007246492,1
19132000,-0.2792505,-0.003782147,-0.007246492,1
19136000,-0.27942312,-0.005183979,-0.007246492,1
19140000,-0.27961594,0.006862795,-0.007246492,1
19144000,-0.27978647,0.00547391,-0.007246492,1
19148000,-0.27995437,0.004072778,-0.007246492,1
19152000,-0.28012097,0.002694311,-0.007246492,1
19160000,-0.28045478,-4.87E-05,-0.007246492,1
19164000,-0.28059295,0.012040305,-0.007246492,1
19168000,-0.2807262,0.010598425,-0.007246492,1
19172000,-0.28087255,0.00914383,-0.007246492,1
19176000,-0.28104728,0.007777942,-0.007246492,1
19180000,-0.2812367,0.00643628,-0.007246492,1
19188000,-0.28156245,0.017143864,-0.007246492,1
19196000,-0.28176615,0.014376991,-0.007246492,1
19204000,-0.28201133,0.011679731,-0.007246492,1
19208000,-0.28217083,0.010301934,-0.007246492,1
19212000,-0.28230366,0.022513535,-0.007246492,1
19216000,-0.28243876,0.021156995,-0.007246492,1
19220000,-0.28258902,0.019797985,-0.007246492,1
19228000,-0.28290483,0.017130973,-0.007246492,1
19232000,-0.2830686,0.015775431,-0.007246492,1
19236000,-0.28323194,0.028057313,-0.007246492,1
19244000,-0.28346047,0.025365997,-0.007246492,1
19248000,-0.283562,0.023989925,-0.007246492,1
19252000,-0.2836922,0.0226423,-0.007246492,1
19256000,-0.283822,0.021338865,-0.007246492,1
19260000,-0.28393793,0.033752907,-0.007246492,1
19264000,-0.28403383,0.03246963,-0.007246492,1
19268000,-0.284151,0.031183897,-0.007246492,1
19272000,-0.2842637,0.02986344,-0.007246492,1
19276000,-0.28434253,0.028519433,-0.007246492,1
19280000,-0.28445786,0.027242992,-0.007246492,1
19284000,-0.28459132,0.03970221,-0.007246492,1
19288000,-0.2847072,0.038458917,-0.007246492,1
19292000,-0.28479716,0.037178766,-0.007246492,1
19296000,-0.2849002,0.035841998,-0.007246492,1
19300000,-0.2850121,0.0345409,-0.007246492,1
19304000,-0.2851077,0.03326302,-0.007246492,1
19308000,-0.28520966,0.045809086,-0.007246492,1
19312000,-0.28533068,0.04452547,-0.007246492,1
19316000,-0.28548375,0.043200996,-0.007246492,1
19324000,-0.2858215,0.040654268,-0.007246492,1
19328000,-0.28596067,0.039426606,-0.007246492,1
19332000,-0.28610423,0.051933475,-0.007246492,1
19336000,-0.28621742,0.050540175,-0.007246492,1
19340000,-0.28631392,0.049148913,-0.007246492,1
19344000,-0.28642878,0.047785114,-0.007246492,1
19348000,-0.28655988,0.046451706,-0.007246492,1
19352000,-0.2867224,0.045118645,-0.007246492,1
19356000,-0.28686574,0.057640187,-0.007246492,1
19360000,-0.28697222,0.05628733,-0.007246492,1
19364000,-0.28712368,0.054946,-0.007246492,1
19368000,-0.28724775,0.05360495,-0.007246492,1
19372000,-0.2873391,0.052267093,-0.007246492,1
19376000,-0.28745478,0.05087241,-0.007246492,1
19380000,-0.28757983,0.063413106,-0.007246492,1
19384000,-0.28771213,0.062076773,-0.007246492,1
19388000,-0.2878592,0.06070526,-0.007246492,1
19392000,-0.28801808,0.059344,-0.007246492,1
19396000,-0.2881748,0.057984762,-0.007246492,1
19404000,-0.2884894,0.06922816,-0.007246492,1
19408000,-0.28862745,0.06785232,-0.007246492,1
19412000,-0.28877398,0.06648796,-0.007246492,1
19416000,-0.2889273,0.06505833,-0.007246492,1
19420000,-0.2890873,0.06368529,-0.007246492,1
19424000,-0.2892794,0.062360037,-0.007246492,1
19428000,-0.28945532,0.07504104,-0.007246492,1
19436000,-0.2897091,0.07244892,-0.007246492,1
19440000,-0.28986597,0.07116544,-0.007246492,1
19444000,-0.2900208,0.06982066,-0.007246492,1
19448000,-0.2901909,0.068389356,-0.007246492,1
19452000,-0.29034582,0.08104479,-0.007246492,1
19456000,-0.29048693,0.079704076,-0.007246492,1
19460000,-0.2906143,0.07828814,-0.007246492,1
19464000,-0.29072347,0.07683495,-0.007246492,1
19472000,-0.29095414,0.073987655,-0.007246492,1
19476000,-0.29107663,0.08666619,-0.007246492,1
19480000,-0.29123816,0.085236415,-0.007246492,1
19484000,-0.29140332,0.083809234,-0.007246492,1
19492000,-0.29163563,0.08106163,-0.007246492,1
19496000,-0.29175252,0.07968483,-0.007246492,1
19500000,-0.291896,0.09244468,-0.007246492,1
19508000,-0.2921886,0.08955084,-0.007246492,1
19516000,-0.29248032,0.08666768,-0.007246492,1
19524000,-0.29271662,0.09796103,-0.007246492,1
19528000,-0.2928145,0.09650169,-0.007246492,1
19532000,-0.2928898,0.09506092,-0.007246492,1
19540000,-0.29315117,0.092243835,-0.007246492,1
19544000,-0.29327536,0.090803094,-0.007246492,1
19548000,-0.29342532,0.10356716,-0.007246492,1
19552000,-0.29355443,0.10215868,-0.007246492,1
19556000,-0.29366902,0.100773625,-0.007246492,1
19560000,-0.2937944,0.09933068,-0.007246492,1
19564000,-0.29390615,0.09788255,-0.007246492,1
19568000,-0.2940565,0.09648416,-0.007246492,1
19572000,-0.29420117,0.109329015,-0.007246492,1
19576000,-0.29431516,0.10788435,-0.007246492,1
19580000,-0.29443067,0.10644955,-0.007246492,1
19584000,-0.29454416,0.10502398,-0.007246492,1
19588000,-0.2946828,0.10357276,-0.007246492,1
19592000,-0.2948208,0.10216076,-0.007246492,1
19596000,-0.2949258,0.11503473,-0.007246492,1
19600000,-0.29500926,0.11358514,-0.007246492,1
19604000,-0.295102,0.11210795,-0.007246492,1
19608000,-0.29523036,0.11060926,-0.007246492,1
19612000,-0.2953903,0.10915398,-0.007246492,1
19616000,-0.29554057,0.10772344,-0.007246492,1
19620000,-0.2956799,0.12061944,-0.007246492,1
19624000,-0.29583874,0.11919908,-0.007246492,1
19632000,-0.29606956,0.11636311,-0.007246492,1
19636000,-0.2961733,0.11492295,-0.007246492,1
19640000,-0.29627758,0.113489285,-0.007246492,1
19644000,-0.29637817,0.1264036,-0.007246492,1
19648000,-0.29648587,0.12495624,-0.007246492,1
19652000,-0.2965918,0.12349957,-0.007246492,1
19656000,-0.29668686,0.12200164,-0.007246492,1
19660000,-0.29680145,0.12050826,-0.007246492,1
19664000,-0.29694375,0.119018026,-0.007246492,1
19668000,-0.29707122,0.13186315,-0.007246492,1
19672000,-0.29716432,0.13035704,-0.007246492,1
19676000,-0.2972713,0.1288705,-0.007246492,1
19680000,-0.29740965,0.12732999,-0.007246492,1
19684000,-0.2975589,0.12579262,-0.007246492,1
19688000,-0.2976771,0.12432567,-0.007246492,1
19692000,-0.2977779,0.13728116,-0.007246492,1
19696000,-0.29787692,0.13577287,-0.007246492,1
19700000,-0.2979687,0.13425212,-0.007246492,1
19704000,-0.298087,0.13273357,-0.007246492,1
19708000,-0.29818174,0.13122898,-0.007246492,1
19712000,-0.2982669,0.12974206,-0.007246492,1
19716000,-0.29838318,0.14275765,-0.007246492,1
19720000,-0.29848912,0.14131153,-0.007246492,1
19724000,-0.29860267,0.13984723,-0.007246492,1
19728000,-0.2987246,0.13834377,-0.007246492,1
19732000,-0.29883322,0.13681047,-0.007246492,1
19736000,-0.29893506,0.13531378,-0.007246492,1
19740000,-0.2990336,0.1482555,-0.007246492,1
19744000,-0.29913637,0.14674903,-0.007246492,1
19748000,-0.29924473,0.14528601,-0.007246492,1
19756000,-0.29944432,0.14229526,-0.007246492,1
19760000,-0.29952112,0.14074375,-0.007246492,1
19764000,-0.29959968,0.15371136,-0.007246492,1
19772000,-0.29974088,0.1507556,-0.007246492,1
19776000,-0.2998315,0.14925098,-0.007246492,1
19780000,-0.29990262,0.14771174,-0.007246492,1
19784000,-0.29998347,0.14615068,-0.007246492,1
19788000,-0.30006987,0.15913795,-0.007246492,1
19792000,-0.30013132,0.1575592,-0.007246492,1
19796000,-0.30020204,0.15599588,-0.007246492,1
19800000,-0.30030373,0.15446967,-0.007246492,1
19804000,-0.30040202,0.15293519,-0.007246492,1
19808000,-0.300482,0.15137902,-0.007246492,1
19812000,-0.30055332,0.16436571,-0.007246492,1
19820000,-0.30075592,0.16133954,-0.007246492,1
19824000,-0.30085555,0.15987693,-0.007246492,1
19828000,-0.3009588,0.15837224,-0.007246492,1
19832000,-0.30106643,0.15685974,-0.007246492,1
19836000,-0.30118653,0.16999243,-0.007246492,1
19844000,-0.30135372,0.16703412,-0.007246492,1
19848000,-0.30143815,0.16557826,-0.007246492,1
19852000,-0.30153033,0.16413695,-0.007246492,1
19860000,-0.30175766,0.17106494,-0.007246492,1
19864000,-0.30185664,0.16962399,-0.007246492,1
19868000,-0.30196643,0.16813287,-0.007246492,1
19872000,-0.3020848,0.1666031,-0.007246492,1
19876000,-0.30216944,0.1650682,-0.007246492,1
19880000,-0.3022621,0.1635136,-0.007246492,1
19884000,-0.30241838,0.16197704,-0.007246492,1
19888000,-0.30256325,0.16045992,-0.007246492,1
19892000,-0.30264384,0.15893576,-0.007246492,1
19900000,-0.30280384,0.15587369,-0.007246492,1
19904000,-0.30285704,0.15432918,-0.007246492,1
19908000,-0.3029559,0.1527818,-0.007246492,1
19916000,-0.3031863,0.14980395,-0.007246492,1
19924000,-0.3034133,0.146848,-0.007246492,1
19928000,-0.303513,0.14538199,-0.007246492,1
19932000,-0.3036037,0.14392267,-0.007246492,1
19936000,-0.30372247,0.14246696,-0.007246492,1
19940000,-0.30386406,0.14099164,-0.007246492,1
19944000,-0.3039593,0.13951752,-0.007246492,1
19948000,-0.30403528,0.13809803,-0.007246492,1
19952000,-0.30414015,0.1367509,-0.007246492,1
19956000,-0.30424303,0.13541198,-0.007246492,1
19960000,-0.30432397,0.13408397,-0.007246492,1
19968000,-0.30449018,0.13137127,-0.007246492,1
19972000,-0.30457208,0.13002099,-0.007246492,1
19976000,-0.30466202,0.12867245,-0.007246492,1
19980000,0.29103884,0.14750561,0.056907725,1
19984000,0.29086453,0.14620304,0.05718025,1
19988000,0.29069299,0.14494717,0.05744376,1
19992000,0.2904071,0.14370418,0.057726473,1
19996000,0.28989103,0.14248961,0.05804761,1
20000000,0.2891576,0.14130884,0.05840425,1
20004000,0.2882588,0.1401495,0.058789223,1
20012000,0.28584746,0.13789298,0.059668604,1
20016000,0.2843185,0.13681854,0.060162798,1
20020000,0.28258616,0.13576527,0.0606943,1
20024000,0.28065905,0.13476609,0.0612557,1
20028000,0.2786167,0.13374797,0.06184568,1
20032000,0.276466,0.13271251,0.062462922,1
20036000,0.27416146,0.1317354,0.063102186,1
20044000,0.26919645,0.12993282,0.064431064,1
20052000,0.26381075,0.12815244,0.06585264,1
20056000,0.2609151,0.12734309,0.066593416,1
20060000,0.25794175,0.12657759,0.0673448,1
20068000,0.2518166,0.1250671,0.06889077,1
20076000,0.24548295,0.12364987,0.070475616,1
20080000,0.24201791,0.123133674,0.07188912,1
20084000,0.2386626,0.1225114,0.072717145,1
20092000,0.23182842,0.12129432,0.0744052,1
20100000,0.22489521,0.120113336,0.07612258,1
20108000,0.21777615,0.11899256,0.07788271,1
20112000,0.21415038,0.118461266,0.07877673,1
20116000,0.2104667,0.11796343,0.07967993,1
20124000,0.20311373,0.11689759,0.08151187,1
20128000,0.19941664,0.11646922,0.08241474,1
20132000,0.19574654,0.11606627,0.083309785,1
20140000,0.18835233,0.115204185,0.0851368,1
20144000,0.18469751,0.114760235,0.08605016,1
20148000,0.18101841,0.114389,0.0869555,1
20156000,0.1735375,0.11355329,0.088828124,1
20160000,0.1697654,0.11321637,0.08975789,1
20164000,0.1660119,0.11291525,0.09067851,1
20172000,0.15860741,0.11223314,0.092528045,1
20180000,0.15107095,0.11157184,0.09448157,1
20184000,0.14734069,0.11127025,0.09541698,1
20188000,0.14364035,0.11102231,0.09633537,1
20192000,0.1399538,0.1107736,0.09725442,1
20196000,0.13630785,0.11050976,0.09817164,1
20200000,0.13266194,0.11023158,0.09909633,1
20204000,0.12893368,0.109991916,0.10003376,1
20208000,0.12524353,0.109766595,0.100962065,1
20212000,0.12160124,0.10949008,0.101896666,1
20216000,0.11793342,0.10922848,0.10283704,1
20220000,0.11426224,0.10903275,0.10376379,1
20228000,0.10698955,0.108662486,0.105605446,1
20232000,0.10339118,0.10845871,0.106527604,1
20236000,0.09983395,0.10825694,0.1074428,1
20240000,0.096333474,0.10807784,0.10834126,1
20244000,0.09283082,0.107895434,0.10924451,1
20248000,0.089337446,0.10769065,0.1101553,1
20252000,0.085854374,0.107490286,0.11106571,1
20256000,0.08235662,0.107291915,0.11198256,1
20260000,0.07889089,0.10709658,0.11289408,1
20264000,0.075473845,0.10692231,0.113790736,1
20268000,0.07206188,0.10676794,0.11468343,1
20276000,0.06530066,0.106429145,0.11647184,1
20280000,0.06189019,0.10631452,0.11758825,1
20284000,0.058567587,0.10616391,0.11847155,1
20288000,0.05527295,0.106041014,0.11934236,1
20292000,0.05203266,0.10587989,0.12021413,1
20300000,0.045481157,0.105536,0.121991694,1
20304000,0.042255115,0.10535802,0.12287433,1
20308000,0.03909628,0.10520919,0.12373355,1
20312000,0.035911005,0.105086595,0.124594286,1
20316000,0.032723173,0.10492947,0.12546952,1
20324000,0.02650052,0.104519874,0.12721978,1
20328000,0.023400243,0.10432309,0.12809403,1
20332000,0.020301394,0.104170874,0.12895648,1
20336000,0.017221518,0.10403107,0.1298128,1
20340000,0.014137086,0.10386002,0.1306834,1
20344000,0.011076909,0.10366794,0.13155745,1
20348000,0.008070912,0.103437826,0.13243268,1
20352000,0.005067624,0.10320346,0.13331164,1
20356000,0.002078135,0.10301612,0.13417426,1
20360000,-0.000887666,0.10284141,0.13502917,1
20364000,-0.003804542,0.10267511,0.13587086,1
20368000,-0.006693214,0.10251011,0.13670725,1
20376000,-0.01244894,0.10210994,0.13840617,1
20380000,-0.015545979,0.10219674,0.14001162,1
20384000,-0.018333785,0.10198352,0.14085118,1
20388000,-0.021136064,0.10183098,0.14167659,1
20392000,-0.02389878,0.10165726,0.14250089,1
20396000,-0.026622202,0.10143664,0.14333317,1
20400000,-0.02935571,0.101271465,0.14415151,1
20404000,-0.03209868,0.101152085,0.14495903,1
20408000,-0.034803312,0.10103151,0.1457586,1
20412000,-0.03750038,0.10092634,0.14655298,1
20416000,-0.040170044,0.10082238,0.14734153,1
20420000,-0.042802535,0.10072827,0.14811836,1
20424000,-0.04544389,0.10065378,0.14889286,1
20428000,-0.04807558,0.10055796,0.14967446,1
20432000,-0.05062881,0.10043323,0.1504463,1
20436000,-0.05315449,0.100273594,0.15122505,1
20440000,-0.05566217,0.1000945,0.15200792,1
20448000,-0.060789082,0.09981679,0.1535833,1
20452000,-0.06330988,0.09969686,0.1543551,1
20456000,-0.065589085,0.099313945,0.15457311,1
20460000,-0.06780879,0.09886601,0.15469134,1
20464000,-0.07002338,0.09839717,0.1548199,1
20468000,-0.072244786,0.09792917,0.15494993,1
20472000,-0.07444174,0.09749955,0.15506713,1
20480000,-0.07872497,0.09664358,0.15530828,1
20484000,-0.08082192,0.096248776,0.15550768,1
20488000,-0.0828875,0.095834985,0.15562858,1
20492000,-0.084957644,0.09543465,0.1557455,1
20496000,-0.087020434,0.09504257,0.15586078,1
20500000,-0.08906695,0.09461881,0.15599106,1
20508000,-0.093087345,0.09380347,0.15624477,1
20512000,-0.09507685,0.0934038,0.1563711,1
20516000,-0.097041704,0.0930025,0.1565001,1
20520000,-0.09899199,0.09257533,0.15664177,1
20524000,-0.10092553,0.09218589,0.15676947,1
20528000,-0.102861404,0.09180642,0.15689439,1
20532000,-0.10479528,0.091438495,0.1570159,1
20536000,-0.10668117,0.09109094,0.15713097,1
20540000,-0.108544596,0.09076344,0.15723915,1
20544000,-0.110407606,0.09046522,0.15733609,1
20548000,-0.11226481,0.09016163,0.15743656,1
20552000,-0.11412883,0.08983981,0.15754595,1
20556000,-0.11597566,0.0895051,0.15766244,1
20560000,-0.117805324,0.08920693,0.15776452,1
20564000,-0.119659394,0.08889693,0.15787262,1
20568000,-0.12148925,0.08854063,0.15800239,1
20572000,-0.12326495,0.088191636,0.15813103,1
20576000,-0.12504008,0.0878701,0.15824883,1
20580000,-0.12696691,0.087767564,0.15871164,1
20588000,-0.13047016,0.08717347,0.1589316,1
20596000,-0.13388486,0.086602286,0.15914668,1
20600000,-0.13559061,0.08626818,0.15927745,1
20604000,-0.13730937,0.08594844,0.15940282,1
20612000,-0.14068161,0.08530385,0.15965986,1
20620000,-0.14398794,0.08473321,0.15988836,1
20628000,-0.14729047,0.08418599,0.16011019,1
20632000,-0.14894408,0.08385498,0.16024877,1
20636000,-0.15056664,0.08356072,0.16037183,1
20640000,-0.1521618,0.08333664,0.16046381,1
20644000,-0.15378559,0.083079785,0.16057149,1
20648000,-0.15541634,0.082847565,0.1606687,1
20652000,-0.15702048,0.082623154,0.16076323,1
20656000,-0.15857923,0.08236459,0.16087475,1
20660000,-0.16010149,0.08209898,0.16099058,1
20664000,-0.16167197,0.0818503,0.16109915,1
20668000,-0.16325288,0.08163676,0.16119204,1
20672000,-0.16479665,0.081378974,0.16130665,1
20676000,0.4444581,0.08432003,0.19865456,0.41643417
20680000,0.4425208,0.08470469,0.19969665,0.41643417
20684000,0.44076276,0.08484823,0.20023227,0.41643417
20692000,0.4368895,0.08520557,0.20139799,0.41643417
20696000,0.43469724,0.08546713,0.20203422,0.41643417
20700000,0.4323648,0.07251364,0.21018241,0.43980902
20708000,0.42718852,0.0733363,0.21165611,0.43980902
20712000,0.42440796,0.07377339,0.21245204,0.43980902
20716000,0.4215263,0.07420044,0.21328984,0.43980902
20720000,0.41852587,0.07463959,0.21416634,0.43980902
20724000,0.41546223,0.06187733,0.22269413,0.46206564
20728000,0.41232327,0.062400732,0.22361912,0.46206564
20732000,0.4090857,0.06298551,0.22455576,0.46206564
20740000,0.40235782,0.064166635,0.22652353,0.46206564
20748000,0.39548206,0.052303523,0.2363145,0.48329306
20752000,0.3920325,0.052954696,0.2373463,0.48329306
20756000,0.38853836,0.053636238,0.23838404,0.48329306
20764000,0.38141418,0.054980084,0.24052769,0.48329306
20768000,0.37782952,0.05569981,0.24159059,0.48329306
20772000,0.3741847,0.04343041,0.2506285,0.5034111
20776000,0.37050042,0.044182226,0.2517578,0.5034111
20780000,0.3652585,0.047142804,0.25645104,0.5034111
20784000,0.36153537,0.047948904,0.2575939,0.5034111
20788000,0.35777953,0.048773937,0.25874415,0.5034111
20792000,0.35401654,0.04962361,0.2598887,0.5034111
20796000,0.35025275,0.0375403,0.26918855,0.52361417
20800000,0.34647936,0.038425088,0.2703645,0.52361417
20804000,0.34263346,0.03933865,0.27156028,0.52361417
20812000,0.33491153,0.041305467,0.2739079,0.52361417
20816000,0.3310439,0.042317376,0.2750751,0.52361417
20820000,0.32719356,0.030464321,0.28459486,0.5425152
20828000,0.31961396,0.032592863,0.28690267,0.5425152
20832000,0.31583834,0.033700466,0.28803325,0.5425152
20836000,0.31203312,0.034800798,0.2891824,0.5425152
20840000,0.30822957,0.035944022,0.29031262,0.5425152
20844000,0.30443674,0.02435182,0.29997122,0.5601022
20852000,0.29689243,0.026783958,0.30222103,0.5601022
20856000,0.29317823,0.028074175,0.30328658,0.5601022
20860000,0.28944787,0.02938389,0.3043516,0.5601022
20864000,0.28572977,0.030659243,0.30542928,0.5601022
20868000,0.2819829,0.019332409,0.31522152,0.5763855
20872000,0.27820203,0.02072607,0.31631213,0.5763855
20876000,0.27445498,0.022095561,0.31740025,0.5763855
20880000,0.26919997,0.025751874,0.32176992,0.5763855
20884000,0.2654891,0.027156413,0.32284266,0.5763855
20888000,0.26181445,0.028572395,0.323894,0.5763855
20892000,0.2581107,0.017433092,0.33387268,0.5923851
20896000,0.25441778,0.018949136,0.3349237,0.5923851
20900000,0.25076532,0.020457208,0.3359601,0.5923851
20904000,0.24712472,0.021923676,0.33701253,0.5923851
20912000,0.23990904,0.025030822,0.3390017,0.5923851
20916000,0.23636144,0.014089212,0.34908086,0.60706943
20920000,0.23284024,0.015671894,0.35005674,0.60706943
20928000,0.22582895,0.018805727,0.3520112,0.60706943
20932000,0.22233443,0.020419806,0.35296014,0.60706943
20936000,0.21887796,0.022037968,0.35388842,0.60706943
20940000,0.21544942,0.01128751,0.364075,0.62046856
20944000,0.21201742,0.012962014,0.36499888,0.62046856
20948000,0.20857233,0.014653429,0.36592147,0.62046856
20952000,0.20515244,0.016331017,0.36683857,0.62046856
20956000,0.20173357,0.018026844,0.3677463,0.62046856
20960000,0.19835302,0.019733801,0.36862874,0.62046856
20964000,0.19505711,0.009080142,0.378954,0.6326565
20968000,0.19180128,0.010761634,0.3798192,0.6326565
20976000,0.18523735,0.014228761,0.38152444,0.6326565
20980000,0.18197396,0.015964568,0.38236636,0.6326565
20988000,0.17336835,0.010633558,0.39814612,0.6448934
20992000,0.17022118,0.012384877,0.39897007,0.6448934
20996000,0.16705602,0.014149144,0.3997975,0.6448934
21004000,0.1608156,0.01756668,0.4014617,0.6448934
21008000,0.1577237,0.019309804,0.4022604,0.6448934
21012000,0.1546279,0.008893177,0.41286445,0.6559504
21016000,0.15155834,0.010671243,0.41366488,0.6559504
21020000,0.1485265,0.012435913,0.41445106,0.6559504
21028000,0.142586,0.015866533,0.41600674,0.6559504
21032000,0.13966297,0.017548427,0.41677582,0.6559504
21036000,0.13677232,0.007105976,0.4275083,0.6659029
21040000,0.13388222,0.008761287,0.4283037,0.6659029
21044000,0.13098677,0.010445893,0.4290868,0.6659029
21048000,0.12809575,0.012179822,0.42984116,0.6659029
21052000,0.12523487,0.013909563,0.43058023,0.6659029
21056000,0.12238127,0.015614107,0.43132898,0.6659029
21060000,0.11953975,0.00531897,0.4421764,0.67481184
21064000,0.11674121,0.00708276,0.44289058,0.67481184
21068000,0.113975465,0.008785173,0.44361857,0.67481184
21072000,0.111249104,0.01048857,0.4443227,0.67481184
21076000,0.108523265,0.012207538,0.44501805,0.67481184
21080000,0.10441838,0.016292945,0.44847366,0.67481184
21084000,0.10165426,0.006079376,0.45945817,0.6834534
21088000,0.09893568,0.007836565,0.4601674,0.6834534
21092000,0.09626144,0.009551168,0.46087277,0.6834534
21100000,0.09094797,0.012985289,0.46225983,0.6834534
21108000,0.08571224,0.004430711,0.47406644,0.6911576
21116000,0.08056024,0.007833079,0.47542703,0.6911576
21124000,0.07547295,0.011257693,0.47673523,0.6911576
21128000,0.072949246,0.013004527,0.47735786,0.6911576
21132000,0.070431694,0.005384892,0.48631215,0.69798255
21136000,0.06797433,0.007059246,0.48695362,0.69798255
21140000,0.06552535,0.008755118,0.487578,0.69798255
21148000,0.060630947,0.01211758,0.48884085,0.69798255
21156000,0.0558064,0.017524555,0.48822117,0.7040079
21160000,0.05344844,0.019224107,0.48878112,0.7040079
21164000,0.051097244,0.02092883,0.48933372,0.7040079
21172000,0.046486527,0.02427809,0.4904139,0.7040079
21176000,0.044174656,0.025920928,0.49097613,0.7040079
21180000,0.040879607,0.0310843,0.49188253,0.7092854
21184000,0.038518623,0.03275007,0.49246603,0.7092854
21188000,0.03621024,0.034428135,0.49300873,0.7092854
21192000,0.033927023,0.03610316,0.49353704,0.7092854
21196000,0.03162387,0.03779216,0.49407035,0.7092854
21200000,0.029342383,0.03945127,0.4946066,0.7092854
21208000,0.024862185,0.044152647,0.49429995,0.7143593
21212000,0.022657707,0.04577166,0.4948065,0.7143593
21216000,0.020414189,0.047416255,0.49532378,0.7143593
21220000,0.018168703,0.0490409,0.4958539,0.7143593
21224000,0.015957013,0.05063516,0.4963796,0.7143593
21228000,0.013724893,0.053571597,0.49566197,0.7187613
21232000,0.011478871,0.055230275,0.4961707,0.7187613
21236000,0.009224847,0.056866705,0.49669772,0.7187613
21240000,0.007018685,0.058488965,0.49720168,0.7187613
21244000,0.004861549,0.06007792,0.49769318,0.7187613
21252000,0.000547394,0.06438722,0.49758255,0.7225915
21260000,-0.003820226,0.067586735,0.49858463,0.7225915
21268000,-0.008050755,0.070750296,0.49951857,0.7225915
21276000,-0.012270048,0.07492721,0.49945736,0.72589463
21284000,-0.017414048,0.07980019,0.5021161,0.72589463
21288000,-0.019535825,0.08141874,0.5025699,0.72589463
21292000,-0.021682993,0.08306602,0.50302386,0.72589463
21296000,-0.023808613,0.08469084,0.5034769,0.72589463
21300000,-0.025940076,0.08708213,0.50315726,0.72910804
21304000,-0.028064877,0.08863895,0.5036487,0.72910804
21308000,-0.030156009,0.09020068,0.50411516,0.72910804
21312000,-0.032246754,0.09175508,0.5045861,0.72910804
21316000,-0.034313492,0.09326871,0.5050654,0.72910804
21320000,-0.036398448,0.094832405,0.5055275,0.72910804
21328000,-0.040512003,0.09865345,0.50570583,0.7318474
21332000,-0.04250768,0.10023068,0.5061,0.7318474
21336000,-0.044512488,0.10179065,0.5065107,0.7318474
21340000,-0.046503082,0.1032954,0.506945,0.7318474
21344000,-0.048493005,0.10475981,0.5074032,0.7318474
21348000,-0.050518863,0.1068916,0.5072204,0.7341734
21352000,-0.0525612,0.10848877,0.5076339,0.7341734
21356000,-0.054592878,0.11005667,0.50805825,0.7341734
21364000,-0.05858939,0.113161415,0.5088814,0.7341734
21368000,-0.060591154,0.11468133,0.5093152,0.7341734
21372000,-0.06260848,0.116702124,0.50921905,0.7361241
21376000,-0.064612016,0.11822784,0.50965035,0.7361241
21380000,-0.067390405,0.12141889,0.5116192,0.7361241
21388000,-0.07125604,0.12447806,0.5123919,0.7361241
21392000,-0.0732047,0.12600343,0.51279205,0.7361241
21396000,-0.07520409,0.12793978,0.5127923,0.73806995
21400000,-0.07717349,0.12946144,0.51320857,0.73806995
21408000,-0.08110832,0.13254386,0.51401603,0.73806995
21412000,-0.08299433,0.13404481,0.51438934,0.73806995
21416000,-0.08493879,0.13556539,0.5147909,0.73806995
21420000,-0.08692564,0.13747643,0.5148156,0.7396913
21424000,-0.08884787,0.13895495,0.5152277,0.7396913
21428000,-0.09079543,0.14044583,0.5156499,0.7396913
21436000,-0.09464247,0.1434323,0.51645994,0.7396913
21440000,-0.09655944,0.14495417,0.5168438,0.7396913
21444000,-0.098470375,0.14677592,0.51689494,0.7409978
21448000,-0.10037087,0.1482369,0.51730484,0.7409978
21452000,-0.102262706,0.14968228,0.5177188,0.7409978
21456000,-0.10418226,0.15116006,0.51813245,0.7409978
21460000,-0.10610644,0.15264453,0.51854575,0.7409978
21464000,-0.10798915,0.15411724,0.5189381,0.7409978
21468000,-0.109848365,0.15584236,0.5190288,0.7420384
21472000,-0.11173451,0.15735357,0.5194003,0.7420384
21476000,-0.11361438,0.15883729,0.51978487,0.7420384
21484000,-0.118162185,0.16350053,0.522267,0.7420384
21492000,-0.12177925,0.16656238,0.52280635,0.74315184
21496000,-0.12358294,0.16792718,0.52321756,0.74315184
21500000,-0.125379,0.1693007,0.5236185,0.74315184
21504000,-0.127218,0.17071599,0.52402425,0.74315184
21508000,-0.1290303,0.17210196,0.5244299,0.74315184
21512000,-0.13082284,0.17352436,0.5247998,0.74315184
21516000,-0.13259989,0.17511031,0.52498406,0.7440121
21520000,-0.13440043,0.17649737,0.52538216,0.7440121
21524000,-0.13619378,0.1778585,0.52579176,0.7440121
21528000,-0.13795976,0.17924929,0.5261644,0.7440121
21532000,-0.13975495,0.18063046,0.52656406,0.7440121
21536000,-0.14155334,0.18196584,0.5269948,0.7440121
21540000,-0.14328067,0.1833984,0.5272536,0.74464405
21544000,-0.14505348,0.18476987,0.527645,0.74464405
21548000,-0.14684474,0.18617755,0.5280274,0.74464405
21556000,-0.15028884,0.18879433,0.52882,0.74464405
21560000,-0.1520334,0.1901153,0.5292251,0.74464405
21564000,-0.15373647,0.19148971,0.52951425,0.7450689
21572000,-0.15716435,0.19405425,0.53033227,0.7450689
21576000,-0.1588338,0.19530304,0.5307315,0.7450689
21580000,-0.16010508,0.19569688,0.53042686,0.7450689
21588000,-0.16349377,0.19830263,0.5311376,0.74515426
21592000,-0.165142,0.19955568,0.5315197,0.74515426
21596000,-0.16675809,0.20081568,0.5318754,0.74515426
21600000,-0.1683822,0.20206425,0.53224427,0.74515426
21604000,-0.17005768,0.20334238,0.53263175,0.74515426
21608000,-0.17176211,0.20460339,0.5330511,0.74515426
21612000,-0.17343004,0.20587426,0.5333899,0.7450733
21620000,-0.17668617,0.20827024,0.53420204,0.7450733
21628000,-0.17989495,0.21060005,0.5350243,0.7450733
21636000,-0.18248785,0.21177167,0.53467447,0.7448224
21640000,-0.18373851,0.2122217,0.5345031,0.7448224
21644000,-0.18499757,0.21269397,0.5343149,0.7448224
21648000,-0.18627042,0.21315072,0.5341404,0.7448224
21652000,-0.18749778,0.2135834,0.5339781,0.7448224
21656000,-0.18871868,0.2140286,0.5338042,0.7448224
21660000,-0.1899681,0.21453623,0.53355914,0.7444165
21668000,-0.19249177,0.21537954,0.5332588,0.7444165
21672000,-0.19369991,0.21576414,0.53312993,0.7444165
21676000,-0.1949207,0.21615687,0.53299606,0.7444165
21680000,-0.19658116,0.21746969,0.5336422,0.7444165
21684000,-0.19783962,0.21784556,0.53351855,0.7440464
21688000,-0.19907527,0.21822396,0.53339714,0.7440464
21692000,-0.20029783,0.21861914,0.5332599,0.7440464
21700000,-0.20272766,0.21934219,0.53303695,0.7440464
21704000,-0.20393412,0.2196951,0.53293085,0.7440464
21708000,-0.2051492,0.22002944,0.5328336,0.74354076
21712000,-0.2063442,0.22032355,0.5327734,0.74354076
21716000,-0.20755932,0.220638,0.53269947,0.74354076
21720000,-0.20878091,0.22096723,0.53261423,0.74354076
21724000,-0.20994827,0.22127116,0.5325415,0.74354076
21728000,-0.21114771,0.22158097,0.5324685,0.74354076
21736000,-0.21354389,0.22230619,0.5322295,0.7429136
21744000,-0.21586606,0.22297683,0.5320283,0.7429136
21748000,-0.2170085,0.22332248,0.5319161,0.7429136
21752000,-0.21814448,0.2236089,0.53185177,0.7429136
21756000,-0.21927142,0.22388297,0.5317937,0.7422003
21760000,-0.22042044,0.22419177,0.53171253,0.7422003
21764000,-0.22157383,0.22448945,0.5316413,0.7422003
21768000,-0.22271095,0.22476266,0.5315878,0.7422003
21772000,-0.22379626,0.22505654,0.5315089,0.7422003
21776000,-0.22487693,0.22536856,0.53141403,0.7422003
21780000,-0.22636202,0.22650327,0.5319855,0.7413638
21784000,-0.22750884,0.22678584,0.5319249,0.7413638
21788000,-0.2286342,0.22707106,0.53185856,0.7413638
21792000,-0.2297217,0.2273561,0.53178644,0.7413638
21796000,-0.23084094,0.22764899,0.5317127,0.7413638
21800000,-0.23193741,0.22794352,0.5316338,0.7413638
21804000,-0.23302242,0.22818083,0.53161407,0.7406104
21808000,-0.23412578,0.22847869,0.5315332,0.7406104
21812000,-0.23518912,0.2287957,0.5314295,0.7406104
21816000,-0.23624712,0.22909404,0.53134096,0.7406104
21820000,-0.23732984,0.22935635,0.53128666,0.7406104
21828000,-0.23942934,0.22991318,0.5311509,0.7397747
21832000,-0.24047643,0.23020831,0.5310626,0.7397747
21836000,-0.24151433,0.23048535,0.5309884,0.7397747
21840000,-0.24254616,0.23081538,0.53086746,0.7397747
21844000,-0.24358562,0.23118405,0.53071445,0.7397747
21848000,-0.24460867,0.23148938,0.530613,0.7397747
21852000,-0.24562417,0.23176713,0.5305461,0.73887277
21856000,-0.24666879,0.23211147,0.53041404,0.73887277
21860000,-0.24769497,0.23242885,0.530302,0.73887277
21868000,-0.2496764,0.23294632,0.5301677,0.73887277
21872000,-0.25066936,0.2332111,0.53009546,0.73887277
21876000,-0.25166366,0.23346978,0.53004074,0.7378926
21880000,-0.2543829,0.23749167,0.5327792,0.7378926
21884000,-0.255428,0.23780864,0.5326685,0.7378926
21888000,-0.25644523,0.23811209,0.5325648,0.7378926
21892000,-0.25748098,0.2384096,0.53246903,0.7378926
21900000,-0.25946692,0.2388457,0.5324582,0.7374508
21904000,-0.26044744,0.23915052,0.53234696,0.7374508
21908000,-0.2614171,0.2394353,0.5322514,0.7374508
21912000,-0.26237968,0.23968774,0.5321828,0.7374508
21916000,-0.2633423,0.23997691,0.532082,0.7374508
21920000,-0.26433378,0.24030219,0.53195393,0.7374508
21924000,-0.2653433,0.24052241,0.53197336,0.7369031
21928000,-0.26632965,0.24083301,0.53185713,0.7369031
21932000,-0.2673039,0.2411078,0.5317701,0.7369031
21936000,-0.26829672,0.2413988,0.5316717,0.7369031
21940000,-0.26928627,0.2417142,0.531551,0.7369031
21944000,-0.27024168,0.24199504,0.5314551,0.7369031
21948000,-0.27119958,0.2421311,0.5315417,0.73629564
21952000,-0.27213407,0.24241377,0.5314408,0.73629564
21956000,-0.27302605,0.24269637,0.531333,0.73629564
21964000,-0.27489746,0.24326983,0.5311235,0.73629564
21968000,-0.27581942,0.24360196,0.5309758,0.73629564
21972000,-0.27674332,0.24379241,0.53100723,0.73558897
21976000,-0.27767986,0.24408601,0.53089595,0.73558897
21980000,-0.27883506,0.24487928,0.53110915,0.73558897
21984000,-0.27975816,0.24522722,0.5309466,0.73558897
21988000,-0.28067932,0.24554461,0.53081065,0.73558897
21992000,-0.28159228,0.24582838,0.53070337,0.73558897
21996000,-0.28249425,0.24601826,0.5307373,0.73490787
22000000,-0.28340107,0.24632685,0.53060645,0.73490787
22004000,-0.2843109,0.24658684,0.53051966,0.73490787
22008000,-0.28521997,0.24685118,0.5304286,0.73490787
22012000,-0.28614876,0.247136,0.53032213,0.73490787
22016000,-0.28707543,0.24741979,0.5302161,0.73490787
22020000,-0.28797168,0.24758671,0.53026706,0.7341348
22024000,-0.28890964,0.24788477,0.53014976,0.7341348
22028000,-0.28984353,0.24817681,0.5300371,0.7341348
22032000,-0.29075617,0.24847768,0.52991265,0.7341348
22036000,-0.29167843,0.24876817,0.52979904,0.7341348
22044000,-0.29349864,0.24926983,0.5296954,0.7333062
22048000,-0.29444098,0.24955319,0.5295912,0.7333062
22052000,-0.29535908,0.24984182,0.52947783,0.7333062
22056000,-0.296217,0.2501278,0.52935696,0.7333062
22060000,-0.2970649,0.2504393,0.5292109,0.7333062
22064000,-0.29795378,0.2507264,0.52909356,0.7333062
22068000,-0.29885992,0.2509024,0.52913535,0.7324264
22072000,-0.299784,0.25122163,0.5289942,0.7324264
22076000,-0.3007114,0.25155273,0.52884233,0.7324264
22080000,-0.30162093,0.25188068,0.52869,0.7324264
22084000,-0.3023451,0.251792,0.52829003,0.7324264
22088000,-0.30321157,0.2521058,0.5281433,0.7324264
22092000,-0.30407226,0.25228006,0.52817845,0.7314602
22096000,-0.3049348,0.25253695,0.5280834,0.7314602
22100000,-0.30579805,0.25282404,0.5279604,0.7314602
22108000,-0.30752578,0.2533971,0.52771497,0.7314602
22112000,-0.30836728,0.25366583,0.52760476,0.7314602
22116000,-0.3092142,0.2538603,0.5276127,0.7303793
22120000,-0.3100734,0.2541126,0.5275205,0.7303793
22124000,-0.3109122,0.25435573,0.5274334,0.7303793
22128000,-0.31175703,0.25461054,0.5273362,0.7303793
22132000,-0.31263244,0.25490454,0.5272073,0.7303793
22136000,-0.31348002,0.25520894,0.5270638,0.7303793
22144000,-0.31510693,0.25563562,0.526985,0.7292392
22148000,-0.31592304,0.25590122,0.52687204,0.7292392
22152000,-0.31675887,0.25614846,0.5267797,0.7292392
22160000,-0.31849575,0.256725,0.526528,0.7292392
22164000,-0.3193062,0.2569237,0.5265231,0.72805214
22172000,-0.32100642,0.25744426,0.52631736,0.72805214
22176000,-0.3218717,0.2577277,0.5261947,0.72805214
22180000,-0.32333317,0.25940865,0.52704173,0.72805214
22184000,-0.3241626,0.25967103,0.52693236,0.72805214
22188000,-0.32496336,0.259803,0.5270039,0.7270537
22192000,-0.3257698,0.2600541,0.5269011,0.7270537
22196000,-0.3266028,0.2603118,0.52679646,0.7270537
22200000,-0.3274247,0.26053238,0.52672535,0.7270537
22204000,-0.32824343,0.26075828,0.5266483,0.7270537
22208000,-0.32907262,0.2610131,0.52654535,0.7270537
22212000,-0.3298667,0.26113522,0.52662206,0.72597355
22220000,-0.3314079,0.2616164,0.52642304,0.72597355
22224000,-0.33219594,0.26191372,0.52627194,0.72597355
22228000,-0.3329971,0.26218545,0.5261475,0.72597355
22236000,-0.33449054,0.2625322,0.5261273,0.7248324
22240000,-0.33526492,0.26276517,0.5260352,0.7248324
22244000,-0.3360661,0.26297146,0.52597314,0.7248324
22248000,-0.33685634,0.2631975,0.5258902,0.7248324
22252000,-0.33762696,0.26345244,0.5257758,0.7248324
22256000,-0.338413,0.2636904,0.5256804,0.7248324
22260000,-0.33919793,0.26381302,0.52575547,0.7236447
22264000,-0.33996052,0.26405767,0.52564925,0.7236447
22268000,-0.3406991,0.26427454,0.52556586,0.7236447
22272000,-0.3414497,0.2644881,0.5254877,0.7236447
22276000,-0.34219515,0.26474205,0.5253692,0.7236447
22280000,-0.3438966,0.26718682,0.5267814,0.7236447
22284000,-0.34462956,0.26719463,0.5269835,0.72272646
22288000,-0.34534854,0.2673812,0.5269253,0.72272646
22292000,-0.34608525,0.26758212,0.5268564,0.72272646
22296000,-0.3468242,0.2678047,0.5267663,0.72272646
22300000,-0.34751225,0.26802242,0.5266725,0.72272646
22304000,-0.348198,0.26821387,0.5266036,0.72272646
22308000,-0.34890318,0.26827657,0.52674544,0.72170854
22316000,-0.35026103,0.2687843,0.5264831,0.72170854
22320000,-0.35100484,0.2690015,0.5263989,0.72170854
22324000,-0.35173565,0.26919752,0.526333,0.72170854
22328000,-0.35236585,0.26938015,0.5262629,0.72170854
22332000,-0.35299024,0.26948595,0.5263444,0.72064877
22336000,-0.3536397,0.2697209,0.5262261,0.72064877
22340000,-0.35429937,0.2699113,0.5261532,0.72064877
22344000,-0.3549792,0.27010816,0.5260774,0.72064877
22348000,-0.35564053,0.27030835,0.52599484,0.72064877
22356000,-0.3569251,0.27063012,0.52597976,0.7194965
22360000,-0.3575429,0.27087837,0.5258421,0.7194965
22364000,-0.35816056,0.27107877,0.52575153,0.7194965
22372000,-0.3593911,0.27147734,0.5255714,0.7194965
22376000,-0.36000395,0.27171028,0.52544767,0.7194965
22380000,-0.36111468,0.27301392,0.5263191,0.71830934
22384000,-0.36172402,0.2732131,0.52622753,0.71830934
22388000,-0.36236238,0.27342767,0.52612585,0.71830934
22392000,-0.36301127,0.27365547,0.52601266,0.71830934
22396000,-0.36361253,0.27384567,0.5259285,0.71830934
22400000,-0.36419103,0.27405754,0.5258186,0.71830934
22404000,-0.36480618,0.2741388,0.5259365,0.7172416
22408000,-0.3654145,0.27437264,0.52580976,0.7172416
22412000,-0.3660074,0.27459776,0.52568907,0.7172416
22416000,-0.36657485,0.27483857,0.5255479,0.7172416
22420000,-0.36715686,0.27511916,0.5253694,0.7172416
22424000,-0.36770922,0.27539223,0.525193,0.7172416
22428000,-0.36822492,0.27548712,0.5252737,0.7161224
22432000,-0.3687389,0.2757392,0.52511144,0.7161224
22436000,-0.3692429,0.27597287,0.5249655,0.7161224
22440000,-0.36977965,0.27622074,0.5248111,0.7161224
22444000,-0.37034482,0.27650148,0.5246282,0.7161224
22448000,-0.37088642,0.2767755,0.5244478,0.7161224
22452000,-0.3714048,0.27688944,0.52450514,0.7149428
22456000,-0.37191015,0.27713865,0.524343,0.7149428
22460000,-0.37239996,0.27738357,0.52418226,0.7149428
22468000,-0.3733213,0.27792686,0.52379614,0.7149428
22472000,-0.3737779,0.27817762,0.52362305,0.7149428
22476000,-0.374241,0.27831715,0.5236436,0.7136999
22480000,-0.37400985,0.27693394,0.5223846,0.7136999
22484000,-0.37449208,0.27720398,0.52219605,0.7136999
22492000,-0.37535363,0.27771044,0.5218343,0.7136999
22496000,-0.3757798,0.27794388,0.5216725,0.7136999
22500000,-0.3761853,0.27806503,0.52168214,0.71219563
22504000,-0.3765967,0.2783342,0.52148116,0.71219563
22512000,-0.37737983,0.27888942,0.521054,0.71219563
22516000,-0.37774986,0.27919266,0.52081025,0.71219563
22520000,-0.37814677,0.27948672,0.5205803,0.71219563
22524000,-0.3785389,0.2796436,0.5205461,0.7106515
22532000,-0.37925264,0.28012738,0.52017766,0.7106515
22536000,-0.37959242,0.28036994,0.5199895,0.7106515
22540000,-0.37993023,0.28065717,0.519755,0.7106515
22548000,-0.3806705,0.2810946,0.5194913,0.7090636
22556000,-0.38133937,0.2816258,0.5190642,0.7090636
22560000,-0.3816816,0.2819382,0.51880354,0.7090636
22564000,-0.38199976,0.28222182,0.51856804,0.7090636
22572000,-0.38256198,0.2826985,0.5182296,0.70747215
22576000,-0.38289106,0.28300172,0.5179752,0.70747215
22580000,-0.38292402,0.28268543,0.5173077,0.70747215
22588000,-0.38340724,0.2832741,0.51678526,0.70747215
22592000,-0.38367307,0.2836002,0.51649517,0.70747215
22596000,-0.38396737,0.28382188,0.5163659,0.70580876
22604000,-0.38451272,0.2844469,0.5158149,0.70580876
22608000,-0.3847785,0.28478512,0.5155111,0.70580876
22612000,-0.384983,0.2851308,0.51518875,0.70580876
22616000,-0.3851778,0.28545886,0.5148827,0.70580876
22620000,-0.3854013,0.28569776,0.51471406,0.70416224
22624000,-0.38564083,0.28602296,0.51441824,0.70416224
22628000,-0.3858606,0.286334,0.51413345,0.70416224
22632000,-0.38608545,0.28663582,0.5138589,0.70416224
22636000,-0.38629466,0.28693342,0.5135858,0.70416224
22644000,-0.38662344,0.28742272,0.5131756,0.7024864
22648000,-0.3867842,0.28772426,0.5128895,0.7024864
22652000,-0.3869592,0.28804952,0.51258075,0.7024864
22656000,-0.38712958,0.28837842,0.5122676,0.7024864
22660000,-0.38727826,0.2886946,0.5119633,0.7024864
22664000,-0.38742453,0.28898692,0.5116835,0.7024864
22668000,-0.38757372,0.28920776,0.5115152,0.70081294
22672000,-0.38766265,0.28953338,0.5111904,0.70081294
22676000,-0.38773614,0.2898838,0.5108369,0.70081294
22680000,-0.3885059,0.29178715,0.5114714,0.70081294
22684000,-0.38859835,0.2921573,0.5111003,0.70081294
22692000,-0.38874418,0.29271996,0.5105948,0.6993917
22696000,-0.3888284,0.2930677,0.51024514,0.6993917
22700000,-0.3888976,0.2933934,0.5099159,0.6993917
22704000,-0.38894877,0.29371822,0.50958437,0.6993917
22708000,-0.38897708,0.29407454,0.50921583,0.6993917
22712000,-0.38899094,0.29437774,0.50890034,0.6993917
22716000,-0.38902953,0.29456878,0.5087551,0.69797546
22720000,-0.3891039,0.29488966,0.50843096,0.69797546
22724000,-0.38920003,0.2952066,0.50811434,0.69797546
22728000,-0.38924667,0.29551595,0.50779736,0.69797546
22732000,-0.38925356,0.29586044,0.50743663,0.69797546
22736000,-0.3892736,0.29623282,0.5070487,0.69797546
22740000,-0.38925096,0.29649717,0.5068163,0.6965667
22744000,-0.38923514,0.2968161,0.5064783,0.6965667
22748000,-0.38926,0.29713452,0.5061473,0.6965667
22752000,-0.38927275,0.29742965,0.50583875,0.6965667
22756000,-0.38927552,0.29773405,0.50551873,0.6965667
22760000,-0.38926488,0.29806525,0.5051681,0.6965667
22764000,-0.3892656,0.29831076,0.5049528,0.69516027
22768000,-0.38924247,0.29863447,0.5046077,0.69516027
22772000,-0.38920265,0.2989553,0.50426286,0.69516027
22780000,-0.38849673,0.2982498,0.5027042,0.69516027
22788000,-0.38831347,0.29883128,0.5020872,0.6935784
22792000,-0.38826278,0.29914206,0.50175023,0.6935784
22796000,-0.38817903,0.29945195,0.5014088,0.6935784
22804000,-0.38804927,0.30009955,0.50070244,0.6935784
22808000,-0.387976,0.30040175,0.5003707,0.6935784
22812000,-0.3878911,0.30067325,0.50008976,0.6920075
22816000,-0.38776922,0.30098158,0.49974358,0.6920075
22824000,-0.38747114,0.30161774,0.49902168,0.6920075
22828000,-0.38730583,0.3019328,0.4986611,0.6920075
22832000,-0.38714415,0.30224347,0.498306,0.6920075
22836000,-0.38696766,0.30255228,0.49796996,0.69044995
22844000,-0.38661262,0.3031543,0.49727505,0.69044995
22848000,-0.38648486,0.30345875,0.49693152,0.69044995
22852000,-0.38638985,0.303759,0.4965979,0.69044995
22856000,-0.38625354,0.3040948,0.4962197,0.69044995
22860000,-0.38603786,0.30441982,0.4958549,0.68893725
22864000,-0.38583925,0.30476987,0.49545193,0.68893725
22868000,-0.38563654,0.3050963,0.49507344,0.68893725
22876000,-0.38522157,0.30570346,0.49436364,0.68893725
22880000,-0.38508618,0.30630976,0.4941736,0.68893725
22884000,-0.38484102,0.30658656,0.49386013,0.68751115
22888000,-0.38464135,0.30689758,0.49349868,0.68751115
22892000,-0.38444474,0.30717355,0.4931749,0.68751115
22896000,-0.38425556,0.30745673,0.49284476,0.68751115
22900000,-0.38403866,0.307772,0.4924761,0.68751115
22904000,-0.38380235,0.30810982,0.49208075,0.68751115
22908000,-0.38356486,0.30842546,0.49172056,0.68611735
22912000,-0.38331366,0.3087519,0.491335,0.68611735
22916000,-0.3830763,0.30906242,0.49096847,0.68611735
22920000,-0.38282266,0.30937603,0.49059623,0.68611735
22924000,-0.3825686,0.30970418,0.49020863,0.68611735
22928000,-0.3823387,0.3099844,0.48987573,0.68611735
22932000,-0.38208097,0.3102558,0.48955584,0.6847712
22936000,-0.38177133,0.3105849,0.489159,0.6847712
22940000,-0.3814467,0.31091598,0.4887581,0.6847712
22944000,-0.38117975,0.31124,0.48837325,0.6847712
22948000,-0.38091785,0.31155533,0.4879985,0.6847712
22952000,-0.38062036,0.31189442,0.48759314,0.6847712
22956000,-0.3803426,0.31225067,0.48717415,0.6834704
22964000,-0.37973416,0.31291044,0.4863817,0.6834704
22968000,-0.37944803,0.3132122,0.48601818,0.6834704
22972000,-0.37915397,0.31353867,0.4856274,0.6834704
22976000,-0.37880385,0.3138586,0.48523557,0.6834704
22980000,-0.37904847,0.31564853,0.48577237,0.6822291
22984000,-0.37873304,0.31598362,0.4853702,0.6822291
22988000,-0.37841344,0.3163476,0.48493665,0.6822291
22992000,-0.37810183,0.31668222,0.4845356,0.6822291
22996000,-0.3777659,0.31700224,0.48414686,0.6822291
23004000,-0.37700075,0.3176329,0.48338103,0.68124336
23008000,-0.37663946,0.31793737,0.48300582,0.68124336
23012000,-0.37627876,0.3182389,0.48263395,0.68124336
23020000,-0.3755504,0.31887954,0.48184973,0.68124336
23024000,-0.3751861,0.3191929,0.48146516,0.68124336
23028000,-0.37478787,0.31950662,0.48108292,0.6802634
23032000,-0.37437522,0.31988978,0.48061752,0.6802634
23036000,-0.3740223,0.32027006,0.4801635,0.6802634
23040000,-0.3736762,0.32061434,0.47974902,0.6802634
23044000,-0.37328762,0.32094455,0.479344,0.6802634
23048000,-0.37288678,0.32126987,0.47894275,0.6802634
23052000,-0.37248516,0.32161552,0.47852075,0.67938197
23056000,-0.37205952,0.32194468,0.4781124,0.67938197
23060000,-0.37161237,0.32225874,0.47771767,0.67938197
23068000,-0.3708229,0.3228701,0.47696048,0.67938197
23072000,-0.37044924,0.32321408,0.47654396,0.67938197
23076000,-0.3700778,0.32357514,0.4761076,0.6785053
23080000,-0.368702,0.32138747,0.47411412,0.6785053
23084000,-0.3683081,0.3217026,0.4737251,0.6785053
23088000,-0.3678852,0.32202706,0.4733227,0.6785053
23092000,-0.36742818,0.32239074,0.47287402,0.6785053
23096000,-0.3669743,0.32274845,0.47243232,0.6785053
23100000,-0.36650237,0.32314306,0.47191906,0.6773585
23104000,-0.36602953,0.32347155,0.47150677,0.6773585
23108000,-0.36558926,0.32378644,0.4711135,0.6773585
23112000,-0.36513072,0.32409924,0.4707204,0.6773585
23116000,-0.3646735,0.32440937,0.47033057,0.6773585
23120000,-0.36427015,0.32471824,0.46994895,0.6773585
23124000,-0.36386994,0.32508484,0.46947128,0.6762263
23128000,-0.36348087,0.32540384,0.46908107,0.6762263
23132000,-0.36310196,0.3257432,0.46867052,0.6762263
23140000,-0.36220658,0.32641184,0.46784365,0.6762263
23144000,-0.3617708,0.32672787,0.4674518,0.6762263
23148000,-0.36133358,0.32711732,0.46694273,0.67517847
23152000,-0.36090133,0.3274036,0.4665836,0.67517847
23156000,-0.36050415,0.32767987,0.46623963,0.67517847
23160000,-0.36007,0.32800508,0.46583885,0.67517847
23164000,-0.35961804,0.32835913,0.4654054,0.67517847
23168000,-0.35916704,0.32873458,0.46494907,0.67517847
23172000,-0.35868794,0.32914636,0.4644089,0.67418474
23176000,-0.3582011,0.32945102,0.46402493,0.67418474
23180000,-0.3581376,0.33083355,0.46424323,0.67418474
23184000,-0.35770023,0.33116716,0.46383506,0.67418474
23188000,-0.35723305,0.33147418,0.4634521,0.67418474
23192000,-0.35674238,0.33179146,0.4630557,0.67418474
23196000,-0.3562666,0.33218798,0.4625437,0.6733968
23200000,-0.35580423,0.33250478,0.46215153,0.6733968
23204000,-0.35533655,0.33277422,0.4618099,0.6733968
23212000,-0.35436416,0.33335102,0.46108222,0.6733968
23216000,-0.35385942,0.33366483,0.46068957,0.6733968
23220000,-0.35337293,0.3340305,0.46020597,0.67263997
23224000,-0.35290283,0.33432066,0.45984304,0.67263997
23228000,-0.35243496,0.33463007,0.45945996,0.67263997
23232000,-0.35194522,0.3349599,0.4590531,0.67263997
23236000,-0.35140285,0.3352786,0.4586525,0.67263997
23240000,-0.35086185,0.33560842,0.45824045,0.67263997
23244000,-0.35032922,0.33604103,0.45767784,0.67192954
23248000,-0.34978223,0.33637986,0.45725632,0.67192954
23252000,-0.34925544,0.3367057,0.456851,0.67192954
23256000,-0.3487648,0.33701122,0.4564717,0.67192954
23260000,-0.34825546,0.33731657,0.45609093,0.67192954
23264000,-0.34774536,0.3376239,0.45570815,0.67192954
23268000,-0.3472507,0.3379985,0.4552106,0.67125005
23272000,-0.3467336,0.338256,0.45488116,0.67125005
23276000,-0.34623644,0.33852074,0.45454627,0.67125005
23280000,-0.3455115,0.33817923,0.45378506,0.67125005
23284000,-0.3450349,0.33848274,0.45341098,0.67125005
23288000,-0.34453976,0.33879036,0.45303094,0.67125005
23292000,-0.34402773,0.33922228,0.45246246,0.6705567
23296000,-0.34355918,0.339515,0.45210165,0.6705567
23300000,-0.34305272,0.33979654,0.4517492,0.6705567
23304000,-0.34255373,0.34010535,0.45136863,0.6705567
23308000,-0.34208927,0.34039846,0.4510086,0.6705567
23316000,-0.34111133,0.3411787,0.4500196,0.6699263
23320000,-0.340638,0.34150618,0.44962275,0.6699263
23324000,-0.3401822,0.3418536,0.4492065,0.6699263
23328000,-0.33968586,0.34219408,0.448794,0.6699263
23332000,-0.33919007,0.34250394,0.44841444,0.6699263
23340000,-0.3381878,0.34324598,0.44746453,0.66938007
23344000,-0.3377105,0.34355822,0.44708523,0.66938007
23348000,-0.33721524,0.3439026,0.44667011,0.66938007
23352000,-0.3367384,0.34426662,0.4462359,0.66938007
23356000,-0.33625084,0.34460905,0.44582397,0.66938007
23360000,-0.33572632,0.34493017,0.44543177,0.66938007
23364000,-0.3352121,0.34537756,0.44484222,0.66889215
23368000,-0.3346961,0.34569705,0.44445327,0.66889215
23372000,-0.3341961,0.34598985,0.44409457,0.66889215
23376000,-0.33370245,0.34627086,0.44374943,0.66889215
23380000,-0.33255666,0.34487787,0.44229198,0.66889215
23388000,-0.33151942,0.3456624,0.44127858,0.6682127
23392000,-0.33101147,0.34598055,0.44089293,0.6682127
23396000,-0.3305366,0.3462561,0.44055593,0.6682127
23400000,-0.33007783,0.34657618,0.44017318,0.6682127
23404000,-0.3295599,0.3469393,0.43973917,0.6682127
23408000,-0.3290136,0.34724706,0.43936235,0.6682127
23412000,-0.3284865,0.34772518,0.43872043,0.66761154
23416000,-0.32798934,0.34805012,0.4383301,0.66761154
23420000,-0.32750207,0.3483598,0.43795723,0.66761154
23424000,-0.32700038,0.3486725,0.43758035,0.66761154
23428000,-0.32652646,0.3490308,0.43715715,0.66761154
