timestamp,gyro_rad[0],gyro_rad[1],gyro_rad[2],accelerometer_m_s2[0],accelerometer_m_s2[1],accelerometer_m_s2[2]
8000000,-0.002881979,-0.004996156,-0.001602048,-0.13232364,0.118072666,-9.834413
8008000,-0.000375089,-0.00989206,0.001970442,-0.21763028,0.16643013,-9.963143
8012000,0.002211539,-0.01000612,-4.18E-05,-0.2327807,0.16315757,-9.972062
8016000,0.002519547,-0.013436991,-0.002501801,-0.22032246,0.13506672,-9.9598465
8020000,-0.003019551,-0.008168193,-0.004352181,-0.21366733,0.15317276,-9.958913
8024000,-0.000592238,-0.010076839,-0.005217533,-0.2252383,0.19462533,-9.935475
8032000,-0.007241003,-0.008180756,-0.001357452,-0.17806709,0.11114122,-9.897044
8036000,-0.006195335,-0.003952104,-0.002680639,-0.17102605,0.13342443,-9.901773
8044000,-0.001082563,-0.0095166,-0.00408823,-0.2631922,0.12135603,-9.914085
8048000,-0.004413278,-0.010130089,-0.00437406,-0.22894533,0.1027261,-9.901424
8056000,-0.001221071,-0.000550271,-0.00114824,-0.16239496,0.23391221,-9.904804
8060000,-0.004560719,-0.002910301,-0.003478912,-0.21056397,0.18726501,-9.901279
8064000,-0.001711667,-0.010348449,-0.003046517,-0.2197392,0.14410521,-9.905371
8068000,0.004209163,-0.004970375,0.005390712,-0.21458945,0.120570116,-9.94829
8076000,0.00207897,-0.008579644,-0.004162288,-0.22953601,0.1299404,-9.94636
8080000,-0.001231755,-0.014569861,-0.00225597,-0.250662,0.19877101,-9.930669
8084000,0.000399992,-0.007929854,0.000536056,-0.2000456,0.1857622,-9.963493
8088000,0.002800627,-0.004559319,0.003270485,-0.1287401,0.20125681,-9.991402
8092000,-0.000505577,-0.008162293,0.000177188,-0.1287401,0.20125681,-9.991402
8096000,0.000863666,-0.009948081,0.000537124,-0.21120732,0.22961958,-10.000367
8100000,-0.000528375,-0.008294262,0.003495821,-0.20574519,0.24501802,-9.942464
8108000,-0.003789828,-0.011851123,0.000251939,-0.29112756,0.20647497,-9.888707
8112000,0.000803899,-0.004310961,-0.003050492,-0.17596234,0.15061922,-9.966604
8120000,0.001231223,-0.001613017,0.000934966,-0.21910831,0.24213748,-9.919162
8128000,0.004868574,-0.000770734,0.002917492,-0.17998138,0.16560821,-9.865463
8136000,-0.004564386,-0.010003865,3.60E-05,-0.12811,0.2383262,-9.9332905
8140000,-0.001175361,-0.008201348,0.002423567,-0.20250563,0.16399097,-9.989745
8148000,0.001351603,-0.006688701,-0.001842548,-0.14553125,0.2064112,-9.989446
8156000,0.001656483,-0.004150496,0.002627915,-0.20113638,0.16516964,-9.9013195
8160000,-0.004156575,-0.006537133,0.003435506,-0.25359872,0.1860271,-9.98019
8168000,0.003025579,-0.008252658,-0.000978252,-0.25406387,0.20935327,-9.943866
8172000,0.00185324,-0.005101561,-0.004918529,-0.2157609,0.25621122,-9.961713
8176000,-0.004341981,-0.007227568,-0.004327362,-0.23597176,0.25276357,-9.952723
8184000,-0.001053556,0.00052632,-0.001817405,-0.20512414,0.18721364,-9.866339
8188000,-0.009431169,-0.002487005,-0.007809084,-0.15680377,0.23859288,-9.99973
8192000,-0.008867026,-0.006382588,-0.00361817,-0.17825963,0.1680249,-9.9547415
8196000,-0.000946074,-0.004396118,-0.001620325,-0.19957708,0.15823472,-9.872734
8200000,-0.005152296,0.001877408,-0.004375194,-0.21839415,0.17633383,-9.950246
8204000,-0.005082789,-0.004935658,0.004541433,-0.22728826,0.19227809,-9.905767
8208000,-0.001778363,-0.008305795,0.006014098,-0.20773031,0.20152874,-9.874104
8216000,-0.004528601,-0.009272455,-0.002038828,-0.18139604,0.13432017,-9.982787
8220000,-0.005180437,-0.010379859,0.00107492,-0.25883132,0.18024379,-9.978792
8224000,-0.004092934,-0.005023155,0.004656541,-0.25177744,0.16839905,-9.957775
8228000,0.000527532,-0.004666636,-0.000509416,-0.16984914,0.15132383,-9.932521
8236000,-0.004409606,-0.002463863,-0.004167171,-0.16837095,0.1922082,-9.941935
8240000,-0.006614409,-0.009912572,0.000859766,-0.25881696,0.26552907,-9.94163
8244000,-0.003192667,-0.006346012,0.000402867,-0.25064337,0.18167526,-9.955402
8248000,-0.00191481,-0.000307677,-0.001529914,-0.17428099,0.16172017,-9.962511
8252000,-0.001706639,-0.002125928,-0.000603827,-0.23173517,0.25598407,-9.940055
8256000,-0.008144125,-0.005543885,-0.001299577,-0.21596824,0.24606776,-9.95466
8260000,-0.006961951,-0.011281004,-0.001380079,-0.21596824,0.24606776,-9.95466
8268000,0.001564116,-0.009409276,-0.00402464,-0.14677922,0.23824352,-9.894961
8272000,0.003266834,-0.001210032,-0.003707004,-0.14206749,0.23692605,-9.940511
8276000,0.007449769,0.003351299,-0.004720722,-0.2052388,0.14436662,-9.940269
8280000,-0.002484423,0.003488416,-0.002227406,1.1450425,0.14041771,-9.973697
8284000,0.001849047,0.003998909,-0.000590346,7.964027,0.18758534,-9.94156
8288000,0.007732856,0.00172069,-0.001815381,18.40254,0.25216985,-9.902844
8296000,-0.003157438,-0.00357261,-0.004578589,34.89131,0.14310314,-9.822918
8300000,-0.006314795,-0.002859988,-0.002497038,40.521023,0.17892566,-9.905579
8304000,-0.004237399,0.002613207,-0.002590544,44.671707,0.14481287,-9.864181
8312000,-0.001679222,-0.006209892,0.001870931,49.715446,0.22768936,-9.88672
8316000,-0.001839017,-0.008122794,-0.001004042,50.8608,0.1736813,-9.84355
8324000,-0.002094629,0.002463321,-0.000579701,52.17647,0.14576764,-9.807468
8332000,-0.004949712,-0.004935246,0.0014926,52.30718,0.16417359,-9.81435
8340000,-0.001337109,-0.008818452,-0.000303545,51.71228,0.17395018,-9.893762
8344000,-0.002201937,-0.003860866,0.004107838,51.49496,0.19034556,-9.935105
8348000,-0.005085916,-0.011662198,0.001933327,51.29256,0.1924125,-9.947631
8352000,-0.000960731,-0.006736906,-0.002558569,50.74429,0.22736175,-9.867573
8356000,0.001781436,-0.003533338,-0.00082877,50.027233,0.25059333,-9.820043
8360000,0.001058155,-0.007339026,-0.004117393,49.444542,0.2892693,-9.887283
8364000,0.003853965,-0.003564967,-0.005396824,49.07996,0.25996014,-9.87503
8372000,-0.000232836,0.000129487,-0.00312714,48.2564,0.26474947,-9.932057
8376000,0.002097828,-0.001977972,-0.000200664,47.649284,0.23248138,-9.909472
8380000,-0.001430874,-0.003554512,-0.002425063,47.00213,0.23324528,-9.921171
8384000,-0.002044819,-0.001890927,-0.006426539,46.58454,0.22905605,-9.944125
8388000,0.001404618,-0.002070449,0.000716173,46.222633,0.19609874,-9.879687
8392000,0.001975787,-0.003912527,-0.002611261,45.83699,0.19225933,-9.862624
8396000,-0.001783469,-0.009055081,-0.007766032,45.294037,0.26188782,-9.877314
8400000,-0.003862019,-0.006545604,-0.00225164,44.723064,0.28181934,-9.872396
8404000,-0.001815408,0.000215721,-0.001761815,44.333023,0.18132512,-9.875086
8412000,0.00101285,-0.006734849,0.001507813,43.63093,0.21567124,-9.895004
8420000,-0.006466296,-0.012642575,-0.003500586,42.615433,0.20275673,-9.849118
8424000,-0.001907155,-0.004527725,-0.001009385,42.275345,0.20301105,-9.837727
8432000,-0.001665145,-0.010050199,0.000658253,41.66112,0.13421845,-9.858427
8436000,-0.001424502,-0.005394783,-0.006261,41.089386,0.17649432,-9.74106
8440000,-0.000489608,-0.008156179,-0.00581519,40.622032,0.10331121,-9.810012
8444000,0.00093241,-0.005069803,0.001996297,40.16906,0.10859363,-9.8781185
8448000,0.003445879,0.000293948,0.003638256,39.889763,0.13118058,-9.838846
8456000,0.003153908,-0.007753389,-0.00206595,39.134758,0.1459988,-9.787309
8460000,-0.002318699,-0.003759433,0.00116536,38.639572,0.15066487,-9.817054
8464000,-0.000599114,-0.003337573,-0.005753755,38.24051,0.20094141,-9.877889
8472000,0.003000193,-0.003401703,-0.007124191,37.690334,0.12792183,-9.881453
8476000,-0.002811327,-0.007024336,-0.002895477,37.278572,0.1834252,-9.85484
8480000,0.001557385,-0.010848526,-0.000545192,36.890682,0.24987379,-9.825539
8488000,-0.001198407,-0.004542756,0.002480112,36.08514,0.17999241,-9.853107
8492000,-0.006128752,-0.005548456,0.003034814,35.84596,0.21421315,-9.863233
8496000,-0.00078545,0.002958626,-0.002690092,35.50283,0.1802705,-9.866731
8500000,0.001732448,0.003611086,-0.000658638,35.051476,0.1633614,-9.857683
8508000,-0.003643996,-0.000393129,-0.003226882,34.37789,0.14441441,-9.914773
8512000,-0.001588951,-0.001444149,-0.003619196,34.073357,0.19824277,-9.881314
8516000,-0.000729773,-0.002586809,0.003521108,33.738777,0.21649171,-9.829226
8520000,-0.001329224,-0.005677183,0.000181399,33.31089,0.21183534,-9.829509
8528000,0.00285049,-0.00480455,-0.002212582,32.65091,0.20836896,-9.853667
8532000,0.003296542,-0.003112914,-0.008729007,32.369526,0.20710021,-9.810078
8540000,-0.001391872,-0.003686316,0.004380025,31.717375,0.1722999,-9.94434
8544000,-7.43E-05,-0.00738743,0.002273028,31.360596,0.17128861,-9.902457
8548000,0.000386073,-0.010549709,0.004879015,31.185959,0.16675876,-9.897534
8552000,0.005792293,-0.006876416,0.00965948,30.933798,0.1987084,-9.967592
8556000,0.000632499,-0.004497226,0.006673518,30.635334,0.1999955,-10.006667
8560000,-0.004529946,-0.001459649,0.000602193,30.29159,0.16639024,-9.913938
8568000,0.002067796,-0.003609039,-0.00090646,29.753138,0.14804508,-9.91636
8572000,-0.000755146,-0.01181595,-0.001363494,29.584373,0.17096049,-9.921709
8576000,-0.001517408,-0.008970019,-0.000900223,29.387434,0.17035653,-9.911717
8580000,0.0016136,-0.003934798,0.004498787,29.072004,0.12418978,-9.92676
8584000,-0.00084577,-0.009531463,0.001427788,28.777693,0.12539998,-9.86037
8588000,-0.000478238,-0.007434816,0.000136922,28.448263,0.11918962,-9.826042
8596000,-0.002368343,-0.003791208,0.00591345,28.055965,0.16962944,-9.873968
8604000,-0.002319652,-0.010171319,0.002649762,27.42119,0.19914703,-9.851991
8608000,-0.000214778,-0.009094436,0.003696744,27.19428,0.2183366,-9.885851
8612000,0.002476388,-0.002472839,-0.001097169,27.068865,0.20755972,-9.918875
8616000,2.27E-05,0.000810252,-0.004311712,26.910364,0.16222279,-9.921357
8620000,-0.005792138,-0.000242058,-0.006739268,26.521492,0.033226777,-9.893835
8628000,-0.000424929,-0.006497496,0.004541325,25.905174,0.19008069,-9.884672
8632000,-0.003007602,-0.004988126,0.000526013,25.716358,0.19203761,-9.949556
8636000,-0.001387032,-0.00668483,-0.003537835,25.604753,0.14985712,-9.936223
8640000,-0.001641429,-0.01114253,-0.003909492,25.309813,0.17920496,-9.904166
8648000,-0.000950465,-0.009683502,0.000226365,24.713995,0.094968125,-9.890944
8652000,0.000792545,-0.01106062,0.004067554,24.489304,0.11153905,-9.802707
8656000,0.002477891,-0.005683279,0.004495418,24.375435,0.13675031,-9.860857
8660000,0.005557285,-0.00195403,0.003956042,24.210205,0.06013818,-9.929739
8668000,-0.001559179,-0.010815094,0.001467795,23.570395,0.046918243,-9.863061
8676000,0.003062063,-0.009209664,0.01572211,23.336693,0.09541981,-9.874355
8680000,0.002784539,-0.004105937,0.013089092,23.078535,0.10546479,-9.868592
8684000,-0.001359391,-0.003313939,0.010416862,22.773367,0.09984711,-9.936359
8688000,-0.005821826,-0.005862752,0.01141768,22.566936,0.055069327,-9.946487
8696000,-0.000742696,-0.006703437,0.015820047,22.2651,0.034136716,-9.9021
8704000,-0.002420616,-0.012460705,0.020113098,21.939005,0.034660023,-9.807414
8708000,-0.006661516,-0.004433414,0.02511046,21.758833,0.052601162,-9.805706
8712000,-0.003913423,-0.009073921,0.026009329,21.571032,0.123128206,-9.903605
8716000,-0.001512896,-0.01162057,0.027608484,21.36547,0.15550604,-9.965619
8720000,-0.001431966,-0.00589435,0.023103192,21.265308,0.06564104,-9.958238
8728000,0.004000938,-0.012910063,0.03116194,20.930431,0.020146178,-9.819656
8732000,0.002115437,-0.005751688,0.028196357,20.723545,-0.03515227,-9.865928
8736000,0.001485037,-0.007544972,0.03284568,20.58297,0.007894775,-9.898098
8740000,0.00253466,-0.009203378,0.03858094,20.398493,0.049083214,-9.877961
8748000,-0.002726183,-0.003071498,0.042852554,20.048767,0.032813706,-9.981795
8752000,0.005608413,-0.011018946,0.05677496,20.171125,-0.45032102,-10.343566
8756000,0.013275888,-0.013837174,0.07341368,20.363861,-0.74414766,-10.592051
8760000,0.014738938,-0.012510381,0.08404037,20.254126,-0.5700102,-10.520029
8764000,0.020705316,-0.024020992,0.09912764,19.961359,-0.56606066,-10.56646
8768000,0.027723411,-0.030258946,0.11824029,19.68237,-0.5896568,-10.595538
8772000,0.03157172,-0.0342234,0.14161576,19.448025,-0.64433324,-10.659647
8780000,0.050446756,-0.038041145,0.15487961,19.30045,-0.5349647,-10.614656
8784000,0.06057626,-0.04408039,0.18084566,19.046143,-0.51363975,-10.610475
8788000,0.06332844,-0.058576807,0.19192731,18.759632,-0.5253396,-10.574329
8792000,0.066767484,-0.061782714,0.20400031,18.570408,-0.5509337,-10.565102
8796000,0.07745284,-0.0634468,0.21478072,18.42871,-0.4751774,-10.561848
8800000,0.08370671,-0.06413934,0.2188342,18.330595,-0.4696792,-10.546603
8804000,0.09259041,-0.059006117,0.23364265,18.202145,-0.49852508,-10.477977
8808000,0.10240796,-0.061298534,0.24386327,17.961859,-0.4664077,-10.40091
8816000,0.104958154,-0.07420975,0.26204866,17.623043,-0.2956547,-10.4278345
8820000,0.12170512,-0.06817109,0.26792756,17.45858,-0.2603505,-10.321255
8824000,0.12970005,-0.06841788,0.2742722,17.238686,-0.31570864,-10.306327
8828000,0.13222142,-0.0678621,0.28324485,17.07824,-0.2923546,-10.373281
8836000,0.1521424,-0.05452657,0.29313868,16.737833,-0.21304373,-10.279995
8840000,0.14720005,-0.061266273,0.29418755,16.619915,-0.18918577,-10.45777
8848000,0.16152197,-0.07109605,0.29509833,16.397013,-0.12762919,-10.263855
8852000,0.17123976,-0.06803107,0.29801744,16.27472,-0.14915138,-10.283239
8860000,0.18087696,-0.06325183,0.30426472,16.052263,-0.0694683,-10.308223
8864000,0.18888222,-0.06194459,0.29956353,15.9207735,0.026347782,-10.238867
8868000,0.20270641,-0.051942814,0.29175872,15.751065,0.04898055,-10.266795
8876000,0.21336418,-0.047436308,0.29154944,15.451292,-0.017826049,-10.311801
8880000,0.2184112,-0.04017333,0.28969997,15.260951,0.07480055,-10.318908
8884000,0.2210562,-0.03684327,0.28392857,15.2349615,0.0986269,-10.2456875
8888000,0.23327526,-0.044097893,0.27366456,15.142309,0.092106044,-10.211753
8892000,0.24697368,-0.04502027,0.2614125,14.930307,0.06227217,-10.215577
8896000,0.24986325,-0.037032492,0.25539017,14.784173,0.024089335,-10.194452
8900000,0.2522689,-0.036995765,0.24751595,14.613655,0.14075293,-10.13802
8904000,0.25589097,-0.030614385,0.23848443,14.475332,0.18744609,-10.081236
8912000,0.2703802,-0.026662337,0.2213128,14.115735,0.14526656,-10.143625
8916000,0.27544457,-0.022427833,0.21164663,13.95878,0.10043052,-10.165717
8924000,0.28250173,-0.01229882,0.18057694,13.820222,0.15248665,-10.022263
8928000,0.28867903,-0.003813678,0.17317006,13.666379,0.10899707,-10.08828
8936000,0.30123568,-0.002420344,0.15410165,13.459522,0.17618637,-10.140099
8940000,0.3034319,-0.006108359,0.14337772,13.369046,0.29098424,-10.210394
8944000,0.3123362,-0.007649065,0.13145226,13.253604,0.43343195,-10.211565
8948000,0.31334615,-0.009475479,0.11638897,13.069932,0.53998435,-10.192048
8952000,0.31386188,-0.009548599,0.107385136,12.909436,0.564834,-10.22483
8956000,0.31922874,-0.00311157,0.09569981,12.852401,0.5434964,-10.215502
8960000,0.3241417,-0.004324873,0.079561196,12.786378,0.5396926,-10.223523
8964000,0.32733214,-0.011090473,0.06451672,12.655774,0.57941526,-10.188572
8968000,0.3314244,-0.009457666,0.06160009,12.4847765,0.61942923,-10.130021
8976000,0.330283,-0.004190536,0.038475838,12.245669,0.5112007,-10.095681
8980000,0.33344224,-0.003737127,0.020658545,12.191673,0.597129,-10.207217
8984000,0.33181554,-0.013163259,0.005678043,12.055664,0.66958565,-10.246414
8992000,0.3381897,-0.014316418,-0.016112864,11.891136,0.6821533,-10.165608
8996000,0.33281964,-0.015623094,-0.030287445,11.712728,0.68729234,-10.070169
9000000,0.33889163,-0.009367877,-0.041881677,11.603458,0.7213692,-10.1345415
9004000,0.34589094,-0.013291649,-0.049357817,11.524558,0.7071905,-10.191602
9008000,0.3414596,-0.015010383,-0.06216835,11.359274,0.6632583,-10.096777
9012000,0.34066463,-0.010590061,-0.07882547,11.248013,0.64897084,-10.103849
9016000,0.34371582,-0.00888279,-0.089834146,11.183352,0.7096988,-10.096928
9020000,0.34429798,-0.005916493,-0.0979959,11.084758,0.75633246,-10.085017
9028000,0.3461148,-0.013119798,-0.11299995,10.867449,0.77056,-10.054164
9036000,0.35547277,-0.018020902,-0.13628265,10.515085,0.76622534,-10.150884
9040000,0.35056487,-0.01608222,-0.14535496,10.383893,0.7748853,-10.077033
9048000,0.35026404,-0.02342323,-0.16669999,10.154566,0.74769276,-9.957151
9052000,0.35423097,-0.023096073,-0.17685594,10.06746,0.7154628,-10.09012
9056000,0.3513939,-0.025855549,-0.178823,9.969834,0.764755,-10.023875
9060000,0.3485522,-0.02622703,-0.18284763,9.834953,0.6726145,-9.992617
9068000,0.34144515,-0.028681181,-0.19060338,9.5988865,0.59617287,-10.038655
9072000,0.34493375,-0.028855944,-0.1996792,9.513086,0.5315886,-10.087134
9080000,0.33923924,-0.03783618,-0.2121698,9.168231,0.4509797,-10.076661
9084000,0.33504483,-0.043051478,-0.21714228,9.097503,0.47112295,-10.034914
9092000,0.33405474,-0.047135677,-0.2254512,8.9022875,0.3110975,-9.99985
9096000,0.33288103,-0.044841386,-0.22786626,8.831886,0.2946834,-9.876304
9100000,0.33353728,-0.044902496,-0.22770475,8.686258,0.1281459,-9.911101
9108000,0.33036304,-0.050199006,-0.24434863,8.424557,0.09199489,-9.914573
9116000,0.3259671,-0.05248957,-0.25077704,8.189992,0.04930903,-9.799117
9120000,0.3248259,-0.044418506,-0.25110975,8.081912,-0.058824826,-9.78421
9124000,0.32205778,-0.041282956,-0.2513426,8.053033,-0.032031756,-9.829704
9132000,0.31494984,-0.04661125,-0.24677426,7.7510576,-0.10130325,-9.709809
9136000,0.3099694,-0.046946432,-0.24871671,7.6486506,-0.206697,-9.729803
9140000,0.3044745,-0.04309344,-0.25218683,7.551314,-0.30421138,-9.740293
9148000,0.31091452,-0.04154198,-0.25328544,7.3820357,-0.26707408,-9.814071
9152000,0.3087714,-0.040481716,-0.254168,7.2821574,-0.3012224,-9.778536
9160000,0.29858312,-0.039664935,-0.23903555,7.098739,-0.4002726,-9.754865
9164000,0.29384023,-0.036083505,-0.23675741,6.9603133,-0.37604517,-9.704713
9172000,0.28537348,-0.02868934,-0.23462534,6.828484,-0.39750922,-9.719977
9180000,0.28572774,-0.025746921,-0.22869052,6.6625447,-0.38659903,-9.741257
9184000,0.28182396,-0.026969558,-0.2287021,6.596564,-0.3994768,-9.695796
9188000,0.2815796,-0.017569613,-0.22324601,6.594108,-0.47512057,-9.659465
9196000,0.268177,-0.011341853,-0.21497488,6.402224,-0.5360124,-9.621675
9200000,0.26862136,-0.00903014,-0.21408382,6.2879086,-0.4310026,-9.5695095
9204000,0.27513278,-0.011505764,-0.20606992,6.1852717,-0.4841362,-9.6395645
9208000,0.27287662,-0.012984626,-0.19569513,6.1692796,-0.54835176,-9.688763
9216000,0.2658101,-0.004718727,-0.17861627,6.032186,-0.500401,-9.738358
9220000,0.2647102,0.000408366,-0.18573397,5.952033,-0.45068613,-9.715433
9224000,0.26722014,0.009809628,-0.17977194,5.857554,-0.541135,-9.734562
9228000,0.26764214,0.013025133,-0.16468784,5.886778,-0.5507153,-9.771359
9232000,0.25885397,0.013710647,-0.15877779,5.833986,-0.6241471,-9.714706
9236000,0.25432003,0.019698134,-0.15601976,5.826457,-0.68656904,-9.665271
9244000,0.24195942,-0.01715216,-0.077783756,4.352565,-2.0599082,-10.728549
9252000,0.24101515,-0.01113584,-0.06376434,5.4310527,-0.7383746,-9.824976
9256000,0.24557273,-0.01041095,-0.051793672,5.4107966,-0.7167381,-9.848834
9260000,0.24694234,-0.004508666,-0.040425524,5.2416596,-0.7228534,-9.813691
9264000,0.2439437,-0.009610112,-0.031254333,5.178338,-0.8096387,-9.761799
9272000,0.23958133,-0.009257056,-0.016109822,5.242414,-0.7058361,-9.902221
9276000,0.23633277,-0.014291627,0.003889107,5.1157947,-0.67559874,-9.900549
9280000,0.23555931,-0.011294922,0.01724617,5.0556283,-0.63796693,-9.853818
9288000,0.23134135,0.001699747,0.03944353,4.986126,-0.6446318,-9.862539
9296000,0.2277509,0.007300511,0.061861858,4.862446,-0.5838952,-9.948707
9300000,0.22395335,0.006467914,0.07122789,4.795278,-0.5697275,-9.974963
9304000,0.23389532,0.005169257,0.087828085,4.7974277,-0.6174136,-9.858749
9308000,0.23401703,0.004218288,0.1003897,4.764685,-0.5071783,-9.898875
9312000,0.23008226,0.011028259,0.11566799,4.688183,-0.4199978,-10.019727
9316000,0.22820137,0.015127084,0.11982653,4.6340265,-0.4120668,-10.061269
9324000,0.22657211,0.033213194,0.12700479,4.5552535,-0.3766395,-10.080801
9328000,0.22537261,0.036394622,0.14022972,4.4730573,-0.37426984,-10.108888
9336000,0.21998546,0.042130217,0.14961289,4.404601,-0.33134902,-10.223918
9340000,0.21836782,0.04670499,0.15240525,4.3268733,-0.22502159,-10.29798
9344000,0.2186185,0.05299602,0.160226,4.361387,-0.14182276,-10.34188
9348000,0.21921122,0.058653336,0.16908403,4.3594103,-0.09680471,-10.321434
9352000,0.21963774,0.06884771,0.17080355,4.3405995,-0.13179441,-10.380515
9360000,0.2158917,0.08648198,0.17191343,4.2656603,0.02333339,-10.454829
9364000,0.20960364,0.08829915,0.17351057,4.2578907,-0.023428129,-10.539965
9368000,0.2101103,0.09123113,0.1828442,4.2072525,0.032901492,-10.606004
9376000,0.21020913,0.11355197,0.17001876,4.079946,0.02614456,-10.853911
9380000,0.2119937,0.12068224,0.17137906,3.9928467,-0.029039795,-10.917285
9384000,0.20409454,0.12845331,0.1801139,3.9805095,-0.03472614,-11.04014
9388000,0.19952108,0.14128691,0.18061934,3.8874772,-0.001849335,-11.200839
9396000,0.2043319,0.15043716,0.1698587,3.6835172,0.07192983,-11.514687
9400000,0.20049751,0.15478355,0.16645804,3.6750615,0.059384637,-11.573542
9404000,0.20671415,0.1618272,0.16055426,3.6424701,0.052542567,-11.64227
9408000,0.20290229,0.16872795,0.15844855,3.5654032,0.07770327,-11.715345
9416000,0.19181962,0.18197274,0.16346222,3.4643323,0.07333901,-12.005928
9420000,0.19821547,0.19324204,0.16385037,3.4555285,0.026150389,-12.075254
9424000,0.19808929,0.20081955,0.15650128,3.3889327,0.009001068,-12.257508
9428000,0.19344841,0.20830117,0.15128627,3.2659767,0.024113528,-12.390442
9436000,0.18893749,0.20674449,0.1410635,3.148936,0.13716006,-12.705127
9440000,0.18912834,0.20566021,0.13828066,3.1229374,0.13112596,-12.89696
9444000,0.18501988,0.22272213,0.13712025,3.1416523,0.16716501,-12.97605
9448000,0.18011643,0.22960539,0.13019833,3.0291462,0.08899042,-13.00148
9456000,0.18037611,0.2298684,0.121425025,2.9926777,0.06905808,-13.264718
9460000,0.1781631,0.23297459,0.12484252,2.9445498,0.05443944,-13.359839
9468000,0.17151222,0.23528183,0.11439568,2.7749083,0.28293952,-13.470561
9472000,0.16622217,0.23947635,0.107838474,2.8067944,0.2797383,-13.490883
9480000,0.16708209,0.23492827,0.10342946,2.806806,0.1386614,-13.829731
9484000,0.16686083,0.2369769,0.09264068,2.756281,0.14525822,-13.947263
9488000,0.16045158,0.24374427,0.091635816,2.686172,0.04980792,-14.014127
9492000,0.15559943,0.25439072,0.09019579,2.577035,0.007217003,-14.063942
9496000,0.15872514,0.2540118,0.08589554,2.5541673,0.06608496,-14.181987
9504000,0.15600668,0.24741992,0.074302696,2.5557103,0.15809497,-14.271832
9508000,0.15047878,0.2512624,0.07510358,2.4609072,0.19333845,-14.380227
9512000,0.15466855,0.24390039,0.07255881,2.4323921,0.17451672,-14.438403
9516000,0.15462455,0.24017961,0.06757034,2.428632,0.10749288,-14.458945
9520000,0.15060972,0.24193582,0.06336003,2.3891761,0.11721731,-14.474053
9524000,0.14619793,0.23764783,0.06023323,2.3663514,0.15510504,-14.558594
9528000,0.14037539,0.23600657,0.058630403,2.374939,0.097652376,-14.649134
9536000,0.13859251,0.23770975,0.044797182,2.2828531,0.11779771,-14.68718
9540000,0.13516875,0.23081784,0.040682655,2.2713883,0.11414192,-14.685616
9544000,0.13260423,0.22271124,0.036657892,2.2891455,0.12112623,-14.673526
9548000,0.13902964,0.22896479,0.03180455,2.2371037,0.08918577,-14.675982
9552000,0.13897999,0.23684168,0.030174827,2.203302,0.04982587,-14.754769
9560000,0.13380094,0.22068836,0.02496948,2.0935302,0.108781576,-14.804108
9564000,0.13120694,0.22489336,0.024093315,2.0978932,0.05706931,-14.841039
9572000,0.12881733,0.21350092,0.013138719,2.0552886,0.02246866,-14.842953
9580000,0.12083386,0.2206889,0.009719572,2.0083044,0.00796589,-14.856629
9584000,0.123325445,0.21179147,0.003539983,1.965133,-0.026020868,-14.846213
9592000,0.1222665,0.19656461,-0.002405395,1.9335617,-0.011135182,-14.740039
9596000,0.121339284,0.19254087,-0.00123912,1.9788535,0.043851558,-14.715167
9600000,0.11883555,0.19823673,-0.00598557,1.9559748,0.051062196,-14.796111
9604000,0.1219429,0.20156507,-0.014163451,1.9054344,0.024675913,-14.757083
9608000,0.12643449,0.19836171,-0.011918114,1.8421676,-0.023113968,-14.633865
9612000,0.12369173,0.19134955,-0.001902095,1.8238528,-0.014908819,-14.624091
9616000,0.12094895,0.18603392,0.001012412,1.8584619,-0.08116913,-14.627707
9620000,0.11404072,0.18295392,-0.007878348,1.8928012,-0.024116313,-14.60525
9624000,0.11040775,0.17911881,-0.012178174,1.8648628,0.09491507,-14.603918
9632000,0.112564646,0.1807806,-0.005332597,1.7369543,-0.048634004,-14.565526
9636000,0.11093365,0.16721605,-0.00817731,1.7441057,-0.14112562,-14.482221
9640000,0.10551786,0.16362934,-0.013193185,1.7454587,-0.13929155,-14.411069
9644000,0.10254954,0.16481213,-0.015079088,1.735422,-0.04528513,-14.390457
9648000,0.103203274,0.16211422,-0.009100251,1.7215741,-0.11082316,-14.379684
9652000,0.10638824,0.15738335,-0.006979149,1.6767979,-0.15242879,-14.402049
9656000,0.10589697,0.15956843,-0.007130293,1.683905,-0.12835519,-14.348407
9660000,0.10375157,0.16679361,-0.009549026,1.6882445,-0.09577121,-14.250142
9668000,0.097445,0.16231164,-0.010206616,1.6018684,-0.13232821,-14.179356
9676000,0.101384275,0.15664107,-0.012635554,1.6288726,-0.1539147,-14.07207
9680000,0.09752946,0.15481092,-0.011875607,1.6396482,-0.12850507,-14.036969
9688000,0.09886346,0.14820935,-0.004810168,1.5717517,-0.2261609,-14.031449
9696000,0.09538622,0.14491923,0.003337379,1.5155191,-0.20685707,-13.915572
9700000,0.09084729,0.14908949,-0.001340198,1.5332206,-0.11518692,-13.867386
9704000,0.0877083,0.14395408,-0.002457702,1.5315875,-0.14914025,-13.878079
9708000,0.08889533,0.13908796,0.004348429,1.5089949,-0.21793655,-13.861949
9716000,0.08901482,0.14100721,0.008138337,1.4708619,-0.15368977,-13.693179
9720000,0.08855743,0.14116009,0.007839236,1.4639924,-0.20544733,-13.65519
9724000,0.07956286,0.14014915,0.004193432,1.4098668,-0.18954001,-13.739062
9728000,0.08090121,0.13918692,0.006057335,1.3607767,-0.16001295,-13.734411
9736000,0.089715615,0.13747683,0.016433928,1.4706476,-0.26216123,-13.57286
9740000,0.08769093,0.14037034,0.019326042,1.4562669,-0.3097186,-13.496931
9748000,0.08018326,0.1395538,0.024258975,1.4313327,-0.22910877,-13.493765
9752000,0.08303269,0.139349,0.029495928,1.4296985,-0.2630802,-13.492873
9756000,0.08219295,0.14327852,0.029236127,1.3984398,-0.27924785,-13.491932
9760000,0.08303091,0.14492592,0.032857172,1.3984398,-0.27924785,-13.491932
9764000,0.07746042,0.14101322,0.033838566,1.3529478,-0.2733309,-13.416718
9768000,0.07844143,0.13846761,0.03301665,1.3485161,-0.29360402,-13.36274
9772000,0.07703714,0.1371313,0.035456326,1.294216,-0.25912607,-13.3623085
9776000,0.074370146,0.1360675,0.039941687,1.2762842,-0.2869195,-13.342682
9780000,0.07862363,0.13762036,0.04406266,1.2724185,-0.31231776,-13.35444
9784000,0.08134604,0.13573451,0.04966004,1.3399185,-0.31007898,-13.2921295
9792000,0.07377984,0.13827944,0.056461107,1.3033353,-0.31954342,-13.225838
9796000,0.070843466,0.13977937,0.053975906,1.267838,-0.29012644,-13.189386
9800000,0.07388106,0.14423618,0.04899789,1.2730076,-0.3421861,-13.241269
9804000,0.075307004,0.14699349,0.05476796,1.2434851,-0.3652402,-13.240064
9808000,0.07523685,0.14717908,0.0605125,1.2202437,-0.31655475,-13.233617
9816000,0.074580275,0.14077236,0.06722851,1.2712337,-0.3122066,-13.217787
9820000,0.07421959,0.14729486,0.06532741,1.2273272,-0.3167866,-13.251553
9828000,0.06535342,0.14885625,0.07173807,1.1553891,-0.33912528,-13.252693
9832000,0.069432236,0.14920571,0.06552418,1.246102,-0.3059429,-13.278477
9836000,0.0712886,0.14652753,0.06668743,1.2076551,-0.3184044,-13.24579
9840000,0.066747405,0.14916433,0.07400509,1.1451157,-0.33948386,-13.264124
9844000,0.060748354,0.15096699,0.0838001,1.1242716,-0.30646688,-13.319935
9848000,0.06338786,0.15257175,0.08577823,1.1218268,-0.33996394,-13.358616
9852000,0.06870016,0.15391274,0.08526895,1.1072117,-0.3416919,-13.366802
9856000,0.06936511,0.15077852,0.08435541,1.1217223,-0.28308424,-13.264146
9860000,0.06752958,0.154337,0.08339014,1.1876324,-0.32426408,-13.208385
9864000,0.068458855,0.15733437,0.089223236,1.1476612,-0.35614198,-13.330742
9872000,0.06648135,0.16110331,0.092731945,1.0601461,-0.26828042,-13.326494
9876000,0.06759168,0.15853956,0.091765106,1.0976006,-0.35439077,-13.320633
9880000,0.06517774,0.16511767,0.09541178,1.1349096,-0.32022914,-13.362891
9884000,0.061770137,0.17261693,0.10476735,1.1493499,-0.280728,-13.396393
9888000,0.06226776,0.1746185,0.10911425,1.2087295,-0.3251686,-13.461112
9892000,0.05967274,0.17537262,0.106295474,1.1199229,-0.2772416,-13.475289
9896000,0.05609315,0.17218131,0.09201825,0.9844148,-0.22336304,-13.4516115
9900000,0.05988677,0.17015757,0.08952616,1.0267056,-0.22199339,-13.487458
9904000,0.06570785,0.16886866,0.10016448,1.1324648,-0.21105619,-13.515423
9908000,0.06509957,0.17108116,0.10323701,1.144209,-0.18239059,-13.512778
9912000,0.06301749,0.16694939,0.102745295,1.0181564,-0.19400772,-13.456712
9920000,0.060306262,0.17305161,0.10504251,0.9496278,-0.2982976,-13.437123
9924000,0.055488452,0.1677307,0.10224187,0.99594796,-0.2698196,-13.518266
9928000,0.049584635,0.1722135,0.09408425,0.9978757,-0.27193534,-13.564422
9932000,0.053499106,0.16929391,0.09778658,0.939421,-0.28032556,-13.525383
9940000,0.057082828,0.17390725,0.106037624,0.9581457,-0.2819661,-13.598435
9944000,0.054710753,0.17953368,0.106595546,0.9356791,-0.28570625,-13.565645
9952000,0.050269403,0.17857352,0.103737004,0.9584711,-0.24181573,-13.59492
9956000,0.052660275,0.18175039,0.099370696,0.9838946,-0.1742253,-13.627399
9960000,0.04704251,0.17778897,0.10447438,0.9800502,-0.16788319,-13.655629
9964000,0.04951894,0.17991465,0.10740079,1.0364485,-0.21243496,-13.62095
9968000,0.056246504,0.18639436,0.10546484,0.9888981,-0.24690083,-13.706343
9976000,0.05408148,0.17627484,0.10531037,0.96168214,-0.26811907,-13.731773
9980000,0.050748777,0.17365836,0.09911658,0.94216543,-0.39949816,-13.726173
9984000,0.047724895,0.1793412,0.09640545,0.8643775,-0.31577015,-13.746611
9988000,0.046934918,0.17989545,0.09660003,0.9009471,-0.23846409,-13.792383
9992000,0.05055572,0.180044,0.09821481,0.93122506,-0.2466385,-13.858332
9996000,0.05443131,0.18072005,0.099476844,0.9245193,-0.23601219,-13.859075
10000000,0.053692978,0.18033966,0.09569776,0.94021946,-0.22864757,-13.813721
10004000,0.04833565,0.1833589,0.09451241,0.94929564,-0.3112989,-13.894477
10008000,0.04832104,0.18881921,0.09840171,0.90134734,-0.29773057,-13.879464
10012000,0.05367872,0.18434735,0.09567055,0.8735701,-0.25666997,-13.802743
10016000,0.053308405,0.18080005,0.092617035,0.8505819,-0.27909815,-13.817237
10020000,0.05136133,0.18249911,0.09084222,0.8159168,-0.26690006,-13.878961
10028000,0.0453836,0.18464337,0.09292274,0.86187285,-0.23201673,-13.971277
10036000,0.040347427,0.18287632,0.08836732,0.8610654,-0.26387143,-13.977891
10044000,0.046469457,0.18361343,0.08287478,0.85271025,-0.2818051,-13.910765
10048000,0.0392988,0.18523002,0.08680817,0.87487864,-0.23825215,-13.969002
10056000,0.03807947,0.19226165,0.08181827,0.8515508,-0.22582188,-13.869343
10060000,0.039768174,0.18696582,0.08118009,0.8962969,-0.21796583,-13.912865
10064000,0.04064292,0.18550824,0.07471318,0.90468484,-0.19596839,-13.932105
10068000,0.041987155,0.18697342,0.079658635,0.8558802,-0.2772911,-13.948913
10072000,0.040347688,0.18096295,0.083068125,0.8305448,-0.2709811,-13.96106
10076000,0.040185362,0.1823102,0.08149569,0.82818013,-0.2257502,-13.899301
10080000,0.03963578,0.18360522,0.076308385,0.8007435,-0.24402711,-13.876154
10084000,0.039158475,0.1864332,0.0735467,0.8244501,-0.28911984,-13.944508
10088000,0.040218942,0.19142038,0.07467029,0.86706877,-0.31462455,-13.961553
10092000,0.03899236,0.18812977,0.07238113,0.86630315,-0.29007506,-13.963032
10096000,0.03980444,0.18467171,0.06706538,0.8323019,-0.26367447,-13.933684
10100000,0.042081974,0.18359357,0.064303584,0.8503848,-0.25142503,-13.881604
10104000,0.034740478,0.18642753,0.06431257,0.8230456,-0.34001783,-13.91495
10108000,0.029853852,0.18515249,0.06541499,0.82228094,-0.37816614,-13.983928
10116000,0.037239365,0.17933494,0.06740191,0.8051966,-0.23735967,-13.948012
10120000,0.036327228,0.18286105,0.06272091,0.84925926,-0.2165869,-13.971242
10124000,0.03226133,0.1835332,0.054387867,0.8881361,-0.32095182,-14.001922
10128000,0.03701205,0.17944866,0.05570326,0.8349658,-0.34831423,-13.979977
10136000,0.030493535,0.1801497,0.058144655,0.8646205,-0.387632,-13.90217
10140000,0.028558347,0.1744553,0.055087727,0.7603441,-0.4135896,-13.8721075
10144000,0.024317779,0.17375268,0.052745238,0.75285417,-0.29805934,-13.809392
10148000,0.029069768,0.17490906,0.050094645,0.7850329,-0.2996421,-13.8760605
10152000,0.03489988,0.1787398,0.051506743,0.822856,-0.25389114,-13.90882
10160000,0.033010717,0.18335973,0.040672053,0.8785195,-0.3067311,-14.033556
10164000,0.031590976,0.17952242,0.044007313,0.84929276,-0.30043074,-13.985519
10168000,0.026146373,0.17841215,0.047214605,0.8572445,-0.29098868,-13.890082
10176000,0.028934356,0.17929898,0.050819278,0.87802047,-0.37605956,-13.932723
10180000,0.030959392,0.17969027,0.04486965,0.900117,-0.41721418,-13.942114
10184000,0.029407766,0.17445925,0.04653246,0.8454209,-0.32540178,-13.892796
10188000,0.023180818,0.17666915,0.044918403,0.8111995,-0.287887,-13.848848
10192000,0.02152846,0.1822273,0.04417708,0.7915287,-0.33931854,-13.806838
10196000,0.028270992,0.18055053,0.041142188,0.777739,-0.34549147,-13.808339
10200000,0.028627474,0.17117189,0.04584466,0.77717185,-0.36194053,-13.847916
10204000,0.02529717,0.17046723,0.053467996,0.78119755,-0.41215453,-13.855035
10208000,0.025274934,0.17714123,0.050979882,0.8542374,-0.41916308,-13.82364
10212000,0.019721666,0.17739171,0.0469171,0.80598694,-0.35036275,-13.780502
10216000,0.018746108,0.17443787,0.04684869,0.80362195,-0.32452568,-13.7699175
10220000,0.020405916,0.175425,0.04795601,0.85065824,-0.3479352,-13.749029
10224000,0.02273233,0.17603269,0.052857365,0.771816,-0.35711512,-13.8348
10232000,0.027563127,0.17305191,0.04399084,0.89155865,-0.373038,-13.773648
10236000,0.022019258,0.17179348,0.04575151,0.85305846,-0.3415093,-13.744297
10240000,0.019092029,0.17670579,0.052281734,0.81283945,-0.33022448,-13.728125
10248000,0.024762161,0.17012613,0.04853408,0.85683334,-0.48476073,-13.775744
10256000,0.011944509,0.17387637,0.046795644,0.8715321,-0.3721581,-13.692284
10260000,0.015364853,0.16417621,0.044587333,0.82177293,-0.42886388,-13.669942
10264000,0.019046765,0.16937423,0.047197767,0.7707848,-0.3854225,-13.659244
10272000,0.017531225,0.16943584,0.03777653,0.804955,-0.4381707,-13.634573
10276000,0.01575716,0.17187089,0.043316506,0.7848272,-0.37750912,-13.637181
10284000,0.015630333,0.1691079,0.04420134,0.92304224,-0.41095978,-13.740528
10288000,0.015313989,0.17537732,0.042598095,0.8794588,-0.47600758,-13.749304
10296000,0.010762355,0.17111531,0.049068294,0.85411644,-0.44869205,-13.72178
10300000,0.007450386,0.17059876,0.046390798,0.798343,-0.47607428,-13.670524
10304000,0.008554942,0.17198385,0.044199362,0.8215558,-0.45038718,-13.638749
10312000,0.020550044,0.17979233,0.051986363,0.9063907,-0.47970775,-13.626491
10316000,0.014652597,0.17755775,0.05623664,0.9148626,-0.49798226,-13.55178
10320000,0.012295652,0.17318828,0.056452725,0.8790831,-0.47338033,-13.586279
10328000,0.015904112,0.16858354,0.052825354,0.96301836,-0.44669715,-13.577239
10332000,0.014874323,0.17055592,0.055154726,0.9828253,-0.45142666,-13.582928
10336000,0.013309176,0.17281863,0.05678008,0.9584767,-0.4478908,-13.596217
10340000,0.014568278,0.16797513,0.05003102,0.9467865,-0.45560792,-13.58958
10344000,0.0157625,0.16917433,0.053821992,0.95909154,-0.43785006,-13.522259
10348000,0.016612865,0.17428176,0.05787023,0.9094833,-0.44937173,-13.5109415
10352000,0.013498872,0.1714734,0.05673937,0.9371919,-0.54435366,-13.566936
10356000,0.013736577,0.17428058,0.058429155,0.92210555,-0.49155366,-13.588517
10360000,0.020565158,0.17416519,0.056514513,0.85838,-0.42535707,-13.565944
10364000,0.015569958,0.16786134,0.059013795,0.8994079,-0.47849157,-13.64454
10372000,0.014927425,0.17502692,0.0644495,0.89040357,-0.5666086,-13.618638
10376000,0.012686376,0.17507018,0.06515838,0.8326352,-0.5788018,-13.657042
10380000,0.006113499,0.17660722,0.059394628,0.9162771,-0.5552853,-13.606542
10388000,0.012920253,0.17584904,0.06078434,0.9708768,-0.49515766,-13.575743
10392000,0.001984538,0.17129606,0.063686684,0.9789777,-0.4047733,-13.562071
10396000,0.005763693,0.17088963,0.071040556,0.9131175,-0.4651235,-13.596802
10404000,0.007698103,0.17017989,0.065585226,0.980247,-0.5623999,-13.5682535
10408000,0.013365744,0.17354979,0.068111315,1.0123482,-0.603321,-13.528505
10412000,0.007564957,0.17284419,0.07241404,1.0132592,-0.5311445,-13.549504
10416000,0.001704022,0.17494814,0.07015249,0.9434207,-0.51516414,-13.571568
10420000,0.002859549,0.17550144,0.06596856,0.9494236,-0.50269973,-13.55511
10424000,0.00743238,0.1694414,0.06523485,0.9332751,-0.4214733,-13.557691
10428000,0.008850634,0.17091362,0.06977849,0.9296477,-0.4278731,-13.552718
10432000,0.013449313,0.17514947,0.06600068,0.9336983,-0.49792737,-13.521557
10436000,0.014081955,0.17797336,0.06291662,0.9352495,-0.5218302,-13.543987
10440000,0.014794956,0.18183234,0.07179261,0.97476083,-0.51634234,-13.544755
10444000,0.014648783,0.18093826,0.070921354,0.9477903,-0.4849858,-13.587487
10448000,0.01455316,0.17436136,0.07279559,1.0206934,-0.47001183,-13.561665
10452000,0.013560435,0.17242846,0.07515945,1.0242568,-0.49716625,-13.489027
10456000,0.011107126,0.17998607,0.07738033,0.9762421,-0.5240965,-13.587548
10460000,0.008487701,0.18302798,0.07761093,0.98358804,-0.5224348,-13.565501
10468000,0.006410373,0.17927219,0.07095111,1.0116407,-0.58103704,-13.619085
10472000,0.001895141,0.182899,0.07022804,1.1150067,-0.53309685,-13.660483
10480000,0.008002339,0.18553823,0.07881355,1.0441737,-0.48434702,-13.565806
10488000,0.008704646,0.18424179,0.0828418,1.0255222,-0.49034995,-13.633622
10496000,-0.002142919,0.1838596,0.07515887,0.97511137,-0.4682642,-13.679423
10500000,-0.002314492,0.19269441,0.07455559,0.8671581,-0.46450302,-13.6256695
10508000,0.003131124,0.17804807,0.07828413,0.99150264,-0.49804348,-13.611634
10512000,0.010669407,0.17475419,0.07576887,1.0342577,-0.5147411,-13.619895
10516000,0.014398089,0.18619333,0.076328196,1.0339283,-0.5243673,-13.682197
10520000,0.007018598,0.1851678,0.07925878,1.0554656,-0.4636992,-13.74893
10528000,0.00385752,0.18555525,0.078688845,1.0675414,-0.57463354,-13.674785
10536000,0.006055883,0.18839036,0.07806559,1.0806346,-0.5138691,-13.724274
10540000,0.005431367,0.18774918,0.081537694,1.0790797,-0.5372851,-13.684669
10544000,0.003316366,0.18541615,0.077405006,1.0444219,-0.5683982,-13.695923
10552000,-0.007615574,0.18506296,0.07303273,1.0708711,-0.55039394,-13.723971
10560000,-0.005334675,0.18939278,0.06916344,1.1522933,-0.54798585,-13.758474
10564000,-0.000894668,0.19224013,0.07182313,1.0953733,-0.5289717,-13.736549
10568000,0.006157821,0.18899967,0.0775813,1.1180166,-0.5119894,-13.763973
10576000,-0.000288252,0.19910567,0.073508345,1.0710968,-0.6046395,-13.765513
10580000,0.003823179,0.19550987,0.07052395,1.1501871,-0.6254358,-13.74413
10584000,0.00562956,0.18996169,0.06939175,1.1653875,-0.58422303,-13.766334
10588000,-0.002480501,0.1871739,0.06855388,1.1681917,-0.5951293,-13.803488
10592000,-0.00651583,0.18982314,0.07454602,1.168364,-0.5644979,-13.865301
10596000,-0.000281298,0.19569547,0.069845214,1.151681,-0.4960395,-13.9150915
10600000,0.002483037,0.19028687,0.066686794,1.151681,-0.4960395,-13.9150915
10608000,-0.001653338,0.19880952,0.07271345,1.0569158,-0.5280648,-13.819744
10612000,0.006463156,0.19116248,0.07309047,1.0891745,-0.5304015,-13.817241
10616000,0.005568571,0.18976049,0.06954827,1.1463462,-0.45165697,-13.789979
10624000,0.001200987,0.19292468,0.062051326,1.0698606,-0.6146045,-13.881535
10628000,-0.000614182,0.1919509,0.06076461,1.0736525,-0.63023734,-13.922189
10632000,-0.000966993,0.19053724,0.069898576,1.1653844,-0.5486215,-13.906316
10640000,-0.004784659,0.19647123,0.06885178,1.1426123,-0.5165197,-13.738355
10648000,-0.011473029,0.19834821,0.06562232,1.1899216,-0.5806693,-13.850512
10652000,-9.39E-05,0.1969719,0.070969306,1.1116289,-0.5064072,-13.86095
10656000,0.001741758,0.19517003,0.06682137,1.1429406,-0.4514105,-13.876918
10660000,-0.002632068,0.19612122,0.06244019,1.1284246,-0.4710482,-13.906246
10664000,-0.002188479,0.19448,0.06773625,1.2137971,-0.5595009,-13.909135
10668000,-0.001700501,0.19178085,0.0685714,1.2509911,-0.58622575,-13.873218
10676000,-0.006592821,0.19713876,0.06452886,1.1969774,-0.56975806,-13.890901
10680000,-0.004590958,0.19604513,0.059510022,1.2349634,-0.5433179,-13.879337
10684000,-0.009268775,0.19178309,0.064085476,1.1952716,-0.5671245,-13.899598
10688000,-0.00765171,0.19113538,0.06465713,1.2064099,-0.62674314,-13.851224
10692000,-0.000883563,0.19187452,0.05748021,1.2090206,-0.62104636,-13.829478
10700000,-0.002151545,0.1883778,0.057725914,1.2220293,-0.6862753,-13.866249
10704000,-0.000190485,0.1928458,0.05799323,1.1767879,-0.6459123,-13.880602
10708000,-0.00204239,0.19860554,0.06294587,1.2683957,-0.5260962,-13.8526125
10712000,-0.007131516,0.2012657,0.05962486,1.3123744,-0.52188265,-13.844631
10716000,-0.004641906,0.19411375,0.06150013,1.1987966,-0.55882627,-13.920961
10720000,-0.008309594,0.191158,0.06200736,1.1379386,-0.5462837,-13.889476
10728000,-0.009489117,0.20143506,0.058896244,1.3172021,-0.5492872,-13.843316
10736000,-0.017498236,0.1930362,0.05637764,1.2932694,-0.5173345,-13.882969
10740000,-0.017845169,0.19600393,0.05369118,1.2796614,-0.53676844,-13.903608
10744000,-0.017428203,0.19826236,0.05745315,1.2752593,-0.57380617,-13.887143
10752000,-0.010565148,0.20176718,0.045728832,1.3363763,-0.6051832,-13.872648
10756000,-0.004016954,0.19949508,0.05429687,1.2592732,-0.69490486,-13.907063
10760000,-0.008607732,0.20493701,0.06106633,1.2398498,-0.6056215,-13.882974
10768000,-0.007101718,0.20188272,0.062562995,1.3457183,-0.51997757,-13.913119
10772000,-0.013161453,0.19773485,0.05681018,1.3731343,-0.5631457,-13.916158
10776000,-0.018464234,0.19842312,0.05696249,1.3629434,-0.59617126,-13.927691
10780000,-0.013941802,0.20462823,0.055219244,1.3123732,-0.5677824,-13.915489
10784000,-0.011871172,0.20244701,0.055279262,1.3174237,-0.6077877,-13.927684
10792000,-0.010668584,0.20705755,0.055582188,1.3225553,-0.59499913,-13.973241
10796000,-0.011271123,0.20081635,0.057142872,1.3004494,-0.61542124,-13.955564
10804000,-0.002229809,0.20324767,0.054478787,1.3260763,-0.6520499,-13.903266
10808000,-0.005972349,0.20210236,0.053100906,1.3546574,-0.55149233,-13.918669
10812000,-0.011325124,0.20089078,0.053474452,1.3694171,-0.5751991,-13.906504
10816000,-0.011416137,0.19526714,0.05372276,1.3699067,-0.66023517,-13.94369
10820000,-0.011838209,0.19551732,0.053396035,1.3525106,-0.66808724,-13.936599
10824000,-0.015506066,0.19851597,0.054602575,1.4380256,-0.6920629,-13.889743
10828000,-0.016848508,0.19808245,0.058747813,1.4219365,-0.6299008,-13.903852
10832000,-0.017586593,0.19929619,0.056614917,1.4069692,-0.6176031,-13.907444
10836000,-0.01673518,0.20096417,0.054314084,1.4484713,-0.6615703,-13.897929
10844000,-0.013808068,0.19712071,0.05574432,1.4136342,-0.6381717,-13.9218645
10848000,-0.011414829,0.19791889,0.058495216,1.3650548,-0.61679506,-13.959948
10852000,-0.016846782,0.19872756,0.055342488,1.42393,-0.63445103,-13.930684
10860000,-0.006828061,0.19445549,0.05303519,1.3752288,-0.69048065,-13.996386
10864000,-0.010780377,0.19803543,0.057252515,1.3882965,-0.6943718,-13.923823
10872000,-0.00955939,0.2004055,0.057959147,1.4114432,-0.72250676,-13.87243
10876000,-0.009227105,0.20791833,0.054736663,1.4747931,-0.7061,-13.903971
10880000,-0.008181353,0.20738617,0.0563011,1.4566602,-0.68778366,-13.873111
10884000,-0.010163287,0.20008428,0.054157637,1.4072049,-0.6467852,-13.821637
10888000,-0.013385181,0.20362073,0.052745108,1.4373828,-0.6074375,-13.872714
10892000,-0.01431631,0.2100754,0.056138232,1.417953,-0.5893025,-13.899962
10896000,-0.014976942,0.20418102,0.05808952,1.4204146,-0.5975719,-13.920038
10900000,-0.014591021,0.19954868,0.05524813,1.509631,-0.585846,-13.925787
10904000,-0.012463157,0.20397069,0.05497841,1.5277072,-0.56604075,-13.874986
10912000,-0.021096483,0.20295513,0.057879828,1.4691892,-0.716332,-13.940841
10916000,-0.016943187,0.20215319,0.05768609,1.5725656,-0.6613615,-14.010627
10920000,-0.015258816,0.19735047,0.05897887,1.5939062,-0.5707704,-14.0495405
10924000,-0.018991789,0.19573928,0.058761716,1.4462231,-0.5769928,-13.954338
10932000,-0.018735548,0.20503604,0.058068193,1.552261,-0.6606713,-13.886421
10936000,-0.025673974,0.20405844,0.057637576,1.5662574,-0.6400361,-13.887797
10940000,-0.021863287,0.20765862,0.062318865,1.537959,-0.6843998,-13.816505
10948000,-0.022557085,0.20419753,0.05878973,1.6172662,-0.68288445,-13.962506
10952000,-0.02174314,0.20720658,0.05997416,1.569063,-0.732243,-13.997544
10956000,-0.016913615,0.20630392,0.05288438,1.6074413,-0.72236687,-14.011786
10960000,-0.012429643,0.20029548,0.054605857,1.6639559,-0.6806684,-13.897991
10968000,-0.013755281,0.21092539,0.0579606,1.5579691,-0.7574614,-13.995215
10972000,-0.012751337,0.21785851,0.06279485,1.613732,-0.7074292,-14.011345
10976000,-0.020486612,0.20917849,0.062044904,1.6606694,-0.6389152,-13.929969
10980000,-0.022245646,0.20371516,0.05915524,1.6606694,-0.6389152,-13.929969
10988000,-0.026436275,0.19985448,0.05624363,1.6299609,-0.6690868,-14.018899
10992000,-0.023492089,0.20079277,0.05561881,1.7185751,-0.63947964,-13.999158
10996000,-0.020922542,0.20234255,0.05528175,1.7310652,-0.64164776,-14.045394
11000000,-0.019733679,0.19473183,0.059939828,1.6402823,-0.7506867,-14.049242
11004000,-0.01473926,0.19364627,0.06667943,1.6545256,-0.7645563,-14.00677
11008000,-0.015585707,0.1952875,0.0657608,1.6794925,-0.6944179,-13.954518
11012000,-0.016640302,0.19727422,0.05810642,1.6404068,-0.6806365,-13.997038
11016000,-0.014186878,0.20121668,0.055602264,1.6606784,-0.6976416,-14.032136
11020000,-0.019940415,0.20189045,0.059810713,1.688479,-0.64871997,-14.02193
11024000,-0.022826947,0.19832462,0.06267165,1.7040101,-0.62564105,-14.021962
11028000,-0.02187083,0.19889814,0.06315996,1.6752837,-0.67788005,-13.98291
11036000,-0.064402305,0.18978824,0.060383473,1.7232057,-0.70012254,-13.879421
11040000,-0.09620569,0.19218771,0.06721572,1.7041354,-0.65661883,-13.891936
11044000,-0.12939669,0.19698435,0.06765214,1.6333746,-0.6317975,-13.9548
11048000,-0.16473742,0.20154333,0.058663003,1.6396496,-0.6581533,-13.954299
11056000,-0.21613571,0.1928409,0.062443357,1.7406396,-0.6432824,-13.863312
11060000,-0.23998208,0.19088407,0.061470423,1.8293695,-0.6713334,-13.911399
11064000,-0.26855147,0.19138627,0.056535445,1.7219658,-0.7025172,-13.999173
11068000,-0.28995553,0.18618937,0.052610923,1.7005354,-0.70657754,-13.925453
11076000,-0.32037732,0.18583392,0.049730185,1.7551771,-0.6531398,-13.86814
11084000,-0.36486855,0.18118307,0.052255888,1.8243124,-0.6529677,-13.954598
11092000,-0.38717735,0.17740786,0.052338578,1.7578645,-0.7324051,-13.930053
11096000,-0.39837894,0.1767616,0.0481711,1.7941031,-0.743993,-13.864664
11100000,-0.4088652,0.173349,0.044835046,1.7975764,-0.7231435,-13.776482
11104000,-0.4236142,0.16994429,0.044335652,1.7761654,-0.7031433,-13.800734
11112000,-0.43690655,0.16818866,0.03765338,1.9385941,-0.8342559,-13.845975
11116000,-0.44998926,0.16615169,0.034503795,1.9058262,-0.7578706,-13.841063
11120000,-0.46392927,0.15956372,0.035841484,1.8784478,-0.7712801,-13.757518
11128000,-0.47808567,0.16092809,0.03509959,1.8599207,-0.7458569,-13.749555
11132000,-0.4878202,0.15842165,0.033627547,1.9540782,-0.750537,-13.780044
11136000,-0.48632136,0.1541519,0.03510306,1.9315723,-0.74272203,-13.725666
11140000,-0.49418658,0.15074357,0.032400347,1.8859829,-0.64015293,-13.707055
11144000,-0.5040527,0.14973724,0.030113036,1.8160026,-0.69456035,-13.751582
11148000,-0.50471467,0.14924419,0.03068611,1.8012605,-0.7544587,-13.684174
11152000,-0.51065874,0.15000738,0.027207356,1.9009827,-0.7177575,-13.5900955
11156000,-0.5139435,0.14681715,0.025293114,1.9583741,-0.7188355,-13.64549
11160000,-0.5143638,0.14080694,0.023998683,1.9100177,-0.7161803,-13.582084
11168000,-0.5248662,0.1372592,0.027748516,1.8763278,-0.7110444,-13.448596
11172000,-0.5266506,0.14094864,0.022292854,1.8096858,-0.6816447,-13.450713
11180000,-0.5361676,0.13605665,0.020302234,1.9545279,-0.6488765,-13.360868
11184000,-0.53783286,0.13197431,0.012359871,1.8909773,-0.6876073,-13.31239
11188000,-0.5378671,0.1288557,0.01761378,1.9624993,-0.70691776,-13.315754
11192000,-0.5417355,0.12855372,0.017649064,2.041215,-0.6867853,-13.236857
11196000,-0.542795,0.13111183,0.017559813,2.0044863,-0.72936153,-13.141605
11200000,-0.53965384,0.13395734,0.02343956,1.8989898,-0.76727134,-13.159297
11204000,-0.53945285,0.13182388,0.014495113,1.9608145,-0.71133316,-13.160988
11212000,-0.5480907,0.11374841,0.011541204,2.0084877,-0.7587459,-13.159979
11216000,-0.54813826,0.11732791,0.006298183,2.0142498,-0.76804894,-13.095672
11224000,-0.53429556,0.106898606,0.003665763,2.0276413,-0.81369686,-13.0075245
11228000,-0.5334695,0.106746286,0.00246089,2.0661862,-0.82192785,-13.022423
11236000,-0.5428459,0.10691386,0.008904684,2.142319,-0.7615366,-12.801135
11240000,-0.5492897,0.106713675,0.00594944,2.1457384,-0.73718107,-12.787958
11244000,-0.55243444,0.10119402,0.008547147,2.031491,-0.7734473,-12.81785
11248000,-0.5457198,0.096586965,0.012484024,2.0446758,-0.7932199,-12.735598
11252000,-0.5414686,0.09609998,0.007979726,2.1585844,-0.80785626,-12.706655
11260000,-0.54141194,0.0913374,0.001142277,2.1271427,-0.83688146,-12.730739
11264000,-0.5425235,0.09622747,0.005499868,2.0913234,-0.86501485,-12.672835
11268000,-0.54480946,0.09287651,0.004714289,2.0930092,-0.83093345,-12.53901
11272000,-0.5398184,0.09188823,-0.005745367,2.1480794,-0.8569689,-12.59489
11280000,-0.53503984,0.08377675,-0.005409819,2.2080333,-0.8892786,-12.436114
11284000,-0.53212297,0.076269016,-0.003386533,2.2041,-0.88287807,-12.373109
11288000,-0.5308605,0.07426627,-0.00759634,2.2055013,-0.8580958,-12.454593
11292000,-0.5319069,0.07118468,-0.008740123,2.2593799,-0.89932936,-12.471128
11296000,-0.53555185,0.07392819,-0.005562008,2.265596,-0.9196374,-12.408833
11300000,-0.53190607,0.07493576,-0.000758529,2.2129765,-0.8798186,-12.300449
11308000,-0.52859473,0.07150955,-0.007360624,2.2449174,-0.8505492,-12.248197
11312000,-0.5245155,0.07138954,-0.002156532,2.2224617,-0.8272211,-12.230788
11316000,-0.5188304,0.07125731,-0.005302389,2.2073092,-0.82044333,-12.137509
11324000,-0.5140827,0.06889306,-0.004777679,2.295741,-0.9096573,-12.074488
11328000,-0.51287115,0.07072577,-0.007679303,2.222455,-0.8410296,-12.104569
11336000,-0.505769,0.06907599,-0.008842322,2.3145235,-0.9179589,-11.971346
11340000,-0.49793714,0.06837122,-0.008318364,2.3591185,-0.8160582,-11.948082
11344000,-0.50319415,0.06600549,-0.013122762,2.4224591,-0.75964737,-11.908367
11348000,-0.5065752,0.064719506,-0.011204256,2.367782,-0.8161824,-11.82189
11352000,-0.49608505,0.059073787,-0.010096294,2.416354,-0.7900082,-11.79507
11356000,-0.49089274,0.060920462,-0.00761051,2.3864284,-0.8119867,-11.805802
11360000,-0.48812035,0.063620254,-0.007715347,2.243595,-0.8445382,-11.785266
11368000,-0.49645704,0.05526765,-0.008849233,2.3443267,-0.9220517,-11.67938
11376000,-0.4885601,0.053676218,-0.016585026,2.3757532,-0.8827798,-11.692019
11380000,-0.48905697,0.0497412,-0.014318854,2.4333642,-0.9423831,-11.688991
11388000,-0.48431203,0.046133764,-0.008821478,2.3885987,-0.97860783,-11.5385
11392000,-0.47899276,0.05192227,-0.011220202,2.3245566,-0.97432333,-11.585246
11400000,-0.48058018,0.051285833,-0.013964326,2.4608824,-0.92729783,-11.513695
11404000,-0.47341552,0.048361912,-0.018296111,2.4440336,-0.9512392,-11.412234
11408000,-0.47017178,0.052007537,-0.01872377,2.4499688,-0.9445072,-11.421198
11416000,-0.46634126,0.04889263,-0.012964412,2.4283085,-0.86758155,-11.43796
11420000,-0.45598623,0.053730294,-0.01628238,2.4237084,-0.9182067,-11.397701
11424000,-0.45456544,0.05401497,-0.013442255,2.5133111,-0.92207354,-11.3270855
11428000,-0.45510024,0.04971998,-0.019091077,2.5651126,-0.8543675,-11.391095
11432000,-0.45436785,0.0460909,-0.021302067,2.4266365,-0.8886731,-11.395425
11436000,-0.4515811,0.04871284,-0.018536901,2.409271,-0.938408,-11.324433
11440000,-0.45409426,0.05455705,-0.01676283,2.4554086,-0.9050921,-11.300348
11444000,-0.45251027,0.05514465,-0.015694268,2.4956772,-0.8763453,-11.250257
11452000,-0.4416213,0.04456728,-0.020292966,2.4798734,-0.8466227,-11.303521
11460000,-0.44158366,0.048540775,-0.017823137,2.5465193,-0.9179427,-11.251441
11464000,-0.43466863,0.056411553,-0.017163446,2.5929804,-0.9981524,-11.218517
11472000,-0.4329906,0.049756564,-0.029359858,2.4958098,-0.94163644,-11.124822
11476000,-0.4348697,0.048606988,-0.030661209,2.4586241,-0.97144186,-11.2090845
11484000,-0.43145332,0.04966103,-0.023359558,2.4716887,-0.9570227,-11.12945
11488000,-0.42143774,0.04605259,-0.020883387,2.5865562,-0.9381657,-11.119376
11492000,-0.41397008,0.047712706,-0.026543189,2.601096,-0.93531007,-11.149786
11500000,-0.4124402,0.050619718,-0.026946807,2.5292706,-0.99299467,-11.059234
11504000,-0.413714,0.051316638,-0.029886292,2.5194268,-0.9391824,-11.07101
11508000,-0.41154006,0.051343285,-0.02560015,2.564708,-0.90504795,-11.021831
11512000,-0.40834057,0.047065,-0.022741219,2.6373293,-0.9522503,-11.074261
11516000,-0.4044278,0.05008957,-0.022292534,2.626862,-0.95082873,-11.140681
11520000,-0.39936802,0.04400359,-0.024838878,2.619437,-1.0171957,-11.058321
11524000,-0.40280524,0.044739977,-0.027413141,2.6225467,-0.9896417,-10.937739
11528000,-0.4025893,0.051980726,-0.03003395,2.5860353,-0.92492336,-10.928563
11532000,-0.39730662,0.045038808,-0.025912723,2.6443536,-0.9800761,-11.02837
11536000,-0.39141762,0.04215888,-0.021062717,2.7209387,-1.0081711,-10.982548
11544000,-0.3902521,0.046985142,-0.026784321,2.6156368,-0.9593893,-10.961698
11548000,-0.38986194,0.046265315,-0.033172507,2.5756154,-1.051687,-10.918724
11552000,-0.38695663,0.05199013,-0.036664333,2.613251,-1.0173166,-10.907056
11556000,-0.3797212,0.049972422,-0.0368563,2.6344042,-0.9824982,-11.01322
11560000,-0.37347513,0.03638825,-0.034661252,2.6407824,-0.9741519,-11.021931
11564000,-0.37320882,0.03516755,-0.03217339,2.6570554,-0.9758535,-10.919583
11568000,-0.37420875,0.042736553,-0.03808864,2.6500235,-1.0128859,-10.935163
11572000,-0.36923555,0.045695767,-0.0405948,2.6370323,-0.98430556,-10.955801
11580000,-0.36611506,0.046405688,-0.037308913,2.6705523,-0.98571616,-10.890755
11588000,-0.36667967,0.05239086,-0.03159448,2.6961184,-0.9831222,-11.006858
11592000,-0.35594025,0.054147616,-0.0369669,2.7429082,-1.0226933,-10.947755
11600000,-0.35853454,0.04835277,-0.05015886,2.6794508,-0.9890304,-10.912976
11604000,-0.35347635,0.048047744,-0.05101862,2.6490505,-0.9965919,-10.896419
11608000,-0.35680094,0.048348784,-0.042429373,2.663367,-1.0059834,-10.899875
11612000,-0.35406032,0.045464523,-0.038219217,2.7364678,-0.98983413,-10.839877
11616000,-0.34834272,0.049792435,-0.044247184,2.7711473,-0.99304754,-10.886551
11620000,-0.34636074,0.045916397,-0.04798373,2.748553,-0.95187765,-10.941539
11628000,-0.3381946,0.052467752,-0.049210105,2.6021502,-1.0424671,-10.894825
11636000,-0.33736306,0.04670334,-0.050280683,2.7104244,-0.9326603,-10.804567
11640000,-0.34092492,0.04193406,-0.053261023,2.7183712,-0.90708727,-10.817182
11644000,-0.33758134,0.043642767,-0.047227,2.7479856,-0.9610264,-10.8027315
11648000,-0.32538956,0.049566276,-0.047515806,2.7628598,-0.9610027,-10.809079
11652000,-0.3239075,0.046771556,-0.0506882,2.727463,-0.93770504,-10.802752
11660000,-0.32039323,0.04481431,-0.049383696,2.7321272,-1.0009181,-10.7382555
11664000,-0.31317663,0.046517387,-0.042803463,2.7422574,-0.9924657,-10.769612
11668000,-0.31588897,0.04742203,-0.048081644,2.7465744,-1.0045567,-10.770159
11676000,-0.3101771,0.043582745,-0.055891637,2.7818582,-0.9525765,-10.746545
11680000,-0.30796784,0.038291097,-0.055526853,2.8626804,-0.99178106,-10.734738
11688000,-0.30966046,0.041974127,-0.059501145,2.7578661,-0.97999096,-10.851919
11692000,-0.30095065,0.040580455,-0.06854826,2.7700648,-1.0479836,-10.817008
11696000,-0.29954997,0.04212505,-0.068122394,2.7750893,-1.0695686,-10.796792
11700000,-0.3059575,0.040261034,-0.06306209,2.806877,-1.0620855,-10.741326
11704000,-0.30551723,0.04062901,-0.06345839,2.8426578,-1.0335782,-10.657882
11712000,-0.29997712,0.035295766,-0.060065117,2.8366117,-1.1027247,-10.571965
11720000,-0.29382843,0.032386057,-0.06861308,2.8614018,-0.94026613,-10.724311
11724000,-0.29465947,0.033467554,-0.06395102,2.895234,-1.0010839,-10.740722
11728000,-0.2909116,0.0347615,-0.06509121,2.8841958,-0.9787892,-10.713636
11736000,-0.2833112,0.030910838,-0.07034841,2.790117,-1.0353856,-10.585462
11740000,-0.27921435,0.03310152,-0.06885487,2.8821893,-0.9938265,-10.621034
11748000,-0.2741108,0.03882484,-0.07202958,2.861726,-1.0594622,-10.675158
11752000,-0.2747333,0.03849515,-0.06845305,2.8406327,-1.007266,-10.63527
11756000,-0.2719656,0.04200391,-0.072650194,2.360772,-0.9844906,-10.703067
11760000,-0.27961642,0.041867007,-0.07392219,1.545319,-0.85314494,-10.742277
11764000,-0.28494993,0.041295372,-0.07072982,0.8611449,-0.7701377,-10.777358
11772000,-0.30305183,0.04428486,-0.066458985,0.011740097,-0.71111333,-10.86082
11776000,-0.3156031,0.050432403,-0.060346305,-0.3173659,-0.7416587,-11.006682
11780000,-0.3237757,0.05640815,-0.05572112,-0.50992405,-0.7604558,-11.03047
11788000,-0.3419648,0.055345926,-0.05099554,-0.8928096,-0.5831304,-10.986926
11792000,-0.34989673,0.05825183,-0.051898163,-1.0412542,-0.61432785,-11.00141
11796000,-0.35287726,0.06541645,-0.04784567,-1.0367129,-0.64720505,-10.980021
11804000,-0.38122654,0.07739495,-0.046033867,-1.1584963,-0.5356584,-11.028458
11812000,-0.38914275,0.08813304,-0.041892864,-1.2254062,-0.549403,-11.009491
11816000,-0.3975354,0.08489388,-0.029915974,-1.2736984,-0.53359896,-11.112006
11820000,-0.40080854,0.085436486,-0.026983013,-1.2900945,-0.5820318,-11.170978
11828000,-0.4077768,0.09306091,-0.029529318,-1.3065292,-0.54803073,-11.197053
11832000,-0.40932122,0.09857141,-0.029079063,-1.3726962,-0.5658688,-11.151548
11836000,-0.42224982,0.10047861,-0.017657882,-1.2786862,-0.544158,-11.170017
11844000,-0.418622,0.10041558,-0.013198418,-1.2053461,-0.514665,-11.266012
11848000,-0.4299772,0.10129051,-0.0156297,-1.2308027,-0.47309622,-11.212064
11856000,-0.43296716,0.10621996,-0.006152562,-1.1453812,-0.49605113,-11.335878
11860000,-0.43472508,0.110541016,-0.000575295,-1.1447822,-0.48822793,-11.324827
11864000,-0.43527615,0.10529345,-0.00027113,-1.089585,-0.44316992,-11.318798
11868000,-0.44122648,0.10698551,-0.002799623,-1.0321494,-0.4846213,-11.325456
11872000,-0.4461361,0.103794985,-0.007785163,-1.1011235,-0.49057117,-11.398783
11876000,-0.44842726,0.10424811,-0.007966363,-1.0412983,-0.4793907,-11.483567
11880000,-0.44674546,0.11052177,-0.002101389,-0.9241249,-0.5361724,-11.437641
11888000,-0.44399425,0.10027981,0.00233343,-0.9037024,-0.46809024,-11.404483
11892000,-0.44017857,0.104354806,0.000875036,-0.9082085,-0.522661,-11.473417
11900000,-0.436304,0.10148583,0.007393135,-0.9180572,-0.41458836,-11.514486
11904000,-0.43874735,0.1025992,-0.00289441,-0.86059695,-0.41607955,-11.524009
11912000,-0.43188256,0.09379212,0.003781757,-0.726196,-0.36940175,-11.523872
11916000,-0.4296115,0.09388487,-0.001668845,-0.67394096,-0.4829017,-11.456469
11920000,-0.42476648,0.08696287,0.005804693,-0.69372696,-0.4800811,-11.476953
11928000,-0.41863003,0.08425447,0.004705977,-0.56408113,-0.41285607,-11.523537
11932000,-0.41910586,0.07676727,0.005203112,-0.53815234,-0.39944425,-11.425539
11940000,-0.41060337,0.07362833,-0.004777086,-0.50268644,-0.41892207,-11.391499
