timestamp,timestamp_sample,baro_device_id,baro_alt_meter,baro_temp_celcius,baro_pressure_pa,rho
1776000,1776000,6620172,399.60654,12.404602,96616.42,1.1479629
1800000,1800000,6620172,399.58777,12.404602,96616.64,1.1479656
1820000,1820000,6620172,399.62064,12.404602,96616.23,1.1479605
1848000,1848000,6620172,399.69104,12.404602,96615.44,1.1479512
1872000,1872000,6620172,399.5408,12.404602,96617.15,1.1479715
1896000,1896000,6620172,399.63,12.404602,96616.14,1.1479596
1920000,1920000,6620172,399.6394,12.404602,96616.055,1.1479585
1944000,1944000,6620172,399.57837,12.404602,96616.72,1.1479665
1964000,1964000,6620172,399.5408,12.404602,96617.164,1.1479717
1992000,1992000,6620172,399.60184,12.404602,96616.445,1.1479632
2012000,2012000,6620172,399.5314,12.404602,96617.31,1.1479735
2036000,2036000,6620172,399.39056,12.404602,96618.914,1.1479925
2064000,2064000,6620172,399.47037,12.404602,96618.01,1.1479818
2088000,2088000,6620172,399.60654,12.404602,96616.39,1.1479626
2108000,2108000,6620172,399.57837,12.404602,96616.73,1.1479665
2132000,2132000,6620172,399.57367,12.404602,96616.83,1.1479677
2160000,2160000,6620172,399.58777,12.404602,96616.63,1.1479654
2184000,2184000,6620172,399.77554,12.404602,96614.46,1.1479396
2208000,2208000,6620172,399.61124,12.404602,96616.35,1.1479621
2232000,2232000,6620172,399.57367,12.404602,96616.77,1.1479671
2256000,2256000,6620172,399.58777,12.404602,96616.6,1.1479651
2276000,2276000,6620172,399.58777,12.404602,96616.61,1.1479652
2300000,2300000,6620172,399.60184,12.404602,96616.445,1.1479632
2328000,2328000,6620172,399.51733,12.404602,96617.445,1.1479751
2352000,2352000,6620172,399.58777,12.404602,96616.61,1.1479652
2376000,2376000,6620172,399.68167,12.404602,96615.53,1.1479523
2400000,2400000,6620172,399.5455,12.404602,96617.13,1.1479714
2420000,2420000,6620172,399.6394,12.404602,96616.03,1.1479583
2444000,2444000,6620172,399.5314,12.404602,96617.305,1.1479734
2472000,2472000,6620172,399.6347,12.404602,96616.086,1.1479589
2492000,2492000,6620172,399.60654,12.404602,96616.41,1.1479627
2520000,2520000,6620172,399.47507,12.404602,96617.914,1.1479807
2540000,2540000,6620172,399.61594,12.404602,96616.33,1.1479619
2568000,2568000,6620172,399.57367,12.404602,96616.805,1.1479675
2588000,2588000,6620172,399.62064,12.404602,96616.23,1.1479605
2616000,2616000,6620172,399.42813,12.404602,96618.47,1.1479872
2636000,2636000,6620172,399.59244,12.404602,96616.58,1.1479648
2660000,2660000,6620172,399.67227,12.404602,96615.66,1.1479539
2684000,2684000,6620172,399.52203,12.404602,96617.39,1.1479744
2708000,2708000,6620172,399.56427,12.404602,96616.86,1.1479682
2732000,2732000,6620172,399.4469,12.404602,96618.28,1.147985
2756000,2756000,6620172,399.61594,12.404602,96616.336,1.1479619
2780000,2780000,6620172,399.51733,12.404602,96617.45,1.1479752
2808000,2808000,6620172,399.67697,12.404602,96615.59,1.147953
2828000,2828000,6620172,399.67227,12.404602,96615.64,1.1479536
2856000,2856000,6620172,399.5455,12.404602,96617.086,1.1479708
2880000,2880000,6620172,399.49387,12.404602,96617.7,1.1479782
2900000,2900000,6620172,399.57837,12.404602,96616.74,1.1479667
2924000,2924000,6620172,399.66757,12.404602,96615.72,1.1479546
2948000,2948000,6620172,399.75208,12.404602,96614.734,1.1479429
2972000,2972000,6620172,399.51263,12.404602,96617.5,1.1479757
2996000,2996000,6620172,399.52203,12.404602,96617.39,1.1479744
3020000,3020000,6620172,399.6347,12.404602,96616.086,1.1479589
3048000,3048000,6620172,399.5502,12.404602,96617.06,1.1479706
3072000,3072000,6620172,399.4516,12.404602,96618.18,1.1479838
3092000,3092000,6620172,399.68167,12.404602,96615.555,1.1479526
3116000,3116000,6620172,399.6441,12.404602,96615.98,1.1479577
3144000,3144000,6620172,399.60184,12.404602,96616.44,1.147963
3168000,3168000,6620172,399.60654,12.404602,96616.39,1.1479626
3188000,3188000,6620172,399.57837,12.404602,96616.73,1.1479665
3212000,3212000,6620172,399.6441,12.404602,96615.99,1.1479578
3236000,3236000,6620172,399.56897,12.404602,96616.836,1.1479678
3260000,3260000,6620172,399.47037,12.404602,96617.984,1.1479815
3284000,3284000,6620172,399.62064,12.404602,96616.23,1.1479605
3308000,3308000,6620172,399.52203,12.404602,96617.37,1.1479741
3332000,3332000,6620172,399.4657,12.404602,96618.02,1.147982
3356000,3356000,6620172,399.6347,12.404602,96616.086,1.1479589
3384000,3384000,6620172,399.5314,12.404602,96617.26,1.1479728
3404000,3404000,6620172,399.66287,12.404602,96615.79,1.1479554
3432000,3432000,6620172,399.47977,12.404602,96617.87,1.1479801
3452000,3452000,6620172,399.5549,12.404602,96617.02,1.1479701
3476000,3476000,6620172,399.66757,12.404602,96615.72,1.1479546
3500000,3500000,6620172,399.50323,12.404602,96617.59,1.1479769
3528000,3528000,6620172,399.5314,12.404602,96617.305,1.1479734
3548000,3548000,6620172,399.60184,12.404602,96616.46,1.1479634
3572000,3572000,6620172,399.52673,12.404602,96617.336,1.1479738
3596000,3596000,6620172,399.47507,12.404602,96617.945,1.147981
3620000,3620000,6620172,399.5502,12.404602,96617.055,1.1479704
3644000,3644000,6620172,399.56897,12.404602,96616.836,1.1479678
3668000,3668000,6620172,399.5361,12.404602,96617.2,1.1479722
3692000,3692000,6620172,399.6441,12.404602,96615.98,1.1479577
3720000,3720000,6620172,399.59714,12.404602,96616.516,1.147964
3740000,3740000,6620172,399.47977,12.404602,96617.87,1.1479801
3768000,3768000,6620172,399.59714,12.404602,96616.5,1.1479639
3788000,3788000,6620172,399.5455,12.404602,96617.12,1.1479712
3816000,3816000,6620172,399.6253,12.404602,96616.21,1.1479604
3836000,3836000,6620172,399.5549,12.404602,96617.02,1.1479701
3860000,3860000,6620172,399.60654,12.404602,96616.42,1.1479629
3888000,3888000,6620172,399.4657,12.404602,96618.02,1.147982
3912000,3912000,6620172,399.65817,12.404602,96615.805,1.1479555
3936000,3936000,6620172,399.60654,12.404602,96616.39,1.1479626
3960000,3960000,6620172,399.61594,12.404602,96616.336,1.1479619
3980000,3980000,6620172,399.7192,12.404602,96615.09,1.1479472
4004000,4004000,6620172,399.48917,12.404602,96617.79,1.1479791
4028000,4028000,6620172,399.6441,12.404602,96615.96,1.1479574
4052000,4052000,6620172,399.5596,12.404602,96616.98,1.1479695
4076000,4076000,6620172,399.47507,12.404602,96617.95,1.1479812
4100000,4100000,6620172,399.6394,12.404602,96616.055,1.1479585
4124000,4124000,6620172,399.61124,12.404602,96616.35,1.1479621
4148000,4148000,6620172,399.7286,12.404602,96614.984,1.1479459
4172000,4172000,6620172,399.58777,12.404602,96616.64,1.1479656
4200000,4200000,6620172,399.57837,12.404602,96616.72,1.1479665
4220000,4220000,6620172,399.5408,12.404602,96617.17,1.1479719
4244000,4244000,6620172,399.5361,12.404602,96617.24,1.1479727
4268000,4268000,6620172,399.7427,12.404602,96614.83,1.147944
4292000,4292000,6620172,399.59244,12.404602,96616.57,1.1479647
4316000,4316000,6620172,399.43753,12.404602,96618.36,1.1479859
4340000,4340000,6620172,399.70514,12.404602,96615.25,1.147949
4364000,4364000,6620172,399.62064,12.404602,96616.25,1.1479609
4392000,4392000,6620172,399.4516,12.404602,96618.195,1.147984
4412000,4412000,6620172,399.5455,12.404602,96617.1,1.147971
4440000,4440000,6620172,399.58777,12.404602,96616.62,1.1479652
4464000,4464000,6620172,399.66757,12.404602,96615.695,1.1479543
4488000,4488000,6620172,399.60654,12.404602,96616.38,1.1479625
4508000,4508000,6620172,399.6253,12.404602,96616.195,1.1479602
4532000,4532000,6620172,399.70044,12.404602,96615.32,1.1479498
4556000,4556000,6620172,399.59714,12.404602,96616.516,1.147964
4580000,4580000,6620172,399.6347,12.404602,96616.08,1.1479589
4604000,4604000,6620172,399.51263,12.404602,96617.52,1.147976
4628000,4628000,6620172,399.5314,12.404602,96617.305,1.1479734
4652000,4652000,6620172,399.62064,12.404602,96616.266,1.147961
4680000,4680000,6620172,399.58307,12.404602,96616.69,1.147966
4700000,4700000,6620172,399.62064,12.404602,96616.22,1.1479605
4724000,4724000,6620172,399.84598,12.404602,96613.64,1.1479299
4748000,4748000,6620172,399.66287,12.404602,96615.79,1.1479554
4775999,4775999,6620172,399.51263,12.404602,96617.52,1.147976
4800000,4800000,6620172,399.62064,12.404602,96616.266,1.147961
4823999,4823999,6620172,399.58777,12.404602,96616.62,1.1479652
4844000,4844000,6620172,399.6347,12.404602,96616.086,1.1479589
4868000,4868000,6620172,399.60654,12.404602,96616.41,1.1479627
4892000,4892000,6620172,399.63,12.404602,96616.125,1.1479594
4919999,4919999,6620172,399.58777,12.404602,96616.63,1.1479654
4940000,4940000,6620172,399.5596,12.404602,96616.92,1.1479689
4964000,4964000,6620172,399.68634,12.404602,96615.47,1.1479516
4988000,4988000,6620172,399.61594,12.404602,96616.33,1.1479619
5015999,5015999,6620172,399.6253,12.404602,96616.195,1.1479602
5036000,5036000,6620172,399.58307,12.404602,96616.695,1.1479661
5060000,5060000,6620172,399.461,12.404602,96618.086,1.1479827
5088000,5088000,6620172,399.5549,12.404602,96617.01,1.1479698
5112000,5112000,6620172,399.56427,12.404602,96616.91,1.1479686
5132000,5132000,6620172,399.77087,12.404602,96614.51,1.1479402
5160000,5160000,6620172,399.50323,12.404602,96617.56,1.1479765
5180000,5180000,6620172,399.67227,12.404602,96615.625,1.1479535
5204000,5204000,6620172,399.30606,12.404602,96619.85,1.1480037
5232000,5232000,6620172,399.5502,12.404602,96617.06,1.1479706
5252000,5252000,6620172,399.57367,12.404602,96616.805,1.1479675
5276000,5276000,6620172,399.60654,12.404602,96616.375,1.1479623
5304000,5304000,6620172,399.6488,12.404602,96615.89,1.1479566
5324000,5324000,6620172,399.63,12.404602,96616.11,1.1479592
5348000,5348000,6620172,399.47507,12.404602,96617.93,1.1479808
5372000,5372000,6620172,399.7192,12.404602,96615.14,1.1479477
5396000,5396000,6620172,399.6441,12.404602,96615.97,1.1479576
5420000,5420000,6620172,399.57367,12.404602,96616.8,1.1479673
5444000,5444000,6620172,399.58307,12.404602,96616.66,1.1479657
5468000,5468000,6620172,399.6394,12.404602,96616.055,1.1479585
5492000,5492000,6620172,399.76617,12.404602,96614.57,1.1479409
5516000,5516000,6620172,399.48917,12.404602,96617.75,1.1479787
5540000,5540000,6620172,399.61124,12.404602,96616.37,1.1479622
5564000,5564000,6620172,399.70044,12.404602,96615.34,1.14795
5588000,5588000,6620172,399.6394,12.404602,96616.055,1.1479585
5612000,5612000,6620172,399.5408,12.404602,96617.17,1.1479719
5640000,5640000,6620172,399.51263,12.404602,96617.48,1.1479754
5660000,5660000,6620172,399.52203,12.404602,96617.37,1.1479741
5688000,5688000,6620172,399.56897,12.404602,96616.836,1.1479678
5708000,5708000,6620172,399.60654,12.404602,96616.42,1.1479629
5736000,5736000,6620172,399.49857,12.404602,96617.64,1.1479774
5756000,5756000,6620172,399.60184,12.404602,96616.46,1.1479634
5780000,5780000,6620172,399.62064,12.404602,96616.25,1.1479609
5804000,5804000,6620172,399.52673,12.404602,96617.336,1.1479738
5828000,5828000,6620172,399.5455,12.404602,96617.13,1.1479714
5852000,5852000,6620172,399.57367,12.404602,96616.78,1.1479672
5876000,5876000,6620172,399.51733,12.404602,96617.445,1.1479751
5900000,5900000,6620172,399.56897,12.404602,96616.836,1.1479678
5924000,5924000,6620172,399.79904,12.404602,96614.19,1.1479363
5948000,5948000,6620172,399.49387,12.404602,96617.69,1.147978
5972000,5972000,6620172,399.47507,12.404602,96617.95,1.1479812
5996000,5996000,6620172,399.63,12.404602,96616.11,1.1479592
6020000,6020000,6620172,399.4469,12.404602,96618.25,1.1479846
6044000,6044000,6620172,399.49857,12.404602,96617.664,1.1479777
6068000,6068000,6620172,399.67697,12.404602,96615.6,1.1479532
6096000,6096000,6620172,399.52673,12.404602,96617.34,1.1479739
6116000,6116000,6620172,399.51263,12.404602,96617.51,1.1479758
6140000,6140000,6620172,399.51733,12.404602,96617.445,1.1479751
6164000,6164000,6620172,399.47507,12.404602,96617.9,1.1479805
6188000,6188000,6620172,399.6253,12.404602,96616.195,1.1479602
6212000,6212000,6620172,399.56897,12.404602,96616.836,1.1479678
6236000,6236000,6620172,399.74738,12.404602,96614.77,1.1479434
6260000,6260000,6620172,399.47977,12.404602,96617.84,1.1479799
6284000,6284000,6620172,399.5549,12.404602,96617.0,1.1479698
6312000,6312000,6620172,399.67227,12.404602,96615.61,1.1479533
6332000,6332000,6620172,399.3671,12.404602,96619.18,1.1479957
6356000,6356000,6620172,399.48447,12.404602,96617.83,1.1479796
6380000,6380000,6620172,399.7192,12.404602,96615.13,1.1479475
6404000,6404000,6620172,399.5455,12.404602,96617.1,1.147971
6428000,6428000,6620172,399.52203,12.404602,96617.38,1.1479744
6456000,6456000,6620172,399.7427,12.404602,96614.875,1.1479446
6480000,6480000,6620172,399.57837,12.404602,96616.75,1.1479669
6500000,6500000,6620172,399.51733,12.404602,96617.42,1.1479748
6524000,6524000,6620172,399.48917,12.404602,96617.79,1.1479791
6548000,6548000,6620172,399.61594,12.404602,96616.336,1.1479619
6572000,6572000,6620172,399.70044,12.404602,96615.36,1.1479503
6596000,6596000,6620172,399.42343,12.404602,96618.51,1.1479877
6620000,6620000,6620172,399.57837,12.404602,96616.73,1.1479665
6644000,6644000,6620172,399.69104,12.404602,96615.41,1.1479509
6668000,6668000,6620172,399.77554,12.404602,96614.44,1.1479393
6692000,6692000,6620172,399.50793,12.404602,96617.555,1.1479764
6720000,6720000,6620172,399.47507,12.404602,96617.92,1.1479807
6740000,6740000,6620172,399.42813,12.404602,96618.484,1.1479874
6764000,6764000,6620172,399.7427,12.404602,96614.82,1.1479439
6788000,6788000,6620172,399.60184,12.404602,96616.47,1.1479635
6812000,6812000,6620172,399.6253,12.404602,96616.19,1.1479602
6836000,6836000,6620172,399.5502,12.404602,96617.05,1.1479703
6860000,6860000,6620172,399.6253,12.404602,96616.18,1.1479601
6884000,6884000,6620172,399.59714,12.404602,96616.53,1.1479642
6912000,6912000,6620172,399.5314,12.404602,96617.31,1.1479735
6932000,6932000,6620172,399.5455,12.404602,96617.12,1.1479712
6960000,6960000,6620172,399.68167,12.404602,96615.53,1.1479523
6980000,6980000,6620172,399.6394,12.404602,96616.055,1.1479585
7004000,7004000,6620172,399.58777,12.404602,96616.62,1.1479652
7032000,7032000,6620172,399.5455,12.404602,96617.086,1.1479708
7052000,7052000,6620172,399.63,12.404602,96616.14,1.1479596
7076000,7076000,6620172,399.40933,12.404602,96618.67,1.1479896
7100000,7100000,6620172,399.42343,12.404602,96618.516,1.1479878
7124000,7124000,6620172,399.60184,12.404602,96616.47,1.1479635
7148000,7148000,6620172,399.60184,12.404602,96616.445,1.1479632
7172000,7172000,6620172,399.5455,12.404602,96617.13,1.1479714
7196000,7196000,6620172,399.5596,12.404602,96616.98,1.1479695
7224000,7224000,6620172,399.60654,12.404602,96616.39,1.1479626
7244000,7244000,6620172,399.42813,12.404602,96618.5,1.1479876
7268000,7268000,6620172,399.6394,12.404602,96616.02,1.1479582
7292000,7292000,6620172,399.8178,12.404602,96613.94,1.1479334
7316000,7316000,6620172,399.5314,12.404602,96617.26,1.1479728
7340000,7340000,6620172,399.59244,12.404602,96616.555,1.1479645
7364000,7364000,6620172,399.5455,12.404602,96617.09,1.1479709
7388000,7388000,6620172,399.8084,12.404602,96614.1,1.1479354
7412000,7412000,6620172,399.6441,12.404602,96615.945,1.1479572
7436000,7436000,6620172,399.39056,12.404602,96618.875,1.147992
7460000,7460000,6620172,399.61594,12.404602,96616.28,1.1479613
7488000,7488000,6620172,399.4657,12.404602,96618.04,1.1479821
7508000,7508000,6620172,399.65347,12.404602,96615.86,1.1479563
7532000,7532000,6620172,399.49857,12.404602,96617.63,1.1479774
7556000,7556000,6620172,399.86478,12.404602,96613.42,1.1479273
7580000,7580000,6620172,399.60184,12.404602,96616.44,1.147963
7604000,7604000,6620172,399.5455,12.404602,96617.09,1.1479709
7632000,7632000,6620172,399.49857,12.404602,96617.67,1.1479778
7652000,7652000,6620172,399.49387,12.404602,96617.74,1.1479787
7676000,7676000,6620172,399.4657,12.404602,96618.02,1.147982
7700000,7700000,6620172,399.56427,12.404602,96616.914,1.1479688
7724000,7724000,6620172,399.57367,12.404602,96616.83,1.1479677
7748000,7748000,6620172,399.58777,12.404602,96616.62,1.1479652
7772000,7772000,6620172,399.67227,12.404602,96615.61,1.1479533
7796000,7796000,6620172,399.5596,12.404602,96616.96,1.1479694
7820000,7820000,6620172,399.47507,12.404602,96617.95,1.1479812
7844000,7844000,6620172,399.4469,12.404602,96618.234,1.1479845
7872000,7872000,6620172,399.56427,12.404602,96616.89,1.1479685
7892000,7892000,6620172,399.50323,12.404602,96617.62,1.1479771
7920000,7920000,6620172,399.56897,12.404602,96616.836,1.1479678
7940000,7940000,6620172,399.7192,12.404602,96615.125,1.1479475
7964000,7964000,6620172,399.48917,12.404602,96617.78,1.147979
7992000,7992000,6620172,399.50323,12.404602,96617.59,1.1479769
8012000,8012000,6620172,399.58777,12.404602,96616.6,1.1479651
8036000,8036000,6620172,399.57837,12.404602,96616.73,1.1479665
8064000,8064000,6620172,399.65817,12.404602,96615.83,1.1479559
8084000,8084000,6620172,399.48917,12.404602,96617.805,1.1479794
8108000,8108000,6620172,399.65817,12.404602,96615.82,1.1479558
8132000,8132000,6620172,399.63,12.404602,96616.11,1.1479592
8156000,8156000,6620172,399.5361,12.404602,96617.23,1.1479725
8180000,8180000,6620172,399.60654,12.404602,96616.39,1.1479626
8204000,8204000,6620172,399.51263,12.404602,96617.49,1.1479757
8228000,8228000,6620172,399.69104,12.404602,96615.4,1.1479508
8252000,8252000,6620172,399.6488,12.404602,96615.91,1.1479568
8276000,8276000,6620172,399.61594,12.404602,96616.336,1.1479619
8300000,8300000,6620172,399.58777,12.404602,96616.64,1.1479656
8328000,8328000,6620172,399.5408,12.404602,96617.19,1.147972
8352000,8352000,6620172,399.59244,12.404602,96616.57,1.1479647
8372000,8372000,6620172,399.5596,12.404602,96616.95,1.1479692
8396000,8396000,6620172,399.49857,12.404602,96617.63,1.1479774
8424000,8424000,6620172,399.66757,12.404602,96615.695,1.1479543
8444000,8444000,6620172,399.39526,12.404602,96618.84,1.1479917
8468000,8468000,6620172,399.57367,12.404602,96616.805,1.1479675
8492000,8492000,6620172,399.60654,12.404602,96616.39,1.1479626
8520000,8520000,6620172,399.62064,12.404602,96616.23,1.1479605
8544000,8544000,6620172,399.66757,12.404602,96615.72,1.1479546
8564000,8564000,6620172,399.7427,12.404602,96614.83,1.147944
8592000,8592000,6620172,399.57367,12.404602,96616.77,1.1479671
8612000,8612000,6620172,399.48917,12.404602,96617.805,1.1479794
8636000,8636000,6620172,399.48447,12.404602,96617.81,1.1479795
8660000,8660000,6620172,399.70984,12.404602,96615.22,1.1479486
8684000,8684000,6620172,399.6394,12.404602,96616.016,1.147958
8708000,8708000,6620172,399.50323,12.404602,96617.56,1.1479765
8732000,8732000,6620172,399.58777,12.404602,96616.586,1.1479648
8756000,8756000,6620172,399.59244,12.404602,96616.57,1.1479647
8780000,8780000,6620172,399.66287,12.404602,96615.77,1.1479552
8808000,8808000,6620172,399.7427,12.404602,96614.85,1.1479442
8828000,8828000,6620172,399.5549,12.404602,96617.01,1.1479698
8852000,8852000,6620172,399.47037,12.404572,96617.98,1.1479814
8876000,8876000,6620172,399.60654,12.404572,96616.39,1.1479626
8904000,8904000,6620172,399.57837,12.404572,96616.73,1.1479665
8924000,8924000,6620172,399.68167,12.404541,96615.54,1.1479524
8948000,8948000,6620172,399.66287,12.404541,96615.79,1.1479554
8972000,8972000,6620172,399.66757,12.404541,96615.664,1.1479539
8996000,8996000,6620172,399.62064,12.4045105,96616.25,1.1479609
9020000,9020000,6620172,399.62064,12.4045105,96616.25,1.1479609
9044000,9044000,6620172,399.57367,12.40448,96616.81,1.1479676
9068000,9068000,6620172,399.6347,12.40448,96616.08,1.1479589
9092000,9092000,6620172,399.77554,12.40448,96614.44,1.1479393
9120000,9120000,6620172,399.62064,12.404449,96616.23,1.1479605
9140000,9140000,6620172,399.57837,12.404449,96616.766,1.147967
9164000,9164000,6620172,399.5361,12.404419,96617.22,1.1479723
9188000,9188000,6620172,399.69104,12.404419,96615.41,1.1479509
9212000,9212000,6620172,399.65817,12.404419,96615.836,1.147956
9236000,9236000,6620172,399.47507,12.404419,96617.94,1.1479809
9260000,9260000,6620172,399.68634,12.404388,96615.484,1.1479517
9284000,9284000,6620172,399.7239,12.404388,96615.08,1.147947
9308000,9308000,6620172,399.43753,12.404388,96618.375,1.1479862
9332000,9332000,6620172,399.6488,12.404388,96615.94,1.1479572
9356000,9356000,6620172,399.6488,12.404358,96615.92,1.147957
9380000,9380000,6620172,399.70984,12.404358,96615.234,1.1479489
9404000,9404000,6620172,399.70514,12.404327,96615.27,1.1479492
9428000,9428000,6620172,399.738,12.404327,96614.9,1.1479448
9452000,9452000,6620172,399.5314,12.404297,96617.28,1.1479732
9476000,9476000,6620172,399.70044,12.404236,96615.32,1.1479498
9500000,9500000,6620172,399.78964,12.404175,96614.31,1.1479379
9524000,9524000,6620172,399.63,12.404114,96616.13,1.1479595
9548000,9548000,6620172,399.6441,12.404022,96615.945,1.1479572
9572000,9572000,6620172,399.47977,12.403931,96617.875,1.1479802
9596000,9596000,6620172,399.7333,12.403809,96614.95,1.1479455
9620000,9620000,6620172,399.74738,12.403656,96614.76,1.1479431
9644000,9644000,6620172,399.58777,12.403503,96616.63,1.1479654
9668000,9668000,6620172,399.68634,12.40332,96615.47,1.1479516
9692000,9692000,6620172,399.70984,12.403137,96615.19,1.1479483
9716000,9716000,6620172,399.9023,12.402924,96612.945,1.1479216
9740000,9740000,6620172,399.80374,12.40271,96614.125,1.1479356
9764000,9764000,6620172,399.97275,12.402466,96612.18,1.1479125
9788000,9788000,6620172,399.9117,12.402252,96612.9,1.1479211
9812000,9812000,6620172,399.9164,12.401978,96612.8,1.1479199
9836000,9836000,6620172,400.17462,12.401703,96609.85,1.1478848
9864000,9864000,6620172,400.015,12.401428,96611.7,1.1479069
9888000,9888000,6620172,400.15585,12.401154,96610.07,1.1478875
9908000,9908000,6620172,400.16525,12.400848,96609.945,1.1478859
9932000,9932000,6620172,400.27322,12.400513,96608.69,1.147871
9956000,9956000,6620172,400.38123,12.4002075,96607.45,1.1478564
9980000,9980000,6620172,400.3202,12.399841,96608.13,1.1478645
10008000,10008000,6620172,400.53616,12.399506,96605.68,1.1478353
10028000,10028000,6620172,400.4141,12.399139,96607.1,1.1478522
10052000,10052000,6620172,400.46573,12.398743,96606.445,1.1478444
10076000,10076000,6620172,400.64413,12.398346,96604.414,1.1478202
10100000,10100000,6620172,400.62067,12.397949,96604.7,1.1478237
10124000,10124000,6620172,400.70047,12.397522,96603.78,1.1478127
10148000,10148000,6620172,400.64883,12.397064,96604.39,1.14782
10172000,10172000,6620172,400.9446,12.396606,96600.96,1.1477792
10196000,10196000,6620172,401.02444,12.396149,96600.01,1.1477679
10220000,10220000,6620172,401.02444,12.39566,96600.055,1.1477685
10244000,10244000,6620172,400.88358,12.395172,96601.63,1.1477872
10268000,10268000,6620172,401.09955,12.394653,96599.15,1.1477576
10292000,10292000,6620172,401.17468,12.3941345,96598.28,1.1477474
10320000,10320000,6620172,401.3531,12.393616,96596.21,1.1477227
10340000,10340000,6620172,401.3484,12.393066,96596.266,1.1477234
10364000,10364000,6620172,401.4517,12.392487,96595.1,1.1477096
10388000,10388000,6620172,401.73807,12.391937,96591.78,1.1476701
10412000,10412000,6620172,401.65826,12.391357,96592.69,1.1476809
10440000,10440000,6620172,401.57376,12.390747,96593.664,1.1476926
10460000,10460000,6620172,401.78033,12.390137,96591.28,1.1476642
10484000,10484000,6620172,401.93997,12.389496,96589.46,1.1476426
10508000,10508000,6620172,401.94934,12.3888855,96589.37,1.1476414
10532000,10532000,6620172,402.01038,12.388214,96588.64,1.1476328
10556000,10556000,6620172,402.20758,12.387543,96586.37,1.1476058
10580000,10580000,6620172,402.3719,12.386871,96584.44,1.1475829
10608000,10608000,6620172,402.35312,12.3862,96584.68,1.1475857
10628000,10628000,6620172,402.30148,12.385498,96585.27,1.1475928
10652000,10652000,6620172,402.4658,12.384766,96583.375,1.1475703
10676000,10676000,6620172,402.67706,12.384033,96580.92,1.1475412
10700000,10700000,6620172,402.7569,12.383301,96580.01,1.1475303
10724000,10724000,6620172,402.89304,12.382538,96578.445,1.1475117
10748000,10748000,6620172,402.9259,12.381775,96578.055,1.1475071
10772000,10772000,6620172,403.16068,12.380981,96575.32,1.1474745
10796000,10796000,6620172,403.39072,12.380188,96572.66,1.1474429
10820000,10820000,6620172,403.39072,12.379364,96572.67,1.147443
10844000,10844000,6620172,403.54095,12.37854,96570.93,1.1474224
10868000,10868000,6620172,403.65833,12.377686,96569.625,1.1474069
10892000,10892000,6620172,403.72406,12.376831,96568.81,1.1473973
10916000,10916000,6620172,404.04333,12.375977,96565.13,1.1473535
10940000,10940000,6620172,404.21234,12.375092,96563.2,1.1473306
10964000,10964000,6620172,404.26398,12.374176,96562.62,1.1473236
10988000,10988000,6620172,404.4142,12.3732605,96560.84,1.1473025
11012000,11012000,6620172,404.58325,12.372345,96558.93,1.1472799
11036000,11036000,6620172,404.68655,12.371399,96557.734,1.1472657
11060000,11060000,6620172,404.88373,12.370453,96555.44,1.1472384
11084000,11084000,6620172,405.06683,12.369476,96553.305,1.147213
11108000,11108000,6620172,405.15134,12.3685,96552.33,1.1472014
11132000,11132000,6620172,405.32974,12.367493,96550.305,1.1471773
11156000,11156000,6620172,405.42365,12.366486,96549.234,1.1471646
11180000,11180000,6620172,405.65842,12.3654785,96546.49,1.147132
11204000,11204000,6620172,405.8509,12.364441,96544.234,1.1471052
11228000,11228000,6620172,405.9683,12.363403,96542.94,1.1470898
11252000,11252000,6620172,406.08566,12.362335,96541.56,1.1470735
11276000,11276000,6620172,406.2359,12.361267,96539.805,1.1470525
11300000,11300000,6620172,406.4002,12.360168,96537.93,1.1470304
11324000,11324000,6620172,406.5974,12.3591,96535.63,1.147003
11348000,11348000,6620172,406.71948,12.358002,96534.25,1.1469866
11372000,11372000,6620172,406.9871,12.356903,96531.12,1.1469494
11400000,11400000,6620172,407.09976,12.355774,96529.83,1.146934
11420000,11420000,6620172,407.23593,12.354645,96528.25,1.1469153
11444000,11444000,6620172,407.4472,12.353546,96525.8,1.1468861
11468000,11468000,6620172,407.7148,12.352386,96522.74,1.1468499
11492000,11492000,6620172,407.8228,12.351257,96521.5,1.1468351
11520000,11520000,6620172,407.96835,12.350128,96519.84,1.1468154
11540000,11540000,6620172,408.2172,12.3489685,96516.92,1.1467807
11564000,11564000,6620172,408.2219,12.347809,96516.914,1.1467806
11588000,11588000,6620172,408.62097,12.346649,96512.29,1.1467257
11612000,11612000,6620172,408.7477,12.3454895,96510.81,1.1467081
11636000,11636000,6620172,408.94022,12.34433,96508.57,1.1466814
11660000,11660000,6620172,408.90735,12.34314,96508.94,1.1466858
11684000,11684000,6620172,409.13272,12.341949,96506.37,1.1466553
11708000,11708000,6620172,409.4285,12.34079,96502.914,1.1466143
11732000,11732000,6620172,409.67734,12.3396,96500.07,1.1465805
11756000,11756000,6620172,409.82288,12.338409,96498.37,1.1465602
11780000,11780000,6620172,409.8933,12.337219,96497.55,1.1465505
11808000,11808000,6620172,410.21255,12.335999,96493.86,1.1465067
11828000,11828000,6620172,410.34872,12.334808,96492.34,1.1464887
11852000,11852000,6620172,410.68207,12.333618,96488.46,1.1464425
11876000,11876000,6620172,410.80414,12.332428,96487.06,1.146426
11900000,11900000,6620172,410.9262,12.331238,96485.67,1.1464094
11924000,11924000,6620172,411.17975,12.330017,96482.74,1.1463746
11948000,11948000,6620172,411.30652,12.328827,96481.266,1.146357
11972000,11972000,6620172,411.4192,12.327606,96480.01,1.146342
11996000,11996000,6620172,411.61636,12.326416,96477.68,1.1463144
12020000,12020000,6620172,411.7901,12.325195,96475.695,1.1462909
12044000,12044000,6620172,411.8699,12.324005,96474.76,1.1462797
12068000,12068000,6620172,412.18918,12.322815,96471.055,1.1462357
12096000,12096000,6620172,412.37228,12.321594,96468.95,1.1462108
12116000,12116000,6620172,412.43802,12.320404,96468.22,1.146202
12140000,12140000,6620172,412.58826,12.319214,96466.445,1.146181
12164000,12164000,6620172,412.9122,12.318024,96462.734,1.1461369
12188000,12188000,6620172,413.1094,12.316864,96460.445,1.1461097
12216000,12216000,6620172,413.2878,12.315674,96458.4,1.1460854
12236000,12236000,6620172,413.46622,12.314545,96456.32,1.1460607
12260000,12260000,6620172,413.7714,12.313385,96452.805,1.1460189
12284000,12284000,6620172,413.73853,12.312256,96453.19,1.1460234
12308000,12308000,6620172,414.01083,12.311127,96450.055,1.1459862
12332000,12332000,6620172,414.20334,12.309998,96447.86,1.1459601
12356000,12356000,6620172,414.36765,12.308899,96445.914,1.145937
12380000,12380000,6620172,414.39114,12.307831,96445.68,1.1459342
12404000,12404000,6620172,414.74326,12.306732,96441.586,1.1458856
12428000,12428000,6620172,414.7996,12.305664,96440.945,1.145878
12452000,12452000,6620172,415.1564,12.304626,96436.83,1.1458291
12476000,12476000,6620172,415.19397,12.303558,96436.38,1.1458237
12500000,12500000,6620172,415.37708,12.302521,96434.27,1.1457987
12524000,12524000,6620172,415.37708,12.301483,96434.3,1.1457989
12548000,12548000,6620172,415.5508,12.300476,96432.3,1.1457752
12572000,12572000,6620172,415.88416,12.299438,96428.43,1.1457293
12596000,12596000,6620172,415.91232,12.298431,96428.09,1.1457253
12624000,12624000,6620172,416.06726,12.297455,96426.33,1.1457043
12644000,12644000,6620172,416.25974,12.296448,96424.08,1.1456776
12668000,12668000,6620172,416.28323,12.295471,96423.81,1.1456743
12692000,12692000,6620172,416.43347,12.294464,96422.11,1.1456542
12716000,12716000,6620172,416.60718,12.293488,96420.06,1.1456299
12740000,12740000,6620172,416.9734,12.292511,96415.86,1.1455799
12763999,12763999,6620172,417.09546,12.291565,96414.47,1.1455634
12788000,12788000,6620172,417.0673,12.290588,96414.8,1.1455673
12812000,12812000,6620172,417.3396,12.289642,96411.67,1.1455301
12836000,12836000,6620172,417.4241,12.288666,96410.63,1.1455178
12859999,12859999,6620172,417.65884,12.28772,96407.94,1.1454858
12884000,12884000,6620172,417.6964,12.286774,96407.54,1.145481
12908000,12908000,6620172,417.89832,12.285828,96405.195,1.1454532
12932000,12932000,6620172,418.16122,12.284912,96402.19,1.1454175
12960000,12960000,6620172,418.08142,12.283966,96403.08,1.1454281
12984000,12984000,6620172,418.33023,12.283051,96400.21,1.145394
13004000,13004000,6620172,418.44293,12.282135,96398.914,1.1453786
13028000,13028000,6620172,418.60724,12.281189,96397.0,1.1453558
13051999,13051999,6620172,418.68707,12.280273,96396.11,1.1453452
13076000,13076000,6620172,419.01572,12.279388,96392.31,1.1453001
13100000,13100000,6620172,419.15186,12.278473,96390.695,1.145281
13124000,13124000,6620172,419.17065,12.277557,96390.49,1.1452785
13147999,13147999,6620172,419.28333,12.276672,96389.23,1.1452634
13172000,13172000,6620172,419.52747,12.275757,96386.37,1.1452295
13196000,13196000,6620172,419.6918,12.274872,96384.52,1.1452075
13219999,13219999,6620172,419.74814,12.273987,96383.86,1.1451997
13244000,13244000,6620172,419.79977,12.273102,96383.24,1.1451924
13272000,13272000,6620172,419.9641,12.272217,96381.375,1.1451702
13292000,13292000,6620172,419.99698,12.271332,96380.98,1.1451654
13320000,13320000,6620172,420.21295,12.270447,96378.49,1.1451359
13340000,13340000,6620172,420.2693,12.269562,96377.83,1.145128
13364000,13364000,6620172,420.5275,12.268677,96374.87,1.1450928
13388000,13388000,6620172,420.61203,12.267822,96373.914,1.1450815
13411999,13411999,6620172,420.67773,12.266937,96373.16,1.1450726
13436000,13436000,6620172,420.92188,12.266083,96370.3,1.1450386
13460000,13460000,6620172,420.96414,12.265198,96369.836,1.1450331
13484000,13484000,6620172,421.13785,12.264343,96367.81,1.145009
13508000,13508000,6620172,421.27402,12.263458,96366.25,1.1449904
13532000,13532000,6620172,421.50406,12.262604,96363.59,1.1449589
13556000,13556000,6620172,421.73413,12.261749,96360.94,1.1449274
13580000,13580000,6620172,421.5745,12.260895,96362.8,1.1449494
13604000,13604000,6620172,421.92664,12.26004,96358.7,1.1449008
13628000,13628000,6620172,422.00174,12.259186,96357.88,1.144891
13652000,13652000,6620172,422.17545,12.258331,96355.875,1.1448672
13676000,13676000,6620172,422.28345,12.257477,96354.586,1.1448519
13700000,13700000,6620172,422.35855,12.256622,96353.75,1.1448419
13724000,13724000,6620172,422.40552,12.255768,96353.19,1.1448352
13748000,13748000,6620172,422.68253,12.254944,96350.016,1.1447976
13772000,13772000,6620172,422.73416,12.254089,96349.42,1.1447905
13796000,13796000,6620172,422.8797,12.253235,96347.75,1.1447706
13824000,13824000,6620172,423.09097,12.252411,96345.32,1.1447418
13848000,13848000,6620172,423.36798,12.251556,96342.09,1.1447034
13868000,13868000,6620172,423.21304,12.250732,96343.87,1.1447245
13892000,13892000,6620172,423.43842,12.249878,96341.28,1.1446939
13916000,13916000,6620172,423.60742,12.249054,96339.375,1.1446712
13940000,13940000,6620172,423.5511,12.248199,96340.01,1.1446787
13964000,13964000,6620172,423.7389,12.2473755,96337.85,1.1446531
13988000,13988000,6620172,423.95956,12.2465515,96335.266,1.1446223
14012000,14012000,6620172,424.15674,12.245697,96333.016,1.1445956
14036000,14036000,6620172,423.89853,12.244873,96335.98,1.1446308
14060000,14060000,6620172,424.26004,12.244049,96331.82,1.1445814
14084000,14084000,6620172,424.44315,12.243225,96329.695,1.1445562
14108000,14108000,6620172,424.61218,12.242401,96327.79,1.1445335
14132000,14132000,6620172,424.61218,12.241577,96327.8,1.1445336
14156000,14156000,6620172,424.7906,12.240753,96325.73,1.144509
14180000,14180000,6620172,424.92673,12.239929,96324.18,1.1444906
14204000,14204000,6620172,424.94553,12.239105,96323.9,1.1444873
14228000,14228000,6620172,425.21783,12.238281,96320.77,1.1444501
14252000,14252000,6620172,425.22253,12.237457,96320.76,1.14445
14276000,14276000,6620172,425.39624,12.236633,96318.73,1.1444257
14300000,14300000,6620172,425.5183,12.235809,96317.33,1.1444092
14324000,14324000,6620172,425.63098,12.235016,96316.02,1.1443937
14348000,14348000,6620172,425.83755,12.234192,96313.66,1.1443655
14372000,14372000,6620172,425.98312,12.233368,96311.93,1.144345
14396000,14396000,6620172,426.1005,12.232544,96310.61,1.1443293
14420000,14420000,6620172,426.25543,12.2317505,96308.85,1.1443084
14444000,14444000,6620172,426.2648,12.2309265,96308.68,1.1443064
14468000,14468000,6620172,426.5371,12.230103,96305.58,1.1442696
14492000,14492000,6620172,426.62164,12.229309,96304.58,1.1442577
14520000,14520000,6620172,426.76248,12.228485,96303.0,1.144239
14540000,14540000,6620172,426.86578,12.227692,96301.8,1.1442246
14564000,14564000,6620172,426.99722,12.226868,96300.25,1.1442063
14588000,14588000,6620172,426.75308,12.226074,96303.09,1.14424
14612000,14612000,6620172,427.2226,12.22525,96297.67,1.1441756
14636000,14636000,6620172,427.24606,12.224457,96297.414,1.1441725
14664000,14664000,6620172,427.56064,12.223663,96293.79,1.1441295
14684000,14684000,6620172,427.57004,12.222839,96293.68,1.1441282
14708000,14708000,6620172,427.63107,12.222046,96292.945,1.1441195
14732000,14732000,6620172,427.71558,12.221252,96291.97,1.1441079
14756000,14756000,6620172,427.94092,12.220428,96289.414,1.1440775
14780000,14780000,6620172,428.0724,12.219635,96287.875,1.1440592
14804000,14804000,6620172,428.1569,12.218842,96286.9,1.1440476
14828000,14828000,6620172,428.21326,12.218048,96286.27,1.1440402
14852000,14852000,6620172,428.5325,12.217255,96282.58,1.1439964
14876000,14876000,6620172,428.41983,12.216431,96283.89,1.1440119
14900000,14900000,6620172,428.56537,12.215637,96282.234,1.1439922
14924000,14924000,6620172,428.725,12.214844,96280.34,1.1439698
14948000,14948000,6620172,428.93628,12.21405,96277.89,1.1439406
14972000,14972000,6620172,428.95505,12.213257,96277.695,1.1439383
14996000,14996000,6620172,429.08652,12.212463,96276.18,1.1439203
15020000,15020000,6620172,429.33536,12.21167,96273.31,1.1438862
15044000,15044000,6620172,429.33066,12.210876,96273.36,1.1438868
15068000,15068000,6620172,429.6687,12.2100525,96269.46,1.1438404
15092000,15092000,6620172,429.51376,12.209259,96271.27,1.143862
15116000,15116000,6620172,429.91754,12.208466,96266.586,1.1438063
15140000,15140000,6620172,429.96918,12.207672,96266.03,1.1437997
15164000,15164000,6620172,430.08655,12.206879,96264.69,1.1437837
15188000,15188000,6620172,430.326,12.206085,96261.93,1.1437509
15212000,15212000,6620172,430.326,12.205292,96261.9,1.1437505
15240000,15240000,6620172,430.22742,12.204498,96263.04,1.1437641
15260000,15260000,6620172,430.6218,12.203705,96258.49,1.1437101
15284000,15284000,6620172,430.75323,12.202911,96257.016,1.1436926
15308000,15308000,6620172,430.7157,12.202148,96257.44,1.1436976
15332000,15332000,6620172,430.8753,12.201355,96255.56,1.1436753
15356000,15356000,6620172,430.95044,12.200562,96254.73,1.1436654
15380000,15380000,6620172,431.09598,12.199768,96253.05,1.1436454
15404000,15404000,6620172,431.25092,12.198975,96251.266,1.1436243
15428000,15428000,6620172,431.18518,12.198181,96251.99,1.1436329
15452000,15452000,6620172,431.41055,12.197388,96249.38,1.1436019
15480000,15480000,6620172,431.62183,12.196594,96246.97,1.1435732
15500000,15500000,6620172,431.66406,12.195831,96246.5,1.1435677
15524000,15524000,6620172,431.9364,12.195038,96243.375,1.1435305
15548000,15548000,6620172,431.9364,12.194244,96243.37,1.1435304
15572000,15572000,6620172,432.16644,12.193451,96240.695,1.1434987
15600000,15600000,6620172,432.17584,12.192657,96240.58,1.1434972
15620000,15620000,6620172,432.25565,12.191895,96239.664,1.1434864
15644000,15644000,6620172,432.42935,12.191101,96237.66,1.1434625
15668000,15668000,6620172,432.55142,12.190308,96236.24,1.1434457
15692000,15692000,6620172,432.65472,12.189545,96235.05,1.1434315
15720000,15720000,6620172,432.7909,12.188751,96233.516,1.1434133
15740000,15740000,6620172,432.8613,12.187958,96232.69,1.1434035
15764000,15764000,6620172,433.0491,12.187195,96230.53,1.1433779
15788000,15788000,6620172,433.0585,12.186401,96230.414,1.1433765
15812000,15812000,6620172,433.2369,12.185608,96228.36,1.1433522
15836000,15836000,6620172,433.38715,12.184845,96226.66,1.1433319
15864000,15864000,6620172,433.59842,12.1840515,96224.2,1.1433027
15888000,15888000,6620172,433.69232,12.183289,96223.1,1.1432896
15908000,15908000,6620172,433.83786,12.182495,96221.44,1.1432699
15932000,15932000,6620172,433.97873,12.181732,96219.8,1.1432503
15956000,15956000,6620172,434.0022,12.180939,96219.57,1.1432477
15980000,15980000,6620172,434.0867,12.180176,96218.59,1.143236
16004000,16004000,6620172,434.30267,12.179382,96216.11,1.1432066
16028000,16028000,6620172,434.5515,12.178619,96213.21,1.1431721
16052000,16052000,6620172,434.59375,12.177826,96212.75,1.1431667
16080000,16080000,6620172,434.57968,12.177063,96212.91,1.1431684
16100000,16100000,6620172,434.72052,12.1763,96211.3,1.1431494
16124000,16124000,6620172,434.92242,12.175507,96208.97,1.1431217
16148000,16148000,6620172,434.9553,12.174744,96208.555,1.1431168
16172000,16172000,6620172,435.17126,12.173981,96206.086,1.1430875
16196000,16196000,6620172,435.0257,12.173187,96207.8,1.1431078
16220000,16220000,6620172,435.16187,12.172424,96206.18,1.1430886
16244000,16244000,6620172,435.47644,12.171661,96202.55,1.1430454
16268000,16268000,6620172,435.5703,12.170898,96201.49,1.1430329
16292000,16292000,6620172,435.80978,12.1701355,96198.76,1.1430004
16316000,16316000,6620172,435.70178,12.169373,96199.95,1.1430146
16340000,16340000,6620172,435.83795,12.168579,96198.38,1.142996
16364000,16364000,6620172,436.19006,12.167816,96194.34,1.1429479
16388000,16388000,6620172,436.12903,12.167053,96195.08,1.1429566
16412000,16412000,6620172,436.21353,12.16629,96194.055,1.1429445
16436000,16436000,6620172,436.5187,12.165527,96190.555,1.142903
16460000,16460000,6620172,436.33093,12.164764,96192.76,1.1429291
16484000,16484000,6620172,436.5328,12.164001,96190.414,1.1429012
16508000,16508000,6620172,436.7112,12.163269,96188.37,1.1428769
16532000,16532000,6620172,436.79572,12.162506,96187.375,1.1428652
16556000,16556000,6620172,437.03516,12.161743,96184.61,1.1428323
16580000,16580000,6620172,437.04456,12.16098,96184.516,1.1428312
16604000,16604000,6620172,437.12906,12.160217,96183.55,1.1428196
16628000,16628000,6620172,437.1901,12.159454,96182.85,1.1428114
16652000,16652000,6620172,437.4671,12.158722,96179.67,1.1427736
16676000,16676000,6620172,437.4624,12.157959,96179.695,1.1427739
16700000,16700000,6620172,437.51407,12.157196,96179.12,1.1427671
16724000,16724000,6620172,437.561,12.156464,96178.555,1.1427603
16748000,16748000,6620172,437.95538,12.155701,96174.04,1.1427066
16772000,16772000,6620172,437.88965,12.154938,96174.766,1.1427153
16796000,16796000,6620172,438.26996,12.154205,96170.44,1.1426638
16820000,16820000,6620172,438.2277,12.153442,96170.91,1.1426694
16844000,16844000,6620172,438.43896,12.15271,96168.484,1.1426407
16868000,16868000,6620172,438.55167,12.151947,96167.17,1.1426251
16892000,16892000,6620172,438.5986,12.151184,96166.61,1.1426184
16916000,16916000,6620172,438.777,12.150452,96164.56,1.1425941
16940000,16940000,6620172,438.7911,12.149719,96164.42,1.1425924
16964000,16964000,6620172,438.91788,12.148956,96162.945,1.1425749
16988000,16988000,6620172,439.11505,12.148224,96160.67,1.1425478
17012000,17012000,6620172,439.22775,12.147461,96159.39,1.1425326
17036000,17036000,6620172,439.21835,12.1467285,96159.5,1.1425339
17060000,17060000,6620172,439.3827,12.145996,96157.58,1.1425111
17084000,17084000,6620172,439.53293,12.145233,96155.84,1.1424905
17112000,17112000,6620172,439.50476,12.144501,96156.18,1.1424944
17132000,17132000,6620172,439.78644,12.143768,96152.97,1.1424563
17156000,17156000,6620172,439.9273,12.143036,96151.35,1.1424371
17180000,17180000,6620172,440.0024,12.142303,96150.48,1.1424267
17208000,17208000,6620172,439.79584,12.141541,96152.85,1.142455
17228000,17228000,6620172,440.18552,12.140808,96148.38,1.1424018
17256000,17256000,6620172,440.3123,12.140076,96146.914,1.1423844
17276000,17276000,6620172,440.47192,12.139343,96145.05,1.1423622
17300000,17300000,6620172,440.37802,12.138611,96146.16,1.1423753
17324000,17324000,6620172,440.6785,12.137878,96142.664,1.1423339
17348000,17348000,6620172,440.6691,12.137146,96142.81,1.1423357
17372000,17372000,6620172,440.73953,12.136414,96141.94,1.1423253
17396000,17396000,6620172,440.91324,12.135681,96139.97,1.1423019
17420000,17420000,6620172,440.9696,12.134949,96139.3,1.1422939
17444000,17444000,6620172,441.1386,12.134216,96137.39,1.1422713
17468000,17468000,6620172,441.47665,12.133484,96133.51,1.1422251
17492000,17492000,6620172,441.42032,12.132751,96134.164,1.1422329
17516000,17516000,6620172,441.56586,12.132019,96132.45,1.1422126
17540000,17540000,6620172,441.38745,12.131287,96134.53,1.1422373
17564000,17564000,6620172,441.7161,12.130585,96130.734,1.1421921
17588000,17588000,6620172,441.93677,12.129852,96128.22,1.1421622
17612000,17612000,6620172,442.0729,12.12912,96126.625,1.1421434
17636000,17636000,6620172,442.0964,12.128387,96126.37,1.1421403
17660000,17660000,6620172,442.24194,12.127655,96124.664,1.14212
17684000,17684000,6620172,442.42975,12.126953,96122.53,1.1420947
17708000,17708000,6620172,442.31705,12.126221,96123.81,1.1421099
17732000,17732000,6620172,442.62222,12.125488,96120.33,1.1420685
17756000,17756000,6620172,442.41565,12.124786,96122.67,1.1420964
17780000,17780000,6620172,442.6739,12.124054,96119.69,1.1420609
17804000,17804000,6620172,442.90863,12.123322,96117.01,1.142029
17828000,17828000,6620172,442.87106,12.12262,96117.45,1.1420343
17852000,17852000,6620172,443.303,12.121887,96112.47,1.1419752
17880000,17880000,6620172,443.26074,12.121155,96112.93,1.1419806
17900000,17900000,6620172,443.34058,12.120453,96112.02,1.1419698
17924000,17924000,6620172,443.43918,12.11972,96110.9,1.1419564
17948000,17948000,6620172,443.5988,12.119019,96109.07,1.1419348
17972000,17972000,6620172,443.74902,12.118286,96107.3,1.1419137
17996000,17996000,6620172,443.7819,12.117584,96106.95,1.1419096
18020000,18020000,6620172,443.76782,12.116852,96107.125,1.1419116
18044000,18044000,6620172,443.93683,12.11615,96105.17,1.1418884
18068000,18068000,6620172,443.9791,12.1154175,96104.664,1.1418824
18092000,18092000,6620172,444.13873,12.114716,96102.85,1.1418608
18116000,18116000,6620172,444.36407,12.113983,96100.266,1.1418301
18144000,18144000,6620172,444.28427,12.113281,96101.16,1.1418407
18164000,18164000,6620172,444.57535,12.112579,96097.81,1.141801
18188000,18188000,6620172,444.69275,12.111847,96096.5,1.1417854
18212000,18212000,6620172,444.79602,12.111145,96095.266,1.1417707
18236000,18236000,6620172,444.843,12.110413,96094.734,1.1417644
18260000,18260000,6620172,445.06363,12.109711,96092.23,1.1417346
18284000,18284000,6620172,445.0261,12.109009,96092.61,1.1417391
18308000,18308000,6620172,445.13406,12.108276,96091.414,1.141725
18332000,18332000,6620172,445.25143,12.107574,96090.05,1.1417087
18356000,18356000,6620172,445.49557,12.106873,96087.23,1.1416752
18384000,18384000,6620172,445.52374,12.10614,96086.9,1.1416713
18404000,18404000,6620172,445.61295,12.105438,96085.9,1.1416594
18428000,18428000,6620172,445.6646,12.104736,96085.27,1.141652
18452000,18452000,6620172,445.88995,12.104034,96082.69,1.1416212
18476000,18476000,6620172,445.9745,12.103302,96081.71,1.1416097
18500000,18500000,6620172,446.11063,12.1026,96080.15,1.1415911
18524000,18524000,6620172,446.1576,12.101898,96079.63,1.141585
18552000,18552000,6620172,446.3172,12.101196,96077.77,1.1415629
18572000,18572000,6620172,446.53787,12.100464,96075.266,1.1415331
18596000,18596000,6620172,446.5003,12.099762,96075.68,1.141538
18620000,18620000,6620172,446.45807,12.09906,96076.16,1.1415436
18644000,18644000,6620172,446.66934,12.098358,96073.76,1.1415151
18672000,18672000,6620172,446.7069,12.097656,96073.28,1.1415095
18692000,18692000,6620172,447.0027,12.096924,96069.91,1.1414694
18716000,18716000,6620172,447.06372,12.096222,96069.18,1.1414608
18740000,18740000,6620172,447.11066,12.09552,96068.64,1.1414543
18764000,18764000,6620172,447.33133,12.094818,96066.11,1.1414243
18788000,18788000,6620172,447.49097,12.094116,96064.3,1.1414027
18812000,18812000,6620172,447.41113,12.093414,96065.195,1.1414135
18836000,18836000,6620172,447.66467,12.092682,96062.27,1.1413788
18860000,18860000,6620172,447.70224,12.09198,96061.86,1.1413738
18888000,18888000,6620172,447.75858,12.091278,96061.234,1.1413664
18908000,18908000,6620172,448.07315,12.090576,96057.59,1.1413231
18932000,18932000,6620172,448.1154,12.089874,96057.1,1.1413172
18956000,18956000,6620172,448.18112,12.089172,96056.336,1.1413082
18980000,18980000,6620172,448.15765,12.08847,96056.625,1.1413116
19004000,19004000,6620172,448.4112,12.087769,96053.72,1.1412771
19028000,19028000,6620172,448.46283,12.087067,96053.11,1.1412698
19052000,19052000,6620172,448.53796,12.086365,96052.25,1.1412597
19076000,19076000,6620172,448.6835,12.085663,96050.56,1.1412395
19104000,19104000,6620172,448.87598,12.084961,96048.336,1.141213
19124000,19124000,6620172,448.9558,12.084259,96047.46,1.1412027
19152000,19152000,6620172,449.05908,12.083527,96046.27,1.1411886
19172000,19172000,6620172,449.09195,12.082825,96045.87,1.1411837
19196000,19196000,6620172,449.2704,12.082123,96043.82,1.1411594
19220000,19220000,6620172,449.31262,12.081421,96043.34,1.1411538
19244000,19244000,6620172,449.46286,12.080719,96041.63,1.1411334
19268000,19268000,6620172,449.69293,12.080017,96038.94,1.1411015
19292000,19292000,6620172,449.76334,12.079315,96038.16,1.1410922
19316000,19316000,6620172,449.82437,12.078613,96037.46,1.141084
19340000,19340000,6620172,449.86664,12.077911,96036.93,1.1410776
19364000,19364000,6620172,449.88074,12.077209,96036.79,1.141076
19388000,19388000,6620172,450.1671,12.076508,96033.47,1.1410365
19412000,19412000,6620172,450.2845,12.075806,96032.17,1.141021
19440000,19440000,6620172,450.2845,12.075134,96032.16,1.1410209
19460000,19460000,6620172,450.4864,12.074432,96029.83,1.1409932
19484000,19484000,6620172,450.53802,12.07373,96029.22,1.140986
19508000,19508000,6620172,450.62723,12.073029,96028.22,1.140974
19532000,19532000,6620172,450.754,12.072327,96026.766,1.1409569
19556000,19556000,6620172,450.87137,12.071625,96025.375,1.1409403
19584000,19584000,6620172,451.05917,12.070923,96023.27,1.1409154
19604000,19604000,6620172,451.1108,12.070221,96022.625,1.1409076
19628000,19628000,6620172,451.2235,12.069519,96021.36,1.1408926
19652000,19652000,6620172,451.34088,12.068817,96020.016,1.1408767
19676000,19676000,6620172,451.24228,12.068115,96021.13,1.1408899
19700000,19700000,6620172,451.5052,12.067413,96018.15,1.1408545
19724000,19724000,6620172,451.71646,12.066711,96015.695,1.1408253
19748000,19748000,6620172,451.7024,12.0660095,96015.85,1.1408272
19772000,19772000,6620172,451.6836,12.065308,96016.05,1.1408294
19796000,19796000,6620172,451.8855,12.064606,96013.74,1.1408021
19820000,19820000,6620172,451.9606,12.063934,96012.875,1.1407918
19844000,19844000,6620172,452.21414,12.063232,96010.0,1.1407577
19868000,19868000,6620172,452.1484,12.0625305,96010.72,1.1407661
19892000,19892000,6620172,452.46298,12.061829,96007.086,1.140723
19916000,19916000,6620172,452.4348,12.061127,96007.43,1.140727
19940000,19940000,6620172,452.6414,12.060455,96005.08,1.1406991
19968000,19968000,6620172,452.7212,12.059753,96004.12,1.1406877
19988000,19988000,6620172,452.7494,12.059082,96003.78,1.1406838
20012000,20012000,6620172,452.8198,12.058411,96003.0,1.1406745
20036000,20036000,6620172,452.9043,12.057739,96002.01,1.1406627
20060000,20060000,6620172,453.03577,12.057068,96000.51,1.1406448
20084000,20084000,6620172,453.30807,12.0563965,95997.39,1.1406078
20112000,20112000,6620172,453.15314,12.055756,95999.18,1.140629
20132000,20132000,6620172,453.30807,12.055115,95997.38,1.1406077
20156000,20156000,6620172,453.52875,12.054504,95994.84,1.1405776
20180000,20180000,6620172,453.5663,12.053864,95994.41,1.1405723
20204000,20204000,6620172,453.71185,12.053253,95992.734,1.1405525
20228000,20228000,6620172,453.61325,12.052673,95993.84,1.1405656
20252000,20252000,6620172,453.80576,12.052063,95991.64,1.1405395
20276000,20276000,6620172,454.0499,12.051483,95988.83,1.140506
20300000,20300000,6620172,453.98416,12.050934,95989.63,1.1405157
20324000,20324000,6620172,453.9513,12.0503845,95989.97,1.1405196
20348000,20348000,6620172,454.2236,12.049835,95986.84,1.1404825
20376000,20376000,6620172,454.28464,12.049316,95986.17,1.1404746
20396000,20396000,6620172,454.26117,12.048798,95986.45,1.1404779
20420000,20420000,6620172,454.29874,12.048309,95986.02,1.1404728
20444000,20444000,6620172,454.54288,12.047821,95983.2,1.1404393
20468000,20468000,6620172,454.46304,12.047363,95984.11,1.14045
20492000,20492000,6620172,454.5992,12.0469055,95982.55,1.1404314
20516000,20516000,6620172,454.72598,12.046478,95981.07,1.1404139
20540000,20540000,6620172,454.66495,12.046051,95981.75,1.140422
20564000,20564000,6620172,454.7025,12.045654,95981.375,1.1404175
20588000,20588000,6620172,454.95602,12.045258,95978.47,1.140383
20612000,20612000,6620172,454.87152,12.044891,95979.414,1.1403942
20636000,20636000,6620172,455.003,12.044525,95977.89,1.1403761
20660000,20660000,6620172,455.23773,12.044159,95975.18,1.1403439
20684000,20684000,6620172,455.29407,12.043823,95974.52,1.1403362
20708000,20708000,6620172,455.1767,12.043518,95975.9,1.1403525
20732000,20732000,6620172,455.2753,12.043213,95974.76,1.1403389
20756000,20756000,6620172,455.19547,12.042908,95975.66,1.1403495
20784000,20784000,6620172,455.40674,12.042633,95973.27,1.1403213
20804000,20804000,6620172,455.22833,12.042358,95975.28,1.1403451
20828000,20828000,6620172,455.40674,12.042114,95973.24,1.1403209
20852000,20852000,6620172,455.5429,12.04187,95971.664,1.1403022
20876000,20876000,6620172,455.41614,12.041626,95973.14,1.1403197
20900000,20900000,6620172,455.449,12.041412,95972.78,1.1403154
20924000,20924000,6620172,455.57108,12.041199,95971.36,1.1402985
20948000,20948000,6620172,455.47717,12.041016,95972.44,1.1403114
20972000,20972000,6620172,455.49597,12.0408325,95972.23,1.1403089
20996000,20996000,6620172,455.57108,12.040649,95971.36,1.1402985
21020000,21020000,6620172,455.70255,12.040497,95969.85,1.1402806
21044000,21044000,6620172,455.6274,12.040344,95970.7,1.1402907
21068000,21068000,6620172,455.74948,12.040222,95969.35,1.1402746
21092000,21092000,6620172,455.7166,12.0401,95969.71,1.1402789
21116000,21116000,6620172,455.65088,12.039978,95970.42,1.1402874
21140000,21140000,6620172,455.66968,12.039886,95970.266,1.1402855
21164000,21164000,6620172,455.81522,12.039795,95968.56,1.1402652
21188000,21188000,6620172,455.7354,12.039703,95969.46,1.140276
21212000,21212000,6620172,455.83398,12.039612,95968.36,1.1402628
21236000,21236000,6620172,455.87155,12.039551,95967.9,1.1402574
21260000,21260000,6620172,455.81992,12.03949,95968.48,1.1402643
21284000,21284000,6620172,455.80115,12.039398,95968.695,1.1402669
21312000,21312000,6620172,455.92322,12.039337,95967.3,1.1402502
21332000,21332000,6620172,455.77765,12.039276,95968.98,1.1402702
21356000,21356000,6620172,455.7354,12.039215,95969.445,1.1402757
21380000,21380000,6620172,455.80582,12.039154,95968.68,1.1402667
21404000,21404000,6620172,455.96075,12.039093,95966.92,1.1402458
21428000,21428000,6620172,455.79175,12.039032,95968.86,1.1402688
21452000,21452000,6620172,455.61334,12.03894,95970.9,1.140293
21476000,21476000,6620172,455.91382,12.038879,95967.44,1.1402519
21500000,21500000,6620172,455.7354,12.038788,95969.484,1.1402762
21524000,21524000,6620172,455.83398,12.038666,95968.34,1.1402627
21548000,21548000,6620172,455.81522,12.038574,95968.54,1.140265
21572000,21572000,6620172,456.0359,12.038452,95966.0,1.1402348
21596000,21596000,6620172,456.0359,12.03833,95966.02,1.1402351
21620000,21620000,6620172,455.98892,12.0381775,95966.555,1.1402414
21644000,21644000,6620172,456.0171,12.038025,95966.23,1.1402376
21672000,21672000,6620172,456.15326,12.037872,95964.7,1.1402194
21692000,21692000,6620172,455.97485,12.037689,95966.73,1.1402434
21716000,21716000,6620172,456.28473,12.037506,95963.14,1.1402009
21740000,21740000,6620172,455.95605,12.037323,95966.95,1.1402462
21764000,21764000,6620172,456.3176,12.03714,95962.79,1.1401967
21788000,21788000,6620172,455.96075,12.036926,95966.89,1.1402454
21812000,21812000,6620172,456.10632,12.036713,95965.22,1.1402255
21836000,21836000,6620172,456.1345,12.0364685,95964.88,1.1402216
21860000,21860000,6620172,456.35983,12.036255,95962.32,1.1401911
21884000,21884000,6620172,456.34106,12.036011,95962.516,1.1401935
21908000,21908000,6620172,456.4068,12.035767,95961.79,1.1401848
21932000,21932000,6620172,456.45374,12.035492,95961.234,1.1401782
21956000,21956000,6620172,456.43497,12.035217,95961.42,1.1401805
21980000,21980000,6620172,456.56174,12.034943,95959.945,1.140163
22004000,22004000,6620172,456.51947,12.034668,95960.47,1.1401691
22028000,22028000,6620172,456.55234,12.034393,95960.11,1.1401649
22052000,22052000,6620172,456.53357,12.034088,95960.33,1.1401675
22076000,22076000,6620172,456.65564,12.033783,95958.91,1.1401505
22104000,22104000,6620172,456.82935,12.033478,95956.9,1.1401267
22124000,22124000,6620172,456.71667,12.033142,95958.22,1.1401423
22148000,22148000,6620172,456.96548,12.032837,95955.33,1.140108
22172000,22172000,6620172,456.87628,12.032501,95956.34,1.1401201
22196000,22196000,6620172,456.82935,12.032166,95956.91,1.1401268
22220000,22220000,6620172,457.04062,12.03183,95954.5,1.1400982
22244000,22244000,6620172,457.05002,12.031464,95954.37,1.1400967
22268000,22268000,6620172,457.19556,12.031097,95952.7,1.1400769
22292000,22292000,6620172,457.18146,12.030762,95952.88,1.140079
22316000,22316000,6620172,457.1533,12.0303955,95953.195,1.1400827
22340000,22340000,6620172,457.20026,12.029999,95952.66,1.1400763
22364000,22364000,6620172,457.49603,12.029633,95949.234,1.1400356
22388000,22388000,6620172,457.35986,12.029236,95950.79,1.1400541
22412000,22412000,6620172,457.29416,12.02887,95951.55,1.140063
22436000,22436000,6620172,457.46317,12.028473,95949.62,1.1400402
22460000,22460000,6620172,457.59464,12.028076,95948.086,1.140022
22484000,22484000,6620172,457.66504,12.027679,95947.305,1.1400127
22508000,22508000,6620172,457.69324,12.027252,95946.97,1.1400087
22532000,22532000,6620172,457.604,12.026855,95947.98,1.1400207
22556000,22556000,6620172,457.73077,12.026428,95946.52,1.1400034
22580000,22580000,6620172,457.77774,12.026001,95945.97,1.1399969
22604000,22604000,6620172,457.84348,12.025574,95945.24,1.1399882
22628000,22628000,6620172,457.96555,12.0251465,95943.875,1.139972
22652000,22652000,6620172,458.097,12.024719,95942.31,1.1399534
22676000,22676000,6620172,458.05475,12.024292,95942.81,1.1399593
22700000,22700000,6620172,458.18152,12.023865,95941.336,1.1399418
22724000,22724000,6620172,458.23315,12.023407,95940.805,1.1399355
22748000,22748000,6620172,458.43503,12.022949,95938.445,1.1399075
22772000,22772000,6620172,458.4773,12.022522,95937.984,1.139902
22796000,22796000,6620172,458.43033,12.022064,95938.48,1.1399078
22824000,22824000,6620172,458.5524,12.021606,95937.11,1.1398915
22844000,22844000,6620172,458.72614,12.021118,95935.08,1.1398674
22868000,22868000,6620172,458.70264,12.02066,95935.38,1.139871
22892000,22892000,6620172,458.76837,12.020203,95934.586,1.1398616
22916000,22916000,6620172,458.78247,12.019714,95934.47,1.1398602
22940000,22940000,6620172,458.96088,12.019226,95932.37,1.1398352
22964000,22964000,6620172,459.19092,12.018768,95929.75,1.1398041
22992000,22992000,6620172,459.07355,12.01828,95931.12,1.1398203
23012000,23012000,6620172,459.20502,12.017761,95929.6,1.1398023
23036000,23036000,6620172,459.24258,12.017273,95929.16,1.1397971
23060000,23060000,6620172,459.35526,12.016785,95927.86,1.1397817
23084000,23084000,6620172,459.39282,12.016266,95927.44,1.1397766
23108000,23108000,6620172,459.5243,12.015778,95925.95,1.1397591
23132000,23132000,6620172,459.6933,12.015259,95924.0,1.1397358
23156000,23156000,6620172,459.54306,12.01474,95925.73,1.1397563
23180000,23180000,6620172,459.74023,12.014221,95923.47,1.1397295
23204000,23204000,6620172,459.73557,12.013702,95923.48,1.1397296
23228000,23228000,6620172,459.9562,12.013153,95920.97,1.1396998
23252000,23252000,6620172,459.8905,12.012634,95921.734,1.1397089
23276000,23276000,6620172,460.0642,12.012085,95919.73,1.139685
23300000,23300000,6620172,460.0689,12.011566,95919.67,1.1396843
23324000,23324000,6620172,460.22852,12.011017,95917.84,1.1396626
23348000,23348000,6620172,460.31305,12.010468,95916.86,1.139651
23372000,23372000,6620172,460.33652,12.009888,95916.61,1.139648
23396000,23396000,6620172,460.3506,12.009338,95916.42,1.1396458
23420000,23420000,6620172,460.58066,12.008789,95913.79,1.1396145
23444000,23444000,6620172,460.70743,12.008209,95912.36,1.1395975
23468000,23468000,6620172,460.70273,12.007629,95912.39,1.1395979
23492000,23492000,6620172,460.8107,12.00708,95911.12,1.1395828
23516000,23516000,6620172,460.87643,12.0065,95910.42,1.1395745
23540000,23540000,6620172,460.85297,12.00592,95910.63,1.139577
23564000,23564000,6620172,461.13467,12.00531,95907.44,1.139539
23588000,23588000,6620172,461.11588,12.00473,95907.66,1.1395416
23612000,23612000,6620172,461.33185,12.00415,95905.17,1.1395121
23636000,23636000,6620172,461.42105,12.00354,95904.14,1.1394998
23660000,23660000,6620172,461.36472,12.00293,95904.78,1.1395074
23684000,23684000,6620172,461.54312,12.002319,95902.734,1.1394831
23708000,23708000,6620172,461.47742,12.001709,95903.52,1.1394925
23732000,23732000,6620172,461.72623,12.001099,95900.66,1.1394584
23756000,23756000,6620172,461.81076,12.000488,95899.65,1.1394465
23780000,23780000,6620172,461.8577,11.999878,95899.15,1.1394405
23808000,23808000,6620172,461.89996,11.999268,95898.62,1.1394342
23828000,23828000,6620172,462.1394,11.998627,95895.9,1.1394019
23852000,23852000,6620172,462.29434,11.997986,95894.125,1.1393808
23876000,23876000,6620172,462.2098,11.9973755,95895.086,1.1393923
23900000,23900000,6620172,462.2239,11.996735,95894.93,1.1393903
23924000,23924000,6620172,462.37885,11.996094,95893.14,1.1393691
23948000,23948000,6620172,462.58072,11.995453,95890.83,1.1393417
23972000,23972000,6620172,462.6136,11.994812,95890.43,1.139337
23996000,23996000,6620172,462.74036,11.994171,95888.97,1.1393195
24020000,24020000,6620172,462.96573,11.9935,95886.4,1.139289
24044000,24044000,6620172,463.00327,11.992859,95885.98,1.139284
24068000,24068000,6620172,462.9892,11.992218,95886.15,1.139286
24096000,24096000,6620172,463.3413,11.991547,95882.09,1.1392379
24116000,24116000,6620172,463.2521,11.990875,95883.1,1.1392498
24140000,24140000,6620172,463.37888,11.990234,95881.62,1.1392323
24164000,24164000,6620172,463.63712,11.989563,95878.68,1.1391973
24188000,24188000,6620172,463.66528,11.988892,95878.39,1.1391939
24212000,24212000,6620172,463.67935,11.98822,95878.21,1.1391917
24236000,24236000,6620172,463.85776,11.987549,95876.16,1.1391673
