timestamp,roll_body,pitch_body,yaw_body,q_d[0],q_d[1],q_d[2],q_d[3],thrust_body[0]
9144000,0,-0.16690682,1.6225462,0.6861794,0.06044722,-0.05739732,0.7226407,1
9168000,0,-0.15948018,1.6225462,0.6863878,0.05776342,-0.05484893,0.72286016,1
9192000,0,-0.15217933,1.6225462,0.68658346,0.055124287,-0.05234296,0.7230662,1
9216000,0,-0.14498797,1.6225462,0.6867672,0.052524026,-0.049873896,0.72325975,1
9240000,0,-0.13789162,1.6225462,0.68693984,0.049957443,-0.04743681,0.72344154,1
9264000,0,-0.13087739,1.6225462,0.687102,0.047419954,-0.04502735,0.7236123,1
9288000,0,-0.12393376,1.6225462,0.6872542,0.044907425,-0.042641595,0.7237726,1
9312000,0,-0.1170615,1.6225462,0.68739665,0.04242019,-0.040279854,0.7239226,1
9336000,0,-0.11025048,1.6225462,0.68752986,0.03995462,-0.037938684,0.72406286,1
9360000,0,-0.10349159,1.6225462,0.68765414,0.037507467,-0.035615005,0.72419375,1
9384000,0,-0.09677655,1.6225462,0.68776983,0.035075765,-0.033305995,0.72431564,1
9408000,0,-0.09010704,1.6225462,0.6878771,0.032660156,-0.031012269,0.7244286,1
9432000,0,-0.083475575,1.6225462,0.6879761,0.03025797,-0.028731287,0.7245329,1
9456000,0,-0.076875314,1.6225462,0.6880672,0.027866757,-0.026460722,0.7246288,1
9480000,0,-0.0703,1.6225462,0.68815047,0.025484279,-0.024198454,0.7247165,1
9504000,0,-0.063749425,1.6225462,0.68822604,0.023110492,-0.021944439,0.72479606,1
9528000,0,-0.05721806,1.6225462,0.68829405,0.02074342,-0.019696798,0.7248677,1
9552000,0,-0.050700825,1.6225462,0.68835455,0.018381247,-0.01745381,0.7249314,1
9576000,0,-0.044193055,1.6225462,0.6884077,0.016022312,-0.015213897,0.7249874,1
9600000,0,-0.037693873,1.6225462,0.6884535,0.013666319,-0.012976776,0.7250356,1
9624000,0,-0.031199224,1.6225462,0.68849206,0.011311825,-0.01074108,0.7250762,1
9648000,0,-0.024705384,1.6225462,0.6885233,0.008957505,-0.008505548,0.7251091,1
9672000,0,-0.018208934,1.6225462,0.68854725,0.006602144,-0.006269029,0.7251344,1
9696000,0,-0.011709244,1.6225462,0.688564,0.004245539,-0.004031328,0.72515196,1
9720000,0,-0.005203377,1.6225462,0.6885735,0.00188665,-0.001791458,0.72516197,1
9744000,0,0.001311345,1.6225462,0.6885756,-0.00047547,0.00045148,0.72516423,1
9768000,0,0.007837363,1.6225462,0.6885705,-0.002841681,0.002698302,0.7251588,1
9792000,0,0.014375541,1.6225462,0.68855804,-0.005212271,0.004949282,0.7251457,1
9816000,0,0.020927936,1.6225462,0.68853813,-0.007587959,0.007205104,0.7251247,1
9840000,0,0.0274964,1.6225462,0.6885107,-0.009969391,0.00946638,0.72509587,1
9864000,0,0.034082603,1.6225462,0.68847585,-0.012357147,0.01173366,0.7250591,1
9888000,0,0.040688027,1.6225462,0.6884333,-0.014751737,0.01400743,0.7250143,1
9912000,0,0.04731195,1.6225462,0.68838316,-0.017152872,0.016287414,0.7249615,1
9936000,0,0.053955622,1.6225462,0.6883252,-0.019560976,0.018574014,0.72490054,1
9960000,0,0.060620137,1.6225462,0.68825954,-0.021976419,0.020867584,0.72483134,1
9984000,0,0.067306444,1.6225462,0.68818593,-0.024399513,0.02316842,0.7247538,1
10008000,0,0.074015036,1.6225462,0.68810433,-0.02683041,0.025476666,0.7246679,1
10032000,0,0.08074662,1.6225462,0.6880147,-0.029269336,0.027792532,0.7245735,1
10056000,0,0.08750178,1.6225462,0.68791693,-0.03171647,0.030116195,0.7244705,1
10080000,0,0.09428097,1.6225462,0.68781084,-0.034171943,0.032447778,0.7243588,1
10104000,0,0.101082765,1.6225462,0.6876965,-0.036635213,0.03478676,0.7242384,1
10128000,0,0.10790743,1.6225462,0.68757385,-0.03910633,0.0371332,0.72410923,1
10152000,0,0.11475517,1.6225462,0.68744266,-0.041585356,0.039487142,0.72397107,1
10176000,0,0.121626064,1.6225462,0.68730295,-0.04407227,0.041848578,0.7238239,1
10200000,0,0.12852259,1.6225462,0.68715453,-0.04656794,0.044218324,0.7236676,1
10224000,0,0.13544463,1.6225462,0.6869974,-0.049072284,0.04659631,0.72350216,1
10248000,0,0.14239193,1.6225462,0.68683136,-0.051585175,0.048982415,0.7233273,1
10272000,0,0.14936426,1.6225462,0.6866565,-0.054106496,0.05137652,0.7231431,1
10296000,0,0.15636198,1.6225462,0.68647254,-0.056636337,0.053778715,0.7229493,1
10320000,0,0.16338465,1.6225462,0.6862794,-0.059174493,0.056188807,0.722746,1
10344000,0,0.17043173,1.6225462,0.6860772,-0.061720748,0.05860659,0.72253305,1
10368000,0,0.17750268,1.6225462,0.6858657,-0.064274855,0.061031826,0.7223103,1
10392000,0,0.18459952,1.6225462,0.6856448,-0.066837505,0.06346518,0.72207767,1
10416000,0,0.19172151,1.6225462,0.6854145,-0.069408394,0.06590635,0.7218351,1
10440000,0,0.1988679,1.6225462,0.6851746,-0.071987204,0.068355046,0.7215825,1
10464000,0,0.2060379,1.6225462,0.68492514,-0.074573606,0.07081095,0.72131974,1
10488000,0,0.21323062,1.6225462,0.68466604,-0.07716724,0.073273726,0.72104686,1
10512000,0,0.22044268,1.6225462,0.68439734,-0.079766855,0.07574217,0.7207639,1
10536000,0,0.22767325,1.6225462,0.68411905,-0.08237209,0.07821596,0.72047085,1
10560000,0,0.23492146,1.6225462,0.6838311,-0.08498261,0.08069476,0.7201676,1
10584000,0,0.24218644,1.6225462,0.6835335,-0.08759804,0.08317823,0.7198541,1
10608000,0,0.24947281,1.6225462,0.68322587,-0.09022002,0.085667916,0.7195302,1
10632000,0,0.25677955,1.6225462,0.6829084,-0.092848115,0.08816341,0.71919584,1
10656000,0,0.26410565,1.6225462,0.6825808,-0.09548194,0.09066434,0.7188509,1
10680000,0,0.27145007,1.6225462,0.6822433,-0.09812106,0.09317031,0.7184954,1
10704000,0,0.27881092,1.6225462,0.6818958,-0.10076477,0.09568062,0.71812946,1
10728000,0,0.2861872,1.6225462,0.6815383,-0.103412636,0.09819489,0.71775293,1
10752000,0,0.2935779,1.6225462,0.68117076,-0.106064275,0.10071273,0.71736586,1
10776000,0,0.30098203,1.6225462,0.6807932,-0.10871927,0.10323377,0.7169683,1
10800000,0,0.30839896,1.6225462,0.68040574,-0.11137737,0.10575776,0.7165602,1
10824000,0,0.3158277,1.6225462,0.6800082,-0.11403817,0.1082843,0.7161415,1
10848000,0,0.32326728,1.6225462,0.6796007,-0.11670127,0.11081303,0.7157124,1
10872000,0,0.3307168,1.6225462,0.67918324,-0.119366296,0.1133436,0.7152727,1
10896000,0,0.3381806,1.6225462,0.6787555,-0.122034796,0.11587746,0.7148223,1
10920000,0,0.34565762,1.6225462,0.67831755,-0.124706306,0.11841417,0.7143611,1
10944000,0,0.34906584,1.6225462,0.6781148,-0.12592348,0.119569935,0.7141475,1
10968000,0,0.34906584,1.6225462,0.6781148,-0.12592348,0.119569935,0.7141475,1
10992000,0,0.34906584,1.6225462,0.6781148,-0.12592348,0.119569935,0.7141475,1
11016000,-0.35496408,0.34906584,1.5603172,0.6674427,-0.24381086,-0.000807874,0.70361626,1
11040000,-0.34758827,0.34906584,1.5535791,0.670704,-0.24134035,0.002600081,0.7013588,1
11064000,-0.35187453,0.34906584,1.5534579,0.6702278,-0.24277714,0.001111701,0.70132214,1
11088000,-0.35592434,0.34906584,1.5533361,0.66977745,-0.2441338,-0.00029356,0.7012822,1
11112000,-0.3594763,0.34906584,1.5532678,0.6693668,-0.24532297,-0.001530647,0.70125765,1
11136000,-0.37286806,0.34906584,1.5464067,0.6701108,-0.24981934,-0.005369119,0.698937,1
11160000,-0.3758104,0.34906584,1.5463237,0.6697716,-0.2508052,-0.006386973,0.6989006,1
11184000,-0.3784931,0.34906584,1.5461861,0.66948265,-0.25170386,-0.00730712,0.6988453,1
11208000,-0.39069426,0.34906584,1.5392691,0.67034745,-0.25582188,-0.010685608,0.6964735,1
11232000,-0.3924554,0.34906584,1.5391743,0.67015487,-0.25641257,-0.011286758,0.696432,1
11256000,-0.39423504,0.34906584,1.5390285,0.66997725,-0.25700969,-0.011887707,0.69637287,1
11280000,-0.39559898,0.34906584,1.5389386,0.6698331,-0.2574671,-0.012351051,0.6963345,1
11304000,-0.40645057,0.34906584,1.5319681,0.67084885,-0.26115227,-0.015218928,0.69392335,1
11328000,-0.4072146,0.34906584,1.5318708,0.6707828,-0.26140928,-0.015471302,0.69388485,1
11352000,-0.40784863,0.34906584,1.5317225,0.6707513,-0.26162308,-0.015671857,0.6938302,1
11376000,-0.4177659,0.34906584,1.5247161,0.671872,-0.2650112,-0.01818385,0.6913945,1
11400000,-0.41762212,0.34906584,1.5246161,0.67192566,-0.2649638,-0.018120892,0.6913622,1
11424000,-0.41736838,0.34906584,1.524463,0.6720122,-0.2648799,-0.018012889,0.69131315,1
11448000,-0.4169788,0.34906584,1.5243676,0.6720967,-0.26474988,-0.017865606,0.69128454,1
11472000,-0.42616114,0.34906584,1.5173306,0.6733019,-0.26790515,-0.02009672,0.6888305,1
11496000,-0.42544365,0.34906584,1.5172318,0.673432,-0.26766455,-0.019836374,0.6888043,1
11520000,-0.4245984,0.34906584,1.5170798,0.6735974,-0.26738143,-0.019524954,0.6887615,1
11544000,-0.4235622,0.34906584,1.516931,0.6737872,-0.26703382,-0.01914823,0.6887214,1
11568000,-0.43166623,0.34906584,1.5099164,0.6751107,-0.26983708,-0.020992503,0.6862745,1
11592000,-0.4302295,0.34906584,1.5097595,0.6753582,-0.26935366,-0.020478375,0.6862365,1
11616000,-0.42851642,0.34906584,1.5096589,0.6756231,-0.2687761,-0.019877061,0.68621975,1
11640000,-0.43618074,0.34906584,1.5025604,0.6770193,-0.2714414,-0.021543324,0.68373996,1
11664000,-0.43436667,0.34906584,1.5024586,0.67730004,-0.27082825,-0.02090934,0.6837247,1
11688000,-0.4325542,0.34906584,1.5023034,0.6775982,-0.27021593,-0.020268768,0.68369085,1
11712000,-0.43037865,0.34906584,1.5022061,0.677925,-0.26947963,-0.019511938,0.68367946,1
11736000,-0.4376456,0.34147158,1.4950898,0.6803885,-0.26963905,-0.023802318,0.6810285,0.39386106
11760000,-0.435282,0.33388042,1.4949113,0.68177336,-0.26645437,-0.025746502,0.6808262,0.41615248
11784000,-0.43229768,0.32629135,1.4945983,0.68326896,-0.26305395,-0.027461603,0.68058205,0.43715236
11808000,-0.42913774,0.31869984,1.494149,0.6848155,-0.25958785,-0.029101275,0.6802903,0.45745915
11832000,-0.43509555,0.31110492,1.4866544,0.6875591,-0.2593578,-0.032930158,0.67743,0.4765817
11856000,-0.431667,0.3035058,1.4861377,0.68914014,-0.25579733,-0.034487233,0.6770999,0.49447444
11880000,-0.42814964,0.29590186,1.4856842,0.69069123,-0.2521966,-0.036025934,0.67679,0.5110977
11904000,-0.42450795,0.28828296,1.4851747,0.6922578,-0.2485421,-0.037522912,0.6764599,0.5277304
11928000,-0.43015644,0.28064913,1.4775004,0.695077,-0.24824543,-0.04127858,0.6734525,0.54299235
11952000,-0.42629325,0.2730006,1.4769776,0.69665205,-0.24450329,-0.042725794,0.6731037,0.5569375
11976000,-0.42233574,0.26533777,1.4765328,0.6981915,-0.24071471,-0.04415811,0.6727816,0.5695881
12000000,-0.41839287,0.25765258,1.4760501,0.69972193,-0.23691766,-0.045600966,0.6724431,0.58210295
12024000,-0.42388225,0.24994591,1.468285,0.7025668,-0.23659238,-0.049361728,0.6693186,0.59339094
12048000,-0.42001545,0.24221873,1.4678334,0.70405376,-0.23280606,-0.050865352,0.6689711,0.6035162
12072000,-0.41620243,0.23447213,1.4674809,0.70548093,-0.22902295,-0.05240734,0.66865426,0.61256003
12096000,-0.41278395,0.22669879,1.4671066,0.70685136,-0.22536439,-0.05409006,0.66831607,0.62163204
12120000,-0.40928736,0.2189002,1.4668312,0.70817876,-0.22166109,-0.055768415,0.66801137,0.6296818
12144000,-0.41552755,0.21107793,1.459118,0.7108947,-0.22161941,-0.05988276,0.66477644,0.6367826
12168000,-0.4123096,0.20323363,1.4588523,0.7121668,-0.21800017,-0.061686024,0.6644466,0.64297485
12192000,-0.40909186,0.19596116,1.4586835,0.71332693,-0.21455333,-0.06328915,0.6641732,0.64897937
12216000,-0.405966,0.19717105,1.4584813,0.7136043,-0.21382843,-0.06178177,0.6642509,0.65417457
12240000,-0.40281305,0.19823785,1.4583712,0.7138679,-0.21304518,-0.060327962,0.664353,0.6586327
12264000,-0.40945387,0.19918083,1.4507266,0.7155924,-0.21594942,-0.06135969,0.66145927,0.6623973
12288000,-0.40649766,0.20001762,1.4506849,0.7158384,-0.21515691,-0.060066752,0.66157013,0.66552806
12312000,-0.40358186,0.20071484,1.4506046,0.7161061,-0.21433565,-0.058834657,0.6616576,0.6683976
12336000,-0.4005028,0.2013325,1.4505982,0.71637404,-0.21342824,-0.057585865,0.66177064,0.670712
12360000,-0.39740753,0.20187944,1.4505377,0.7166677,-0.21249387,-0.056351967,0.6618595,0.6725357
12384000,-0.40397412,0.20236637,1.443042,0.7183908,-0.21521664,-0.057537712,0.6590037,0.67392665
12408000,-0.40066075,0.20274276,1.443053,0.7187042,-0.21414424,-0.056306794,0.6591177,0.67530245
12432000,-0.39734396,0.20307553,1.4430026,0.719041,-0.21305814,-0.05508422,0.6592057,0.6762806
12456000,-0.39385214,0.20337005,1.4430099,0.7193795,-0.21189493,-0.053824194,0.6593153,0.67690957
12480000,-0.39036787,0.20363435,1.4429635,0.7197361,-0.21072578,-0.052572064,0.6594018,0.6772278
12504000,-0.38679928,0.20386572,1.4429754,0.7200838,-0.20951381,-0.051310368,0.6595078,0.6772452
12528000,-0.39303684,0.20407557,1.4354393,0.7218849,-0.21202394,-0.052490197,0.65663755,0.6769833
12552000,-0.38929176,0.20426401,1.4354472,0.722259,-0.21073067,-0.051190868,0.656745,0.6764817
12576000,-0.38550973,0.20443036,1.4353905,0.72265816,-0.20941809,-0.049880676,0.6568266,0.6757612
12600000,-0.38149956,0.20456989,1.4353878,0.7230635,-0.20801258,-0.048511103,0.6569296,0.6749179
12624000,-0.37758017,0.20469831,1.435312,0.72348195,-0.2066373,-0.04716772,0.65700084,0.6739037
12648000,-0.37352565,0.2048136,1.435298,0.7238926,-0.20520675,-0.04579109,0.65709424,0.6727306
12672000,-0.3695191,0.20491818,1.4352232,0.72431654,-0.20379072,-0.044427887,0.6571613,0.67145
12696000,-0.3754914,0.20501994,1.4277545,0.7261433,-0.20615634,-0.04558243,0.6543223,0.67003345
12719999,-0.37152985,0.20512325,1.427687,0.72656214,-0.20475145,-0.044240557,0.65439063,0.66852057
12744000,-0.3673665,0.20520045,1.4276774,0.7269824,-0.20326293,-0.042848237,0.6544805,0.66687864
12768000,-0.36322546,0.20529409,1.4276093,0.7274149,-0.20178801,-0.041450985,0.6545464,0.66519976
12792000,-0.35901004,0.20533372,1.427592,0.7278404,-0.20026714,-0.04005467,0.6546274,0.6637334
12815999,-0.3547895,0.205385,1.4275088,0.72828376,-0.19874844,-0.038645588,0.65468186,0.66223294
12840000,-0.3505388,0.20541154,1.4274795,0.7287116,-0.197209,-0.037241198,0.6547527,0.6606566
12864000,-0.34622607,0.20546338,1.4274535,0.7291388,-0.19565392,-0.035807192,0.6548236,0.65908015
12888000,-0.34204185,0.20551106,1.4273682,0.72957003,-0.19414453,-0.034410924,0.6548675,0.65747064
12911999,-0.34807137,0.2055816,1.4198971,0.73141557,-0.1964997,-0.035624698,0.6520353,0.6556721
12936000,-0.3438889,0.20563546,1.4198148,0.73184663,-0.19498797,-0.034232743,0.65208,0.6538178
12960000,-0.33962077,0.20571189,1.419789,0.7322624,-0.19345006,-0.032809734,0.6521444,0.65199906
12984000,-0.3354192,0.20577997,1.4197018,0.7326893,-0.19193399,-0.03140559,0.65218204,0.6501573
13007999,-0.33110878,0.20584974,1.4196658,0.73310655,-0.19037685,-0.029970154,0.65223706,0.64835316
13032000,-0.32681638,0.20590179,1.4195697,0.73354006,-0.18882069,-0.028541535,0.6522661,0.64650023
13056000,-0.322435,0.20597713,1.4195209,0.7339611,-0.18723759,-0.027079515,0.65231127,0.6446983
13080000,-0.31817266,0.20604882,1.4194233,0.7343839,-0.18569672,-0.025653109,0.6523335,0.6428907
13103999,-0.3138672,0.206103,1.4193794,0.7347914,-0.1841329,-0.024224252,0.6523725,0.6412522
13128000,-0.30954987,0.206145,1.4192746,0.73521763,-0.1825607,-0.022790506,0.6523857,0.6395762
13152000,-0.3051877,0.20620787,1.4192216,0.7356258,-0.18097702,-0.021338984,0.65241605,0.6379626
13176000,-0.30091012,0.2062676,1.4191066,0.7360436,-0.17942318,-0.019910648,0.65241915,0.6363487
13199999,-0.29650033,0.20631112,1.4190434,0.7364542,-0.17781413,-0.018450014,0.65243924,0.6349189
13224000,-0.3030008,0.2063386,1.4114715,0.7383346,-0.18029204,-0.01987768,0.6495859,0.6334443
13248000,-0.29865873,0.20638768,1.4114063,0.73874116,-0.17870462,-0.018442906,0.6496045,0.6320121
13272000,-0.29438502,0.20642954,1.4112713,0.73916155,-0.17713991,-0.017026924,0.6495935,0.63059187
13295999,-0.29018536,0.20645587,1.4111975,0.7395536,-0.17559624,-0.01564639,0.6496011,0.6293562
13320000,-0.28613436,0.20646895,1.4110729,0.7399472,-0.1741029,-0.014314771,0.6495856,0.6280838
13344000,-0.28198582,0.20650595,1.4109994,0.7403275,-0.17257975,-0.012946926,0.6495875,0.626858
13368000,-0.27789745,0.20653582,1.4108633,0.74072033,-0.17107618,-0.011596061,0.6495628,0.6256197
13391999,-0.27383262,0.20656091,1.4107844,0.7410901,-0.16957867,-0.010259621,0.6495562,0.62443537
13416000,-0.26980838,0.2065719,1.4106342,0.7414777,-0.16809131,-0.008935839,0.64952004,0.62321424
13440000,-0.26573268,0.20660698,1.4105437,0.7418453,-0.16659132,-0.00759133,0.649504,0.6220471
13464000,-0.26174483,0.20663816,1.4103888,0.74222374,-0.16512209,-0.006271631,0.6494608,0.6208845
13488000,-0.25772068,0.20666997,1.4102986,0.7425812,-0.16363856,-0.004945383,0.64943916,0.6197436
13512000,-0.25384942,0.20671663,1.4101629,0.7429369,-0.16221583,-0.003659569,0.6493978,0.61854947
13536000,-0.24994546,0.20676625,1.4100881,0.74327254,-0.16078106,-0.002367079,0.6493766,0.61734045
13560000,-0.24622521,0.20681794,1.4099448,0.7436127,-0.15941456,-0.001128092,0.6493273,0.61614734
13584000,-0.24244075,0.20687166,1.4098512,0.74393916,-0.1580241,0.000128396,0.6492941,0.61497915
13608000,-0.23873842,0.2068668,1.4097002,0.74427986,-0.15664506,0.001340315,0.6492365,0.61427087
13632000,-0.23497282,0.2068625,1.4096154,0.7446013,-0.15524198,0.002567649,0.64920115,0.61353487
13656000,-0.23123775,0.2068689,1.4094667,0.7449377,-0.15385288,0.003793918,0.64913994,0.61281973
13680000,-0.22755572,0.20687601,1.409375,0.745249,-0.1524832,0.004998684,0.6490978,0.61208314
13704000,-0.22406694,0.20688167,1.4092369,0.7455582,-0.15118432,0.00614354,0.6490366,0.6113267
13728000,-0.22051816,0.20689951,1.4091499,0.7458522,-0.14986649,0.007308483,0.64899236,0.6105679
13752000,-0.21716405,0.20691459,1.4090018,0.74614936,-0.14861959,0.008413605,0.64892405,0.609794
13776000,-0.21376598,0.20693506,1.408919,0.7464262,-0.1473577,0.009530023,0.6488781,0.60901386
13800000,-0.21048138,0.20696948,1.4087641,0.74671495,-0.14614172,0.01062008,0.64880407,0.6081521
13824000,-0.20715718,0.20700166,1.4086702,0.74698496,-0.14491004,0.011717483,0.64875054,0.60727435
13848000,-0.20402837,0.20703515,1.4085133,0.7472592,-0.14375086,0.012756392,0.648673,0.60639405
13872000,-0.20081526,0.20707369,1.4084276,0.7475142,-0.14256176,0.013819285,0.6486198,0.6055008
13896000,-0.19776317,0.20709299,1.4082816,0.74777687,-0.1414259,0.014826745,0.6485435,0.6047268
13920000,-0.19478282,0.20711797,1.4081986,0.74801195,-0.14031866,0.0158085,0.6484897,0.6039341
13944000,-0.19187206,0.20714512,1.4080505,0.7482615,-0.13923724,0.01677293,0.6484107,0.60313725
13968000,-0.17743553,0.20717798,1.4154533,0.7468402,-0.13392147,0.0209698,0.65104157,0.60233456
13992000,-0.17457213,0.20719965,1.4152964,0.7470807,-0.13285726,0.021920525,0.6509523,0.60157764
14016000,-0.17166594,0.20722981,1.4151938,0.7473044,-0.13177997,0.022884596,0.6508813,0.60081726
14040000,-0.16889206,0.20725778,1.4150951,0.74751675,-0.13075113,0.023804378,0.65081203,0.6000509
14064000,-0.16624646,0.20728853,1.4149489,0.7477345,-0.1297702,0.0246864,0.65072525,0.59925646
14088000,-0.16354196,0.20732062,1.4148524,0.74793863,-0.12876795,0.025584705,0.6506551,0.59846294
14112000,-0.16099788,0.2073197,1.4146993,0.74815166,-0.12781414,0.02642179,0.6505648,0.5979713
14136000,-0.15859386,0.20732471,1.4146194,0.7483305,-0.12691528,0.027210716,0.6505026,0.5974413
14160000,-0.15633826,0.20733257,1.4144677,0.7485219,-0.1260716,0.027956884,0.6504147,0.59691083
14184000,-0.15395407,0.20734203,1.4143713,0.7487024,-0.12518084,0.028741844,0.6503447,0.5963788
14208000,-0.15180264,0.20734075,1.4142202,0.74888587,-0.12437274,0.029450327,0.65025693,0.5959412
14232000,-0.14950964,0.2073478,1.4141281,0.74905753,-0.123514935,0.030204192,0.6501882,0.5954905
14256000,-0.14736581,0.20735824,1.4139708,0.7492399,-0.12271283,0.030914731,0.6500964,0.59502316
14280000,-0.14517017,0.20737168,1.4138783,0.7494034,-0.12189305,0.031639136,0.6500274,0.59452045
14304000,-0.1431866,0.2073791,1.4137305,0.74957144,-0.121149726,0.03229559,0.64994025,0.5940639
14328000,-0.14123137,0.20739576,1.4136571,0.7497124,-0.12042099,0.0329417,0.64988077,0.59356666
14352000,-0.13937867,0.20741868,1.4135101,0.74987,-0.11973129,0.033561207,0.64979464,0.593079
14376000,-0.12572415,0.20744345,1.4209411,0.7482499,-0.11475733,0.037579987,0.6523348,0.5925619
14400000,-0.12398549,0.20746092,1.4207934,0.74839646,-0.114109606,0.03816211,0.65224636,0.5920945
14424000,-0.12212915,0.20748636,1.420707,0.7485287,-0.11342142,0.03878201,0.6521781,0.59160554
14448000,-0.12045723,0.20751604,1.4205644,0.7486681,-0.11280237,0.03934646,0.6520918,0.5910999
14472000,-0.118716985,0.20754996,1.4204811,0.7487911,-0.11216013,0.039931353,0.65202564,0.59057206
14496000,-0.11718161,0.2075736,1.4203391,0.74892193,-0.11158999,0.04044876,0.6519414,0.59010774
14520000,-0.115624644,0.207606,1.4202561,0.7490337,-0.11101565,0.040973138,0.65187824,0.5896173
14544000,-0.114284486,0.20764233,1.4201277,0.74914765,-0.11052273,0.041430783,0.6518022,0.5890993
14568000,-0.11282351,0.20768186,1.4200553,0.7492496,-0.10998665,0.041925848,0.65174407,0.58855104
14592000,-0.11147969,0.20773694,1.41998,0.7493446,-0.109499305,0.04238872,0.65168685,0.58788407
14616000,-0.11033472,0.20779572,1.4198371,0.74945045,-0.10908614,0.042791836,0.65160817,0.5872118
14640000,-0.109021954,0.20785633,1.4197545,0.7495453,-0.10861188,0.043246947,0.65154815,0.5865233
14664000,-0.09604093,0.2079182,1.4271247,0.74782604,-0.10393894,0.04711559,0.654013,0.58582723
14688000,-0.09482021,0.20798223,1.4270437,0.74791235,-0.10350125,0.047543116,0.6539528,0.5851147
14712000,-0.09375809,0.20799363,1.4268987,0.748014,-0.10310426,0.047902163,0.6538731,0.58479685
14736000,-0.09272068,0.20801565,1.4268196,0.74809206,-0.10272147,0.0482537,0.6538182,0.5844373
14760000,-0.09181716,0.20804417,1.426674,0.74818444,-0.10238919,0.04856727,0.65374136,0.5840674
14784000,-0.09093627,0.20807399,1.4265933,0.7482542,-0.10206731,0.04887058,0.6536892,0.58366567
14808000,-0.090244524,0.20811743,1.4264483,0.7483345,-0.10181898,0.049120426,0.6536173,0.58317965
14832000,-0.08946107,0.20816971,1.4263582,0.748401,-0.101540506,0.04940076,0.65356344,0.5826809
14856000,-0.08885767,0.20822063,1.4262086,0.7484777,-0.101327464,0.04962473,0.6534916,0.5821585
14880000,-0.08817391,0.20827422,1.4261092,0.74854195,-0.10108641,0.049873374,0.6534365,0.581634
14904000,-0.08760471,0.20833233,1.4259583,0.7486169,-0.10088838,0.050088882,0.6533647,0.58107203
14928000,-0.07516378,0.20839658,1.4333928,0.7467939,-0.09645122,0.05381819,0.6558198,0.5804999
14952000,-0.074712664,0.20846328,1.433306,0.7468408,-0.09630211,0.05399537,0.65577394,0.5799129
14976000,-0.07434664,0.20853198,1.4331566,0.7469038,-0.0961837,0.05414839,0.6557068,0.579307
15000000,-0.07389523,0.20857741,1.4330692,0.74695176,-0.09602751,0.054317676,0.655661,0.5788738
15024000,-0.07359935,0.20862839,1.432918,0.747013,-0.09592946,0.054441083,0.6555954,0.57841223
15048000,-0.07316742,0.20868286,1.4328346,0.74705815,-0.09578355,0.054607145,0.65555143,0.5779243
15072000,-0.07297493,0.20874114,1.4326836,0.7471139,-0.095726445,0.05469939,0.65548855,0.57743454
15096000,-0.07264138,0.20880517,1.432592,0.74715656,-0.09562015,0.054837167,0.65544385,0.57689327
15120000,-0.072539285,0.20887528,1.4324383,0.7472083,-0.09560056,0.054904338,0.65538216,0.57633203
15144000,-0.07242669,0.20895,1.4323579,0.74723613,-0.095580555,0.054973178,0.6553475,0.5757434
15168000,-0.06053539,0.20902732,1.4397416,0.7453642,-0.09137805,0.05856076,0.6577636,0.5751516
15192000,-0.060402207,0.20908205,1.4396515,0.7453972,-0.091343634,0.058629192,0.65772486,0.5747078
15216000,-0.060508206,0.20914505,1.4394953,0.7454406,-0.09139913,0.058625072,0.6576683,0.5742394
15240000,-0.060523465,0.209209,1.439407,0.7454659,-0.09142311,0.058648072,0.6576344,0.5737403
15264000,-0.06056624,0.20927583,1.4393206,0.74548906,-0.09145833,0.05866301,0.6576018,0.57321763
15288000,-0.060694642,0.20934345,1.4391698,0.7455294,-0.09152384,0.058653034,0.6575478,0.572692
15312000,-0.060711242,0.20937797,1.4390802,0.74555635,-0.09153868,0.058664612,0.6575141,0.5723969
15336000,-0.06103876,0.20941852,1.4389212,0.7455916,-0.091669336,0.058579426,0.65746355,0.57208383
15360000,-0.06130077,0.20946041,1.4388257,0.7456089,-0.09177789,0.05851338,0.6574346,0.571755
15384000,-0.06164284,0.20950386,1.4386659,0.7456437,-0.09191493,0.058424577,0.65738404,0.57140774
15408000,-0.0500415,0.20956576,1.4461206,0.7437072,-0.08783984,0.061933063,0.65980923,0.5709196
15432000,-0.0505155,0.20963323,1.4459707,0.7437326,-0.08803359,0.061808486,0.6597664,0.5704102
15456000,-0.050903387,0.20970108,1.4458767,0.74374324,-0.08819717,0.06171002,0.6597417,0.5698803
15480000,-0.051391162,0.20977134,1.4457241,0.7437687,-0.08839691,0.061582115,0.65969825,0.56932014
15504000,-0.051763985,0.20983112,1.4456358,0.74377847,-0.08855243,0.061485387,0.65967536,0.5688286
15528000,-0.052254055,0.2098991,1.4455522,0.74378103,-0.0887544,0.06135285,0.65965766,0.5683035
15552000,-0.05294168,0.20997186,1.4453981,0.74379784,-0.08902924,0.061160102,0.65961957,0.5677772
15576000,-0.053569004,0.21004663,1.4453139,0.7437941,-0.08928449,0.060984902,0.6596056,0.56723076
15600000,-0.05422049,0.21010952,1.4451665,0.74381053,-0.08954289,0.060800143,0.659569,0.56678516
15624000,-0.05479093,0.21018045,1.4450796,0.74381024,-0.08977564,0.060642436,0.6595523,0.5663086
15648000,-0.04357193,0.21025401,1.4524953,0.7418493,-0.08586405,0.06405078,0.66195506,0.56580955
15672000,-0.044282474,0.21033078,1.4524074,0.74184436,-0.086150065,0.06384798,0.6619431,0.56529903
15696000,-0.045046404,0.21039693,1.4522561,0.7418583,-0.08645039,0.06362632,0.6619095,0.56485575
15720000,-0.045743555,0.21046828,1.4521651,0.7418549,-0.08672958,0.06342611,0.66189605,0.5643995
15744000,-0.046566878,0.21054505,1.4520164,0.74186486,-0.08705553,0.06318871,0.6618649,0.56393576
15768000,-0.047311623,0.21062593,1.4519355,0.74185526,-0.08735585,0.062975906,0.6618563,0.5634406
15792000,-0.04799439,0.21068892,1.4518526,0.7418499,-0.087627225,0.06277705,0.66184545,0.5630895
15816000,-0.048798736,0.21075755,1.4517063,0.7418597,-0.08794357,0.06254288,0.6618145,0.56271315
15840000,-0.049574297,0.21082929,1.451621,0.7418504,-0.08825219,0.06231673,0.6618053,0.56231433
15864000,-0.05034992,0.2109039,1.4514773,0.74186015,-0.088559955,0.06209424,0.6617742,0.561898
15888000,-0.05110014,0.21098083,1.451389,0.74185234,-0.088860795,0.061878588,0.6617627,0.561478
15912000,-0.04016905,0.21106878,1.4588171,0.73986125,-0.0850766,0.06521177,0.66416466,0.56095797
15936000,-0.041088846,0.21116485,1.4587344,0.7398451,-0.08544591,0.064945534,0.6641613,0.56041193
15960000,-0.04210468,0.21126612,1.4585904,0.73984474,-0.08585049,0.06465198,0.66413826,0.5598726
15984000,-0.042973794,0.21136957,1.4585046,0.7398311,-0.08620341,0.064405486,0.66413176,0.5593325
16008000,-0.043823473,0.21148469,1.4584277,0.7398146,-0.08655327,0.06416942,0.66412747,0.55867434
16032000,-0.044746857,0.21160294,1.4582819,0.7398174,-0.08692923,0.06391306,0.6640999,0.55800855
16056000,-0.04567746,0.21172208,1.4582057,0.7397965,-0.087310374,0.06365162,0.6640982,0.55732447
16080000,-0.046700843,0.2118415,1.4580606,0.73979425,-0.08772375,0.063362524,0.6640738,0.55663556
16104000,-0.047649156,0.21191269,1.4579759,0.73977745,-0.08809535,0.06307784,0.6640706,0.55632216
16128000,-0.04867151,0.21198942,1.4578264,0.7397783,-0.08849413,0.06277349,0.66404545,0.55599785
16152000,-0.049681284,0.2120683,1.4577423,0.73975766,-0.088891044,0.062471278,0.6640439,0.5556681
16176000,-0.05077717,0.21215679,1.4575987,0.7397523,-0.08932111,0.062146693,0.66402256,0.55533177
16200000,-0.039834734,0.21222362,1.4651116,0.7377286,-0.085541114,0.06548272,0.66644675,0.555058
16224000,-0.04082616,0.2123021,1.4650277,0.7377105,-0.085930094,0.065185025,0.666446,0.5547634
16248000,-0.041912317,0.21237746,1.4648875,0.7377069,-0.086351156,0.06485703,0.66642755,0.5544288
16272000,-0.042839833,0.21246015,1.4648098,0.7376887,-0.086718164,0.06458196,0.6664266,0.55407804
16296000,-0.043914232,0.2125646,1.4646704,0.73768365,-0.0871446,0.06426871,0.6664069,0.5535627
16320000,-0.04488072,0.21266726,1.4645913,0.73766303,-0.087532565,0.06398816,0.6664059,0.5530209
16344000,-0.045961782,0.21277884,1.4644463,0.7376586,-0.08796364,0.06367564,0.6663839,0.5524899
16368000,-0.047004107,0.21288702,1.4643662,0.73763424,-0.08838137,0.06337196,0.6663845,0.5519444
16392000,-0.048094284,0.21296726,1.4642222,0.7376301,-0.08880548,0.06304483,0.6663637,0.5517432
16416000,-0.049061544,0.21305205,1.464147,0.73760813,-0.089187935,0.06275731,0.6663642,0.55149424
16440000,-0.04999735,0.21313949,1.4640708,0.7375876,-0.089559644,0.062481336,0.66636306,0.5512197
16464000,-0.051058788,0.21322894,1.4639354,0.7375807,-0.08997649,0.062166918,0.66634387,0.5509141
16488000,-0.040186245,0.21332191,1.4714631,0.7355427,-0.086243436,0.0654987,0.6687666,0.55059355
16512000,-0.041243725,0.21344523,1.4713235,0.735538,-0.08666883,0.06519667,0.6687464,0.5500338
16536000,-0.042143527,0.2135719,1.4712445,0.73551947,-0.08703932,0.06494601,0.6687431,0.54946125
16560000,-0.04332293,0.2137015,1.4711033,0.7355091,-0.0875116,0.06460567,0.6687257,0.54888564
16584000,-0.04427829,0.21383406,1.4710249,0.7354873,-0.0879045,0.06433864,0.66872406,0.5483121
16608000,-0.04540889,0.2139195,1.4708798,0.735482,-0.08834402,0.06399856,0.6687046,0.54811525
16632000,-0.046446774,0.21401268,1.4708017,0.73545766,-0.08875419,0.06368942,0.66870654,0.54787916
16656000,-0.04749338,0.21411023,1.4707221,0.73543316,-0.08916895,0.063379064,0.6687078,0.5476331
16680000,-0.048615206,0.21421117,1.4705751,0.7354273,-0.089610375,0.06304784,0.66868645,0.5473773
16704000,-0.049606074,0.21431336,1.470496,0.7354044,-0.0900062,0.06275785,0.66868585,0.54710597
16728000,-0.050654594,0.21442029,1.4703542,0.7353994,-0.09042285,0.062453195,0.6686637,0.5468046
16752000,-0.051591765,0.21453023,1.4702675,0.7353806,-0.09080127,0.06218443,0.6686581,0.54649633
16776000,-0.052674934,0.21464449,1.4701263,0.73537296,-0.09123312,0.061870955,0.6686367,0.54618144
16800000,-0.041806877,0.21474907,1.4776738,0.73332584,-0.08751724,0.06521225,0.67105985,0.5459463
16824000,-0.042742427,0.21485941,1.4775966,0.7333055,-0.0878946,0.06494235,0.6710589,0.545692
16848000,-0.04386393,0.21497281,1.4774538,0.73329866,-0.08833902,0.0646141,0.67103964,0.54544365
16872000,-0.044846676,0.21509084,1.4773797,0.7332745,-0.08873635,0.06433112,0.67104083,0.5451651
16896000,-0.045920208,0.21519148,1.4772438,0.73326766,-0.08915916,0.06401404,0.6710227,0.54504186
16920000,-0.046875738,0.21530047,1.4771686,0.733245,-0.08954346,0.06373696,0.67102265,0.5448884
16944000,-0.047856502,0.21541338,1.4770329,0.73324114,-0.089936376,0.06345557,0.67100096,0.5447132
16968000,-0.048795275,0.21553002,1.4769595,0.7332179,-0.090317145,0.06318689,0.6710006,0.5445219
16992000,-0.049766216,0.21565582,1.4768832,0.73319346,-0.09071263,0.06291094,0.6709997,0.54424036
17016000,-0.050823744,0.21578711,1.4767454,0.7331853,-0.09113978,0.06261077,0.6709789,0.5439304
17040000,-0.051810842,0.21591969,1.476671,0.73315877,-0.091543525,0.062331866,0.6709789,0.5435989
17064000,-0.052781936,0.21605422,1.4765335,0.7331538,-0.091940075,0.062061947,0.6709552,0.5432563
17088000,-0.053743675,0.21619019,1.4764565,0.7331287,-0.09233557,0.061792962,0.67095304,0.5429114
17112000,-0.054744042,0.21633543,1.4763168,0.7331222,-0.09274636,0.061517358,0.6709289,0.5424838
17136000,-0.05554348,0.21648535,1.4762391,0.7331038,-0.09308699,0.061308052,0.670921,0.54204786
17160000,-0.056444995,0.21663792,1.4761652,0.733079,-0.09346601,0.06106531,0.6709175,0.5415998
17184000,-0.045625128,0.2167937,1.483666,0.73104644,-0.08979291,0.064415105,0.67331946,0.54114425
17208000,-0.046565935,0.21693668,1.4835902,0.73102283,-0.09018223,0.064154275,0.673318,0.5408599
17232000,-0.04755583,0.21707249,1.4834521,0.73101807,-0.0905851,0.06387715,0.6732954,0.54053736
17256000,-0.04843209,0.21721645,1.4833769,0.7309966,-0.09095116,0.063638434,0.67329186,0.54021
17280000,-0.04940479,0.21736284,1.4832412,0.73099095,-0.09135135,0.06337094,0.67326903,0.5398737
17304000,-0.050282504,0.21750754,1.4831659,0.7309692,-0.0917182,0.06313208,0.6732653,0.53955716
17328000,-0.051284116,0.21765737,1.4830352,0.73095983,-0.09213029,0.06285595,0.673245,0.539202
17352000,-0.052118715,0.21780878,1.4829642,0.7309379,-0.092483744,0.0626339,0.67324114,0.5388304
17376000,-0.052942462,0.21796529,1.4828866,0.7309181,-0.09283471,0.062417712,0.6732343,0.5384582
17400000,-0.053878587,0.21813273,1.4827491,0.7309126,-0.093228556,0.062170517,0.67320865,0.5380354
17424000,-0.05475647,0.218303,1.4826698,0.7308899,-0.093603864,0.061941285,0.6732024,0.5376037
17448000,-0.05566548,0.21847466,1.4825355,0.730884,-0.09398929,0.0617047,0.67317677,0.5371616
17472000,-0.056471154,0.21864884,1.4824599,0.730863,-0.094339624,0.06150109,0.67316943,0.5367085
17496000,-0.057353992,0.21881537,1.4823195,0.7308601,-0.0947136,0.061271783,0.6731408,0.5363022
17520000,-0.05815204,0.21898806,1.4822377,0.7308412,-0.09506045,0.061070547,0.67313075,0.53589475
17544000,-0.058825776,0.21916318,1.4821596,0.7308266,-0.09536278,0.06091187,0.67311823,0.53549343
17568000,-0.05969094,0.21934107,1.4820168,0.7308245,-0.09573403,0.06069292,0.67308766,0.5351049
17592000,-0.060411878,0.21948107,1.481942,0.73080796,-0.09604198,0.060505345,0.6730786,0.535062
17616000,-0.04935769,0.21962826,1.48947,0.72878313,-0.092291795,0.06393173,0.6754776,0.53498185
17640000,-0.05015451,0.21977597,1.4893925,0.7287653,-0.09262927,0.0637203,0.6754707,0.53489786
17664000,-0.05088609,0.21992503,1.4893175,0.7287494,-0.09294349,0.06353129,0.67546254,0.5347903
17688000,-0.051727343,0.22007617,1.4891819,0.7287486,-0.09329645,0.06330886,0.67543554,0.53465676
17712000,-0.05245781,0.22026289,1.4891075,0.7287304,-0.093622915,0.06313403,0.67542636,0.53420246
17736000,-0.053218454,0.22045536,1.4889721,0.72873104,-0.09396039,0.06295402,0.67539567,0.53373986
17760000,-0.053894505,0.2206482,1.488898,0.72871464,-0.09426909,0.062799856,0.6753847,0.5332608
17784000,-0.054688096,0.22084087,1.48876,0.7287142,-0.09461856,0.06260898,0.67535394,0.53279334
17808000,-0.055446863,0.22099769,1.4886872,0.728695,-0.09494534,0.062413685,0.67534685,0.53264433
17832000,-0.056143336,0.22115713,1.4886106,0.7286798,-0.09525019,0.062240556,0.67533636,0.53248954
17856000,-0.05694408,0.22131756,1.4884745,0.72867954,-0.0955915,0.06203546,0.6753073,0.53230983
17880000,-0.057602976,0.22148044,1.4884,0.728665,-0.095883876,0.061876245,0.67529625,0.53211975
17904000,-0.05827315,0.22164029,1.4882652,0.7286703,-0.09617747,0.06171502,0.6752635,0.5319311
17928000,-0.058909763,0.2218084,1.4881895,0.72865665,-0.096463434,0.06156536,0.675251,0.5317238
17952000,-0.05959365,0.22198002,1.488054,0.7286607,-0.09676596,0.06140391,0.6752182,0.531507
17976000,-0.06017689,0.22215313,1.4879777,0.7286494,-0.097034134,0.061274156,0.6752037,0.5312853
18000000,-0.06077897,0.22231758,1.4879023,0.7286373,-0.09730628,0.06113485,0.67519027,0.53113467
18024000,-0.061443858,0.22248562,1.4877652,0.7286425,-0.09760064,0.060978673,0.6751561,0.53096277
18048000,-0.061971232,0.22265439,1.487691,0.72863317,-0.09784706,0.060866155,0.6751408,0.5307739
18072000,-0.0625829,0.22282504,1.4875569,0.72863966,-0.09812299,0.06072882,0.675106,0.5305652
18096000,-0.06311959,0.22298746,1.4874815,0.72863036,-0.098370634,0.060610913,0.67509055,0.5304192
18120000,-0.051884573,0.22315347,1.4950297,0.72661155,-0.0945743,0.06410666,0.67748183,0.53026134
18144000,-0.052425016,0.2233207,1.4949564,0.72660255,-0.09482458,0.063988134,0.6774678,0.5300768
18168000,-0.05292948,0.22348955,1.4948847,0.7265944,-0.0950624,0.063882336,0.67745316,0.52987343
18192000,-0.05358045,0.22368373,1.49475,0.7265994,-0.095359944,0.063739195,0.67741954,0.52943146
18216000,-0.054164622,0.22388452,1.4946752,0.7265868,-0.09563735,0.063618265,0.67740524,0.5289917
18240000,-0.054768726,0.22408715,1.4945383,0.72659403,-0.09592065,0.06349424,0.67736906,0.52855754
18264000,-0.05528109,0.22429135,1.4944627,0.72658473,-0.096173085,0.06339895,0.67735213,0.52811754
18288000,-0.0558429,0.22449583,1.4943217,0.72659516,-0.09644151,0.06329019,0.67731297,0.52769107
18312000,-0.056291778,0.2246723,1.4942427,0.72659135,-0.09666144,0.06320649,0.67729354,0.52753097
18336000,-0.05681859,0.2248539,1.4941667,0.7265824,-0.096911505,0.06309813,0.67727757,0.5273502
18360000,-0.05736823,0.2250361,1.4940282,0.7265934,-0.09716809,0.062985316,0.67723954,0.52716583
18384000,-0.057869054,0.22521971,1.4939538,0.7265848,-0.09740943,0.06288645,0.67722315,0.526965
18408000,-0.05845898,0.22539143,1.4938194,0.7265928,-0.09767725,0.062756024,0.6771881,0.5268703
18432000,-0.05898872,0.22556746,1.4937431,0.7265837,-0.09792649,0.062644735,0.6771722,0.5267736
18456000,-0.059450816,0.22574538,1.4936662,0.72657794,-0.09815176,0.06255708,0.67715377,0.52666444
18480000,-0.059979636,0.22592588,1.4935281,0.72658944,-0.098400235,0.062450815,0.67711526,0.52654284
18504000,-0.060383823,0.22611937,1.493452,0.7265853,-0.098609716,0.062388472,0.67709494,0.5262848
18528000,-0.060848232,0.2263167,1.4933143,0.7265989,-0.09884046,0.0623102,0.67705405,0.5259964
18552000,-0.061300617,0.2265148,1.4932387,0.72659177,-0.099069014,0.062233232,0.6770352,0.5256897
18576000,-0.061765023,0.2267147,1.4930991,0.72660565,-0.09930055,0.062156044,0.6769935,0.5253815
18600000,-0.062138453,0.22690555,1.4930277,0.72660136,-0.0994981,0.062102977,0.676974,0.5251587
18624000,-0.06257588,0.2271022,1.4929537,0.72659445,-0.099720776,0.062030517,0.6769554,0.5249185
18648000,-0.06312704,0.2272995,1.4928182,0.7266024,-0.099983074,0.061922874,0.67691785,0.5246627
18672000,-0.06351021,0.22749728,1.4927393,0.7265997,-0.10018626,0.061869487,0.67689574,0.5243993
18696000,-0.06398368,0.22769646,1.4925985,0.7266131,-0.100420795,0.061789162,0.6768539,0.5241315
18720000,-0.06434955,0.2278972,1.4925233,0.72660965,-0.1006188,0.061742544,0.6768325,0.52385324
18744000,-0.052982572,0.22809753,1.5001075,0.7245891,-0.09680313,0.06529492,0.67921746,0.52358484
18768000,-0.05329209,0.22829854,1.5000317,0.7245897,-0.09698062,0.06526673,0.6791942,0.5233114
18792000,-0.053685695,0.22847126,1.4999602,0.7245861,-0.09717915,0.065199465,0.6791761,0.52330464
18816000,-0.054101292,0.22865407,1.4998226,0.7246033,-0.097386904,0.065131634,0.6791345,0.5232804
18840000,-0.05448092,0.22883965,1.4997481,0.72460073,-0.09758462,0.06507399,0.6791145,0.52324206
18864000,-0.055002708,0.22902828,1.4996148,0.7246108,-0.09783295,0.06497208,0.6790776,0.52318
18888000,-0.05531689,0.2292182,1.4995402,0.72461104,-0.098008394,0.06493828,0.67905533,0.52310324
18912000,-0.055618633,0.22942398,1.4994665,0.7246108,-0.09818472,0.064914435,0.67903256,0.5228524
18936000,-0.055968575,0.22963192,1.4993296,0.72462934,-0.09837717,0.06487815,0.6789882,0.52258223
18960000,-0.056368675,0.22983927,1.4992571,0.7246236,-0.09858969,0.06482147,0.678969,0.5222943
18984000,-0.056771457,0.23004787,1.4991214,0.72463906,-0.09880154,0.06476747,0.6789269,0.5219929
19008000,-0.05710194,0.23023096,1.4990453,0.72463906,-0.09898053,0.0647258,0.67890465,0.5219596
19032000,-0.05737659,0.23041888,1.4989731,0.72464025,-0.09914104,0.06470466,0.678882,0.52190304
19056000,-0.05781422,0.23060854,1.4988322,0.7246565,-0.099358976,0.064632244,0.67883974,0.5218428
19080000,-0.05804839,0.23079951,1.4987569,0.7246605,-0.09950573,0.064626135,0.67881453,0.52176994
19104000,-0.058469098,0.23100322,1.498618,0.7246762,-0.099722326,0.06456454,0.678772,0.5215112
19128000,-0.058746945,0.23121093,1.4985421,0.7246772,-0.09989052,0.064549774,0.6787474,0.5212401
19152000,-0.059038658,0.23142058,1.4984056,0.724698,-0.10006245,0.06453405,0.67870146,0.52096087
19176000,-0.059312563,0.23163094,1.4983308,0.7246986,-0.10023014,0.06452156,0.6786772,0.5206773
19200000,-0.059665814,0.231853,1.4982575,0.7246942,-0.10043056,0.064486355,0.6786557,0.52024466
19224000,-0.060037524,0.23207894,1.4981227,0.7247094,-0.10063701,0.0644494,0.6786124,0.51979405
19248000,-0.06028504,0.23230572,1.4980531,0.7247086,-0.10080082,0.06445165,0.6785886,0.51933736
19272000,-0.060689,0.23253211,1.4979154,0.724723,-0.10101899,0.0644041,0.6785453,0.5189003
19296000,-0.060963254,0.2327261,1.4978461,0.72472245,-0.101181455,0.064385325,0.67852354,0.5187697
19320000,-0.061210383,0.23292547,1.4977708,0.72472495,-0.101335704,0.06437802,0.67849857,0.51862484
19344000,-0.061550807,0.2331267,1.4976333,0.72474366,-0.10152237,0.06434292,0.678454,0.5184773
19368000,-0.061732847,0.23332895,1.4975563,0.72474986,-0.10165394,0.06435887,0.67842615,0.5183329
19392000,-0.062097713,0.23353402,1.497415,0.7247683,-0.10185063,0.06431711,0.6783809,0.51815236
19416000,-0.062365748,0.23374408,1.4973397,0.72476906,-0.10201603,0.06430668,0.67835635,0.51795524
19440000,-0.05077809,0.23395427,1.5050337,0.7227236,-0.09814803,0.06793543,0.6807513,0.5177399
19464000,-0.05108888,0.23416401,1.5048981,0.72274375,-0.09832667,0.06791253,0.68070644,0.51750875
19488000,-0.051261436,0.23437384,1.5048264,0.72274894,-0.098457545,0.06793358,0.6806799,0.51725554
19512000,-0.051560104,0.23456088,1.5046909,0.7227707,-0.09862411,0.06790659,0.6806353,0.5172375
19536000,-0.051812887,0.23475303,1.5046178,0.7227732,-0.09877795,0.067894004,0.68061167,0.5171962
19560000,-0.05213322,0.23494674,1.5044825,0.7227934,-0.09895462,0.0678621,0.6805677,0.51713943
19584000,-0.05223008,0.23514114,1.5044096,0.72280335,-0.099052854,0.06790342,0.6805386,0.5170724
19608000,-0.052485503,0.2353347,1.5043361,0.7228057,-0.0992081,0.067890495,0.6805149,0.51699406
19632000,-0.052813575,0.235535,1.5042003,0.7228253,-0.09938976,0.067858435,0.6804709,0.5169023
19656000,-0.053079,0.23573637,1.5041246,0.7228274,-0.09955118,0.06784509,0.6804463,0.5168097
19680000,-0.05336798,0.23593947,1.50399,0.7228482,-0.09971969,0.06782733,0.68040127,0.5166951
19704000,-0.05362218,0.23614544,1.5039147,0.7228504,-0.0998786,0.06781948,0.6803764,0.51655626
19728000,-0.053878337,0.23635359,1.5038404,0.72285205,-0.100039005,0.06781175,0.68035185,0.51640433
19752000,-0.05413691,0.22777613,1.5037055,0.72332627,-0.09722928,0.064610966,0.68056667,0.50149804
19776000,-0.054329596,0.21919721,1.5036296,0.7237711,-0.09439582,0.061427683,0.6807874,0.46945378
19800000,-0.05467213,0.21061622,1.503482,0.7242209,-0.09161238,0.058194503,0.6809734,0.43989918
19824000,-0.0549314,0.20203304,1.5033778,0.7246471,-0.08879818,0.054985397,0.6811593,0.4126917
19848000,-0.05524152,0.19344741,1.5032481,0.72506756,-0.08599971,0.051757805,0.6813239,0.3877722
19872000,-0.055626903,0.1848589,1.5030328,0.72550166,-0.08322446,0.04850572,0.68144566,0.3650187
19896000,-0.055920385,0.17626192,1.5028641,0.7259117,-0.08041333,0.045278408,0.68156856,0.34479696
19920000,-0.056305896,0.16765614,1.5026176,0.7263325,-0.077630155,0.042018183,0.6816518,0.3264542
19944000,-0.05662204,0.15904118,1.5024209,0.7267269,-0.07481914,0.038774863,0.68173784,0.30988404
19968000,-0.05693565,0.15041666,1.5022112,0.7271137,-0.072003074,0.03552807,0.6818057,0.2949524
19992000,-0.05729712,0.14177838,1.5019329,0.7275101,-0.06919808,0.032261014,0.6818357,0.2818423
20016000,-0.057527285,0.1331262,1.5017123,0.7278791,-0.06634115,0.029030304,0.681871,0.27006543
20040000,-0.05787295,0.12445996,1.5014253,0.7282546,-0.06352018,0.025755994,0.6818703,0.2595123
20064000,-0.058090568,0.1157796,1.5011991,0.72860104,-0.060648303,0.022517007,0.68187636,0.25005713
20088000,-0.05844756,0.10708512,1.5009768,0.72892946,-0.0578221,0.01922414,0.68187153,0.24156708
20112000,-0.058766454,0.09837023,1.5006872,0.72926974,-0.05497427,0.015937628,0.6818281,0.2345138
20136000,-0.059001196,0.08963521,1.5004588,0.72957885,-0.052089266,0.012669705,0.6817923,0.22823134
20160000,-0.059162192,0.0808804,1.500231,0.729877,-0.049170434,0.00941876,0.6817427,0.22262123
20184000,-0.04763056,0.07210625,1.50802,0.7276817,-0.042015664,0.009976741,0.6845541,0.217616
20208000,-0.047695413,0.06330338,1.5078214,0.7279287,-0.039030686,0.006750314,0.6845078,0.21394633
20232000,-0.047747083,0.054472636,1.5076218,0.7281629,-0.03603128,0.003517533,0.6844474,0.21071635
20256000,-0.047972653,0.045614906,1.5073586,0.7284023,-0.033085924,0.000215791,0.68435025,0.20313893
20280000,-0.04803963,0.03673113,1.5071639,0.7286075,-0.030074038,-0.003042997,0.6842641,0.19116698
20304000,-0.048057884,0.029270621,1.5069724,0.7287789,-0.027530957,-0.005766722,0.68417114,0.18116729
20328000,-0.048245784,0.025923802,1.5067122,0.7289098,-0.026456269,-0.007047897,0.6840621,0.17219049
20352000,-0.048309553,0.022783285,1.5065173,0.72901547,-0.025406841,-0.008212472,0.68397623,0.16411021
20376000,-0.048374645,0.019847035,1.5063223,0.72911704,-0.024427876,-0.009303181,0.6838897,0.15688735
20400000,-0.048433322,0.016929373,1.5060635,0.72923875,-0.023453416,-0.010384335,0.68377846,0.1509232
20424000,-0.048439942,0.01418846,1.5058675,0.7293361,-0.022520248,-0.011384156,0.68369,0.14557517
20448000,-0.048376143,0.011612531,1.5056758,0.7294297,-0.021617895,-0.012299927,0.6836034,0.14074515
20472000,-0.048441093,0.009204819,1.505416,0.7295423,-0.02082057,-0.013197774,0.6834913,0.13643652
20496000,-0.048395917,0.006722303,1.5052199,0.72963387,-0.019957269,-0.014086105,0.68340147,0.13328041
20520000,-0.04830379,0.004383361,1.5050242,0.7297234,-0.019126024,-0.014906161,0.6833123,0.13042536
20544000,-0.048297305,0.002187579,1.5047618,0.7298325,-0.018375589,-0.015702764,0.6831985,0.12788557
20568000,-0.048188042,0.00012436,1.5045648,0.72991824,-0.01763257,-0.016416632,0.6831097,0.12558639
20592000,-0.048087236,-0.002232666,1.5043683,0.7300052,-0.01679241,-0.017240763,0.68301773,0.124774754
20616000,-0.048021194,-0.004450612,1.5041015,0.7301136,-0.016013207,-0.018025577,0.6829002,0.12409642
20640000,-0.047898207,-0.006543791,1.5039039,0.7301972,-0.015255354,-0.01874612,0.6828089,0.1234881
20664000,-0.047726024,-0.008511754,1.5037074,0.73027885,-0.014522404,-0.0194043,0.6827192,0.122961
20688000,-0.047568824,-0.01035718,1.5035077,0.7303599,-0.013836905,-0.020022959,0.68262875,0.12253155
20712000,-0.047542952,-0.012209928,1.5032444,0.7304612,-0.01319764,-0.020688813,0.6825131,0.12238507
20736000,-0.04729534,-0.013938208,1.5030488,0.73053944,-0.012519306,-0.021234132,0.68242544,0.1222779
20760000,-0.047025282,-0.015561133,1.5028553,0.73061574,-0.0118688,-0.021733455,0.6823396,0.122145414
20784000,-0.0468051,-0.017078193,1.502592,0.73071444,-0.011273507,-0.02221085,0.68222857,0.12198852
20808000,-0.046568643,-0.018790191,1.5024009,0.730789,-0.01060505,-0.02275443,0.68214166,0.122587964
20832000,-0.046294816,-0.020391634,1.5022104,0.7308624,-0.009960741,-0.023245003,0.68205625,0.12314132
20856000,-0.04601846,-0.021891428,1.5020224,0.7309338,-0.009350247,-0.023697704,0.68197274,0.1236283
20880000,-0.04577919,-0.023295846,1.5017661,0.7310275,-0.008786746,-0.024128014,0.6818647,0.12401818
20904000,-0.045354005,-0.024778174,1.5015805,0.73109746,-0.008127942,-0.02452384,0.68178356,0.12483336
20928000,-0.045034602,-0.026160525,1.5013971,0.73116547,-0.007541951,-0.024919312,0.6817031,0.12554516
20952000,-0.032907326,-0.027443456,1.5098357,0.72831535,-0.002581036,-0.021265205,0.68490714,0.12615392
20976000,-0.07060644,-0.031153036,0.7707359,0.9261771,-0.026851999,-0.027690683,0.37511092,0.30965552
21000000,-0.10830556,-0.021294467,0.7707359,0.9254659,-0.0461575,-0.030196652,0.3747938,0.34140152
21024000,-0.14600468,-0.011408718,0.7707359,0.9243334,-0.06544864,-0.03268867,0.3745073,0.37037957
21048000,-0.1837038,-0.00149941,0.7707359,0.9227795,-0.08471521,-0.035170395,0.37425175,0.39670685
21072000,-0.22140291,0.008429701,0.7707359,0.92080474,-0.103946984,-0.037645567,0.37402737,0.42052266
21096000,-0.25910202,0.018371288,0.7707359,0.91840994,-0.12313308,-0.040119566,0.373834,0.44179147
21120000,-0.29680112,0.02832167,0.7707359,0.9155962,-0.14226332,-0.042596072,0.37367144,0.46086365
21144000,-0.33450022,0.03827725,0.7707359,0.91236484,-0.16132763,-0.04507872,0.37353924,0.47792643
21168000,-0.37219933,0.048234582,0.7707359,0.9087178,-0.18031588,-0.04757105,0.37343687,0.49312168
21192000,-0.40989843,0.058182124,0.7707359,0.9046573,-0.19921666,-0.050080247,0.3733629,0.5061215
21216000,-0.44759753,0.06811712,0.7707359,0.90018576,-0.2180202,-0.052609425,0.37331623,0.5175966
21240000,-0.48529664,0.07803703,0.7707359,0.8953058,-0.23671685,-0.05516158,0.3732958,0.52766925
21264000,-0.52299577,0.0879396,0.7707359,0.8900205,-0.2552971,-0.057739515,0.37330037,0.5364586
21288000,-0.5606949,0.097822845,0.7707359,0.8843327,-0.27375153,-0.060345836,0.37332854,0.54412985
21312000,-0.598394,0.10767391,0.7707359,0.87824684,-0.29206896,-0.062987976,0.3733775,0.5501351
21336000,-0.6360931,0.11749195,0.7707359,0.8717665,-0.31024063,-0.0656679,0.37344557,0.55523145
21360000,-0.6737922,0.12727639,0.7707359,0.8648957,-0.32825768,-0.06838736,0.37353113,0.5595781
21384000,-0.7114913,0.13702688,0.7707359,0.8576384,-0.34611154,-0.071147986,0.3736324,0.5632329
21408000,-0.7491904,0.14672418,0.7707359,0.85000086,-0.3637906,-0.07395949,0.3737446,0.56511414
21432000,-0.77940667,0.15636952,0.7707359,0.84340817,-0.3781341,-0.07542325,0.37415063,0.5665118
21456000,-0.78021646,0.16596435,0.7707359,0.8422404,-0.3800019,-0.071421295,0.3756709,0.56754905
21480000,-0.78077304,0.17108376,0.7707359,0.8415851,-0.38104698,-0.06930931,0.37647557,0.56827164
21504000,-0.7810347,0.17482167,0.7707359,0.8411305,-0.38174736,-0.06773995,0.37706718,0.5678419
21528000,-0.7809975,0.17830518,0.7707359,0.84075785,-0.38228065,-0.06622427,0.37762707,0.56724656
21552000,-0.78500706,0.18154135,0.7630006,0.84108925,-0.38472432,-0.06409299,0.374764,0.5665365
21576000,-0.79565555,0.18455215,0.74254584,0.84248555,-0.3903043,-0.06079635,0.36631215,0.56575406
21600000,-0.8011176,0.18746294,0.7309764,0.8432021,-0.39338228,-0.05825931,0.3617545,0.5640999
21624000,-0.8059824,0.19018535,0.71984625,0.8439445,-0.39614704,-0.055753127,0.35737485,0.56248105
21648000,-0.8145632,0.19273344,0.70102936,0.8452823,-0.40064007,-0.052412003,0.34962595,0.5609406
21672000,-0.81854403,0.19511746,0.6906086,0.8460335,-0.4029182,-0.04997112,0.34552458,0.55950063
21696000,-0.822164,0.19741927,0.6804627,0.8467941,-0.40500823,-0.04753925,0.3415379,0.55768263
21720000,-0.8291802,0.19957912,0.6629196,0.84809643,-0.40866747,-0.044212624,0.33431822,0.5560043
21744000,-0.83214843,0.20161071,0.6532231,0.84888035,-0.4103953,-0.041832022,0.33049655,0.5545001
21768000,-0.838307,0.20352915,0.6364213,0.8501524,-0.41358796,-0.038538143,0.32357505,0.5531864
21792000,-0.8405506,0.20542033,0.62739146,0.8509376,-0.41494036,-0.03620006,0.3200299,0.5514363
21816000,-0.8458943,0.20719092,0.61130536,0.8521837,-0.4177029,-0.032921135,0.31340626,0.5498988
21840000,-0.84758973,0.20887792,0.6027241,0.85298735,-0.41875628,-0.030650236,0.31002623,0.54861426
21864000,-0.8490643,0.21047692,0.5943111,0.85380614,-0.41969046,-0.028411545,0.30670488,0.547569
21888000,-0.85349303,0.21198808,0.5789889,0.85504055,-0.4219542,-0.025195085,0.30037564,0.5467756
21912000,-0.85453665,0.2134893,0.5708332,0.8558813,-0.42265972,-0.022968061,0.29715052,0.5455686
21936000,-0.8584543,0.21492755,0.55593705,0.8570919,-0.42464674,-0.019755013,0.2909952,0.54462224
21960000,-0.8590669,0.2162961,0.5482006,0.8579399,-0.4251207,-0.017596632,0.2879267,0.5439193
21984000,-0.8594677,0.21759045,0.5405916,0.858811,-0.4254848,-0.015464738,0.2848987,0.543437
22008000,-0.86267155,0.21886502,0.526271,0.8600163,-0.4270847,-0.012301073,0.27896118,0.54293144
22032000,-0.86273825,0.22008634,0.5188229,0.86091113,-0.42727068,-0.010179609,0.2759859,0.54267824
22056000,-0.86550665,0.22124721,0.50486505,0.8621072,-0.42863005,-0.007057354,0.27018052,0.54266423
22080000,-0.86523545,0.22236218,0.49775225,0.8630093,-0.4286343,-0.005002819,0.2673249,0.542877
22104000,-0.86484545,0.22343147,0.49070156,0.86392355,-0.4285738,-0.002966166,0.26448444,0.54323673
22128000,-0.8672314,0.22445823,0.47698912,0.8651033,-0.42970246,0.000119373,0.25875074,0.54379964
22152000,-0.8665904,0.2254367,0.4701003,0.86603117,-0.42950225,0.002115876,0.25595585,0.5445212
22176000,-0.8686028,0.22638758,0.4567338,0.86719745,-0.43042645,0.005157091,0.25034973,0.5454372
22200000,-0.86763865,0.22733627,0.4500437,0.86814564,-0.43006167,0.007138044,0.24762656,0.54614645
22224000,-0.8666281,0.2282425,0.44326508,0.8691101,-0.4296646,0.00912258,0.24485248,0.54698694
22248000,-0.8683266,0.2291243,0.43016496,0.8702462,-0.4303991,0.012126334,0.23933485,0.5479743
22272000,-0.8671651,0.22997504,0.42358294,0.87119836,-0.4299115,0.014059238,0.23662597,0.5491067
22296000,-0.8687451,0.23079811,0.41052958,0.87230736,-0.43055603,0.017049491,0.23110786,0.5503388
22320000,-0.8674296,0.23158965,0.40403995,0.87326175,-0.42997688,0.018949926,0.22841753,0.5516603
22344000,-0.8659831,0.23236036,0.39761814,0.87423015,-0.42933187,0.020837918,0.22574708,0.5531087
22368000,-0.86725426,0.23310685,0.3847755,0.87532026,-0.42979217,0.023788117,0.22028908,0.5546484
22392000,-0.8656633,0.23385696,0.37842366,0.87628865,-0.429063,0.025661558,0.21763393,0.55588686
22416000,-0.8667187,0.23459575,0.36584863,0.87734675,-0.42939904,0.028577521,0.21227929,0.5572244
22440000,-0.8649961,0.23531613,0.3594621,0.87832505,-0.4285898,0.03045167,0.2095914,0.5586491
22464000,-0.8632127,0.2360065,0.35319105,0.8792982,-0.42774624,0.032289296,0.20694262,0.5601366
22488000,-0.8642215,0.23668088,0.3406075,0.8803077,-0.42801392,0.035180815,0.20155592,0.56169206
22512000,-0.86230576,0.23732457,0.33439836,0.8812824,-0.42709124,0.036988795,0.19891286,0.56349814
22536000,-0.86034673,0.23795062,0.32810134,0.88226753,-0.42613944,0.038806662,0.19622186,0.5653544
22560000,-0.8610614,0.23856461,0.31578293,0.88325447,-0.4262365,0.04163836,0.19091934,0.567221
22584000,-0.85896087,0.23916884,0.3096281,0.88423324,-0.4252051,0.043419264,0.18827344,0.5691224
22608000,-0.8568261,0.23978058,0.30337667,0.8852187,-0.4241494,0.045221463,0.18558049,0.57085866
22632000,-0.85735655,0.24037005,0.29117438,0.8861726,-0.42412475,0.048026066,0.18030457,0.5725679
22656000,-0.8550198,0.24095505,0.28500342,0.8871708,-0.42296138,0.049805537,0.17762634,0.5743399
22680000,-0.8526228,0.24152927,0.27892935,0.88816476,-0.4217659,0.051558457,0.17498215,0.57610434
22704000,-0.85306716,0.24208161,0.26670966,0.8890785,-0.42166007,0.054345943,0.16967277,0.5779456
22728000,-0.85057133,0.24263622,0.26066193,0.8900677,-0.4204022,0.056079485,0.16702265,0.57976395
22752000,-0.8480269,0.24318436,0.2545262,0.8910656,-0.41911274,0.05782563,0.1643253,0.5815853
22776000,-0.845313,0.24371399,0.24852595,0.89207983,-0.4177439,0.059541557,0.1616743,0.5833838
22800000,-0.8454366,0.24423344,0.23643827,0.8929737,-0.41744637,0.062290568,0.15638526,0.5852807
22824000,-0.84266347,0.24475724,0.23034924,0.8939822,-0.41602987,0.064011335,0.15367983,0.58713764
22848000,-0.8397193,0.2452695,0.22439468,0.89500695,-0.41453362,0.06570403,0.15102108,0.5889642
22872000,-0.83674383,0.24576986,0.21834457,0.8960363,-0.41301268,0.06740518,0.1483104,0.59074926
22896000,-0.83666676,0.24627599,0.20643795,0.89688057,-0.41258058,0.070097856,0.14306928,0.5924122
22920000,-0.8335576,0.24677841,0.20040211,0.89791,-0.4109821,0.07178885,0.14034843,0.59403896
22944000,-0.83031553,0.24726836,0.19438179,0.8989561,-0.40931684,0.07347127,0.13762131,0.5956289
22968000,-0.82692194,0.24775344,0.1884748,0.9000152,-0.4075802,0.075129315,0.13493243,0.5971501
22992000,-0.8234911,0.24822128,0.1824654,0.901079,-0.40581533,0.07679324,0.13218647,0.5988586
23016000,-0.82303077,0.24868692,0.17056401,0.90190876,-0.40515012,0.07944788,0.1268937,0.6005181
23040000,-0.81933475,0.24913558,0.16469659,0.9029911,-0.40325293,0.081070006,0.124184266,0.6021073
23064000,-0.81560326,0.2495934,0.15871634,0.9040756,-0.40132785,0.08271068,0.12141766,0.6036489
23088000,-0.81184053,0.25004637,0.15272717,0.9051554,-0.39938068,0.084342,0.118638195,0.6051016
23112000,-0.8078683,0.25047997,0.14687179,0.9062589,-0.39733675,0.085939154,0.115900114,0.6064652
23136000,-0.80383897,0.2509238,0.14090328,0.90736735,-0.39525464,0.08755529,0.11310346,0.60775614
23160000,-0.79967403,0.251357,0.13494305,0.90849036,-0.39310372,0.08916071,0.11029565,0.6089602
23184000,-0.79530436,0.2517864,0.12909561,0.909635,-0.39085707,0.09074128,0.10752216,0.61009365
23208000,-0.79430044,0.25221953,0.11728008,0.91042024,-0.3898583,0.093298405,0.10218117,0.61104286
23232000,-0.7897701,0.2526577,0.111335695,0.9115699,-0.3875159,0.094882734,0.09934263,0.61192095
23256000,-0.7850753,0.25308514,0.10539962,0.91273814,-0.3850911,0.0964552,0.09649061,0.61270535
23280000,-0.7802804,0.25350723,0.09956777,0.91390693,-0.38261765,0.09799625,0.09367281,0.61342764
23304000,-0.7754935,0.25391167,0.09361811,0.9150668,-0.38013434,0.099537395,0.09079081,0.61422133
23328000,-0.7705778,0.25431556,0.08767302,0.91623646,-0.37758437,0.10106895,0.08789682,0.614951
23352000,-0.7655261,0.25471616,0.0817287,0.9174171,-0.37496427,0.102590084,0.08498801,0.61561674
23376000,-0.7603199,0.25511378,0.07578884,0.91861147,-0.37226546,0.104100384,0.082064986,0.616217
23400000,-0.75488997,0.25551057,0.06995995,0.9198271,-0.36946157,0.105583176,0.07917319,0.61676764
23424000,-0.74942195,0.25589377,0.064020246,0.9210391,-0.36662623,0.10706558,0.07621794,0.6172176
23448000,-0.7438796,0.25627983,0.058080707,0.92224795,-0.36374855,0.10853567,0.07325122,0.61760783
23472000,-0.738204,0.25666904,0.052139442,0.92346406,-0.360801,0.109995596,0.07026889,0.61792016
23496000,-0.7282972,0.2570309,0.052039158,0.9252201,-0.35621288,0.110528,0.06974011,0.61827326
23520000,-0.7223316,0.25740016,0.046096675,0.926457,-0.35311657,0.11195667,0.0667218,0.6185655
23544000,-0.7162888,0.25777292,0.04015075,0.92768925,-0.34997582,0.11337197,0.06368978,0.61877996
23568000,-0.71013397,0.25813723,0.034204744,0.928923,-0.3467749,0.1147684,0.060641512,0.6189145
23592000,-0.7038188,0.25849283,0.028368786,0.93016297,-0.34349754,0.11612775,0.057625275,0.61889625
23616000,-0.6974423,0.25885984,0.022420999,0.93139654,-0.34017667,0.11749417,0.054546967,0.6188103
23640000,-0.6863576,0.25921682,0.022313647,0.9332481,-0.3349971,0.11797941,0.053904153,0.61864704
23664000,-0.6797702,0.25956407,0.01636377,0.93447995,-0.3315623,0.11930561,0.05079264,0.6184027
23688000,-0.6731304,0.2599207,0.010413788,0.9356992,-0.32809448,0.12061714,0.04767101,0.6180962
23712000,-0.66645604,0.26026896,0.004464615,0.9369039,-0.32460234,0.12190484,0.04453788,0.6176575
23736000,-0.6596908,0.26061064,-0.001484654,0.9381026,-0.3210595,0.12317065,0.041389763,0.61713517
23760000,-0.64786804,0.26096132,-0.001595853,0.93996483,-0.31549424,0.123595536,0.040664036,0.61657816
23784000,-0.640921,0.2613015,-0.007545839,0.94114983,-0.31185028,0.124824375,0.037487872,0.6159904
23808000,-0.63394517,0.26164022,-0.013495951,0.94231725,-0.30818465,0.12603131,0.034301393,0.61523646
23832000,-0.62164164,0.2619843,-0.013607425,0.94417614,-0.30236694,0.12641916,0.03352512,0.61443895
23856000,-0.61460674,0.26231188,-0.019557895,0.9453081,-0.29865816,0.12758015,0.030317117,0.61356807
23880000,-0.60754144,0.2626431,-0.025508408,0.94642186,-0.29492715,0.12872112,0.027099824,0.61269015
23904000,-0.59490395,0.2629682,-0.02561871,0.9482483,-0.2889258,0.12905972,0.026281126,0.61192816
23928000,-0.5878276,0.26328677,-0.03156694,0.9493179,-0.28517514,0.13015163,0.023047045,0.6110965
23952000,-0.57492137,0.26360172,-0.03167785,0.95112056,-0.2790277,0.13046272,0.022198517,0.61028236
23976000,-0.56783676,0.2639071,-0.03762637,0.9521449,-0.275259,0.131505,0.018947098,0.60941494
24000000,-0.5547601,0.26422244,-0.037736468,0.9539061,-0.26901194,0.13179109,0.018077534,0.60849005
24024000,-0.54770803,0.2645305,-0.043683402,0.95487833,-0.2652448,0.13279016,0.014815142,0.60752
24048000,-0.53452045,0.26483524,-0.043792225,0.9565886,-0.2589271,0.13304456,0.013927488,0.60652924
24072000,-0.52759194,0.26513806,-0.04973702,0.95749736,-0.25520614,0.1339959,0.010660043,0.60551965
24096000,-0.51430744,0.26545486,-0.049844828,0.9591527,-0.24882428,0.13422886,0.009758502,0.60412836
24120000,-0.5074134,0.26577446,-0.055788614,0.9600087,-0.24510689,0.13514386,0.006482994,0.60275877
24144000,-0.49413604,0.26609015,-0.055893328,0.9615958,-0.23871194,0.13534793,0.005574156,0.60138357
