,timestamp,control[0],control[1],control[2],control[3],control[4],output[2],output[3],output[4],output[5],output[6],output[7],indicated_airspeed_m_s,true_airspeed_m_s,indicated_airspeed_m_s.1,equivalent_airspeed_m_s,true_airspeed_m_s.1,equivalent_ground_minus_wind_m_s,true_ground_minus_wind_m_s,Unnamed: 6,Unnamed: 7,differential_pressure_raw_pa,differential_pressure_filtered_pa,temperature,gyro_bias[0],gyro_bias[1],gyro_bias[2],accel_bias[0],accel_bias[1],accel_bias[2],instance_count,seq_reached,seq_current,seq_total,item_changed_index,item_do_jump_remaining,valid,warning,finished,failure,stay_in_failsafe,flight_termination,item_do_jump_changed,execution_mode,nav_roll,nav_pitch,nav_bearing,target_bearing,xtrack_error,wp_dist,acceptance_radius,rollspeed_integ,pitchspeed_integ,yawspeed_integ,additional_integ1,x,y,z,temperature.1,pressure,temperature.2,gyro_rad[0],gyro_rad[1],gyro_rad[2],accelerometer_m_s2[0],accelerometer_m_s2[1],accelerometer_m_s2[2],x.1,y.1,z.1,temperature.3,altitude_sp,altitude_filtered,height_rate_setpoint,height_rate,airspeed_sp,airspeed_filtered,airspeed_derivative_sp,airspeed_derivative,throttle_integ,pitch_integ,timestamp_sample,baro_device_id,baro_alt_meter,baro_temp_celcius,baro_pressure_pa,rho,xyz[0],xyz[1],xyz[2],xyz[0].1,xyz[1].1,xyz[2].1,roll_body,pitch_body,yaw_body,q_d[0],q_d[1],q_d[2],q_d[3],thrust_body[0],lat,lon,alt,vel_m_s,vel_n_m_s,vel_e_m_s,vel_d_m_s,cog_rad,ground_contact,maybe_landed,landed,ref_lat,ref_lon,x.2,y.2,z.2,vx,vy,vz,ax,ay,az,yaw,dist_bottom,roll,pitch,yaw.1,thrust_body[0].1,timestamp.1,isTakeoff,isClimbing,isDescending,isCruise,isLand
1211,51001241,-0.040104936,0.054289157000000005,0.164273655,0.0,0.0,1588.0,1500.0,1000.0,1520.0,1479.0,1523.0,14.99208608,15.35943411,15.15876674,15.19802392,15.57042042,14.91060907,15.27596328,,,140.7176126,140.7176126,11.75451306,-0.001520493,-0.005750725999999999,8.87e-05,-0.19990902,0.18563932600000002,-0.036491372,2.0,1.1492298459999999,2.149229846,11,0,0,1,0,0.0,0,0,0,0,0,0.316432047,-0.114134036,-3.0333958739999995,-3.1326726560000004,-5.167687462,257.8566645,43.40578196,-0.011546603999999999,0.013778355,0.070126757,0.0,-1.249029963,0.117662407,-9.312856266,-7.209999999999999e-21,954.6562306,11.75448808,-0.14978376,0.024527596000000002,0.34610910200000006,-1.3699507990000002,0.19747636300000002,-9.29345858,-0.148357775,0.031852724,0.34588346299999995,-7.209999999999999e-21,94.55509079999999,98.91674509,-2.523064051,-2.777665022,15.36681228,15.31432329,0.001049768,-0.241396847,-0.1,75.46683854,46161605.92,6620172,499.4366495,11.756378,95468.2132,1.1343203309999998,0.211873733,-0.463318526,-0.53470989,-0.148300364,0.093112314,0.36932326,0.283790876,-0.136941673,-3.027013223,0.06620652,-0.05954029,-0.144734696,-0.9854525890000001,0.0,398728092.8,327429979.6,500506.6139,15.41196812,-13.86779519,6.708463547000001,1.440512002,2.691042709,0,0,0.0,39.8714138,32.7364368,152.5418005,561.0748662999999,-100.06806340000001,-14.18034594,5.706333363,1.829409514,-1.4322883569999998,-5.185442631,1.9310555169999999,2.777064119,100.1891886,-0.181320073,0.083135111,0.137212917,0.0,51001241,0,0,1,0,0
1212,51033622,-0.040460684,0.056305448,0.160047048,0.0,0.0,1586.842969,1500.0,1000.0,1521.0,1478.0,1523.471094,15.0228543,15.39097401,15.1314,15.17099111,15.54269891,14.87917385,15.24373179,,,140.19693590000003,140.19693590000003,11.754744300000002,-0.0015199270000000001,-0.005750554000000001,8.809999999999999e-05,-0.19989959,0.18561595,-0.03637098,2.0,1.151830366,2.151830366,11,0,0,1,0,0.0,0,0,0,0,0,0.307591648,-0.116417113,-3.0325644689999995,-3.132471085,-5.207428505,257.32022209999997,43.43602076,-0.011541892,0.013980876000000001,0.069615006,0.0,-1.331459929,0.18016340399999997,-9.196089342999999,-7.209999999999999e-21,954.6671034,11.75490871,-0.156229174,0.030739137000000003,0.34406318399999997,-1.331589228,0.24806957899999998,-9.1868062,-0.151841402,0.030116048,0.344985046,-7.209999999999999e-21,94.45766368,98.82288447,-2.51468071,-2.82234739,15.366737099999998,15.32964548,0.00074182,-0.20713537,-0.1,75.32225365,46198261.25,6620172,499.34328830000004,11.75637517,95469.28687000001,1.134333056,-0.06939007,-0.506921808,-0.442114555,-0.157088998,0.067718288,0.36417662799999995,0.273207439,-0.15280723599999999,-3.027195983,0.066842252,-0.06773253900000001,-0.13988248,-0.985579998,0.0,398728047.3,327430006.9,500451.3981,15.38765909,-13.93030378,6.515729035,1.504756851,2.70404354,0,0,0.0,39.8714138,32.7364368,152.0587792,561.2613432999999,-100.0059073,-14.2255407,5.536647105,1.897123046,-1.3610379609999999,-5.0629303960000005,1.9914483530000002,2.7876395730000003,100.1270343,-0.17441289199999999,0.082968931,0.134838441,0.0,51033622,0,0,1,0,0
1213,51066003,-0.040319956000000004,0.061732853,0.154945881,0.0,0.0,1583.405081,1500.0,1000.0,1520.0,1479.0,1525.0,15.05961011,15.42857251,15.10403327,15.143958300000001,15.51497739,14.84773863,15.211500299999999,,,139.6762591,139.6762591,11.75497555,-0.001519361,-0.005750381,8.75e-05,-0.199890161,0.185592573,-0.036250589,2.0,1.1544308859999999,2.154430886,11,0,0,1,0,0.0,0,0,0,0,0,0.29875125,-0.11870019,-3.031733065,-3.132269515,-5.2471695480000005,256.7837798,43.46625956,-0.011541343999999999,0.014153148,0.06908416,0.0,-1.413889896,0.242664401,-9.07932242,-7.209999999999999e-21,954.6779761,11.75532934,-0.16215428099999998,0.023495626000000002,0.32958421600000004,-1.302895401,0.154065593,-9.052144318,-0.155325029,0.028379372000000003,0.34408663,-7.209999999999999e-21,94.36023657,98.72902385,-2.50629737,-2.867029759,15.36666192,15.34496766,0.00043387199999999997,-0.17287389399999997,-0.1,75.17766876,46234916.58,6620172,499.4234881,11.756348,95468.36924,1.134322171,-0.27750278,0.128737405,0.21696811300000002,-0.153514966,0.049175067,0.356859659,0.262613549,-0.165878172,-3.0274075189999996,0.06720698900000001,-0.074551197,-0.134953161,-0.985752568,0.0,398728001.8,327430034.2,500396.1822,15.36335005,-13.99281237,6.322994522999999,1.5690017,2.717044371,0,0,0.0,39.8714138,32.7364368,151.575758,561.4478203,-99.94375124,-14.27073546,5.366960847,1.964836579,-1.289787565,-4.94041816,2.051841189,2.798215028,100.06488,-0.17389363100000002,0.096059014,0.125001445,0.0,51066003,0,0,1,0,0
1214,51106384,-0.038999135,0.060197919,0.154462994,0.0,0.0,1580.0,1500.0,1000.0,1518.0,1481.0,1530.0,15.05955978,15.4284801,15.07666653,15.11692549,15.48725588,14.81630341,15.17926881,,,139.15558240000001,139.15558240000001,11.75520679,-0.001518795,-0.005750209,8.690000000000001e-05,-0.199880732,0.185569197,-0.036130197,2.0,1.157031406,2.1570314059999998,11,0,0,1,0,0.0,0,0,0,0,0,0.289910851,-0.12098326699999999,-3.03090166,-3.1320679439999997,-5.286910591,256.2473375,43.49649837,-0.011537539,0.014251875,0.068606517,0.0,-1.4525455230000002,0.284387956,-8.998221827,-7.209999999999999e-21,954.6864421,11.75580884,-0.15959003800000002,0.038991775,0.332563441,-1.395859695,0.219538588,-9.002956995,-0.157435075,0.028321771000000003,0.34224718,-7.209999999999999e-21,94.26280945,98.63516323,-2.497914029,-2.911712127,15.36658674,15.36028985,0.000125924,-0.138612417,-0.1,75.03308387,46271571.91,6620172,499.3138891,11.756348,95469.60866,1.13433697,-0.285971199,-0.494064423,-0.41000429,-0.148136234,0.037467377,0.346261926,0.251990416,-0.158813936,-3.027663863,0.066254287,-0.071435242,-0.129543181,-0.986773482,0.0,398727956.3,327430061.4,500340.9664,15.33904102,-14.05532096,6.130260011,1.633246549,2.730045202,0,0,0.0,39.8714138,32.7364368,151.0780054,561.6336428,-99.87732653,-14.31546508,5.196373333,2.036187713,-1.228361434,-4.823183902,2.098656525,2.808981111,99.99845539,-0.181682393,0.09424541,0.11613700699999999,0.0,51106384,0,0,1,0,0
1215,51138765,-0.041334815,0.054861869,0.15449170199999998,0.0,0.0,1577.0,1500.0,1000.0,1520.0,1479.0,1530.0,14.96864287,15.33518046,15.06819872,15.10838365,15.47845274,14.80720948,15.16990078,,,138.9909347,138.9909347,11.75566777,-0.00151823,-0.005750036,8.63e-05,-0.199871303,0.18554582100000003,-0.036009806,2.0,1.1596319259999999,2.159631926,11,0,0,1,0,0.0,0,0,0,0,0,0.28107045199999997,-0.123266344,-3.030070256,-3.131866374,-5.326651634,255.7108952,43.52673717,-0.011530287,0.014300886,0.068157459,0.0,-1.3985570459999999,0.282138086,-8.992605531,-7.209999999999999e-21,954.6898142000001,11.75641292,-0.160521327,0.040080081000000004,0.329772388,-1.3417995440000001,0.210415833,-8.939003825,-0.156638069,0.031817772,0.33841612299999996,-7.209999999999999e-21,94.16538233,98.5413026,-2.4895306880000003,-2.956394496,15.36651155,15.37561204,-0.000182023,-0.104350941,-0.1,74.88849898,46308227.25,6620172,499.50032910000004,11.75632704,95467.49398,1.134311817,0.053695572999999996,0.174467385,0.621889118,-0.15559975199999998,0.037826212000000005,0.34093080200000003,0.242268625,-0.15375486900000002,-3.02747073,0.065710399,-0.069243535,-0.124633782,-0.987599352,0.0,398727910.9,327430088.7,500285.7506,15.31473198,-14.11782955,5.937525497999999,1.6974913980000002,2.743046032,0,0,0.0,39.8714138,32.7364368,150.5490754,561.8180802999999,-99.8018676,-14.35921026,5.023878397,2.115237475,-1.187727398,-4.717119965,2.11673641,2.820150644,99.92299293,-0.18082140800000002,0.116630574,0.103331066,0.0,51138765,0,0,1,0,0
1216,51175145,-0.040988195,0.066206093,0.146605695,0.0,0.0,1577.678136,1500.0,1000.0,1519.321864,1479.678136,1528.660932,15.00932623,15.37693603,15.07496576,15.11474779,15.48490012,14.81612538,15.17896351,,,139.11328989999998,139.11328989999998,11.75631395,-0.001517664,-0.005749864,8.57e-05,-0.199861874,0.18552244399999998,-0.035889414,2.0,1.162232446,2.162232446,11,0,0,1,0,0.0,0,0,0,0,0,0.272230053,-0.125549421,-3.029238851,-3.1316648039999997,-5.3663926769999994,255.1744529,43.55697597,-0.011527688999999999,0.014314128999999998,0.067821415,0.0,-1.3445685680000001,0.279888217,-8.986989235,-7.209999999999999e-21,954.6931863,11.757017,-0.16273394800000002,0.042509438,0.323172334,-1.3733911490000001,0.154030776,-8.934884962,-0.155841063,0.035313772,0.33458506600000004,-7.209999999999999e-21,94.0822566,98.44233270000001,-2.505913717,-2.992815996,15.36644117,15.394979699999999,-0.0005707819999999999,-0.073426275,-0.1,74.74967774,46344882.58,6620172,499.45256229999995,11.756317,95468.0303,1.134318154,-0.059187645,-0.923010727,0.24939264600000002,-0.158336852,0.036357349,0.334806516,0.240378851,-0.157062078,-3.020648263,0.069205686,-0.070517633,-0.12401878599999999,-0.9873461659999999,0.0,398727865.9,327430111.8,500221.1662,15.29461806,-14.16635513,5.760172034,1.7687276459999999,2.75504631,0,0,0.0,39.8714138,32.7364368,150.02014540000002,562.0025178,-99.72640868,-14.40295544,4.851383461,2.1942872369999997,-1.147093361,-4.611056028999999,2.134816294,2.831320177,99.84753047,-0.18323984699999998,0.115894201,0.09765290199999999,0.0,51175145,0,0,1,0,0
1217,51207526,-0.039675256,0.061073389000000006,0.142945059,0.0,0.0,1577.0,1500.0,1000.0,1520.884577,1478.115423,1527.0,14.98952535,15.35644401,15.08173279,15.12111193,15.4913475,14.82504127,15.18802623,,,139.2356451,139.2356451,11.75696013,-0.001517098,-0.005749692,8.51e-05,-0.199852445,0.18549906800000002,-0.035769023,2.0,1.164832967,2.1648329669999997,11,0,0,1,0,0.0,0,0,0,0,0,0.263389655,-0.12783249800000002,-3.0284074469999998,-3.1314632330000003,-5.40613372,254.6380106,43.58721477,-0.011525981999999999,0.01431697,0.06748019,0.0,-1.344613916,0.25358280899999996,-9.006395411,-7.209999999999999e-21,954.7013910000001,11.75758406,-0.161743775,0.048385041,0.31777432899999997,-1.331741679,0.174770798,-9.022146655,-0.155766657,0.041956310999999996,0.329207772,-7.209999999999999e-21,94.00694085,98.34057262,-2.5358216419999997,-3.024726242,15.3663734,15.4165566,-0.001003672,-0.044323839000000004,-0.1,74.61400403,46381537.91,6620172,499.4497465,11.756317,95468.04261,1.134318261,-0.453458042,0.000417218,-0.043184539,-0.158241795,0.047907667,0.332443844,0.231010904,-0.161478055,-3.020795091,0.069042459,-0.07303386099999999,-0.11949973800000001,-0.9877342020000001,0.0,398727821.1,327430133.8,500154.3169,15.27551842,-14.21149999,5.586537307,1.841654231,2.76680468,0,0,0.0,39.8714138,32.7364368,149.50929069999998,562.1722506,-99.65021443,-14.44375464,4.688211058,2.268390739,-1.114556478,-4.525439511,2.109027324,2.84207035,99.77133617,-0.185134231,0.10787716900000001,0.09439353199999999,0.0,51207526,0,0,1,0,0
1218,51243814,-0.040762754,0.059679697999999996,0.141445063,0.0,0.0,1575.0,1500.0,1000.0,1518.4300859999998,1480.5699140000002,1529.0,14.843396100000001,15.20679332,15.08849983,15.12747607,15.49779488,14.83395716,15.19708896,,,139.3580002,139.3580002,11.75760631,-0.0015165320000000001,-0.005749519,8.45e-05,-0.199843016,0.18547569100000003,-0.035648631,2.0,1.167433487,2.167433487,11,0,0,1,0,0.0,0,0,0,0,0,0.254549256,-0.130115575,-3.0275760419999997,-3.131261663,-5.445874763,254.10156830000003,43.61745357,-0.011526611,0.014361086,0.06714250599999999,0.0,-1.40049629,0.202419089,-9.051659101,-7.209999999999999e-21,954.7145896,11.75811285,-0.154239323,0.051905930999999995,0.315704405,-1.38646958,0.167254059,-9.02680143,-0.15643896599999998,0.051850394,0.322232639,-7.209999999999999e-21,93.93162509999999,98.23881254,-2.565729568,-3.056636488,15.36630563,15.4381335,-0.0014365620000000002,-0.015221404,-0.1,74.47833032,46418193.24,6620172,499.33055329999996,11.756287,95469.43778,1.1343348359999998,0.779745351,0.062340612999999996,0.317942486,-0.159130181,0.052479272,0.331003021,0.221707901,-0.150906863,-3.021061602,0.06801694900000001,-0.068138302,-0.11462356300000001,-0.988727769,0.0,398727776.3,327430155.9,500087.4675,15.25641877,-14.25664484,5.412902581,1.914580816,2.77856305,0,0,0.0,39.8714138,32.7364368,149.01711459999999,562.3267879,-99.57326033,-14.48150955,4.534672296,2.337382916,-1.090386965,-4.460952777,2.037905521,2.85238717,99.69438559999999,-0.183451505,0.11835614300000001,0.087183095,0.0,51243814,0,0,1,0,0
1219,51276288,-0.041464252,0.063040473,0.13755636400000001,0.0,0.0,1571.0,1500.0,1000.0,1520.0,1479.0,1530.0,15.01954178,15.38718332,15.09526687,15.13384021,15.50424226,14.84287305,15.20615168,,,139.4803554,139.4803554,11.75825249,-0.001515967,-0.005749346999999999,8.39e-05,-0.199833586,0.185452315,-0.03552824,2.0,1.170034007,2.170034007,11,0,0,1,0,0.0,0,0,0,0,0,0.245708857,-0.132398652,-3.0267446380000003,-3.131060092,-5.485615806,253.56512599999996,43.64769237,-0.011523661000000001,0.014456203,0.06679526400000001,0.0,-1.4563786630000002,0.151255369,-9.096922791,-7.209999999999999e-21,954.7277882000001,11.75864164,-0.165595622,0.062638353,0.317237822,-1.380583006,0.08490549300000001,-9.070777821,-0.157111274,0.061744477,0.315257506,-7.209999999999999e-21,93.85630935,98.13705246,-2.595637493,-3.088546734,15.36623786,15.45971039,-0.0018694520000000002,0.013881032,-0.1,74.34265661,46454848.57,6620172,499.5227735,11.756287,95467.20937000001,1.134308301,-0.197896514,0.761859897,-0.830784049,-0.154771956,0.056136135,0.321878994,0.212576037,-0.14914702,-3.021329667,0.067479287,-0.067592394,-0.11005400800000001,-0.98932548,0.0,398727731.5,327430177.9,500020.6181,15.23731912,-14.3017897,5.2392678539999995,1.9875074019999999,2.79032142,0,0,0.0,39.8714138,32.7364368,148.5249385,562.4813253,-99.49630622,-14.51926446,4.381133534,2.406375094,-1.066217452,-4.396466043,1.966783718,2.86270399,99.61743503,-0.18786438,0.112580075,0.082055752,0.0,51276288,0,0,1,0,0
1220,51312669,-0.037192308,0.059350624000000005,0.140049541,0.0,0.0,1570.0,1500.0,1000.0,1518.521104,1480.478896,1533.0,14.96744631,15.33376338,15.1020339,15.14020435,15.51068965,14.85178895,15.21521441,,,139.6027106,139.6027106,11.75889867,-0.001515401,-0.005749174,8.329999999999999e-05,-0.199824157,0.18542893800000002,-0.035407848,2.0,1.172634527,2.172634527,11,0,0,1,0,0.0,0,0,0,0,0,0.236868458,-0.134681729,-3.0259132330000003,-3.130858522,-5.5253568479999995,253.0286837,43.67793117,-0.011515572,0.014582766,0.06644968400000001,0.0,-1.4372697190000001,0.13152730199999998,-9.170422712999999,-7.209999999999999e-21,954.7396890000001,11.75919163,-0.162014974,0.060600323,0.310444509,-1.331829058,0.17821825300000002,-9.212015375,-0.159277274,0.062048162000000004,0.311543364,-7.209999999999999e-21,93.7809936,98.03529238,-2.6255454190000003,-3.12045698,15.3661701,15.48128729,-0.002302342,0.042983468,-0.1,74.20698289,46491503.9,6620172,499.36056179999997,11.75627731,95469.0677,1.134330496,-0.145417254,0.284188497,-0.267849683,-0.155551007,0.062253656,0.321689385,0.203715941,-0.14626383,-3.021601477,0.066902727,-0.066476758,-0.105585864,-0.989924677,0.0,398727686.7,327430200.0,499953.7688,15.21821948,-14.34693455,5.065633127,2.0604339869999997,2.80207979,0,0,0.0,39.8714138,32.7364368,148.0031793,562.6335320000001,-99.4101837,-14.55763943,4.220479313,2.47341979,-1.0433888690000002,-4.394885878999999,1.87751966,2.8736976419999998,99.53131253,-0.186140835,0.132051812,0.071639592,0.0,51312669,0,0,1,0,0
1221,51345050,-0.041432774,0.06958979,0.131934716,0.0,0.0,1568.0,1500.0,1000.0,1521.0,1478.0,1531.0,14.97000264,15.33634275,15.10880094,15.14656849,15.51713703,14.86070484,15.22427713,,,139.7250658,139.7250658,11.75954485,-0.001514835,-0.005749002,8.27e-05,-0.199814728,0.185405562,-0.035287457,2.0,1.175235047,2.1752350469999997,11,0,0,1,0,0.0,0,0,0,0,0,0.22802805899999998,-0.136964806,-3.025081829,-3.130656951,-5.565097891000001,252.49224139999998,43.70816997,-0.011505438,0.014726928,0.06609899400000001,0.0,-1.379992691,0.127798936,-9.258293937000001,-7.209999999999999e-21,954.7509294,11.75975241,-0.162404317,0.068686503,0.30780639,-1.350745956,0.196860915,-9.237306408,-0.162203513,0.057470653,0.309488957,-7.209999999999999e-21,93.70567785,97.9335323,-2.655453344,-3.1523672260000004,15.36610233,15.50286419,-0.002735232,0.072085904,-0.1,74.07130918,46528159.23,6620172,499.5387352,11.756256,95467.06075,1.134306581,-0.318795208,0.034679272000000004,-0.228761646,-0.16092303,0.074284013,0.322583044,0.19505065100000002,-0.146453989,-3.0218735619999997,0.066491903,-0.066873833,-0.10129179,-0.9903761390000001,0.0,398727641.8,327430221.9,499886.0552,15.19959992,-14.39191939,4.8923184619999995,2.133120525,2.81381721,0,0,0.0,39.8714138,32.7364368,147.4663634,562.7845522999999,-99.31939475,-14.59632997,4.05620356,2.539473283,-1.021242774,-4.425323064,1.7790217990000001,2.885035781,99.44052181,-0.19041772,0.13088176599999998,0.065439832,0.0,51345050,0,0,1,0,0
1222,51377431,-0.038259382,0.06643985200000001,0.132833316,0.0,0.0,1570.0,1500.0,1000.0,1518.0,1481.0,1529.0,15.03929414,15.40711452,15.11556798,15.15293263,15.52358441,14.86962073,15.23333986,,,139.847421,139.847421,11.76019103,-0.0015145710000000001,-0.005749199,8.26e-05,-0.199821742,0.18538342300000002,-0.035186387,2.0,1.177835567,2.177835567,11,0,0,1,0,0.0,0,0,0,0,0,0.219187661,-0.13924788300000002,-3.024250424,-3.1304553810000004,-5.604838934,251.95579909999998,43.73840877,-0.011496857,0.014877786,0.06574426900000001,0.0,-1.322715664,0.124070569,-9.346165161,-7.209999999999999e-21,954.7621697999999,11.7603132,-0.160847756,0.060790912999999995,0.308275929,-1.317189133,0.172572301,-9.319283901,-0.165129752,0.052893145,0.30743455,-7.209999999999999e-21,93.58245122,97.81560902,-2.7097354080000002,-3.17105569,15.365990400000001,15.52372301,-0.003154648,0.09691165199999999,-0.1,73.92696812,46566283.66,6620172,499.47145650000004,11.756256,95467.81815,1.134315575,-0.344535442,0.132460724,-0.055806546,-0.156036246,0.07544342,0.313222791,0.18653240899999998,-0.151857587,-3.0220517460000003,0.066357355,-0.069843835,-0.09720819800000001,-0.990588586,0.0,398727594.6,327430240.6,499800.4533,15.19091818,-14.4335919,4.725629089,2.200838086,2.825120952,0,0,0.0,39.8714138,32.7364368,146.92954740000002,562.9355727000001,-99.2286058,-14.63502052,3.891927808,2.605526775,-0.9990966790000001,-4.455760249,1.680523939,2.8963739189999997,99.3497311,-0.190004489,0.118443895,0.064553418,0.0,51377431,0,0,1,0,0
1223,51409812,-0.039258512,0.067002644,0.12896502,0.0,0.0,1565.157632,1500.0,1000.0,1520.157632,1478.842368,1534.0,15.07358864,15.44224912,15.12233502,15.15929676,15.53003179,14.87853662,15.24240259,,,139.96977619999998,139.96977619999998,11.76083721,-0.001514468,-0.005749591,8.28e-05,-0.19983747899999998,0.18536193899999998,-0.035095566,2.0,1.1804360870000001,2.180436087,11,0,0,1,0,0.0,0,0,0,0,0,0.21034726199999998,-0.14153096,-3.02341902,-3.13025381,-5.644579977,251.4193568,43.76864757,-0.011490793000000001,0.01507597,0.065321342,0.0,-1.348618525,0.151408003,-9.389526385,3.4658034019999997,954.7721137,11.76090109,-0.161842252,0.062031552999999996,0.306623743,-1.337528528,0.196002045,-9.397245185,-0.16407503,0.054180765,0.304224175,3.4658034019999997,93.45471604,97.69616473,-2.766311148,-3.1884999460000003,15.36587431,15.54451425,-0.003572795,0.121334952,-0.1,73.78181143,46601891.58,6620172,499.32610470000003,11.75622916,95469.45952,1.134335148,-0.07549297099999999,-0.382093212,-0.7184483420000001,-0.157231864,0.078692015,0.308952706,0.17797015600000002,-0.139932025,-3.022344155,0.065411941,-0.064225553,-0.092641645,-0.991467457,0.0,398727547.4,327430259.4,499714.8514,15.18223645,-14.47526441,4.5589397169999994,2.268555647,2.8364246939999997,0,0,0.0,39.8714138,32.7364368,146.4243042,563.0642726,-99.13890267,-14.67024205,3.738897831,2.659753867,-0.98548881,-4.453303007,1.5955748790000002,2.906926702,99.26002767,-0.190057112,0.103994758,0.065101615,0.0,51409812,0,0,1,0,0
1224,51446192,-0.041670204,0.067206323,0.125637403,0.0,0.0,1566.0,1500.0,1000.0,1518.703141,1480.296859,1533.0,15.06685399,15.43523378,15.12910205,15.165660899999999,15.53647917,14.88745252,15.25146531,,,140.0921314,140.0921314,11.76148338,-0.001514364,-0.0057499840000000005,8.3e-05,-0.199853215,0.18534045600000001,-0.035004745,2.0,1.183036607,2.183036607,11,0,0,1,0,0.0,0,0,0,0,0,0.201506863,-0.143814037,-3.022587615,-3.13005224,-5.68432102,250.88291439999998,43.79888638,-0.011483311000000001,0.015232733,0.064955214,0.0,-1.3911234819999998,0.184945942,-9.42400374,7.623355751,954.7817987999999,11.76149439,-0.16054215300000002,0.067503295,0.30377817,-1.4265187680000002,0.219031814,-9.507395955,-0.162225739,0.056639021,0.300783078,7.623355751,93.32698086,97.57672044,-2.822886888,-3.205944203,15.36575823,15.56530549,-0.003990943,0.145758252,-0.1,73.63665474,46638125.23,6620172,499.3706794,11.756226,95468.96092,1.134329228,0.153234427,0.29340064,-0.324529729,-0.15647322,0.077202664,0.315696394,0.169546599,-0.141547534,-3.022646112,0.065054897,-0.06531576,-0.088498361,-0.991799678,0.0,398727500.1,327430278.1,499629.2494,15.17355471,-14.51693692,4.392250344,2.336273208,2.847728437,0,0,0.0,39.8714138,32.7364368,145.9253626,563.1885176,-99.04941626,-14.70477119,3.5881124289999997,2.711620495,-0.973585108,-4.444280278,1.51333006,2.917322735,99.17054126,-0.19066157399999997,0.129864434,0.051367196,0.0,51446192,0,0,1,0,0
1225,51482573,-0.038936795,0.063833974,0.125872342,0.0,0.0,1564.0,1500.0,1000.0,1519.502701,1479.497299,1531.994599,15.04672647,15.41463797,15.13586909,15.17202504,15.54292655,14.89636841,15.26052804,,,140.2144866,140.2144866,11.76212956,-0.00151426,-0.005750376999999999,8.32e-05,-0.199868952,0.185318973,-0.034913924,2.0,1.1856371270000001,2.1856371269999997,11,0,0,1,0,0.0,0,0,0,0,0,0.192893045,-0.145401135,-3.021948645,-3.129881461,-5.716175435,250.34914980000002,43.83259062,-0.011476095,0.015379542,0.064557591,0.0,-1.433349224,0.218240477,-9.458438912,11.7432619,954.7914842,11.76208788,-0.158623168,0.05850338,0.296883672,-1.375680156,0.211087146,-9.460909339,-0.160393888,0.059069156,0.297321923,11.7432619,93.19924568,97.45727615,-2.879462628,-3.2233884589999997,15.36564214,15.58609673,-0.00440909,0.170181553,-0.1,73.49149805,46674780.56,6620172,499.42791389999996,11.756226,95468.30136,1.134321393,0.16431197,0.825484873,-0.433608902,-0.159024647,0.07042466,0.309917065,0.161275963,-0.142986,-3.0229505430000003,0.064684009,-0.066311366,-0.08442458,-0.9921120809999999,0.0,398727452.9,327430296.9,499543.6475,15.16487297,-14.55860942,4.225560972,2.4039907680000003,2.8590321789999997,0,0,0.0,39.8714138,32.7364368,145.42621210000001,563.3127347999999,-98.95987126,-14.73930489,3.437284968,2.763475624,-0.961691955,-4.435119871,1.431141908,2.927721485,99.08099626,-0.188157386,0.116193329,0.052438949000000006,0.0,51482573,0,0,1,0,0
1226,51522954,-0.040232762000000005,0.073987501,0.120949279,0.0,0.0,1562.0,1500.0,1000.0,1520.0,1479.0,1533.0,14.96619104,15.332046599999998,15.14263613,15.17838918,15.54937394,14.9052843,15.26959076,,,140.3368418,140.3368418,11.76277574,-0.0015141570000000001,-0.00575077,8.329999999999999e-05,-0.199884688,0.18529748899999998,-0.034823103,2.0,1.1882376479999999,2.1882376480000003,11,0,0,1,0,0.0,0,0,0,0,0,0.185356414,-0.143679477,-3.022224523,-3.129857069,-5.710536047000001,249.8281153,43.88276993,-0.011466778,0.015508137,0.064147015,0.0,-1.414182523,0.198016485,-9.48359931,7.58570955,954.8012364,11.76272431,-0.162567303,0.060249643,0.30195752800000003,-1.405947584,0.16331168599999998,-9.478786745,-0.162396816,0.05531604,0.289450576,7.58570955,93.0715105,97.33783186,-2.936038369,-3.240832715,15.36552605,15.60688798,-0.004827238,0.194604853,-0.1,73.34634136,46711435.89,6620172,499.49825419999996,11.756195,95467.51929,1.134312048,0.06865961200000001,-0.563347811,-0.32659629999999995,-0.159210694,0.074235115,0.307399328,0.153033181,-0.14198799199999998,-3.023267643,0.064217433,-0.066094567,-0.080297831,-0.9924998140000001,0.0,398727405.7,327430315.6,499458.0456,15.15619124,-14.60028193,4.058871599,2.471708329,2.870335921,0,0,0.0,39.8714138,32.7364368,144.8811143,563.4308647,-98.85744252,-14.77484177,3.277209684,2.812802282,-0.95211806,-4.3956872460000005,1.361413416,2.9387177110000002,98.97856752,-0.19306499600000002,0.10908860699999999,0.047557499999999996,0.0,51522954,0,0,1,0,0
1227,51562670,-0.044368762,0.072594098,0.117064816,0.0,0.0,1562.339668,1500.0,1000.0,1519.320664,1479.679336,1531.660332,15.00845036,15.37524112,15.14940316,15.18475332,15.55582132,14.91420019,15.27865349,,,140.4591969,140.4591969,11.76342192,-0.0015140529999999998,-0.005751162,8.35e-05,-0.199900425,0.18527600600000002,-0.034732282,2.0,1.190838168,2.190838168,11,0,0,1,0,0.0,0,0,0,0,0,0.17781978199999998,-0.14195782,-3.0225004010000003,-3.1298326760000004,-5.704896659,249.30708080000002,43.93294924,-0.011458245,0.015629733,0.06373746599999999,0.0,-1.395015822,0.177792493,-9.508759707000001,3.4281572,954.8109887,11.76336073,-0.158414181,0.058151549000000004,0.292780084,-1.315772784,0.172725032,-9.565783915,-0.16439974300000001,0.051562924,0.281579229,3.4281572,92.94723622,97.21988097,-2.9772035210000003,-3.26061338,15.36541877,15.62808694,-0.005253364,0.218382692,-0.1,73.20520228,46748091.22,6620172,499.44162479999994,11.75619489,95468.12574,1.134319249,-0.030450643,-0.023633151,0.11184602099999999,-0.160519678,0.073955714,0.301395902,0.14491533199999998,-0.14582124900000001,-3.023517516,0.063957878,-0.06826792799999999,-0.07636283,-0.99268049,0.0,398727358.5,327430333.1,499369.8536,15.14950185,-14.64095814,3.894174645,2.535939188,2.8815005589999996,0,0,0.0,39.8714138,32.7364368,144.3360166,563.5489946,-98.75501378,-14.81037866,3.1171344,2.8621289410000004,-0.9425441640000001,-4.356254621000001,1.291684923,2.949713937,98.87613878,-0.189394387,0.11527742,0.043217390999999994,0.0,51562670,0,0,1,0,0
1228,51603716,-0.04182553,0.08867586,0.105204911,0.088583859,0.0,1560.0,1500.0,1000.0,1520.0,1479.0,1536.1148230000001,14.99085935,15.35716147,15.156170199999998,15.19111746,15.5622687,14.92311609,15.28771622,,,140.58155209999998,140.58155209999998,11.7640681,-0.001513949,-0.005751555,8.37e-05,-0.199916161,0.185254523,-0.034641461,2.0,1.193438688,2.193438688,11,0,0,1,0,0.0,0,0,0,0,0,0.17028315100000002,-0.140236162,-3.022776279,-3.1298082839999997,-5.69925727,248.7860462,43.98312855,-0.011447768999999998,0.015761297,0.063282274,0.0,-1.382239809,0.168574859,-9.532590682999999,-7.209999999999999e-21,954.8213163999999,11.76399908,-0.161822983,0.050303257999999997,0.286084732,-1.3856733469999998,0.174453744,-9.548644234,-0.166523684,0.049629494,0.274879046,-7.209999999999999e-21,92.83860166,97.10867873,-2.948728421,-3.290952247,15.36535126,15.651128400000001,-0.005715546,0.23924370399999997,-0.1,73.08221871,46784746.55,6620172,499.4675552,11.756165,95467.85977000001,1.1343160909999999,-0.065632681,-0.387448479,-0.162836491,-0.158973173,0.07402046,0.301710073,0.13683805,-0.134483644,-3.023792034,0.063180525,-0.062902345,-0.07203887,-0.9934083920000001,0.0,398727311.4,327430347.5,499275.2226,15.14776533,-14.67915761,3.7344307310000002,2.5915022999999997,2.892319392,0,0,0.0,39.8714138,32.7364368,143.7977079,563.6629697000001,-98.65314037,-14.84497717,2.96002078,2.909962447,-0.92722211,-4.314586535,1.2310984729999999,2.960493745,98.77426568,-0.18661440199999998,0.09748911800000001,0.045234582,0.0,51603716,0,0,1,0,0
1229,51636194,-0.041120934,0.097854336,0.099713136,0.006828383,0.0,1558.861372,1500.0,1000.0,1521.138628,1477.861372,1535.138628,14.95975267,15.32521734,15.16293724,15.1974816,15.56871608,14.93203198,15.29677894,,,140.7039073,140.7039073,11.76471428,-0.001513845,-0.005751948000000001,8.39e-05,-0.199931898,0.185233039,-0.03455064,2.0,1.196039208,2.196039208,11,0,0,1,0,0.0,0,0,0,0,0,0.162746519,-0.138514505,-3.023052157,-3.129783891,-5.693617882000001,248.2650117,44.03330785,-0.011435811,0.015875525,0.06284208200000001,0.0,-1.39950003,0.211087108,-9.550173376,-7.209999999999999e-21,954.8343489,11.76464646,-0.164804839,0.057346114000000004,0.28792111600000003,-1.3533953890000001,0.139315206,-9.652793101,-0.169216385,0.056248585,0.273683332,-7.209999999999999e-21,92.7299671,96.99747649,-2.920253321,-3.3212911139999997,15.36528376,15.67416985,-0.006177726999999999,0.260104716,-0.1,72.95923513,46821401.88,6620172,499.35063219999995,11.756165,95469.20946,1.134332031,0.049549801,-0.021648591000000002,0.340773237,-0.156825595,0.06995056,0.293388945,0.129007877,-0.136666229,-3.0241099489999996,0.062844136,-0.064244703,-0.068197902,-0.993613945,0.0,398727264.4,327430362.0,499180.5917,15.14602881,-14.71735707,3.574686817,2.647065413,2.9031382239999997,0,0,0.0,39.8714138,32.7364368,143.2913081,563.7574171,-98.55387696,-14.87516533,2.8168269739999996,2.950778132,-0.884883709,-4.262411787,1.21347962,2.9702563939999997,98.67500404,-0.18979679300000002,0.12470673300000001,0.032695208999999996,0.0,51636194,0,0,1,0,0
1230,51672478,-0.043011571,0.104239733,0.095107484,0.0,0.0,1554.0,1500.0,1000.0,1519.0,1480.0,1540.0,15.119427800000002,15.48871929,15.16970427,15.20384574,15.57516346,14.94094787,15.30584167,,,140.8262625,140.8262625,11.76536046,-0.0015137420000000002,-0.00575234,8.41e-05,-0.19994763399999999,0.18521155600000003,-0.034459818999999996,2.0,1.198639728,2.1986397280000003,11,0,0,1,0,0.0,0,0,0,0,0,0.15520988800000002,-0.136792847,-3.023328035,-3.129759499,-5.687978493999999,247.74397709999997,44.08348716,-0.011424931000000001,0.015954742,0.062463429,0.0,-1.4167602519999998,0.253599358,-9.567756068,-7.209999999999999e-21,954.8473812999999,11.76529384,-0.167768421,0.062641533,0.27456123,-1.509009082,0.247031439,-9.649693839,-0.171909085,0.062867676,0.272487618,-7.209999999999999e-21,92.62133254,96.88627425,-2.891778221,-3.35162998,15.36521625,15.697211300000001,-0.006639909,0.280965728,-0.1,72.83625156,46858057.21,6620172,499.418333,11.75614684,95468.41772,1.134322766,-0.358785554,0.617639956,-0.365563916,-0.158154965,0.06414960900000001,0.281458652,0.12133740800000001,-0.142327336,-3.024427007,0.062597645,-0.067310064,-0.064529664,-0.9936731040000001,0.0,398727217.3,327430376.4,499085.9608,15.14429229,-14.75555654,3.414942903,2.7026285260000003,2.9139570569999997,0,0,0.0,39.8714138,32.7364368,142.7849084,563.8518644999999,-98.45461355,-14.9053535,2.6736331680000003,2.991593817,-0.8425453070000001,-4.210237038,1.195860768,2.980019042,98.57574240000001,-0.189753182,0.121350039,0.028672099,0.0,51672478,0,0,1,0,0
1231,51704859,-0.04519152,0.086221182,0.099750264,0.0,0.0,1550.565113,1500.0,1052.431686,1519.9565910000001,1479.0434089999999,1546.434887,15.11906721,15.48830089,15.17647131,15.21020988,15.58161084,14.94986376,15.31490439,,,140.9486177,140.9486177,11.76600664,-0.0015136379999999999,-0.005752733,8.420000000000001e-05,-0.19996337100000003,0.185190073,-0.034368998,2.0,1.201240248,2.201240248,11,0,0,1,0,0.0,0,0,0,0,0,0.147673257,-0.13507119,-3.023603913,-3.1297351069999997,-5.682339106000001,247.2229426,44.13366647,-0.011413165,0.016037098,0.062043633,0.0,-1.4217351269999998,0.271753261,-9.634261422,-7.209999999999999e-21,954.8581770999999,11.76601204,-0.167673749,0.082264415,0.27464090399999996,-1.314774648,0.190706293,-9.646314757,-0.17407075800000002,0.072548104,0.270941041,-7.209999999999999e-21,92.51269798,96.77507201,-2.863303122,-3.381968847,15.36514874,15.72025275,-0.00710209,0.301826739,-0.1,72.71326799,46894712.54,6620172,499.5739142,11.756134,95466.66317,1.134301818,0.027665234,0.474878265,-0.47727583,-0.158876709,0.061789457,0.289559947,0.11361981199999999,-0.14220276199999998,-3.024746247,0.062172387999999995,-0.067498773,-0.06068058,-0.993926649,0.0,398727170.3,327430390.8,498991.3299,15.14255577,-14.79375601,3.2551989889999997,2.758191638,2.9247758889999997,0,0,0.0,39.8714138,32.7364368,142.26271459999998,563.943545,-98.35105047,-14.93582116,2.527448997,3.0311897869999997,-0.8065912740000001,-4.158484335,1.130267799,2.9900578560000004,98.47217998,-0.186426599,0.140146107,0.022016359,0.0,51704859,0,0,1,0,0
1232,51737239,-0.040510132000000004,0.077240659,0.103017408,0.0,0.0,1547.0,1500.0,1000.0,1521.067213,1477.932787,1552.0,15.09918447,15.46774873,15.18323835,15.21657402,15.58805823,14.95877966,15.32396712,,,141.07097290000002,141.07097290000002,11.76665282,-0.001513534,-0.005753126,8.44e-05,-0.199979107,0.185168589,-0.034278177,2.0,1.203840768,2.203840768,11,0,0,1,0,0.0,0,0,0,0,0,0.140136625,-0.133349532,-3.023879791,-3.129710714,-5.676699717000001,246.70190809999997,44.18384578,-0.01140215,0.016124387,0.061669539,0.0,-1.4035244230000001,0.243936758,-9.793096306,-7.209999999999999e-21,954.8647517,11.76686391,-0.168501748,0.098643618,0.2774533,-1.3811079780000002,0.264063196,-9.718466001,-0.17523024399999998,0.08800605800000001,0.268732295,-7.209999999999999e-21,92.40406342,96.66386977,-2.834828022,-3.4123077139999998,15.36508124,15.74329421,-0.0075642719999999995,0.322687751,-0.1,72.59028442,46931367.87,6620172,499.3689438,11.756134,95468.98937000001,1.1343295340000001,0.457594423,1.352037554,0.323918143,-0.164261582,0.06883838,0.28071725399999997,0.106121181,-0.141583448,-3.0250713069999997,0.061745241,-0.067432796,-0.056925892,-0.99418287,0.0,398727123.2,327430405.2,498896.6989,15.14081925,-14.83195547,3.095455075,2.8137547510000003,2.935594722,0,0,0.0,39.8714138,32.7364368,141.7107135,564.030004,-98.23937282,-14.9668163,2.375621245,3.0684838439999997,-0.7826861709999999,-4.107528141,0.9741354459999999,3.0006178639999996,98.36050092,-0.186941909,0.17817554100000002,0.009415352,0.060465366,51737239,0,0,1,0,0
1233,51777620,-0.044760491,0.058012282000000005,0.106358464,0.0,0.0,1548.0,1500.0,1000.0,1521.0,1478.0,1548.0,15.06939001,15.43725032,15.19000538,15.22293816,15.59450561,14.96769555,15.33302984,,,141.1933281,141.1933281,11.767299000000001,-0.001513431,-0.005753519,8.46e-05,-0.19999484399999998,0.185147106,-0.034187357,2.0,1.206441288,2.206441288,11,0,0,1,0,0.0,0,0,0,0,0,0.132599994,-0.131627875,-3.0241556689999998,-3.129686322,-5.6710603289999995,246.1808735,44.23402509,-0.011390293000000001,0.016228786999999998,0.061250146,0.0,-1.385313719,0.21612025399999998,-9.95193119,-7.209999999999999e-21,954.8713262,11.76771577,-0.174751374,0.108520837,0.26676555399999996,-1.434132168,0.19592911,-9.973163358999999,-0.17638973100000002,0.103464011,0.266523548,-7.209999999999999e-21,92.29673389,96.55049040000002,-2.804607368,-3.4361427160000004,15.36500372,15.76548491,-0.008009637,0.34128870299999997,-0.1,72.47119755,46968693.74,6620172,499.2115246,11.7561035,95470.8149,1.134351226,0.673259638,0.723769242,-0.396944123,-0.170272105,0.07464045799999999,0.275519101,0.099017194,-0.13369445,-3.0252791119999998,0.061221288,-0.063732679,-0.053172088,-0.994665323,0.0,398727076.3,327430417.5,498798.22,15.14274764,-14.86649039,2.943956791,2.8629045810000004,2.945805942,0,0,0.0,39.8714138,32.7364368,141.1587125,564.1164629,-98.12769517,-14.99781143,2.223793493,3.1057778999999996,-0.758781068,-4.056571947,0.818003093,3.011177871,98.24882185,-0.18307283,0.195984351,0.004293590999999999,0.0,51777620,0,0,1,0,0
1234,51814001,-0.043190840999999994,0.049489661,0.106510085,0.0,0.0,1551.0,1500.0,1000.0,1520.158232,1478.841768,1538.0,15.02780111,15.39448672,15.19677242,15.229302300000002,15.60095299,14.97661144,15.34209257,,,141.31568330000002,141.31568330000002,11.76794518,-0.001513327,-0.005753911,8.48e-05,-0.20001058,0.18512562300000002,-0.034096536000000004,2.0,1.209041808,2.2090418080000003,11,0,0,1,0,0.0,0,0,0,0,0,0.12506336199999998,-0.129906217,-3.024431547,-3.12966193,-5.665420941,245.659839,44.28420439,-0.011375125,0.016328544,0.060838961,0.0,-1.363334351,0.225341696,-10.08264014,-7.209999999999999e-21,954.8879751000001,11.76848426,-0.173635185,0.100333336,0.265676769,-1.4113522440000001,0.266669565,-10.08341542,-0.17639689100000003,0.100196126,0.262472292,-7.209999999999999e-21,92.19100978,96.43443276,-2.77223937,-3.451976798,15.36491388,15.78662903,-0.008434315999999999,0.357109377,-0.1,72.35690432,47005898.78,6620172,499.47269539999996,11.7561035,95467.81135,1.1343155440000001,0.142280074,0.455513633,-0.08536312,-0.16700683300000002,0.09328323,0.273039574,0.09202002,-0.132116223,-3.0255875580000002,0.060813842,-0.06316880799999999,-0.04963881,-0.9949102940000001,0.0,398727029.4,327430427.9,498696.2965,15.14795686,-14.89774481,2.799839968,2.906313263,2.955473229,0,0,0.0,39.8714138,32.7364368,140.6272732,564.1922149000001,-98.01901275,-15.026945300000001,2.078294099,3.133077562,-0.746173148,-4.03615937,0.661888284,3.021262906,98.14013948,-0.17912284,0.21253219199999998,-0.000209328,0.0,51814001,0,0,1,0,0
1235,51850382,-0.04754171099999999,0.049943567,0.10311297800000001,0.0,0.0,1552.0,1500.0,1000.0,1520.703741,1478.296259,1533.0,15.17900771,15.54924253,15.20353946,15.23566644,15.60740037,14.98552733,15.351155300000002,,,141.4380385,141.4380385,11.76859136,-0.001513223,-0.005754304,8.499999999999999e-05,-0.20002631699999998,0.18510413899999997,-0.034005715,2.0,1.211642328,2.211642328,11,0,0,1,0,0.0,0,0,0,0,0,0.117526731,-0.12818456,-3.024707425,-3.129637537,-5.659781552,245.13880440000003,44.334383700000004,-0.01136124,0.016417698,0.060447653,0.0,-1.337837838,0.269129186,-10.18710028,-7.209999999999999e-21,954.9140258,11.76917494,-0.17270943,0.091872632,0.256388726,-1.390271354,0.183091278,-10.2900003,-0.17532863199999998,0.079452158,0.256701494,-7.209999999999999e-21,92.08528566,96.31837512,-2.739871372,-3.467810881,15.36482405,15.80777316,-0.008858994,0.37293005100000004,-0.1,72.24261109,47041333.87,6620172,499.4000644999999,11.75609672,95468.61722,1.1343250329999999,-0.039231377000000005,0.186121503,-0.644577457,-0.172701563,0.111963011,0.270469077,0.085165793,-0.117230159,-3.025912447,0.060148417999999995,-0.0559735,-0.045809047,-0.995561653,0.0,398726982.5,327430438.3,498594.3729,15.15316607,-14.92899924,2.655723145,2.9497219439999998,2.9651405160000004,0,0,0.0,39.8714138,32.7364368,140.1150235,564.2579746,-97.91312565,-15.0543421,1.93870071,3.15104985,-0.744108441,-4.04425194,0.50578985,3.0309046680000002,98.03425379999999,-0.180092759,0.17098814699999998,0.004569343,0.0,51850382,0,0,1,0,0
1236,51886763,-0.045077409000000006,0.048305415,0.102174233,0.0,0.0,1553.0,1500.0,1000.0,1522.0,1477.0,1524.0,15.197634099999998,15.56846725,15.21030649,15.24203058,15.61384775,14.99444323,15.36021802,,,141.5603937,141.5603937,11.76923754,-0.00151312,-0.005754697,8.51e-05,-0.200042053,0.185082656,-0.033914894,2.0,1.2142428490000001,2.214242849,11,0,0,1,0,0.0,0,0,0,0,0,0.10999009900000001,-0.12646290300000002,-3.024983303,-3.129613145,-5.654142164,244.6177699,44.38456301,-0.011346191,0.016501249,0.060072602999999995,0.0,-1.312341325,0.312916676,-10.29156041,-7.209999999999999e-21,954.9400766000001,11.76986563,-0.18363089999999999,0.067413309,0.253629076,-1.4378307330000002,0.160209166,-10.29992499,-0.174260373,0.058708189,0.250930696,-7.209999999999999e-21,91.97956155,96.20231749,-2.707503374,-3.483644963,15.36473422,15.82891728,-0.009283673000000001,0.388750725,-0.1,72.12831787,47077989.2,6620172,499.4600112,11.756072999999999,95467.9229,1.13431693,0.185407369,-1.158169279,-0.208328552,-0.17340776300000002,0.11896933800000001,0.265370217,0.078620471,-0.10192551400000001,-3.02622749,0.059531294000000005,-0.048553757,-0.042118199999999995,-0.9961528129999999,0.051030882,398726935.6,327430448.8,498492.4493,15.15837529,-14.96025366,2.511606321,2.993130626,2.974807803,0,0,0.0,39.8714138,32.7364368,139.60277380000002,564.3237343,-97.80723856,-15.08173891,1.799107321,3.1690221380000003,-0.7420437329999999,-4.05234451,0.34969141600000003,3.040546429,97.92836812,-0.176244641,0.144455482,0.008247783,0.0,51886763,0,0,1,0,0
1237,51923144,-0.043203137999999995,0.05063893,0.099979162,0.0,0.0,1553.0,1500.0,1000.0,1523.0,1476.0,1520.0,15.12026577,15.48903418,15.21707353,15.24839472,15.62029513,15.00335912,15.36928075,,,141.6827488,141.6827488,11.76988371,-0.001513016,-0.00575509,8.53e-05,-0.20005779,0.185061173,-0.033824072999999996,2.0,1.216843369,2.2168433690000002,11,0,0,1,0,0.0,0,0,0,0,0,0.102453468,-0.124741245,-3.025259181,-3.129588753,-5.648502776,244.09673540000003,44.43474232,-0.011330185,0.016624203,0.059649222,0.0,-1.350580921,0.275579465,-10.23099142,-7.209999999999999e-21,954.9564048000001,11.77056336,-0.180277438,0.040960069,0.242912142,-1.381296078,0.19643228399999998,-10.28767665,-0.177929367,0.040775658,0.244513343,-7.209999999999999e-21,91.87383744,96.08625985,-2.675135376,-3.4994790460000003,15.36464438,15.85006141,-0.009708351,0.40457139799999997,-0.1,72.01402464,47114644.53,6620172,499.36996960000005,11.756072999999999,95468.98246,1.134329452,0.196265776,-0.6036537470000001,-0.055903361,-0.173610968,0.11002414099999999,0.254047228,0.072290187,-0.086647525,-3.026545708,0.058964949,-0.041134417,-0.038531838,-0.9966642259999999,0.0,398726888.7,327430459.2,498390.5257,15.1635845,-14.99150809,2.3674894980000003,3.036539308,2.98447509,0,0,0.0,39.8714138,32.7364368,139.0589066,564.3829311000001,-97.69411822,-15.10867464,1.655157714,3.184192542,-0.69325783,-3.993458711,0.362548916,3.049777563,97.81524822,-0.186466369,0.117140594,0.006114569,0.0,51923144,0,0,1,0,0
1238,51955525,-0.042127547,0.057010537,0.096421141,0.0,0.0,1551.0,1500.0,1000.0,1523.340268,1475.659732,1523.0,15.22824616,15.59945982,15.22384057,15.25475886,15.62674252,15.01227501,15.37834347,,,141.805104,141.805104,11.77052989,-0.0015129120000000002,-0.005755481999999999,8.55e-05,-0.200073526,0.18503968899999998,-0.033733252000000005,2.0,1.2194438890000001,2.219443889,11,0,0,1,0,0.0,0,0,0,0,0,0.09491683699999999,-0.12301958800000001,-3.0255350589999996,-3.12956436,-5.642863387,243.5757008,44.48492163,-0.011315733,0.016733256999999998,0.059304200999999994,0.0,-1.4177009409999999,0.201482623,-10.0956436,-7.209999999999999e-21,954.9683273,11.77126429,-0.189695362,0.024150486000000002,0.24134848,-1.300855689,0.103169361,-10.089252199999999,-0.183744928,0.024117057999999997,0.23780302,-7.209999999999999e-21,91.76811333,95.97020222,-2.6427673769999998,-3.515313129,15.36455455,15.87120553,-0.01013303,0.420392072,-0.1,71.89973141,47151299.86,6620172,499.4148494,11.75604847,95468.48578999999,1.134323582,-0.650759632,-1.20024565,-0.17827343699999998,-0.17416526899999998,0.088129531,0.245977589,0.066140013,-0.085282736,-3.026869618,0.058652342999999996,-0.040641168,-0.035422077999999996,-0.9968200859999999,0.0,398726841.9,327430469.6,498288.6021,15.16879372,-15.02276251,2.223372675,3.07994799,2.9941423769999997,0,0,0.0,39.8714138,32.7364368,138.50071269999998,564.4391542000001,-97.57772032,-15.13540144,1.509234195,3.198093343,-0.623301384,-3.904223337,0.451964573,3.05882263,97.69885032,-0.187100092,0.070479982,0.010222649,0.0,51955525,0,0,1,0,0
1239,51987906,-0.045439314,0.056378305999999996,0.09393641,0.0,0.0,1549.0,1500.0,1000.0,1522.0,1477.0,1527.0,15.15904243,15.52857204,15.2306076,15.261123000000001,15.6331899,15.0211909,15.387406200000001,,,141.9274592,141.9274592,11.77117607,-0.001512809,-0.005755875,8.57e-05,-0.20008926300000002,0.18501820600000002,-0.033642431,2.0,1.222044409,2.222044409,11,0,0,1,0,0.0,0,0,0,0,0,0.087380205,-0.12129793,-3.0258109369999997,-3.129539968,-5.637223999,243.0546663,44.53510094,-0.011298467,0.016871449,0.058917952,0.0,-1.484820961,0.12738578,-9.960295782000001,-7.209999999999999e-21,954.9802499,11.77196523,-0.19454236,0.004172391,0.232507842,-1.36644361,0.120216177,-9.842726679,-0.18956049,0.007458459000000001,0.23109269699999999,-7.209999999999999e-21,91.65290301,95.84289286,-2.63704011,-3.5188354260000003,15.364472699999999,15.89781038,-0.010666763000000001,0.430371028,-0.1,71.78265509,47187955.19,6620172,499.4586795,11.7560425,95467.97782,1.134317574,-0.406093627,-0.482038135,-0.17355638199999998,-0.172864762,0.064255302,0.247542492,0.060180422000000004,-0.099868352,-3.027076945,0.058626464,-0.048089401,-0.032853911,-0.996576756,0.0,398726793.2,327430477.7,498178.8064,15.17933987,-15.04867974,2.0765873040000002,3.0993398410000004,3.003949415,0,0,0.0,39.8714138,32.7364368,137.9425189,564.4953772000001,-97.46132242,-15.16212824,1.363310676,3.2119941439999997,-0.553344939,-3.8149879639999997,0.541380231,3.067867698,97.58245242,-0.18276974699999998,0.047429745,0.012160991999999999,0.0,51987906,0,0,1,0,0
1240,52020286,-0.045430133,0.066110593,0.087912061,0.0,0.0,1548.0,1500.0,1000.0,1521.431286,1477.568714,1527.568714,15.28489161,15.65728607,15.23737464,15.26748714,15.63963728,15.0301068,15.39646892,,,142.0498144,142.0498144,11.77182225,-0.001512705,-0.005756268,8.58e-05,-0.20010499899999998,0.184996723,-0.03355161,2.0,1.224644929,2.224644929,11,0,0,1,0,0.0,0,0,0,0,0,0.080736691,-0.123410855,-3.02704405,-3.1296924789999996,-5.588379989,242.501302,44.58706576,-0.011281905,0.017050844,0.058516390999999994,0.0,-1.4808137080000001,0.146551366,-9.774140059,3.5753251460000004,954.9922909,11.77267557,-0.19356474199999998,-0.000928985,0.23159646600000003,-1.433219657,0.105621165,-9.677233264,-0.191314103,0.001136469,0.225323947,3.5753251460000004,91.53392255,95.71111166,-2.641900825,-3.5174645769999997,15.36439403,15.926585500000002,-0.011243838999999999,0.438028274,-0.1,71.66447266,47224610.52,6620172,499.5186419,11.7560425,95467.30009,1.134309539,0.22886054399999997,-0.205572091,0.35691925,-0.17990802399999997,0.042184901,0.242440087,0.047737641,-0.11508644900000001,-3.0325686939999996,0.055742408,-0.056106242,-0.026920128999999998,-0.996494642,0.0,398726744.1,327430485.2,498066.6383,15.1914943,-15.0729886,1.928997769,3.111494237,3.013798567,0,0,0.0,39.8714138,32.7364368,137.41938869999998,564.5369942000001,-97.35125737,-15.18362085,1.239008197,3.234594642,-0.573650705,-3.670596991,0.649935946,3.075398835,97.47238585,-0.17837006100000002,0.031305406,0.012549781999999999,0.0,52020286,0,0,1,0,0
1241,52056667,-0.043578745999999995,0.064051197,0.086893415,0.0,0.0,1548.0,1500.0,1000.0,1521.0,1478.0,1525.0,15.16806874,15.53751166,15.24414168,15.27385128,15.64608466,15.03902269,15.40553165,,,142.1721696,142.1721696,11.77246843,-0.0015126010000000001,-0.005756661,8.6e-05,-0.20012073600000002,0.18497523899999999,-0.033460789,2.0,1.227245449,2.227245449,11,0,0,1,0,0.0,0,0,0,0,0,0.07415872700000001,-0.125805217,-3.0283474189999997,-3.129857973,-5.536364998,241.94556490000002,44.63916163,-0.011265041000000002,0.01725319,0.058105711,0.0,-1.4651393330000002,0.18101493899999999,-9.579650232,7.737116669,955.0043513,11.77338746,-0.194281103,-0.009095209,0.223631597,-1.339794525,0.169088244,-9.575073317000001,-0.192401428,-0.003489989,0.219709645,7.737116669,91.41494208,95.57933047,-2.646761541,-3.516093728,15.36431536,15.95536063,-0.011820913999999998,0.44568552100000003,-0.1,71.54629024,47261265.85,6620172,499.49225789999997,11.756012,95467.57766,1.13431279,0.066189014,0.196175847,0.478535855,-0.189664837,0.017489943,0.229638173,0.039292536,-0.130292441,-3.0350172619999998,0.05441474599999999,-0.063950929,-0.023042197,-0.996199779,0.0,398726695.0,327430492.7,497954.4703,15.20364873,-15.09729746,1.7814082340000001,3.123648634,3.023647719,0,0,0.0,39.8714138,32.7364368,136.9020102,564.5762153,-97.2422311,-15.20425488,1.118252251,3.2586221660000003,-0.608762327,-3.517158756,0.7616312359999999,3.0826816389999996,97.36335781,-0.17829366300000002,0.007587867,0.011998648999999998,0.0,52056667,0,0,1,0,0
1242,52093048,-0.045859782,0.061460540999999994,0.083826169,0.0,0.0,1544.5223039999998,1500.0,1000.0,1521.4776960000002,1477.5223039999998,1529.910782,15.25269667,15.62432111,15.25090871,15.28021542,15.65253204,15.04793858,15.41459438,,,142.2945248,142.2945248,11.77311461,-0.001512498,-0.005757053000000001,8.62e-05,-0.20013647199999998,0.18495375600000002,-0.033369968,2.0,1.229845969,2.229845969,11,0,0,1,0,0.0,0,0,0,0,0,0.067580763,-0.128199579,-3.029650788,-3.130023468,-5.484350007000001,241.38982769999998,44.6912575,-0.011245999,0.017454779,0.057694924,0.0,-1.449683131,0.21262174,-9.391329928,11.64924781,955.0162791000001,11.77410001,-0.18985151100000003,-0.002533218,0.21542463899999997,-1.4006952030000002,0.312408493,-9.419736112999999,-0.193552444,-0.007632747,0.214193285,11.64924781,91.29596162,95.44754927,-2.651622256,-3.514722879,15.36423669,15.98413576,-0.01239799,0.45334276799999995,-0.1,71.42810781,47297921.18,6620172,499.50822130000006,11.756012,95467.40441,1.134310627,0.060556125999999995,0.042542894000000005,0.860321261,-0.189911663,0.008963054,0.22713284600000003,0.033640599,-0.145260832,-3.0353266060000004,0.054176981,-0.071562783,-0.020604783,-0.995747242,0.0,398726645.8,327430500.1,497842.3023,15.21580316,-15.12160632,1.633818698,3.13580303,3.033496871,0,0,0.0,39.8714138,32.7364368,136.3832763,564.6151472,-97.13282559,-15.2248621,0.997503916,3.282984709,-0.641313875,-3.3658771310000004,0.8705895929999999,3.089971975,97.25395054,-0.171385254,0.011249249,0.009587075,0.0,52093048,0,0,1,0,0
1243,52125429,-0.044095353,0.065845113,0.081073254,0.0,0.0,1543.0,1500.0,1000.0,1523.0,1476.0,1531.0,15.25814818,15.629748699999999,15.26103188,15.29003383,15.6625085,15.05964073,15.4265019,,,142.4844033,142.4844033,11.77380007,-0.001512394,-0.005757445999999999,8.640000000000001e-05,-0.200152209,0.184932273,-0.033279147,2.0,1.232446489,2.232446489,11,0,0,1,0,0.0,0,0,0,0,0,0.061002799,-0.130593941,-3.030954158,-3.130188962,-5.432335016000001,240.8340906,44.74335337,-0.011226449,0.017581925,0.057312330999999994,0.0,-1.441282582,0.151841618,-9.402529647,7.487456283999999,955.0239176000001,11.77483382,-0.20406661399999998,0.00110199,0.208324101,-1.351190087,0.19426666899999998,-9.378337873,-0.19676316600000002,0.0038671870000000002,0.211844349,7.487456283999999,91.17698115,95.31576807,-2.656482971,-3.51335203,15.36415802,16.01291089,-0.012975066,0.461000015,-0.1,71.30992538,47334576.52,6620172,499.343462,11.75599834,95469.25547999999,1.134332678,0.219828991,0.338916371,-0.222767889,-0.190386925,0.005718199,0.218369376,0.028133829,-0.15672998400000002,-3.035626697,0.053889541,-0.077424518,-0.018149016,-0.995374623,0.0,398726596.7,327430507.6,497730.1342,15.22795759,-15.14591518,1.4862291630000002,3.147957426,3.043346024,0,0,0.0,39.8714138,32.7364368,135.8207136,564.6447256,-97.01115568,-15.24460237,0.8770017090000001,3.31818166,-0.591073565,-3.284339466,0.891036565,3.097505884,97.13227886,-0.16904280600000002,0.019558908,0.004950976,0.0,52125429,0,0,1,0,0
1244,52165810,-0.045261663,0.062832797,0.07935521400000001,0.0,0.0,1542.0,1500.0,1000.0,1523.0,1476.0,1530.0,15.29393903,15.666234,15.27859957,15.30751445,15.68031309,15.07752329,15.44471969,,,142.824061,142.824061,11.77457265,-0.00151229,-0.005757839,8.66e-05,-0.200167945,0.184910789,-0.033188326000000004,2.0,1.235047009,2.235047009,11,0,0,1,0,0.0,0,0,0,0,0,0.054424834000000005,-0.132988303,-3.032257527,-3.1303544569999997,-5.380320025,240.2783535,44.79544924,-0.011208794,0.0176313,0.056962382,0.0,-1.432882033,0.09106149599999999,-9.413729366,3.32566476,955.0315561000001,11.77556762,-0.198713505,0.014017048999999998,0.206923384,-1.423755914,0.171374108,-9.349339164,-0.199973889,0.01536712,0.209495412,3.32566476,91.05800068,95.18398688,-2.661343687,-3.5119811810000003,15.36407935,16.04168602,-0.013552141,0.468657261,-0.1,71.19174295,47371231.85,6620172,499.4938624,11.755981,95467.55244,1.134312406,-0.895338629,0.587871293,0.16607429199999998,-0.192607875,0.001812034,0.216248518,0.022935878,-0.165640684,-3.0359238239999997,0.053571475,-0.08200115599999999,-0.015780884,-0.995064882,0.0,398726547.6,327430515.0,497617.9758,15.24011202,-15.17022404,1.338879676,3.160303861,3.053178975,0,0,0.0,39.8714138,32.7364368,135.2581508,564.674304,-96.88948576,-15.26434265,0.756499502,3.35337861,-0.540833256,-3.202801801,0.9114835370000001,3.1050397939999996,97.01060717,-0.176498833,0.043220097,-0.004049949000000001,0.0,52165810,0,0,1,0,0
1245,52198191,-0.043763137,0.07086914,0.074880141,0.0,0.0,1540.0,1500.0,1000.0,1522.0,1477.0,1532.0,15.34759901,15.72116188,15.29616725,15.32499507,15.69811769,15.09540585,15.46293748,,,143.1637186,143.1637186,11.77534523,-0.0015121870000000001,-0.005758231999999999,8.669999999999999e-05,-0.200183682,0.184889306,-0.033097505,2.0,1.23764753,2.23764753,11,0,0,1,0,0.0,0,0,0,0,0,0.04784687,-0.135382665,-3.0335608960000005,-3.130519951,-5.328305033,239.7226164,44.84754511,-0.01119591,0.017634007,0.056606826,0.0,-1.4283752630000002,0.049435244,-9.442136963,-7.209999999999999e-21,955.0396015,11.77630569,-0.197120346,0.024503517000000002,0.20834023699999998,-1.416168008,0.20306374600000002,-9.453422681000001,-0.20325837600000002,0.025936034,0.20631489,-7.209999999999999e-21,90.98927738,95.06801964,-2.6198815719999997,-3.503233858,15.36399383,16.065307999999998,-0.014026288999999999,0.470769968,-0.1,71.10145049,47407887.18,6620172,499.3729572,11.755981,95468.93033999999,1.1343287340000001,0.210083582,0.30412762,-0.013004113999999999,-0.18958553399999997,0.010100217,0.21282900800000001,0.018189408,-0.167568515,-3.036105758,0.05329180099999999,-0.083088649,-0.013461751000000001,-0.995024962,0.0,398726499.8,327430519.2,497506.8496,15.25226628,-15.19453273,1.217335385,3.193294494,3.0612703710000004,0,0,0.0,39.8714138,32.7364368,134.7039429,564.7012392999999,-96.7690696,-15.28380186,0.6390163010000001,3.386965392,-0.50180409,-3.130230374,0.910180586,3.112454159,96.8901896,-0.168753393,0.0622058,-0.004409725,0.0,52198191,0,0,1,0,0
1246,52238572,-0.044583678,0.070161791,0.072575205,0.0,0.0,1539.0,1500.0,1000.0,1523.0,1476.0,1531.0,15.26431977,15.63583225,15.31373494,15.34247568,15.71592228,15.113288399999998,15.48115528,,,143.5033763,143.5033763,11.77611782,-0.0015120829999999998,-0.005758624,8.690000000000001e-05,-0.20019941800000002,0.18486782300000001,-0.033006684,2.0,1.24024805,2.24024805,11,0,0,1,0,0.0,0,0,0,0,0,0.041268906,-0.137777027,-3.034864265,-3.130685446,-5.276290042,239.16687919999998,44.89964098,-0.011183111,0.017619681,0.056332027,0.0,-1.4393558659999999,0.083992839,-9.538988286,-7.209999999999999e-21,955.0492654,11.777060699999998,-0.201608092,0.034540655,0.20039485,-1.405953046,0.225596797,-9.555221526,-0.20683625600000002,0.032801851,0.19982676600000002,-7.209999999999999e-21,90.92143372,94.95232919,-2.5776086730000003,-3.494357425,15.36390818,16.08883979,-0.014498635,0.47278563,-0.1,71.01164617,47444542.51,6620172,499.4870527,11.755951,95467.633,1.134313356,-0.38188857200000004,0.222436933,-0.154795448,-0.195799102,0.023690622,0.20630757800000002,0.013822916000000001,-0.16887120000000003,-3.0363722230000003,0.052980663,-0.08385425,-0.011311942,-0.9950022559999999,0.0,398726452.1,327430523.4,497395.7233,15.26442054,-15.21884142,1.0957910929999999,3.2262851269999997,3.069361766,0,0,0.0,39.8714138,32.7364368,134.182966,564.7176616,-96.65364021,-15.302143099999999,0.533541087,3.414147783,-0.5073668570000001,-3.093321848,0.822368084,3.1193930360000004,96.77476021,-0.162877354,0.06455885,-0.001361466,0.0,52238572,0,0,1,0,0
1247,52274953,-0.045108971,0.065016874,0.071795551,0.0,0.0,1537.0,1500.0,1000.0,1522.0,1477.0,1535.0,15.3811274,15.75522885,15.33130262,15.3599563,15.73372687,15.13117096,15.49937307,,,143.84303400000002,143.84303400000002,11.776890400000001,-0.0015119789999999999,-0.005759017,8.71e-05,-0.200215155,0.184846339,-0.032915863999999996,2.0,1.24284857,2.24284857,11,0,0,1,0,0.0,0,0,0,0,0,0.034690942,-0.140171389,-3.036167635,-3.13085094,-5.224275051,238.6111421,44.95173686,-0.011166037,0.017594267,0.056046012,0.0,-1.4503364680000002,0.11855043400000001,-9.63583961,-7.209999999999999e-21,955.0589292999999,11.77781571,-0.20778966899999998,0.044188145,0.195152252,-1.4311235619999998,0.192103358,-9.594775582,-0.210414135,0.039667667999999996,0.193338642,-7.209999999999999e-21,90.85359006,94.83663874,-2.535335773,-3.485480991,15.36382253,16.11237158,-0.014970981000000001,0.474801291,-0.1,70.92184186,47481197.84,6620172,499.4701465,11.755951,95467.82931,1.134315756,-0.47604373200000005,0.531256933,-0.19267901699999998,-0.198676011,0.033027167999999996,0.206944906,0.000866595,-0.155148327,-3.04365335,0.04883722099999999,-0.077381541,-0.004225393,-0.995794457,0.0,398726404.3,327430527.5,497284.5971,15.27657479,-15.24315011,0.974246802,3.25927576,3.077453162,0,0,0.0,39.8714138,32.7364368,133.66198899999998,564.7340838,-96.53821082,-15.32048434,0.42806587399999996,3.441330174,-0.512929623,-3.056413322,0.734555583,3.126331913,96.65933082,-0.155876176,0.060118236,0.001707462,0.0,52274953,0,0,1,0,0
1248,52311333,-0.044956231,0.058506163,0.073234601,0.0,0.0,1536.795359,1500.0,1000.0,1521.204641,1477.795359,1533.409282,15.34087798,15.71404773,15.348870300000002,15.37743692,15.75153146,15.14905352,15.51759086,,,144.1826916,144.1826916,11.77766298,-0.001511875,-0.00575941,8.73e-05,-0.20023089100000002,0.184824856,-0.032825043,2.0,1.24544909,2.24544909,11,0,0,1,0,0.0,0,0,0,0,0,0.028112977999999997,-0.142565751,-3.037471004,-3.131016435,-5.17226006,238.05540499999998,45.00383273,-0.01114522,0.017586598000000002,0.055759972000000005,0.0,-1.461832341,0.142487444,-9.720344091,-7.209999999999999e-21,955.0746257000001,11.77864695,-0.21174368699999999,0.047508762999999996,0.18529097,-1.43624883,0.21006115,-9.663882732000001,-0.21263159199999998,0.045410599,0.188268443,-7.209999999999999e-21,90.78574640000001,94.72094829,-2.493062874,-3.476604558,15.36373688,16.13590337,-0.015443327,0.476816953,-0.1,70.83203755,47517853.17,6620172,499.4054866,11.75592,95468.56841,1.13432455,0.264513509,0.023705978,0.14281396,-0.19668895600000003,0.041932357999999996,0.19895714899999997,-0.003092507,-0.152783362,-3.0441275230000002,0.048454273,-0.076301645,-0.00217774,-0.995902538,0.0,398726356.6,327430531.7,497173.4709,15.28872905,-15.267458800000002,0.85270251,3.2922663930000002,3.085544558,0,0,0.0,39.8714138,32.7364368,133.12403319999999,564.746813,-96.4183182,-15.33947535,0.321301212,3.465120742,-0.527113333,-3.01819441,0.63240255,2.307633557,96.53943819999999,-0.147567864,0.08477613099999999,0.001651758,0.0,52311333,0,0,1,0,0
