,timestamp,control[0],control[1],control[2],control[3],control[4],output[2],output[3],output[4],output[5],output[6],output[7],indicated_airspeed_m_s,equivalent_airspeed_m_s,true_airspeed_m_s,equivalent_ground_minus_wind_m_s,true_ground_minus_wind_m_s,indicated_airspeed_m_s.1,true_airspeed_m_s.1,differential_pressure_raw_pa,differential_pressure_filtered_pa,temperature,gyro_bias[0],gyro_bias[1],gyro_bias[2],accel_bias[0],accel_bias[1],accel_bias[2],nav_roll,nav_pitch,nav_bearing,target_bearing,xtrack_error,wp_dist,acceptance_radius,rollspeed_integ,pitchspeed_integ,yawspeed_integ,additional_integ1,x,y,z,temperature.1,pressure,temperature.2,gyro_rad[0],gyro_rad[1],gyro_rad[2],accelerometer_m_s2[0],accelerometer_m_s2[1],accelerometer_m_s2[2],timestamp_sample,x.1,y.1,z.1,temperature.3,altitude_sp,altitude_filtered,height_rate_setpoint,height_rate,airspeed_sp,airspeed_filtered,airspeed_derivative_sp,airspeed_derivative,throttle_integ,pitch_integ,timestamp_sample.1,baro_alt_meter,baro_temp_celcius,baro_pressure_pa,rho,roll_body,pitch_body,yaw_body,q_d[0],q_d[1],q_d[2],q_d[3],thrust_body[0],xyz[0],xyz[1],xyz[2],xyz[0].1,xyz[1].1,xyz[2].1,lat,lon,alt,vel_m_s,vel_n_m_s,vel_e_m_s,vel_d_m_s,cog_rad,ref_lat,ref_lon,x.2,y.2,z.2,vx,vy,vz,ax,ay,az,dist_bottom,roll,pitch,yaw,thrust_body[0].1,isTakeoff,isClimbing,isDescending,isCruise,isLand
1241,77007412,0.042274782999999996,0.101686731,-0.17273237100000002,0.0,0.0,1416.0,1500.0,1000.0,1478.0900179999999,1520.9099820000001,1552.0,15.07634026,14.98343902,15.34765177,14.21379529,14.55929923,15.02674927,15.39396281,140.2445112,140.2445112,11.76397253,-0.001062654,-0.005964866,0.000600901,-0.20587092,0.129609387,-0.014269978000000001,-0.202918598,-0.149354178,-1.818390379,-1.6136324340000001,10.39053529,251.2383026,42.64811946,-0.01802125,0.044938912000000004,-0.058927234,0.0,-1.86827456,0.147248466,-9.199938694,6.87e+18,954.8172747000001,11.76422106,0.151707543,0.082589595,-0.39997331399999997,-1.9281045959999998,0.27853025600000003,-9.308571322,77259612.72,0.15978388699999999,0.09992623699999999,-0.39714413299999995,6.87e+18,90.85350727,92.75524922,-2.272202853,-4.0991130810000005,15.36219448,15.91943343,-0.011144781000000001,0.523604972,-0.1,63.05335582,53725602.72,487.17105219999996,11.83582088,95608.66215,1.135989133,-0.154472584,-0.15435905,-1.824846978,0.60348524,-0.10787372699999999,0.013817335,-0.789920411,0.0,-0.42913878899999996,0.069566701,-0.445000159,0.013472847,0.009475943,0.000204009,398713897.1,327407246.6,481285.1804,19.27929586,0.146901373,19.27309831,-4.759295766,1.563050473,39.871413700000005,32.7364371,-2.491603998,393.680884,-88.11013793,0.09049416800000001,19.06783479,-4.720458911000001,-0.058243843,-0.15005389,-0.056377962000000004,88.3514403,0.309553982,0.171335305,-0.080931114,0.0,0,0,1,0,0
1242,77039479,0.041748127999999995,0.107320271,-0.16601529999999998,0.0,0.0,1419.0,1500.0,1000.0,1479.0,1520.0,1554.0,15.07067315,14.97750448,15.34148591,14.2076679,14.55294012,15.06550107,15.43349783,140.26644019999998,140.26644019999998,11.76468104,-0.001061356,-0.0059642459999999994,0.00059898,-0.20590370300000002,0.129609258,-0.014261268,-0.18963735199999998,-0.149413388,-1.81764367,-1.613607627,10.36139584,250.7040475,42.65516421,-0.017964695,0.045165372,-0.057980952,0.0,-1.872754765,0.109194154,-9.251579872,6.87e+18,954.8280576,11.76481857,0.155419156,0.083664755,-0.410510493,-1.91649409,0.367619794,-9.170272017,77295199.84,0.161460258,0.104884431,-0.394785679,6.87e+18,90.74360487,92.61904799999999,-2.378869678,-4.070096038,15.36206996,15.93555083,-0.011469618999999999,0.519031285,-0.1,63.02437756,53767476.7,487.2373943,11.83451898,95607.94739,1.135980564,-0.131297917,-0.14614781,-1.814470679,0.609179522,-0.097689943,0.006672185,-0.786957968,0.0,-0.213604645,0.06864714200000001,-0.792513041,0.016963038,0.007585166999999999,-0.006850376,398713897.7,327407340.3,481480.6455,19.27309062,0.148969785,19.2710301,-4.753090587,1.562978264,39.871413700000005,32.7364371,-2.487479792,394.509833,-88.31784993,0.088781723,19.06215777,-4.721734351,-0.054946059000000005,-0.134305058,-0.046102921,88.55915394,0.319676236,0.152091756,-0.079132917,0.0,0,0,1,0,0
1243,77071546,0.036696663,0.105364674,-0.167314302,0.0,0.0,1423.0,1500.0,1000.0,1476.0,1523.0,1555.0,15.07214797,14.97883687,15.3427565,14.20886154,14.55407323,15.03060482,15.39759867,140.28836919999998,140.28836919999998,11.76538955,-0.001060188,-0.005963845,0.000597041,-0.205946625,0.129613048,-0.014254825,-0.17635610699999998,-0.149472598,-1.8168969609999999,-1.6135828209999998,10.33225639,250.16979229999998,42.66220896,-0.017904955,0.045396448,-0.057063317999999995,0.0,-1.869430515,0.06097371099999999,-9.29439699,6.87e+18,954.8378767999999,11.76561749,0.156041752,0.086138887,-0.39921694,-1.88639443,0.227084481,-9.147099595,77330786.96,0.165167866,0.106565615,-0.393005599,6.87e+18,90.62716166,92.483328,-2.513516423,-4.0376609619999995,15.36194448,15.95074111,-0.011775935,0.51237937,-0.1,62.99719645,53809350.67,487.6967777,11.833210800000002,95602.67715,1.135917904,-0.120230163,-0.14244174199999998,-1.814335241,0.609940229,-0.092869916,0.003453582,-0.786977138,0.0,0.22088202199999998,0.444076295,-0.029869936,0.015235127,0.008666695,-0.002543595,398713898.3,327407436.0,481680.6787,19.26792358,0.14688536800000002,19.26792358,-4.748961792,1.563069127,39.871413700000005,32.7364371,-2.483935512,395.2762775,-88.51062171,0.087525139,19.05771483,-4.721659257,-0.07916904599999999,-0.140976941,-0.0017187770000000001,88.75192614,0.31944485,0.140954196,-0.079211255,0.0,0,0,1,0,0
1244,77107227,0.042578122,0.103992481,-0.166725716,0.0,0.0,1425.344869,1500.0,1000.0,1480.0,1519.0,1558.344869,15.089464900000001,14.99628867,15.36052246,14.22629455,14.57182548,15.09067979,15.45921189,140.31029819999998,140.31029819999998,11.76609806,-0.001059307,-0.005963933,0.0005950630000000001,-0.206012036,0.12962552900000002,-0.014253408,-0.163074861,-0.14953180800000002,-1.816150252,-1.613558014,10.30311695,249.6355371,42.6692537,-0.017849783,0.045631954,-0.056101255,0.0,-1.86592675,0.01251943,-9.33701114,6.87e+18,954.847674,11.76642105,0.162369604,0.089309186,-0.40522336700000006,-1.9941469040000002,0.278511205,-9.114463184,77366374.07,0.168922197,0.10817142199999999,-0.39123882299999996,6.87e+18,90.51071845,92.347608,-2.648163168,-4.005225886,15.361819,15.96593139,-0.01208225,0.505727456,-0.1,62.97001535,53851224.64,487.8254228999999,11.83188815,95601.18463999999,1.135900202,-0.109319347,-0.138798172,-1.814169422,0.610660341,-0.08811595400000001,0.000276223,-0.7869715509999999,0.0,0.19972791399999998,-0.040368265,0.131286176,0.016066223,0.009552378,0.002447611,398713898.9,327407533.6,481885.2448,19.26378676,0.14068012900000001,19.26378676,-4.746893378999999,1.563321805,39.871413700000005,32.7364371,-2.4803912319999997,396.04272189999995,-88.7033935,0.086268555,19.05327189,-4.721584163999999,-0.10339203300000001,-0.147648824,0.042665365999999996,88.94469834,0.328574026,0.172894082,-0.052584951,0.0,0,0,1,0,0
1245,77139681,0.040563446,0.108228171,-0.16103878300000002,0.0,0.0,1427.0,1500.0,1000.0,1477.7631529999999,1521.2368470000001,1556.7631529999999,15.10678183,15.01374047,15.37828842,14.24372756,14.58957772,14.97253675,15.33812467,140.33222719999998,140.33222719999998,11.76680658,-0.0010584260000000001,-0.00596402,0.000593085,-0.206077447,0.12963801,-0.014251991,-0.149793616,-0.14959101800000002,-1.8154035430000002,-1.613533207,10.273977499999999,249.10128199999997,42.67629845,-0.017796418999999997,0.045870256,-0.055088039000000005,0.0,-1.862888959,-0.022038806,-9.375692154,6.87e+18,954.8587522,11.76720642,0.16660271699999998,0.099770771,-0.398883755,-1.867536795,0.232038308,-9.176636336,77401961.19,0.172043261,0.109542206,-0.389432713,6.87e+18,90.39427524,92.211888,-2.782809912,-3.97279081,15.36169353,15.98112167,-0.012388566,0.499075541,-0.1,62.94283425,53893098.62,487.7337041,11.83058751,95602.26212,1.135913017,-0.09856572699999999,-0.14006073900000002,-1.8139911690000001,0.611140766,-0.085324749,-0.004352002,-0.7868949959999999,0.0,0.006610209000000001,0.570396326,0.26467020399999996,0.014228526000000002,0.00992765,-0.0014133379999999999,398713899.6,327407631.3,482089.811,19.25964993,0.13447489,19.25964993,-4.744824965,1.563574482,39.871413700000005,32.7364371,-2.4767000869999998,396.84925830000003,-88.90663752,0.08567422400000001,19.04749256,-4.723044655,-0.09238316199999999,-0.164143794,0.037914791,89.14794226,0.325655574,0.169637083,-0.049647353,0.0,0,0,1,0,0
1246,77179748,0.046152987,0.111288264,-0.152506761,0.0,0.0,1428.0,1500.0,1000.0,1478.0,1521.0,1554.0,15.12409876,15.03119226,15.39605439,14.26116058,14.60732996,15.01940772,15.38602808,140.3541562,140.3541562,11.76751509,-0.0010575460000000001,-0.005964108,0.000591107,-0.20614285699999998,0.129650491,-0.014250573,-0.13651237,-0.149650228,-1.814656834,-1.6135084,10.24483805,248.5670268,42.6833432,-0.017752178,0.046069435,-0.054221702000000004,0.0,-1.8621669680000001,0.012463509,-9.39482628,6.87e+18,954.876197,11.76790144,0.162585738,0.09717256,-0.398119559,-1.872819302,0.243063363,-9.209225763,77437548.31,0.172017119,0.109744978,-0.387431115,6.87e+18,90.27783203,92.07616800000001,-2.917456657,-3.9403557339999997,15.36156805,15.99631195,-0.012694881000000002,0.492423626,-0.1,62.91565314,53934972.59,487.9846352,11.82928538,95599.38882000001,1.135878903,-0.08784851199999999,-0.14501293699999998,-1.813772661,0.611481436,-0.08398632,-0.010104088,-0.786721735,0.0,0.35041322,0.281714248,0.213701778,0.013685547,0.010544191000000001,-0.0029468909999999997,398713900.2,327407728.9,482294.3771,19.2555131,0.12826965099999998,19.2555131,-4.742756551,1.56382716,39.871413700000005,32.7364371,-2.472924258,397.67891180000004,-89.11591989,0.085461751,19.04094265,-4.725390569,-0.06105947,-0.186302794,0.004832950999999999,89.3572242,0.329612912,0.17139566399999998,-0.039548672,0.0,0,0,1,0,0
1247,77211815,0.03955677,0.117724168,-0.14817686,0.0,0.0,1432.79916,1500.0,1000.0,1475.80056,1523.19944,1557.79916,15.14141569,15.04864406,15.41382035,14.27859359,14.62508221,15.06344136,15.43118659,140.3760852,140.3760852,11.768223599999999,-0.001056665,-0.005964196,0.000589129,-0.206208268,0.129662972,-0.014249156,-0.12410431300000001,-0.148852639,-1.812637245,-1.6132767959999998,10.16827084,248.05357310000002,42.71881324,-0.017702938,0.046272314,-0.053281232000000005,0.0,-1.861444976,0.046965824,-9.413960405,6.87e+18,954.8936418,11.76859645,0.166370008,0.105083459,-0.39947228700000004,-1.8858019480000001,0.238091107,-9.232446169,77473135.43,0.17199097600000002,0.10994775,-0.38542951799999997,6.87e+18,90.15932331,91.93895077,-3.03006976,-3.911768846,15.36144683,16.01108082,-0.012992683,0.485864335,-0.1,62.88888058,53979654.33,488.34884819999996,11.82795542,95595.20683,1.135829228,-0.06886448099999999,-0.133181988,-1.8065122969999998,0.615500739,-0.073484935,-0.014181771000000001,-0.784553171,0.0,-0.262678328,0.058791301,0.09127319199999999,0.012091213,0.014961261000000002,-0.002714157,398713900.8,327407826.5,482498.9432,19.25137628,0.122064412,19.25137628,-4.740688138,1.564079837,39.871413700000005,32.7364371,-2.469156616,398.5084595,-89.32511252,0.084923371,19.03451988,-4.727509377,-0.037365269,-0.19741728600000003,-0.018778248,89.56641662,0.337676979,0.16934691699999999,-0.031114477999999997,0.0,0,0,1,0,0
1248,77247882,0.043568295,0.11429273,-0.14422069099999998,0.0,0.0,1434.0,1500.0,1000.0,1476.0,1523.0,1557.0,15.15873262,15.06609586,15.43158631,14.296026600000001,14.64283445,14.96319402,15.32817073,140.3980142,140.3980142,11.76893211,-0.001055785,-0.005964283000000001,0.000587151,-0.206273679,0.129675453,-0.014247738999999999,-0.11192785300000001,-0.147827799,-1.8102800469999998,-1.612990343,10.07912421,247.54563650000003,42.76182261,-0.017640376,0.046518907000000005,-0.052205608,0.0,-1.843483785,0.06597752700000001,-9.447167064,6.87e+18,954.9096655,11.76930318,0.167176655,0.10711720599999999,-0.39663568899999996,-1.900775724,0.16873307699999998,-9.274750742,77508722.54,0.17509454600000002,0.109803826,-0.383818434,6.87e+18,90.02608574,91.79105704,-2.985564466,-3.910622775,15.36135598,16.02284471,-0.013229774,0.479965531,-0.1,62.86502128,54018720.54,488.6419296,11.82665518,95591.83407000001,1.13578908,-0.054784462,-0.133697744,-1.803177442,0.617309872,-0.069324673,-0.019990797,-0.78340283,0.0,0.169991332,-0.124931642,-0.300226092,0.012470388999999998,0.010145431,-0.0007541560000000001,398713901.3,327407922.5,482701.4389,19.2444789,0.12,19.24585917,-4.741380276,1.564139828,39.871413700000005,32.7364371,-2.465414719,399.3376742,-89.53402297,0.083360064,19.02849692,-4.7289139669999996,-0.037664607,-0.173798557,-0.012605783999999998,89.77532749,0.35382240000000004,0.178773011,-0.015324727,0.0,0,0,1,0,0
1249,77279950,0.043077810999999994,0.108600501,-0.143275953,0.0,0.0,1435.0,1500.0,1000.0,1479.0,1520.0,1561.0,15.17604955,15.08354765,15.44935228,14.31345962,14.66058669,14.92821646,15.29218417,140.41994319999998,140.41994319999998,11.76964062,-0.001054904,-0.0059643709999999996,0.000585173,-0.20633908899999998,0.129687934,-0.014246321999999999,-0.09975139400000001,-0.14680296,-1.807922849,-1.61270389,9.989977592,247.03769989999998,42.80483197,-0.017591723,0.046714124,-0.051347633,0.0,-1.7945408219999999,0.05714997,-9.505664456,6.87e+18,954.9231352,11.77003093,0.176344535,0.10748184599999999,-0.399926185,-1.9158118169999998,0.15039962,-9.290489043,77544309.66,0.183822738,0.109036831,-0.382909169,6.87e+18,89.89284818,91.6431633,-2.941059171,-3.909476704,15.36126513,16.03460859,-0.013466866000000001,0.474066728,-0.1,62.84116198,54061360.27,488.8250614,11.82535453,95589.7495,1.1357643309999998,-0.044666947,-0.13369815599999998,-1.8029449219999998,0.617746272,-0.06619842599999999,-0.02396125,-0.783215797,0.0,0.36899264299999995,0.269229499,0.039477395,0.009138645,0.015710071000000003,0.0011641689999999998,398713901.7,327408017.6,482902.9024,19.23620524,0.12,19.23965393,-4.74344869,1.564103755,39.871413700000005,32.7364371,-2.4616728230000002,400.1668889,-89.74293341,0.081796757,19.02247397,-4.7303185569999995,-0.037963944,-0.150179827,-0.00643332,89.98423835,0.35909905299999995,0.190776086,-0.001476974,0.0,0,0,1,0,0
1250,77312017,0.044674692,0.112714582,-0.137550086,0.0,0.0,1437.0,1500.0,1000.0,1475.854571,1523.145429,1559.0,15.19336648,15.10099945,15.46711824,14.33089263,14.67833894,15.00441047,15.37035266,140.44187230000003,140.44187230000003,11.77034913,-0.001054024,-0.005964459,0.000583195,-0.20640450000000002,0.129700415,-0.014244905,-0.08757493400000001,-0.14577812,-1.80556565,-1.612417437,9.900830969,246.5297634,42.84784134,-0.017541868000000002,0.04692343,-0.050407737,0.0,-1.745597859,0.048322412,-9.564161848,6.87e+18,954.9366049,11.77075869,0.164616187,0.11145409099999999,-0.398388519,-1.7999762080000001,0.103075358,-9.353292677999999,77579896.78,0.192550931,0.108269836,-0.381999904,6.87e+18,89.75961061,91.49526957,-2.896553876,-3.9083306319999997,15.36117429,16.04637247,-0.013703958,0.46816792399999996,-0.1,62.81730267,54102723.74,489.03022860000004,11.82405177,95587.39121,1.135736365,-0.034758248,-0.132418385,-1.802688279,0.618201993,-0.062633462,-0.027452747000000003,-0.783037054,0.0,0.053123687,0.045025151,-0.095399637,0.016671535,0.014469086,-0.003542353,398713902.1,327408112.8,483104.3659,19.22793159,0.12,19.23344869,-4.745517103,1.564067682,39.871413700000005,32.7364371,-2.458108232,400.94171370000004,-89.93869654,0.08108853,19.01717697,-4.731576963999999,-0.056221155,-0.146892864,0.013722322,90.18000154,0.35360271200000004,0.204276524,0.006446311,0.0,0,0,1,0,0
1251,77348084,0.04735657099999999,0.11525621400000001,-0.130310913,0.0,0.0,1437.0,1500.0,1000.0,1475.2728550000002,1523.7271449999998,1556.0,15.21068341,15.11845125,15.4848842,14.34832564,14.69609118,14.96621809,15.33105447,140.4638013,140.4638013,11.77105764,-0.001053143,-0.005964545999999999,0.000581218,-0.206469911,0.129712896,-0.014243488,-0.075398475,-0.14475328,-1.8032084519999998,-1.6121309830000001,9.811684346,246.0218268,42.89085071,-0.017495376,0.047123487,-0.049488997,0.0,-1.76417297,0.009287806,-9.606322967,5.53e+18,954.951117,11.77150418,0.172189557,0.11384291099999999,-0.393788734,-1.9463352459999999,0.119374928,-9.454043515,77615483.9,0.199936427,0.10395459300000001,-0.378587511,5.53e+18,89.62637304,91.34737583,-2.8520485819999997,-3.9071845610000002,15.36108344,16.05813635,-0.01394105,0.46226912,-0.1,62.79344337,54144342.47,489.1390336,11.82272245,95586.16026,1.135721705,-0.017805988000000002,-0.13644740800000002,-1.7964557,0.621034624,-0.058848023,-0.035510757999999996,-0.780742907,0.0,0.10988467800000001,-0.745085833,0.137020684,0.0077990030000000005,0.008195343,0.002239665,398713902.5,327408207.9,483305.8294,19.21965793,0.12,19.22724345,-4.747585517,1.5640316090000002,39.871413700000005,32.7364371,-2.454575361,401.7068084,-90.13210768,0.080533272,19.01200984,-4.732809219,-0.077690919,-0.14724313,0.036379469,90.37341268,0.357322697,0.20027562699999998,0.01178708,0.0,0,0,1,0,0
1252,77380151,0.041249817,0.123475935,-0.129531909,0.0,0.0,1442.6911380000001,1500.0,1000.0,1473.0,1526.0,1562.0,15.22800034,15.13590304,15.50265017,14.36575865,14.71384342,15.01682955,15.38286954,140.4857303,140.4857303,11.77176615,-0.0010522630000000001,-0.005964634,0.00057924,-0.206535322,0.129725377,-0.014242071,-0.063222015,-0.14372844099999998,-1.8008512540000001,-1.61184453,9.722537724,245.51389019999996,42.93386008,-0.017439272,0.047321112,-0.04856614099999999,0.0,-1.838551007,-0.054712585999999994,-9.63498234,3.09e+18,954.9664907,11.77226432,0.17902599800000002,0.107218478,-0.393618274,-1.83308592,0.093736032,-9.551921783,77651071.01,0.206212201,0.09670676199999999,-0.37310631200000005,3.09e+18,89.49313547,91.1994821,-2.8075432869999997,-3.9060384889999997,15.360992600000001,16.06990024,-0.014178142,0.456370317,-0.1,62.76958407,54186216.44,489.4984359,11.821422199999999,95582.03736,1.135672805,-0.0032866759999999997,-0.12408000599999999,-1.792089504,0.623421195,-0.04943815,-0.037450885,-0.779421613,0.0,-0.184766315,0.132789295,0.771073708,0.006752604000000001,0.007171664,0.000145024,398713902.9,327408303.1,483507.2929,19.21138428,0.12,19.22103821,-4.749653931,1.563995535,39.871413700000005,32.7364371,-2.45103644,402.4718193,-90.32556544,0.080079068,19.00663991,-4.733309761,-0.065469341,-0.15196801699999998,0.052751227000000005,90.56686948,0.353405423,0.18606188,0.009323035,0.0,0,0,1,0,0
1253,77416218,0.047299647,0.11945065699999999,-0.12543468300000002,0.0,0.0,1443.0,1500.0,1000.0,1474.0,1525.0,1560.0,15.24531728,15.15335484,15.52041613,14.38319167,14.73159567,15.07454862,15.44194841,140.5076593,140.5076593,11.77247466,-0.001051382,-0.0059647219999999996,0.0005772619999999999,-0.20660073199999998,0.129737858,-0.014240653999999998,-0.051045556,-0.14270360099999999,-1.798494056,-1.611558077,9.633391101,245.0059537,42.97686944,-0.01738987,0.047556644,-0.047649881,0.0,-1.912929043,-0.11871297800000001,-9.663641712999999,6.42e+17,954.9818642999999,11.77302446,0.17601934,0.113681062,-0.38756707,-1.905626656,0.050149137,-9.448532193,77686658.13,0.212487975,0.08945893099999999,-0.36762511299999995,6.42e+17,89.36836987,91.05724671,-2.780701596,-3.9074735589999996,15.36088964,16.07874099,-0.014357015,0.451541539,-0.1,62.74927975,54228090.42,489.56190530000003,11.82009624,95581.32592,1.135664215,0.005978461,-0.12638757,-1.79182828,0.6236997320000001,-0.047443270999999995,-0.041786558,-0.7791002229999999,0.0,0.150059379,-0.46713065,0.320706195,0.004071384,0.006892584,-0.002618151,398713903.5,327408396.7,483704.6227,19.20655514,0.12172234400000001,19.21311062,-4.75172231,1.563959445,39.871413700000005,32.7364371,-2.44749028,403.23673010000005,-90.51907896,0.079745792,19.00102732,-4.732934711,-0.012931518999999999,-0.16192772800000002,0.061601668,90.76038092,0.34952500200000003,0.1962889,0.015568223,0.0,0,0,1,0,0
1254,77448286,0.04892995,0.11362521199999999,-0.125438233,0.0,0.0,1445.472294,1500.0,1000.0,1472.944589,1526.055411,1560.416883,15.26263421,15.17080663,15.53818209,14.40062468,14.74934791,15.08798372,15.45550426,140.52958830000003,140.52958830000003,11.77318317,-0.001050502,-0.005964809000000001,0.000575284,-0.206666143,0.129750339,-0.014239237,-0.038869096,-0.141678761,-1.7961368569999998,-1.611271624,9.544244478,244.4980171,43.01987881,-0.017345751,0.047788749000000005,-0.046789804000000004,0.0,-1.933226198,-0.148009596,-9.693233843,1.8e+18,954.9939572999999,11.77380874,0.188198305,0.09660743599999999,-0.38978814,-1.82285429,0.052414748,-9.527006523999999,77722245.25,0.21625789999999998,0.09526925,-0.35905940700000005,1.8e+18,89.25760368,90.92436139,-2.783047933,-3.9131738080000003,15.36076669,16.08275145,-0.014439686,0.448480912,-0.1,62.73484983,54269964.39,489.7697723,11.81879072,95578.91145,1.135635564,0.015135845,-0.131895379,-1.791371155,0.623995765,-0.04672246099999999,-0.047079442,-0.7786062109999999,0.0,-0.5654566639999999,0.517149341,0.192195791,0.004843225,0.006751013,-0.003990612,398713904.1,327408490.0,483901.12200000003,19.202418100000003,0.123790758,19.20483697,-4.753790682,1.563923351,39.871413700000005,32.7364371,-2.4439145680000003,404.00555269999995,-90.71359873,0.079438879,18.99536877,-4.732592213999999,0.035698346,-0.171657085,0.069559316,90.95489889,0.37155543700000004,0.203460184,0.032081524,0.0,0,0,1,0,0
1255,77484706,0.052229479,0.124382191,-0.114145401,0.0,0.0,1447.0,1500.0,1000.0,1472.945989,1526.054011,1561.0,15.27995114,15.18825843,15.55594806,14.41805769,14.76710015,15.07601318,15.44319118,140.55151730000003,140.55151730000003,11.77389168,-0.0010496210000000001,-0.005964896999999999,0.000573306,-0.20673155399999998,0.12976282,-0.01423782,-0.026692636000000002,-0.140653922,-1.7937796590000001,-1.61098517,9.455097855,243.9900805,43.06288818,-0.017301584,0.048016644000000004,-0.045992526,0.0,-1.9342735269999998,-0.164953577,-9.723157982,4.25e+18,955.0048824999999,11.77460163,0.18512309899999999,0.10459234099999999,-0.38057815,-1.9356293759999998,0.093819409,-9.608743954,77757832.37,0.21913588,0.105727553,-0.34939578600000004,4.25e+18,89.14683749,90.79147606,-2.7853942710000004,-3.918874058,15.36064373,16.0867619,-0.014522357,0.445420285,-0.1,62.72041991,54311838.37,489.8855853999999,11.81748947,95577.58216,1.135619818,0.035772429,-0.131019677,-1.7812168640000001,0.628400204,-0.039661596,-0.055040483,-0.774922178,0.0,-0.058848122,-0.26609034600000003,-0.006586832,0.004940377,0.006376127,-0.0032830940000000003,398713904.8,327408583.2,484097.6213,19.19828107,0.125859172,19.19656331,-4.755859055,1.563887257,39.871413700000005,32.7364371,-2.439893525,404.8333215,-90.92328185,0.079529257,18.98901778,-4.73274027,0.025438317999999998,-0.17791517199999998,0.064063255,91.16458451,0.37159521100000004,0.198072195,0.03586629,0.0,0,0,1,0,0
1256,77524420,0.050766035999999994,0.12119141,-0.11282710300000001,0.0,0.0,1447.728546,1500.0,1000.0,1471.907181,1527.092819,1558.3642730000001,15.29726807,15.20571023,15.57371402,14.43549071,14.78485239,15.02721603,15.39312528,140.57344630000003,140.57344630000003,11.77460019,-0.00104874,-0.005964985,0.0005713280000000001,-0.20679696399999997,0.129775301,-0.014236403,-0.014516177,-0.139629082,-1.791422461,-1.6106987169999998,9.365951232,243.482144,43.10589755,-0.017253169,0.0482716,-0.045198814000000004,0.0,-1.935320855,-0.181897557,-9.753082121,6.69e+18,955.0158078,11.77539451,0.19338789399999998,0.104403416,-0.37733525,-1.761810849,0.022018515,-9.644794408,77793419.48,0.22201386,0.11618585699999999,-0.339732165,6.69e+18,89.03607129,90.65859074,-2.787740608,-3.924574307,15.36052078,16.09077236,-0.014605028,0.44235965899999996,-0.1,62.70598999,54353712.34,490.2000137,11.81617077,95573.98747000001,1.135577041,0.044166227,-0.130335725,-1.7809524319999999,0.6286711629999999,-0.036750833,-0.058083262999999996,-0.7746274879999999,0.0,0.6723403379999999,-0.051983037,0.224506402,0.004505083,0.015193179,-0.001197922,398713905.4,327408676.5,484294.1206,19.19414404,0.127927586,19.18828966,-4.757927427,1.5638511640000001,39.871413700000005,32.7364371,-2.4358724819999997,405.6610904,-91.13296496,0.079619635,18.98266678,-4.732888326,0.01517829,-0.184173258,0.058567195,91.37427013,0.366408939,0.20658305600000001,0.040397521,0.0,0,0,1,0,0
1257,77556487,0.054890664000000006,0.118129529,-0.10871105,0.0,0.0,1451.0,1500.0,1000.0,1472.0,1527.0,1560.0,15.314585000000001,15.22316202,15.59147998,14.45292372,14.80260464,15.05456941,15.4210195,140.5953753,140.5953753,11.7753087,-0.00104786,-0.005965071999999999,0.00056935,-0.206862375,0.129787782,-0.014234986000000002,-0.0023397170000000003,-0.138604242,-1.7890652619999998,-1.610412264,9.27680461,242.9742074,43.14890691,-0.017219533000000002,0.048483992000000004,-0.044621053,0.0,-1.914823653,-0.15466907800000002,-9.890636827,6.87e+18,955.0385823999999,11.77621742,0.196590701,0.094001049,-0.37094332700000004,-1.8732043,-0.009084845,-9.63796239,77829006.6,0.22881875399999999,0.112258976,-0.331813233,6.87e+18,88.9253051,90.52570542,-2.790086945,-3.930274556,15.36039782,16.09478282,-0.014687698999999999,0.43929903200000003,-0.1,62.69156007,54395586.32,490.4568051,11.81485798,95571.02183,1.135541908,0.052305631,-0.12814176900000002,-1.78067595,0.628939676,-0.033331637000000004,-0.060552786,-0.774369779,0.0,0.125589246,-0.333577945,-0.259385133,0.007441409,0.009599645,-5.8599999999999995e-05,398713906.0,327408769.8,484490.6199,19.190007,0.129995999,19.180016000000002,-4.7599957989999995,1.56381507,39.871413700000005,32.7364371,-2.431793914,406.44604389999995,-91.33192663,0.079757125,18.97592064,-4.734147455,0.001273907,-0.18827638100000002,0.036066622,91.57323095,0.361162881,0.189762839,0.037259354,0.0,0,0,1,0,0
1258,77592555,0.051966265,0.122657322,-0.103779035,0.0,0.0,1455.602521,1500.0,1018.4772949999999,1471.5983199999998,1527.4016800000002,1564.803361,15.33190193,15.24061382,15.60924595,14.47035673,14.82035688,15.05561813,15.42207934,140.6173043,140.6173043,11.77601721,-0.001046979,-0.00596516,0.000567372,-0.206927786,0.129800263,-0.014233569,0.009836741999999999,-0.137579402,-1.7867080640000002,-1.6101258109999999,9.187657987,242.46627080000002,43.19191628,-0.017185742,0.048746718,-0.044016071,0.0,-1.8926420609999999,-0.123987116,-10.03660629,6.87e+18,955.0622833999998,11.77704269,0.20373105800000002,0.086380328,-0.368734658,-1.8343715669999998,-0.025102645,-9.653929787000001,77864593.72,0.23593066199999999,0.107207436,-0.324030704,6.87e+18,88.81453891,90.3928201,-2.7924332819999997,-3.935974805,15.36027487,16.09879328,-0.01477037,0.436238406,-0.1,62.67713014,54437460.29,490.65514069999995,11.81355446,95568.77513,1.135515178,0.071091082,-0.11248987699999999,-1.771283802,0.632933829,-0.021047071,-0.063020642,-0.771342548,0.025402885,-0.347715909,-0.43134709600000004,-0.405850106,0.004183823,0.016678029,0.001077718,398713906.4,327408866.8,484698.0606,19.18174155,0.12380676,19.16761332,-4.770321906,1.564139257,39.871413700000005,32.7364371,-2.427686912,407.2098348,-91.52558892,0.079917901,18.96897917,-4.735955763,-0.014431799999999998,-0.191314352,0.005161102,91.76689073,0.383340652,0.215631304,0.057894648,0.0,0,0,1,0,0
1259,77629243,0.058248456,0.11935569,-0.100395316,0.0,0.0,1462.0,1500.0,1036.0,1471.0,1528.0,1572.0,15.34921886,15.25806562,15.62701191,14.48778974,14.83810912,15.03314893,15.39894636,140.6392333,140.6392333,11.77672572,-0.001046099,-0.005965248,0.000565394,-0.20699319600000002,0.129812744,-0.014232152,0.022013202000000003,-0.13655456300000002,-1.784350866,-1.6098393569999998,9.098511364,241.95833430000005,43.23492565,-0.017146714,0.049071292,-0.04344596,0.0,-1.875230735,-0.105803058,-10.15489041,6.87e+18,955.085374,11.7778935,0.20689591300000001,0.08752967800000001,-0.364077786,-1.8826184240000001,-0.065480397,-9.63133339,77900180.84,0.242522535,0.100246979,-0.31633031,6.87e+18,88.70586921,90.26032531,-2.7802548739999997,-3.9311378230000003,15.36018321,16.10236203,-0.014843578999999999,0.43124268600000004,-0.1,62.66625845,54479334.27,490.77977819999995,11.8122265,95567.33902999999,1.135498009,0.07942693,-0.09686580300000001,-1.7701827319999999,0.633460365,-0.012330313999999998,-0.061325312,-0.7712373290000001,0.12924772699999998,0.14808770000000002,0.63685343,-0.6029610360000001,-0.000486816,0.009896455,-0.001979865,398713906.8,327408963.8,484905.5225,19.17346811,0.117601518,19.15520263,-4.780664015,1.5644641430000001,39.871413700000005,32.7364371,-2.423543506,407.9910442,-91.72380927,0.079979553,18.96224789,-4.738121663,-0.023655312,-0.19132534199999998,-0.023333603999999997,91.96510973,0.37258940799999996,0.204257878,0.05231536,0.0,0,0,1,0,0
1260,77668689,0.05367234,0.12094705,-0.096789175,0.0,0.0,1465.0,1500.0,1000.0,1471.0,1528.0,1577.0,15.36653579,15.27551741,15.64477787,14.50522276,14.85586137,15.10280199,15.4701633,140.6611623,140.6611623,11.77743423,-0.001045218,-0.005965335,0.000563416,-0.207058607,0.129825225,-0.014230735,0.034189661,-0.13552972300000002,-1.7819936680000001,-1.609552904,9.009364741,241.4503977,43.27793502,-0.017110948,0.049405802,-0.042964632,0.0,-1.8936534740000002,-0.181502781,-10.06520341,6.87e+18,955.1038792999999,11.778936199999999,0.208866332,0.095465353,-0.352392858,-1.770479867,-0.039613178,-9.632636117999999,77935767.95,0.245207932,0.078946805,-0.309246915,6.87e+18,88.59842535,90.12805885,-2.759583855,-3.920139728,15.36010985,16.10567252,-0.014911256000000001,0.42511552,-0.1,62.65746726,54521208.24,490.8697341,11.81092525,95566.30364,1.13548584,0.086611063,-0.08126357599999999,-1.7698395169999999,0.6335940170000001,-0.004008963,-0.059177363,-0.771386197,0.009978235,-0.117061247,0.44076811299999996,0.13848919699999998,0.004379499,0.007563961,2.8000000000000003e-05,398713907.2,327409060.8,485112.9844,19.16519466,0.111396276,19.14279194,-4.791006125,1.5647890290000002,39.871413700000005,32.7364371,-2.419304704,408.8178979,-91.93397379,0.07978145099999999,18.95606739,-4.741224615,-0.015892555,-0.183404276,-0.04551088599999999,92.17527592,0.37038694299999997,0.20037655399999998,0.04098684,0.0,0,0,1,0,0
1261,77704756,0.058326074000000006,0.136934461,-0.082236961,0.09272084,0.0,1464.0,1500.0,1000.0,1469.0,1530.0,1570.0,15.38385272,15.29296921,15.66254384,14.52265577,14.87361361,15.12237741,15.4900525,140.68309130000003,140.68309130000003,11.77814274,-0.0010443380000000001,-0.005965423,0.000561438,-0.20712401800000002,0.129837706,-0.014229318000000001,0.045253864000000005,-0.13570459,-1.778773947,-1.609099118,8.88258652,240.9270721,43.33333881,-0.017077209,0.049763667000000004,-0.042532897,0.0,-1.9120762130000002,-0.257202504,-9.975516396,6.87e+18,955.1223846,11.7799789,0.209257621,0.110306347,-0.350530002,-1.8438033569999999,-0.10820668900000001,-9.619901607000001,77971355.07,0.247893329,0.057646632,-0.30216352,6.87e+18,88.49098148,89.99579240000001,-2.7389128360000004,-3.909141633,15.3600365,16.10898301,-0.014978933,0.418988353,-0.1,62.64867606,54563082.22,491.1736148,11.80959799,95562.82161,1.135444416,0.105328906,-0.076116751,-1.759606015,0.637501682,0.004242973,-0.064750688,-0.767706786,0.0,-0.26365789,0.056770888,-0.423973056,-0.0028373020000000003,0.013398183999999999,-0.002184592,398713907.7,327409157.8,485320.4463,19.15692121,0.105191033,19.13038125,-4.801348235,1.565113915,39.871413700000005,32.7364371,-2.415065902,409.6447516,-92.1441383,0.079583349,18.9498869,-4.744327568,-0.008129798,-0.17548320899999997,-0.06768816799999999,92.38544211,0.377970039,0.21184709300000001,0.030294049,0.0,0,0,1,0,0
1262,77736823,0.057508944000000006,0.145821241,-0.075735377,0.036155417999999995,0.0,1463.0,1500.0,1000.0,1469.873975,1529.126025,1566.0,15.40116965,15.31042101,15.6803098,14.54008878,14.89136585,15.08356006,15.45027369,140.70502030000003,140.70502030000003,11.77885125,-0.001043457,-0.005965511,0.00055946,-0.207189428,0.129850187,-0.0142279,0.055661735,-0.136587391,-1.77504526,-1.6085465909999999,8.733602267,240.39466569999996,43.39605644,-0.017040193999999998,0.050073207,-0.042186869,0.0,-1.917111141,-0.307888047,-9.874831831,6.87e+18,955.1377233,11.780968099999999,0.218669593,0.123579093,-0.337176663,-1.91416198,-0.08262478,-9.869094997000001,78006942.19,0.250382349,0.041778154,-0.29657596,6.87e+18,88.38353761,89.86352595,-2.718241817,-3.8981435380000002,15.35996314,16.1122935,-0.01504661,0.412861186,-0.1,62.63988487,54604956.19,491.48915589999996,11.80829377,95559.19055,1.1354013840000001,0.111788383,-0.091679599,-1.7593495959999998,0.637710115,0.000317683,-0.072162855,-0.7668854890000001,0.0,0.159376611,-0.314412425,0.642492862,0.003077528,0.007629809,0.002549753,398713908.1,327409254.2,485526.3193,19.14898576,0.10033806199999999,19.1203371,-4.808985787,1.5653562,39.871413700000005,32.7364371,-2.411216989,410.4158382,-92.33988237,0.080406838,18.94397066,-4.744896423,-0.00065734,-0.16182095900000001,-0.03523524,92.58118489,0.370865039,0.206032013,0.018588203,0.0,0,0,1,0,0
1263,77772891,0.061997368,0.15058518699999998,-0.069041281,0.0,0.0,1462.0,1500.0,1000.0,1468.292258,1530.707742,1556.0,15.41848658,15.3278728,15.69807576,14.5575218,14.909118099999999,15.13281531,15.50058275,140.7269493,140.7269493,11.77955976,-0.001042577,-0.005965598000000001,0.000557482,-0.207254839,0.12986266800000001,-0.014226483,0.066069606,-0.13747019300000002,-1.7713165730000002,-1.6079940640000001,8.584618013,239.86225919999998,43.45877407,-0.017007085,0.05029975,-0.041904084,0.0,-1.8919928990000001,-0.302234524,-9.749377634,6.87e+18,955.1459297,11.78183678,0.22546748,0.12365543400000001,-0.331007797,-1.850755369,-0.074115028,-10.07959724,78042529.31,0.252429075,0.038143405,-0.29435744399999997,6.87e+18,88.27609374,89.73125949,-2.697570798,-3.8871454439999997,15.35988979,16.11560399,-0.015114286999999999,0.406734019,-0.1,62.63109368,54646830.17,491.5357039,11.80699352,95558.65014,1.135394822,0.121490636,-0.107225432,-1.7562649890000002,0.6389970660000001,-0.0024401170000000003,-0.080804755,-0.764932429,0.0,0.614271954,0.210812353,0.528542618,0.002782168,0.004095093,0.000383435,398713908.5,327409347.3,485724.0596,19.14278032,0.102406477,19.12240572,-4.8027804839999995,1.56517571,39.871413700000005,32.7364371,-2.407419639,411.1795497,-92.53371933,0.081365431,18.93808936,-4.745130145,0.006776725999999999,-0.147399442,0.004442495,92.77502019,0.362386766,0.20044720600000002,0.011654071,0.0,0,0,1,0,0
1264,77808958,0.059783740999999994,0.141624414,-0.070622735,0.0,0.0,1461.0,1500.0,1000.0,1469.0,1530.0,1553.0,15.43580351,15.345324599999998,15.71584173,14.57495481,14.92687034,15.11892306,15.48614615,140.7927884,140.7927884,11.78031886,-0.0010416960000000002,-0.0059656859999999996,0.0005555040000000001,-0.20732025,0.129875149,-0.014225066000000001,0.076477477,-0.138352994,-1.7675878859999998,-1.6074415359999998,8.435633759,239.32985269999998,43.5214917,-0.016971266000000002,0.050458532,-0.041689041,0.0,-1.8668746580000002,-0.296581002,-9.623923436,6.87e+18,955.154136,11.78270546,0.225958981,0.107867451,-0.32272033699999997,-1.84424732,-0.146505494,-10.21181925,78078116.42,0.2544758,0.034508656,-0.292138929,6.87e+18,88.16864987,89.59899304,-2.676899779,-3.8761473489999996,15.35981643,16.11891448,-0.015181964,0.400606852,-0.1,62.62230248,54688704.14,491.75028610000004,11.80567316,95556.20883999999,1.1353659,0.13601043300000001,-0.12275117699999999,-1.748997119,0.641891683,-0.00344863,-0.091285878,-0.7613306009999999,0.0,-0.277419346,0.166250271,-0.49059069299999997,-0.002635563,0.0033600979999999997,0.000645459,398713908.9,327409440.4,485921.8,19.13657487,0.10447489199999999,19.12447434,-4.796575181000001,1.564995221,39.871413700000005,32.7364371,-2.4035299880000003,411.97362069999997,-92.7353927,0.082161847,18.93197906,-4.745137641,0.011266258999999999,-0.159154125,0.019502692,92.9766927,0.37207858200000005,0.243180334,0.003602326,0.027775377,0,0,1,0,0
1265,77845025,0.063264684,0.12278108,-0.07409993299999999,0.0,0.0,1462.0,1500.0,1000.0,1467.0,1532.0,1551.0,15.45312044,15.36277639,15.73360769,14.59238782,14.94462258,15.13524593,15.50291566,141.0259605,141.0259605,11.78127075,-0.001040816,-0.005965774,0.0005535259999999999,-0.20738566,0.12988763,-0.014223649,0.086885348,-0.139235796,-1.763859199,-1.606889009,8.286649505,238.7974462,43.58420933,-0.016934533,0.050585882,-0.041530437,0.0,-1.8558639430000001,-0.289081328,-9.566718336000001,6.87e+18,955.1638437,11.78357963,0.229459485,0.08645253,-0.317096482,-1.8120582230000002,-0.165557917,-10.14708158,78112995.4,0.259171565,0.036129703,-0.287398125,6.87e+18,88.08692915,89.45433789,-2.597406228,-3.862123365,15.35973745,16.12746248,-0.015354501000000001,0.39534264,-0.1,62.62295723,54734148.43,492.01848269999994,11.80436104,95553.13887000001,1.1353293770000001,0.141783278,-0.13746978199999998,-1.748749589,0.642086406,-0.0072255819999999995,-0.09815635800000001,-0.7602862859999999,0.0,0.602685039,0.08588338699999999,-0.13874435,-0.00042706900000000003,0.00981028,-0.001441569,398713909.3,327409533.4,486119.5403,19.13036942,0.10654330699999999,19.12654296,-4.790369878,1.564814731,39.871413700000005,32.7364371,-2.39954434,412.7992667,-92.94521622,0.082789592,18.92563057,-4.744909853,0.012693362,-0.19813308100000002,0.008959688,93.18651622,0.363123714,0.26276161800000003,0.001570988,0.1649813,0,0,1,0,0
1266,77877092,0.060903645,0.113792559,-0.075639012,0.0,0.0,1465.0,1500.0,1000.0,1468.547109,1530.452891,1555.0,15.47043738,15.38022819,15.75137366,14.60982083,14.96237483,15.13664827,15.50424553,141.25913269999998,141.25913269999998,11.78222263,-0.001039935,-0.005965860999999999,0.000551548,-0.20745107100000001,0.12990011099999998,-0.014222232,0.097293219,-0.14011859699999998,-1.760130512,-1.606336482,8.137665252,238.2650397,43.64692695,-0.01689934,0.050708267,-0.04137336,0.0,-1.859104221,-0.279716727,-9.578456391,6.87e+18,955.1750678999999,11.78445935,0.242565385,0.058937694000000006,-0.314250759,-1.876590072,-0.18179096399999997,-10.12421444,78147159.03,0.26654330800000003,0.043059997,-0.280109382,6.87e+18,88.00854909,89.30807382,-2.5102733880000003,-3.8477064089999997,15.35965775,16.13669068,-0.015540655,0.39019049899999997,-0.1,62.62483872,54772452.09,492.2798553,11.80303022,95550.14679,1.1352938,0.155397455,-0.147565995,-1.74156483,0.644910019,-0.006332946,-0.106547953,-0.75675429,0.0,-0.10134935,-0.516289321,-0.148865979,-0.006374476,0.007788687,-0.006339115,398713909.7,327409626.5,486317.2807,19.12416397,0.108611722,19.12861158,-4.784164575,1.564634241,39.871413700000005,32.7364371,-2.395588466,413.61864039999995,-93.15352425,0.08342395799999999,18.91936037,-4.7448833960000005,0.016009911,-0.22998540399999998,-0.000797925,93.39482441,0.358793077,0.30236516399999996,-0.000682514,0.0,0,0,1,0,0
1267,77917159,0.06498039900000001,0.106608434,-0.074959147,0.0,0.0,1468.0,1500.0,1000.0,1467.0,1532.0,1558.0,15.48775431,15.39767999,15.76913962,14.62725385,14.98012707,15.16847013,15.53663405,141.49230490000002,141.49230490000002,11.78317452,-0.001039054,-0.005965949,0.00054957,-0.207516482,0.129912592,-0.014220815,0.10770109,-0.141001399,-1.756401825,-1.605783955,7.9886809979999995,237.7326333,43.70964458,-0.016861584,0.050834814000000006,-0.041225872999999996,0.0,-1.862344499,-0.270352127,-9.590194445,6.87e+18,955.1862921000001,11.78533906,0.24414948600000003,0.048607178,-0.302346558,-1.7870415519999998,-0.21518607,-9.943326602,78181322.66,0.273915051,0.04999029,-0.272820638,6.87e+18,87.93016903,89.16180974,-2.423140547,-3.833289452,15.35957804,16.14591887,-0.01572681,0.385038359,-0.1,62.62672021,54814326.07,492.5243197,11.80172955,95547.35412999999,1.135260677,0.163752667,-0.151219877,-1.7385055090000001,0.646114719,-0.004873184,-0.110881196,-0.755125205,0.0,0.679988838,-0.321343642,-0.351055503,-0.001318699,0.009970251999999999,0.00039923199999999996,398713910.1,327409720.2,486516.1772,19.1186388,0.107959592,19.12727946,-4.782040128,1.564643679,39.871413700000005,32.7364371,-2.39190921,414.3797401,-93.34775236,0.084119827,18.91381757,-4.746727432,0.036880631000000004,-0.195626749,-0.0032587370000000003,93.58905419,0.36152332200000004,0.312423915,-0.01329276,0.0,0,0,1,0,0
1268,77949227,0.064086098,0.10272617199999999,-0.074636488,0.0,0.0,1470.0,1500.0,1000.0,1467.232647,1531.767353,1560.84897,15.50507124,15.41513178,15.78690558,14.64468686,14.99787931,15.27682898,15.64755095,141.725477,141.725477,11.784126400000002,-0.001038174,-0.0059660369999999996,0.000547592,-0.20758189300000002,0.129925073,-0.014219398000000001,0.118108961,-0.14188420000000002,-1.752673138,-1.6052314269999999,7.839696743999999,237.20022680000002,43.77236221,-0.016823924,0.051018508,-0.041072772,0.0,-1.882819658,-0.292273033,-9.655428414,5.19e+18,955.2014942,11.7862337,0.243418823,0.041783253,-0.299954954,-1.868544328,-0.196227995,-9.768106342000001,78217443.49,0.278100355,0.054961055999999994,-0.265065352,5.19e+18,87.85178898,89.01554567,-2.3360077059999997,-3.8188724960000004,15.35949833,16.15514707,-0.015912963999999998,0.37988621899999997,-0.1,62.6286017,54856200.04,492.6036069,11.8004089,95546.45529,1.135249957,0.168291193,-0.147474267,-1.7383051719999998,0.6461716160000001,-0.001966639,-0.11140251400000001,-0.7550138759999999,0.0,-0.135654891,0.284187846,-0.262031655,-0.003154152,0.011738088999999998,0.000898591,398713910.5,327409814.9,486717.4339,19.11450218,0.10175435099999999,19.119005800000004,-4.788245432,1.565040794,39.871413700000005,32.7364371,-2.3882299540000003,415.1408398,-93.54198046,0.084815697,18.90827476,-4.748571469,0.05775135,-0.161268094,-0.00571955,93.78328397,0.356339206,0.264445836,-0.029555489,0.0,0,0,1,0,0
1269,77985294,0.06252263200000001,0.11280262199999999,-0.067753512,0.0,0.0,1472.0,1500.0,1000.0,1467.0,1532.0,1561.0,15.52238817,15.43258358,15.80467155,14.66211987,15.01563156,15.22442547,15.59390877,141.9586492,141.9586492,11.78507829,-0.0010372930000000001,-0.005966124000000001,0.000545614,-0.207647303,0.129937554,-0.014217981000000001,0.128516833,-0.142767002,-1.7489444509999998,-1.6046789,7.69071249,236.66782030000002,43.83507984,-0.016792319,0.051248735,-0.040914537,0.0,-1.911130136,-0.32841695,-9.744982683,2.74e+18,955.2185049000001,11.78713512,0.25751768,0.032815814,-0.288639942,-1.915354033,-0.20510688800000001,-9.666496095,78254454.09,0.28083704,0.059040982,-0.257097966,2.74e+18,87.77340892,88.8692816,-2.248874865,-3.8044555389999997,15.35941862,16.16437527,-0.016099119,0.37473407799999997,-0.1,62.63048319,54898074.01,492.6915739,11.79909806,95545.44852,1.13523804,0.183897029,-0.142725359,-1.7284067330000001,0.64983747,0.005459679,-0.11575477699999999,-0.751186447,0.0,0.009167191,0.38582058,-0.293743687,-1.35e-06,0.014660783,0.004869431,398713911.0,327409909.6,486918.6905,19.11036555,0.09554911,19.11073215,-4.794450735,1.5654379090000001,39.871413700000005,32.7364371,-2.3843061690000003,415.9459665,-93.74786299,0.08542588599999999,18.90249036,-4.750305806,0.054028337999999995,-0.157567536,-0.013148888000000001,93.98916699,0.345781291,0.23596530899999998,-0.038836478,0.0,0,0,1,0,0
1270,78021361,0.06470545700000001,0.11709094099999999,-0.06263611599999999,0.0,0.0,1472.660732,1500.0,1000.0,1467.678536,1531.321464,1559.2202439999999,15.5397051,15.45003538,15.82243751,14.67955289,15.033383800000001,15.20396375,15.57279692,142.1918214,142.1918214,11.78603017,-0.0010364130000000001,-0.005966211999999999,0.000543636,-0.207712714,0.129950035,-0.014216564,0.138924704,-0.14364980300000002,-1.7452157640000001,-1.6041263730000002,7.541728237,236.13541380000004,43.89779747,-0.016757163999999998,0.051519506,-0.040741096,0.0,-1.9394406130000001,-0.364560867,-9.834536952,3e+17,955.2355154999999,11.78803654,0.256289875,0.035118797,-0.284584585,-1.876631322,-0.19979567,-9.582633375,78291464.69,0.283573725,0.063120908,-0.24913058,3e+17,87.68974616,88.72601215,-2.197599887,-3.787151422,15.35933342,16.17361593,-0.016285634,0.36814137,-0.1,62.63390377,54939947.99,493.0929995,11.79779176,95540.87027,1.135183533,0.187543535,-0.14343204,-1.728263597,0.649887235,0.006384396999999999,-0.117349735,-0.750887247,0.0,-0.061153176,0.041471786000000004,0.19201980800000001,-0.004697855999999999,0.013541447,0.001327681,398713911.4,327410004.4,487119.9472,19.10622893,0.089343869,19.10245849,-4.8006560380000005,1.565835024,39.871413700000005,32.7364371,-2.380279652,416.76959,-93.95864179,0.08600007900000001,18.89660447,-4.751994055,0.039972948,-0.16674713,-0.022665612999999998,94.19994579,0.354402868,0.205080072,-0.050808697,0.0,0,0,1,0,0
1271,78061428,0.066343896,0.118234196,-0.05877777,0.0,0.0,1478.0,1500.0,1000.0,1463.0,1536.0,1565.638528,15.55646257,15.46693748,15.83964071,14.69672547,15.05086943,15.30955835,15.6807146,142.4249935,142.4249935,11.78698206,-0.001035556,-0.005966325,0.000541697,-0.207780828,0.129963952,-0.014213284,0.149332575,-0.144532605,-1.741487077,-1.603573846,7.392743983,235.6030074,43.96051509,-0.016727771000000002,0.051816989,-0.040551659,0.0,-1.90829457,-0.337611153,-9.882920354,2.14e+18,955.25489,11.78894733,0.263865118,0.041527394,-0.282908485,-1.896504679,-0.23001496600000002,-9.552578409,78327226.25,0.285708165,0.064371695,-0.243714965,2.14e+18,87.57338301,88.60127966,-2.368288039,-3.751975542,15.35921421,16.18293375,-0.016474378,0.35263143,-0.1,62.64685144,54981821.96,493.22551519999996,11.79646636,95539.33089,1.135165328,0.191746967,-0.13041244,-1.7273392230000002,0.65003472,0.012749755,-0.114755015,-0.751077665,0.0,0.469649039,-0.128506848,0.398298961,0.000897667,0.007281483,-0.002148276,398713911.8,327410099.1,487321.2038,19.10209231,0.08313862799999999,19.09418484,-4.806861341,1.5662321380000002,39.871413700000005,32.7364371,-2.376337521,417.5736042,-94.16438833,0.086561339,18.89122438,-4.753591547,0.026041367000000003,-0.176081455,-0.024465245,94.40569181,0.35202716799999995,0.16069814300000002,-0.051940192999999996,0.0,0,0,1,0,0
1272,78101495,0.063196755,0.124882991,-0.054207491,0.0,0.0,1479.056811,1500.0,1000.0,1465.886377,1533.113623,1563.170434,15.56552742,15.47628126,15.84910594,14.71031711,15.06468919,15.23872645,15.60821891,142.65816569999998,142.65816569999998,11.78793395,-0.001035023,-0.005966789,0.000540294,-0.20788611199999998,0.129997614,-0.014184381000000001,0.159740446,-0.145415406,-1.73775839,-1.6030213180000001,7.243759729,235.07060090000002,44.02323272,-0.016696561000000002,0.05214483,-0.040362791,0.0,-1.8688451830000001,-0.301850157,-9.925554077000001,4.59e+18,955.2745946,11.78985943,0.264050524,0.042863309,-0.273170735,-1.959756799,-0.249744882,-9.551058441,78362813.36,0.28775849800000003,0.065227382,-0.238655715,4.59e+18,87.45701985,88.47654718,-2.538976192,-3.7167996619999997,15.35909499,16.19225157,-0.016663122,0.33712149,-0.1,62.6597991,55026413.28,493.4127609,11.79516533,95537.1958,1.13513996,0.20516478300000002,-0.1282959,-1.718327164,0.653271218,0.018448025,-0.119033847,-0.7474783770000001,0.0,-0.32273962,-0.029811094,0.001143344,-0.005647953000000001,0.008532827,-0.0017507129999999999,398713912.2,327410194.7,487525.2204,19.09693339,0.08,19.08591118,-4.808977765,1.5664151519999998,39.871413700000005,32.7364371,-2.372582211,418.3342067,-94.3589942,0.087093965,18.88696406,-4.754988114,0.012383877,-0.18575833100000003,-0.009180418000000001,94.60029601,0.341345241,0.140538251,-0.048480645,0.0,0,0,1,0,0
1273,78133563,0.07319139599999999,0.12200487199999999,-0.048749799,0.0,0.0,1480.0,1500.0,1000.0,1465.0,1534.0,1563.0,15.57459227,15.48562505,15.85857118,14.72390876,15.07850894,15.36725051,15.73970684,142.8913379,142.8913379,11.78888583,-0.001034491,-0.005967254,0.000538891,-0.207991397,0.130031276,-0.014155478999999999,0.170148317,-0.146298208,-1.734029703,-1.602468791,7.094775475,234.5381944,44.08595035,-0.016665045,0.052475225,-0.040175777999999995,0.0,-1.83275292,-0.271484516,-9.965845003,6.87e+18,955.2943893999999,11.79077227,0.275968275,0.044477072,-0.266860567,-1.8896509819999998,-0.24723867100000002,-9.605009572,78398400.48,0.290015411,0.066015328,-0.233372835,6.87e+18,87.34065670000001,88.35181469,-2.7096643439999997,-3.6816237810000003,15.35897578,16.2015694,-0.016851866,0.32161155,-0.1,62.67274677,55069308.26,493.6013221,11.79383612,95534.99955,1.135113751,0.208136945,-0.131618786,-1.71791339,0.653458465,0.018188297,-0.121208275,-0.7469720190000001,0.0,0.47400147600000003,-0.041749295,0.39973697399999997,0.000234795,0.003709666,-0.00143059,398713912.6,327410291.3,487732.0618,19.09072815,0.08,19.07763753,-4.806909289,1.5663790380000002,39.871413700000005,32.7364371,-2.3688269,419.0948091,-94.55360008,0.08762659099999999,18.88270374,-4.756384681,-0.001273612,-0.195435207,0.00610441,94.79490022,0.35526067200000006,0.11823748199999999,-0.045957762,0.0,0,0,1,0,0
1274,78173630,0.06997608400000001,0.132516764,-0.043923073,0.0,0.0,1481.0,1500.0,1000.0,1465.213243,1533.786757,1562.319864,15.58365712,15.49496884,15.86803641,14.737500400000002,15.092328699999998,15.21910946,15.58791362,143.12451000000001,143.12451000000001,11.78983772,-0.001033958,-0.005967718,0.000537488,-0.208096681,0.13006493800000002,-0.014126577,0.180556188,-0.147181009,-1.7303010159999999,-1.601916264,6.945791222,234.00578790000003,44.14866798,-0.016634288,0.052777359,-0.039998802,0.0,-1.843072899,-0.31570965100000004,-9.973746766,6.87e+18,955.3154321000001,11.7916954,0.276009799,0.05384754,-0.259819387,-1.8262101069999999,-0.287005903,-9.588268219,78433987.6,0.295128273,0.06586675,-0.224998272,6.87e+18,87.22429355,88.2270822,-2.8803524960000004,-3.646447901,15.35885656,16.21088722,-0.017040611,0.306101609,-0.1,62.68569444,55107443.89,493.8157578,11.79253385,95532.59815,1.135085252,0.22147764600000003,-0.129481596,-1.708449418,0.656803399,0.023947358,-0.125390511,-0.743175487,0.0,0.29261353,-0.481293335,-0.112347885,-0.004525808,0.002505965,0.0016704329999999998,398713913.0,327410387.9,487938.9032,19.0845229,0.08,19.06936387,-4.804840813,1.566342923,39.871413700000005,32.7364371,-2.364762806,419.9122341,-94.76314863,0.08793099,18.87663591,-4.757406549,-0.002079213,-0.176946243,-0.0063196680000000005,95.00445055,0.347242302,0.134843939,-0.03976102,0.0,0,0,1,0,0
1275,78205697,0.069803987,0.132464852,-0.038948083,0.0,0.0,1483.0,1500.0,1000.0,1466.3116619999998,1532.6883380000002,1564.0,15.59272197,15.50431263,15.87750164,14.75109205,15.10614846,15.23954537,15.60862222,143.3576822,143.3576822,11.7907896,-0.001033426,-0.005968183,0.000536085,-0.208201965,0.1300986,-0.014097675,0.189082095,-0.146771969,-1.7263617869999999,-1.601284656,6.782806383,233.4729728,44.20239032,-0.016602282,0.053057863,-0.03982327,0.0,-1.853392879,-0.35993478700000003,-9.98164853,6.87e+18,955.3364747000002,11.79261853,0.27919522399999996,0.06409208599999999,-0.246859112,-1.779468981,-0.30819468899999997,-9.705850399,78469574.71,0.30024113399999997,0.065718173,-0.216623709,6.87e+18,87.1079304,88.10234972,-3.051040649,-3.6112720210000004,15.35873735,16.22020505,-0.017229355,0.290591669,-0.1,62.69864211,55149317.86,493.9934842,11.7912026,95530.54676,1.135060957,0.223707215,-0.127213317,-1.7083522469999999,0.65676512,0.025539065,-0.125485342,-0.743142434,0.0,-0.19893074300000002,0.21710679100000002,0.061992885,0.00269941,0.007063761,-0.0032392659999999998,398713913.4,327410484.5,488145.7445,19.07831766,0.08,19.06109022,-4.8027723380000005,1.566306809,39.871413700000005,32.7364371,-2.360671183,420.7347251,-94.9740294,0.088215043,18.87040694,-4.758395011,-0.001738999,-0.155946143,-0.021214144,95.2153334,0.355961859,0.139733629,-0.033460508,0.0,0,0,1,0,0
1276,78239529,0.067256967,0.126610532,-0.039235365,0.0,0.0,1486.0,1500.0,1000.0,1462.540108,1536.459892,1566.540108,15.60178682,15.51365641,15.88696688,14.764683699999999,15.11996821,15.243774499999999,15.61287895,143.5908544,143.5908544,11.79174149,-0.001032893,-0.005968647,0.000534682,-0.20830725,0.130132261,-0.014068773,0.195463705,-0.14489101199999999,-1.722182666,-1.600562944,6.603869362,232.9396921,44.24586348,-0.016575027,0.053333578,-0.039666448,0.0,-1.851697802,-0.391017565,-9.988502821,6.87e+18,955.3555907,11.79360323,0.282708972,0.06408358900000001,-0.251227439,-1.890216051,-0.294249088,-9.761009168,78505161.83,0.30457921,0.064420212,-0.20845721399999997,6.87e+18,86.98848521,87.97928994,-3.13935846,-3.5896806139999997,15.35862662,16.22664375,-0.017360346000000002,0.277122582,-0.1,62.71155262,55191191.84,494.0978513,11.78990236,95529.34543,1.135046635,0.23064642600000002,-0.118531958,-1.7038555309999999,0.6581357320000001,0.031371448999999996,-0.125184614,-0.741743832,0.0,0.105884575,-0.370778414,0.04077665,-0.0015781389999999999,0.008341507,2.9299999999999997e-05,398713913.9,327410581.1,488352.5859,19.07211242,0.08,19.05281656,-4.800703862,1.566270694,39.871413700000005,32.7364371,-2.356635759,421.52355989999995,-95.17641549,0.088634243,18.863833,-4.7595142169999995,-0.0016220429999999999,-0.14556628900000002,-0.026710934,95.41771939,0.34370384,0.13056910900000002,-0.028283983999999998,0.0,0,0,1,0,0
1277,78277832,0.06763188,0.124145235,-0.03674298,0.0,0.0,1487.0,1500.0,1000.0,1464.14823,1534.85177,1568.0,15.61085167,15.523000199999998,15.89643211,14.77827534,15.13378797,15.40702885,15.77994481,143.8240265,143.8240265,11.79269337,-0.00103236,-0.005969111,0.000533279,-0.20841253399999998,0.13016592300000002,-0.014039871,0.201845314,-0.143010055,-1.718003546,-1.599841233,6.424932342000001,232.40641150000002,44.28933664,-0.016547575,0.053598942000000004,-0.03953657,0.0,-1.815347946,-0.384194109,-9.992335909,6.87e+18,955.3691492999999,11.7947655,0.28304390100000004,0.06319942099999999,-0.24479537899999998,-1.862333979,-0.338596922,-9.71517938,78540748.95,0.306682587,0.059807108,-0.20089084899999998,6.87e+18,86.86428179,87.85881261,-3.100508027,-3.589061729,15.35852899,16.22863749,-0.017402174,0.266804287,-0.1,62.72440579,55236888.18,494.3230574,11.78857245,95526.77352999999,1.135016097,0.23851383,-0.115039755,-1.698501766,0.659904304,0.035603325,-0.126880413,-0.739702359,0.0,0.028876667,-0.075127337,-0.161522961,0.000730229,0.004826205,-0.000935692,398713914.3,327410675.1,488552.7423,19.06590705,0.081364272,19.05,-4.7999997,1.5661631459999998,39.871413700000005,32.7364371,-2.352651155,422.2819601,-95.37111999,0.089175655,18.85694712,-4.760751654,-0.0017069770000000001,-0.144790158,-0.023709544,95.61242179999999,0.33614101,0.157487081,-0.022340554,0.0,0,0,1,0,0
1278,78309899,0.066124953,0.128821811,-0.033852496,0.0,0.0,1487.1330269999999,1500.0,1000.0,1464.433487,1534.566513,1565.566513,15.61991652,15.53234399,15.90589734,14.79186699,15.14760772,15.30335086,15.67360741,144.0571987,144.0571987,11.79364526,-0.001031828,-0.005969576,0.000531876,-0.208517819,0.130199585,-0.014010968,0.208226923,-0.141129099,-1.713824426,-1.599119521,6.2459953210000005,231.8731308,44.3328098,-0.016515943999999998,0.05385049099999999,-0.039407185,0.0,-1.77899809,-0.37737065299999994,-9.996168998,6.87e+18,955.382708,11.79592778,0.284622357,0.07262714599999999,-0.23455048,-1.914391545,-0.280845131,-9.818980952999999,78576336.07,0.308785963,0.055194004000000005,-0.19332448300000002,6.87e+18,86.74007837,87.73833527,-3.061657593,-3.588442844,15.35843135,16.23063123,-0.017444003,0.256485991,-0.1,62.73725896,55274939.79,494.6597038,11.78726987,95522.90909,1.134970155,0.240041922,-0.12030707199999999,-1.6983999159999998,0.6600488720000001,0.034142121,-0.129153968,-0.7392480109999999,0.0,0.167835386,0.063116027,-0.084593671,-0.00739842,0.013732527,-0.001375196,398713914.7,327410767.8,488749.4485,19.0597016,0.083432685,19.05,-4.7999997,1.56601873,39.871413700000005,32.7364371,-2.348621621,423.0485652,-95.56789269,0.089681904,18.84988163,-4.762026866,-0.005081421,-0.145968448,-0.023012355,95.80919269,0.34299543299999996,0.165624576,-0.017132073,0.0,0,0,1,0,0
1279,78345966,0.073226079,0.134418028,-0.027761248,0.0,0.0,1487.0,1500.0,1000.0,1465.0,1534.0,1563.0,15.62898137,15.54168777,15.91536258,14.80545863,15.16142748,15.39468024,15.76708677,144.2903709,144.2903709,11.79459714,-0.001031295,-0.00597004,0.0005304730000000001,-0.208623103,0.130233247,-0.013982066000000001,0.21460853300000002,-0.139248142,-1.7096453059999999,-1.5983978090000002,6.067058301,231.3398501,44.37628296,-0.016493548,0.054072922,-0.039292537999999995,0.0,-1.76586938,-0.374515421,-10.01520379,6.87e+18,955.4008127999998,11.79698305,0.292797512,0.068462174,-0.22698062,-1.8009068769999999,-0.333274434,-9.889149709,78611923.18,0.30931773100000004,0.052272757999999996,-0.183999405,6.87e+18,86.61587494,87.61785794,-3.0228071589999996,-3.5878239589999996,15.35833372,16.23262498,-0.017485831,0.246167695,-0.1,62.75011212,55318949.39,494.80769419999996,11.785938900000001,95521.17901,1.134949555,0.250998882,-0.124381311,-1.689859539,0.663107153,0.036810565,-0.13436568699999998,-0.735439379,0.0,0.03117707,0.502742195,-0.299134096,-0.000310858,0.010182909,-0.003113588,398713915.1,327410860.4,488946.1546,19.05349615,0.08550109800000001,19.05,-4.7999997,1.5658743130000001,39.871413700000005,32.7364371,-2.344296944,423.8690671,-95.77825109999999,0.089957179,18.84163637,-4.763550219,-0.03006414,-0.15998502,-0.037451095,96.0195511,0.331347319,0.168233176,-0.011441244,0.0,0,0,1,0,0
1280,78386033,0.069880673,0.137034324,-0.025293258,0.0,0.0,1489.806161,1500.0,1000.0,1461.5969189999998,1537.4030810000002,1566.6123220000002,15.63804622,15.55103156,15.92482781,14.81905028,15.17524723,15.46559359,15.8395487,144.523543,144.523543,11.79554903,-0.001030763,-0.005970504000000001,0.00052907,-0.208728387,0.13026690900000001,-0.013953163999999999,0.220990142,-0.137367185,-1.705466185,-1.5976760980000002,5.88812128,230.8065694,44.41975612,-0.016467258999999998,0.05427794,-0.039194497,0.0,-1.781417036,-0.37656064899999997,-10.05301154,6.87e+18,955.4245315999999,11.79790618,0.29802849800000003,0.07201952,-0.22071863100000003,-1.9423857780000002,-0.369063253,-9.928566279,78647510.3,0.30790868,0.051440829,-0.17250244899999997,6.87e+18,86.49167152,87.4973806,-2.983956725,-3.5872050730000002,15.35823609,16.23461872,-0.017527658999999998,0.235849399,-0.1,62.76296529,55358687.74,494.9542881,11.78463839,95519.56408,1.134930396,0.253331157,-0.116750478,-1.688591908,0.663320679,0.04050913,-0.132712443,-0.735354252,0.0,-0.06944643,-0.316792223,0.20407070000000002,-0.00142233,0.01044622,-8.18e-05,398713915.5,327410953.1,489142.8608,19.0472907,0.087569511,19.05,-4.7999997,1.565729897,39.871413700000005,32.7364371,-2.339972267,424.68956900000006,-95.98860951,0.090232454,18.83339111,-4.7650735719999995,-0.055046859000000004,-0.174001591,-0.051889835999999995,96.22990951,0.336308683,0.180316685,-0.006758696999999999,0.0,0,0,1,0,0
1281,78418100,0.06998621099999999,0.13216012,-0.024930856,0.0,0.0,1490.0,1500.0,1000.0,1463.8213640000001,1535.1786359999999,1567.0,15.64711107,15.56037535,15.93429305,14.83264192,15.18906699,15.38261198,15.75451477,144.75671519999997,144.75671519999997,11.79650091,-0.00103023,-0.0059709690000000004,0.000527667,-0.208833672,0.130300571,-0.013924262,0.22737175199999998,-0.13548622800000001,-1.701287065,-1.596954386,5.70918426,230.27328870000002,44.46322928,-0.016443075,0.054533954,-0.039113651,0.0,-1.796964692,-0.378605876,-10.090819300000001,6.87e+18,955.4482504000001,11.79882931,0.29236145199999997,0.06682031,-0.21077752800000002,-1.8490793890000001,-0.351573639,-10.02466152,78683097.42,0.30649963,0.050608901,-0.161005493,6.87e+18,86.3674681,87.37690327,-2.945106291,-3.586586188,15.35813845,16.23661246,-0.017569488,0.22553110399999998,-0.1,62.77581846,55404468.09,495.0916622,11.78330787,95517.92715,1.134910917,0.26302105,-0.11414819699999999,-1.680574003,0.665979577,0.045238169,-0.135243601,-0.732205027,0.0,0.188877665,0.076098004,0.044124486,-0.000780057,0.009977653000000001,-0.0046455490000000006,398713915.9,327411045.8,489339.5669,19.04108525,0.08963792400000001,19.05,-4.7999997,1.56558548,39.871413700000005,32.7364371,-2.335799735,425.46374160000005,-96.18698409,0.090458497,18.82623428,-4.7671016360000005,-0.05850467,-0.17962130199999998,-0.042341738,96.42828409,0.327907253,0.172617783,-0.0030010040000000003,0.0,0,0,1,0,0
