,timestamp,control[0],control[1],control[2],control[3],control[4],output[2],output[3],output[4],output[5],output[6],output[7],indicated_airspeed_m_s,true_airspeed_m_s,indicated_airspeed_m_s.1,equivalent_airspeed_m_s,true_airspeed_m_s.1,equivalent_ground_minus_wind_m_s,true_ground_minus_wind_m_s,differential_pressure_raw_pa,differential_pressure_filtered_pa,temperature,gyro_bias[0],gyro_bias[1],gyro_bias[2],accel_bias[0],accel_bias[1],accel_bias[2],instance_count,seq_reached,seq_current,seq_total,item_changed_index,item_do_jump_remaining,valid,warning,finished,failure,stay_in_failsafe,flight_termination,item_do_jump_changed,execution_mode,nav_roll,nav_pitch,nav_bearing,target_bearing,xtrack_error,wp_dist,acceptance_radius,rollspeed_integ,pitchspeed_integ,yawspeed_integ,additional_integ1,x,y,z,temperature.1,pressure,temperature.2,gyro_rad[0],gyro_rad[1],gyro_rad[2],accelerometer_m_s2[0],accelerometer_m_s2[1],accelerometer_m_s2[2],x.1,y.1,z.1,temperature.3,altitude_sp,altitude_filtered,height_rate_setpoint,height_rate,airspeed_sp,airspeed_filtered,airspeed_derivative_sp,airspeed_derivative,throttle_integ,pitch_integ,baro_alt_meter,baro_temp_celcius,baro_pressure_pa,rho,xyz[0],xyz[1],xyz[2],xyz[0].1,xyz[1].1,xyz[2].1,roll_body,pitch_body,yaw_body,q_d[0],q_d[1],q_d[2],q_d[3],thrust_body[0],lat,lon,alt,vel_m_s,vel_n_m_s,vel_e_m_s,vel_d_m_s,cog_rad,ground_contact,maybe_landed,landed,ref_lat,ref_lon,x.2,y.2,z.2,vx,vy,vz,ax,ay,az,yaw,dist_bottom,roll,pitch,yaw.1,thrust_body[0].1,timestamp.1,isTakeoff,isClimbing,isDescending,isCruise,isLand
1277,58538061,-0.048535463,-0.050390922000000005,0.088812923,0.0,0.0,1540.0,1500.0,1000.0,1523.292859,1475.707141,1478.0,13.327434400000001,13.65679024,13.62479116,13.55058659,13.88524586,13.00452818,13.325692499999999,120.5439031,120.5439031,11.74354018,-0.001409914,-0.005747314,0.00019271700000000002,-0.182858613,0.174601465,-0.009705769,2.0,1.320864173,2.320864173,11,0,0,1,0,0.0,0,0,0,0,0,0.025611436,-0.34049901899999996,-0.610622346,-0.598096541,0.615864635,182.8927262,38.84859941,-0.02155907,0.045333350999999994,0.040075948,0.0,-1.568949538,1.42859045,-6.993337417,3344830000000000.0,954.1768243999999,11.72761714,-0.158627089,-0.274098173,0.312411098,-1.43217279,1.271616293,-5.133133635,-0.132836419,-0.11732191300000001,0.211053765,3344830000000000.0,94.01608266,104.12368199999999,-3.4773860389999998,-3.2112461110000003,15.37055328,13.42600436,0.038890972,-0.0117769,-0.1,71.97011417,503.92979119999995,11.72665604,95416.82132,1.133709664,0.262327998,0.51425624,-0.260478642,-0.128252946,-0.09051162300000001,0.19442167600000002,0.000572845,-0.34452248,-0.613669373,0.939196776,-0.051503858,-0.163487173,-0.29752549300000003,0.0,398679015.1,327338039.1,504818.6545,13.506489300000002,10.1473248,-8.878935119,2.375411015,5.564201209,0,0,0.0,39.8714138,32.7364372,-389.7332259,-225.47450840000002,-104.5764311,10.21047643,-8.7837102,2.7521903639999996,1.388560585,2.019853023,3.5194103219999997,-0.5997377770000001,104.7025626,-0.12771914,-0.093098452,0.03803143,0.0,58538061,0,0,1,0,0
1278,58572412,-0.044325128,-0.048856269,0.086708773,0.0,0.0,1536.285257,1500.0,1000.0,1523.0,1476.0,1493.714743,13.353423800000002,13.68341225,13.62420245,13.54896823,13.88352507,13.014762300000001,13.33611962,121.4362487,121.4362487,11.74467785,-0.001410413,-0.00574796,0.00019251,-0.182890782,0.17456922800000002,-0.00964986,2.0,1.323464693,2.323464693,11,0,0,1,0,0.0,0,0,0,0,0,0.019010182,-0.34119887200000004,-0.60979572,-0.597937633,0.5843315729999999,182.37779030000002,38.87382622,-0.02155373,0.045159182,0.039629974,0.0,-1.5610699540000001,1.3880817580000002,-7.126016405,3344830000000000.0,954.1912520999999,11.72838261,-0.15998515800000002,-0.25193223600000003,0.30794407,-1.4414641000000001,1.3410921999999998,-5.197956,-0.133087185,-0.105959905,0.19901467899999997,3344830000000000.0,93.91402491,104.0062718,-3.3539242789999997,-3.3091773310000003,15.370481,13.46503148,0.038108982,0.06239008099999999,-0.1,71.51219597,503.78089230000006,11.72741427,95418.54411,1.133730105,0.153292918,0.736193525,-0.173040201,-0.126041451,-0.067457607,0.182430996,0.000917375,-0.348390253,-0.607425117,0.93981488,-0.05140136,-0.165518532,-0.294463353,0.0,398679050.2,327337999.8,504719.5501,13.49342468,10.19585069,-8.800547348,2.528453586,5.570944043,0,0,0.0,39.8714138,32.7364372,-389.3600078,-225.7947161,-104.47837690000001,10.26150073,-8.707664115,2.883662558,1.4098312880000001,1.9857505130000002,3.258989788,-0.591497058,104.6045069,-0.131379915,-0.11608367300000001,0.034348469,0.0,58572412,0,0,1,0,0
1279,58606763,-0.044845395999999996,-0.04281315,0.08482382599999999,0.0,0.0,1534.0,1500.0,1000.0,1523.0,1476.0,1501.0,13.53238628,13.86665533,13.62361373,13.54734986,13.88180427,13.02499642,13.34654674,122.32859440000001,122.32859440000001,11.74581552,-0.001410913,-0.005748606999999999,0.00019230200000000002,-0.182922952,0.174536992,-0.009593951,2.0,1.326065213,2.326065213,11,0,0,1,0,0.0,0,0,0,0,0,0.012408928,-0.341898724,-0.608969094,-0.597778724,0.5527985120000001,181.8628545,38.89905304,-0.021540597999999998,0.045024092,0.039188815,0.0,-1.560261746,1.37224954,-7.291328817999999,3344830000000000.0,954.2046787,11.72916251,-0.155058719,-0.229057213,0.303827322,-1.462453309,1.4748846009999999,-5.416816932000001,-0.133774105,-0.08869274699999999,0.18742578199999999,3344830000000000.0,93.81196716,103.8888615,-3.2304625189999996,-3.40710855,15.37040871,13.5040586,0.037326992999999996,0.13655706199999998,-0.1,71.05427778,503.700594,11.728209199999998,95419.41553,1.133740499,0.302383059,0.669884907,-0.628753129,-0.134567677,-0.035557788,0.17701564,-0.00477748,-0.34585931700000005,-0.606922372,0.939948818,-0.053663982,-0.163503194,-0.294759375,0.0,398679085.3,327337960.4,504620.4457,13.48036007,10.24437658,-8.722159578,2.6814961569999998,5.5776868760000005,0,0,0.0,39.8714138,32.7364372,-388.9501351,-226.13305519999997,-104.3601748,10.32261017,-8.628582696,3.004014517,1.4816757619999998,1.961932327,3.107877878,-0.58360873,104.4863067,-0.117317016,-0.121431846,0.036103756,0.0,58606763,0,0,1,0,0
1280,58641114,-0.048732794,-0.043931054000000004,0.081996472,0.0,0.0,1531.0,1500.0,1000.0,1524.0,1475.0,1515.0,13.54134674,13.875795199999999,13.62302501,13.5457315,13.88008348,13.03523053,13.35697386,123.22093999999998,123.22093999999998,11.74695319,-0.0014114129999999998,-0.0057492540000000005,0.000192095,-0.18295512100000003,0.174504755,-0.009538042,2.0,1.328665733,2.3286657330000002,11,0,0,1,0,0.0,0,0,0,0,0,0.006127114,-0.340732155,-0.608697815,-0.597738786,0.543288057,181.3410601,38.95908224,-0.02153515,0.044919249,0.038710541,0.0,-1.575309829,1.41174989,-7.529815837,3344830000000000.0,954.2158606,11.72997473,-0.144680597,-0.20952087600000002,0.293397757,-1.458177342,1.3836686409999999,-5.634067846000001,-0.13543902,-0.058184345,0.176846355,3344830000000000.0,93.70990942,103.7714513,-3.107000759,-3.50503977,15.37033643,13.54308573,0.036545004,0.210724042,-0.1,70.59635958,503.60835819999994,11.72903139,95420.47352,1.1337530409999999,0.174128234,1.077486786,-0.356624035,-0.128839838,-0.0030802570000000003,0.159923225,-0.013800126999999999,-0.342980136,-0.609563816,0.939538718,-0.057690277000000005,-0.160737716,-0.29679245,0.0,398679120.4,327337921.0,504521.3413,13.46729546,10.29290248,-8.643771807,2.8345387289999997,5.584429709,0,0,0.0,39.8714138,32.7364372,-388.5395548,-226.4717442,-104.2415838,10.38391428,-8.549442685,3.124151823,1.554496459,1.9383126590000002,2.958875946,-0.575727205,104.36771759999999,-0.131502145,-0.133488195,0.026598961,0.0,58641114,0,0,1,0,0
1281,58675465,-0.046049278,-0.026702607000000003,0.077622501,0.0,0.0,1528.0,1500.0,1000.0,1523.262452,1475.737548,1522.0,13.53587796,13.87010961,13.62243629,13.54411314,13.87836268,13.04546465,13.36740098,124.1132856,124.1132856,11.74809085,-0.0014119129999999999,-0.005749901,0.000191888,-0.18298729100000002,0.174472519,-0.009482134,2.0,1.331266253,2.331266253,11,0,0,1,0,0.0,0,0,0,0,0,8.379999999999999e-05,-0.338172221,-0.608841129,-0.5977876639999999,0.550218442,180.8141455,39.04509295,-0.021525349,0.044864265,0.038215829,0.0,-1.590357913,1.45125024,-7.768302856,3344830000000000.0,954.2270424000001,11.73078695,-0.140443494,-0.191793755,0.278877741,-1.481917718,1.3923104419999999,-5.903203432000001,-0.137103936,-0.027675943999999997,0.16626692699999998,3344830000000000.0,93.58169148,103.64307009999999,-3.178652951,-3.57220106,15.37022164,13.58583099,0.035687804,0.271478816,-0.1,70.14754836,503.4841487,11.72985459,95421.87669,1.133769675,-0.24121984800000001,-0.148900005,0.063875077,-0.133609494,-0.004908633,0.157611674,-0.016070473000000002,-0.34084205799999995,-0.606181663,0.9401527740000001,-0.058175036,-0.159495855,-0.295437263,0.0,398679155.7,327337882.7,504413.17100000003,13.46164833,10.34966985,-8.569504984,2.9702738710000003,5.591373944,0,0,0.0,39.8714138,32.7364372,-388.1379463,-226.79888530000002,-104.12233540000001,10.44446474,-8.473861689,3.2366080910000004,1.603136759,1.911217533,2.802851302,-0.568295743,104.24847109999999,-0.128666383,-0.13228832699999998,0.022617037000000003,0.0,58675465,0,0,1,0,0
1282,58709816,-0.047444674000000006,0.002754103,0.068500639,0.0,0.0,1528.0,1500.0,1000.0,1524.0,1475.0,1511.0,13.46345462,13.795836900000001,13.62184757,13.54249477,13.87664189,13.05569877,13.377828099999999,125.0056313,125.0056313,11.74922852,-0.001412413,-0.005750548,0.00019168,-0.18301946100000002,0.174440282,-0.009426225,2.0,1.333866773,2.333866773,11,0,0,1,0,0.0,0,0,0,0,0,-0.0059595640000000005,-0.33561228600000004,-0.608984442,-0.597836542,0.557148828,180.28723080000003,39.13110366,-0.02152098,0.044850334000000006,0.03766874,0.0,-1.6122851,1.5103115219999999,-8.058090638,3344830000000000.0,954.2465476,11.73163805,-0.138626589,-0.17068834100000002,0.270785791,-1.4661817680000002,1.422787468,-6.140351225,-0.135444174,-0.022036402000000004,0.16055269,3344830000000000.0,93.44244833,103.51006509999999,-3.3325359480000003,-3.626394359,15.37008893,13.63014326,0.034798907000000004,0.32658101300000003,-0.1,69.70257526,503.38507000000004,11.73072025,95423.06,1.1337838,0.055232628,-0.736847817,-0.129113811,-0.12924441,-0.020474105,0.156086015,-0.026887782000000002,-0.34000898799999996,-0.610687485,0.9392255190000001,-0.063493207,-0.157363214,-0.29842993100000004,0.0,398679191.1,327337845.7,504293.5365,13.46538108,10.4168591,-8.500449359,3.084122678,5.598572862999999,0,0,0.0,39.8714138,32.7364372,-387.7528977,-227.10471090000001,-104.00187340000001,10.5036241,-8.404849951000001,3.334886635,1.607144678,1.877707379,2.6338640769999997,-0.561695014,104.128011,-0.139376865,-0.13240579800000002,0.013659109,0.0,58709816,0,0,1,0,0
1283,58744166,-0.040688458999999996,0.018281947,0.06681728299999999,0.0,0.0,1529.0,1500.0,1000.0,1520.247249,1478.752751,1507.0,13.53005218,13.86403228,13.62125885,13.54087641,13.87492109,13.06593288,13.38825522,125.8979769,125.8979769,11.75036619,-0.0014129129999999998,-0.005751195,0.000191473,-0.18305163,0.174408045,-0.009370316,2.0,1.336467293,2.336467293,11,0,0,1,0,0.0,0,0,0,0,0,-0.012002902,-0.333052352,-0.609127756,-0.59788542,0.564079213,179.76031619999998,39.21711437,-0.021509851,0.044864870999999994,0.037111055,0.0,-1.637488815,1.578689706,-8.372313049,3344830000000000.0,954.2700173000001,11.73250766,-0.126559849,-0.15427602,0.249976892,-1.5099680780000002,1.410727553,-6.39952612,-0.132200864,-0.028241936000000002,0.157155749,3344830000000000.0,93.30320518,103.3770602,-3.486418945,-3.680587657,15.36995622,13.67445553,0.033910009,0.38168320899999997,-0.1,69.25760217,503.19483310000004,11.73159163,95425.20482,1.1338093009999999,-0.575382061,-0.04840513900000001,-0.414457715,-0.138321574,-0.050867718,0.15061733800000002,-0.026981946,-0.33511383699999997,-0.605490066,0.9403914940000001,-0.062410401,-0.155205762,-0.296079018,0.0,398679226.6,327337808.8,504173.902,13.46911382,10.48404835,-8.431393735,3.197971485,5.605771782000001,0,0,0.0,39.8714138,32.7364372,-387.3678492,-227.41053650000003,-103.8814115,10.56278345,-8.335838212999999,3.4331651780000003,1.611152598,1.844197224,2.464876851,-0.555094285,104.007551,-0.12780434699999998,-0.128764701,0.012048208000000001,0.0,58744166,0,0,1,0,0
1284,58782517,-0.04935757,0.044232112999999997,0.058665007000000005,0.0,0.0,1527.0,1500.0,1000.0,1523.0,1476.0,1499.0,13.54426351,13.87840668,13.62067013,13.53925804,13.873200299999999,13.076167,13.39868234,126.79032250000002,126.79032250000002,11.75150386,-0.0014134129999999999,-0.005751841,0.000191266,-0.1830838,0.174375809,-0.009314407,2.0,1.339067814,2.339067814,11,0,0,1,0,0.0,0,0,0,0,0,-0.018046241,-0.330492417,-0.6092710689999999,-0.597934298,0.571009598,179.23340159999998,39.30312508,-0.021493917,0.04492159,0.036540575,0.0,-1.660724969,1.6380435869999999,-8.668283588,3344830000000000.0,954.293039,11.73338912,-0.138012524,-0.13974676800000002,0.243527895,-1.591063329,1.4628022040000002,-6.661685922999999,-0.129489493,-0.035498294,0.153984504,3344830000000000.0,93.16396202,103.2440552,-3.640301942,-3.7347809560000003,15.36982352,13.718767800000002,0.033021111,0.436785406,-0.1,68.81262908,503.0385633,11.73251122,95426.98166,1.13383034,-0.30212989,-0.79973594,-0.022921597999999998,-0.13455652199999998,-0.073392704,0.15267174,-0.036364996000000004,-0.324599591,-0.608868792,0.94044284,-0.065546223,-0.148753999,-0.298568016,0.0,398679262.0,327337771.8,504054.2675,13.47284657,10.55123761,-8.36233811,3.3118202930000002,5.612970701,0,0,0.0,39.8714138,32.7364372,-386.9544358,-227.7295442,-103.7464405,10.6299864,-8.265895798999999,3.515440779,1.707200667,1.798260439,2.173256484,-0.548497744,103.8725791,-0.12467019300000001,-0.111464063,0.013426053,0.0,58782517,0,0,1,0,0
1285,58816868,-0.047161905,0.035029189,0.057206743,0.0,0.0,1526.0,1500.0,1000.0,1524.0,1475.0,1494.0,13.51243997,13.84576545,13.62008141,13.53763968,13.87147951,13.08640112,13.40910946,127.68266820000001,127.68266820000001,11.75264152,-0.001413913,-0.005752488,0.000191058,-0.18311597,0.174343572,-0.009258498,2.0,1.341668334,2.341668334,11,0,0,1,0,0.0,0,0,0,0,0,-0.02408958,-0.32793248199999997,-0.609414382,-0.5979831760000001,0.577939984,178.706487,39.38913579,-0.021480055,0.045007067000000005,0.035930098,0.0,-1.643447245,1.51157888,-8.588431518,3344830000000000.0,954.3068357999999,11.73451453,-0.137342028,-0.128388527,0.23502216899999998,-1.5348361959999999,1.4615040259999998,-6.879647537,-0.13773124,-0.064392097,0.155460552,3344830000000000.0,93.02471887,103.1110503,-3.794184939,-3.788974255,15.36969081,13.76308008,0.032132214,0.49188760299999995,-0.1,68.36765599,502.8163182,11.73343017,95429.5195,1.133860609,-0.079837029,-0.8285968440000001,-0.048141455,-0.140583714,-0.10493307199999999,0.152070286,-0.041414559,-0.319239184,-0.608367573,0.940774916,-0.06709932,-0.14549061,-0.298783959,0.0,398679297.5,327337734.9,503934.6329,13.47657932,10.61842686,-8.293282485,3.4256691,5.62016962,0,0,0.0,39.8714138,32.7364372,-386.5300857,-228.0536344,-103.60587530000001,10.70029069,-8.195594545,3.591546148,1.838736519,1.747532336,1.8343526380000001,-0.541902818,103.732012,-0.128853673,-0.083419103,0.018015013,0.0,58816868,0,0,1,0,0
1286,58855219,-0.043763212,0.014370398999999999,0.059412362,0.0,0.0,1527.0,1500.0,1000.0,1520.0,1479.0,1493.0,13.71452624,14.05260932,13.6194927,13.53602132,13.86975871,13.09663523,13.41953658,128.5750138,128.5750138,11.75377919,-0.0014144129999999998,-0.005753135,0.000190851,-0.183148139,0.174311336,-0.009202589,2.0,1.344268854,2.344268854,11,0,0,1,0,0.0,0,0,0,0,0,-0.030132917999999998,-0.325372548,-0.609557696,-0.598032054,0.584870369,178.17957230000002,39.4751465,-0.021464005,0.045089335,0.035374955,0.0,-1.6261695219999999,1.385114173,-8.508579447,3344830000000000.0,954.3206324999999,11.73563993,-0.129183335,-0.12791983,0.218112647,-1.58951287,1.429204837,-6.983885588,-0.145972987,-0.093285899,0.1569366,3344830000000000.0,92.86914282,102.96610770000001,-3.902271068,-3.852346404,15.36958004,13.81078959,0.031175808,0.5471816860000001,-0.1,67.90507204,502.6130659,11.73435011,95431.88357,1.133888653,-0.39697441,-0.42509873600000003,0.40952597,-0.142867591,-0.123821235,0.16019501,-0.052682487,-0.32001184,-0.6135173620000001,0.9395458409999999,-0.072882009,-0.143981576,-0.30200968699999997,0.0,398679333.2,327337697.9,503813.0012,13.48156031,10.68592819,-8.223758752,3.5343688739999997,5.627393056,0,0,0.0,39.8714138,32.7364372,-386.10814589999995,-228.37485730000003,-103.4657515,10.77041698,-8.126158104,3.6651457589999996,1.954127324,1.6942041369999998,1.521230892,-0.535404008,103.5918866,-0.126211081,-0.071447799,0.020751568,0.0,58855219,0,0,1,0,0
1287,58901570,-0.048639947,-0.0013601239999999999,0.055957435,0.0,0.0,1524.0,1500.0,1000.0,1524.0,1475.0,1491.0,13.63777666,13.97384167,13.61890398,13.53440295,13.86803792,13.10686935,13.429963699999998,129.4673594,129.4673594,11.75491686,-0.0014149120000000002,-0.005753782,0.000190643,-0.18318030899999999,0.174279099,-0.00914668,2.0,1.346869374,2.346869374,11,0,0,1,0,0.0,0,0,0,0,0,-0.036176257,-0.322812613,-0.609701009,-0.598080932,0.591800755,177.6526577,39.56115721,-0.021449267999999997,0.045161377,0.034813502,0.0,-1.602338805,1.33101112,-8.367960898,3344830000000000.0,954.3359918,11.73668816,-0.132324785,-0.134170757,0.203072625,-1.545924499,1.436393375,-7.148426692,-0.148634291,-0.11609192,0.157300747,3344830000000000.0,92.68813538,102.8025773,-3.939048488,-3.9300106219999997,15.36950343,13.86378884,0.030114289,0.602774551,-0.1,67.41506686,502.62449979999997,11.73530006,95431.73152,1.133886865,0.361080488,-0.331819457,0.294611008,-0.138903818,-0.138171831,0.161762284,-0.055365328,-0.322456895,-0.610893027,0.9396427079999999,-0.074310443,-0.144822068,-0.300941538,0.0,398679371.1,327337661.2,503669.4771,13.50022404,10.75685037,-8.149103821,3.586627325,5.634885238,0,0,0.0,39.8714138,32.7364372,-385.70997789999996,-228.6677991,-103.32998149999999,10.83878757,-8.065251189,3.714031424,1.9102818369999999,1.615231562,1.462394315,-0.5298531710000001,103.4561186,-0.118609676,-0.066002327,0.021526546,0.0,58901570,0,0,1,0,0
1288,58943921,-0.04725864,-0.00583031,0.054453760999999996,0.0,0.0,1523.0,1500.0,1000.0,1522.209242,1476.790758,1492.0,13.73283633,14.07128855,13.61831526,13.53278459,13.86631712,13.11710347,13.44039082,130.35970509999999,130.35970509999999,11.75605453,-0.0014154120000000002,-0.005754429,0.000190436,-0.183212478,0.174246863,-0.009090771,2.0,1.349469894,2.3494698940000003,11,0,0,1,0,0.0,0,0,0,0,0,-0.042219596,-0.320252679,-0.609844323,-0.59812981,0.59873114,177.1257431,39.64716792,-0.021431521000000002,0.04521799,0.034267238,0.0,-1.5692807430000002,1.378801346,-8.141776369,3344830000000000.0,954.3535513,11.73762771,-0.133149008,-0.10073907,0.197664781,-1.5821882669999998,1.469139889,-7.219820101,-0.143437709,-0.130325664,0.15609921300000001,3344830000000000.0,92.50712794,102.63904699999999,-3.975825908,-4.00767484,15.36942681,13.9167881,0.02905277,0.658367415,-0.1,66.92506167,502.5323467,11.7362485,95432.79506,1.133899417,0.026359037999999998,0.44707106,-0.59499315,-0.14231747,-0.149112976,0.162266144,-0.062425365,-0.310621277,-0.612199239,0.940125422,-0.07598977400000001,-0.138133716,-0.302172483,0.0,398679408.9,327337624.4,503525.953,13.51888778,10.82777255,-8.07444889,3.638885777,5.642377421,0,0,0.0,39.8714138,32.7364372,-385.31180980000005,-228.960741,-103.1942115,10.90715816,-8.004344275,3.76291709,1.86643635,1.5362589869999999,1.4035577369999999,-0.524302335,103.3203505,-0.11740173300000001,-0.032855788999999996,0.023309657,0.0,58943921,0,0,1,0,0
1289,58978272,-0.042484544000000006,-0.013253747,0.054505403,0.0,0.0,1520.0,1500.0,1000.0,1526.0,1473.0,1493.0,13.70835459,14.04610976,13.61772654,13.53116623,13.86459633,13.12733759,13.45081794,131.2520507,131.2520507,11.75719219,-0.001415912,-0.005755075,0.000190229,-0.183244648,0.174214626,-0.009034862,2.0,1.3520704140000002,2.352070414,11,0,0,1,0,0.0,0,0,0,0,0,-0.048262934,-0.31769274399999997,-0.609987636,-0.598178688,0.605661525,176.5988285,39.73317863,-0.021418423,0.045279702000000005,0.033743672999999995,0.0,-1.5362226819999998,1.426591572,-7.91559184,3344830000000000.0,954.3711107999999,11.73856726,-0.13306796199999998,-0.073162003,0.183910767,-1.6312485140000001,1.441215885,-7.379293796,-0.13824112800000002,-0.144559408,0.154897678,3344830000000000.0,92.3261205,102.4755167,-4.012603327,-4.085339058,15.369350199999998,13.96978735,0.027991251,0.71396028,-0.1,66.43505649,502.27182310000006,11.73721611,95435.7681,1.133934772,-0.251789743,0.674007666,0.286769482,-0.144954957,-0.136717323,0.171973853,-0.067150683,-0.30569489699999997,-0.611504618,0.940432955,-0.077443068,-0.13512291099999998,-0.302206966,0.0,398679446.8,327337587.6,503382.4289,13.53755151,10.89869474,-7.999793959,3.691144229,5.649869603,0,0,0.0,39.8714138,32.7364372,-384.8947887,-229.26199989999998,-103.0505782,10.97655897,-7.944333205,3.817012277,1.808652234,1.477747313,1.429805248,-0.518602702,103.1767172,-0.11205740300000001,-0.022808581,0.024334437999999996,0.0,58978272,0,0,1,0,0
1290,59016623,-0.048213009,-0.014549488999999999,0.050130915,0.0,0.0,1520.0,1500.0,1000.0,1522.194039,1476.805961,1493.805961,13.80579029,14.14576972,13.65851452,13.57224562,13.90657698,13.16975081,13.49416887,132.1443963,132.1443963,11.75832986,-0.00141646,-0.005755683,0.00019077099999999998,-0.18332168899999998,0.17419011899999998,-0.009003106,2.0,1.354670934,2.354670934,11,0,0,1,0,0.0,0,0,0,0,0,-0.054306272999999995,-0.31513280899999996,-0.610130949,-0.598227566,0.612591911,176.0719138,39.81918934,-0.02140146,0.045322817,0.033258972000000005,0.0,-1.5642099409999999,1.4613236280000002,-7.746556308,3344830000000000.0,954.3934095000001,11.73954317,-0.13106637,-0.034143452000000005,0.17299767100000002,-1.641761391,1.371249393,-7.639267386,-0.137568849,-0.144688721,0.159403485,3344830000000000.0,92.14511306,102.3119863,-4.049380747,-4.163003276,15.36927359,14.022786600000002,0.026929732,0.7695531440000001,-0.1,65.94505129999999,502.18611730000003,11.73821473,95436.77152000001,1.133946839,0.6104510639999999,-0.198704031,-0.49200584799999997,-0.139349997,-0.126985768,0.169664586,-0.071410104,-0.308893164,-0.610493817,0.94016845,-0.079843789,-0.13602804300000002,-0.301999882,0.0,398679484.7,327337550.9,503238.9048,13.55621524,10.96961692,-7.925139027999999,3.743402681,5.657361785,0,0,0.0,39.8714138,32.7364372,-384.4558475,-229.57292880000003,-102.8978023,11.0471576,-7.885363722,3.8771644960000002,1.734661884,1.4430252190000001,1.554978739,-0.512730064,103.023939,-0.109595581,-0.012165034,0.025173393,0.0,59016623,0,0,1,0,0
1291,59053947,-0.047732841,-0.016155461,0.047298155,0.0,0.0,1519.0,1500.0,1000.0,1521.0,1478.0,1499.0,13.9514125,14.29493608,13.71068803,13.62507405,13.96058285,13.2210187,13.54657938,133.036742,133.036742,11.75946753,-0.0014170220000000002,-0.005756279,0.00019152,-0.183411076,0.17416773800000002,-0.008977998000000001,2.0,1.3572714540000002,2.357271454,11,0,0,1,0,0.0,0,0,0,0,0,-0.060349612000000004,-0.312572875,-0.610274263,-0.598276444,0.619522296,175.54499919999998,39.90520005,-0.021392089,0.045305685,0.032795445,0.0,-1.608994906,1.492462496,-7.593246337999999,3344830000000000.0,954.4170122000002,11.74052908,-0.134846727,-0.012855983999999999,0.158959251,-1.63428696,1.452222579,-8.146881200000001,-0.138141514,-0.140936949,0.165479768,3344830000000000.0,91.96603326,102.14860159999999,-4.081016977,-4.240624536,15.36919373,14.07649495,0.025853967000000002,0.8244175909999999,-0.1,65.46050871,502.00445650000006,11.73920349,95438.82919,1.133971117,-0.553766271,0.630473569,0.12241343800000001,-0.140058593,-0.109296141,0.170670095,-0.07584955,-0.312250459,-0.609676134,0.939846375,-0.082363202,-0.136974677,-0.301898798,0.0,398679522.6,327337514.1,503095.3807,13.57487898,11.04053911,-7.850484097000001,3.7956611319999998,5.664853967000001,0,0,0.0,39.8714138,32.7364372,-384.0169063,-229.8838577,-102.74502640000001,11.11775623,-7.826394238,3.9373167139999996,1.660671534,1.408303125,1.6801522309999999,-0.506857427,102.8711608,-0.109440544,-0.014701183999999999,0.020670331,0.0,59053947,0,0,1,0,0
1292,59097324,-0.052856757000000004,-0.015074998999999999,0.041724051,0.0,0.0,1519.0,1500.0,1000.0,1523.0,1476.0,1505.821164,13.93768532,14.28071593,13.76286153,13.67790249,14.01458873,13.27228658,13.59898988,133.9290876,133.9290876,11.76060519,-0.0014175829999999998,-0.005756875,0.000192269,-0.183500463,0.174145357,-0.008952889,2.0,1.359871974,2.3598719740000003,11,0,0,1,0,0.0,0,0,0,0,0,-0.06639295099999999,-0.31001294,-0.610417576,-0.598325322,0.6264526810000001,175.01808459999998,39.99121076,-0.021380157,0.0452575,0.032365008,0.0,-1.6443034109999999,1.519274737,-7.474764254,3150120000000000.0,954.4400881000001,11.74152385,-0.139537923,-0.014597482,0.156415064,-1.517661844,1.517566969,-8.482274927,-0.138483251,-0.134543087,0.170140221,3150120000000000.0,91.80953813,101.9869232,-4.052417919,-4.317742488,15.369075899999999,14.13851135,0.024611282,0.870747732,-0.1,65.03996698,501.920903,11.74022804,95439.78073,1.1339825190000001,0.002194213,0.48700931299999994,0.167188807,-0.13867439,-0.08895086099999999,0.165938173,-0.083424395,-0.308074837,-0.611856604,0.939523935,-0.085465294,-0.13376333699999998,-0.303454667,0.0,398679560.5,327337479.5,502947.2521,13.59625125,11.10739862,-7.79885177,3.865525105,5.670809675,0,0,0.0,39.8714138,32.7364372,-383.5719832,-230.1899733,-102.58544859999999,11.1831011,-7.7714804829999995,4.0148909889999995,1.63535864,1.38524257,1.894214038,-0.500742745,102.7115845,-0.11696302300000001,-0.015179772,0.017017828,0.0,59097324,0,0,1,0,0
1293,59131675,-0.046930282000000004,-0.011539523000000001,0.040865961,0.0,0.0,1518.828766,1500.0,1000.0,1521.4862970000001,1477.5137029999999,1507.657532,13.91796918,14.26045598,13.81503504,13.73073093,14.068594599999999,13.32355446,13.65140039,134.82143330000002,134.82143330000002,11.76174286,-0.0014181439999999999,-0.005757472,0.000193017,-0.18358985100000003,0.174122976,-0.00892778,2.0,1.3624724940000001,2.362472494,11,0,0,1,0,0.0,0,0,0,0,0,-0.071991565,-0.307539336,-0.610734714,-0.5984223120000001,0.641204797,174.4834759,40.10011593,-0.021371541,0.045230174000000005,0.03197286,0.0,-1.627214586,1.52216415,-7.548852851,1878830000000000.0,954.4602512,11.74256754,-0.138617538,-0.033327236,0.153735772,-1.59794989,1.504232649,-8.623112315,-0.137548146,-0.11354055800000001,0.16697225300000001,1878830000000000.0,91.65304300000001,101.8252448,-4.02381886,-4.3948604410000005,15.36895806,14.20052775,0.023368597999999997,0.9170778740000001,-0.1,64.61942525,501.60573380000005,11.74126757,95443.3841,1.134025254,0.248519782,0.7265301259999999,-0.061627112000000005,-0.13045126099999999,-0.065624837,0.16323109,-0.09132124300000001,-0.290147214,-0.61452765,0.9401716509999999,-0.08672858300000001,-0.12399032199999999,-0.30525104399999997,0.0,398679598.4,327337445.7,502797.3823,13.61864773,11.17272187,-7.755925185,3.9420464089999996,5.676184382000001,0,0,0.0,39.8714138,32.7364372,-383.1258586,-230.495122,-102.4245043,11.24739057,-7.71738146,4.0959650839999995,1.619824287,1.3645246359999998,2.126132122,-0.49457944,102.55064250000001,-0.11392064699999999,0.007121208,0.013004517,0.0,59131675,0,0,1,0,0
1294,59170026,-0.044960095,-0.003010995,0.039869652,0.0,0.0,1519.0,1500.0,1000.0,1520.1636330000001,1478.8363669999999,1509.0,13.97734782,14.32108504,13.86720855,13.78355937,14.12260048,13.37482235,13.70381089,135.71377890000002,135.71377890000002,11.76288053,-0.001418706,-0.005758068000000001,0.00019376599999999997,-0.183679238,0.17410059600000002,-0.008902671,2.0,1.365073015,2.365073015,11,0,0,1,0,0.0,0,0,0,0,0,-0.076872485,-0.305205053,-0.611332368,-0.598596945,0.668579568,173.93645049999998,40.245968,-0.021359858,0.04520497,0.031619101000000004,0.0,-1.61012576,1.525053564,-7.622941449,607543000000000.0,954.4804142,11.74361123,-0.14345713,-0.064508255,0.149083039,-1.608229305,1.458979256,-8.61970288,-0.136613042,-0.09253802800000001,0.163804285,607543000000000.0,91.49654786,101.6635663,-3.995219801,-4.4719783930000006,15.36884022,14.26254415,0.022125914,0.963408015,-0.1,64.19888352,501.56342,11.74234085,95443.89,1.1340313,0.659368873,0.830028153,-0.10989432699999999,-0.134987326,-0.03936489,0.15953173,-0.095162051,-0.272304944,-0.613771243,0.941434955,-0.085878337,-0.115008406,-0.305108395,0.0,398679636.3,327337411.9,502647.5125,13.64104421,11.23804512,-7.712998599999999,4.018567714,5.681559088999999,0,0,0.0,39.8714138,32.7364372,-382.68535210000005,-230.7944943,-102.2644103,11.31053841,-7.664950500000001,4.177936754,1.6117512390000002,1.335032271,2.311150541,-0.48841728,102.39054990000001,-0.115750455,0.018282229,0.009442536,0.0,59170026,0,0,1,0,0
1295,59204377,-0.041559675,0.00025467,0.037505461000000004,0.0,0.0,1519.0,1500.0,1000.0,1521.0,1478.0,1516.0,14.02524669,14.37017845,13.91938206,13.83638781,14.17660635,13.42609023,13.756221400000001,136.60612450000002,136.60612450000002,11.764018199999999,-0.001419267,-0.005758664,0.000194515,-0.18376862600000002,0.174078215,-0.008877562,2.0,1.367673535,2.367673535,11,0,0,1,0,0.0,0,0,0,0,0,-0.081753406,-0.302870769,-0.611930022,-0.598771577,0.695954338,173.38942519999998,40.39182007,-0.021346002000000003,0.045157811,0.031296169,0.0,-1.607113194,1.5152169219999998,-7.784096849,663747000000000.0,954.4960725999999,11.74467932,-0.13968497900000001,-0.08695123699999999,0.148495662,-1.585095946,1.446221355,-8.577698404,-0.134285601,-0.06855992799999999,0.158635508,663747000000000.0,91.34005273,101.50188790000001,-3.966620742,-4.549096346000001,15.36872239,14.32456055,0.020883229,1.0097381570000001,-0.1,63.77834179,501.27352,11.74342331,95447.20425,1.134070678,0.480509378,0.8979169570000001,-1.000383022,-0.12858817,-0.007897003,0.15020758,-0.10054760800000001,-0.25453318399999997,-0.614593189,0.942317794,-0.08585099,-0.10574487199999999,-0.305730264,0.0,398679674.2,327337378.1,502497.6427,13.66344069,11.30336837,-7.670072014,4.095089018,5.686933796,0,0,0.0,39.8714138,32.7364372,-382.26689639999995,-231.0711945,-102.1076529,11.3692055,-7.619066467000001,4.263431291,1.632962847,1.271101402,2.312093853,-0.482259614,102.23379059999999,-0.11266325199999999,0.00904944,0.006236678000000001,0.0,59204377,0,0,1,0,0
1296,59246728,-0.039376287999999995,0.012459815,0.037447653,0.0,0.0,1519.0,1500.0,1000.0,1519.296859,1479.703141,1518.0,14.14862649,14.49632285,13.97155557,13.88921624,14.23061223,13.47735812,13.80863191,137.49847019999999,137.49847019999999,11.76515586,-0.0014198289999999998,-0.00575926,0.000195263,-0.18385801300000001,0.174055834,-0.008852453,2.0,1.370274055,2.370274055,11,0,0,1,0,0.0,0,0,0,0,0,-0.086634327,-0.300536485,-0.612527676,-0.59894621,0.723329109,172.8423998,40.53767215,-0.021334117000000003,0.045092333,0.031007284,0.0,-1.6169849459999999,1.493731833,-8.024946459,1935040000000000.0,954.507608,11.74576976,-0.15081293,-0.11881133699999999,0.15836676,-1.570399823,1.401371598,-8.331843008,-0.130683723,-0.041858221,0.151635343,1935040000000000.0,91.18355759999999,101.3402094,-3.9380216839999997,-4.626214298,15.36860455,14.38657695,0.019640545,1.056068298,-0.1,63.35780006,501.0945603999999,11.74453676,95449.23492999999,1.134094836,0.29357737100000003,0.6924769690000001,-0.7385338229999999,-0.130387172,0.002023796,0.13765723300000002,-0.108721365,-0.236831894,-0.617999072,0.94261608,-0.08727206,-0.09597012099999999,-0.307643816,0.0,398679712.0,327337344.4,502347.773,13.68583717,11.36869162,-7.627145429,4.171610322,5.692308503,0,0,0.0,39.8714138,32.7364372,-381.84844060000006,-231.34789480000003,-101.9508955,11.42787259,-7.573182435,4.3489258280000005,1.654174455,1.2071705320000001,2.313037166,-0.476101948,102.0770313,-0.112223523,-0.0013347279999999999,0.00188502,0.0,59246728,0,0,1,0,0
1297,59289079,-0.043397242,0.017441566000000002,0.039537026,0.0,0.0,1519.0,1500.0,1000.0,1519.0,1480.0,1520.0,14.21568842,14.5649441,14.02372908,13.94204468,14.284618099999998,13.528626000000001,13.86104241,138.1883685,138.1883685,11.76634126,-0.00142039,-0.005759856999999999,0.00019601200000000002,-0.18394739999999998,0.174033453,-0.008827344,2.0,1.372874575,2.372874575,11,0,0,1,0,0.0,0,0,0,0,0,-0.09151524800000001,-0.29820220199999997,-0.61312533,-0.599120843,0.750703879,172.2953745,40.68352422,-0.02132483,0.045040105999999996,0.030745738999999998,0.0,-1.626856699,1.472246744,-8.265796069,3206330000000000.0,954.5191433,11.7468602,-0.13988981,-0.137970158,0.16367947800000002,-1.6639733819999998,1.4026075759999999,-8.175048071,-0.127081845,-0.015156514,0.144635179,3206330000000000.0,91.02940474,101.16975409999999,-3.937109833,-4.671693735,15.36846508,14.44553959,0.018458503,1.088915019,-0.1,62.95246107,501.0743651000001,11.74568022,95449.50141,1.134098042,0.015549078000000001,0.322953809,-0.550964689,-0.12352629,0.015977576,0.119246567,-0.112288045,-0.22463108199999998,-0.617464541,0.9433138000000001,-0.08712635,-0.08966918,-0.307452863,0.0,398679750.7,327337310.8,502190.7674,13.71029199,11.43264253,-7.58010202,4.246759352,5.697814956,0,0,0.0,39.8714138,32.7364372,-381.4270107,-231.62234269999996,-101.7896104,11.48743278,-7.530200737,4.429492667,1.658809734,1.147712042,2.215761231,-0.469993541,101.9157454,-0.113145668,0.015724996,-0.001570915,0.0,59289079,0,0,1,0,0
1298,59323429,-0.038178681,0.021058982,0.037494900000000005,0.0,0.0,1518.0,1500.0,1000.0,1520.266453,1478.733547,1518.266453,14.25334164,14.60344241,14.07590259,13.99487312,14.33862398,13.57989388,13.91345292,138.8704804,138.8704804,11.76752849,-0.001420952,-0.0057604530000000004,0.000196761,-0.184036788,0.17401107300000002,-0.008802236,2.0,1.375475095,2.375475095,11,0,0,1,0,0.0,0,0,0,0,0,-0.096396169,-0.295867918,-0.613722984,-0.599295475,0.778078649,171.74834909999998,40.82937629,-0.021312547,0.045060904000000006,0.030505917999999996,0.0,-1.6183340519999998,1.528038316,-8.46735819,3344830000000000.0,954.539975,11.74798146,-0.139206562,-0.14657296,0.15672070000000002,-1.5803419680000002,1.445544392,-7.870409102999999,-0.12769888,-0.002978365,0.129839318,3344830000000000.0,90.87596659,100.99662059999999,-3.9446462280000003,-4.707519256,15.36831901,14.50357043,0.017294964,1.1176475190000001,-0.1,62.55176089999999,500.83840949999995,11.74681785,95452.17718,1.134129749,0.027106471,0.090540761,-0.677875077,-0.129036891,0.022893541,0.104280191,-0.121970249,-0.234540864,-0.622534964,0.941466015,-0.093386657,-0.09263436800000001,-0.310384387,0.0,398679790.6,327337277.6,502021.4873,13.7382874,11.49423285,-7.525977195,4.31954791,5.703548025,0,0,0.0,39.8714138,32.7364372,-381.003368,-231.8951147,-101.6249566,11.54765748,-7.489378482,4.506393118,1.651111616,1.091581167,2.045406571,-0.463921783,101.7510916,-0.119772998,0.037018694,-0.004798136,0.0,59323429,0,0,1,0,0
1299,59357780,-0.043149618,0.036652105,0.039498659,0.0,0.0,1517.0,1500.0,1000.0,1521.0,1478.0,1518.0,14.26642266,14.61677473,14.1280761,14.04770156,14.39262985,13.63116177,13.96586343,139.5525924,139.5525924,11.76871573,-0.001421513,-0.005761049,0.00019751,-0.184126175,0.173988692,-0.008777127,2.0,1.378075615,2.378075615,11,0,0,1,0,0.0,0,0,0,0,0,-0.101277089,-0.293533634,-0.6143206379999999,-0.599470108,0.80545342,171.2013238,40.97522837,-0.021298777999999997,0.045135403,0.030280851,0.0,-1.607562355,1.5932783640000001,-8.664116701000001,3344830000000000.0,954.5619434,11.74910648,-0.14253375599999998,-0.163501757,0.16331471,-1.570493414,1.424132819,-7.770269824,-0.128831754,0.0074240140000000005,0.11409029,3344830000000000.0,90.72252843,100.8234872,-3.952182623,-4.743344777,15.36817293,14.56160128,0.016131426,1.14638002,-0.1,62.15106074,500.7532783,11.74797948,95453.14508,1.134141244,-0.186944024,-0.018461789,-0.323741789,-0.130925455,0.03478937,0.09653208199999999,-0.122529415,-0.24658047600000002,-0.619600835,0.941090483,-0.09529126199999999,-0.09837554300000001,-0.309159305,0.0,398679830.6,327337244.3,501852.2072,13.76628281,11.55582316,-7.47185237,4.392336467,5.709281095,0,0,0.0,39.8714138,32.7364372,-380.5797252,-232.1678867,-101.4603027,11.60788218,-7.448556227999999,4.583293568999999,1.6434134980000001,1.035450292,1.875051911,-0.457850026,101.5864377,-0.119614225,0.076236865,-0.007253751,0.0,59357780,0,0,1,0,0
1300,59396262,-0.038581300000000006,0.043731378,0.038604383,0.0,0.0,1517.0,1500.0,1000.0,1520.881976,1478.118024,1523.881976,14.30831702,14.65959796,14.18024961,14.10052999,14.44663573,13.68242965,14.01827393,140.2347043,140.2347043,11.76990296,-0.001422074,-0.005761646,0.00019825799999999998,-0.184215563,0.173966311,-0.008752018,2.0,1.380676135,2.380676135,11,0,0,1,0,0.0,0,0,0,0,0,-0.10615801,-0.291199351,-0.614918292,-0.59964474,0.83282819,170.65429840000002,41.12108044,-0.02128458,0.045233441,0.030062432000000004,0.0,-1.61294182,1.6373575530000002,-8.868559734,3344830000000000.0,954.5835461000001,11.75031293,-0.14755439999999997,-0.145932985,0.17384282,-1.598094778,1.522361576,-7.534397243,-0.129596099,0.015939748,0.100746672,3344830000000000.0,90.56909028,100.6503537,-3.9597190189999996,-4.779170297,15.36802686,14.61963212,0.014967887,1.17511252,-0.1,61.75036058,500.464322,11.74917067,95456.46716,1.1341807720000001,-0.229390659,-0.018857051,0.330071392,-0.129815038,0.031999047999999995,0.08110356099999999,-0.12901573300000002,-0.25678636899999996,-0.622064136,0.939688966,-0.09996925,-0.102075124,-0.310749444,0.0,398679870.5,327337211.1,501682.9272,13.79427823,11.61741348,-7.417727546,4.465125025,5.715014163999999,0,0,0.0,39.8714138,32.7364372,-380.1160396,-232.4579133,-101.27564040000001,11.67824788,-7.409041739,4.642638478,1.729590565,1.006538513,1.5751721730000001,-0.45209465,101.401775,-0.11683292,0.100627859,-0.009531325,0.0,59396262,0,0,1,0,0
1301,59438482,-0.044967604,0.040612933,0.037288998,0.0,0.0,1516.0,1500.0,1000.0,1520.110422,1478.889578,1526.0,14.31766214,14.66896299,14.23242312,14.15335843,14.5006416,13.73369753,14.07068444,140.91681619999997,140.91681619999997,11.77109019,-0.0014226360000000001,-0.005762242,0.00019900700000000001,-0.18430495,0.17394393,-0.008726909,2.0,1.383276655,2.383276655,11,0,0,1,0,0.0,0,0,0,0,0,-0.111038931,-0.288865067,-0.615515946,-0.599819373,0.8602029609999999,170.1072731,41.26693251,-0.021272812000000002,0.04534199,0.029854493,0.0,-1.6642899759999998,1.621209682,-9.094874097,3344830000000000.0,954.6041082999999,11.75175114,-0.152147359,-0.136115755,0.171725218,-1.5936521069999998,1.469294041,-7.5040114220000005,-0.129311555,0.019085796999999998,0.094249217,3344830000000000.0,90.41565213,100.4772202,-3.967255414,-4.814995818,15.36788079,14.67766296,0.013804348999999999,1.203845021,-0.1,61.34966042,500.33763799999997,11.75034988,95457.88462000001,1.134197554,0.137269878,-0.137998017,0.404219988,-0.127884411,0.030703477000000003,0.07496934200000001,-0.13185148900000002,-0.265064215,-0.621581775,0.939028544,-0.102493603,-0.105569593,-0.31075811600000003,0.0,398679910.4,327337177.9,501513.6471,13.82227364,11.6790038,-7.363602721,4.537913583,5.720747232999999,0,0,0.0,39.8714138,32.7364372,-379.64996560000003,-232.748969,-101.08978459999999,11.74921842,-7.369605247999999,4.700936319,1.821366655,0.9792501690000001,1.267567138,-0.446358144,101.2159189,-0.124325441,0.129750062,-0.011564024,0.0,59438482,0,0,1,0,0
1302,59472833,-0.039302448,0.037686362,0.0359143,0.0,0.0,1515.0,1500.0,1000.0,1519.8971789999998,1479.1028210000002,1523.0,14.35089853,14.70296785,14.28459663,14.20618687,14.55464748,13.78496542,14.12309494,141.5989282,141.5989282,11.77227743,-0.0014231970000000002,-0.005762838,0.000199756,-0.18439433800000002,0.17392154899999998,-0.008701799999999999,2.0,1.385877175,2.385877175,11,0,0,1,0,0.0,0,0,0,0,0,-0.11591985199999999,-0.286530783,-0.6161135999999999,-0.599994006,0.8875777309999999,169.5602477,41.41278459,-0.021257531,0.045428635,0.029640596,0.0,-1.7156381319999998,1.60506181,-9.32118846,3344830000000000.0,954.6246704,11.75318935,-0.141407854,-0.119899264,0.16821050699999998,-1.542794658,1.458318667,-7.511162949,-0.129027011,0.022231847000000002,0.08775176300000001,3344830000000000.0,90.27981673,100.2923337,-3.864536728,-4.840655587,15.36774001,14.73972711,0.012560251000000001,1.225337671,-0.1,60.93985889,500.1372517,11.75152909,95460.18852000001,1.1342249690000001,0.264234366,0.394628074,-0.274506973,-0.139493714,0.027686576,0.063020591,-0.13943207,-0.2717434,-0.625424444,0.9375399740000001,-0.107240075,-0.107339241,-0.313042862,0.0,398679950.4,327337144.7,501344.2104,13.85043109,11.74073815,-7.309711942000001,4.610432086,5.72646962,0,0,0.0,39.8714138,32.7364372,-379.1930945,-233.0319635,-100.9070039,11.81952222,-7.332555182,4.750657661,1.8761220440000002,0.9397647240000001,0.9963893620000001,-0.441173274,101.03313790000001,-0.12134657199999999,0.155870747,-0.013863064,0.0,59472833,0,0,1,0,0
1303,59507184,-0.04397372099999999,0.047987759000000005,0.034713327999999995,0.0,0.0,1515.0,1500.0,1000.0,1520.0,1479.0,1521.0,14.4503565,14.80475526,14.33677014,14.25901531,14.60865335,13.836233300000002,14.17550545,142.28104009999998,142.28104009999998,11.77346466,-0.001423759,-0.005763435,0.000200504,-0.184483725,0.173899169,-0.008676691,2.0,1.388477696,2.388477696,11,0,0,1,0,0.0,0,0,0,0,0,-0.12080077199999999,-0.2841965,-0.6167112539999999,-0.600168638,0.914952502,169.01322230000002,41.55863666,-0.021244511,0.045422477,0.02944343,0.0,-1.735731814,1.590383963,-9.381209692,3344830000000000.0,954.6458062,11.75445257,-0.136620889,-0.090107326,0.16407072,-1.6417018159999999,1.409715665,-7.576706026,-0.13194730400000002,0.021959314,0.078653618,3344830000000000.0,90.16517059,100.0932995,-3.62909881,-4.854078362,15.36760561,14.80664635,0.011219181000000002,1.238115375,-0.1,60.51910163,500.0405648,11.752739300000002,95461.29391000001,1.134238064,0.78859644,-0.068738362,-0.505351102,-0.136057545,0.026023553999999997,0.058539278,-0.134873938,-0.277415872,-0.618819135,0.938383208,-0.105573995,-0.111076411,-0.309760365,0.0,398679992.2,327337111.6,501158.6929,13.89522423,11.81725945,-7.279849895,4.655225045,5.73109524,0,0,0.0,39.8714138,32.7364372,-378.7563246,-233.29735060000002,-100.73093990000001,11.88836968,-7.300717672,4.781645749,1.8500148,0.873637703,0.804777993,-0.43719332,100.8570739,-0.127737884,0.12466554,-0.018061386999999998,0.0,59507184,0,0,1,0,0
1304,59541535,-0.041652296,0.048264357,0.033747812,0.0,0.0,1514.0,1500.0,1000.0,1520.0,1479.0,1525.0,14.59940765,14.95729403,14.38894365,14.31184374,14.66265923,13.88750118,14.22791596,142.963152,142.963152,11.77465189,-0.00142432,-0.005764031,0.000201253,-0.18457311199999998,0.173876788,-0.008651583000000001,2.0,1.391078216,2.391078216,11,0,0,1,0,0.0,0,0,0,0,0,-0.125681693,-0.281862216,-0.6173089070000001,-0.6003432710000001,0.942327272,168.466197,41.70448873,-0.0212253,0.04534964,0.029210557999999998,0.0,-1.737386665,1.5765733690000001,-9.343124935,3344830000000000.0,954.6672805,11.75561257,-0.128179157,-0.06531819700000001,0.166001182,-1.667448195,1.481032523,-7.787954365,-0.13675831800000002,0.019669961,0.068021176,3344830000000000.0,90.05052445,99.89426532,-3.3936608930000003,-4.867501137,15.36747121,14.87356559,0.00987811,1.250893078,-0.1,60.09834437,499.7951557,11.7539495,95464.11745,1.134271609,0.196770602,0.519572006,-0.552488129,-0.138911437,0.048604903,0.052835997999999995,-0.143069131,-0.282093779,-0.623570449,0.9368431,-0.110365616,-0.11175245199999999,-0.31249861100000004,0.0,398680034.0,327337078.6,500973.1754,13.94001738,11.89378076,-7.249987848,4.7000180039999995,5.735720859,0,0,0.0,39.8714138,32.7364372,-378.3195548,-233.56273760000002,-100.55487590000001,11.95721713,-7.268880162,4.812633836,1.823907556,0.807510682,0.613166623,-0.433213366,100.6810099,-0.120765771,0.092728906,-0.022023882,0.0,59541535,0,0,1,0,0
1305,59575886,-0.041413893,0.047825072,0.032620275,0.0,0.0,1513.0,1500.0,1000.0,1521.0,1478.0,1530.0,14.55534992,14.91187062,14.44111716,14.36467218,14.716665099999998,13.93876907,14.28032646,143.6452639,143.6452639,11.77583913,-0.001424881,-0.005764627,0.000202002,-0.1846625,0.173854407,-0.008626474,2.0,1.393678736,2.393678736,11,0,0,1,0,0.0,0,0,0,0,0,-0.130562614,-0.279527932,-0.617906561,-0.6005179039999999,0.969702043,167.9191716,41.85034081,-0.021206693999999998,0.0452336,0.028969644,0.0,-1.739041516,1.562762775,-9.305040177999999,3344830000000000.0,954.6887548000001,11.75677256,-0.12954296699999998,-0.035847158,0.150196771,-1.6341710409999999,1.494466325,-8.008031843,-0.141569332,0.017380608,0.057388734000000004,3344830000000000.0,89.93587831,99.69523112,-3.158222975,-4.880923912,15.36733681,14.94048482,0.00853704,1.2636707809999999,-0.1,59.67758711,499.45277699999997,11.75515971,95468.0201,1.134318045,0.766593715,0.349500439,-0.048091293,-0.136963587,0.068361595,0.041765377,-0.150867209,-0.28613210899999997,-0.628131003,0.935371429,-0.114864125,-0.112174392,-0.31512097899999997,0.0,398680075.8,327337045.6,500787.6579,13.98481052,11.97030206,-7.220125801,4.744810962,5.740346478999999,0,0,0.0,39.8714138,32.7364372,-377.8520648,-233.8406168,-100.3673931,12.03043292,-7.2391732310000005,4.833918399,1.820657156,0.752234662,0.494359014,-0.42993815399999996,100.4935276,-0.121137681,0.064267406,-0.026556282999999997,0.0,59575886,0,0,1,0,0
1306,59618236,-0.041237413,0.044080857,0.030996216,0.0,0.0,1513.0,1500.0,1000.0,1521.0,1478.0,1540.0,14.61064473,14.96840056,14.49329067,14.41750062,14.77067098,13.99003695,14.33273697,144.32737590000002,144.32737590000002,11.77702636,-0.001425443,-0.005765223000000001,0.00020275099999999998,-0.184751887,0.17383202600000003,-0.008601365,2.0,1.396279256,2.396279256,11,0,0,1,0,0.0,0,0,0,0,0,-0.135302826,-0.277927357,-0.618748196,-0.600763745,1.007955919,167.3678459,41.99073905,-0.021191265,0.045120787999999995,0.028709589,0.0,-1.74764599,1.544214912,-9.462915498,3344830000000000.0,954.7141887,11.75794393,-0.123219745,-0.0063759409999999996,0.142645526,-1.6379907569999999,1.4995140980000001,-8.316329652,-0.14149633,0.039812243,0.051600463,3344830000000000.0,89.82123217,99.49619691,-2.922785058,-4.894346687,15.36720241,15.00740406,0.00719597,1.276448485,-0.1,59.25682985,499.40266669999994,11.75636992,95468.60955,1.134324968,0.328599607,0.8019136179999999,-0.19434955199999998,-0.141859534,0.11093976300000001,0.03844066,-0.150984651,-0.289343189,-0.626067435,0.935431835,-0.11527458300000001,-0.113785168,-0.314205692,0.0,398680117.6,327337012.5,500602.1404,14.02960367,12.04682336,-7.190263752999999,4.789603921,5.744972098,0,0,0.0,39.8714138,32.7364372,-377.3704071,-234.1242571,-100.1746441,12.10566332,-7.210448888999999,4.850727856000001,1.827947961,0.7019629479999999,0.409127312,-0.42698795700000003,100.30077940000001,-0.12501548099999998,0.043822035,-0.030188034,0.0,59618236,0,0,1,0,0
1307,59652587,-0.045332378,0.040669146,0.029803752000000003,0.0,0.0,1512.0,1500.0,1000.0,1519.0,1480.0,1544.0,14.57529348,14.93217662,14.54546418,14.47032906,14.82467685,14.04130483,14.38514747,145.00948780000002,145.00948780000002,11.77821359,-0.001426004,-0.00576582,0.00020349900000000002,-0.184841275,0.173809646,-0.008576255999999999,2.0,1.398879776,2.398879776,11,0,0,1,0,0.0,0,0,0,0,0,-0.13945321900000002,-0.279402327,-0.620612544,-0.601308077,1.091812622,166.7984937,42.10827606,-0.021176114,0.045028502000000005,0.028433478999999998,0.0,-1.756265126,1.525657054,-9.621204236,3344830000000000.0,954.739631,11.75911532,-0.130602284,0.003603098,0.127473004,-1.6765769419999998,1.529827294,-8.599008719,-0.141413025,0.062296032,0.045822413,3344830000000000.0,89.70444749,99.30038626,-2.74695381,-4.902228453999999,15.36706665,15.07273395,0.005886659,1.2867120459999999,-0.1,58.84718377,499.2386362,11.75758013,95470.49941,1.134347412,0.372609632,0.49810335299999997,0.186287005,-0.143548638,0.132173607,0.034964047000000005,-0.156210784,-0.291874118,-0.6284774879999999,0.9345443720000001,-0.11822687300000001,-0.11401384699999999,-0.315665029,0.0,398680159.4,327336979.5,500416.6229,14.07439681,12.12334467,-7.160401706,4.834396879,5.7495977179999995,0,0,0.0,39.8714138,32.7364372,-376.8904548,-234.40659900000003,-99.98264883,12.18031839,-7.182139351,4.867332641,1.833162877,0.649945808,0.32694512,-0.424094532,100.1087848,-0.123950721,0.022682702000000003,-0.034735632,0.0,59652587,0,0,1,0,0
1308,59690938,-0.041444182999999996,0.058325863,0.027952526000000002,0.0,0.0,1512.0,1500.0,1000.0,1521.0,1478.0,1552.0,14.73101532,15.09157917,14.59763769,14.523157500000002,14.87868273,14.09257272,14.43755798,145.69159969999998,145.69159969999998,11.77940082,-0.001426566,-0.005766416,0.000204248,-0.184930662,0.173787265,-0.008551147,2.0,1.401480296,2.401480296,11,0,0,1,0,0.0,0,0,0,0,0,-0.143603611,-0.280877296,-0.622476892,-0.60185241,1.175669325,166.2291415,42.22581306,-0.021149631000000002,0.044980078,0.02811003,0.0,-1.76012259,1.521320199,-9.839839175,2878470000000000.0,954.7624632000001,11.76028253,-0.13408932199999998,0.008889905,0.10710528300000001,-1.706955344,1.5628904280000002,-8.837586515,-0.141680104,0.08294823400000001,0.043473069,2878470000000000.0,89.57467081,99.1241593,-2.93324429,-4.876447557,15.36692265,15.12840825,0.00477029,1.281701725,-0.1,58.5050402,499.06417239999996,11.75879033,95472.48056,1.13437108,0.504929695,0.106429921,-0.355963784,-0.146140631,0.13355766300000002,0.041927825,-0.156997578,-0.294042543,-0.627224784,0.934520523,-0.118841075,-0.114985935,-0.31515554,0.0,398680201.0,327336947.7,500233.17299999995,14.12040608,12.19378464,-7.131756,4.863378676,5.753862417000001,0,0,0.0,39.8714138,32.7364372,-376.43996830000003,-234.6665063,-99.80367761,12.24503263,-7.1609971429999995,4.880400942,1.802508824,0.56776975,0.297454952,-0.422182047,99.92981321,-0.10839800000000001,0.005169042,-0.040147076000000004,0.0,59690938,0,0,1,0,0
1309,59725289,-0.041568688,0.07094736900000001,0.026809851000000003,0.0,0.0,1511.0,1500.0,1000.0,1520.0,1479.0,1554.04961,14.70579793,15.06560884,14.6498112,14.57598593,14.9326886,14.143840599999999,14.48996849,146.37371159999998,146.37371159999998,11.78058806,-0.001427127,-0.005767011999999999,0.000204997,-0.185020049,0.17376488399999998,-0.008526038,2.0,1.404080816,2.404080816,11,0,0,1,0,0.0,0,0,0,0,0,-0.147754004,-0.282352266,-0.62434124,-0.602396742,1.259526028,165.65978940000002,42.34335007,-0.021128707000000004,0.044958189,0.027765573999999998,0.0,-1.75576156,1.5415283469999999,-10.16262975,1607180000000000.0,954.7807905,11.76144253,-0.132515869,0.014846363000000001,0.09984333199999999,-1.663249804,1.575384392,-9.086653378,-0.142551934,0.10043917699999999,0.047041567,1607180000000000.0,89.44489413,98.94793235,-3.11953477,-4.850666661,15.36677864,15.18408254,0.0036539209999999996,1.276691403,-0.1,58.16289663,498.7549226,11.76003054,95476.01352000001,1.1344130540000001,-0.37419795,-0.19297263,0.054371255,-0.148067151,0.133015505,0.036504221,-0.163764123,-0.29513094,-0.631374202,0.9333684320000001,-0.12239933300000001,-0.114178957,-0.317497999,0.0,398680242.4,327336916.5,500050.8284,14.16706541,12.26097389,-7.103760475,4.883908782,5.75793419,0,0,0.0,39.8714138,32.7364372,-375.9894819,-234.9264136,-99.62470639,12.30974687,-7.139854935,4.893469243,1.7718547709999999,0.485593691,0.267964783,-0.42026956299999996,99.75084161,-0.112953888,-0.00257452,-0.044239467000000005,0.0,59725289,0,0,1,0,0
1310,59759640,-0.040696517,0.079951411,0.026625617999999997,0.0,0.0,1510.0,1500.0,1000.0,1521.957992,1477.042008,1547.0,14.81503236,15.17725732,14.70198471,14.62881437,14.98669448,14.19510849,14.54237899,147.0558236,147.0558236,11.78177529,-0.0014276879999999999,-0.005767609,0.000205745,-0.185109437,0.17374250300000002,-0.008500929,2.0,1.406681336,2.406681336,11,0,0,1,0,0.0,0,0,0,0,0,-0.151904397,-0.283827235,-0.6262055879999999,-0.602941075,1.343382731,165.0904372,42.46088708,-0.021109744,0.044963870999999996,0.027394897999999997,0.0,-1.75140053,1.561736495,-10.48542033,335888000000000.0,954.7991177000001,11.76260252,-0.136110594,0.015916529,0.087263889,-1.7819191509999999,1.567543797,-9.302596029,-0.143423763,0.117930119,0.050610065,335888000000000.0,89.31511745,98.77170539,-3.3058252489999997,-4.824885765,15.36663464,15.23975684,0.0025375529999999997,1.271681082,-0.1,57.82075305,498.61288319999994,11.76124075,95477.65017000001,1.134432446,0.589536574,-0.561833958,0.33820125799999995,-0.141425465,0.1150292,0.039377567,-0.171578498,-0.295953128,-0.636404528,0.932012232,-0.126450736,-0.113006557,-0.320301288,0.0,398680283.9,327336885.4,499868.4837,14.21372474,12.32816314,-7.075764951,4.9044388880000005,5.762005964,0,0,0.0,39.8714138,32.7364372,-375.51944280000004,-235.19452369999996,-99.43914865,12.37691064,-7.120944838,4.899538977,1.7483132190000001,0.41178036700000004,0.12353348199999999,-0.41853242399999996,99.56528446,-0.11796252300000001,-0.01021898,-0.048375997000000004,0.0,59759640,0,0,1,0,0
1311,59793991,-0.045213659,0.097457234,0.024994681,0.0,0.0,1509.0,1500.0,1000.0,1520.0,1479.0,1538.0,14.87078284,15.23431333,14.75415822,14.68164281,15.04070035,14.24637637,14.5947895,147.7379355,147.7379355,11.78296252,-0.00142825,-0.005768205,0.00020649400000000002,-0.18519882399999998,0.173720122,-0.008475821,2.0,1.409281856,2.4092818559999998,11,0,0,1,0,0.0,0,0,0,0,0,-0.156054789,-0.285302205,-0.628069936,-0.6034854070000001,1.427239434,164.5210851,42.57842408,-0.021086776,0.044983185999999994,0.027005862000000002,0.0,-1.7590756669999998,1.531686137,-10.60789868,935402000000000.0,954.8157363,11.76375384,-0.131589292,0.020451107,0.074473737,-1.787838623,1.56252508,-9.376566191,-0.14270934,0.105415161,0.04843212400000001,935402000000000.0,89.18534077,98.59547843,-3.4921157289999996,-4.799104868,15.36649064,15.29543113,0.001421184,1.26667076,-0.1,57.47860948,498.4797876,11.76245096,95479.16934,1.1344505120000001,-0.39485546299999996,-1.183651234,0.30001689,-0.14790947699999998,0.08636448099999999,0.041682475,-0.169710594,-0.296619536,-0.633231349,0.932578775,-0.125497573,-0.113815477,-0.318726601,0.0,398680325.3,327336854.2,499686.13899999997,14.26038408,12.39535239,-7.047769427,4.924968993999999,5.766077737000001,0,0,0.0,39.8714138,32.7364372,-375.0229544,-235.47373,-99.24468118,12.44738796,-7.105054166,4.896141591,1.73439291,0.349279503,-0.17638130600000002,-0.417032478,99.37081889,-0.113194565,-0.015660268,-0.052055104000000005,0.0,59793991,0,0,1,0,0
1312,59832342,-0.041291062999999996,0.104614225,0.023911214,0.0,0.0,1509.0,1500.0,1000.0,1519.0,1480.0,1533.026805,14.88996755,15.25383601,14.80633173,14.73447125,15.09470623,14.29764425,14.6472,148.42004740000002,148.42004740000002,11.78414976,-0.001428811,-0.005768801,0.000207243,-0.18528821199999998,0.173697742,-0.008450711999999999,2.0,1.4118823759999999,2.411882376,11,0,0,1,0,0.0,0,0,0,0,0,-0.160205182,-0.286777175,-0.629934284,-0.604029739,1.5110961369999998,163.95173290000002,42.69596109,-0.021065318,0.045007494,0.026581913999999998,0.0,-1.771072805,1.4835887330000002,-10.65844803,2206690000000000.0,954.8317412999999,11.76490205,-0.138905049,0.019658157,0.060334048,-1.7574751380000002,1.555173839,-9.439816042999999,-0.141425318,0.082125553,0.044190727,2206690000000000.0,89.05556409,98.41925148,-3.678406209,-4.773323972,15.36634664,15.35110543,0.00030481599999999996,1.2616604390000001,-0.1,57.13646591,498.32458360000004,11.76366116,95480.97176,1.134471803,-0.141931521,-0.9783718220000001,-0.625323677,-0.142805599,0.050338033,0.041787774,-0.174253963,-0.296968365,-0.635598286,0.9318852759999999,-0.127801496,-0.11310513300000001,-0.320094062,0.0,398680366.7,327336823.0,499503.7944,14.30704341,12.46254164,-7.019773902000001,4.945499099999999,5.77014951,0,0,0.0,39.8714138,32.7364372,-374.526466,-235.7529363,-99.05021371,12.51786529,-7.089163494,4.8927442039999995,1.720472601,0.28677863800000003,-0.476296094,-0.415532533,99.17635332,-0.10777907199999999,-0.016335874,-0.055503632000000004,0.0,59832342,0,0,1,0,0
1313,59881385,-0.043418184000000005,0.100428951,0.022785003999999998,0.0,0.0,1508.0,1500.0,1000.0,1519.0,1480.0,1528.0,14.98857673,15.3547429,14.85850524,14.78729968,15.1487121,14.34891214,14.69961051,149.1021593,149.1021593,11.78533699,-0.0014293729999999998,-0.005769398,0.000207992,-0.18537759899999998,0.17367536100000003,-0.008425603,2.0,1.4144828969999999,2.414482897,11,0,0,1,0,0.0,0,0,0,0,0,-0.164355575,-0.288252144,-0.6317986320000001,-0.604574072,1.59495284,163.38238069999997,42.81349809,-0.021044008,0.045035661,0.026147145,0.0,-1.7798185990000002,1.44386142,-10.68272918,3344830000000000.0,954.8491603,11.76604783,-0.132173187,0.011058993999999999,0.05634165,-1.6728457230000002,1.550987414,-9.390152381,-0.140255987,0.058050747,0.040934849,3344830000000000.0,88.90174144,98.24763353,-3.7770856960000003,-4.753857237,15.36621028,15.395956,-0.00059492,1.251498653,-0.1,56.81033036,498.13336200000003,11.76487137,95483.12147,1.134497429,-0.6542276029999999,-0.7927820879999999,-0.156509073,-0.152985957,0.022782264,0.04550681,-0.175842987,-0.29719825899999996,-0.635466898,0.93178479,-0.128568126,-0.112966779,-0.32012649,0.0,398680409.1,327336791.7,499319.5861,14.35644323,12.52918289,-6.997807562,4.950682136,5.773781245,0,0,0.0,39.8714138,32.7364372,-374.0558107,-236.0144547,-98.86906811,12.58443421,-7.079968209,4.865563019,1.730725509,0.223110712,-0.704014742,-0.414237843,98.99520811,-0.102236575,-0.018204674,-0.05976209,0.0,59881385,0,0,1,0,0
1314,59917043,-0.038166676000000004,0.085832442,0.020580782,0.0,0.0,1507.0,1500.0,1000.0,1520.011602,1478.988398,1525.0,14.97591213,15.34167982,14.91067875,14.84012812,15.20271798,14.40018002,14.75202102,149.78427130000003,149.78427130000003,11.78652422,-0.001429934,-0.0057699940000000005,0.00020874,-0.185466987,0.17365298,-0.008400494,2.0,1.417083417,2.4170834169999997,11,0,0,1,0,0.0,0,0,0,0,0,-0.16850596699999998,-0.289727114,-0.633662979,-0.6051184039999999,1.678809543,162.8130286,42.9310351,-0.021021399,0.045047431,0.025690385,0.0,-1.760772762,1.475679445,-10.48247663,3344830000000000.0,954.8786656,11.76717286,-0.132691452,0.024790088,0.045259712,-1.759659351,1.512719366,-9.400991834,-0.14006701400000002,0.027264271,0.046102932,3344830000000000.0,88.74295545,98.07696692,-3.857681377,-4.73569381,15.3660755,15.43857244,-0.001449939,1.240273553,-0.1,56.48749903,497.95785430000006,11.76605058,95485.14731,1.1345215690000001,-0.07957016900000001,-0.43519305700000005,0.248567858,-0.13853659699999998,-0.0019774000000000003,0.05040518099999999,-0.18164225,-0.297328201,-0.639016004,0.93082897,-0.131488187,-0.111867904,-0.322108463,0.0,398680453.7,327336760.0,499130.8958,14.41243425,12.59450614,-6.9903420679999995,4.918953791,5.776354637000001,0,0,0.0,39.8714138,32.7364372,-373.5918017,-236.2714224,-98.6913499,12.64999761,-7.072495481,4.8322628530000005,1.747197585,0.15914253,-0.913159119,-0.41299596,98.81748990000001,-0.105447477,-0.016970861,-0.06245602,0.0,59917043,0,0,1,0,0
1315,59955394,-0.040583074,0.069979757,0.018903116,0.0,0.0,1505.0,1500.0,1000.0,1516.0,1483.0,1522.0,15.01486929,15.381368799999999,14.96285226,14.89295656,15.25672386,14.4514479,14.80443152,150.4663832,150.4663832,11.78771146,-0.001430496,-0.00577059,0.000209489,-0.185556374,0.173630599,-0.008375385,2.0,1.4196839369999998,2.419683937,11,0,0,1,0,0.0,0,0,0,0,0,-0.17265636,-0.291202083,-0.635527327,-0.6056627370000001,1.762666246,162.2436764,43.0485721,-0.021003135,0.04504622900000001,0.025263322,0.0,-1.741726925,1.507497471,-10.28222408,3344830000000000.0,954.9081708999998,11.76829788,-0.142277937,0.047430608,0.046289749000000005,-1.8041806009999999,1.571498209,-9.47536639,-0.13987804,-0.003522205,0.051271015999999996,3344830000000000.0,88.58416947,97.90630032,-3.938277058,-4.717530383,15.36594073,15.48118887,-0.002304959,1.2290484529999999,-0.1,56.1646677,497.6214593,11.76723846,95488.97739,1.134567034,-0.274126537,-0.683097215,0.311759319,-0.14043255400000001,-0.022438787,0.051888424,-0.188087913,-0.297211722,-0.6433650129999999,0.929705955,-0.134710332,-0.11048099900000001,-0.324486908,0.0,398680498.3,327336728.2,498942.2054,14.46842526,12.65982939,-6.982876575,4.887225445,5.77892803,0,0,0.0,39.8714138,32.7364372,-373.12005089999997,-236.5317185,-98.51177534,12.71529931,-7.065753622999999,4.798089194,1.7441989869999999,0.100980654,-1.064737212,-0.41170120200000004,98.63791534,-0.109217132,-0.01687668,-0.066199009,0.0,59955394,0,0,1,0,0
