,timestamp,control[0],control[1],control[2],control[3],control[4],output[2],output[3],output[4],output[5],output[6],output[7],indicated_airspeed_m_s,true_airspeed_m_s,indicated_airspeed_m_s.1,equivalent_airspeed_m_s,true_airspeed_m_s.1,equivalent_ground_minus_wind_m_s,true_ground_minus_wind_m_s,differential_pressure_raw_pa,differential_pressure_filtered_pa,temperature,gyro_bias[0],gyro_bias[1],gyro_bias[2],accel_bias[0],accel_bias[1],accel_bias[2],instance_count,seq_reached,seq_current,seq_total,item_changed_index,item_do_jump_remaining,valid,warning,finished,failure,stay_in_failsafe,flight_termination,item_do_jump_changed,execution_mode,nav_roll,nav_pitch,nav_bearing,target_bearing,xtrack_error,wp_dist,acceptance_radius,rollspeed_integ,pitchspeed_integ,yawspeed_integ,additional_integ1,x,y,z,temperature.1,pressure,temperature.2,gyro_rad[0],gyro_rad[1],gyro_rad[2],accelerometer_m_s2[0],accelerometer_m_s2[1],accelerometer_m_s2[2],x.1,y.1,z.1,temperature.3,altitude_sp,altitude_filtered,height_rate_setpoint,height_rate,airspeed_sp,airspeed_filtered,airspeed_derivative_sp,airspeed_derivative,throttle_integ,pitch_integ,baro_alt_meter,baro_temp_celcius,baro_pressure_pa,rho,xyz[0],xyz[1],xyz[2],xyz[0].1,xyz[1].1,xyz[2].1,roll_body,pitch_body,yaw_body,q_d[0],q_d[1],q_d[2],q_d[3],thrust_body[0],lat,lon,alt,vel_m_s,vel_n_m_s,vel_e_m_s,vel_d_m_s,cog_rad,ground_contact,maybe_landed,landed,ref_timestamp,ref_lat,ref_lon,x.2,y.2,z.2,vx,vy,vz,ax,ay,az,dist_bottom,roll,pitch,yaw,thrust_body[0].1,timestamp.1,isTakeoff,isClimbing,isDescending,isCruise,isLand
1394,61001734,-0.011327833999999998,-0.07908636200000001,-0.032765425,0.0,0.0,1481.0,1500.0,1000.0,1507.0,1492.0,1463.0,15.57676852,15.96058492,15.46430235,15.43941272,15.81979906,16.62075668,17.03024927,147.9017784,147.9017784,11.73633719,-0.001535701,-0.005886606,8.120000000000001e-05,-0.205757545,0.18217291100000002,-0.006876359,2.0,1.625125025,2.625125025,11,0,0,1,0,0.0,0,0,0,0,0,0.44035048,-0.19323728,1.7981184730000002,1.9394026869999998,8.320593014,198.608567,45.64063405,-0.027602474,0.00101945,-0.173621092,0.0,-0.924857237,0.33851194700000004,-6.74378534,82382296.0,954.3287033,11.73589635,-0.10080022400000001,-0.125391365,0.322532909,-0.9135463840000001,0.384652627,-6.592971252999999,-0.076333098,-0.103765155,0.287929633,82382296.0,94.20376929999999,101.9329254,-3.8515467610000003,-2.451028062,15.36897678,15.63458137,-0.005312088,-0.026741297999999997,-0.1,65.10012771,502.4966296,11.73587476,95433.19913,1.1339042990000001,0.613422645,-0.651753894,-0.577963522,-0.066252108,-0.09239457400000001,0.260995767,0.441772737,-0.216399085,1.825976922,0.574318048,0.21654647800000001,0.107944865,0.78205757,0.0,398726854.0,327339325.8,502969.1046,16.0279916,2.844634927,15.76166433,-0.45796359299999995,1.3920822780000002,0,0,0.0,756000,39.871413700000005,32.7364371,103.748852,-263.6309088,-99.90528777,11.60686612,10.67588939,-0.08694533800000001,-0.147352142,0.011303297,-0.023690207999999997,99.96458532,0.013136811000000002,-0.177730532,0.407475619,0.0,61001734,0,0,1,0,0
1395,61040200,-0.012617088,-0.08292548599999999,-0.031875231000000004,0.0,0.0,1482.0,1500.0,1000.0,1505.0,1494.0,1463.0,15.53667916,15.91944732,15.44835571,15.42368383,15.8036634,16.60350171,17.01254865,147.5508029,147.5508029,11.73647387,-0.001536051,-0.005886428000000001,8.120000000000001e-05,-0.20576183399999998,0.182156316,-0.0067797940000000004,2.0,1.627725545,2.627725545,11,0,0,1,0,0.0,0,0,0,0,0,0.43925694299999996,-0.19768986600000002,1.8053296769999998,1.94098569,7.983323257,198.0755918,45.56595905,-0.027550736,0.00075974,-0.172947464,0.0,-0.9019603959999999,0.321181692,-6.868001696,82382296.0,954.3335072000001,11.73595487,-0.09881788300000001,-0.124393256,0.305562288,-0.9163478420000001,0.43207232700000003,-6.60505642,-0.06842949400000001,-0.102732307,0.272675545,82382296.0,94.04915278,101.8440697,-3.8305843339999996,-2.533146491,15.36888379,15.66424405,-0.005907201999999999,0.021829361000000002,-0.1,64.84050959,502.65125839999996,11.73592347,95431.44792,1.133883454,0.157935406,0.35930886700000003,0.238792385,-0.060114744000000005,-0.08442173300000001,0.256972766,0.43822238700000005,-0.22546593,1.83042818,0.571885248,0.218709525,0.10426872699999999,0.783734557,0.0,398726864.0,327339396.9,502987.6807,15.99421684,2.717041408,15.75228246,-0.311606321,1.399712783,0,0,0.0,756000,39.871413700000005,32.7364371,104.2253295,-263.19219580000004,-99.91079844,11.60088564,10.67783042,-0.089269695,-0.15833804,0.022458915,-0.050545172,99.97009796,0.012574223999999998,-0.17605401199999998,0.402121589,0.0,61040200,0,0,1,0,0
1396,61081332,-0.014157388,-0.07592930099999999,-0.034871433,0.0,0.0,1481.0,1500.0,1000.0,1506.0,1493.0,1463.0,15.54768081,15.93087193,15.46678518,15.4426909,15.82307365,16.61664622,17.02594762,147.7816307,147.7816307,11.73696801,-0.0015364,-0.0058862509999999995,8.120000000000001e-05,-0.205766122,0.182139721,-0.006683229000000001,2.0,1.630326065,2.630326065,11,0,0,1,0,0.0,0,0,0,0,0,0.43816340600000003,-0.20214245100000003,1.81254088,1.942568694,7.646053501,197.5426166,45.49128405,-0.027508462999999997,0.000555493,-0.17233430600000002,0.0,-0.879063555,0.303851437,-6.992218052,82382296.0,954.3383110999999,11.73601339,-0.081860614,-0.121906094,0.298419865,-0.924694454,0.431340888,-6.712134814,-0.060525891,-0.10169946,0.257421457,82382296.0,93.89453626,101.755214,-3.809621908,-2.61526492,15.3687908,15.69390672,-0.006502317,0.07040002,-0.1,64.58089147,502.4612942,11.73598302,95433.61648,1.133909261,0.23532642899999998,0.226840228,-0.298037807,-0.058929665,-0.080510414,0.23754584399999998,0.434993811,-0.217259452,1.835225235,0.571323028,0.21443498600000002,0.10602354,0.78508906,0.0,398726873.9,327339468.0,503006.2569,15.96044209,2.58944789,15.74290058,-0.16524905,1.4073432890000002,0,0,0.0,756000,39.871413700000005,32.7364371,104.6734929,-262.7790381,-99.91625429999999,11.59526718,10.67882134,-0.090739365,-0.172635485,0.034035506,-0.038146281000000004,99.97555282,0.026998433999999998,-0.16868515,0.400039339,0.0,61081332,0,0,1,0,0
1397,61121132,-0.011771142,-0.072936975,-0.035225559,0.0,0.0,1481.931986,1500.0,1000.0,1503.931986,1495.068014,1462.136027,15.44368904,15.82413636,15.48521465,15.46169797,15.84248391,16.62979073,17.039346600000002,148.0124585,148.0124585,11.73746215,-0.001536749,-0.005886073,8.120000000000001e-05,-0.20577041100000001,0.182123125,-0.006586664,2.0,1.632926585,2.632926585,11,0,0,1,0,0.0,0,0,0,0,0,0.437069869,-0.20659503699999998,1.819752083,1.9441516980000002,7.308783745,197.00964140000002,45.41660904,-0.027461645,0.000349411,-0.171667029,0.0,-0.863883677,0.29760687199999997,-7.098655084,82382296.0,954.3399950999999,11.73614991,-0.07881563400000001,-0.105761019,0.292002754,-0.921938675,0.369045571,-6.734343604,-0.055631355,-0.099157595,0.24552970899999998,82382296.0,93.73991974,101.6663583,-3.7886594810000003,-2.697383349,15.36869781,15.723569400000002,-0.007097432,0.11897067900000001,-0.1,64.32127336,502.4984692,11.73610903,95433.20886,1.133904432,-0.053077738,0.25152919,0.004447006,-0.048604837000000005,-0.080237599,0.229069948,0.434139689,-0.221486515,1.842306155,0.568134508,0.215418688,0.10516427699999999,0.787246923,0.0,398726882.2,327339538.0,503004.2224,15.93444489,2.464446889,15.73481496,-0.026669339,1.4149964259999999,0,0,0.0,756000,39.871413700000005,32.7364371,105.1123649,-262.3742666,-99.92169218,11.58976753,10.67950049,-0.091928564,-0.18801963600000002,0.045750242,-0.012865976999999999,99.98098873,0.025524461000000002,-0.17692525399999998,0.40141543799999996,0.0,61121132,0,0,1,0,0
1398,61163598,-0.012576236999999999,-0.072431676,-0.036132606,0.0,0.0,1482.0,1500.0,1000.0,1504.0,1495.0,1463.0,15.49854578,15.88042018,15.50364412,15.48070504,15.86189416,16.64293524,17.05274557,148.2432862,148.2432862,11.73795628,-0.0015370989999999999,-0.005885895,8.120000000000001e-05,-0.20577469899999998,0.18210653,-0.006490099,2.0,1.635527105,2.635527105,11,0,0,1,0,0.0,0,0,0,0,0,0.435976332,-0.211047622,1.826963286,1.945734702,6.971513989,196.4766661,45.34193404,-0.027404267000000003,0.000114015,-0.17086172600000002,0.0,-0.850220148,0.29354059600000004,-7.201598556,82382296.0,954.3410660000001,11.73630175,-0.071792993,-0.10542402599999999,0.280788743,-0.968171387,0.376057378,-6.92695686,-0.051328087,-0.096319214,0.23429864600000003,82382296.0,93.56606803,101.5539929,-3.803622273,-2.772648835,15.36864325,15.76788758,-0.007984887,0.166170227,-0.1,64.03444038,502.41807639999996,11.73625529,95434.08856,1.133914836,-0.069496063,0.21121225600000001,0.149281996,-0.0445108,-0.08029650299999999,0.224122463,0.433430306,-0.22837408899999997,1.849424455,0.564587786,0.217457653,0.103575319,0.789438906,0.0,398726889.7,327339607.4,502992.9642,15.91192839,2.340606121,15.72730946,0.108429673,1.4226596930000002,0,0,0.0,756000,39.871413700000005,32.7364371,105.55878179999999,-261.9624682,-99.92709094,11.58414788,10.68040889,-0.092930573,-0.193063937,0.055431823,0.013327761,99.98638636,0.030663981,-0.148667696,0.385740439,0.0,61163598,0,0,1,0,0
1399,61202064,-0.008399124,-0.072275338,-0.03533635,0.0,0.0,1479.981996,1500.0,1000.0,1503.981996,1495.018004,1468.018004,15.52998476,15.91247541,15.52207358,15.49971211,15.88130442,16.65607975,17.06614454,148.474114,148.474114,11.73845042,-0.0015374479999999999,-0.0058857169999999995,8.120000000000001e-05,-0.205778988,0.182089935,-0.006393534,2.0,1.638127626,2.6381276259999997,11,0,0,1,0,0.0,0,0,0,0,0,0.434882795,-0.215500208,1.83417449,1.947317705,6.634244232,195.9436909,45.26725904,-0.02735313,-0.000128839,-0.170039174,0.0,-0.83382347,0.296692289,-7.281354689,82382296.0,954.3422469000001,11.73646904,-0.067185541,-0.099662785,0.259520547,-0.921416456,0.342279096,-6.946209124,-0.048284404,-0.09411324300000001,0.224420368,82382296.0,93.38827569,101.43681120000001,-3.825944905,-2.8465103889999996,15.36859657,15.81520817,-0.008932232,0.21308888,-0.1,63.74203202,502.4263704,11.73643601,95433.99488,1.133913725,-0.359190219,-0.444530983,-0.488041915,-0.047634403,-0.080338015,0.21696773100000002,0.43611204200000003,-0.235519765,1.86005748,0.559237607,0.220382718,0.103646559,0.792427298,0.0,398726897.2,327339676.8,502981.7059,15.88941188,2.216765353,15.71980396,0.24352868600000002,1.43032296,0,0,0.0,756000,39.871413700000005,32.7364371,106.03332890000001,-261.52447140000004,-99.93234388,11.57808083,10.68217207,-0.093234669,-0.159557499,0.057533058,0.04292711,99.99164127,0.0304656,-0.140673207,0.379212789,0.0,61202064,0,0,1,0,0
1400,61236530,-0.008058988000000001,-0.073773299,-0.035501075,0.0,0.0,1479.0,1500.0,1000.0,1503.992999,1495.007001,1470.0,15.47739307,15.85875166,15.54050305,15.51871918,15.90071467,16.66922426,17.07954351,148.7049418,148.7049418,11.73894456,-0.001537797,-0.005885539,8.120000000000001e-05,-0.20578327600000001,0.18207334,-0.006296969,2.0,1.6407281459999998,2.640728146,11,0,0,1,0,0.0,0,0,0,0,0,0.43378925799999996,-0.21995279399999998,1.841385693,1.9489007090000001,6.296974476,195.4107157,45.19258404,-0.027302497000000002,-0.00035064199999999997,-0.16917764899999999,0.0,-0.8078058509999999,0.32525191600000003,-7.2794891989999995,82382296.0,954.3438151,11.73669068,-0.06520753,-0.09991862300000001,0.244785091,-0.907447991,0.37897718399999997,-7.080469951,-0.049674576,-0.094133417,0.21930401800000002,82382296.0,93.21048334,101.3196295,-3.848267537,-2.920371943,15.36854989,15.86252877,-0.009879578,0.260007533,-0.1,63.44962366,502.41502139999994,11.73663066,95434.15256,1.133915587,0.47599721,0.277587648,-0.673055781,-0.044909881,-0.079393039,0.21411569100000002,0.434405715,-0.234563402,1.86602342,0.5571718410000001,0.21922822399999997,0.10390831,0.7941611340000001,0.0,398726904.7,327339746.2,502970.4477,15.86689538,2.092924585,15.71229846,0.37862769799999996,1.437986227,0,0,0.0,756000,39.871413700000005,32.7364371,106.507876,-261.0864745,-99.93759682,11.57201379,10.68393525,-0.093538765,-0.126051061,0.059634292,0.07252646,99.99689617,0.031230577000000002,-0.143123442,0.37821233,0.0,61236530,0,0,1,0,0
1401,61278997,-0.008321188,-0.063592316,-0.039374669,0.0,0.0,1479.0,1500.0,1000.0,1505.0,1494.0,1468.0320060000001,15.47208875,15.85315797,15.55893252,15.53772625,15.92012493,16.68236877,17.09294248,148.93576950000002,148.93576950000002,11.7394387,-0.0015381470000000001,-0.0058853609999999995,8.120000000000001e-05,-0.20578756399999998,0.182056745,-0.0062004040000000005,2.0,1.643328666,2.643328666,11,0,0,1,0,0.0,0,0,0,0,0,0.43229820399999996,-0.222332744,1.847648723,1.950294854,6.012185391,194.86444450000002,45.17260953,-0.027255577000000003,-0.000533905,-0.16840280300000002,0.0,-0.781788231,0.35381154299999995,-7.277623707999999,82382296.0,954.3453832,11.73691233,-0.062685228,-0.094307951,0.233685048,-0.9403436340000001,0.351141675,-7.104369398999999,-0.051064748,-0.094153591,0.214187668,82382296.0,93.032691,101.2024478,-3.8705901689999997,-2.9942334969999997,15.36850321,15.90984936,-0.010826923,0.306926187,-0.1,63.15721529999999,502.2992795,11.73687514,95435.44039,1.13393093,-0.34480131,0.20730447,0.317354914,-0.038899094,-0.080642804,0.21433465399999999,0.43293023700000005,-0.233180893,1.872085288,0.555090878,0.217976773,0.104399892,0.7959024379999999,0.0,398726912.2,327339815.7,502959.1894,15.84437888,1.9690838169999998,15.70479296,0.51372671,1.4456494930000001,0,0,0.0,756000,39.871413700000005,32.7364371,106.9581723,-260.6704768,-99.94225391,11.56697894,10.68589854,-0.093624316,-0.147176838,0.052628725999999994,0.037945805,100.00155129999999,0.030548000000000002,-0.147270375,0.377821919,0.0,61278997,0,0,1,0,0
1402,61317462,-0.007445701999999999,-0.058151507000000005,-0.041888979,0.0,0.0,1478.9429890000001,1500.0,1000.0,1504.0,1495.0,1469.0,15.44666025,15.82714264,15.57736199,15.55673332,15.93953518,16.69551328,17.10634146,149.16659730000003,149.16659730000003,11.73993283,-0.001538496,-0.005885183,8.120000000000001e-05,-0.205791853,0.18204015,-0.006103839000000001,2.0,1.645929186,2.645929186,11,0,0,1,0,0.0,0,0,0,0,0,0.430679229,-0.224045722,1.853606632,1.951628224,5.74428455,194.3138945,45.1702376,-0.027204772999999998,-0.0007237669999999999,-0.167624144,0.0,-0.800796512,0.30996787800000003,-7.283424287999999,82382296.0,954.3450718,11.73717644,-0.051146624,-0.092314529,0.23138823100000003,-0.880390716,0.314400491,-7.173554835,-0.048801937999999996,-0.09287402800000001,0.213476255,82382296.0,92.85489866,101.0852661,-3.892912801,-3.0680950510000002,15.36845652,15.95716995,-0.011774268999999999,0.35384484,-0.1,62.86480694,502.4747606000001,11.73713946,95433.46195,1.133907317,-0.048086022,-0.45586335,-0.079400086,-0.038147387000000005,-0.075897986,0.219595316,0.43002379,-0.23543702600000002,1.876667354,0.553312747,0.217799618,0.103071255,0.797359686,0.0,398726919.0,327339886.1,502937.9626,15.82525298,1.845243049,15.701356200000001,0.649503857,1.4533719269999998,0,0,0.0,756000,39.871413700000005,32.7364371,107.3965273,-260.2653118,-99.94661759,11.56245236,10.68796037,-0.093602251,-0.195204214,0.041138854,-0.028237902000000002,100.005911,0.031804063,-0.144959005,0.374600561,0.0,61317462,0,0,1,0,0
1403,61351928,-0.010081533,-0.061578432999999995,-0.041228894,0.0,0.0,1477.0,1500.0,1000.0,1504.0,1495.0,1473.082016,15.46964956,15.85067266,15.59579145,15.57574039,15.95894543,16.7086578,17.11974043,149.3974251,149.3974251,11.74042697,-0.001538845,-0.005885005,8.120000000000001e-05,-0.20579614100000002,0.182023555,-0.0060072730000000005,2.0,1.648529706,2.648529706,11,0,0,1,0,0.0,0,0,0,0,0,0.429060254,-0.22575869899999998,1.85956454,1.952961594,5.476383708999999,193.7633446,45.16786567,-0.027156372999999998,-0.000897563,-0.166928247,0.0,-0.848993997,0.21918690600000001,-7.2941945960000005,82382296.0,954.3435419,11.73746807,-0.047321224,-0.093066429,0.221251345,-0.8908616979999999,0.310684085,-7.253830045,-0.04417099,-0.09075187800000001,0.215620457,82382296.0,92.68508342,100.9682689,-3.918165694,-3.131442578,15.36837058,16.00912196,-0.012815028000000001,0.394321711,-0.1,62.5926628,502.22171900000006,11.73745993,95436.33829,1.13394151,-0.089017162,-0.259428861,0.164275792,-0.032489036,-0.079954915,0.220745233,0.427227886,-0.24149614100000003,1.8812637859999999,0.551059698,0.219120929,0.100660874,0.7988647590000001,0.0,398726924.4,327339958.3,502899.1216,15.81211817,1.72140228,15.70510877,0.786479241,1.461198908,0,0,0.0,756000,39.871413700000005,32.7364371,107.839472,-259.8558429,-99.95105668,11.55770067,10.68996531,-0.09358056199999999,-0.233946751,0.033952838,-0.08079638900000001,100.0103467,0.035095692000000005,-0.11974384,0.36076082200000004,0.0,61351928,0,0,1,0,0
1404,61390394,-0.00822908,-0.061584132,-0.041992947,0.0,0.0,1476.0,1500.0,1000.0,1503.0,1496.0,1474.107021,15.44823939,15.82869311,15.61422092,15.59474746,15.97835569,16.72180231,17.133139399999997,149.6282528,149.6282528,11.74092111,-0.001539195,-0.005884827,8.120000000000001e-05,-0.20580043,0.18200696,-0.005910708000000001,2.0,1.651130226,2.651130226,11,0,0,1,0,0.0,0,0,0,0,0,0.42744128,-0.22747167699999998,1.865522449,1.954294965,5.208482868,193.2127946,45.16549374,-0.027104415,-0.001062211,-0.166202931,0.0,-0.897191482,0.128405934,-7.304964905,82382296.0,954.342012,11.73775971,-0.051719633,-0.092496712,0.218454598,-0.9391425529999999,0.239078615,-7.2626835970000005,-0.039540041,-0.088629729,0.217764658,82382296.0,92.52270473,100.8514438,-3.9461502889999998,-3.1849885280000003,15.36824804,16.06539156,-0.013942871,0.42879330600000004,-0.1,62.33940975,502.3829563,11.73778529,95434.48664,1.1339195709999998,0.18156624899999999,0.8981327590000001,0.370603174,-0.035054353999999996,-0.073511169,0.227320121,0.42451402299999996,-0.248187109,1.88588201,0.548709484,0.220718561,0.09810423900000001,0.800360016,0.0,398726929.8,327340030.6,502860.2807,15.79898335,1.597561512,15.70886133,0.9234546240000001,1.4690258880000002,0,0,0.0,756000,39.871413700000005,32.7364371,108.3135116,-259.4172164,-99.95600664,11.5514239,10.69158487,-0.093561409,-0.209787253,0.055924162,-0.041048055,100.01529659999999,0.034278837,-0.1159913,0.355344675,0.0,61390394,0,0,1,0,0
1405,61424861,-0.009773657,-0.052266859000000006,-0.045691152,0.0,0.0,1475.867974,1500.0,1000.0,1504.0,1495.0,1475.0,15.39810986,15.77730951,15.63265039,15.61375453,15.99776594,16.73494682,17.14653837,149.8590806,149.8590806,11.74141524,-0.001539544,-0.0058846490000000005,8.120000000000001e-05,-0.205804718,0.181990365,-0.005814143000000001,2.0,1.653730746,2.653730746,11,0,0,1,0,0.0,0,0,0,0,0,0.425822305,-0.229184655,1.8714803569999998,1.955628335,4.940582027,192.6622446,45.16312181,-0.027059396,-0.001187813,-0.165595765,0.0,-0.857424746,0.124761386,-7.339812086,82382296.0,954.3592282,11.73822534,-0.04339421,-0.08952599900000001,0.216674135,-0.949164474,0.203260053,-7.176927184,-0.033484296000000004,-0.08729004,0.22748872399999998,82382296.0,92.36032604,100.7346186,-3.974134883,-3.238534477,15.36812549,16.12166116,-0.015070713999999999,0.46326490200000003,-0.1,62.086156700000004,502.2531281,11.73814786,95435.98401,1.133937435,0.526969046,0.21250957199999998,0.135786467,-0.026869702999999998,-0.067712816,0.233669675,0.424517893,-0.239128392,1.893401018,0.546779252,0.21685079399999999,0.10159723,0.802299923,0.0,398726935.3,327340102.8,502821.4397,15.78584854,1.473720744,15.71261389,1.060430008,1.476852869,0,0,0.0,756000,39.871413700000005,32.7364371,108.78755109999999,-258.97859,-99.9609566,11.54514712,10.69320443,-0.09354225599999999,-0.185627756,0.077895487,-0.00129972,100.0202466,0.035196535,-0.114220476,0.35123872,0.0,61424861,0,0,1,0,0
1406,61467326,-0.007853895,-0.049063385,-0.047219455,0.0,0.0,1476.0,1500.0,1000.0,1504.0,1495.0,1474.0,15.51670534,15.8988644,15.65107986,15.6327616,16.017176199999998,16.74809133,17.15993734,150.0899084,150.0899084,11.74190938,-0.0015398929999999999,-0.005884471,8.120000000000001e-05,-0.205809007,0.18197377,-0.005717578,2.0,1.656331266,2.656331266,11,0,0,1,0,0.0,0,0,0,0,0,0.42420333,-0.230897632,1.877438266,1.956961705,4.672681186,192.1116947,45.16074988,-0.027012717000000002,-0.001335675,-0.164989274,0.0,-0.8169624590000001,0.12180584400000001,-7.374849649,82382296.0,954.3765926000001,11.73869234,-0.041728806,-0.093519768,0.21055717100000002,-0.855545868,0.22336185,-7.297182015,-0.027417286000000003,-0.08595653800000001,0.237272725,82382296.0,92.19794735,100.6177934,-4.002119478,-3.2920804269999997,15.36800295,16.17793075,-0.016198557,0.49773649700000006,-0.1,61.83290365,502.2160431,11.73853732,95436.41485,1.133942518,-0.18056777100000002,0.252245515,0.613359884,-0.02308393,-0.058770245,0.236263534,0.421786851,-0.23920709699999998,1.8980302980000001,0.545206733,0.21590088300000002,0.10097840699999999,0.803703602,0.0,398726940.7,327340175.1,502782.5987,15.77271372,1.349879976,15.71636646,1.197405392,1.4846798490000002,0,0,0.0,756000,39.871413700000005,32.7364371,109.24011259999999,-258.5593067,-99.96581414,11.53901452,10.69532143,-0.093528045,-0.17638142,0.06737119400000001,0.020775787,100.02510649999999,0.038256463,-0.11850601699999999,0.35092975299999996,0.0,61467326,0,0,1,0,0
1407,61505793,-0.009242727,-0.049222842999999995,-0.047886118,0.0,0.0,1474.0,1500.0,1000.0,1502.817964,1496.182036,1479.0,15.47095828,15.85189416,15.66950933,15.65176867,16.03658645,16.76123584,17.17333631,150.3207361,150.3207361,11.74240352,-0.001540243,-0.0058842930000000005,8.13e-05,-0.205813295,0.18195717399999997,-0.005621013,2.0,1.658931786,2.658931786,11,0,0,1,0,0.0,0,0,0,0,0,0.422584355,-0.23261061,1.883396174,1.958295076,4.404780345,191.5611447,45.15837795,-0.026963904,-0.001511451,-0.164361438,0.0,-0.8137544059999999,0.13288665300000002,-7.439560183999999,82382296.0,954.3897975,11.73915487,-0.046245136,-0.09397075699999999,0.220475232,-0.8301834640000001,0.152698934,-7.361854148,-0.024057176,-0.081613633,0.24300435899999998,82382296.0,92.03556866,100.5009682,-4.030104073,-3.3456263760000002,15.36788041,16.23420035,-0.017326401,0.5322080920000001,-0.1,61.57965061,502.02416789999995,11.73895428,95438.57365,1.133968123,0.519707281,0.051889363,0.31690886,-0.024139089,-0.05802681,0.24216517699999998,0.419062725,-0.24586066199999998,1.902661533,0.542849594,0.21750787600000002,0.09843806,0.8051791979999999,0.0,398726946.1,327340247.3,502742.9536,15.75993899,1.226159232,15.72005902,1.333480597,1.4924994980000001,0,0,0.0,756000,39.871413700000005,32.7364371,109.6775743,-258.1536223,-99.97060671,11.53298328,10.69778815,-0.093517307,-0.177619489,0.034001498,0.03042676,100.029903,0.037170373,-0.09312263,0.33767826799999995,0.0,61505793,0,0,1,0,0
1408,61548519,-0.008524275999999999,-0.050914535,-0.047748185,0.0,0.0,1473.0,1500.0,1000.0,1503.0,1496.0,1479.2070410000001,15.50368652,15.88533061,15.68793879,15.67077573,16.0559967,16.77438035,17.18673529,150.5515639,150.5515639,11.74289765,-0.0015405920000000001,-0.005884115,8.13e-05,-0.205817583,0.181940579,-0.005524448,2.0,1.661532306,2.661532306,11,0,0,1,0,0.0,0,0,0,0,0,0.420965381,-0.234323588,1.8893540830000002,1.959628446,4.1368795039999995,191.0105948,45.15600602,-0.026923832999999998,-0.001649979,-0.163864346,0.0,-0.871948763,0.167102167,-7.553177695,82382296.0,954.3961466,11.73961002,-0.036153233,-0.095007792,0.22191824899999998,-0.90091376,0.092868534,-7.302086987000001,-0.025158577,-0.072310634,0.242056885,82382296.0,91.86789153,100.3787878,-4.058409848999999,-3.397793053,15.36776018,16.2896201,-0.0184372,0.565908819,-0.1,61.32192949,502.04297879999996,11.73940772,95438.39235,1.133966009,0.135930671,0.22570800600000002,-0.32934922,-0.022931464,-0.047877122,0.243003512,0.416863198,-0.25171945100000004,1.90797459,0.540250393,0.218926695,0.09642267199999999,0.8067843709999999,0.0,398726949.3,327340317.8,502678.9692,15.75806281,1.106071214,15.72193558,1.442310381,1.5000972419999998,0,0,0.0,756000,39.871413700000005,32.7364371,110.1166601,-257.7463912,-99.97539568,11.526898300000001,10.700286300000002,-0.09345949199999999,-0.179610561,0.0044327459999999996,0.040109072,100.03469559999999,0.038168682999999995,-0.082805828,0.3308798,0.0,61548519,0,0,1,0,0
1409,61590725,-0.006281696,-0.041371697,-0.051582823,0.0,0.0,1473.0,1500.0,1000.0,1504.0,1495.0,1480.0,15.42776303,15.80750894,15.70636826,15.689782800000001,16.07540696,16.78752486,17.20013426,150.78239169999998,150.78239169999998,11.74339179,-0.001540941,-0.005883937,8.13e-05,-0.205821872,0.18192398399999998,-0.0054278830000000005,2.0,1.664132827,2.664132827,11,0,0,1,0,0.0,0,0,0,0,0,0.419346406,-0.236036566,1.895311992,1.960961816,3.868978663,190.46004480000002,45.15363409,-0.02687895,-0.001767744,-0.16340231,0.0,-0.93014312,0.20131768,-7.666795207000001,82382296.0,954.4024957,11.74006516,-0.031879492999999995,-0.080773392,0.22603484199999999,-0.8765033659999999,0.210005058,-7.362397896,-0.026259978,-0.063007635,0.24110941,82382296.0,91.67967948,100.2358526,-4.087960411,-3.444614156,15.36764893,16.34174611,-0.019481945,0.596621931,-0.1,61.04689169,501.93294360000004,11.73986695,95439.66913,1.1339812120000001,0.472870422,-0.029148384,0.44190676700000003,-0.01792872,-0.046664965999999995,0.243930969,0.416210752,-0.245479833,1.914803015,0.538303825,0.215988905,0.098712781,0.80859703,0.0,398726952.5,327340388.4,502614.9848,15.75618662,0.985983197,15.72381214,1.551140166,1.507694986,0,0,0.0,756000,39.871413700000005,32.7364371,110.58961550000001,-257.3069031,-99.98010956,11.51969252,10.70344003,-0.09241986,-0.197305923,0.054134795,0.050444949,100.0394075,0.036898797000000004,-0.089851797,0.331022908,0.0,61590725,0,0,1,0,0
1410,61629191,-0.007340544,-0.039693553,-0.052245964000000006,0.0,0.0,1473.0,1500.0,1000.0,1503.0,1496.0,1480.0,15.55533697,15.93813145,15.72479773,15.70878987,16.09481721,16.80066937,17.21353323,151.01321940000003,151.01321940000003,11.74388593,-0.001541291,-0.0058837590000000006,8.13e-05,-0.20582616,0.18190738899999997,-0.005331318000000001,2.0,1.6667333469999999,2.666733347,11,0,0,1,0,0.0,0,0,0,0,0,0.41772743100000004,-0.237749543,1.9012699,1.962295186,3.6010778219999997,189.9094949,45.15126216,-0.026831037999999998,-0.001910217,-0.16291008099999998,0.0,-0.95858495,0.17514153,-7.743512451,82382296.0,954.4095541000002,11.74055621,-0.026353337,-0.077573541,0.23124995199999998,-0.9226260340000001,0.149503316,-7.436979453999999,-0.022780065,-0.060786272,0.242127056,82382296.0,91.49146743,100.0929174,-4.117510973,-3.4914352589999997,15.36753769,16.39387213,-0.02052669,0.627335044,-0.1,60.771853899999996,501.91662879999996,11.74038133,95439.85445,1.13398339,-0.46086279700000005,0.255607108,0.356251056,-0.01754017,-0.040524309,0.242935028,0.41335224200000004,-0.24442762,1.9194371909999999,0.53686178,0.214582765,0.09836015199999999,0.80997422,0.0,398726955.7,327340458.9,502551.0004,15.75431043,0.865895179,15.72568871,1.6599699509999999,1.515292729,0,0,0.0,756000,39.871413700000005,32.7364371,111.06257099999999,-256.8674149,-99.98482343,11.51248675,10.70659376,-0.091380227,-0.215001286,0.10383684300000001,0.060780825999999996,100.0441194,0.041567527,-0.090954931,0.330243335,0.0,61629191,0,0,1,0,0
1411,61663658,-0.008258689,-0.039189577999999996,-0.052849728,0.0,0.0,1473.0,1500.0,1000.0,1503.0,1496.0,1478.282056,15.61687235,16.00124659,15.7432272,15.72779694,16.11422747,16.81381388,17.2269322,151.24404719999998,151.24404719999998,11.74438006,-0.00154164,-0.005883581999999999,8.13e-05,-0.205830449,0.181890794,-0.005234753,2.0,1.669333867,2.6693338669999997,11,0,0,1,0,0.0,0,0,0,0,0,0.41610845700000004,-0.239462521,1.907227809,1.9636285569999998,3.3331769810000003,189.3589449,45.14889023,-0.026785557,-0.00206188,-0.162441154,0.0,-0.977789019,0.130214574,-7.808772656,82382296.0,954.4168325999999,11.7410584,-0.033872211,-0.071536193,0.236622301,-0.896587948,0.119582375,-7.4838933579999996,-0.017877715,-0.060763662999999996,0.243754845,82382296.0,91.30325539,99.94998211,-4.147061536,-3.538256362,15.36742644,16.44599815,-0.021571435,0.658048156,-0.1,60.49681611,501.93174689999995,11.74090723,95439.67188,1.133981224,-0.867674518,0.022715211000000003,0.17376656399999998,-0.016235858,-0.038718441,0.24181995399999998,0.41056101799999994,-0.24772908,1.924070274,0.5348956810000001,0.214899724,0.096774162,0.811381219,0.0,398726958.9,327340529.5,502487.016,15.75243424,0.7458071609999999,15.72756527,1.7687997359999998,1.5228904730000001,0,0,0.0,756000,39.871413700000005,32.7364371,111.5169585,-256.4445739,-99.9893726,11.50578203,10.70955917,-0.090761218,-0.21705241100000003,0.10297377099999999,0.057292262000000004,100.04866659999999,0.040551002999999995,-0.069535002,0.318551097,0.0,61663658,0,0,1,0,0
1412,61704247,-0.0071334580000000005,-0.040730516,-0.052526431,0.0,0.0,1472.0,1500.0,1000.0,1504.0,1495.0,1483.0,15.45428369,15.834608300000001,15.76165667,15.74680401,16.13363772,16.82695839,17.24033117,151.474875,151.474875,11.7448742,-0.001541989,-0.005883404,8.13e-05,-0.205834737,0.181874199,-0.005138187,2.0,1.6719343869999999,2.671934387,11,0,0,1,0,0.0,0,0,0,0,0,0.414489482,-0.241175499,1.913185717,1.9649619269999998,3.06527614,188.808395,45.14651829,-0.02673456,-0.002205512,-0.16198842800000002,0.0,-0.9909805490000001,0.08671601599999999,-7.878827353999999,82382296.0,954.4253348,11.74157093,-0.017440788,-0.06976249,0.24590623399999997,-0.8460791129999999,0.226585228,-7.619949892,-0.014605571999999999,-0.058938454,0.244407862,82382296.0,91.11504334,99.80704686,-4.1766120980000006,-3.585077465,15.36731519,16.49812416,-0.02261618,0.688761269,-0.1,60.22177832,501.7204266,11.74144332,95442.06873,1.1340096929999999,-0.331959881,0.366272471,0.045503617999999996,-0.020558963,-0.02587469,0.234088651,0.409526021,-0.253544586,1.9304664130000002,0.5317233029999999,0.216593958,0.095372477,0.8131780390000001,0.0,398726962.1,327340600.0,502423.0316,15.75055806,0.625719144,15.72944183,1.87762952,1.5304882169999998,0,0,0.0,756000,39.871413700000005,32.7364371,111.9530962,-256.0380946,-99.99375989,11.49956979,10.7123395,-0.090555624,-0.203727397,0.052412115999999995,0.040216168,100.05305190000001,0.04046102,-0.07072958900000001,0.314345604,0.0,61704247,0,0,1,0,0
1413,61748589,-0.006485075,-0.041787877,-0.052557893,0.0,0.0,1471.0,1500.0,1000.0,1504.0,1495.0,1485.0,15.57734274,15.9604464,15.78008613,15.76581108,16.15304797,16.840102899999998,17.25373015,151.7057027,151.7057027,11.74536834,-0.001542339,-0.005883226,8.13e-05,-0.205839025,0.18185760399999998,-0.005041622,2.0,1.674534907,2.674534907,11,0,0,1,0,0.0,0,0,0,0,0,0.41287050700000005,-0.24288847600000002,1.9191436259999999,1.9662952969999998,2.7973752989999996,188.257845,45.14414636,-0.026689072,-0.002326,-0.161576194,0.0,-0.9697058409999999,0.051405587999999995,-7.976365974,82382296.0,954.4408519,11.74214274,-0.027373933,-0.07535436599999999,0.243313554,-0.948140665,0.011210426,-7.701818472,-0.020678411,-0.046780033,0.23947310100000002,82382296.0,90.92683129,99.66411162,-4.2061626610000005,-3.631898568,15.36720394,16.55025018,-0.023660925,0.7194743809999999,-0.1,59.94674053,501.62188430000003,11.74202347,95443.19838,1.134023139,-0.061960981,0.738084642,0.225495267,-0.018154444,-0.020364913999999998,0.230983324,0.407761033,-0.255760269,1.936206853,0.529315341,0.21672109899999997,0.09463892,0.814797916,0.0,398726963.8,327340669.9,502347.05100000004,15.75527305,0.5122224439999999,15.74054598,1.978549684,1.53783288,0,0,0.0,756000,39.871413700000005,32.7364371,112.38923390000002,-255.63161540000002,-99.99814718,11.49335755,10.71511982,-0.09035003,-0.190402383,0.0018504620000000002,0.023140074,100.0574373,0.038370005,-0.067420787,0.309536558,0.0,61748589,0,0,1,0,0
1414,61783056,-0.008211111,-0.033462635,-0.055638788,0.0,0.0,1472.0,1500.0,1000.0,1503.0,1496.0,1483.0,15.63564173,16.02035665,15.798515599999998,15.78481815,16.17245823,16.85324742,17.26712912,151.9365305,151.9365305,11.74586247,-0.0015430770000000001,-0.005883195999999999,8.149999999999999e-05,-0.20585148600000003,0.181846772,-0.004952484,2.0,1.6771354269999998,2.677135427,11,0,0,1,0,0.0,0,0,0,0,0,0.41063294899999997,-0.243847725,1.924349696,1.967515052,2.5626612019999997,187.6903783,45.18266202,-0.026648302000000002,-0.002444957,-0.161198905,0.0,-0.9484311329999999,0.016095161,-8.073904595,82382296.0,954.456369,11.74271454,-0.024688917999999997,-0.059970634,0.244112379,-0.92454811,0.11909241400000001,-7.75649368,-0.026751251,-0.034621612,0.23453833899999998,82382296.0,90.75303317,99.52847306,-4.226554248999999,-3.6654806389999997,15.3671263,16.59877809,-0.024633035,0.741065744,-0.1,59.70608981,501.46168660000006,11.74263843,95445.04026000001,1.134044969,0.291418538,0.824672678,-0.03486727,-0.018225355,-0.01239152,0.22416862899999998,0.404993428,-0.249675707,1.940825597,0.528446279,0.21337773699999998,0.095745173,0.816116827,0.0,398726964.9,327340739.5,502265.9916,15.76277856,0.40151630299999996,15.75555679,2.07612116,1.545070397,0,0,0.0,756000,39.871413700000005,32.7364371,112.85936090000001,-255.1926551,-100.0029512,11.48652357,10.71725605,-0.09001278900000001,-0.175245008,-0.022435731,0.015086493999999999,100.0622431,0.041154475,-0.072021595,0.310322737,0.0,61783056,0,0,1,0,0
1415,61817521,-0.008382937,-0.029827793999999998,-0.056696116,0.0,0.0,1472.0,1500.0,1000.0,1503.0,1496.0,1482.0,15.59271771,15.97603301,15.81694507,15.80382522,16.19186848,16.86639193,17.28052809,152.16735830000002,152.16735830000002,11.74635661,-0.001544008,-0.005883239,8.190000000000001e-05,-0.20586796899999998,0.181838776,-0.004867001,2.0,1.679735947,2.6797359469999997,11,0,0,1,0,0.0,0,0,0,0,0,0.408090931,-0.244435999,1.929185722,1.9686788880000001,2.344281207,187.11458530000002,45.24130204,-0.026599058999999998,-0.0025991589999999998,-0.160743699,0.0,-0.968518187,-0.002461148,-8.200379936000001,82382296.0,954.4688162999998,11.7434048,-0.024448634,-0.053208777,0.243960409,-0.990323627,0.151717637,-7.879031632,-0.028086307,-0.028673949,0.229135297,82382296.0,90.58096815,99.39371185,-4.245844579,-3.697470875,15.3670527,16.64687337,-0.025596411,0.761560325,-0.1,59.46957372,501.32576780000005,11.74324283,95446.57765,1.134063238,0.146620453,-0.326385651,-0.029235321,-0.013861038999999999,-0.013176583,0.220325893,0.40220431,-0.24905689,1.94543941,0.526930763,0.212177668,0.09527308300000001,0.817463435,0.0,398726966.0,327340809.1,502184.9322,15.77028406,0.290810162,15.77056761,2.173692637,1.552307915,0,0,0.0,756000,39.871413700000005,32.7364371,113.330798,-254.75244300000003,-100.0077713,11.47966563,10.71936745,-0.089670475,-0.16001700800000002,-0.045709194,0.007380666,100.0670652,0.04172529,-0.071948264,0.30737638899999997,0.0,61817521,0,0,1,0,0
1416,61855988,-0.00732272,-0.032748689,-0.055480685,0.0,0.0,1470.0,1500.0,1000.0,1503.0,1496.0,1487.0,15.53644849,15.91833624,15.83537454,15.82283229,16.21127874,16.87953644,17.29392706,152.398186,152.398186,11.74685075,-0.0015449379999999998,-0.0058832830000000004,8.22e-05,-0.205884452,0.18183078,-0.004781518,2.0,1.6823364669999998,2.682336467,11,0,0,1,0,0.0,0,0,0,0,0,0.40554891299999996,-0.245024272,1.9340217469999998,1.9698427230000002,2.125901211,186.5387923,45.29994206,-0.026554697999999998,-0.0027273159999999996,-0.16033308400000001,0.0,-1.0247005679999999,-0.006396576,-8.352107597,82382296.0,954.4785847999999,11.74419844,-0.017550934,-0.051033104,0.243868793,-0.983690196,0.10758907,-7.943639132,-0.025286822,-0.028146251,0.22332359699999998,82382296.0,90.40890313,99.25895063,-4.26513491,-3.72946111,15.3669791,16.69496866,-0.026559787999999997,0.7820549059999999,-0.1,59.23305763,501.2732871,11.74388316,95447.21128999999,1.1340707620000001,-0.241678499,0.20937162,-0.37028653100000003,-0.00932995,-0.0095508,0.213678397,0.40224928600000004,-0.254070637,1.95287514,0.5232989579999999,0.213817098,0.094662841,0.819438384,0.0,398726967.2,327340878.7,502103.8728,15.77778956,0.180104021,15.78557842,2.271264114,1.559545432,0,0,0.0,756000,39.871413700000005,32.7364371,113.7867923,-254.3263233,-100.0125792,11.47299293,10.72130142,-0.089231912,-0.15331154,-0.058672783,0.026280624,100.071874,0.039514648,-0.052777658,0.296070158,0.0,61855988,0,0,1,0,0
1417,61898454,-0.00720801,-0.034138204,-0.055362783,0.0,0.0,1470.0,1500.0,1000.0,1503.0,1496.0,1488.0,15.64451513,16.028872,15.85380401,15.84183936,16.23068899,16.89268095,17.30732603,152.6290138,152.6290138,11.74734488,-0.001545868,-0.0058833259999999995,8.25e-05,-0.20590093399999998,0.181822784,-0.004696035,2.0,1.684936987,2.684936987,11,0,0,1,0,0.0,0,0,0,0,0,0.403006895,-0.245612545,1.938857772,1.971006558,1.907521216,185.9629993,45.35858208,-0.026515885,-0.002831842,-0.159956479,0.0,-1.08088295,-0.010332003000000001,-8.503835257,82382296.0,954.4883532,11.74499208,-0.019858602,-0.041962862000000004,0.240948522,-1.037755918,0.126911747,-8.072250965,-0.022487338,-0.027618552999999997,0.21751189699999998,82382296.0,90.2368381,99.12418942,-4.284425241,-3.761451345,15.3669055,16.74306394,-0.027523165,0.8025494870000001,-0.1,58.99654155,501.1702614,11.74456519,95448.3492,1.134084281,-0.070569322,0.079773469,-0.615578474,-0.013526941,-0.0018089870000000002,0.203577929,0.39958507600000004,-0.258131245,1.957499059,0.521213701,0.21451235,0.09291962,0.820783706,0.0,398726968.3,327340948.4,502022.8134,15.78529506,0.06939788,15.80058924,2.368835591,1.566782949,0,0,0.0,756000,39.871413700000005,32.7364371,114.22158780000001,-253.91954900000002,-100.0173702,11.4665745,10.7229918,-0.088661226,-0.158305277,-0.057483611,0.081703361,100.0766646,0.044302952,-0.047120493,0.290877286,0.0,61898454,0,0,1,0,0
1418,61932920,-0.007568361,-0.024742128999999998,-0.058407212,0.0,0.0,1470.0,1500.0,1000.0,1503.0,1496.0,1486.542909,15.71818141,16.10441746,15.87223347,15.86084643,16.25009924,16.90582546,17.320725,152.8598416,152.8598416,11.74783902,-0.001546799,-0.00588337,8.290000000000001e-05,-0.205917417,0.18181478899999998,-0.004610552,2.0,1.6875375080000001,2.687537508,11,0,0,1,0,0.0,0,0,0,0,0,0.40046487799999997,-0.24620081800000002,1.943693797,1.9721703940000002,1.68914122,185.3872064,45.417222100000004,-0.026473825,-0.00295249,-0.159529394,0.0,-1.051557249,-0.007307147,-8.580198911,82382296.0,954.4962297000001,11.74567846,-0.025603675,-0.035677383,0.234711427,-0.977364687,0.11486780099999999,-8.03011444,-0.019534621000000002,-0.021892752999999997,0.209481643,82382296.0,90.06477308,98.9894282,-4.303715571000001,-3.79344158,15.366831900000001,16.79115923,-0.028486541,0.823044068,-0.1,58.76002546,501.12207,11.74524648,95448.914,1.134091,0.008969902,-0.14760959699999998,-0.6220288970000001,-0.017329327,4.26e-05,0.201838497,0.396850549,-0.248922123,1.9620819,0.520689806,0.209930698,0.094872754,0.8220765040000001,0.0,398726968.5,327341019.1,501932.9322,15.79630126,-0.048309662,15.81209942,2.462906388,1.5743259580000002,0,0,0.0,756000,39.871413700000005,32.7364371,114.65638340000001,-253.51277459999997,-100.02216120000001,11.46015608,10.72468219,-0.088090541,-0.16329901300000002,-0.056294439,0.137126099,100.08145520000001,0.042049304,-0.052711772999999996,0.290440844,0.0,61932920,0,0,1,0,0
1419,61975386,-0.005902821999999999,-0.023883205,-0.058601130999999994,0.0,0.0,1470.0,1500.0,1000.0,1502.5179039999998,1496.4820960000002,1486.0,15.70286335,16.08866382,15.89066294,15.879853500000001,16.2695095,16.91896997,17.33412398,153.09066930000003,153.09066930000003,11.74833316,-0.0015477289999999999,-0.0058834130000000005,8.32e-05,-0.2059339,0.181806793,-0.0045250690000000005,2.0,1.690138028,2.6901380280000002,11,0,0,1,0,0.0,0,0,0,0,0,0.39792286,-0.24678909100000002,1.948529823,1.973334229,1.470761225,184.81141340000002,45.47586211,-0.026423908,-0.003099259,-0.159040191,0.0,-1.014741079,-0.0036725720000000002,-8.649960711,82382296.0,954.5039403999999,11.74635544,-0.015095651000000002,-0.031309909,0.22787036,-0.9697235040000001,0.035427976,-8.206749345,-0.016568481,-0.015711601999999998,0.201257044,82382296.0,89.89036722,98.85124944,-4.320146627,-3.82119226,15.36674322,16.84160245,-0.02949718,0.8404704040000001,-0.1,58.52879768,501.07396860000006,11.74593002,95449.48041,1.134097782,0.0371462,0.24803503899999998,-0.471263073,-0.015415446000000001,-0.0028170170000000002,0.193992345,0.39637396399999997,-0.25014971,1.9688481580000001,0.517813948,0.209973386,0.09504303900000001,0.8238597670000001,0.0,398726967.2,327341091.7,501828.2304,15.81318864,-0.177779556,15.81772855,2.551096045,1.582382194,0,0,0.0,756000,39.871413700000005,32.7364371,115.12226899999999,-253.0762731,-100.02772890000001,11.45414314,10.72647109,-0.087092344,-0.15448599,-0.008831333,0.138824212,100.0870232,0.041296543,-0.055073057,0.288536155,0.0,61975386,0,0,1,0,0
1420,62009852,-0.007656601999999999,-0.024984687999999998,-0.058108001,0.0,0.0,1469.0,1500.0,1000.0,1503.0,1496.0,1489.0,15.74324431,16.129971599999998,15.90909241,15.89886057,16.28891975,16.93211448,17.34752295,153.3214971,153.3214971,11.74882729,-0.001548659,-0.005883456,8.36e-05,-0.20595038300000001,0.18179879699999998,-0.004439586,2.0,1.6927385480000001,2.692738548,11,0,0,1,0,0.0,0,0,0,0,0,0.395380842,-0.247377364,1.953365848,1.974498064,1.252381229,184.23562040000002,45.53450213,-0.026385519,-0.00320755,-0.158659628,0.0,-0.9948581590000001,0.0036761090000000003,-8.701110712,72774600.12,954.5169212999999,11.74704665,-0.018652985,-0.031456607000000004,0.228927957,-0.9749178690000001,0.08698450199999999,-8.29082138,-0.014887322,-0.011074751,0.19496856899999998,72774600.12,89.71426789,98.71059827,-4.334509159,-3.8458758630000003,15.36664364,16.89374428,-0.030542011,0.855677039,-0.1,58.30139568,500.944949,11.746659800000002,95450.95903,1.13411529,-0.09570859400000001,0.17242100100000002,0.095085966,-0.013987233,0.006415436,0.195887532,0.39439335299999995,-0.25322638399999997,1.974055165,0.51552113,0.21044323399999998,0.09391587900000001,0.825306413,0.0,398726965.9,327341164.3,501723.5287,15.83007602,-0.30724945,15.82335767,2.639285702,1.59043843,0,0,0.0,756000,39.871413700000005,32.7364371,115.5923935,-252.63571859999996,-100.03340240000001,11.44818548,10.72827342,-0.08603586199999999,-0.14379059,0.044940640999999996,0.133197652,100.0926972,0.030410635,-0.041731241,0.273183197,0.0,62009852,0,0,1,0,0
1421,62052318,-0.00608403,-0.026923401,-0.05854582,0.0,0.0,1468.0,1500.0,1000.0,1505.0,1494.0,1489.0,15.838811699999999,16.22781944,15.93177726,15.92221929,16.31277671,16.95103043,17.36682277,153.7030363,153.7030363,11.74942081,-0.00154959,-0.0058835,8.39e-05,-0.205966865,0.181790802,-0.004354103,2.0,1.6953390680000002,2.695339068,11,0,0,1,0,0.0,0,0,0,0,0,0.392838824,-0.247965637,1.9582018730000001,1.9756619,1.034001233,183.6598274,45.59314215,-0.026344545,-0.0033048709999999996,-0.15826721,0.0,-1.0135760759999999,0.019491427,-8.70983347,41265312.76,954.5419162000001,11.7477703,-0.021618441000000002,-0.02746477,0.223594341,-0.9556941859999999,0.024603266000000002,-8.335373785,-0.016135391000000002,-0.009958266,0.193093658,41265312.76,89.53816855,98.5699471,-4.3488716919999995,-3.8705594660000004,15.36654407,16.94588611,-0.031586841000000004,0.8708836740000001,-0.1,58.07399369,500.7268321,11.74739055,95453.4273,1.134144638,-0.13711315300000002,-0.505313762,-0.347386971,-0.016190846000000002,0.00422429,0.19014603100000002,0.39169751,-0.256447615,1.978594856,0.5135594529999999,0.21082424600000002,0.09238509800000001,0.826604355,0.0,398726964.6,327341236.9,501618.82700000005,15.84696339,-0.436719344,15.828986800000001,2.727475358,1.598494666,0,0,0.0,756000,39.871413700000005,32.7364371,116.0502504,-252.20649900000004,-100.0389502,11.44215614,10.73001566,-0.08501078,-0.13720117099999998,0.071186315,0.127889723,100.09824509999999,0.031233565,-0.037352787,0.269643768,0.0,62052318,0,0,1,0,0
1422,62089569,-0.006411177,-0.02228938,-0.060130987999999996,0.0,0.0,1468.0,1500.0,1000.0,1504.5571109999998,1494.4428890000002,1488.4428890000002,15.83311473,16.22178627,15.96858227,15.96001758,16.35138863,16.98909706,17.40570268,154.5846637,154.5846637,11.75034409,-0.00155052,-0.005883543000000001,8.420000000000001e-05,-0.205983348,0.18178280600000002,-0.00426862,2.0,1.697939588,2.697939588,11,0,0,1,0,0.0,0,0,0,0,0,0.390296806,-0.24855391,1.963037898,1.976825735,0.815621238,183.0840344,45.65178217,-0.026294647999999997,-0.003422367,-0.15780197199999998,0.0,-1.032293994,0.035306745,-8.718556228999999,9756025.407,954.5669109999999,11.74849394,-0.019828295,-0.025101217999999998,0.211557973,-0.991785791,0.053760702,-8.482391877000001,-0.01738346,-0.008841782,0.19121874600000002,9756025.407,89.36206922,98.42929593,-4.363234224,-3.8952430689999997,15.36644449,16.99802794,-0.032631672,0.88609031,-0.1,57.84659169,500.65031600000003,11.74814614,95454.34251,1.134155491,0.46946288799999997,0.32361630399999997,0.10161016,-0.019950199,0.013978271,0.193026618,0.38900983299999997,-0.253449245,1.9831194019999998,0.512311476,0.208724639,0.09257715400000001,0.827886007,0.0,398726963.3,327341309.6,501514.1252,15.86385077,-0.566189238,15.83461592,2.815665015,1.606550902,0,0,0.0,756000,39.871413700000005,32.7364371,116.4841432,-251.79942169999998,-100.0442524,11.43598679,10.73164053,-0.084047039,-0.138632596,0.043660645,0.123204226,100.1035468,0.030434509,-0.040536451,0.267590312,0.0,62089569,0,0,1,0,0
1423,62137251,-0.010327124,-0.020688818,-0.062260620999999995,0.0,0.0,1468.0,1500.0,1000.0,1504.0,1495.0,1488.0,15.88403139,16.27383385,16.00538727,15.99781588,16.39000055,17.02716368,17.4445826,155.46629109999998,155.46629109999998,11.75126737,-0.00155145,-0.005883586,8.46e-05,-0.20599983100000002,0.18177481,-0.004183137,2.0,1.7005401080000002,2.700540108,11,0,0,1,0,0.0,0,0,0,0,0,0.38775478799999996,-0.24914218300000002,1.967873924,1.97798957,0.5972412420000001,182.5082415,45.71042219,-0.026245862999999998,-0.003553565,-0.157397364,0.0,-1.036491743,0.002297268,-8.76940637,21753285.45,954.5765643999999,11.74924188,-0.016866176,-0.023857747000000002,0.20709496600000002,-0.9387450209999999,0.018354267,-8.463244243,-0.019710806,-0.006619132,0.18954333,21753285.45,89.18596989,98.28864476,-4.377596757,-3.9199266710000003,15.36634491,17.05016976,-0.033676502000000004,0.901296945,-0.1,57.61918969,500.3457399,11.74892518,95457.79895,1.134196583,-0.170924109,0.034931817000000004,0.328578494,-0.018717396,0.010768035,0.188319933,0.380475758,-0.251574924,1.981980831,0.51388149,0.205837257,0.08944641699999999,0.82798308,0.0,398726961.8,327341382.1,501408.8084,15.8809842,-0.695331065,15.84065514,2.9025424089999996,1.614587098,0,0,0.0,756000,39.871413700000005,32.7364371,116.91803610000001,-251.3923444,-100.0495545,11.42981743,10.7332654,-0.083083298,-0.14006402,0.016134976000000002,0.118518729,100.10884859999999,0.02937155,-0.042918581,0.265627787,0.0,62137251,0,0,1,0,0
1424,62175717,-0.009942511,-0.021014183999999998,-0.06289058900000001,0.0,0.0,1467.0,1500.0,1000.0,1503.0,1496.0,1491.0,15.93554147,16.32641389,16.04219227,16.03561417,16.42861248,17.06523031,17.48346251,156.34791840000003,156.34791840000003,11.75219065,-0.001552381,-0.00588363,8.49e-05,-0.20601631399999998,0.181766814,-0.004097654,2.0,1.703140628,2.7031406280000003,11,0,0,1,0,0.0,0,0,0,0,0,0.385212771,-0.249730457,1.972709949,1.979153406,0.378861247,181.93244850000002,45.76906221,-0.026193345,-0.003685695,-0.156960032,0.0,-1.034177416,-0.052609389000000006,-8.839150003,53262572.8,954.5793373,11.75000071,-0.018005165,-0.019403679,0.19723586399999998,-1.0526745290000001,-0.08128300299999999,-8.707280922999999,-0.02252219,-0.003900385,0.187957383,53262572.8,89.00315775,98.1422297,-4.390750385,-3.942704521,15.36625047,17.10255462,-0.034726089,0.915605397,-0.1,57.38736583,500.4712046,11.74970437,95456.39388999999,1.134179903,-0.098624904,0.119345411,-0.20375756,-0.018384176000000002,0.014185363000000001,0.19228050600000002,0.377865665,-0.252524887,1.986484014,0.5121776570000001,0.20534883,0.08856560599999999,0.829253562,0.0,398726958.3,327341453.6,501290.0338,15.903500699999999,-0.81729544,15.85566633,2.960710062,1.622184861,0,0,0.0,756000,39.871413700000005,32.7364371,117.3801662,-250.9582952,-100.0550338,11.4243648,10.73526337,-0.08151219999999999,-0.153471542,0.037566788,0.086534506,100.1143266,0.035578737,-0.028002317000000002,0.260100938,0.0,62175717,0,0,1,0,0
1425,62214182,-0.009732563,-0.022584797,-0.063068063,0.0,0.0,1467.0,1500.0,1000.0,1503.0,1496.0,1491.0,15.8633729,16.25256409,16.07899728,16.07341246,16.4672244,17.10329694,17.52234243,157.2295458,157.2295458,11.75311393,-0.0015533110000000001,-0.005883673000000001,8.53e-05,-0.206032797,0.181758819,-0.0040121720000000005,2.0,1.7057411480000002,2.705741148,11,0,0,1,0,0.0,0,0,0,0,0,0.382670753,-0.25031873,1.977545974,1.9803172409999998,0.160481251,181.3566555,45.82770223,-0.026151326000000003,-0.003791177,-0.15660082,0.0,-1.035072473,-0.10080502599999999,-8.909777499999999,82382296.0,954.5830399,11.75077724,-0.01866774,-0.005793315,0.195551213,-0.9655834409999999,0.049766831,-8.714259378,-0.024967099,-0.001279482,0.18675090800000002,82382296.0,88.80199194,97.98005544,-4.400598715,-3.9602717989999996,15.3661701,17.15560394,-0.035788682,0.9274581000000001,-0.1,57.143452,500.31635080000007,11.75050204,95458.16496000001,1.13420093,-0.02560059,-0.056049972,-0.11320839199999999,-0.018539783,0.00936677,0.18709377,0.375211002,-0.25513514,1.990971489,0.51029662,0.20552244,0.08720592099999999,0.830513297,0.0,398726954.7,327341525.1,501171.2593,15.926017199999999,-0.939259814,15.87067752,3.018877714,1.629782623,0,0,0.0,756000,39.871413700000005,32.7364371,117.84948159999999,-250.5173827,-100.0605583,11.41909455,10.73735629,-0.079786552,-0.16992655399999998,0.07145653099999999,0.047603732999999995,100.1198494,0.035529575,-0.028938834,0.256987737,0.0,62214182,0,0,1,0,0
1426,62252649,-0.008105298,-0.022254371000000002,-0.063523064,0.0,0.0,1466.0,1500.0,1000.0,1506.0,1493.0,1490.0,16.03196501,16.42521022,16.11580228,16.11121076,16.50583632,17.14136357,17.56122234,158.1111732,158.1111732,11.75403722,-0.001554241,-0.005883716,8.56e-05,-0.20604927899999997,0.181750823,-0.003926689000000001,2.0,1.708341668,2.708341668,11,0,0,1,0,0.0,0,0,0,0,0,0.380128735,-0.250907003,1.982381999,1.981481076,-0.057898744,180.7808625,45.88634224,-0.026115785,-0.0038897859999999997,-0.156309797,0.0,-1.075077755,-0.067218783,-8.991175957000001,82382296.0,954.5980712999999,11.75176939,-0.01894954,-0.010550408999999998,0.189651627,-1.021098014,-0.062620182,-8.740242717000001,-0.022946063,0.000149061,0.190168745,82382296.0,88.60082614,97.81788117,-4.410447045,-3.977839078,15.36608972,17.20865326,-0.036851273999999996,0.9393108029999999,-0.1,56.89953817,500.1412666,11.75133001,95460.17202,1.1342247890000001,-0.24706904300000002,0.677761147,0.14612932,-0.023717667,0.019740751,0.191970098,0.372651959,-0.257264908,1.9954423909999999,0.5084643320000001,0.205534475,0.086016989,0.831757449,0.0,398726951.1,327341596.6,501052.4847,15.94853371,-1.061224188,15.88568871,3.077045366,1.637380386,0,0,0.0,756000,39.871413700000005,32.7364371,118.3093068,-250.0851919,-100.06598709999999,11.41371633,10.7393366,-0.07838653200000001,-0.180061045,0.10017089800000001,0.025284425,100.1252775,0.020646266,-0.034073902999999996,0.249759614,0.0,62252649,0,0,1,0,0
1427,62290230,-0.006839238,-0.017949385,-0.06473659400000001,0.0,0.0,1466.0,1500.0,1000.0,1504.0,1495.0,1490.0,16.01975792,16.41267988,16.15260728,16.14900905,16.54444824,17.17943019,17.60010225,158.9928005,158.9928005,11.7549605,-0.001555172,-0.00588376,8.590000000000001e-05,-0.20606576199999999,0.181742827,-0.003841206,2.0,1.7109421880000002,2.710942188,11,0,0,1,0,0.0,0,0,0,0,0,0.37741994,-0.251408892,1.986607239,1.9825705040000001,-0.253134366,180.2050642,45.96414108,-0.026073105,-0.004005459,-0.156005681,0.0,-1.115083037,-0.03363254,-9.072574413,82382296.0,954.6131026,11.75276153,-0.021022022999999997,-0.00957332,0.19142226399999998,-0.963089077,-0.06304206,-8.765767099,-0.020925026,0.001577604,0.193586581,82382296.0,88.39966033,97.65570691,-4.420295375,-3.995406356,15.36600934,17.26170259,-0.037913866000000004,0.9511635070000001,-0.1,56.65562435,499.931032,11.75215729,95462.58204,1.13425345,-0.31410501,-0.096533182,-0.050928722999999995,-0.027031917000000003,0.019955301,0.192710935,0.37311593200000004,-0.252204594,2.002704434,0.5059554470000001,0.20329347600000003,0.08833600900000001,0.8335927679999999,0.0,398726947.6,327341668.1,500933.7101,15.97105021,-1.183188562,15.900699900000001,3.135213018,1.644978148,0,0,0.0,756000,39.871413700000005,32.7364371,118.74151,-249.6783861,-100.0711378,11.40802387,10.74098922,-0.07793426099999999,-0.171799428,0.113822146,0.051313397999999996,100.13042970000001,0.025497928,-0.034950799,0.24764329699999998,0.0,62290230,0,0,1,0,0
1428,62337581,-0.012533878,-0.019209389,-0.067218406,0.0,0.0,1466.0,1500.0,1000.0,1504.292859,1494.707141,1491.0,16.04590065,16.43912527,16.18941228,16.18680734,16.58306017,17.21749682,17.63898217,159.8744279,159.8744279,11.75588378,-0.0015561020000000002,-0.005883803000000001,8.63e-05,-0.206082245,0.18173483199999999,-0.003755723,2.0,1.7135427090000002,2.713542709,11,0,0,1,0,0.0,0,0,0,0,0,0.374592233,-0.251849188,1.9903969869999998,1.983606879,-0.431867946,179.629262,46.05560024,-0.026022897000000003,-0.004122425999999999,-0.155687927,0.0,-1.12778757,-0.025855506,-9.126279322,67847154.03,954.6337975,11.75368363,-0.022847189,0.003958968,0.19435122,-1.10180135,-0.024970165,-8.814096489,-0.021638703999999998,0.003029993,0.19332432,67847154.03,88.19849452,97.49353265,-4.430143706,-4.012973635,15.36592896,17.31475191,-0.038976459,0.96301621,-0.1,56.41171052,499.9024562,11.75298526,95462.8734,1.134256861,-0.265578747,0.068486974,-0.197180776,-0.030395347000000003,0.020875711,0.191056101,0.369580797,-0.253429577,2.006160927,0.504736999,0.202742356,0.086879369,0.834615872,0.0,398726944.0,327341739.6,500814.9356,15.99356671,-1.305152936,15.91571109,3.1933806710000003,1.652575911,0,0,0.0,756000,39.871413700000005,32.7364371,119.17371329999999,-249.27158019999996,-100.07628840000001,11.40233142,10.74264183,-0.07748199,-0.163537812,0.127473394,0.077342371,100.1355819,0.027186306,-0.026674889,0.242284983,0.0,62337581,0,0,1,0,0
1429,62372094,-0.011392416,-0.019369397,-0.067178315,0.0,0.0,1466.0,1500.0,1000.0,1504.0,1495.0,1491.0,16.04912774,16.44256768,16.22621729,16.22460564,16.62167209,17.25556345,17.67786208,160.7560553,160.7560553,11.75680706,-0.001557032,-0.005883846999999999,8.66e-05,-0.206098728,0.181726836,-0.00367024,2.0,1.716143229,2.7161432289999996,11,0,0,1,0,0.0,0,0,0,0,0,0.37176452600000004,-0.252289485,1.9941867340000001,1.9846432530000002,-0.610601525,179.0534599,46.147059399999996,-0.025976584,-0.0042168909999999995,-0.155426007,0.0,-1.108610275,-0.048218477,-9.147643694,36337866.68,954.6611062999999,11.75452393,-0.020790668999999998,0.000160985,0.18858634,-1.019849437,-0.095435879,-8.889218718,-0.025545982000000002,0.004510229,0.18876443899999998,36337866.68,87.99732871,97.33135838,-4.4399920360000005,-4.030540913,15.36584859,17.36780123,-0.040039051,0.9748689140000001,-0.1,56.167796700000004,499.775246,11.75384324,95464.32294,1.134274016,0.32133745,-0.320114664,-0.400501331,-0.030624651,0.02376375,0.188461727,0.359164314,-0.255582341,2.003157882,0.506806721,0.201108144,0.081643562,0.834287934,0.0,398726939.0,327341810.4,500690.6659,16.02010402,-1.4271173369999999,15.93340268,3.2475275060000004,1.660103483,0,0,0.0,756000,39.871413700000005,32.7364371,119.63091659999999,-248.84065980000003,-100.081484,11.39614318,10.74465756,-0.075956862,-0.146609065,0.121395999,0.09866736300000001,100.1407797,0.027540308,-0.027792143,0.24039512899999999,0.0,62372094,0,0,1,0,0
1430,62422513,-0.00919337,-0.01972322,-0.066552927,0.0,0.0,1465.0,1500.0,1000.0,1506.0,1493.0,1490.0,16.13875505,16.53408047,16.26302229,16.26240393,16.66028401,17.29363008,17.716742,161.63768259999998,161.63768259999998,11.75773034,-0.0015579629999999999,-0.00588389,8.7e-05,-0.20611521,0.18171884,-0.003584757,2.0,1.7187437490000002,2.7187437489999997,11,0,0,1,0,0.0,0,0,0,0,0,0.36893681899999997,-0.25272978100000004,1.997976481,1.9856796280000002,-0.789335105,178.47765769999998,46.23851856,-0.025934065,-0.004321185,-0.155191734,0.0,-1.08943298,-0.070581448,-9.169008066,4828579.326,954.6884151,11.75536423,-0.021272252000000002,0.000149507,0.19258330399999998,-1.011757416,-0.13786390199999998,-8.905124571,-0.029453259,0.005990466,0.18420455800000002,4828579.326,87.8164412,97.18465361,-4.444722144,-4.038369966,15.36571983,17.41281296,-0.040941862,0.980373472,-0.1,55.95871746,499.5953145,11.75470182,95466.38852000001,1.134298645,0.142645585,0.01027166,0.630171877,-0.030619421,0.024731977999999998,0.195756305,0.359689794,-0.257311412,2.010359502,0.503558713,0.201646794,0.082118,0.8360762070000001,0.0,398726933.4,327341880.9,500564.1982,16.04824965,-1.549081749,15.95216643,3.300066013,1.66760298,0,0,0.0,756000,39.871413700000005,32.7364371,120.09811979999999,-248.4000935,-100.0866976,11.38975662,10.74681855,-0.07400259099999999,-0.126213467,0.10742714699999999,0.118110762,100.14599559999999,0.018736906,-0.029403415,0.23345003399999997,0.0,62422513,0,0,1,0,0
1431,62464979,-0.008695826,-0.017144599,-0.06758546,0.0,0.0,1465.0,1500.0,1000.0,1505.0,1494.0,1490.0,16.10583723,16.50034387,16.29982729,16.30020223,16.69889593,17.331696700000002,17.75562191,162.51931000000002,162.51931000000002,11.75865362,-0.0015588929999999998,-0.005883933,8.73e-05,-0.206131693,0.18171084399999998,-0.003499274,2.0,1.721344269,2.721344269,11,0,0,1,0,0.0,0,0,0,0,0,0.366109112,-0.253170078,2.001766228,1.9867160030000002,-0.968068685,177.90185559999998,46.32997772,-0.025886833999999997,-0.004452966,-0.154916272,0.0,-1.097520662,-0.16345721400000002,-9.216040341,26680731.54,954.6945756000001,11.75621457,-0.020370712,0.0039034770000000002,0.18913110100000002,-1.009855467,-0.11602053699999999,-9.038883985,-0.035110351,0.010946835,0.184174872,26680731.54,87.63650107,97.03867155,-4.449213137,-4.045744063,15.36558882,17.45744919,-0.041837209,0.985581455,-0.1,55.75126564,499.3606075,11.75559622,95469.10897,1.13433094,0.179205819,0.471763526,0.385640895,-0.031902852999999995,0.026379366,0.188135573,0.357195218,-0.254666551,2.014741813,0.502262026,0.19976488,0.08222989,0.8372960890000001,0.0,398726927.7,327341951.5,500437.7305,16.07639528,-1.67104616,15.97093019,3.3526045210000004,1.6751024769999998,0,0,0.0,756000,39.871413700000005,32.7364371,120.55902350000001,-247.96533419999997,-100.0917381,11.38054356,10.74555899,-0.07192702,-0.16953616600000002,0.024102482999999997,0.137012709,100.1510377,0.018945421,-0.029766142000000002,0.23113451100000001,0.0,62464979,0,0,1,0,0
1432,62499445,-0.012463997,-0.018417766000000002,-0.068336856,0.0,0.0,1465.0,1500.0,1000.0,1505.0,1494.0,1490.0,16.25266996,16.650613,16.3366323,16.33800052,16.73750785,17.36976333,17.79450182,163.4009374,163.4009374,11.7595769,-0.001559823,-0.0058839769999999994,8.759999999999999e-05,-0.20614817600000002,0.18170284899999997,-0.003413791,2.0,1.7239447890000001,2.723944789,11,0,0,1,0,0.0,0,0,0,0,0,0.363281405,-0.25361037399999997,2.005555975,1.9877523769999998,-1.146802264,177.3260534,46.42143688,-0.025844321,-0.00455927,-0.154690668,0.0,-1.110542648,-0.269094097,-9.267717888,58190018.89,954.6969087000001,11.75706673,-0.028273753,0.007024151,0.19030947199999998,-1.095032935,-0.12735274900000002,-9.167927172999999,-0.041084117,0.016532301,0.184965042,58190018.89,87.45656094,96.89268949,-4.45370413,-4.05311816,15.36545781,17.50208542,-0.042732555,0.990789437,-0.1,55.54381382,499.4288453,11.75647295,95468.29682999999,1.134321333,-0.476089747,0.10958761,-0.130447531,-0.035727445,0.028473672999999998,0.183938312,0.35475047600000004,-0.255709218,2.019107008,0.5005650970000001,0.19939811600000001,0.081360208,0.838483725,0.0,398726922.1,327342022.0,500311.2629,16.10454091,-1.7930105719999998,15.98969394,3.4051430289999995,1.6826019730000001,0,0,0.0,756000,39.871413700000005,32.7364371,120.98978190000001,-247.5583631,-100.0959503,11.35780482,10.72793115,-0.069270989,-0.517769655,-0.39111014200000005,0.153323649,100.155248,0.018602917,-0.027805062999999998,0.22668645699999998,0.0,62499445,0,0,1,0,0
