,timestamp,control[0],control[1],control[2],control[3],control[4],output[2],output[3],output[4],output[5],output[6],output[7],indicated_airspeed_m_s,true_airspeed_m_s,indicated_airspeed_m_s.1,equivalent_airspeed_m_s,true_airspeed_m_s.1,equivalent_ground_minus_wind_m_s,true_ground_minus_wind_m_s,differential_pressure_raw_pa,differential_pressure_filtered_pa,temperature,gyro_bias[0],gyro_bias[1],gyro_bias[2],accel_bias[0],accel_bias[1],accel_bias[2],instance_count,seq_reached,seq_current,seq_total,item_changed_index,item_do_jump_remaining,valid,warning,finished,failure,stay_in_failsafe,flight_termination,item_do_jump_changed,execution_mode,nav_roll,nav_pitch,nav_bearing,target_bearing,xtrack_error,wp_dist,acceptance_radius,rollspeed_integ,pitchspeed_integ,yawspeed_integ,additional_integ1,x,y,z,temperature.1,pressure,temperature.2,gyro_rad[0],gyro_rad[1],gyro_rad[2],accelerometer_m_s2[0],accelerometer_m_s2[1],accelerometer_m_s2[2],x.1,y.1,z.1,temperature.3,altitude_sp,altitude_filtered,height_rate_setpoint,height_rate,airspeed_sp,airspeed_filtered,airspeed_derivative_sp,airspeed_derivative,throttle_integ,pitch_integ,baro_alt_meter,baro_temp_celcius,baro_pressure_pa,rho,xyz[0],xyz[1],xyz[2],xyz[0].1,xyz[1].1,xyz[2].1,roll_body,pitch_body,yaw_body,q_d[0],q_d[1],q_d[2],q_d[3],thrust_body[0],lat,lon,alt,vel_m_s,vel_n_m_s,vel_e_m_s,vel_d_m_s,cog_rad,ground_contact,maybe_landed,landed,ref_lat,ref_lon,x.2,y.2,z.2,vx,vy,vz,ax,ay,az,dist_bottom,roll,pitch,yaw,thrust_body[0].1,timestamp.1,isTakeoff,isClimbing,isDescending,isCruise,isLand
1200,53515512,-0.040869191,0.0637724,0.18875550100000002,0.0,0.0,1594.0,1500.0,1000.0,1520.0,1479.0,1526.0,15.03195547,15.40064759,15.91104205,15.84682294,16.23471993,15.67955816,16.06336085,145.4945362,145.4945362,11.75165605,-0.001459218,-0.005797111,0.00011288200000000001,-0.19989493100000003,0.178894382,-0.02691528,2.0,1.120624125,2.120624125,11,0,0,1,0,0.0,0,0,0,0,0,0.361148442,-0.131646614,-3.0668692810000002,-1.4857295830000001,-3.70084824,261.5039498,43.18370472,-0.011495818,0.014513821000000001,0.068784736,0.0,-1.3613065430000002,0.125473189,-9.306114076,2.2000000000000002e-23,954.5949235999999,11.75188177,-0.15640616400000001,0.09823057,0.377395253,-1.39495055,0.24764333,-9.492395325,-0.15672331,0.081491545,0.36755079399999996,2.2000000000000002e-23,95.36510904,99.57376794,-2.44345982,-2.33384178,15.36721733,15.06001041,0.006144138,-0.576412524,-0.11972618,77.63289471,500.1340518,11.75146132,95460.24096,1.134225598,-0.6952133070000001,-0.08998547400000001,0.242340237,-0.150673011,0.101428827,0.37475126200000003,0.348448549,-0.133820982,-3.055090635,0.054069682,-0.05830787,-0.17564089,-0.9812340740000001,0.0,398728312.6,327429755.8,500721.9122,15.47322865,-13.40195955,7.675131026,1.120377991,2.621219048,0,0,0.0,39.871413700000005,32.7364368,156.0515679,558.8422916000001,-100.4145932,-13.62827391,7.055676075,1.4366687059999999,-1.7407900090000001,-5.319777365,2.163913129,100.5702632,-0.140916992,0.140183482,0.21813669300000002,0.0,53515512,0,0,1,0,0
1201,53548145,-0.039200872000000005,0.060245035,0.189568381,0.0,0.0,1592.84837,1500.0,1000.0,1518.15163,1480.84837,1528.0758150000001,15.05645289,15.42554388,15.90920642,15.84516305,16.23301531,15.67703214,16.06076905,144.85285369999997,144.85285369999997,11.75186676,-0.0014588510000000002,-0.0057972909999999996,0.00011227100000000001,-0.199908041,0.178871858,-0.026807109,2.0,1.123224645,2.123224645,11,0,0,1,0,0.0,0,0,0,0,0,0.353427945,-0.132016946,-3.0637751539999996,-1.92888466,-3.833094673,260.98808399999996,43.16865572,-0.011491036999999999,0.014630825,0.068477615,0.0,-1.383620426,0.130947322,-9.275708802999999,2.2000000000000002e-23,954.6031998,11.75220944,-0.156871351,0.09492381400000001,0.37736468799999995,-1.4109402009999998,0.154491015,-9.449251955,-0.159584643,0.07576664599999999,0.367209403,2.2000000000000002e-23,95.27084835,99.49475271,-2.4749716019999997,-2.391246731,15.36714671,15.08009778,0.005740978000000001,-0.535966873,-0.11706068,77.47861603,500.22464800000006,11.75177898,95459.20402,1.134213307,-0.153402553,-0.6404881139999999,0.495906061,-0.15429848699999998,0.09532685699999999,0.369828714,0.337926221,-0.13674265,-3.0552427210000004,0.05392659599999999,-0.060040955,-0.17051744800000002,-0.9820425709999999,0.0,398728269.1,327429789.6,500684.5119,15.43747149,-13.47568815,7.473722745,1.196637229,2.634818861,0,0,0.0,39.871413700000005,32.7364368,155.5450591,559.0951732000001,-100.35998149999999,-13.69099436,6.865132222000001,1.515127895,-1.756185462,-5.254658051,2.116339081,100.5156515,-0.14104503599999998,0.13802188599999998,0.211741359,0.0,53548145,0,0,1,0,0
1202,53580778,-0.041070523,0.055840417,0.18849292899999998,0.0,0.0,1589.443689,1500.0,1000.0,1519.0,1480.0,1528.0,14.97374021,15.34099864,15.90737079,15.84350315,16.23131069,15.67450613,16.05817726,144.2111711,144.2111711,11.75207746,-0.0014584829999999998,-0.00579747,0.00011166,-0.199921152,0.178849335,-0.026698938999999998,2.0,1.125825165,2.125825165,11,0,0,1,0,0.0,0,0,0,0,0,0.345707448,-0.132387278,-3.0606810269999998,-2.3720397369999997,-3.9653411060000003,260.4722182,43.15360672,-0.011485793000000001,0.014739556000000001,0.06817366400000001,0.0,-1.41631334,0.163764462,-9.243803063,2.2000000000000002e-23,954.6188814999999,11.75255615,-0.149286985,0.09211246599999999,0.36903924200000005,-1.384103546,0.187987665,-9.430745728,-0.162151982,0.06997435099999999,0.366933054,2.2000000000000002e-23,95.17658767,99.41573747,-2.506483385,-2.448651683,15.36707609,15.10018515,0.005337818,-0.49552122200000004,-0.114395179,77.32433734,500.11898049999996,11.75212487,95460.4244,1.134227809,-0.005828548,-0.102032143,-0.320374982,-0.151462959,0.094201151,0.368551092,0.327359609,-0.13901365699999998,-3.055430452,0.053692678,-0.06145837,-0.165356396,-0.982848218,0.0,398728226.3,327429818.1,500635.086,15.40962593,-13.53834086,7.294466892999999,1.269731865,2.647120668,0,0,0.0,39.871413700000005,32.7364368,155.0385503,559.3480547,-100.3053698,-13.75371482,6.674588368999999,1.593587085,-1.771580915,-5.1895387369999995,2.068765033,100.4610398,-0.145866688,0.12832926,0.207162055,0.0,53580778,0,0,1,0,0
1203,53617411,-0.038302819,0.06053183400000001,0.188432719,0.0,0.0,1587.036807,1500.0,1000.0,1519.0,1480.0,1529.889578,14.93413323,15.30026725,15.90553516,15.84184325,16.22960607,15.67198012,16.05558546,143.5694886,143.5694886,11.75228817,-0.001458116,-0.005797649,0.000111049,-0.199934263,0.178826811,-0.026590769,2.0,1.128425685,2.128425685,11,0,0,1,0,0.0,0,0,0,0,0,0.33798695100000004,-0.13275761,-3.0575869,-2.815194814,-4.097587538,259.9563523,43.13855772,-0.011484791000000001,0.014842957,0.067857078,0.0,-1.4490062540000002,0.196581603,-9.211897324,2.2000000000000002e-23,954.6345633,11.75290286,-0.159557864,0.08628522300000001,0.371742726,-1.37390677,0.10956076599999999,-9.411298316,-0.164719321,0.064182057,0.366656705,2.2000000000000002e-23,95.08232698,99.33672224,-2.537995167,-2.506056634,15.36700547,15.12027251,0.004934658,-0.45507557200000004,-0.111729679,77.17005865,500.1125949,11.75247185,95460.45053,1.134228106,-0.236292143,-0.13699526,-0.29325651,-0.151019108,0.087384338,0.369542821,0.324687365,-0.138867508,-3.04804356,0.057230712,-0.060851735,-0.16426675699999999,-0.982870153,0.0,398728183.5,327429846.7,500585.6601,15.38178036,-13.60099356,7.115211042,1.3428265019999999,2.659422475,0,0,0.0,39.871413700000005,32.7364368,154.54611269999998,559.5853728,-100.24966450000001,-13.81271408,6.492432677999999,1.66879157,-1.747706037,-5.115611365,2.0282434030000003,100.4053345,-0.14739922800000002,0.120926904,0.202780701,0.0,53617411,0,0,1,0,0
1204,53650044,-0.039611021,0.054362851,0.18857367100000003,0.0,0.0,1585.4826970000001,1500.0,1000.0,1519.0,1480.0,1529.0,14.97323991,15.34022456,15.90369953,15.84018335,16.22790144,15.6694541,16.05299367,142.927806,142.927806,11.75249888,-0.0014577479999999998,-0.005797829,0.00011043799999999999,-0.199947373,0.178804288,-0.026482598,2.0,1.131026205,2.131026205,11,0,0,1,0,0.0,0,0,0,0,0,0.33021612699999997,-0.133130299,-3.0549575339999997,-3.1364985360000004,-4.210884906,259.44256040000005,43.13501584,-0.011480209,0.014943241999999999,0.06752591599999999,0.0,-1.414588955,0.198031414,-9.240119672,3.1107541000000003,954.6383886,11.75328159,-0.152187195,0.077095158,0.37508449299999996,-1.388239429,0.168422915,-9.370812555,-0.16431267,0.066457535,0.363310423,3.1107541000000003,94.9880663,99.257707,-2.56950695,-2.563461585,15.36693485,15.14035988,0.004531497,-0.414629921,-0.109064179,77.01577996,499.74859230000004,11.75284819,95464.63415,1.134277796,-0.304179042,0.248197645,0.339485064,-0.149473841,0.085541177,0.37055176700000003,0.31436733,-0.144868628,-3.048177869,0.057310864,-0.064111022,-0.159293571,-0.983477484,0.0,398728140.7,327429875.2,500536.2342,15.35393479,-13.66364627,6.935955191000001,1.415921138,2.671724282,0,0,0.0,39.871413700000005,32.7364368,154.07281730000003,559.8015187000001,-100.1924714,-13.86665114,6.32168801,1.739568443,-1.670408889,-5.029701756000001,1.997315688,100.34814140000002,-0.146684392,0.143512996,0.186193343,0.0,53650044,0,0,1,0,0
1205,53682677,-0.039981615,0.060019977,0.18199701399999998,0.0,0.0,1587.004401,1500.0,1000.0,1519.995599,1479.004401,1528.0,15.01067417,15.37849728,15.9018639,15.83852345,16.22619682,15.66692809,16.05040187,142.2861235,142.2861235,11.75270959,-0.00145738,-0.005798008,0.000109827,-0.199960484,0.17878176399999998,-0.026374428,2.0,1.133626725,2.133626725,11,0,0,1,0,0.0,0,0,0,0,0,0.322312483,-0.133509206,-3.053554756,-3.1362151760000003,-4.2741723689999995,258.9342418,43.16184328,-0.011476799,0.015077772,0.06716512,0.0,-1.357294327,0.188788355,-9.288839198,7.281939114,954.6381721000001,11.75367124,-0.152495247,0.077316646,0.368620625,-1.401497702,0.165648284,-9.288125351,-0.162892211,0.071483251,0.358917624,7.281939114,94.88190122,99.1587261,-2.547377714,-2.617892952,15.36686376,15.16136547,0.004109964,-0.3731788,-0.107412225,76.84832454,499.69039649999996,11.75322573,95465.33147,1.134286104,-0.10966077800000001,0.336750635,-0.130234996,-0.145909699,0.084533581,0.361534556,0.304056743,-0.135832936,-3.048339962,0.056231285,-0.059966223,-0.15405660699999998,-0.98463542,0.0,398728097.9,327429903.8,500486.8084,15.32608922,-13.72629897,6.75669934,1.489015774,2.684026088,0,0,0.0,39.871413700000005,32.7364368,153.59952180000002,560.0176647000001,-100.1352783,-13.92058821,6.150943343,1.810345316,-1.59311174,-4.943792147,1.966387973,100.2909483,-0.151663452,0.135214696,0.182707702,0.0,53682677,0,0,1,0,0
1206,53727309,-0.040989068999999996,0.06057087,0.175238838,0.0,0.0,1585.0,1500.0,1000.0,1518.0,1481.0,1532.0,15.025463,15.3936247,15.90002827,15.83686355,16.2244922,15.66440208,16.04781007,141.644441,141.644441,11.752920300000001,-0.0014570129999999998,-0.005798187,0.000109216,-0.19997359399999998,0.178759241,-0.026266257999999997,2.0,1.136227245,2.136227245,11,0,0,1,0,0.0,0,0,0,0,0,0.314408839,-0.133888113,-3.0521519789999996,-3.135931815,-4.337459831,258.4259232,43.18867071,-0.011474821999999999,0.015198511000000001,0.066815721,0.0,-1.299999698,0.179545297,-9.337558723999999,11.45312413,954.6379555999999,11.75406089,-0.152210325,0.074474191,0.368719552,-1.3681137730000001,0.15684699400000002,-9.312946304,-0.161471751,0.076508968,0.354524825,11.45312413,94.7744569,99.05759971,-2.5194842719999997,-2.672004781,15.36679261,15.18246973,0.003686455,-0.331619632,-0.10586918599999999,76.67945315,499.8186169,11.75364492,95463.83905,1.134268298,-0.26134091600000003,0.045961775,0.23193012600000001,-0.152218937,0.08020460900000001,0.361184702,0.298543162,-0.135900913,-3.044097126,0.058160582,-0.05983277099999999,-0.151467098,-0.9849311390000001,0.0,398728055.0,327429932.3,500437.3825,15.29824365,-13.78895168,6.577443489,1.562110411,2.696327895,0,0,0.0,39.871413700000005,32.7364368,153.0989216,560.2335001,-100.07083859999999,-13.97392729,5.974271227999999,1.882209398,-1.522168041,-4.878662276,1.957793339,100.22650859999999,-0.15729668900000002,0.124672663,0.176856027,0.0,53727309,0,0,1,0,0
1207,53771885,-0.040023618999999996,0.058275414000000005,0.172860878,0.0,0.0,1584.0,1500.0,1000.0,1519.0,1480.0,1530.0,14.96704648,15.33375987,15.89819265,15.83520366,16.22278758,15.66187606,16.04521828,141.0027584,141.0027584,11.753131,-0.001456645,-0.005798367,0.000108605,-0.199986705,0.178736717,-0.026158087000000003,2.0,1.138827766,2.138827766,11,0,0,1,0,0.0,0,0,0,0,0,0.30650519600000004,-0.13426702,-3.0507492010000004,-3.135648455,-4.400747293999999,257.9176046,43.21549815,-0.011473951000000001,0.015307252,0.06645779,0.0,-1.310235784,0.152291647,-9.26652426,7.883868857,954.6454012,11.75449103,-0.153448526,0.06930510000000001,0.362027593,-1.318342347,0.16244778699999998,-9.364851598,-0.157916279,0.07009307599999999,0.352977924,7.883868857,94.66701258,98.95647331,-2.49159083,-2.72611661,15.36672147,15.20357399,0.003262947,-0.29006046399999996,-0.104326146,76.51058176,499.814833,11.75406834,95463.87767999999,1.134268728,-0.07722718099999999,-0.148493601,0.349272039,-0.14977243099999998,0.08163096,0.36123115899999997,0.291670008,-0.141240738,-3.0411854760000003,0.059767452,-0.062450328,-0.148277048,-0.9851603059999999,0.0,398728011.5,327429959.5,500381.8954,15.27339868,-13.84920384,6.399987997999999,1.635805161,2.708514473,0,0,0.0,39.871413700000005,32.7364368,152.5806671,560.4491347000001,-100.00171340000001,-14.02687974,5.793766617,1.9547764330000001,-1.4553322780000002,-4.826967913,1.963638553,100.1573834,-0.156254323,0.117770085,0.175285926,0.0,53771885,0,0,1,0,0
1208,53804575,-0.039407187,0.05537474,0.179516845,0.0,0.0,1582.0,1500.0,1000.0,1518.560712,1480.439288,1528.439288,15.00256271,15.37020736,15.89635702,15.83354376,16.22108296,15.65935005,16.04262648,140.3610759,140.3610759,11.75334171,-0.0014562779999999999,-0.005798546,0.000107994,-0.199999815,0.178714194,-0.026049917000000002,2.0,1.141428286,2.141428286,11,0,0,1,0,0.0,0,0,0,0,0,0.298601552,-0.134645927,-3.0493464230000003,-3.135365095,-4.464034757,257.409286,43.24232559,-0.011466785,0.015406911,0.06609579,0.0,-1.325723347,0.123637417,-9.186177212999999,3.712683843,954.6534425000001,11.75492433,-0.153822497,0.070788892,0.359541065,-1.376929769,0.17951926899999998,-9.23909925,-0.154194779,0.062787436,0.351652332,3.712683843,94.55956826,98.85534692,-2.463697389,-2.7802284389999996,15.36665032,15.22467824,0.002839439,-0.248501296,-0.102783107,76.34171038,499.75480710000005,11.75451879,95464.57682,1.1342771090000001,0.183162558,0.139383943,-0.228776757,-0.153123931,0.083879864,0.35566397200000005,0.28167129399999996,-0.14180965199999998,-3.0413492360000003,0.059408366,-0.06304114599999999,-0.143355981,-0.985869193,0.0,398727966.6,327429984.2,500314.89200000005,15.25425485,-13.90489498,6.225953191,1.710640128,2.7204821160000003,0,0,0.0,39.871413700000005,32.7364368,152.0624125,560.6647693,-99.93258815,-14.07983219,5.613262006,2.027343468,-1.388496516,-4.77527355,1.9694837680000001,100.08825809999999,-0.156919417,0.121121655,0.16843433,0.0,53804575,0,0,1,0,0
1209,53837208,-0.037078666,0.058590939,0.174670921,0.0,0.0,1581.0,1500.0,1000.0,1519.0,1480.0,1527.0,14.92282835,15.288487900000002,15.89452139,15.83188386,16.21937834,15.65682404,16.04003469,139.7193934,139.7193934,11.75355242,-0.00145591,-0.005798725,0.000107383,-0.200012926,0.17869167,-0.025941747,2.0,1.144028806,2.144028806,11,0,0,1,0,0.0,0,0,0,0,0,0.290697908,-0.135024833,-3.047943645,-3.135081734,-4.527322219,256.9009674,43.26915302,-0.011462616,0.015522053000000001,0.06569754,0.0,-1.336618412,0.100044353,-9.119549053,2.2000000000000002e-23,954.6615011,11.75536356,-0.152065855,0.065621424,0.359246532,-1.358795701,0.11021848599999999,-9.305375392,-0.150757067,0.056354462,0.34985046200000003,2.2000000000000002e-23,94.45212394,98.75422053,-2.4358039469999997,-2.834340268,15.36657918,15.2457825,0.002415931,-0.20694212899999997,-0.101240068,76.17283899,499.4881904,11.75497059,95467.62317,1.13431331,-0.08146066,0.06828003099999999,-0.123686355,-0.147331047,0.079937381,0.349433027,0.271625164,-0.141622024,-3.0415350830000003,0.058990802,-0.063258745,-0.138392705,-0.9865928979999999,0.0,398727921.7,327430008.9,500247.8886,15.23511102,-13.96058612,6.0519183839999995,1.785475095,2.7324497589999996,0,0,0.0,39.871413700000005,32.7364368,151.5717689,560.8544977999999,-99.86203336,-14.12720628,5.447050446,2.094295149,-1.359224592,-4.748624845,1.918413114,100.01770340000002,-0.166196913,0.129636168,0.154929521,0.0,53837208,0,0,1,0,0
1210,53869841,-0.040566572,0.06015260099999999,0.170521578,0.0,0.0,1581.0,1500.0,1000.0,1517.0,1482.0,1530.0,14.96644056,15.33296919,15.89171375,15.82933567,16.21676717,15.65448174,16.03763451,139.0777108,139.0777108,11.75376313,-0.0014555420000000002,-0.005798905,0.00010677200000000001,-0.20002603600000002,0.178669147,-0.025833577000000003,2.0,1.146629326,2.146629326,11,0,0,1,0,0.0,0,0,0,0,0,0.28279426399999996,-0.13540374,-3.046540867,-3.134798374,-4.590609682,256.3926489,43.29598046,-0.011461661000000001,0.015645938,0.06533272700000001,0.0,-1.310326022,0.117433765,-9.164008708999999,2.2000000000000002e-23,954.6696986,11.755850800000001,-0.156462126,0.074837208,0.357443901,-1.35071839,0.18245413800000002,-9.301269774,-0.149617314,0.05698784,0.344191962,2.2000000000000002e-23,94.34646335,98.65352009,-2.418867762,-2.885283185,15.36650913,15.26720929,0.001985994,-0.16708114599999999,-0.1,76.00888366,499.5084529,11.75543381,95467.39072000001,1.134310518,-0.05271729,0.28251254,-0.422687415,-0.146091719,0.074241981,0.354621175,0.265547191,-0.134933749,-3.038183511,0.06002306599999999,-0.059905727,-0.135362103,-0.987157134,0.0,398727876.8,327430033.7,500180.8852,15.21596719,-14.01627726,5.877883577,1.860310062,2.744417402,0,0,0.0,39.871413700000005,32.7364368,151.08842140000002,561.0373807,-99.79110083,-14.17310631,5.284615755,2.1597630000000003,-1.339878725,-4.72859433,1.852302726,99.94677083,-0.15444254699999999,0.143221834,0.149851653,0.0,53869841,0,0,1,0,0
1211,53902474,-0.037222684,0.064741746,0.164596289,0.0,0.0,1578.0,1500.0,1000.0,1520.0,1479.0,1531.0,14.93747074,15.303154199999998,15.88815627,15.82610223,16.21345668,15.65228116,16.03538216,138.4360283,138.4360283,11.75397383,-0.001455175,-0.005799084,0.000106162,-0.200039147,0.178646623,-0.025725406,2.0,1.1492298459999999,2.149229846,11,0,0,1,0,0.0,0,0,0,0,0,0.27489062,-0.135782647,-3.04513809,-3.1345150139999998,-4.653897145,255.88433030000004,43.32280789,-0.011452668999999999,0.015790028,0.0649033,0.0,-1.284033631,0.13482317800000002,-9.208468364,2.2000000000000002e-23,954.6778961000001,11.75633803,-0.146513105,0.068066608,0.34716074,-1.401190323,0.105180742,-9.246671504,-0.14847756,0.057621219,0.338533463,2.2000000000000002e-23,94.24810357,98.55456311,-2.446779884,-2.923255674,15.36644359,15.2899562,0.001529744,-0.134170872,-0.1,75.86504986,499.45342810000005,11.75593067,95468.02295,1.134318,0.224697318,-0.24141800800000002,-0.034550692,-0.142714037,0.076223316,0.345205087,0.260008399,-0.133617785,-3.034474373,0.061605882,-0.059176318,-0.132707239,-0.987466864,0.0,398727831.9,327430058.4,500113.8818,15.19682336,-14.07196839,5.70384877,1.935145029,2.756385044,0,0,0.0,39.871413700000005,32.7364368,150.6050739,561.2202635,-99.72016829,-14.21900634,5.122181063,2.2252308519999997,-1.320532859,-4.708563816,1.7861923380000002,99.87583829,-0.162160645,0.135354152,0.143421669,0.0,53902474,0,0,1,0,0
1212,53939107,-0.036402817000000004,0.060601374000000006,0.163384181,0.0,0.0,1577.0,1500.0,1000.0,1518.0,1481.0,1534.0,14.93939927,15.305278699999999,15.88459879,15.8228688,16.21014618,15.65008058,16.03312981,137.7943458,137.7943458,11.75418454,-0.001454807,-0.005799263000000001,0.000105551,-0.20005225699999998,0.1786241,-0.025617236,2.0,1.151830366,2.151830366,11,0,0,1,0,0.0,0,0,0,0,0,0.26698697600000004,-0.136161554,-3.043735312,-3.134231653,-4.717184608,255.37601170000002,43.34963533,-0.011447107,0.01591117,0.064529633,0.0,-1.266546909,0.145972285,-9.246959569,2.2000000000000002e-23,954.6890208999998,11.7568317,-0.147247068,0.059523265,0.349809726,-1.348856343,0.14783332,-9.221592481,-0.147404387,0.05788814,0.33358339600000003,2.2000000000000002e-23,94.14974378,98.45560612,-2.4746920059999997,-2.961228162,15.36637806,15.31270311,0.001073494,-0.101260599,-0.1,75.72121605,499.50729400000006,11.75643817,95467.4017,1.134310694,-0.471384632,-0.230950486,-0.313884251,-0.144289691,0.074441101,0.336607036,0.25028205800000003,-0.14031054699999998,-3.0347362589999998,0.061593107,-0.062800896,-0.12804378800000002,-0.9878580020000001,0.0,398727787.0,327430083.1,500046.8784,15.17767954,-14.12765953,5.529813963,2.0099799959999998,2.7683526869999997,0,0,0.0,39.871413700000005,32.7364368,150.07796240000002,561.4007481000001,-99.63707834,-14.26601102,4.950127965,2.290174166,-1.29869249,-4.654112807,1.759920815,99.79274834,-0.161187376,0.12007131900000001,0.145679899,0.0,53939107,0,0,1,0,0
1213,53979480,-0.038130375,0.056197881,0.162992928,0.0,0.0,1576.0,1500.0,1000.0,1517.158232,1481.841768,1532.0,14.92174924,15.28715813,15.88104131,15.81963536,16.20683569,15.647879999999999,16.03087745,137.1526632,137.1526632,11.75439525,-0.00145444,-0.0057994430000000005,0.00010494,-0.20006536800000002,0.178601576,-0.025509066,2.0,1.1544308859999999,2.154430886,11,0,0,1,0,0.0,0,0,0,0,0,0.259083332,-0.136540461,-3.042332534,-3.133948293,-4.78047207,254.8676931,43.37646276,-0.01144288,0.01602082,0.06415286,0.0,-1.270411383,0.141990458,-9.270979011,2.2000000000000002e-23,954.7072435,11.75734094,-0.152622913,0.059980043,0.346576757,-1.355879698,0.152010081,-9.188540837,-0.146492649,0.057266505999999995,0.330351071,2.2000000000000002e-23,94.051384,98.35664914,-2.5026041269999997,-2.999200651,15.36631252,15.33545002,0.000617244,-0.068350326,-0.1,75.57738225,499.2928063,11.75695595,95469.85756,1.13433991,-0.599400365,-0.075259922,0.054599115999999996,-0.149614371,0.07596873400000001,0.33513985,0.24064768,-0.145760435,-3.034909247,0.061516889000000005,-0.065803708,-0.123398909,-0.988258715,0.0,398727741.1,327430105.7,499972.3711,15.16374675,-14.17709742,5.356821364,2.077519493,2.7801748269999997,0,0,0.0,39.871413700000005,32.7364368,149.5497126,561.5811704,-99.55367216,-14.31304444,4.777824678,2.3551038369999997,-1.2767872359999999,-4.598766468,1.7346855630000002,99.70934216,-0.17107340399999998,0.14411875400000002,0.125470517,0.0,53979480,0,0,1,0,0
1214,54016373,-0.038764737,0.067621396,0.157742291,0.0,0.0,1576.0,1500.0,1000.0,1518.0,1481.0,1529.0,14.97706903,15.3436693,15.87748383,15.81640192,16.20352519,15.64567942,16.0286251,136.51098069999998,136.51098069999998,11.75460596,-0.001454072,-0.005799622,0.000104329,-0.200078478,0.17857905300000002,-0.025400895,2.0,1.157031406,2.1570314059999998,11,0,0,1,0,0.0,0,0,0,0,0,0.251179688,-0.136919368,-3.040929756,-3.133664933,-4.843759533,254.3593745,43.4032902,-0.011439396000000001,0.016140123,0.06375977299999999,0.0,-1.2742758570000001,0.138008632,-9.294998452,2.2000000000000002e-23,954.7254662,11.75785018,-0.146722839,0.064772796,0.335646502,-1.381903451,0.193588715,-9.18450917,-0.14558091,0.056644873,0.327118747,2.2000000000000002e-23,93.95302422,98.25769216,-2.530516249,-3.0371731389999996,15.36624698,15.35819693,0.000160994,-0.035440053,-0.1,75.43354845,499.212058,11.75749248,95470.78145,1.134350808,-0.42131258200000005,-0.307136688,-0.07518731299999999,-0.148366294,0.073821607,0.335521915,0.231015575,-0.13867000300000001,-3.035163119,0.060685079,-0.062604181,-0.118471147,-0.9891178429999999,0.0,398727694.4,327430126.9,499892.8372,15.15330466,-14.22234647,5.184526905,2.140172007,2.7918995,0,0,0.0,39.871413700000005,32.7364368,149.0272267,561.7569708999999,-99.47034861,-14.35892204,4.608302234,2.4187076690000002,-1.253049575,-4.545709669,1.70376836,99.62601861,-0.15873053199999998,0.134146618,0.131314434,0.0,54016373,0,0,1,0,0
1215,54049006,-0.039853688,0.063489901,0.157235535,0.0,0.0,1572.0,1500.0,1000.0,1519.0,1480.0,1535.0,14.95773254,15.32381065,15.87392636,15.81316848,16.2002147,15.64347885,16.02637275,136.3307027,136.3307027,11.75505416,-0.001454044,-0.005799845,0.00010423799999999999,-0.200100368,0.178568143,-0.02528615,2.0,1.1596319259999999,2.159631926,11,0,0,1,0,0.0,0,0,0,0,0,0.243276045,-0.137298275,-3.039526978,-3.133381572,-4.907046996,253.85105589999998,43.43011763,-0.01143163,0.016273472,0.063362578,0.0,-1.276069879,0.121805636,-9.329273417000001,2.2000000000000002e-23,954.7358912000001,11.75845161,-0.153673944,0.068956399,0.335787911,-1.3729902109999998,0.19014702600000002,-9.336557399,-0.14729013300000002,0.056501684,0.323908054,2.2000000000000002e-23,93.85466444,98.15873517,-2.5584283709999998,-3.075145627,15.36618144,15.38094384,-0.000295256,-0.00252978,-0.1,75.28971465,499.01978669999994,11.75803541,95473.005,1.1343772140000001,-0.41782787200000004,-0.611777082,0.17032615199999998,-0.145051215,0.07088897,0.330306208,0.22150024399999999,-0.137383115,-3.035445965,0.060173054000000004,-0.062271715,-0.11372665900000001,-0.989729766,0.0,398727647.8,327430148.2,499813.3033,15.14286257,-14.26759552,5.0122324460000005,2.20282452,2.8036241719999997,0,0,0.0,39.871413700000005,32.7364368,148.53538590000002,561.9081992,-99.38746438,-14.39865448,4.453564772,2.475262386,-1.219569503,-4.504825727,1.642641785,99.54313438,-0.162829501,0.134119204,0.12343317300000001,0.0,54049006,0,0,1,0,0
1216,54081639,-0.036972279,0.065489587,0.154691583,0.0,0.0,1570.0,1500.0,1000.0,1519.0,1480.0,1532.0,14.91149106,15.27626622,15.87036888,15.80993504,16.1969042,15.64127827,16.0241204,136.5223733,136.5223733,11.75569383,-0.00145429,-0.005800102,0.000104567,-0.200129335,0.178566594,-0.025166106,2.0,1.162232446,2.162232446,11,0,0,1,0,0.0,0,0,0,0,0,0.235372401,-0.13767718199999998,-3.038124201,-3.1330982119999997,-4.970334458,253.3427373,43.45694507,-0.01142246,0.016399437,0.06295782700000001,0.0,-1.275566956,0.092044554,-9.374925794,2.2000000000000002e-23,954.7376654999999,11.75915532,-0.145567053,0.059484387,0.339093068,-1.295618704,0.140052987,-9.29171776,-0.151907033,0.056889279,0.320721359,2.2000000000000002e-23,93.75607192,98.05642188,-2.567000616,-3.10901034,15.36610355,15.40013303,-0.000680597,0.027464773999999997,-0.1,75.14901875,499.00366039999994,11.75860804,95473.18621,1.1343793979999999,0.301989153,-0.299003619,0.29928523,-0.143771301,0.066879222,0.326490464,0.214745502,-0.135865867,-3.033396966,0.060900402,-0.061608402,-0.110415056,-0.9900993229999999,0.0,398727601.1,327430169.4,499733.7694,15.13242048,-14.31284457,4.839937988,2.2654770330000003,2.815348845,0,0,0.0,39.871413700000005,32.7364368,148.0435451,562.0594275000001,-99.30458016,-14.43838693,4.298827309,2.5318171030000003,-1.18608943,-4.463941785,1.581515209,99.46025016,-0.16823717,0.132281459,0.117449601,0.0,54081639,0,0,1,0,0
1217,54126272,-0.034779052000000005,0.066041114,0.15189571699999999,0.0,0.0,1568.763753,1500.0,1000.0,1519.0,1480.0,1531.708742,14.94785578,15.31357087,15.8668114,15.8067016,16.19359371,15.63907769,16.02186804,136.7140438,136.7140438,11.75633349,-0.001454536,-0.005800359000000001,0.000104896,-0.200158301,0.178565046,-0.025046061,2.0,1.164832967,2.1648329669999997,11,0,0,1,0,0.0,0,0,0,0,0,0.227468757,-0.138056089,-3.036721423,-3.132814852,-5.033621921,252.8344187,43.4837725,-0.011416052,0.016511892,0.062551137,0.0,-1.275064033,0.06228347099999999,-9.42057817,2.2000000000000002e-23,954.7394399,11.75985903,-0.143438986,0.05434498,0.325634957,-1.366499741,0.190519243,-9.389399418,-0.156523933,0.057276873,0.317534663,2.2000000000000002e-23,93.6572369,97.95061145,-2.555421523,-3.1385949230000003,15.36601277,15.41561522,-0.0009920530000000001,0.054421269,-0.1,75.01159241,498.9692437,11.75917307,95473.57484,1.134384018,1.000393291,-0.169391767,-0.28857272100000003,-0.145434719,0.070312406,0.325884178,0.21132014699999999,-0.138305708,-3.02849784,0.063344503,-0.062656058,-0.108926585,-0.990047565,0.0,398727554.5,327430190.6,499654.2354,15.121978400000001,-14.35809362,4.667643528999999,2.328129546,2.827073518,0,0,0.0,39.871413700000005,32.7364368,147.5362081,562.2092097,-99.21734894,-14.47843277,4.141258512,2.588115821,-1.154323651,-4.424964666,1.532732334,99.37301894,-0.16810808800000002,0.115387117,0.120005695,0.0,54126272,0,0,1,0,0
1218,54162905,-0.040249474,0.061996729,0.14900197199999998,0.0,0.0,1567.0,1500.0,1000.0,1518.755751,1480.244249,1533.0,14.81470731,15.17711717,15.86325392,15.80346817,16.19028321,15.63687711,16.01961569,136.90571440000002,136.90571440000002,11.75697316,-0.001454781,-0.005800616999999999,0.000105226,-0.200187268,0.17856349800000001,-0.024926016000000002,2.0,1.167433487,2.167433487,11,0,0,1,0,0.0,0,0,0,0,0,0.21956443899999997,-0.138359289,-3.035449276,-3.132550705,-5.091662217,252.32169100000002,43.51337486,-0.011410118,0.016610727,0.062147355,0.0,-1.2884281709999998,0.041458663,-9.433977339,2.2000000000000002e-23,954.7545912999999,11.76048473,-0.145333543,0.063482873,0.32600952899999996,-1.3463690609999999,0.14796232199999998,-9.312331139,-0.158156773,0.057120541,0.311335318,2.2000000000000002e-23,93.55840188,97.84480103,-2.543842429,-3.168179505,15.365922,15.43109742,-0.001303509,0.081377765,-0.1,74.87416608,498.9441857,11.75976745,95473.86938999999,1.1343874809999999,-0.065511206,-0.32863415,-0.16136599699999998,-0.148262757,0.070548187,0.321790814,0.202269082,-0.144698403,-3.0286761089999996,0.063280874,-0.06611963400000001,-0.104595576,-0.990293234,0.0,398727507.9,327430211.9,499574.7015,15.11153631,-14.40334267,4.49534907,2.390782059,2.8387981910000004,0,0,0.0,39.871413700000005,32.7364368,146.9990531,562.3562091,-99.12175317,-14.51908166,3.97824161,2.643921942,-1.125856542,-4.389656689,1.507701426,99.27742317,-0.170449247,0.126466341,0.10910540099999999,0.0,54162905,0,0,1,0,0
1219,54195538,-0.036352206,0.070268186,0.14083768900000002,0.0,0.0,1568.275255,1500.0,1000.0,1519.275255,1479.724745,1531.724745,14.89757878,15.26202009,15.85969645,15.80023473,16.18697272,15.63467653,16.01736334,137.097385,137.097385,11.75761282,-0.001455027,-0.005800874,0.000105555,-0.200216234,0.178561949,-0.024805971,2.0,1.170034007,2.170034007,11,0,0,1,0,0.0,0,0,0,0,0,0.21165484699999998,-0.138070083,-3.0351993160000004,-3.1324369030000003,-5.10864343,251.77446119999996,43.56469099,-0.01140356,0.016740096,0.061725834,0.0,-1.309059411,0.025316953,-9.430474052000001,2.2000000000000002e-23,954.776753,11.76106956,-0.147777682,0.057616183,0.318818932,-1.390070379,0.125356889,-9.333609035,-0.158225803,0.05667916,0.303557178,2.2000000000000002e-23,93.45956686,97.7389906,-2.532263335,-3.197764088,15.36583123,15.44657961,-0.001614966,0.10833426,-0.1,74.73673975,498.8506152,11.76037896,95474.92018,1.134400052,0.514873692,-0.7444002679999999,-0.443668646,-0.149399723,0.06669233299999999,0.319778956,0.193162471,-0.13376085,-3.028980932,0.06232584099999999,-0.060998492,-0.09980603800000001,-0.9911742,0.0,398727462.0,327430229.0,499488.1914,15.10703126,-14.44413868,4.334928986,2.451950305,2.849797502,0,0,0.0,39.871413700000005,32.7364368,146.46189819999998,562.5032085,-99.0261574,-14.55973054,3.815224708,2.6997280630000002,-1.097389434,-4.354348711,1.4826705169999999,99.1818274,-0.175368733,0.128093333,0.10113479800000001,0.0,54195538,0,0,1,0,0
1220,54228170,-0.04129381,0.06834108900000001,0.136414578,0.0,0.0,1565.0,1500.0,1000.0,1519.0,1480.0,1536.2052410000001,14.99683484,15.36356949,15.85613897,15.79700129,16.18366222,15.63247595,16.01511099,137.2890555,137.2890555,11.75825249,-0.001455273,-0.005801132,0.00010588399999999999,-0.200245201,0.178560401,-0.024685926,2.0,1.172634527,2.172634527,11,0,0,1,0,0.0,0,0,0,0,0,0.203745255,-0.137780877,-3.0349493560000003,-3.1323231010000003,-5.125624644,251.22723140000002,43.61600712,-0.011399983999999998,0.016863206999999998,0.061300232999999996,0.0,-1.329690651,0.009175244,-9.426970766,2.2000000000000002e-23,954.7989147,11.76165439,-0.15393031,0.05813337,0.31555429,-1.37860663,0.22050957100000002,-9.351693899999999,-0.158294832,0.05623778,0.29577903699999997,2.2000000000000002e-23,93.36073184,97.63318018,-2.520684241,-3.22734867,15.36574046,15.462061800000003,-0.0019264220000000001,0.13529075599999998,-0.1,74.59931341,498.577768,11.76099703,95478.03194,1.134436952,-0.039184086,-0.418154907,0.075522004,-0.143647074,0.068349292,0.312753552,0.18424756399999997,-0.135862506,-3.0292787660000005,0.061996327999999996,-0.062332937000000005,-0.09543020699999999,-0.991545018,0.0,398727416.2,327430245.3,499400.4779,15.10355039,-14.48416651,4.176557311,2.512862505,2.8606716839999997,0,0,0.0,39.871413700000005,32.7364368,145.94401159999998,562.6364825,-98.93172886,-14.59757072,3.660347246,2.750761512,-1.072565038,-4.31538016,1.441463079,99.08739905,-0.174691188,0.136263475,0.09434124099999999,0.0,54228170,0,0,1,0,0
1221,54260803,-0.036923171,0.06395390599999999,0.138275642,0.0,0.0,1565.0,1500.0,1000.0,1519.0,1480.0,1534.0,14.94710492,15.31252284,15.85258149,15.79376785,16.18035173,15.63027538,16.01285863,137.4807261,137.4807261,11.75889215,-0.001455519,-0.0058013890000000005,0.000106213,-0.200274167,0.17855885300000002,-0.024565881,2.0,1.175235047,2.1752350469999997,11,0,0,1,0,0.0,0,0,0,0,0,0.19583566300000002,-0.137491671,-3.034699396,-3.132209299,-5.1426058580000005,250.68000159999997,43.66732325,-0.011388208,0.016984773,0.060888036,0.0,-1.340520245,0.030846852999999997,-9.437813951,3.499170385,954.8017861,11.762275500000001,-0.143386729,0.055987015,0.311064519,-1.3902121180000002,0.150545249,-9.367524735,-0.15810923400000002,0.056489422000000004,0.29128397,3.499170385,93.26189682,97.52736975,-2.509105147,-3.256933253,15.36564969,15.47754399,-0.002237878,0.16224725199999998,-0.1,74.46188708,498.48623539999994,11.76160499,95479.08643,1.134449472,0.131730078,0.589116262,-0.660931917,-0.146461428,0.064522981,0.30567290199999997,0.17547981199999999,-0.137194976,-3.0295779960000004,0.06162559,-0.06327927900000001,-0.091106224,-0.991913281,0.0,398727370.4,327430261.7,499312.7644,15.10006952,-14.52419434,4.018185637,2.573774705,2.8715458660000004,0,0,0.0,39.871413700000005,32.7364368,145.4435142,562.75737,-98.83835371,-14.63287614,3.512815347,2.797487793,-1.051028064,-4.273108068,1.385656887,98.99402425,-0.170983067,0.128920976,0.093745824,0.0,54260803,0,0,1,0,0
1222,54297436,-0.038418802,0.066537252,0.13813717,0.0,0.0,1563.0,1500.0,1000.0,1519.0,1480.0,1533.0,14.98581008,15.35196339,15.84902401,15.79053441,16.17704123,15.628074800000002,16.01060628,137.6723967,137.6723967,11.75953181,-0.001455764,-0.005801646999999999,0.00010654200000000001,-0.200303134,0.17855730399999997,-0.024445836000000002,2.0,1.177835567,2.177835567,11,0,0,1,0,0.0,0,0,0,0,0,0.18792607100000003,-0.137202466,-3.034449436,-3.132095498,-5.159587071,250.13277180000003,43.71863938,-0.011376063,0.017098953,0.060474473,0.0,-1.34945806,0.05981666,-9.451426092,7.673701832000001,954.8009344000001,11.76290362,-0.148073068,0.057532358,0.30745252300000003,-1.3698445590000001,0.18543282,-9.358706917000001,-0.15787449,0.056874821,0.287422555,7.673701832000001,93.15111944,97.40698302,-2.5226262569999998,-3.2803493930000003,15.36555164,15.502723499999998,-0.00274343,0.187113372,-0.1,74.31798087,498.44453330000005,11.7622685,95479.54201,1.134454864,0.182861315,0.430274902,-0.311742195,-0.148222521,0.065719248,0.30128281100000004,0.166892945,-0.136744924,-3.02987891,0.061187464000000004,-0.063332927,-0.08682599,-0.992322045,0.0,398727324.6,327430278.0,499225.0508,15.09658865,-14.56422217,3.859813963,2.634686904,2.882420048,0,0,0.0,39.871413700000005,32.7364368,144.9430167,562.8782575,-98.74497855,-14.66818156,3.365283447,2.8442140730000003,-1.029491089,-4.230835976,1.3298506959999998,98.90064945,-0.174926255,0.11886589,0.090220725,0.0,54297436,0,0,1,0,0
1223,54330069,-0.037318474,0.066274084,0.136800114,0.0,0.0,1562.0,1500.0,1000.0,1519.3532710000002,1479.6467289999998,1535.0,15.01726334,15.38423067,15.84546653,15.78730097,16.17373074,15.62587422,16.00835393,137.86406719999997,137.86406719999997,11.76017148,-0.00145601,-0.005801904,0.000106871,-0.2003321,0.178555756,-0.024325791,2.0,1.1804360870000001,2.180436087,11,0,0,1,0,0.0,0,0,0,0,0,0.18001647899999998,-0.13691326,-3.034199477,-3.1319816960000004,-5.176568285,249.585542,43.76995551,-0.011367748,0.017203812,0.060083874,0.0,-1.358247604,0.089469533,-9.464978663,11.67880472,954.8004543,11.76353219,-0.152654135,0.052680927999999995,0.300701966,-1.38796472,0.159665014,-9.408291541,-0.157661774,0.057236262,0.283582778,11.67880472,93.03703442,97.28255913,-2.5430993180000003,-3.3020570719999998,15.36545158,15.53058885,-0.0033027409999999997,0.211400525,-0.1,74.17227994,498.34377639999997,11.76290164,95480.72664,1.134469005,0.052371218,-0.488293529,-0.123847174,-0.151173816,0.065780499,0.295298836,0.15847958,-0.141312292,-3.0301105180000003,0.060979822,-0.06586729,-0.082757327,-0.9925176040000001,0.0,398727278.9,327430294.4,499137.3373,15.09310778,-14.60425001,3.701442288,2.695599104,2.893294231,0,0,0.0,39.871413700000005,32.7364368,144.4106426,562.9948837000001,-98.6428118,-14.70411737,3.2119049410000002,2.8897545910000004,-0.992281567,-4.207001472,1.266594392,98.79848255,-0.17523814699999998,0.138440957,0.078842516,0.0,54330069,0,0,1,0,0
1224,54362702,-0.0386384,0.07450206,0.131028209,0.0,0.0,1561.0,1500.0,1000.0,1518.872775,1480.127225,1534.0,14.86058371,15.22363917,15.84190906,15.78406754,16.17042024,15.62367364,16.00610158,138.0557378,138.0557378,11.76081114,-0.001456256,-0.005802162,0.0001072,-0.200361067,0.17855420800000002,-0.024205747000000003,2.0,1.183036607,2.183036607,11,0,0,1,0,0.0,0,0,0,0,0,0.172106887,-0.136624054,-3.033949517,-3.1318678939999995,-5.1935494989999995,249.0383122,43.82127164,-0.011359174,0.017341829,0.059662783,0.0,-1.359878911,0.152099252,-9.475655311,7.504273273,954.8179140000001,11.76418195,-0.147789808,0.05585434400000001,0.302959242,-1.4098680319999999,0.22930168399999998,-9.39385048,-0.158512488,0.056441023,0.280787637,7.504273273,92.92294939,97.15813524,-2.563572379,-3.3237647519999998,15.36535152,15.558454199999998,-0.003862052,0.23568767899999998,-0.1,74.026579,498.3863342,11.76356783,95480.25949,1.134463375,-0.047540734,-0.08529577699999999,-0.11221002199999999,-0.154099879,0.07321902599999999,0.29640259,0.15023856900000002,-0.129879673,-3.03037852,0.060166835,-0.06044886,-0.07837122,-0.99326862,0.0,398727232.8,327430310.4,499047.7075,15.09037109,-14.64427787,3.5440008,2.75465093,2.9041002280000003,0,0,0.0,39.871413700000005,32.7364368,143.86520380000002,563.1097632999999,-98.53704183,-14.74031153,3.05613021,2.934809126,-0.948648666,-4.190723596000001,1.200284667,98.69271222,-0.172997065,0.126400218,0.07952563,0.0,54362702,0,0,1,0,0
1225,54395335,-0.037663973999999996,0.072372702,0.12784089999999998,0.0,0.0,1559.0,1500.0,1000.0,1520.215443,1478.784557,1536.176835,15.02274522,15.38975353,15.83835158,15.780834099999998,16.16710975,15.62147306,16.00384922,138.2474084,138.2474084,11.76145081,-0.0014565020000000001,-0.0058024190000000005,0.00010752899999999999,-0.200390033,0.17855265899999997,-0.024085702,2.0,1.1856371270000001,2.1856371269999997,11,0,0,1,0,0.0,0,0,0,0,0,0.164197295,-0.136334848,-3.033699557,-3.131754093,-5.210530712,248.4910824,43.87258777,-0.011350738,0.017474265,0.059249290999999996,0.0,-1.361510217,0.214728972,-9.486331959,3.329741825,954.8353735999999,11.76483172,-0.150986693,0.050219235999999993,0.290949281,-1.4129639390000002,0.176086966,-9.502367626,-0.159363203,0.055645783,0.277992495,3.329741825,92.80886437,97.03371135,-2.58404544,-3.345472431,15.36525147,15.58631955,-0.004421363,0.259974832,-0.1,73.88087807,498.1217409,11.76424627,95483.2695,1.1344991759999998,0.038431951,0.129369825,-0.176592183,-0.150113926,0.065629383,0.288349612,0.142110895,-0.132627787,-3.03067577,0.059867573,-0.062069532000000004,-0.07439433200000001,-0.993491364,0.0,398727184.4,327430323.6,498942.0684,15.09385196,-14.68430605,3.3943308660000002,2.798159632,2.914336555,0,0,0.0,39.871413700000005,32.7364368,143.319765,563.224643,-98.43127186,-14.7765057,2.9003554780000003,2.9798636610000004,-0.9050157640000001,-4.17444572,1.133974942,98.58694189,-0.180928917,0.11855893099999999,0.074841814,0.0,54395335,0,0,1,0,0
1226,54439968,-0.036649227,0.067611502,0.12744962099999999,0.0,0.0,1557.0,1500.0,1000.0,1520.0,1479.0,1537.0,14.96026369,15.32555742,15.8347941,15.77760066,16.16379925,15.61927248,16.00159687,138.439079,138.439079,11.76209047,-0.0014567470000000002,-0.005802676,0.000107858,-0.200419,0.178551111,-0.023965657,2.0,1.1882376479999999,2.1882376480000003,11,0,0,1,0,0.0,0,0,0,0,0,0.156287703,-0.136045642,-3.0334495969999997,-3.131640291,-5.227511926,247.9438526,43.9239039,-0.011339783,0.017589308999999997,0.058843942999999996,0.0,-1.3636956,0.262156784,-9.507016226000001,2.2000000000000002e-23,954.8503168999999,11.76548587,-0.157460768,0.060692592000000004,0.298267417,-1.3999261840000001,0.21713624199999998,-9.494386544,-0.161112883,0.054587705,0.274713395,2.2000000000000002e-23,92.69477934,96.90928745,-2.604518501,-3.367180111,15.36515141,15.614184900000001,-0.004980674,0.284261986,-0.1,73.73517714,498.0201283,11.76492463,95484.44971,1.134513222,0.20496601399999997,-0.236624599,-0.025159822000000002,-0.152983456,0.062897995,0.285959901,0.134054809,-0.138735854,-3.03098474,0.05965441,-0.065357597,-0.070536661,-0.9935763320000001,0.0,398727136.1,327430336.9,498836.4293,15.09733283,-14.72433423,3.244660932,2.841668334,2.924572882,0,0,0.0,39.871413700000005,32.7364368,142.8088132,563.3188248,-98.32883866,-14.80814397,2.7596147839999996,3.016953373,-0.8645086540000001,-4.113926972,1.103914792,98.48450866,-0.178174873,0.126005475,0.069680143,0.0,54439968,0,0,1,0,0
1227,54485202,-0.039823115,0.064235439,0.12416592900000001,0.0,0.0,1556.0,1500.0,1000.0,1520.431286,1478.568714,1534.568714,15.02280303,15.38958328,15.83123662,15.77436722,16.16048876,15.61707191,15.99934452,138.6307495,138.6307495,11.76273014,-0.001456993,-0.005802934,0.00010818799999999999,-0.200447966,0.178549563,-0.023845612000000002,2.0,1.190838168,2.190838168,11,0,0,1,0,0.0,0,0,0,0,0,0.148378111,-0.13575643699999998,-3.033199637,-3.1315264889999996,-5.24449314,247.39662280000002,43.97522003,-0.011331411999999999,0.017697662,0.058443395,0.0,-1.3680648780000002,0.249666213,-9.567145564,2.2000000000000002e-23,954.8553419,11.76615729,-0.158125891,0.050397853,0.283194712,-1.3953403819999999,0.17469930399999997,-9.55773368,-0.16640584,0.052493646,0.269526768,2.2000000000000002e-23,92.58148246,96.78567094,-2.6257560090000003,-3.388041765,15.36505225,15.64237464,-0.005546455,0.307802145,-0.1,73.59161206,497.96089759999995,11.7656192,95485.10066,1.1345209920000001,-0.135306538,-0.363095635,-0.392745643,-0.158499829,0.067314591,0.2803967,0.126232535,-0.138959792,-3.031296254,0.059246889000000004,-0.065712044,-0.066645455,-0.9938428659999999,0.0,398727087.7,327430350.1,498730.7902,15.100813699999998,-14.76436241,3.094990998,2.885177035,2.934809209,0,0,0.0,39.871413700000005,32.7364368,142.3019955,563.4105254,-98.22680545,-14.83923612,2.620676277,3.053088311,-0.824376245,-4.0481049019999995,1.0782000170000001,98.38247545,-0.182674433,0.116212451,0.066069549,0.0,54485202,0,0,1,0,0
1228,54525234,-0.039742445,0.076449001,0.11877618599999999,0.0,0.0,1556.0,1500.0,1000.0,1519.0,1480.0,1532.0,15.00062224,15.36683507,15.82767914,15.77113378,16.15717826,15.61487133,15.99709217,138.8224201,138.8224201,11.7633698,-0.001457239,-0.005803191,0.000108517,-0.200476933,0.17854801399999998,-0.023725567000000003,2.0,1.193438688,2.193438688,11,0,0,1,0,0.0,0,0,0,0,0,0.14046851900000001,-0.135467231,-3.032949677,-3.131412687,-5.2614743530000005,246.84939300000002,44.02653616,-0.011320802,0.017812875,0.058041380999999996,0.0,-1.372434156,0.237175642,-9.627274901,2.2000000000000002e-23,954.8603668,11.7668287,-0.15380980800000002,0.049653137,0.285208797,-1.3101843709999998,0.204016995,-9.542706169,-0.171698797,0.050399587999999995,0.26434014,2.2000000000000002e-23,92.47770214,96.6718032,-2.6562239340000002,-3.3986879780000003,15.36496393,15.6744812,-0.006190351,0.322322625,-0.1,73.47383658,497.89570430000003,11.76631155,95485.86986,1.134530115,-0.252513496,0.493901808,-0.021388885,-0.157129769,0.0684704,0.273733582,0.11854351,-0.13868719599999998,-3.031609972,0.058833592000000004,-0.06581373900000001,-0.062806982,-0.9941137959999999,0.0,398727039.3,327430363.3,498625.151,15.10429457,-14.80439059,2.945321064,2.928685737,2.9450455360000003,0,0,0.0,39.871413700000005,32.7364368,141.7917083,563.5016703,-98.12382267,-14.870270600000001,2.481299176,3.0891939589999997,-0.786015516,-3.9829681939999997,1.050592968,98.27949267,-0.18087310199999998,0.134876151,0.057510991,0.0,54525234,0,0,1,0,0
1229,54557867,-0.040373004,0.071940158,0.118258142,0.0,0.0,1552.0,1500.0,1000.0,1521.470294,1477.529706,1536.0,15.01713633,15.3837092,15.82412167,15.76790034,16.15386777,15.61267075,15.99483981,139.0140907,139.0140907,11.76400947,-0.001457485,-0.0058034490000000005,0.00010884600000000001,-0.200505899,0.17854646600000001,-0.023605522,2.0,1.196039208,2.196039208,11,0,0,1,0,0.0,0,0,0,0,0,0.132558927,-0.135178025,-3.032699717,-3.131298886,-5.278455567,246.30216319999997,44.07785229,-0.011311006,0.017945165,0.057625847,0.0,-1.357277906,0.220685806,-9.680303063,2.2000000000000002e-23,954.8725379000001,11.76757925,-0.15943526,0.056208817,0.278839893,-1.324694557,0.200393585,-9.617480926,-0.174228386,0.04900507,0.25881620699999996,2.2000000000000002e-23,92.37392181,96.55793547,-2.6866918589999997,-3.40933419,15.36487561,15.70658777,-0.006834247,0.336843106,-0.1,73.35606111,497.86120530000005,11.76701949,95486.25722999999,1.134534678,0.401760897,-0.188121565,0.080314435,-0.164829834,0.068428422,0.273743573,0.11116418199999999,-0.130930643,-3.031821507,0.058282765,-0.062178080999999996,-0.058934121,-0.994615483,0.0,398726990.9,327430376.5,498519.5119,15.10777544,-14.84441877,2.79565113,2.972194439,2.955281863,0,0,0.0,39.871413700000005,32.7364368,141.23960830000001,563.5861168,-98.00939606,-14.90060999,2.336636356,3.124946628,-0.7690061340000001,-3.926091108,1.000181242,98.16506606,-0.18128593399999998,0.12432066300000001,0.056554284,0.0,54557867,0,0,1,0,0
1230,54598500,-0.04353232,0.067532384,0.11347643800000001,0.0,0.0,1552.989798,1500.0,1000.0,1521.0,1478.0,1535.0,15.15878781,15.52881204,15.82056419,15.76466691,16.15055727,15.61047017,15.99258746,139.20576119999998,139.20576119999998,11.76464913,-0.00145773,-0.005803706,0.000109175,-0.200534866,0.178544917,-0.023485477,2.0,1.198639728,2.1986397280000003,11,0,0,1,0,0.0,0,0,0,0,0,0.124649335,-0.134888819,-3.0324497569999997,-3.1311850839999997,-5.295436781,245.75493340000003,44.12916842,-0.011299698,0.01807037,0.057218087,0.0,-1.310857908,0.197792455,-9.721961011,2.2000000000000002e-23,954.896151,11.76845649,-0.16868691,0.057133877,0.27809495100000003,-1.364456886,0.18240993,-9.590278231000001,-0.172333343,0.048730637,0.25275219,2.2000000000000002e-23,92.27014148,96.44406774,-2.7171597839999997,-3.4199804030000003,15.36478729,15.73869434,-0.0074781430000000005,0.35136358700000003,-0.1,73.23828563,497.7469748,11.76772826,95487.57902,1.134550417,-0.704409533,-0.042835705,0.011370568999999999,-0.164977659,0.057527678,0.265599094,0.103897596,-0.129410894,-3.0321331189999996,0.05786728,-0.061641815,-0.055271453,-0.994884828,0.0,398726942.7,327430388.4,498412.4909,15.11314063,-14.881306200000001,2.646609316,3.0125625,2.965408557,0,0,0.0,39.871413700000005,32.7364368,140.6875084,563.6705632999999,-97.89496946,-14.93094939,2.191973536,3.160699296,-0.751996751,-3.869214022,0.9497695159999999,98.05063946,-0.18136976,0.11257569699999999,0.054810682,0.0,54598500,0,0,1,0,0
1231,54634265,-0.040837816,0.066318317,0.112372126,0.0,0.0,1552.0,1500.0,1000.0,1520.0,1479.0,1535.0,15.05061083,15.41785465,15.81700671,15.76143347,16.14724678,15.60826959,15.99033511,139.39743180000002,139.39743180000002,11.76528879,-0.0014579760000000002,-0.005803964,0.000109504,-0.200563833,0.17854336899999998,-0.023365432000000002,2.0,1.201240248,2.201240248,11,0,0,1,0,0.0,0,0,0,0,0,0.116739743,-0.134599614,-3.032199798,-3.1310712819999997,-5.312417994,245.20770359999997,44.18048455,-0.011289704,0.018171358000000002,0.056847571,0.0,-1.26443791,0.174899103,-9.76361896,2.2000000000000002e-23,954.9197641000001,11.76933373,-0.161594225,0.056350389,0.274533537,-1.4416900519999998,0.163701659,-9.57805664,-0.1704383,0.048456205,0.24668817199999998,2.2000000000000002e-23,92.16636115,96.3302,-2.7476277089999996,-3.430626615,15.36469897,15.7708009,-0.008122038,0.36588406700000004,-0.1,73.12051016,497.5074784,11.76845114,95490.2907,1.134582595,0.09798612300000001,0.292505508,-0.522700698,-0.166652455,0.064313057,0.265020284,0.096815612,-0.1358443,-3.032435843,0.057642154,-0.065055709,-0.051903396,-0.9948611629999999,0.0,398726894.9,327430397.8,498303.023,15.12184237,-14.91263229,2.498679712,3.047369427,2.975341124,0,0,0.0,39.871413700000005,32.7364368,140.1340999,563.7511505,-97.77967393,-14.96123362,2.048515401,3.19473397,-0.741276259,-3.8092583280000003,0.894640227,97.93534393,-0.187299121,0.10173580800000001,0.051575424,0.0,54634265,0,0,1,0,0
1232,54667766,-0.041513332,0.06613991,0.11002396,0.0,0.0,1551.0,1500.0,1000.0,1520.028806,1478.971194,1536.971194,15.16769116,15.53755723,15.81344923,15.75820003,16.14393628,15.60606902,15.98808276,139.5891024,139.5891024,11.76592846,-0.0014582220000000001,-0.005804221,0.00010983299999999999,-0.200592799,0.17854182100000002,-0.023245388,2.0,1.203840768,2.203840768,11,0,0,1,0,0.0,0,0,0,0,0,0.108830151,-0.13431040800000002,-3.031949838,-3.1309574810000003,-5.329399208,244.66047379999998,44.23180068,-0.011277299999999999,0.018267022,0.05646987,0.0,-1.284628585,0.158299714,-9.78000917,2.2000000000000002e-23,954.9359629,11.770119000000001,-0.161665217,0.045978165,0.2687363,-1.4688571469999998,0.144062196,-9.622852621,-0.17093179,0.050092440999999994,0.244043557,2.2000000000000002e-23,92.06258082,96.21633227,-2.7780956339999996,-3.4412728280000002,15.36461065,15.80290747,-0.008765934,0.38040454799999995,-0.1,73.00273468,497.2908954,11.76920368,95492.78538,1.1346122509999998,-0.6294888270000001,0.328161115,-0.416744423,-0.165178731,0.062269938,0.257635839,0.090004165,-0.140727005,-3.03274701,0.057363303,-0.06768917599999999,-0.048629549,-0.994866813,0.0,398726847.0,327430407.2,498193.5551,15.13054411,-14.94395838,2.3507501090000003,3.082176353,2.985273691,0,0,0.0,39.871413700000005,32.7364368,139.57697209999998,563.8207693,-97.66190895,-14.99136104,1.908480968,3.2238861169999997,-0.7484287390000001,-3.740553259,0.826103659,97.81757895,-0.184750892,0.109261972,0.046224244000000005,0.0,54667766,0,0,1,0,0
1233,54708398,-0.045383543,0.071126099,0.106319395,0.0,0.0,1550.0,1500.0,1000.0,1522.0,1477.0,1534.0,15.09713189,15.4651788,15.80989175,15.75496659,16.14062579,15.60386844,15.985830400000001,139.780773,139.780773,11.76656812,-0.0014584679999999999,-0.005804479,0.000110162,-0.200621766,0.178540272,-0.023125343,2.0,1.206441288,2.206441288,11,0,0,1,0,0.0,0,0,0,0,0,0.10229129699999999,-0.134148589,-3.032705378,-3.131020087,-5.302304151,244.1043201,44.28754524,-0.011264163,0.01838101,0.056067933,0.0,-1.3557880219999998,0.146516301,-9.777065161,2.2000000000000002e-23,954.9464882999999,11.77083388,-0.17547631600000002,0.044865142000000004,0.258365434,-1.446499486,0.176563109,-9.586682562,-0.173252923,0.053190672,0.244015381,2.2000000000000002e-23,91.95839347,96.10170558,-2.794684005,-3.4492130339999996,15.36451572,15.83126123,-0.009334907,0.392955416,-0.1,72.88863994,497.3153976,11.76992832,95492.50035,1.134608839,-0.496448606,0.590446431,-0.164975036,-0.172933311,0.060999407,0.255828832,0.083302761,-0.137122371,-3.033061755,0.056914969,-0.066093812,-0.045192718,-0.995160385,0.0,398726799.1,327430416.6,498084.0872,15.13924585,-14.97528447,2.202820506,3.11698328,2.995206258,0,0,0.0,39.871413700000005,32.7364368,139.0198444,563.890388,-97.54414397,-15.02148846,1.768446534,3.2530382639999997,-0.755581218,-3.671848189,0.757567092,97.69981397,-0.18079922399999998,0.12790496699999998,0.039073567000000003,0.0,54708398,0,0,1,0,0
1234,54741031,-0.038665716,0.077203795,0.10447859699999999,0.0,0.0,1547.0,1500.0,1000.0,1521.0,1478.0,1539.0,15.08217984,15.44996083,15.80633428,15.75173315,16.13731529,15.60166786,15.98357805,139.9724435,139.9724435,11.76720779,-0.0014587139999999998,-0.005804736,0.00011049100000000001,-0.200650732,0.17853872399999998,-0.023005297999999997,2.0,1.209041808,2.2090418080000003,11,0,0,1,0,0.0,0,0,0,0,0,0.095821796,-0.133993215,-3.0335117910000005,-3.1310916189999998,-5.272979045,243.54771490000002,44.34351385,-0.011251865,0.018496881,0.055704365,0.0,-1.42694746,0.134732889,-9.774121151000001,2.2000000000000002e-23,954.9570138,11.77154877,-0.170052116,0.046295499999999996,0.254281128,-1.41661009,0.143857378,-9.659771284,-0.175574056,0.056288902,0.24398720399999999,2.2000000000000002e-23,91.85351267,95.98578584,-2.78762573,-3.452543008,15.36440953,15.85322134,-0.009776233,0.402150647,-0.1,72.78081606,497.21534110000005,11.77067934,95493.6348,1.13462235,0.177281413,0.6100202889999999,0.160878474,-0.168741594,0.06659104,0.24848226,0.076910021,-0.134152456,-3.033285846,0.05653774,-0.064801907,-0.041928069,-0.995411959,0.0,398726751.3,327430426.0,497974.6193,15.14794759,-15.00661056,2.054890902,3.1517902060000003,3.005138824,0,0,0.0,39.871413700000005,32.7364368,138.4809342,563.9520196000001,-97.4294435,-15.04958535,1.6356970730000002,3.278912637,-0.761677699,-3.622152063,0.7052102729999999,97.5851135,-0.18548393100000002,0.12418419300000001,0.0345996,0.0,54741031,0,0,1,0,0
1235,54781664,-0.043664765999999994,0.07366110099999999,0.102102346,0.0,0.0,1546.0,1500.0,1000.0,1520.0,1479.0,1538.0,15.20053545,15.57103491,15.802776800000002,15.74849971,16.1340048,15.59946728,15.981325699999998,140.16411409999998,140.16411409999998,11.76784745,-0.001458959,-0.0058049930000000005,0.00011082,-0.200679699,0.17853717600000002,-0.022885252999999998,2.0,1.211642328,2.211642328,11,0,0,1,0,0.0,0,0,0,0,0,0.089352295,-0.13383784199999998,-3.034318204,-3.1311631510000004,-5.243653939,242.9911097,44.39948247,-0.01123846,0.018612953999999998,0.055319474,0.0,-1.4244756859999999,0.150262664,-9.803324624,2.2000000000000002e-23,954.9700045,11.77227986,-0.169607153,0.051461539,0.251259971,-1.4670351680000002,0.171258815,-9.768344351,-0.175810377,0.054617067000000005,0.236769471,2.2000000000000002e-23,91.74863186,95.86986611,-2.780567455,-3.455872982,15.36430334,15.87518144,-0.010217559000000001,0.41134587899999997,-0.1,72.67299218,497.0645756,11.77143583,95495.36489,1.134642911,-0.583302587,0.771480238,-0.08843001,-0.176849127,0.061351209000000004,0.24748393300000002,0.070692717,-0.130672438,-3.0335786330000003,0.056134052000000004,-0.063250154,-0.038734317000000004,-0.995662477,0.0,398726703.4,327430435.4,497865.1514,15.15664933,-15.03793665,1.906961299,3.1865971330000002,3.015071391,0,0,0.0,39.871413700000005,32.7364368,137.964842,564.0036468999999,-97.31858145,-15.07513892,1.5120723180000002,3.300681472,-0.7664515009999999,-3.596265362,0.6731192029999999,97.47425145,-0.18105767399999997,0.10589501400000001,0.036945278,0.0,54781664,0,0,1,0,0
1236,54818297,-0.041797674,0.067047947,0.102838247,0.0,0.0,1546.0,1500.0,1000.0,1520.0,1479.0,1534.0,15.14499571,15.51403232,15.79921932,15.74526628,16.1306943,15.597266699999999,15.97907335,140.3557847,140.3557847,11.76848712,-0.001459205,-0.005805251,0.00011115,-0.200708665,0.178535627,-0.022765208,2.0,1.2142428490000001,2.214242849,11,0,0,1,0,0.0,0,0,0,0,0,0.08288279400000001,-0.133682468,-3.0351246169999997,-3.131234684,-5.214328833,242.4345044,44.45545108,-0.01122263,0.018712357,0.054947789000000004,0.0,-1.3972753580000001,0.174965392,-9.843324616,2.2000000000000002e-23,954.9838232000001,11.773016400000001,-0.18213713199999998,0.052769337,0.248670009,-1.3875972509999999,0.19760969399999997,-9.747897612000001,-0.17534652899999997,0.051343237,0.227137172,2.2000000000000002e-23,91.64375106,95.75394637,-2.77350918,-3.4592029560000004,15.36419715,15.89714155,-0.010658886000000001,0.42054111,-0.1,72.56516831,496.9600931,11.77218591,95496.56106,1.1346571570000001,-1.010609302,-0.560544023,-0.257272193,-0.175253989,0.064035052,0.23788132899999997,0.057909567,-0.133014519,-3.039434387,0.052846372,-0.064863821,-0.032241747,-0.9959657340000001,0.0,398726655.8,327430442.9,497752.901,15.16856171,-15.0649821,1.774014714,3.209631748,3.0239952810000004,0,0,0.0,39.871413700000005,32.7364368,137.4487498,564.0552743,-97.2077194,-15.10069249,1.3884475619999999,3.322450308,-0.7712253029999999,-3.570378662,0.641028134,97.3633894,-0.18353613300000002,0.095112984,0.034365666,0.0,54818297,0,0,1,0,0
1237,54854930,-0.044767454000000005,0.07781806299999999,0.095313886,0.0,0.0,1545.0,1500.0,1000.0,1519.747349,1479.252651,1534.505301,15.21598276,15.58666631,15.79615523,15.74234087,16.12769993,15.59480487,15.97655388,140.5474552,140.5474552,11.76912678,-0.001459451,-0.005805508000000001,0.000111479,-0.200737632,0.17853407899999998,-0.022645163,2.0,1.216843369,2.2168433690000002,11,0,0,1,0,0.0,0,0,0,0,0,0.076413293,-0.133527094,-3.035931031,-3.131306216,-5.185003727,241.8778992,44.51141969,-0.011206279,0.018796526,0.054589614,0.0,-1.37007503,0.19966812,-9.883324607,2.2000000000000002e-23,954.9976419,11.77375293,-0.17739577399999998,0.054619768,0.23926970600000003,-1.379279036,0.132511755,-9.774182788,-0.174882681,0.048069407,0.217504874,2.2000000000000002e-23,91.53887025,95.63802663,-2.766450905,-3.462532931,15.36409095,15.91910165,-0.011100212,0.429736341,-0.1,72.45734443,496.8504754,11.77295464,95497.82687,1.134672182,-0.8160790179999999,0.21485200899999998,-0.113530739,-0.174327696,0.067190377,0.23965655100000002,0.049967146,-0.139463222,-3.0415192089999996,0.051617817,-0.068319673,-0.028372807000000003,-0.9959223979999999,0.0,398726608.3,327430449.1,497638.9082,15.1824845,-15.08934715,1.6504500180000001,3.225294915,3.03228757,0,0,0.0,39.871413700000005,32.7364368,136.9304448,564.0993026000001,-97.09545343,-15.12556327,1.267804334,3.3415852989999997,-0.746782805,-3.530547038,0.583132989,97.25112343,-0.178778265,0.096735333,0.031863154,0.0,54854930,0,0,1,0,0
1238,54887563,-0.040585168,0.073565214,0.09757930699999999,0.0,0.0,1543.0,1500.0,1000.0,1521.1458289999998,1477.8541710000002,1533.0,15.20376581,15.57412758,15.7933147,15.73955504,16.124848800000002,15.59222467,15.97391338,140.7391258,140.7391258,11.76976644,-0.001459697,-0.0058057659999999995,0.000111808,-0.20076659800000002,0.17853253100000002,-0.022525117999999997,2.0,1.2194438890000001,2.219443889,11,0,0,1,0,0.0,0,0,0,0,0,0.069943792,-0.133371721,-3.036737444,-3.1313777480000002,-5.155678621,241.321294,44.5673883,-0.011187933,0.018903803,0.054215247,0.0,-1.4186884309999999,0.157739038,-9.885553722000001,3.889182988,955.014684,11.77449921,-0.18270900399999998,0.052474574,0.236890248,-1.395764645,0.164679234,-9.79628225,-0.177880183,0.048622770999999995,0.213383312,3.889182988,91.43398945,95.5221069,-2.75939263,-3.465862905,15.36398476,15.94106176,-0.011541538,0.43893157200000005,-0.1,72.34952055,496.70181160000004,11.77372344,95499.51228,1.134692255,-0.5570119339999999,-0.154318307,0.017980389,-0.182361556,0.067192905,0.233411442,0.044372259000000004,-0.128842208,-3.041817781,0.051179253,-0.063176392,-0.025320106000000002,-0.99636447,0.0,398726560.8,327430455.4,497524.9154,15.19640728,-15.1137122,1.5268853230000001,3.240958083,3.040579858,0,0,0.0,39.871413700000005,32.7364368,136.41082680000002,564.138822,-96.98235444,-15.15002891,1.148930215,3.35915748,-0.705004603,-3.482441094,0.509926808,97.13802444,-0.179843495,0.105103321,0.025079908999999997,0.0,54887563,0,0,1,0,0
