timestamp,control[0],control[1],control[2],control[3],control[4],output[2],output[3],output[4],output[5],output[6],output[7],indicated_airspeed_m_s,true_airspeed_m_s,air_temperature_celsius,indicated_airspeed_m_s.1,equivalent_airspeed_m_s,true_airspeed_m_s.1,equivalent_ground_minus_wind_m_s,true_ground_minus_wind_m_s,differential_pressure_raw_pa,differential_pressure_filtered_pa,temperature,gyro_bias[0],gyro_bias[1],gyro_bias[2],accel_bias[0],accel_bias[1],accel_bias[2],instance_count,seq_reached,seq_current,seq_total,item_changed_index,item_do_jump_remaining,valid,warning,finished,failure,stay_in_failsafe,flight_termination,item_do_jump_changed,execution_mode,nav_roll,nav_pitch,nav_bearing,target_bearing,xtrack_error,wp_dist,acceptance_radius,rollspeed_integ,pitchspeed_integ,yawspeed_integ,additional_integ1,x,y,z,temperature.1,pressure,temperature.2,gyro_rad[0],gyro_rad[1],gyro_rad[2],accelerometer_m_s2[0],accelerometer_m_s2[1],accelerometer_m_s2[2],x.1,y.1,z.1,temperature.3,altitude_sp,altitude_filtered,height_rate_setpoint,height_rate,airspeed_sp,airspeed_filtered,airspeed_derivative_sp,airspeed_derivative,throttle_integ,pitch_integ,baro_alt_meter,baro_temp_celcius,baro_pressure_pa,rho,xyz[0],xyz[1],xyz[2],xyz[0].1,xyz[1].1,xyz[2].1,roll_body,pitch_body,yaw_body,q_d[0],q_d[1],q_d[2],q_d[3],thrust_body[0],lat,lon,alt,vel_m_s,vel_n_m_s,vel_e_m_s,vel_d_m_s,cog_rad,ground_contact,maybe_landed,landed,ref_timestamp,ref_lat,ref_lon,x.2,y.2,z.2,vx,vy,vz,ax,ay,az,dist_bottom,roll,pitch,yaw,thrust_body[0].1,timestamp.1,isTakeoff,isClimbing,isDescending,isCruise,isLand
53535941.0,-0.035826086,0.031709114,0.195685483,0.0,0.0,1585.819564,1500.0,1000.0,1518.639128,1480.360872,1516.90218,15.34817697,15.72423202,11.75477356,15.45513595,15.47380568,15.85291271,15.24661085,15.62015211,146.45196059999995,146.45196059999995,11.75473131,-0.001478811,-0.005770674,6.63e-05,-0.200302131,0.17958831100000006,-0.029656986,2.0,1.01140228,2.01140228,11.0,0.0,0.0,1.0,0.0,0.0,0.0,0.0,0.0,0.0,0.0,0.226363495,-0.181259576,-2.98062526,-3.118931942,-8.119743032,240.3014617,47.41478489,-0.011412581000000002,0.012604382,0.092422656,0.0,-1.330278944,0.017599292,-9.151587766,10.84501329,954.6563936,11.75513897,-0.162463689,0.014938519,0.350052489,-1.409043045,-0.026769949,-9.122858936,-0.174255485,0.02960192,0.33895115600000003,10.84501329,91.27022057,97.96635268,-3.01919857,-2.541772496,15.36609335,17.12392455,-0.03515662,0.976961897,-0.1,74.02212735,499.6082733,11.75477356,95466.28074,1.134297343,-0.5334568820000001,-0.267499666,-0.674244313,-0.110573126,0.140386494,0.221213674,0.385532865,-0.17831793899999998,-3.008555434,0.081999414,-0.074514876,-0.196198649,-0.974282249,0.0,398727202.2,327430474.5,500406.3667,15.65190578,-15.00611522,4.345286937,1.652230406,2.859698122,0.0,0.0,0.0,787999.0,39.8714138,32.7364368,142.6522517,564.8096735,-99.94526541,-15.08797307,3.524221647,2.028482889,-0.500021582,-4.427471992,1.86031461,100.0941326,-0.146050695,0.108288304,0.272475321,0.0,53535941.0,0.0,0.0,1.0,0.0,0.0
53566401.0,-0.03826937083366734,0.025530152248496994,0.19551771564128256,0.0,0.0,1585.1806654108216,1500.0,1000.0,1518.163190008016,1480.836809991984,1513.8602,15.36517507727455,15.741605983907816,11.755174954989979,15.437321410460921,15.456131640400802,15.834775355030061,15.22713585733467,15.600170014128256,146.10658161002002,146.10658161002002,11.755007780641282,-0.0014789661322645292,-0.005770840825651303,6.622204408817636e-05,-0.20030555404408817,0.17958826578557116,-0.029651949268537075,2.0,1.0134295398577153,2.0134295398577158,11.0,0.0,0.0,1.0,0.0,0.0,0.0,0.0,0.0,0.0,0.0,0.218438569503006,-0.18340894677755512,-2.980263456478958,-3.118805280793587,-8.133541414707416,239.80136431342686,47.39635834977956,-0.011404276356713428,0.012597010488977956,0.09235035111222445,0.0,-1.343823166268537,0.019207985519038077,-9.052896990294588,7.307100242753507,954.6637552885771,11.755543171402806,-0.16089196996993987,-0.005277039236472946,0.36886161578757515,-1.389464034981964,0.03264388960320641,-9.041435899138277,-0.17119423507815631,0.010481533965931863,0.3544678600661323,7.307100242753507,91.19896896793587,97.88443817476954,-2.960810429290581,-2.5709166480661323,15.366050637955912,17.118986097555112,-0.035058703476953904,0.910067683503006,-0.1,73.90455664482965,499.6233404627254,11.755174954989979,95466.09674066132,1.1342951781643287,-0.23416038802004008,-0.09953466955711424,-0.46925324259318635,-0.11470357477354709,0.13068918783767536,0.20285503571743488,0.37840233129258516,-0.17050958253707413,-3.0071325468376755,0.08172148558316635,-0.07085412562725452,-0.19258382947094188,-0.975295211236473,0.0,398727162.1306613,327430489.85731465,500358.46848296595,15.632687215511021,-15.02976865733467,4.198931271761523,1.6995372931422845,2.869141638014028,0.0,0.0,0.0,787999.0,39.8714138,32.7364368,142.21456815511021,564.9093792671343,-99.88742513252505,-15.103228114268537,3.397085725723447,2.0792167406332664,-0.49373718253907817,-4.375620962769539,1.7952966978557114,100.036293601002,-0.14536262727855712,0.08099339946693386,0.28350333301803604,0.0,53566401.49298597,0.0,0.0,1.0,0.0,0.0
53596862.0,-0.03943652979559118,0.023877498074148296,0.19255382537875754,0.0,0.0,1585.5591182364728,1500.0,1000.0,1518.0126118637274,1480.9873881362726,1509.1550696893787,15.305738735931865,15.68068216498998,11.755584865350702,15.419506876513026,15.438457600801604,15.81663800006012,15.207660870260522,15.580187923847696,145.76120256412827,145.76120256412827,11.755284251282566,-0.001479121264529058,-0.005771007651302605,6.620000000000001e-05,-0.20030897708817635,0.1795882205711423,-0.029646913096192384,2.0,1.0154567991563126,2.0154567991563126,11.0,0.0,0.0,1.0,0.0,0.0,0.0,0.0,0.0,0.0,0.0,0.21051364400601202,-0.18555831811422846,-2.979901653517034,-3.1186786195871745,-8.14733979741483,239.30126687094187,47.377931809559115,-0.011395453410821644,0.012578589124248496,0.09225085350901803,0.0,-1.357367388537074,0.02081667903807615,-8.954206214030059,3.769187197743487,954.6711170330661,11.755947372805611,-0.1591063966012024,-0.02019997585971944,0.3775009756372746,-1.363034885012024,0.11368016278957917,-8.92664760228457,-0.16813298515631261,-0.008638851509018036,0.3699845646913828,3.769187197743487,91.12771736587175,97.80252367513026,-2.902422288581162,-2.6000608001322645,15.366007925911823,17.1140476507014,-0.03496078751302605,0.8431734705651303,-0.1,73.78698593965932,499.54953343346693,11.755584865350702,95466.93901961924,1.1343051663226453,-0.33624831083767537,-0.5041856041803607,-0.5109667843807615,-0.12125488362324649,0.11749291136472946,0.1903094384749499,0.3702880715410822,-0.16719971584168336,-3.0067285827715433,0.08133506139078156,-0.06952777496392785,-0.18855764876352704,-0.9762104278637275,0.0,398727122.0613226,327430505.21462923,500310.57026593183,15.613468651022044,-15.053422094669338,4.052575606523046,1.7468441802845691,2.8785851540280563,0.0,0.0,0.0,787999.0,39.8714138,32.7364368,141.7710193480962,565.0083384995993,-99.82793567430862,-15.118511175951904,3.2691435347034066,2.1312861110320642,-0.4851802285551102,-4.323904209697395,1.7536798883466933,99.97680470559119,-0.14905625120240482,0.053145538739478956,0.2906067079478958,0.0,53596861.98597194,0.0,0.0,1.0,0.0,0.0
53627322.0,-0.039301284571142285,0.02674128648296593,0.18811729049899803,0.0,0.0,1586.0,1500.0,1000.0,1518.1863097995993,1480.8136902004007,1505.8020267835673,15.274015638737476,15.648077681302606,11.756005248637274,15.401692341382764,15.42078355781563,15.79850064509018,15.188185885390782,15.560205835771542,145.4158234961924,145.4158234961924,11.755560725310621,-0.0014792767354709418,-0.005771174138276553,6.620000000000001e-05,-0.20031240013226453,0.1795881750180361,-0.029641876805611225,2.0,1.0174840582344689,2.017484058234469,11.0,0.0,0.0,1.0,0.0,0.0,0.0,0.0,0.0,0.0,0.0,0.20258871850901802,-0.18770768933266532,-2.9795398504368737,-3.1185519583807615,-8.161138180122245,238.80116944028055,47.359505269338676,-0.011387470597194388,0.012557300012024049,0.09209982956112224,0.0,-1.3625159326212424,0.03394097532064128,-8.861163474442886,1.169424059278557,954.6784133332665,11.756356444388777,-0.1597787935290581,-0.02791017383166333,0.38097506089779565,-1.3767334391803607,0.15172001091583168,-8.836983387184368,-0.16532333796392784,-0.02247699680961924,0.38085362898597197,1.169424059278557,91.05646576380761,97.72060917430862,-2.8440341478717435,-2.6292049521983967,15.365965213867735,17.10910920266533,-0.03486287176953908,0.7762792575090179,-0.1,73.66941523787575,499.4788507997996,11.756005248637274,95467.74512569138,1.134314735771543,-0.4634176031182365,-0.9721689886072146,-0.5521207000240481,-0.12967155124248497,0.10281330759919839,0.18406249276553108,0.3633323903687375,-0.16801057717635268,-3.0052812693466935,0.08186839703006012,-0.07007484789178357,-0.18523388291983967,-0.9767647757034068,0.0,398727081.5855711,327430519.38657314,500257.44398817635,15.596548191883768,-15.075351996172344,3.9113905694388778,1.7981726320681362,2.8876877320160323,0.0,0.0,0.0,787999.0,39.8714138,32.7364368,141.3118961442886,565.1053153637275,-99.76406701476954,-15.133868636913828,3.1390603928837675,2.186901788767535,-0.47058878343486976,-4.272544009102204,1.7742018544729459,99.91293489408818,-0.1509440503767535,0.026572761288577152,0.2975143901482966,0.0,53627322.478957914,0.0,0.0,1.0,0.0,0.0
53658256.0,-0.0383735059258517,0.03427247974148297,0.18290590623046094,0.0,0.0,1585.7635270541082,1500.0,1000.0,1518.3668304609218,1480.6331695390782,1505.5088725450903,15.30860213973948,15.6833371704008,11.756433831903808,15.383877803026051,15.403109511603207,15.78036329012024,15.168710899338677,15.540223746513025,145.07044444008017,145.07044444008017,11.75583720256513,-0.0014794325290581163,-0.005771340302605211,6.618817635270541e-05,-0.20031582317635271,0.17958812914228459,-0.029636840192384772,2.0,1.0195113173126251,2.019511317312625,11.0,0.0,0.0,1.0,0.0,0.0,0.0,0.0,0.0,0.0,0.0,0.19472128573346692,-0.18968961361723446,-2.9792477158657316,-3.118438380276553,-8.171818390955911,238.30112763667333,47.34186481721443,-0.011380910246492985,0.012542794228456914,0.09189041354108217,0.0,-1.354864105813627,0.064622398248497,-8.776731946965931,-1.3900000000000002e-25,954.6856098324649,11.756772940080161,-0.1631889896533066,-0.028445000851703407,0.3825832196973948,-1.4291205728156313,0.13555203598997995,-8.785057793400803,-0.16289729400801603,-0.028261637763527057,0.38463672334068133,-1.3900000000000002e-25,90.9836412513026,97.6390562539479,-2.794417407220441,-2.6563523326212426,15.365920424408817,17.103823041583166,-0.034758043448897796,0.7106239404368737,-0.1,73.55215558637275,499.4358198016032,11.756433831903808,95468.22853691383,1.1343205095851705,-0.41459523041482965,-1.097582411198397,-0.394844842002004,-0.13804280718837675,0.08710794164729459,0.18385982777154308,0.35824626930661324,-0.17192476605811619,-3.0021012157494993,0.08357931724048097,-0.07190723405210421,-0.18296295510420843,-0.9769142941122244,0.0,398727040.5689379,327430531.95631266,500197.2967250501,15.582713958456914,-15.094967285490982,3.777149396747495,1.8549018200981964,2.8963324492665334,0.0,0.0,0.0,787999.0,39.8714138,32.7364368,140.83550889238475,565.2000947849699,-99.69534405184369,-15.149308569218437,3.006604028178357,2.2464485133567136,-0.44930816412825647,-4.2215790431362725,1.863604042963928,99.8442089154509,-0.14862846598597193,0.005202371869739478,0.30446150915430864,0.0,53658256.03607214,0.0,0.0,1.0,0.0,0.0
53691836.0,-0.03883250565731463,0.048018386426853715,0.17605631003807617,0.0,0.0,1584.2044088176353,1500.0,1000.0,1517.1584280761524,1481.8415719238476,1507.7112556813627,15.292869857174349,15.667209760501002,11.756856469879759,15.366063271282565,15.385435472004009,15.762225935150301,15.149235906673347,15.520241650641282,144.72506545010023,144.72506545010023,11.756113673206412,-0.0014795876613226454,-0.005771507128256513,6.611022044088176e-05,-0.20031924622044087,0.17958808392785572,-0.029631804240480963,2.0,1.0215385763907816,2.0215385763907814,11.0,0.0,0.0,1.0,0.0,0.0,0.0,0.0,0.0,0.0,0.0,0.1871754224168337,-0.19073497277154308,-2.979345255082164,-3.1183979788456915,-8.16505797944489,237.80139672084167,47.32862112901804,-0.011374701058116232,0.012555388785571142,0.0916515051763527,0.0,-1.336746884517034,0.10965826831062124,-8.699340818707414,-1.3900000000000002e-25,954.6927247905812,11.7571955001002,-0.16340162531663327,-0.026169699314629258,0.3821695458717435,-1.386062385769539,0.19132100773747496,-8.665499951501001,-0.16078487901002003,-0.027461852204408818,0.3826264329258517,-1.3900000000000002e-25,90.90201910412826,97.55952575743487,-2.7938610397755514,-2.672331329276553,15.365864015511022,17.09659206947896,-0.034614551561122246,0.6518980440460922,-0.1,73.43663568296596,499.269571102004,11.756856469879759,95470.11655114229,1.134342989731463,-0.35104282626853706,-0.48959885799799596,0.16000514974749497,-0.13952771373547093,0.06642107755911825,0.18829039121442886,0.35235729263326654,-0.1761068263226453,-2.999751324436874,0.0848683923006012,-0.07398938656513025,-0.18028552813026053,-0.9771464421402806,0.0,398726999.4861724,327430544.1953908,500135.94565631263,15.569408895571142,-15.114185701863727,3.6440988481843686,1.9125570403727457,2.9048986595831665,0.0,0.0,0.0,787999.0,39.8714138,32.7364368,140.35912164048094,565.2948742062124,-99.62662108230461,-15.164748501523047,2.8741476634729457,2.3059952379458917,-0.4280275441603207,-4.170614077170341,1.9530062314549097,99.77548293681363,-0.14852933023246492,0.002058690587174349,0.3017876494428858,0.0,53691835.54509018,0.0,0.0,1.0,0.0,0.0
53719996.0,-0.03639037417034068,0.05103364116032064,0.1720682381022044,0.0,0.0,1581.2905811623245,1500.0,1000.0,1517.9627134108216,1481.0372865891784,1510.4240601362726,15.289869242104208,15.664179268076152,11.757303038797595,15.348248732765532,15.367761425631263,15.744088573406813,15.129760920781564,15.500259561543086,144.3796863923848,144.3796863923848,11.756390143847696,-0.0014797427935871745,-0.005771673953907816,6.61e-05,-0.20032266926452907,0.17958803871342685,-0.029626767611222446,2.0,1.0235658354689379,2.023565835468938,11.0,0.0,0.0,1.0,0.0,0.0,0.0,0.0,0.0,0.0,0.0,0.18023461567735471,-0.19001811575350702,-2.9801759928396794,-3.118495263983968,-8.125481793452906,237.30225090400802,47.323650251603205,-0.011367520543086172,0.012619460268537074,0.09131055400200401,0.0,-1.3214337410240482,0.15954806560721443,-8.636231130617235,-1.3900000000000002e-25,954.6999804352706,11.7576204850501,-0.15545507306412826,-0.020453673605210422,0.37185341898797597,-1.4004897715731464,0.17369066150901805,-8.651811896787574,-0.15863719753907815,-0.026455676665330663,0.38001296491583164,-1.3900000000000002e-25,90.79912737559118,97.48488475266534,-2.91191530990982,-2.661309122777555,15.365779496392786,17.084659239659317,-0.03437758607815631,0.6099250356953908,-0.1,73.32532191523048,499.32345936392784,11.757303038797595,95469.51369503007,1.1343357705831663,-0.5093002865350701,-0.43218058268937876,0.4929543401823647,-0.1462241596452906,0.05447747012825651,0.1972226459278557,0.36845444648496994,-0.16815085479158318,-3.0067189524589177,0.08133318929659318,-0.07009537394789579,-0.18769489426653307,-0.9762972279198397,0.0,398726958.4034068,327430556.5022044,500074.5945198397,15.556103839458919,-15.133404118236472,3.5110482996212427,1.9702122613246493,2.9134648698998,0.0,0.0,0.0,787999.0,39.8714138,32.7364368,139.9021124230461,565.379099695992,-99.55771895921843,-15.17888075991984,2.7500200427915833,2.3654359836172345,-0.4244801964729459,-4.130796704106213,2.0066198596012024,99.7065804124449,-0.1457850687955912,0.004770486082164329,0.294748948496994,0.0,53719995.53907815,0.0,0.0,1.0,0.0,0.0
53748428.0,-0.035628923250501,0.04748594659118236,0.17071568483967933,0.0,0.0,1578.5061412585171,1500.0,1000.0,1519.0195039118237,1479.9804960881763,1512.5974720881763,15.285220499659319,15.659424324128258,11.75777035743487,15.330434197795592,15.350087382805611,15.72595121521042,15.110285935911824,15.480277468897796,144.0343073244489,144.0343073244489,11.756666614488978,-0.0014798979258517034,-0.005771840322645291,6.61e-05,-0.20032609230861725,0.17958799349899798,-0.029621731336673347,2.0,1.0255930945470941,2.0255930945470944,11.0,0.0,0.0,1.0,0.0,0.0,0.0,0.0,0.0,0.0,0.0,0.17338510491382766,-0.18903536266933868,-2.9811173606893786,-3.118613324771543,-8.080954115318637,236.80319332565128,47.319927638537074,-0.01136137002004008,0.012690820591182364,0.09095845878957916,0.0,-1.3982575775871744,0.36892927695390787,-9.042384084991983,-1.3900000000000002e-25,954.7118600292586,11.758124991643287,-0.14918320819639277,-0.010635008915831664,0.3591008278917836,-1.4236462966352705,0.2041084999278557,-8.675556206821645,-0.15533074279559117,-0.018667892164328657,0.3575801420240481,-1.3900000000000002e-25,90.69302633152304,97.41098151601203,-3.0478664513947895,-2.646212770240481,15.365690735791583,17.072016957935872,-0.03412651704809619,0.5704798299779559,-0.1,73.21464279653307,499.2504951298597,11.75777035743487,95470.35815224449,1.1343457822685372,-0.2295444193647294,-0.5685437813887776,0.9005189542084169,-0.14836962144488977,0.04603532963927856,0.2133992915751503,0.3956161269779559,-0.16257826700601202,-3.0099949210781562,0.08015828704008016,-0.06657285509418838,-0.20067194775951905,-0.9740267693326653,0.0,398726917.3206413,327430568.7735471,500013.24341883766,15.542798784368738,-15.152622534609218,3.3779977510581163,2.0278674823787575,2.922031079759519,0.0,0.0,0.0,787999.0,39.8714138,32.7364368,139.45595497635273,565.4574150300601,-99.48871651054108,-15.192280724448898,2.630556507501002,2.4248173813767533,-0.43086345651703406,-4.097221968330661,2.0401919430541082,99.63757901601203,-0.14407384009218438,0.018402953793587175,0.28162461396392785,0.0,53748427.991983965,0.0,0.0,1.0,0.0,0.0
53778394.0,-0.03681158749699399,0.03883371437274549,0.17096885231462924,0.0,0.0,1576.3213186893788,1500.0,1000.0,1519.084845743487,1479.915154256513,1514.5630980400801,15.299015620721443,15.673497676513026,11.75824830763527,15.312619663687375,15.332413343206412,15.70781386024048,15.090810951042085,15.460295375390782,143.6889282801603,143.6889282801603,11.756943085130262,-0.0014800530581162326,-0.0057720066052104205,6.607635270541081e-05,-0.20032951511623248,0.1795879480480962,-0.029616695148296596,2.0,1.0276203536252506,2.02762035362525,11.0,0.0,0.0,1.0,0.0,0.0,0.0,0.0,0.0,0.0,0.0,0.16653559423647293,-0.18805260990781564,-2.982058728452906,-3.1187313856452907,-8.036426437270542,236.30413573867736,47.31620502547094,-0.011356226008016031,0.01276230044288577,0.09059611741683367,0.0,-1.539844285478958,0.6904166360901803,-9.778380670513027,-1.3900000000000002e-25,954.7269897905811,11.758685395671343,-0.1440580928517034,0.005679330098196393,0.3158595259018036,-1.5511785595470942,0.48036118906613223,-9.21939392278958,-0.1512097890521042,-0.0061133305671342685,0.3212163399338677,-1.3900000000000002e-25,90.58692528745492,97.33707828022044,-3.1838175928797594,-2.631116417703407,15.36560197755511,17.059374676212425,-0.03387544810420842,0.531034624260521,-0.1,73.10396367460922,499.09793838757514,11.75824830763527,95472.10682707415,1.134366580488978,0.046310262735470925,-0.5491953635691382,1.1047322617795592,-0.15149366541482964,0.04199505002605211,0.23496496556713425,0.4160431243486974,-0.16132235863527053,-3.0088036552084167,0.08130785983166333,-0.06500765837074148,-0.2106273749218437,-0.9720030233106213,0.0,398726876.23787576,327430581.0126253,499951.8923501002,15.529493726913827,-15.171840950981963,3.24494720249499,2.085522703432866,2.930597289533066,0.0,0.0,0.0,787999.0,39.8714138,32.7364368,139.01471694388778,565.5329191418838,-99.41964671803606,-15.209056955270542,2.5171595470460923,2.4826191096072145,-0.4418928136773547,-4.071014546334669,2.059173139541082,99.56851100537075,-0.14479985208817636,0.03496469309018036,0.2654971234188377,0.0,53778393.611222446,0.0,0.0,1.0,0.0,0.0
53810151.0,-0.03896776458717435,0.026515396971943887,0.17136680596192386,0.0,0.0,1574.9679358717435,1500.0,1000.0,1517.0480961923847,1481.9519038076153,1516.9839679358718,15.378973105490982,15.755271921623246,11.758722845691382,15.295273628517034,15.315206461763527,15.69015481004008,15.071807629659318,15.440796215090181,143.35206487975947,143.35206487975947,11.757221318496994,-0.001480211765531062,-0.005772175723446894,6.600320641282566e-05,-0.20033290743286572,0.17958790360921845,-0.029611700997996,2.0,1.0296476127034067,2.029647612703407,11.0,0.0,0.0,1.0,0.0,0.0,0.0,0.0,0.0,0.0,0.0,0.15968608301603207,-0.1870698571462926,-2.983000096759519,-3.118849445991984,-7.991898758695391,235.80507820440883,47.312482412404805,-0.011351505308617234,0.012834643320641282,0.09020378408617234,0.0,-1.6798931734408817,1.0074749993787575,-10.506237796312625,-1.3900000000000002e-25,954.7419956689379,11.759244503326652,-0.13624030751503005,0.031565118218436876,0.2035683104549098,-1.9088726364148296,1.2072376783486973,-10.878697408677356,-0.14693786442284568,0.00671090513226453,0.28411992401002006,-1.3900000000000002e-25,90.48082424338678,97.26317503899799,-3.3197687343647293,-2.6160200651663326,15.36551322458918,17.046732394328657,-0.033624378617234475,0.49158941854308613,-0.1,72.99328455268537,499.01998163687375,11.758722845691382,95473.00041785571,1.1343772356332666,-0.4266199540380761,0.00038665504408818066,0.6814137192705411,-0.16515219114428856,0.04461499030661324,0.2582873625270541,0.4083825518416835,-0.16324275661723447,-3.0056843437094187,0.08276333565731463,-0.06592985272144289,-0.20705476265931863,-0.9725893975370742,0.0,398726835.13587177,327430593.2228457,499890.4184981964,15.51894654026052,-15.193269444629259,3.114465632288577,2.1423656744188375,2.9390326152965933,0.0,0.0,0.0,787999.0,39.8714138,32.7364368,138.57059898837673,565.6094317004008,-99.3505107844489,-15.241761178537073,2.4192936393246494,2.533848367813627,-0.4508988853927856,-4.062401929250501,2.0601138204789575,99.49937676835671,-0.14865592797995994,0.04188771242084168,0.2514425463486974,0.0,53810150.581162326,0.0,0.0,1.0,0.0,0.0
53843730.0,-0.038464086763527056,0.01607823385771543,0.17323910973547094,0.0,0.0,1573.4088176352705,1500.0,1000.0,1519.3867735470942,1479.6132264529058,1516.2044088176353,16.31693114498998,16.716119991803605,11.75919575743487,15.300240113907817,15.32024798751503,15.695275024488978,15.075267281843688,15.444296490100202,143.42075643306612,143.42075643306612,11.757583501663326,-0.0014805407394789581,-0.005772454026052105,6.615911823647295e-05,-0.20033487348096193,0.17958793323246497,-0.029608734775551104,2.0,1.0316748717815631,2.031674871781563,11.0,0.0,0.0,1.0,0.0,0.0,0.0,0.0,0.0,0.0,0.0,0.15283657179559118,-0.18608710438476958,-2.9839414650661324,-3.1189675071022047,-7.947371080883767,235.3060205937876,47.30875979933868,-0.01134772756513026,0.012898065911823648,0.08983224465130261,0.0,-1.7467033613787575,1.1136024354208418,-10.846453127014028,-1.3900000000000002e-25,954.751101621042,11.75974161258517,-0.09918676968336673,0.07958917246492986,0.0647310719498998,-1.816085799460922,1.0729991440541082,-10.433590901863727,-0.13547595135871746,0.03237839581362725,0.2121328001222445,-1.3900000000000002e-25,90.37472319931864,97.18927179777555,-3.4557198758496996,-2.6009237126292586,15.365424463987976,17.03409010480962,-0.03337330913026052,0.45214421282565126,-0.1,72.88260543076153,498.8375035298597,11.75919575743487,95475.08194983967,1.1344019679258517,0.28108156873547097,0.22070410093787576,0.9625492353006011,-0.16125325116032063,0.05151299634068136,0.28290073103006014,0.3980101022685371,-0.1698275841302605,-3.0056412964549097,0.08306406461923849,-0.06956703780160321,-0.2021730878436874,-0.9733306631523047,0.0,398726793.1176353,327430604.0587174,499823.097097996,15.639743209178356,-15.319952868476953,3.1063316563206413,2.1605252359098195,2.941234564218437,0.0,0.0,0.0,787999.0,39.8714138,32.7364368,138.0635660981964,565.7079751448897,-99.27992986827655,-15.622434076152304,2.6607246573607215,2.4414930971262523,-0.415703545991984,-4.438171711056112,1.6669349626432863,99.42879555595191,-0.14561735075551105,0.04459254713426854,0.24542774805410822,0.0,53843730.09018036,0.0,0.0,1.0,0.0,0.0
53872708.0,-0.038107585875751505,0.01310371836272545,0.17337668140681364,0.0,0.0,1578.2833519418837,1500.0,1000.0,1506.196392785571,1492.803607214429,1521.751503006012,16.567728690681363,16.972949222685372,11.759630818537074,15.32748172757515,15.347500633066133,15.723136319478959,15.10115227430862,15.470757656593188,143.89432331503005,143.89432331503005,11.758029489979961,-0.00148103823246493,-0.005772841607214429,6.643006012024048e-05,-0.20033541488176354,0.17958803532464931,-0.029607791356713428,2.0,1.0337021308597194,2.0337021308597194,11.0,0.0,0.0,1.0,0.0,0.0,0.0,0.0,0.0,0.0,0.0,0.1459870605751503,-0.18510435104809622,-2.9848828333727453,-3.1190855676372746,-7.902843402496994,234.80696304068138,47.30503718627254,-0.011330600583166333,0.012972419234468938,0.0895299998997996,0.0,-1.7403975984108215,1.0091524632484972,-10.799676357875752,-1.3900000000000002e-25,954.7543175739479,11.760176841422846,-0.08033568116432867,0.12583167967535064,-0.058047744128256376,-1.733489775186373,0.9289708407575151,-10.316282946192384,-0.11683610042685373,0.07086761494589174,0.10531344443486988,-1.3900000000000002e-25,90.26846842907815,97.11539898200401,-3.5860579202224447,-2.5866851783607214,15.365336681142285,17.021473628036073,-0.033122736573146294,0.41321766442084173,-0.1,72.77158867835671,498.81925550761525,11.759630818537074,95475.27731667335,1.1344042624549098,0.3059095782424852,-0.1425785427775545,0.6657187644729464,-0.16093196402805612,0.048716753759519046,0.30372226991182366,0.39212218931262527,-0.17358549212625252,-3.001664025018036,0.08515493853907816,-0.07124965855711424,-0.1995434847735471,-0.9735723480400801,0.0,398726750.6967936,327430614.2044088,499753.0909537074,15.820843834969939,-15.494962036753506,3.154371182689379,2.16092406754509,2.9405745796232465,0.0,0.0,0.0,787999.0,39.8714138,32.7364368,137.55653320801605,565.8065186468938,-99.20934895785571,-16.003106973767537,2.902155675396793,2.349137826438878,-0.38050820601603214,-4.813941492861723,1.2737561048076156,99.35821433779559,-0.14432595418637276,0.042694788154308626,0.24055205160921844,0.0,53872707.821643285,0.0,0.0,1.0,0.0,0.0
53902888.0,-0.037416333565130265,0.014034569975951903,0.17159605198997996,0.0,0.0,1577.9833798597194,1500.0,1000.0,1498.8376753507014,1500.1623246492986,1523.7518985250501,16.549806247575148,16.95453897304609,11.760052530360722,15.362639933807614,15.382647126072143,15.759079813887775,15.135007248336676,15.505379139919839,144.5117831709419,144.5117831709419,11.75850526270541,-0.001481595617234469,-0.005773268026052104,6.677735470941883e-05,-0.20033544996192384,0.17958816352705412,-0.029607567198396793,2.0,1.0357293899378757,2.0357293899378757,11.0,0.0,0.0,1.0,0.0,0.0,0.0,0.0,0.0,0.0,0.0,0.13913754935470943,-0.18412159786172344,-2.9858242013246494,-3.119203628322645,-7.858315724260521,234.3079054725451,47.30131457320641,-0.011290931372745491,0.013041203276553106,0.08954194459519037,0.0,-1.7081063751843688,0.8298631334529057,-10.615362323226453,-1.3900000000000002e-25,954.7554401815631,11.760590074368737,-0.07259606995991984,0.15530976383166334,-0.1533772643527054,-1.6973131512765531,0.7562371826152304,-10.369966976913828,-0.09564520537474949,0.11391368530460921,-0.013885311062124248,-1.3900000000000002e-25,90.15994199480961,97.04197572663327,-3.6334497098276555,-2.5851228573607217,15.365263320661322,17.0092385501002,-0.032879502917835673,0.3819554561903808,-0.1,72.65558261573146,498.8233759741483,11.760052530360722,95475.23068973949,1.1344036935951904,-0.01383009582565134,-0.3536509884909819,0.5982232166192385,-0.16037055571142284,0.04110617526653307,0.3217016859699399,0.38537562748496995,-0.1724467874248497,-2.998731466312625,0.0862445871983968,-0.07068888536673347,-0.1963296255290581,-0.9741673152304609,0.0,398726708.09739476,327430624.10480964,499682.130649499,16.023376529058115,-15.687146208276554,3.2223748112885775,2.1550107234128255,2.938897462216433,0.0,0.0,0.0,787999.0,39.8714138,32.7364368,137.05535163987977,565.902486943487,-99.14012055649299,-16.308604523607215,3.0651126239699398,2.278967037683367,-0.3538040957034068,-5.081898068290581,0.9399127076112225,99.28898538695391,-0.12166060751503006,0.056599041683366734,0.23909058151703408,0.0,53902887.75350701,0.0,0.0,1.0,0.0,0.0
53935628.0,-0.03664894738076153,0.017431040517034077,0.1678034831222445,0.0,0.0,1570.8295771062126,1500.0,1000.0,1504.4713231142284,1494.5286768857716,1518.9018858196391,16.501720153547094,16.905302803847693,11.760477914108217,15.397798135791582,15.417793620420841,15.795023311202405,15.168862222364728,15.540000623246494,145.12924301342687,145.12924301342687,11.758981035430862,-0.0014821530020040082,-0.0057736943106212425,6.715370741482965e-05,-0.20033548504208418,0.17958829202004006,-0.02960734346492986,2.0,1.0377566491503005,2.0377566491503005,11.0,0.0,0.0,1.0,0.0,0.0,0.0,0.0,0.0,0.0,0.0,0.13228803826853708,-0.1831388451002004,-2.9867655689859722,-3.1193216892985975,-7.813788046314628,233.8088478753507,47.29759196014028,-0.011236223166332665,0.01307852056513026,0.08996952040881763,0.0,-1.676146545482966,0.6448567125891781,-10.455492055450902,-1.3900000000000002e-25,954.7589125400801,11.761004653807616,-0.0723574064709419,0.16318118571342685,-0.2160469920681363,-1.7060446836132264,0.5504237576913825,-10.461475020761522,-0.07885059400400801,0.15023951897795593,-0.12088146909819644,-1.3900000000000002e-25,90.04876013386773,96.96907797635271,-3.583882812845691,-2.598378191256513,15.365206818216432,16.997449300941884,-0.03264484782765531,0.3596523549238477,-0.1,72.53374437787575,498.79038586252506,11.760477914108217,95475.62065633267,1.134408322224449,-0.3141018104609214,-0.17964542163126257,0.9334729326272543,-0.15863232141082165,0.030448245757515008,0.33976397996192387,0.3757726656412826,-0.16689038440480963,-2.9987268838637275,0.08540163193386772,-0.0683875169498998,-0.19150147208216434,-0.9753715923867735,0.0,398726665.4689379,327430634.00521046,499611.17034529056,16.22590922314629,-15.879330378456915,3.2903784403126255,2.1490973792805614,2.9372203451002004,0.0,0.0,0.0,787999.0,39.8714138,32.7364368,136.5639425541082,565.9941542889779,-99.07315102118237,-16.48854926268537,3.097007456036072,2.245847279697395,-0.34128146681563126,-5.169792272501002,0.7051674089158315,99.2220149020441,-0.07309099379759514,0.08811527790781565,0.24319951831663328,0.0,53935628.24448898,0.0,0.0,1.0,0.0,0.0
53964340.0,-0.03774368848697395,0.02546376578757515,0.1618344355931864,0.0,0.0,1573.684425498998,1500.0,1000.0,1507.207811046092,1491.792188953908,1514.4879191903808,16.449713254589177,16.85200245260521,11.76092035288577,15.43295633777555,15.452940121222445,15.830966802064129,15.202717196392785,15.574622106573146,145.74670279138272,145.74670279138272,11.759456808156314,-0.0014827103867735471,-0.005774119949899799,6.746553106212425e-05,-0.20033552012224448,0.17958841986773547,-0.029607119731462926,2.0,1.039783909008016,2.039783909008016,11.0,0.0,0.0,1.0,0.0,0.0,0.0,0.0,0.0,0.0,0.0,0.12543852782765533,-0.18215609233867736,-2.9877069372925855,-3.1194397496292585,-7.769260367723446,233.30979034268537,47.29386934707415,-0.011211688102204409,0.01301903007014028,0.0907277999018036,0.0,-1.645779385212425,0.43237412271142284,-10.413097822024048,-1.3900000000000002e-25,954.7736779354709,11.76142572486974,-0.08144550589178357,0.16006805769138277,-0.24690897515030064,-1.6842476353527054,0.3308388354368737,-10.421090786973949,-0.0831843907735471,0.15426809574549097,-0.1692323059519038,-1.3900000000000002e-25,89.93757826647294,96.89618022607215,-3.534315915218437,-2.611633524507014,15.365150315771542,16.985660051783565,-0.032410192737474953,0.3373492543026052,-0.1,72.41190614002004,498.7862645673346,11.76092035288577,95475.64316220442,1.1344085093186373,0.06560631804208417,-0.22506014183366735,0.7017835550601202,-0.15993964828857715,0.013025178200400798,0.3668274006513026,0.36655901276753516,-0.1625057471282565,-2.998731771699399,0.08469626423647296,-0.06663591933066132,-0.18688549985771544,-0.9764485556472946,0.0,398726622.90501,327430643.9056112,499540.2100410822,16.42844191723447,-16.071514542184367,3.3583820693366735,2.143184035148297,2.9355432273386772,0.0,0.0,0.0,787999.0,39.8714138,32.7364368,136.08581774288575,566.0799751727454,-99.00925208819639,-16.497823038276554,2.950742207961924,2.2630930645971943,-0.34803652041683364,-5.012917603693387,0.605131709755511,99.15811446450903,-0.02663555593587174,0.10389704220841683,0.25675671011022044,0.0,53964340.18637274,0.0,0.0,1.0,0.0,0.0
53998936.0,-0.03810565775751503,0.03053848921442885,0.15590154679759521,0.0,0.0,1577.2183741242486,1500.0,1000.0,1508.7917986332664,1490.2082013667336,1508.4529058116232,16.51299457490982,16.91679896004008,11.761357431783567,15.468114539759519,15.48808661509018,15.86691029985972,15.23657217042084,15.6092435898998,146.36416263867733,146.36416263867733,11.759932580881763,-0.001483267771543086,-0.00577454628256513,6.784669338677355e-05,-0.20033555450901802,0.17958854840881763,-0.029606895997995993,2.0,1.0418111681723448,2.0418111681723445,11.0,0.0,0.0,1.0,0.0,0.0,0.0,0.0,0.0,0.0,0.0,0.11858901669338678,-0.1811733395771543,-2.988648305599199,-3.1195578106533066,-7.72473268982565,232.81073274068137,47.29014673400802,-0.011202212012024048,0.012881126545090181,0.091748750252505,0.0,-1.6157384523246494,0.21426356131863752,-10.394766321543086,-1.3900000000000002e-25,954.7907563997996,11.761848120300602,-0.09566619427454907,0.14246542942484972,-0.24783131266533068,-1.6575519482144287,0.1255159707775553,-10.414313651062125,-0.09184594098196391,0.1516811934228457,-0.20557076264929858,-1.3900000000000002e-25,89.82639640601202,96.82328247579159,-3.484749017591182,-2.624888858450902,15.365093813326652,16.973870795691383,-0.03217553764729459,0.315046152987976,-0.1,72.29006790216434,498.62990056793586,11.761357431783567,95477.43452547095,1.1344298689779557,0.05517911159118243,-0.3815399474589176,0.31600282856713474,-0.15789024125851706,7.364407014029406e-05,0.37619743806212425,0.3630413089679359,-0.159780447498998,-2.993968357262525,0.08666930958116231,-0.065011205250501,-0.1852466745791583,-0.9766984069478958,0.0,398726580.34108216,327430653.80601203,499469.2497368738,16.630974611322646,-16.26369871284569,3.4263856983607215,2.1372706910160324,2.9338661102705412,0.0,0.0,0.0,787999.0,39.8714138,32.7364368,135.607693001002,566.165796056513,-98.94535316214429,-16.507096813867737,2.804476959194389,2.280338848803607,-0.3547915733246493,-4.856042934885772,0.5050960112885773,99.09421403390782,-0.030247944066132258,0.08357068750300604,0.24781128087775553,0.0,53998936.208416834,0.0,0.0,1.0,0.0,0.0
54031311.0,-0.03740261496593186,0.033071929498997996,0.1523173269478958,0.0,0.0,1579.186281739479,1500.0,1000.0,1510.0370959118236,1488.9629040881764,1506.0,16.51559174551102,16.919314418256512,11.761793414188377,15.503272741743487,15.523233108096193,15.902853793787575,15.270427144448897,15.643865073226454,146.98162249458917,146.98162249458917,11.760408353607215,-0.0014838256292585169,-0.005774972701402805,6.818917835671343e-05,-0.20033558928256512,0.17958867656312624,-0.02960667226452906,2.0,1.043838427250501,2.0438384272505012,11.0,0.0,0.0,1.0,0.0,0.0,0.0,0.0,0.0,0.0,0.0,0.1117395054729459,-0.18019058634268537,-2.9895896739058117,-3.1196758712905814,-7.680205011541082,232.31167517735472,47.28642412094188,-0.011195889096192386,0.012695758248496994,0.0930180127254509,0.0,-1.5878918709799599,0.01042655446893788,-10.364880988857715,-1.3900000000000002e-25,954.8050853517034,11.762270637755512,-0.11167035939078156,0.12915070603807613,-0.22145748515631264,-1.6230402416292586,-0.042089192723446904,-10.357912800440882,-0.10132938752104208,0.14538936780761524,-0.22731213631062125,-1.3900000000000002e-25,89.71521454168337,96.75038472078157,-3.4351821204368735,-2.638144192480962,15.365037306152304,16.962081543466937,-0.03194088255711423,0.29274305206012025,-0.1,72.16822966430863,498.55376030541083,11.761793414188377,95478.30775326653,1.1344402849438877,0.24218780150701402,-0.3433685007775551,0.13385109115030058,-0.15772962245691383,-0.011858709310621243,0.38216027436673344,0.3569075258617234,-0.15959554990781563,-2.991868321745491,0.08747934971142284,-0.06499328822244489,-0.1823140647254509,-0.9771770870781563,0.0,398726537.4460922,327430663.801002,499399.9128667335,16.787300680961923,-16.417481451503004,3.44693390396994,2.1369770677975954,2.9344939343466936,0.0,0.0,0.0,787999.0,39.8714138,32.7364368,135.107608349499,566.2475977987976,-98.8778485731463,-16.51554361519038,2.662315888913828,2.293895178238477,-0.3281182221703407,-4.683621581156313,0.42585081945691383,99.0267096571543,-0.045297799633266536,0.05420731710220441,0.24714361340480961,0.0,54031311.36072145,0.0,0.0,1.0,0.0,0.0
54061772.0,-0.03732878057114229,0.03346739696793587,0.15010823921042085,0.0,0.0,1579.5930318777555,1500.0,1000.0,1511.0980418977956,1487.9019581022044,1505.74749498998,16.492344309058115,16.895336388356714,11.7622316401002,15.538430946252504,15.558379603627253,15.93879728717435,15.304282118476953,15.678486556553107,147.599082350501,147.599082350501,11.760884126332666,-0.0014843835410821642,-0.00577539912024048,6.852625250501003e-05,-0.20033562436272545,0.17958880466332666,-0.029606448531062125,2.0,1.0458656863286573,2.0458656863286575,11.0,0.0,0.0,1.0,0.0,0.0,0.0,0.0,0.0,0.0,0.0,0.104889994252505,-0.1792078330541082,-2.99053104195992,-3.119793931873748,-7.635677333202405,231.81261761943887,47.28270150787575,-0.011190959683366735,0.012485289853707414,0.09445677661723448,0.0,-1.5648961303406812,-0.1596880661122246,-10.302238784709418,-1.3900000000000002e-25,954.8125742675351,11.762693051863728,-0.12638167282965934,0.11061149542084164,-0.17118403220641276,-1.5874727656412826,-0.1987117427254511,-10.25346325266533,-0.1114525853707415,0.13260492648296593,-0.219539995761523,-1.3900000000000002e-25,89.60403267681363,96.67748696523046,-3.385615223336673,-2.651399526511022,15.364980798436875,16.950292294308618,-0.03170622746693387,0.2704399511863727,-0.1,72.0463914264529,498.49406993807617,11.7622316401002,95478.99640567135,1.1344484461302604,0.4230318940961922,-0.0565208254829653,-0.005792284903808023,-0.1577294888777555,-0.01824431763727454,0.3849544387194389,0.34875826356513023,-0.1578013022204409,-2.991883701202405,0.08706329944288577,-0.06447010627054109,-0.1782759094268537,-0.977991640246493,0.0,398726493.98296595,327430673.88256514,499333.2517308617,16.86747125256513,-16.507972838156313,3.3892684066472945,2.1459455935851706,2.9389206491342685,0.0,0.0,0.0,787999.0,39.8714138,32.7364368,134.59131518496991,566.3264330310622,-98.80768265961923,-16.52338003074148,2.5231840948877755,2.304728337200401,-0.2767715126713426,-4.499725287378757,0.3619510092324648,98.95654522543086,-0.06068528861322646,0.029033310835671334,0.2517610060661323,0.0,54061772.38076153,0.0,0.0,1.0,0.0,0.0
54092361.0,-0.038954844871743485,0.03292813348296593,0.14791531482364728,0.0,0.0,1579.0320641282565,1500.0,1000.0,1511.9679358717435,1487.0320641282565,1504.8717434869739,16.51509279226453,16.91859692749499,11.76267553977956,15.573589155711423,15.593526104108218,15.974740785511022,15.33813709250501,15.71310803987976,148.21654220641284,148.21654220641284,11.761359899058116,-0.0014849409258517032,-0.005775825507014028,6.891282565130261e-05,-0.20033565944288578,0.17958893325851705,-0.029606224797595188,2.0,1.0478929454068138,2.0478929454068133,11.0,0.0,0.0,1.0,0.0,0.0,0.0,0.0,0.0,0.0,0.0,0.09804048303206414,-0.17822508029258516,-2.991472409519038,-3.119911992951904,-7.591149655390781,231.31356001202406,47.27897889480962,-0.011187151064128256,0.01227387548496994,0.09595632487575151,0.0,-1.5491110053607213,-0.279675462236473,-10.190904560280561,-1.3900000000000002e-25,954.8098956244489,11.763115308176353,-0.1370138615511022,0.07321165144689379,-0.10188669201803607,-1.5604292305611223,-0.3766382974308617,-10.115607529442885,-0.12252675274549098,0.1101694239498998,-0.1678969817154309,-1.3900000000000002e-25,89.49270186234469,96.60408287426854,-3.3372083838737474,-2.665299410985972,15.364924889499,16.938306542384773,-0.0314676305731463,0.24856551697595192,-0.1,71.9236495653507,498.34001457234467,11.76267553977956,95480.77595246493,1.1344695170961923,0.2751864097655311,0.4349402536132264,-0.3271338243006011,-0.15511414498997997,-0.013706304438877756,0.3825550466232466,0.34091188131863726,-0.14972040836873746,-2.9919086121783565,0.08613261919839678,-0.06085187948697396,-0.17419404533066132,-0.9790461724068137,0.0,398726449.78196394,327430684.0200401,499269.9788150301,16.851209516513023,-16.51832122008016,3.232564392685371,2.1666423650901803,2.9481577293507018,0.0,0.0,0.0,787999.0,39.8714138,32.7364368,134.07090961663326,566.4043665599198,-98.73683050771544,-16.531013838977955,2.3850546406092183,2.314916966701403,-0.2195410562765531,-4.312826490647295,0.3037749020881763,98.88569485549098,-0.07002218271142285,0.018987615811623247,0.25213930275951907,0.0,54092361.13026052,0.0,0.0,1.0,0.0,0.0
54125940.0,-0.018867659753507036,0.046060128787575136,0.15313588503607212,0.0,0.0,1579.811623246493,1500.0,1000.0,1511.188376753507,1487.811623246493,1501.753507014028,16.50135069294589,16.904522603466933,11.76312896254509,15.60874735769539,15.628672597114228,16.010684276372746,15.371992066533066,15.747729523206413,148.83400206232466,148.83400206232466,11.761835671783567,-0.0014854983106212425,-0.005776251146292585,6.922464929859719e-05,-0.2003356945230461,0.17958906110621242,-0.029606001064128258,2.0,1.04992020448497,2.04992020448497,11.0,0.0,0.0,1.0,0.0,0.0,0.0,0.0,0.0,0.0,0.0,0.09119097181162325,-0.17724232753106212,-2.9924137778256514,-3.1200300532825653,-7.546621977579158,230.8145024793587,47.27525628174349,-0.011182095623246494,0.012071850400801602,0.09742854097995991,0.0,-1.5333258803807617,-0.3996628583607214,-10.079570335851704,-1.3900000000000002e-25,954.8072169813627,11.763537571963928,-0.15160212863727454,0.04242374674949904,-0.008332508519038176,-1.5561099827034066,-0.4516780368436873,-9.839809676523046,-0.13360092012024047,0.0877339206693387,-0.11625396692184375,-1.3900000000000002e-25,89.37789853747495,96.51887471617235,-3.3158454003667335,-2.694225377707415,15.364882816693388,16.92173981973948,-0.03113714038276553,0.23668438664128258,-0.1,71.77984198731463,498.313284737475,11.76312896254509,95481.06946426854,1.1344730204348699,0.5227212782525048,0.17184502964729487,0.07515718001603161,-0.15646764593386775,-0.00979625729659319,0.3751509087134269,0.33334027150300605,-0.14702912083366734,-2.991934217577154,0.08567669170941884,-0.05985836101402806,-0.17040268918236479,-0.97981307148497,0.0,398726405.5809619,327430694.2322645,499206.70589919836,16.83494777298597,-16.52866959452906,3.075860378723447,2.1873391365951904,2.9573948103146295,0.0,0.0,0.0,787999.0,39.8714138,32.7364368,133.55058118977956,566.478839635471,-98.66573438092185,-16.53753758725451,2.2523601424208417,2.3262000746292584,-0.17120202662525055,-4.1238588400721445,0.28819418998196394,98.81459989024049,-0.08639635269539075,0.014240887356713434,0.24587970341282567,0.0,54125939.85971944,0.0,0.0,1.0,0.0,0.0
54157821.0,-0.004550094094188375,0.052697062388777555,0.1635644384549098,0.0,0.0,1579.2617019038075,1500.0,1000.0,1512.035248997996,1486.964751002004,1499.6705195390782,16.410176349238476,16.811067403386772,11.763570230601202,15.643905559679359,15.66381909012024,16.04662776723447,15.405847040561122,15.782351006533066,149.45146191823648,149.45146191823648,11.762311444509018,-0.0014860556953907816,-0.005776677376753507,6.953647294589178e-05,-0.20033572960320642,0.17958918895390782,-0.02960577733066132,2.0,1.0519474635631263,2.0519474635631263,11.0,0.0,0.0,1.0,0.0,0.0,0.0,0.0,0.0,0.0,0.0,0.08434146059118236,-0.1762595741783567,-2.9933551461322647,-3.1201481142044085,-7.502094299176353,230.31544488757513,47.27153366867735,-0.011171724270541082,0.011878554124248496,0.09878019549098196,0.0,-1.5205515981162325,-0.4442701465591183,-9.929926587314629,-1.3900000000000002e-25,954.8123064745491,11.763969164609218,-0.15271090515230462,0.018364920338677357,0.08364806221442886,-1.5070960799859718,-0.46803480844088174,-9.71329209421443,-0.14124127803607214,0.0645689119478958,-0.04590571332064128,-1.3900000000000002e-25,89.26234051511022,96.43110112220441,-3.3003599738036073,-2.726417026943888,15.364843747094188,16.904177498697393,-0.030786678278557116,0.22697514326052104,-0.1,71.6314560979559,498.3338461220441,11.763570230601202,95480.84399480962,1.13447038197996,0.36626661018637274,0.13399431673346693,-0.25643499743086184,-0.15362025938276555,-0.001637883821643286,0.3656205852024048,0.32848866041482966,-0.14884159770741484,-2.989816519689379,0.08670841138476955,-0.06077888885370741,-0.1681454027935872,-0.9800550609238478,0.0,398726361.3799599,327430704.444489,499143.4329833667,16.818686035370742,-16.53901797488978,2.9191563641703406,2.208035907509018,2.966631891278557,0.0,0.0,0.0,787999.0,39.8714138,32.7364368,133.03042006753506,566.5458075326653,-98.59410913408819,-16.5416538458517,2.131452988791583,2.339856889711423,-0.14214674083166332,-3.930404253094188,0.36499445944889775,98.74297446887776,-0.09362841119639279,0.0018494207154308613,0.24700075576953906,0.0,54157820.71342685,0.0,0.0,1.0,0.0,0.0
54188399.0,-0.004911899811623265,0.04621452663527052,0.1613286355290581,0.0,0.0,1577.3604430861724,1500.0,1000.0,1512.3990234468938,1486.6009765531062,1499.6585360721444,16.390169539218437,16.790543956452908,11.764017813607214,15.679063761663327,15.698965586833667,16.082571261803608,15.439702010881764,15.816972489859719,150.0689217741483,150.0689217741483,11.762787217234468,-0.0014866130801603206,-0.005777103795591183,6.988537074148298e-05,-0.20033576431262526,0.17958931717234472,-0.029605553226452905,2.0,1.0539747226412826,2.0539747226412826,11.0,0.0,0.0,1.0,0.0,0.0,0.0,0.0,0.0,0.0,0.0,0.07765597837875751,-0.17572415953507012,-2.9943616841182368,-3.120280318360721,-7.454830630374749,229.81653338617235,47.2701202263527,-0.011158119715430861,0.011703804641282565,0.09997881718236473,0.0,-1.509711187,-0.4404606161282565,-9.75567654346493,-1.3900000000000002e-25,954.8223854587175,11.76440675509018,-0.15756406584769542,0.0008289797454909664,0.17355501903206424,-1.4773938991122244,-0.5146419881082166,-9.620997395346693,-0.1466760922965932,0.04093534022444886,0.036456959014028165,-1.3900000000000002e-25,89.14654201657315,96.34251007102205,-3.2867473958937876,-2.7596492665410826,15.364805634448897,16.886297936132262,-0.030429852242484973,0.21795795914428856,-0.1,71.48161136056112,498.26101240781566,11.764017813607214,95481.68244112225,1.1344803610681362,0.07242915137274511,0.044510139767534776,-0.4030881166012021,-0.14944646084368737,0.011650277575150322,0.33370413749699396,0.3244868101142285,-0.1521403232244489,-2.987104074771543,0.08817146641482966,-0.06234651268937876,-0.16637170747094188,-0.9801287685150301,0.0,398726317.1789579,327430714.6567134,499080.1600304609,16.80242429963928,-16.549366353426855,2.7624523497995987,2.2287326786052106,2.9758689722424854,0.0,0.0,0.0,787999.0,39.8714138,32.7364368,132.51031229298596,566.6103839863727,-98.52231528629258,-16.545002968436872,2.014301802581162,2.3542700728677355,-0.11923610525250497,-3.7355199304488975,0.47123138067134285,98.67118002082165,-0.09765060672945892,-0.014700858392785593,0.2513553234569138,0.0,54188399.41683367,0.0,0.0,1.0,0.0,0.0
54219942.0,-0.017169313296593183,0.028625206378757546,0.14836919528857714,0.0,0.0,1574.5490981963928,1500.0,1000.0,1511.9815163126252,1487.0184836873748,1501.469385490982,16.44871055216433,16.850501842945892,11.764476818797595,15.714221963647294,15.734112086132264,16.118514758957918,15.473556978617236,15.851593973186372,150.68638163006014,150.68638163006014,11.76326298995992,-0.0014871706152304607,-0.005777530214428858,7.026012024048096e-05,-0.20033579876352706,0.17958944564929866,-0.029605328863727454,2.0,1.0560019817194388,2.056001981719439,11.0,0.0,0.0,1.0,0.0,0.0,0.0,0.0,0.0,0.0,0.0,0.07130634108617236,-0.17610465876753506,-2.995501655677355,-3.1204414801162326,-7.401965093905812,229.31792103587176,47.273434748617234,-0.011142201066132265,0.011558199238476955,0.10098377525651303,0.0,-1.500163996008016,-0.40924337867535077,-9.569751329653307,-1.3900000000000002e-25,954.835095868537,11.76484780476954,-0.16712199680360723,-0.012486362799599162,0.2558697619278556,-1.4924985789539076,-0.5596072665310625,-9.504440627961925,-0.1508199137795591,0.017238823330661374,0.12522565667535052,-1.3900000000000002e-25,89.03074352212425,96.25391902392786,-3.273134817833667,-2.7928815061382766,15.364767520300601,16.868418373567135,-0.030073026056112225,0.20894077528657318,-0.1,71.33176662575148,498.09185912865735,11.764476818797595,95483.61377721443,1.1345032973667335,-0.051201618705412275,0.01728205609017855,-0.8086366922384692,-0.1396494821803608,0.03500103613426843,0.25669260774348734,0.3198691861983968,-0.15438183336272546,-2.984998890671343,0.08923302071342686,-0.06347728957114229,-0.16424715775951906,-0.980319658757515,0.0,398726272.9478958,327430724.82384765,499016.75683126255,16.786226603987977,-16.559650686292585,2.6063673975611223,2.249322715190381,2.985071776252505,0.0,0.0,0.0,787999.0,39.8714138,32.7364368,131.99538035591183,566.6729493837676,-98.45095161835671,-16.54799402430862,1.8998279070020043,2.369910937745491,-0.09400248870340688,-3.5566036506893792,0.5772910561523044,98.59981606825652,-0.10245487785971942,-0.026985113170340712,0.25293724156312625,0.0,54219942.2745491,0.0,0.0,1.0,0.0,0.0
54259036.0,-0.01994767212825651,0.015548786623246507,0.15664163966533065,0.0,0.0,1572.2104208416833,1500.0,1000.0,1512.9159270541081,1486.0840729458919,1502.8736521042085,16.393641544989983,16.79393332262525,11.764936610561122,15.749380165631262,15.769258579138278,16.15445824981964,15.507411952645292,15.886215456513026,151.30384148597196,151.30384148597196,11.76373876268537,-0.001487728779559118,-0.005777956633266533,7.057194388777554e-05,-0.20033583384368736,0.17958957349699398,-0.02960510513026052,2.0,1.0580292407975953,2.058029240797595,11.0,0.0,0.0,1.0,0.0,0.0,0.0,0.0,0.0,0.0,0.0,0.0656055102264529,-0.17825457757515029,-2.9968994036172347,-3.1206585842124253,-7.338277510310621,228.8198865965932,47.28588305264529,-0.011123700569138277,0.01146182702204409,0.10170707281362726,0.0,-1.4915322364629258,-0.375913405751503,-9.392188787228458,-1.3900000000000002e-25,954.847215908016,11.765289370440883,-0.15926148315831665,-0.02834641042685369,0.3136566918336673,-1.5402903510881762,-0.37171632741883787,-9.347913023551103,-0.15468963276953906,-0.005631185154308591,0.21286456975150292,-1.3900000000000002e-25,88.91494502767536,96.16532797683367,-3.2595222391442884,-2.826113745735471,15.36472939985972,16.850538811002004,-0.029716199240480964,0.1999235907995992,-0.1,71.1819218846493,498.02018887995996,11.764936610561122,95484.44549663327,1.1345131954288576,0.5777183962625243,0.8204229709579149,-4.23148474702204,-0.1062539109158317,0.08304768200400796,0.0911041081863729,0.31275177870741483,-0.1519609896973948,-2.98502889902004,0.0888107312004008,-0.06260741073346694,-0.16067784811222444,-0.981005874246493,0.0,398726228.59098196,327430734.8022044,498952.8085054108,16.77029702280561,-16.569666898396793,2.4528742504048098,2.269465888244489,2.9941310740821643,0.0,0.0,0.0,787999.0,39.8714138,32.7364368,131.5021177539078,566.7270949875752,-98.38138897010019,-16.549485991322644,1.7965629348657315,2.390691695052104,-0.05904332687174351,-3.4445402438116233,0.6826086627955911,98.53025445681362,-0.11190358339879758,-0.01345509758717436,0.23884043427054108,0.0,54259035.60521042,0.0,0.0,1.0,0.0,0.0
54290786.0,-0.021444986543086176,0.013177272951903808,0.15935663165731465,0.0,0.0,1569.8717434869739,1500.0,1000.0,1511.7909083887776,1487.2090916112224,1502.5805078717435,16.408943559338677,16.809571196773547,11.765396678997996,15.78453836761523,15.804405072144288,16.19040174777555,15.541266926673348,15.92083693983968,151.9213013418838,151.9213013418838,11.764214535410822,-0.0014882862344689379,-0.005778383052104208,7.095470941883766e-05,-0.2003358689238477,0.1795897020541082,-0.029604881396793587,2.0,1.0600564998757516,2.0600564998757513,11.0,0.0,0.0,1.0,0.0,0.0,0.0,0.0,0.0,0.0,0.0,0.05990467865731463,-0.18040449638276554,-2.9982971515571144,-3.1208756890180362,-7.2745899267154295,228.32185215731462,47.29833136376753,-0.011105756256513026,0.01140242687775551,0.10210443427054108,0.0,-1.4967329850621243,-0.3106591999178357,-9.340989315793587,-1.3900000000000002e-25,954.8504153603207,11.765738839038075,-0.14981783823847697,-0.034004331288577154,0.3795881642965932,-1.5259399473346693,-0.33472865941282565,-9.30401812411022,-0.15441756665731463,-0.016012339671342687,0.28343202295190384,-1.3900000000000002e-25,88.79914652613228,96.07673692973948,-3.2459096611643288,-2.8593459853326655,15.364691286513025,16.832659248436876,-0.02935937313426854,0.19090640631262526,-0.1,71.03207715064129,497.9888391603206,11.765396678997996,95484.79523689378,1.1345173017955912,1.2145902103647295,1.2926691565190378,-4.08590795112024,-0.0727293048777555,0.13162656793787575,-0.03776508232064127,0.3055602610681363,-0.14240236670541082,-2.9850642273006014,0.08787895977955912,-0.05822685288577155,-0.15683135859318637,-0.9819734530501002,0.0,398726182.6024048,327430742.43947893,498881.2683338677,16.75810115553106,-16.575949275991984,2.335473620182365,2.2833862002925853,3.001191967422846,0.0,0.0,0.0,787999.0,39.8714138,32.7364368,131.02043591783567,566.7767408895792,-98.31278885422846,-16.55017679036072,1.6992883911663328,2.414219384527054,-0.018886503641282554,-3.3682052716072146,0.7875296830260521,98.46165607298597,-0.11694163835270541,-0.013744925603206412,0.23241347327054107,0.0,54290786.45090181,0.0,0.0,1.0,0.0,0.0
54319501.0,-0.023856701074148303,0.011602923344689377,0.15974394860721441,0.0,0.0,1568.4406928336673,1500.0,1000.0,1511.221417476954,1487.778582523046,1502.208845511022,16.395075053627256,16.795346631202403,11.765862368697395,15.819696574488978,15.83955157004008,16.226345241543086,15.575121900701404,15.955458423166332,152.5387611488978,152.5387611488978,11.764690313026051,-0.001488843619238477,-0.005778808981963928,7.129559118236473e-05,-0.200335904004008,0.17958983019238475,-0.029604657663326654,2.0,1.0620837594428858,2.062083759442886,11.0,0.0,0.0,1.0,0.0,0.0,0.0,0.0,0.0,0.0,0.0,0.05420384750701403,-0.18255441519038076,-2.999694899496994,-3.1210927938937876,-7.210902342631262,227.82381771803608,47.3107796707014,-0.01108501374749499,0.01136284092985972,0.10224118445090181,0.0,-1.5033013545230463,-0.24224864386172337,-9.302283368326654,-1.3900000000000002e-25,954.8527328336673,11.766189088997995,-0.14394478664328658,-0.03492588346092184,0.44027858574549106,-1.5269817537695392,-0.22892752584969922,-9.255607354661322,-0.15373600201803608,-0.025158720490981973,0.3523116199498999,-1.3900000000000002e-25,88.68892713523047,95.98987603334669,-3.234764519318637,-2.886491518773547,15.36463638236473,16.819052551282567,-0.029088338769539077,0.1845422348036072,-0.1,70.88538798278557,497.95661950240475,11.765862368697395,95485.1691595992,1.1345217073847695,0.8934951646833658,1.3248019552705408,-3.560756502460921,-0.0610278155771543,0.16326454000400806,-0.12746133502404816,0.2982740313927856,-0.13085950774148294,-2.9851031058917834,0.08682701620641282,-0.052867888747494984,-0.15286439270941884,-0.9829918816112224,0.0,398726136.452505,327430749.84529054,498808.9775072144,16.746274435871744,-16.581862484268537,2.2216414586593185,2.2966912582104206,3.0080552779098197,0.0,0.0,0.0,787999.0,39.8714138,32.7364368,130.5399309052104,566.8254252517035,-98.24413475593187,-16.550723123767536,1.6026662906913827,2.438469446250501,0.018875133667334714,-3.3005570042865733,0.8900087279178358,98.39300357498998,-0.11986343976953907,-0.018833755899799607,0.22926153491182366,0.0,54319501.41282565,0.0,0.0,1.0,0.0,0.0
54351140.0,-0.02521784151102204,0.008518491657314615,0.15986721827454908,0.0,0.0,1566.818497288577,1500.0,1000.0,1511.642279729459,1487.357720270541,1502.805611222445,16.387023804348697,16.787085864509017,11.766333520200401,15.854854781583168,15.874698068156313,16.26228873509018,15.608976874729459,15.990079906492987,153.1562209537074,153.1562209537074,11.765166090861724,-0.001489401004008016,-0.005779234889779559,7.163426853707415e-05,-0.20033593881563125,0.17958995830861724,-0.02960443392985972,2.0,1.0641110190320642,2.0641110190320644,11.0,0.0,0.0,1.0,0.0,0.0,0.0,0.0,0.0,0.0,0.0,0.048503016378757514,-0.18470433399799602,-3.0010926474368738,-3.121309898769539,-7.147214758525051,227.3257832519038,47.32322797741483,-0.01106215355711423,0.01134392393987976,0.10213357867535071,0.0,-1.5038502833987977,-0.16933665885771523,-9.274665388619239,-1.3900000000000002e-25,954.8574999827655,11.766662049138278,-0.1418657296793587,-0.02924699466533063,0.48632638614428864,-1.545502831731463,-0.0865148455130258,-9.201058098084168,-0.15185429229258515,-0.030047408673346685,0.41287468874749506,-1.3900000000000002e-25,88.58476365022044,95.90489314761523,-3.226297684032064,-2.9070301676072146,15.364563250200401,16.810083880941885,-0.02891042787775551,0.18105780585771544,-0.1,70.74212406328658,497.92999086773546,11.766333520200401,95485.47904420842,1.1345253796973946,0.188775999961923,0.9686021152024034,-2.861960990344687,-0.065958287745491,0.17742985716633267,-0.18953909273146305,0.29082934976753505,-0.11855526794188374,-2.985151070092184,0.08574674923446894,-0.04713371079559117,-0.14878435503607212,-0.9840065991242486,0.0,398726090.3294589,327430757.2511022,498736.6866783567,16.734447715991983,-16.587775692324648,2.1078092971142284,2.3099963161503005,3.0149185883747496,0.0,0.0,0.0,787999.0,39.8714138,32.7364368,130.05962236613226,566.870919437475,-98.17455965899799,-16.55086653478958,1.5064157346753506,2.465503066711423,0.03867335189178354,-3.264735868841684,0.9776508204989981,98.32342882599198,-0.11749032568737472,-0.01927595226252502,0.22651708411022042,0.0,54351140.26252505,0.0,0.0,1.0,0.0,0.0
