,timestamp,control[0],control[1],control[2],control[3],control[4],output[2],output[3],output[4],output[5],output[6],output[7],indicated_airspeed_m_s,true_airspeed_m_s,indicated_airspeed_m_s.1,equivalent_airspeed_m_s,true_airspeed_m_s.1,equivalent_ground_minus_wind_m_s,true_ground_minus_wind_m_s,differential_pressure_raw_pa,differential_pressure_filtered_pa,temperature,gyro_bias[0],gyro_bias[1],gyro_bias[2],accel_bias[0],accel_bias[1],accel_bias[2],instance_count,seq_reached,seq_current,seq_total,item_changed_index,item_do_jump_remaining,valid,warning,finished,failure,stay_in_failsafe,flight_termination,item_do_jump_changed,execution_mode,nav_roll,nav_pitch,nav_bearing,target_bearing,xtrack_error,wp_dist,acceptance_radius,rollspeed_integ,pitchspeed_integ,yawspeed_integ,additional_integ1,x,y,z,temperature.1,pressure,temperature.2,gyro_rad[0],gyro_rad[1],gyro_rad[2],accelerometer_m_s2[0],accelerometer_m_s2[1],accelerometer_m_s2[2],device_id,x.1,y.1,z.1,temperature.3,altitude_sp,altitude_filtered,height_rate_setpoint,height_rate,airspeed_sp,airspeed_filtered,airspeed_derivative_sp,airspeed_derivative,throttle_integ,pitch_integ,baro_alt_meter,baro_temp_celcius,baro_pressure_pa,rho,xyz[0],xyz[1],xyz[2],xyz[0].1,xyz[1].1,xyz[2].1,roll_body,pitch_body,yaw_body,q_d[0],q_d[1],q_d[2],q_d[3],thrust_body[0],lat,lon,alt,vel_m_s,vel_n_m_s,vel_e_m_s,vel_d_m_s,cog_rad,ground_contact,maybe_landed,landed,ref_lat,ref_lon,x.2,y.2,z.2,vx,vy,vz,ax,ay,az,yaw,dist_bottom,roll,pitch,yaw.1,thrust_body[0].1,timestamp.1,isTakeoff,isClimbing,isDescending,isCruise,isLand
1577,77024559,-0.043616554,-0.018927909,-0.10638719699999999,0.0,0.0,1440.0,1500.0,1000.0,1521.0,1478.0,1517.0,13.43518051,13.76473897,13.40755791,13.59039961,13.923737699999998,14.62808212,14.986870399999999,109.88192250000002,109.88192250000002,11.74972066,-0.001431419,-0.005966709000000001,0.000111345,-0.22494919800000002,0.165249326,-0.008776955,2.0,2.101020204,3.1010202039999997,11,0,0,1.0,0.0,0.0,0,0,0,0,0,0.272548948,-0.208593845,1.549106115,1.55873504,0.44005650399999996,254.14373540000003,39.59985946,-0.025587849,0.024133705,-0.172103903,0.0,-0.69230094,0.554374093,-9.121326464,-340.26352,954.6047881000001,11.75048321,-0.13670417,0.0028718479999999998,0.278573936,-0.78267029,0.495997991,-9.250635422,2294028,-0.139744389,0.024037925,0.28681772899999997,-340.26352,95.23889737,100.8564422,-1.65440785,-1.8996335169999998,15.36809817,13.50997046,0.037162548,-0.055117609000000005,-0.100276639,59.34220118,500.43776629999996,11.74988535,95456.76332,1.13418426,0.606228571,-0.28156493,-0.305585825,-0.145950345,-0.012621443999999999,0.319890093,0.265267187,-0.19736303600000002,1.5622909319999998,0.69127261,0.162210334,0.023313452999999998,0.703764313,0.0,398733320.4,327299677.3,501021.0682,13.53652931,5.169603921,12.51938179,1.791014195,1.179143445,0,0,0.0,39.8714138,32.7364372,213.8134168,-550.7487739000001,-100.70802059999998,4.81594539,12.77563823,2.066190713,-3.7023601210000003,1.698005505,1.73228684,1.248657887,100.87750059999999,-0.082961315,0.027011845,0.18179597399999997,0.0,77024559,0,0,1,0,0
1578,77066926,-0.042216607999999996,-0.014866425,-0.10856147099999999,0.0,0.0,1444.0,1500.0,1000.0,1519.0,1480.0,1506.0,13.36556704,13.69353041,13.39208577,13.57458956,13.90750814,14.62225956,14.98087125,109.70574579999999,109.70574579999999,11.74996655,-0.001430644,-0.005966597,0.000110474,-0.224933126,0.16523750199999998,-0.008756048,2.0,2.103620724,3.1036207239999998,11,0,0,1.0,0.0,0.0,0,0,0,0,0,0.266834529,-0.207284306,1.5525997440000001,1.559275793,0.30219802100000004,253.60208730000002,39.67323105,-0.025556258,0.024146783999999998,-0.172260157,0.0,-0.73249537,0.515793442,-9.16066163,-267.8042123,954.6098606,11.75103944,-0.135388324,-0.032626859,0.270299477,-0.6812084909999999,0.538540502,-8.989301533999999,2294028,-0.14071514599999999,0.0024988320000000003,0.27773348800000003,-267.8042123,95.12255931,100.76580279999999,-1.9326570930000002,-1.983543913,15.368019199999997,13.54027595,0.036554862,0.014519058999999999,-0.10020056,58.97169358,500.15508889999995,11.75045839,95459.98556,1.134222552,-0.468542855,-0.422059523,0.055780725,-0.143244604,-0.008317945,0.306920672,0.255933354,-0.199426932,1.5621374140000002,0.691910969,0.159691601,0.019284199,0.7038355709999999,0.0,398733339.4,327299741.8,500932.0264,13.55317263,5.0156531310000005,12.59427657,1.870069985,1.191597814,0,0,0.0,39.8714138,32.7364372,214.0156681,-550.2064399000001,-100.62028640000001,4.660945876,12.84628765,2.13847617,-3.684949418,1.6073945619999999,1.59810193,1.26039563,100.7897664,-0.082202935,0.038018782,0.172111789,0.0,77066926,0,0,1,0,0
1579,77110586,-0.045093713,0.005328360999999999,-0.118049322,0.0,0.0,1446.0,1500.0,1000.0,1522.089418,1476.910582,1494.0,13.47459188,13.80494312,13.37661363,13.55877951,13.89127858,14.61643701,14.974872099999999,109.52956909999999,109.52956909999999,11.75021243,-0.001429868,-0.005966485,0.00010960299999999999,-0.224917055,0.16522567800000001,-0.008735141,2.0,2.106221244,3.106221244,11,0,0,1.0,0.0,0.0,0,0,0,0,0,0.261120109,-0.205974767,1.556093374,1.559816546,0.164339539,253.0604391,39.74660264,-0.025517505,0.02416357,-0.17242080699999998,0.0,-0.774265757,0.48400053200000004,-9.023342966,-118.51973000000001,954.6094705,11.75160899,-0.128260774,-0.061772858,0.261843841,-0.751899537,0.464125888,-8.816217461,2294028,-0.138341645,-0.030615231,0.270151611,-118.51973000000001,95.00622124,100.6751634,-2.210906337,-2.067454309,15.36794022,13.57058144,0.035947176000000004,0.08415572699999999,-0.10012448,58.60118599,500.11832699999997,11.75105269,95460.40217,1.134227458,0.7321471509999999,0.734988113,-1.0064825579999999,-0.14129185,0.01520148,0.304651105,0.253638934,-0.191864824,1.5688997340000002,0.690301644,0.156229706,0.02169344,0.70611192,0.0,398733358.3,327299806.3,500842.9846,13.56981596,4.86170234,12.66917134,1.949125775,1.204052183,0,0,0.0,39.8714138,32.7364372,214.2015403,-549.683115,-100.53275959999999,4.514489881,12.91260646,2.201236143,-3.585518365,1.581013772,1.6228441830000002,1.270775657,100.7022396,-0.087204768,0.031094017999999998,0.16625183400000001,0.0,77110586,0,0,1,0,0
1580,77159660,-0.039703246,0.013450406000000002,-0.12098301300000001,0.0,0.0,1445.046409,1500.0,1000.0,1520.0,1479.0,1494.0,13.53441489,13.86623558,13.36871695,13.55067783,13.88293901,14.61670204,14.97510188,109.4711446,109.4711446,11.7505287,-0.00142917,-0.005966394,0.000108743,-0.22489967100000002,0.165211723,-0.008714062,2.0,2.108821764,3.1088217639999995,11,0,0,1.0,0.0,0.0,0,0,0,0,0,0.25540569,-0.204665228,1.5595870040000002,1.560357299,0.026481057000000002,252.5187909,39.81997423,-0.025479208,0.024145722,-0.172586753,0.0,-0.810468548,0.456046888,-8.884070948,-7.260540333,954.6107324999999,11.75218675,-0.137542829,-0.068933723,0.25643362,-0.7890594259999999,0.40144628600000004,-8.55686701,2294028,-0.136525498,-0.059215449,0.262184519,-7.260540333,94.88988317,100.58452390000001,-2.489155581,-2.151364705,15.36786124,13.60088694,0.03533949,0.153792395,-0.100048401,58.230678399999995,500.11108160000003,11.75164599,95460.48938,1.134228496,0.024309462999999996,0.616287398,-0.45167176700000006,-0.133236238,0.050535065,0.310229892,0.24815588100000002,-0.19168434199999998,1.572454021,0.689489715,0.154239816,0.020090788999999998,0.707392887,0.0,398733377.2,327299870.8,500753.9428,13.58645929,4.70775155,12.74406611,2.0281815659999998,1.2165065529999999,0,0,0.0,39.8714138,32.7364372,214.3874151,-549.1533287999999,-100.4432948,4.368158181,12.9790341,2.266418203,-3.479583973,1.556589724,1.6632776759999999,1.281054965,100.6127748,-0.094643058,0.023571632999999998,0.160521907,0.0,77159660,0,0,1,0,0
1581,77202027,-0.03988023,0.013009284,-0.125034858,0.0,0.0,1443.006801,1500.0,1000.0,1521.993199,1477.006801,1494.993199,13.4821932,13.81279879,13.41272618,13.59539278,13.9286604,14.65867833,15.01801129,110.2195406,110.2195406,11.75132725,-0.001429004,-0.005966447,0.000107961,-0.22487329399999997,0.165183164,-0.008691803,2.0,2.111422284,3.1114222839999996,11,0,0,1.0,0.0,0.0,0,0,0,0,0,0.24969127,-0.203355688,1.5630806330000002,1.560898052,-0.111377425,251.97714280000002,39.89334581,-0.02544671,0.024107697,-0.17276456199999998,0.0,-0.8085230040000001,0.45439931899999997,-8.731414832,-156.5450227,954.6233151,11.75282075,-0.138338767,-0.058607062,0.23886407,-0.804260678,0.468201876,-8.530821984,2294028,-0.138528256,-0.056887466,0.251577997,-156.5450227,94.77501763,100.4922729,-2.655547354,-2.232080018,15.36779243,13.63796099,0.034596634,0.215286798,-0.1,57.87752059,499.9775221,11.75225228,95462.01951,1.13424671,-0.24483620600000003,-0.261611126,0.17335547699999998,-0.131237098,0.055510311,0.302305231,0.23905018,-0.193139665,1.572274545,0.69013828,0.151603624,0.016342394,0.707428453,0.0,398733396.2,327299935.3,500664.901,13.60310262,4.55380076,12.81896088,2.1072373559999997,1.228960922,0,0,0.0,39.8714138,32.7364372,214.57330840000003,-548.5792706,-100.34055179999999,4.2226781319999995,13.04620743,2.348196047,-3.329089673,1.545572975,1.81122522,1.290644159,100.5100318,-0.075684918,0.046336069,0.157034977,0.0,77202027,0,0,1,0,0
1582,77248394,-0.034849658,0.013183456000000001,-0.125185627,0.0,0.0,1440.0,1500.0,1000.0,1522.0,1477.0,1503.0,13.4717043,13.80182591,13.45673541,13.64010773,13.97438179,14.70065463,15.060920699999999,110.96793670000001,110.96793670000001,11.75212581,-0.001428838,-0.0059665,0.000107179,-0.224846918,0.165154605,-0.008669545,2.0,2.114022805,3.114022805,11,0,0,1.0,0.0,0.0,0,0,0,0,0,0.24397685100000002,-0.20204614899999998,1.5665742630000001,1.561438805,-0.24923590699999998,251.4354946,39.9667174,-0.02541077,0.024094322999999997,-0.172955668,0.0,-0.80657746,0.452751749,-8.578758717000001,-305.829505,954.6358977,11.75345476,-0.13284927900000001,-0.048173845,0.23922883600000003,-0.825057237,0.395791426,-8.46859322,2294028,-0.140531013,-0.054559483,0.240971474,-305.829505,94.66272707,100.3972037,-2.626334964,-2.307208116,15.36774139,13.68687116,0.033617407,0.262542893,-0.1,57.5547022,499.8293767,11.75289965,95463.70527,1.134266703,-0.32747835,-0.368204409,-0.182643693,-0.12608324099999998,0.050018014000000006,0.295106374,0.229817797,-0.19540009,1.5720940159999999,0.690725982,0.149199143,0.012264711000000001,0.7074504140000001,0.0,398733413.1,327299999.4,500570.7425,13.62096419,4.405941188,12.89020104,2.188729658,1.240926252,0,0,0.0,39.8714138,32.7364372,214.75920180000003,-548.0052125,-100.2378087,4.077198083,13.11338077,2.429973892,-3.1785953719999998,1.534556227,1.959172764,1.3002333529999999,100.4072887,-0.08221538,0.044627172,0.149649437,0.0,77248394,0,0,1,0,0
1583,77290761,-0.03701778,0.013047905,-0.128862022,0.0,0.0,1438.0,1500.0,1000.0,1518.165233,1480.834767,1506.75215,13.51083948,13.84192638,13.50074465,13.68482268,14.02010318,14.74263093,15.10383011,111.71633270000001,111.71633270000001,11.75292436,-0.0014286729999999999,-0.005966554000000001,0.000106397,-0.22482054199999998,0.165126047,-0.008647286,2.0,2.116623325,3.116623325,11,0,0,1.0,0.0,0.0,0,0,0,0,0,0.23826243100000002,-0.20073661,1.570067893,1.561979557,-0.38709439,250.8938465,40.04008899,-0.025372276000000003,0.024107198,-0.17314349,0.0,-0.810741569,0.422999309,-8.514542998,-340.26352,954.644999,11.75411878,-0.134393226,-0.041662927999999995,0.23226075699999998,-0.7700443579999999,0.386627451,-8.500106427999999,2294028,-0.139184537,-0.047177413,0.23498864,-340.26352,94.55043651,100.3021345,-2.597122573,-2.382336215,15.36769035,13.73578133,0.03263818,0.309798988,-0.1,57.23188381,499.8171552,11.75357606,95463.87686,1.134268856,-0.07898666900000001,-0.83602419,-0.14380601099999998,-0.139242665,0.018389129,0.283203094,0.231674315,-0.18877338800000001,1.5824509119999999,0.68740798,0.147467291,0.016026157,0.710959648,0.0,398733428.7,327300063.3,500472.963,13.63968794,4.262392478,12.95885477,2.271946322,1.25254548,0,0,0.0,39.8714138,32.7364372,214.9242207,-547.4599113,-100.1346709,3.94761371,13.17373843,2.5121106280000003,-3.1053068169999998,1.4814871509999998,1.9966586380000002,1.309006035,100.30415090000001,-0.09006860400000001,0.035794931,0.14320036,0.0,77290761,0,0,1,0,0
1584,77333127,-0.039226347,0.029948231000000002,-0.137078228,0.0,0.0,1436.0,1500.0,1000.0,1520.0,1479.0,1508.0,13.64196747,13.97630542,13.54475388,13.72953764,14.06582457,14.78460723,15.14673952,112.46472879999999,112.46472879999999,11.75372291,-0.001428507,-0.005966607,0.000105615,-0.224794165,0.16509748800000001,-0.008625027,2.0,2.119223845,3.119223845,11,0,0,1.0,0.0,0.0,0,0,0,0,0,0.23246851899999998,-0.200518363,1.57313575,1.562473745,-0.510756284,250.3294617,40.13511071,-0.025341306,0.024101467,-0.173343912,0.0,-0.816737449,0.38482057700000005,-8.47684313,-340.26352,954.6530567,11.75479181,-0.130835258,-0.032610022999999995,0.233306259,-0.757958528,0.380966745,-8.514878523,2294028,-0.136833907,-0.038280045,0.230392061,-340.26352,94.43814595,100.2070653,-2.567910183,-2.457464314,15.36763931,13.784691500000001,0.031658953,0.35705508399999997,-0.1,56.90906541,499.75639440000003,11.75424726,95464.52892000001,1.134276578,0.14933829,-0.21419089300000002,-0.6828437270000001,-0.134401545,-0.0029356440000000003,0.27649768,0.22249074300000002,-0.18910555,1.582240668,0.688128417,0.144426197,0.012629438,0.7109533170000001,0.0,398733444.3,327300127.1,500375.1834,13.65841168,4.118843769,13.027508500000001,2.355162986,1.264164707,0,0,0.0,39.8714138,32.7364372,215.08298109999998,-546.923232,-100.0314148,3.8227951160000004,13.23205264,2.594354965,-3.055165785,1.41581011,2.00102633,1.317533915,100.2008948,-0.077047456,0.030694923,0.145276338,0.0,77333127,0,0,1,0,0
1585,77371494,-0.034745219,0.031811476,-0.137829994,0.0,0.0,1435.0,1500.0,1000.0,1517.8313660000001,1481.1686339999999,1509.0,13.64957263,13.98398591,13.58876311,13.77425259,14.11154596,14.82658352,15.18964893,113.21312479999999,113.21312479999999,11.75452146,-0.001428341,-0.00596666,0.00010483299999999999,-0.224767789,0.165068929,-0.008602769,2.0,2.121824365,3.121824365,11,0,0,1.0,0.0,0.0,0,0,0,0,0,0.22655153600000003,-0.201989645,1.57554443,1.562895839,-0.6124391220000001,249.7298764,40.26365101,-0.025309722000000003,0.024086566,-0.173545537,0.0,-0.815979902,0.35873401899999996,-8.493669863,-340.26352,954.6632074999999,11.75548611,-0.127347866,-0.017641096000000002,0.225166521,-0.870709785,0.321678907,-8.56903724,2294028,-0.135472223,-0.028242434,0.226159831,-340.26352,94.32585539,100.11199609999998,-2.538697792,-2.532592412,15.36758827,13.83360167,0.030679726,0.40431117899999997,-0.1,56.58624702,499.65772000000004,11.75497945,95465.68019,1.134290192,0.306026491,-1.419818561,-0.34387519299999997,-0.13472643199999998,-0.031329442,0.26567671800000003,0.21341020300000002,-0.19093329899999997,1.582027921,0.688723247,0.14193819,0.008743812,0.710938141,0.0,398733459.9,327300191.0,500277.4039,13.67713543,3.9752950589999996,13.09616223,2.438379651,1.275783935,0,0,0.0,39.8714138,32.7364372,215.2417327,-546.3654809,-99.92087070000001,3.696319983,13.29321641,2.6777148840000002,-3.0004939289999997,1.3899396169999998,1.974936592,1.3263437679999999,100.0903507,-0.082575971,0.072348136,0.123490886,0.0,77371494,0,0,1,0,0
1586,77409861,-0.034364294,0.025701441000000002,-0.136779369,0.0,0.0,1434.0,1500.0,1000.0,1519.0,1480.0,1509.0,13.66924084,14.004072099999998,13.63277234,13.81896754,14.15726735,14.86855982,15.23255834,113.9615209,113.9615209,11.75532001,-0.001428175,-0.0059667140000000006,0.000104051,-0.224741412,0.16504037,-0.00858051,2.0,2.124424885,3.124424885,11,0,0,1.0,0.0,0.0,0,0,0,0,0,0.220634553,-0.203460928,1.57795311,1.563317934,-0.7141219609999999,249.13029100000003,40.39219131,-0.025267365,0.024124469,-0.17373821399999997,0.0,-0.805556898,0.34995369,-8.588534668,-340.26352,954.6763541000001,11.75621087,-0.139293012,0.00193232,0.22453327899999997,-0.8016961840000001,0.368823743,-8.74410789,2294028,-0.135525913,-0.016572913,0.222449055,-340.26352,94.21410046,100.00754140000001,-2.505640297,-2.608335239,15.36752925,13.88536769,0.029643225,0.451053394,-0.1,56.2705632,499.43748569999997,11.75571907,95468.19558,1.134320161,-0.138644299,-0.6047707210000001,-0.140618901,-0.13435250099999999,-0.054263588,0.252522833,0.21550501100000002,-0.19263665100000002,1.592204934,0.6848259590000001,0.143205529,0.009618459000000001,0.714431877,0.0,398733475.5,327300254.9,500179.6243,13.69585917,3.831746349,13.16481596,2.521596315,1.287403163,0,0,0.0,39.8714138,32.7364372,215.4004719,-545.7775721,-99.79989627,3.567474025,13.35845847,2.7626714139999997,-2.93933759,1.4210399619999998,1.905256403,1.33555718,99.96937627,-0.08155239,0.094412781,0.11395735900000001,0.063007995,77409861,0,0,1,0,0
1587,77452228,-0.038476251,0.040593238,-0.145163662,0.0,0.0,1432.0,1500.0,1000.0,1516.745349,1482.254651,1513.0,13.80570801,14.14379087,13.67678158,13.86368249,14.20298874,14.91053612,15.27546775,114.7099169,114.7099169,11.75611856,-0.001428009,-0.0059667669999999996,0.00010326799999999999,-0.224715036,0.16501181199999998,-0.008558251,2.0,2.127025405,3.127025405,11,0,0,1.0,0.0,0.0,0,0,0,0,0,0.21471757,-0.204932211,1.58036179,1.5637400280000002,-0.815804799,248.53070559999998,40.52073161,-0.025233745,0.024226012,-0.17395527600000002,0.0,-0.798801195,0.34023388,-8.68597345,-340.26352,954.6894216,11.75694874,-0.126542156,0.008960922,0.216526926,-0.754874183,0.354644826,-8.86555353,2294028,-0.135377735,-0.004866222,0.218496605,-340.26352,94.10269838,99.89690385,-2.470049771,-2.6844830280000003,15.36746498,13.93901505,0.028568992999999997,0.49745708,-0.1,55.95957942,499.2689248,11.75647521,95470.16408,1.134343411,-0.10814726300000001,0.260356934,-0.47480024299999996,-0.13735414599999998,-0.05398844,0.255072986,0.206827016,-0.17336647100000002,1.59201451,0.6868250020000001,0.133476772,0.013246381000000002,0.714333718,0.0,398733489.4,327300320.7,500065.3175,13.72268454,3.7027805239999996,13.22860888,2.603192606,1.297664948,0,0,0.0,39.8714138,32.7364372,215.55791769999996,-545.191776,-99.67906108,3.439243173,13.42348994,2.846620078,-2.879321505,1.4535837280000001,1.831770678,1.3447443419999998,99.84854108,-0.086186844,0.136316846,0.095944105,0.0,77452228,0,0,1,0,0
1588,77494595,-0.031910627999999996,0.0411204,-0.14438290199999998,0.0,0.0,1430.0,1500.0,1000.0,1516.70234,1482.29766,1516.0,13.87072019,14.21031979,13.72079081,13.90839744,14.24871013,14.95251241,15.31837716,115.45831299999999,115.45831299999999,11.75691712,-0.001427844,-0.00596682,0.00010248600000000001,-0.22468866,0.164983253,-0.008535992,2.0,2.129625925,3.129625925,11,0,0,1.0,0.0,0.0,0,0,0,0,0,0.20880058699999998,-0.206403494,1.58277047,1.564162123,-0.917487638,247.93112030000003,40.64927191,-0.02519731,0.024383867000000004,-0.17422878600000002,0.0,-0.857180643,0.31382787,-8.829128792999999,-340.26352,954.701084,11.75791947,-0.139816492,0.016767651,0.214420605,-0.7633455140000001,0.33239494199999997,-8.901440452000001,2294028,-0.131644185,0.007500645,0.210251773,-340.26352,93.9912963,99.78626632,-2.434459245,-2.760630818,15.36740071,13.9926624,0.027494761,0.543860766,-0.1,55.64859563,499.2775711,11.75725468,95470.02691,1.134341845,-0.156827025,0.240292604,-0.543196194,-0.131243391,-0.048249587999999996,0.24089739100000002,0.198339895,-0.15318167900000002,1.591770687,0.6887554090000001,0.12346755300000001,0.017260313,0.714187804,0.039897641,398733502.7,327300387.1,499946.3177,13.75181036,3.577955517,13.29102157,2.684328792,1.307541287,0,0,0.0,39.8714138,32.7364372,215.69239069999998,-544.6435022000001,-99.56069901,3.321937241,13.48478122,2.91266798,-2.8395575319999997,1.5117641780000002,1.69069458,1.353465264,99.73017901,-0.09077424699999999,0.097769306,0.09965740199999999,0.0,77494595,0,0,1,0,0
1589,77532962,-0.033612295,0.032889077,-0.14350504,0.0,0.0,1429.0,1500.0,1000.0,1518.0,1481.0,1515.0,13.79779747,14.13553672,13.76480004,13.95311239,14.29443152,14.99448871,15.36128657,116.206709,116.206709,11.75771567,-0.001427678,-0.0059668740000000005,0.000101704,-0.22466228300000002,0.164954694,-0.008513734,2.0,2.132226445,3.132226445,11,0,0,1.0,0.0,0.0,0,0,0,0,0,0.202883604,-0.207874776,1.58517915,1.564584218,-1.019170476,247.33153489999998,40.77781221,-0.025162349,0.024521063,-0.17453636,0.0,-0.9155600909999999,0.28742186,-8.972284136,-340.26352,954.7127462999999,11.758890199999998,-0.129518747,0.028897377999999998,0.21383549300000002,-0.847115629,0.306435662,-9.137051706,2294028,-0.127910636,0.019867513,0.20200694,-340.26352,93.87989422,99.67562879,-2.398868719,-2.836778608,15.36733643,14.04630975,0.02642053,0.590264452,-0.1,55.33761184,499.1856459,11.75806399,95471.0972,1.134354616,-0.04275281,0.6178006979999999,0.802500104,-0.134553506,-0.0418908,0.239134292,0.189874906,-0.138098624,1.5915263780000002,0.690256375,0.11524116300000001,0.019499071,0.714060427,0.0,398733516.0,327300453.4,499827.3179,13.78093619,3.4531305110000003,13.35343427,2.7654649769999997,1.317417625,0,0,0.0,39.8714138,32.7364372,215.82686380000004,-544.0952283,-99.44233693,3.204631309,13.54607251,2.978715883,-2.799793558,1.569944629,1.5496184830000002,1.3621861869999998,99.61181693,-0.07800571,0.050182909000000005,0.11392879300000001,0.0,77532962,0,0,1,0,0
1590,77575329,-0.037243643,0.029430236000000002,-0.14575053300000002,0.0,0.0,1428.0,1500.0,1000.0,1515.0,1484.0,1518.0,13.86816271,14.20752954,13.80880927,13.99782735,14.34015291,15.03646501,15.40419598,116.9551051,116.9551051,11.75851422,-0.0014275120000000001,-0.0059669269999999995,0.00010092200000000001,-0.224635907,0.164926136,-0.008491475,2.0,2.134826965,3.134826965,11,0,0,1.0,0.0,0.0,0,0,0,0,0,0.19696662,-0.20934605899999997,1.58758783,1.565006312,-1.120853315,246.7319495,40.90635251,-0.025129972,0.024519452999999997,-0.174771503,0.0,-0.930225417,0.274733792,-9.111465075,-340.26352,954.7305564,11.75975272,-0.124323899,0.025211239,0.210512224,-0.800856475,0.366150631,-9.342527815,2294028,-0.127323603,0.028176117999999997,0.200390901,-340.26352,93.76849214,99.56499127,-2.363278193,-2.9129263969999997,15.36727216,14.09995711,0.025346298,0.636668138,-0.1,55.02662806,499.06398449999995,11.75887386,95472.50508999999,1.134371328,-0.672427872,-0.24150507300000001,-0.428516089,-0.130477955,-0.028465699,0.230484202,0.18150252100000003,-0.15440606,1.591285169,0.6898770470000001,0.11809966599999999,0.010790144,0.7141455959999999,0.0,398733529.3,327300519.8,499708.3181,13.81006201,3.328305504,13.41584696,2.8466011630000003,1.327293964,0,0,0.0,39.8714138,32.7364372,215.96036669999998,-543.5104156,-99.31278791,3.082698628,13.61139127,3.035664083,-2.794679583,1.552628563,1.326935815,1.37137104,99.48226791,-0.081655411,0.005545021999999999,0.118616305,0.0,77575329,0,0,1,0,0
1591,77617696,-0.030773117000000003,0.044367385,-0.149346341,0.0,0.0,1428.0,1500.0,1000.0,1516.426685,1482.573315,1516.0,13.95819645,14.29978786,13.8528185,14.042542300000001,14.385874300000001,15.0784413,15.4471054,117.7035011,117.7035011,11.75931277,-0.0014273460000000001,-0.00596698,0.00010014,-0.224609531,0.164897577,-0.008469216,2.0,2.137427485,3.137427485,11,0,0,1.0,0.0,0.0,0,0,0,0,0,0.191049637,-0.210817342,1.58999651,1.565428407,-1.222536153,246.1323642,41.034892799999994,-0.025087242000000003,0.024426146,-0.174946383,0.0,-0.92573245,0.268057793,-9.248904179,-340.26352,954.7510609,11.76056781,-0.130761809,0.020302671,0.205241621,-0.7511386170000001,0.263273871,-9.444853452,2294028,-0.128115573,0.034706137000000005,0.201680017,-340.26352,93.64660796,99.43103623,-2.369858781,-2.9705443160000002,15.36714511,14.16358311,0.024071236,0.678432227,-0.1,54.70035261,498.78946950000005,11.75971395,95475.63507,1.134408534,0.071601389,0.20670147100000003,-0.182635335,-0.131091983,-0.017868777,0.228783758,0.182339223,-0.174311087,1.5993911930000002,0.685707495,0.125374485,0.004636122,0.7169753529999999,0.0,398733542.6,327300586.1,499589.3183,13.83918784,3.2034804969999997,13.47825965,2.9277373489999996,1.337170302,0,0,0.0,39.8714138,32.7364372,216.0934446,-542.9095892000001,-99.17833606,2.958738212,13.67847512,3.0886242189999997,-2.804751427,1.502225149,1.068487989,1.3807592180000001,99.34781606,-0.082013491,-0.022722227999999997,0.12153858099999999,0.0,77617696,0,0,1,0,0
1592,77660062,-0.034039891,0.043714702,-0.152294351,0.0,0.0,1426.0,1500.0,1000.0,1516.0,1483.0,1518.0,13.88780112,14.22735576,13.89682774,14.08725725,14.43159569,15.120417600000001,15.49001481,118.4518972,118.4518972,11.76011132,-0.001427181,-0.005967033,9.940000000000002e-05,-0.22458315399999998,0.164869018,-0.008446957,2.0,2.140028006,3.140028006,11,0,0,1.0,0.0,0.0,0,0,0,0,0,0.18513265399999998,-0.21228862399999998,1.59240519,1.565850501,-1.324218992,245.53277880000002,41.1634331,-0.025046111,0.024280059,-0.17507044300000002,0.0,-0.917247978,0.261125289,-9.369694037999999,-289.9136445,954.7699777999999,11.76139177,-0.126235366,0.023728196,0.19986898,-0.8672979190000001,0.35710308799999996,-9.52014081,2294028,-0.127780172,0.036361496,0.202958002,-289.9136445,93.52275543,99.29270256,-2.38435838,-3.024682644,15.36700627,14.22908292,0.022758461,0.719325078,-0.1,54.37120565,498.574882,11.76054971,95478.09029,1.134437605,-0.289791265,0.14803426,-0.49601898899999997,-0.12582016699999998,-0.001101158,0.222943418,0.17611781,-0.194136888,1.60104169,0.684251572,0.130239536,-0.004401633,0.7175019009999999,0.0,398733554.1,327300655.3,499455.9594,13.87842569,3.0786555719999997,13.54269454,2.980559912,1.346870166,0,0,0.0,39.8714138,32.7364372,216.21910630000002,-542.322166,-99.04608828,2.838351766,13.74394862,3.135880546,-2.792924091,1.476402517,0.877748118,1.389785333,99.21556828,-0.088042385,-0.02527716,0.114934151,0.0,77660062,0,0,1,0,0
1593,77698429,-0.035593587999999995,0.035348393,-0.149790196,0.0,0.0,1425.0,1500.0,1000.0,1518.0,1481.0,1516.0,13.973510000000001,14.31513143,13.94083697,14.131972199999998,14.47731708,15.162393900000001,15.53292422,119.2002932,119.2002932,11.76090987,-0.001427015,-0.005967086999999999,9.86e-05,-0.224556778,0.164840459,-0.008424699,2.0,2.1426285259999998,3.142628526,11,0,0,1.0,0.0,0.0,0,0,0,0,0,0.17921567100000002,-0.213759907,1.59481387,1.566272596,-1.42590183,244.9331934,41.291973399999996,-0.025008491,0.024143694,-0.17515495600000003,0.0,-0.90092006,0.253688741,-9.457767549,-140.6245032,954.785775,11.76223315,-0.12175951199999999,0.025247237000000002,0.19849802600000002,-0.788538058,0.286794599,-9.561443662,2294028,-0.125229446,0.028437975,0.204214116,-140.6245032,93.39890290000001,99.15436889,-2.398857979,-3.0788209710000003,15.36686744,14.29458274,0.021445687,0.76021793,-0.1,54.04205869,498.6507784,11.76141349,95477.22592000001,1.134427396,-0.160186028,0.32067656,-0.145770012,-0.12602154,0.014392705,0.220425643,0.16787412899999998,-0.21240324600000002,1.600760564,0.6836943,0.133860433,-0.013738173000000001,0.717251958,0.0,398733565.6,327300724.6,499322.1886,13.91795359,2.9538306480000003,13.60718744,3.0325703139999995,1.356564967,0,0,0.0,39.8714138,32.7364372,216.33019539999998,-541.7610806,-98.91817158,2.7249882960000003,13.80625771,3.1719286889999996,-2.738064097,1.498881981,0.820056743,1.398099982,99.08765158,-0.086571719,-0.0021456999999999995,0.105504148,0.0,77698429,0,0,1,0,0
1594,77741592,-0.03617538,0.031917733999999996,-0.152101911,0.0,0.0,1425.0,1500.0,1000.0,1516.0,1483.0,1519.0,13.99271644,14.33473213,13.9848462,14.17668715,14.52303847,15.20437019,15.57583363,119.9486893,119.9486893,11.76170843,-0.001426849,-0.00596714,9.779999999999999e-05,-0.22453040100000002,0.16481190099999998,-0.00840244,2.0,2.145229046,3.1452290460000003,11,0,0,1.0,0.0,0.0,0,0,0,0,0,0.173298688,-0.21523119,1.59722255,1.566694691,-1.5275846690000001,244.33360809999996,41.42051370000001,-0.024972907000000003,0.024107065,-0.17526763399999998,0.0,-0.8845921409999999,0.246252193,-9.545841058999999,8.664638124,954.8015721,11.76307454,-0.125080338,0.023796486000000002,0.187949132,-0.819584733,0.342598051,-9.611346116,2294028,-0.12267872,0.020514453999999998,0.20547023,8.664638124,93.27505037,99.01603523,-2.4133575780000003,-3.132959299,15.3667286,14.36008255,0.020132912,0.8011107820000001,-0.1,53.71291173,498.4375331,11.76227702,95479.65722000001,1.134456251,0.777337492,0.19022280600000002,-0.077972746,-0.126414589,0.023865072999999997,0.21729719,0.159874896,-0.20961954600000002,1.600403136,0.6845317209999999,0.130139889,-0.015660804,0.717099246,0.0,398733577.0,327300793.9,499188.4179,13.9574815,2.829005725,13.67168034,3.084580716,1.3662597680000002,0,0,0.0,39.8714138,32.7364372,216.4412844,-541.1999952000001,-98.79025487,2.611624827,13.86856679,3.2079768310000003,-2.683204104,1.521361445,0.762365368,1.406414632,98.95973487,-0.090068,0.012625431000000001,0.09615027,0.0,77741592,0,0,1,0,0
1595,77783163,-0.032429797999999996,0.047313574000000004,-0.155034063,0.0,0.0,1423.0,1500.0,1000.0,1516.59872,1482.40128,1519.0064009999999,14.09757111,14.44206921,14.02885543,14.22140211,14.56875986,15.24634649,15.61874304,120.69708529999998,120.69708529999998,11.76250698,-0.001426683,-0.005967193000000001,9.7e-05,-0.224504025,0.164783342,-0.008380181,2.0,2.147829566,3.1478295660000004,11,0,0,1.0,0.0,0.0,0,0,0,0,0,0.167381705,-0.21670247199999998,1.59963123,1.567116785,-1.6292675069999998,243.7340227,41.549054,-0.024933949,0.024157245,-0.175403383,0.0,-0.86462246,0.27573227899999997,-9.553689358,-134.4275954,954.8190927,11.76392838,-0.12231672800000001,0.0076712080000000005,0.18597831899999998,-0.803587625,0.31021963199999997,-9.61519658,2294028,-0.124103702,0.017115624,0.194617724,-134.4275954,93.15358362,98.87834649999999,-2.409465841,-3.184995535,15.36659498,14.425251399999999,0.018826862,0.840886067,-0.100006626,53.38841044,498.3812207,11.76317117,95480.29058,1.1344638009999999,-0.366252398,0.194411172,0.369643349,-0.125311896,0.0362344,0.209348582,0.152244394,-0.200944402,1.600129208,0.685667411,0.124462183,-0.015392636000000001,0.71702995,0.0,398733588.5,327300863.2,499054.6471,13.997009400000001,2.704180801,13.73617323,3.136591118,1.37595457,0,0,0.0,39.8714138,32.7364372,216.54954530000003,-540.5863764,-98.64829329999999,2.492602669,13.93629283,3.238329325,-2.6312147130000003,1.520679701,0.7081599000000001,1.414857728,98.8177733,-0.09291019800000001,0.014673584,0.08968975300000001,0.0,77783163,0,0,1,0,0
1596,77829530,-0.035144668,0.067305767,-0.15858746699999998,0.063007995,0.0,1423.0,1500.0,1000.0,1517.0,1482.0,1519.0,14.20397275,14.551020699999999,14.07286467,14.26611706,14.61448125,15.28832279,15.66165245,121.44548130000001,121.44548130000001,11.76330553,-0.0014265170000000002,-0.005967246999999999,9.620000000000001e-05,-0.22447764899999997,0.16475478300000002,-0.008357923,2.0,2.150430086,3.150430086,11,0,0,1.0,0.0,0.0,0,0,0,0,0,0.161660752,-0.215801322,1.6009736209999998,1.567378419,-1.689386869,243.1176242,41.68200821,-0.024896214,0.024233327000000002,-0.17554605199999998,0.0,-0.844575594,0.305994797,-9.559837316,-283.71673680000004,954.8366497999999,11.76478249,-0.128292826,0.024508341,0.174880046,-0.8274887809999999,0.221429662,-9.63073581,2294028,-0.125612948,0.013812693000000001,0.18350858,-283.71673680000004,93.05920251,98.74797973,-2.196778354,-3.213166852,15.36652063,14.48666286,0.017597148,0.8679736809999999,-0.10008847300000001,53.11665116,498.14560830000005,11.76406318,95482.99782,1.134495975,0.015859201,0.17630890899999999,-0.468887375,-0.123259113,0.040915705,0.20860031399999998,0.14499225,-0.19783475399999997,1.59986283,0.686397516,0.120873599,-0.016925587,0.71690848,0.0,398733599.5,327300932.5,498920.5667,14.03722545,2.582796559,13.799978,3.185848977,1.385373135,0,0,0.0,39.8714138,32.7364372,216.65774629999999,-539.9716443,-98.50603405,2.373460577,14.00413368,3.268561102,-2.579286163,1.5195070640000001,0.654028315,1.423303547,98.67551405,-0.071312112,0.005418109,0.096757815,0.0,77829530,0,0,1,0,0
1597,77867897,-0.032369201,0.077037318,-0.16217410699999998,0.018710196000000002,0.0,1424.0,1500.0,1000.0,1514.3152630000002,1484.6847369999998,1518.0,14.25005423,14.59802059,14.1168739,14.31083201,14.66020264,15.33029908,15.70456186,122.19387739999999,122.19387739999999,11.76410408,-0.001426352,-0.0059673,9.54e-05,-0.22445127199999998,0.164726225,-0.008335664,2.0,2.1530306059999997,3.153030606,11,0,0,1.0,0.0,0.0,0,0,0,0,0,0.156085005,-0.21314281399999999,1.60152617,1.5675211930000001,-1.7187184709999999,242.48877149999998,41.81823198,-0.024849341,0.024299127,-0.175681025,0.0,-0.850610812,0.312060166,-9.608241768,-340.26352,954.8504396,11.76565266,-0.136498817,0.037287365,0.16950580899999998,-0.829159292,0.28345667399999996,-9.63172694,2294028,-0.12817411,0.024179928,0.175616518,-340.26352,92.96482139,98.61761295,-1.9840908659999998,-3.24133817,15.36644627,14.54807431,0.016367435,0.895061295,-0.10017032,52.84489188,498.0351241,11.76495017,95484.25013,1.134510779,-0.166738636,-0.254915754,-0.678580895,-0.12386445900000001,0.041760503,0.20345431,0.142624243,-0.196801135,1.603566768,0.6852666079999999,0.119726005,-0.017186588,0.718168377,0.0,398733608.4,327301002.0,498784.9236,14.08091418,2.478775755,13.86031006,3.2212160919999997,1.393397675,0,0,0.0,39.8714138,32.7364372,216.7538838,-539.382446,-98.36875142,2.264013307,14.06712041,3.2962046139999996,-2.525364936,1.5044229919999998,0.612088635,1.431034619,98.53823142,-0.07373584799999999,0.040404416,0.083152977,0.0,77867897,0,0,1,0,0
1598,77912527,-0.034009956,0.07846156900000001,-0.163755583,0.0,0.0,1422.0,1500.0,1000.0,1515.272254,1483.727746,1528.0,14.2339854,14.58153035,14.16088313,14.35554696,14.70592403,15.37227538,15.74747127,122.94227340000002,122.94227340000002,11.76490263,-0.001426186,-0.005967353000000001,9.470000000000001e-05,-0.224424896,0.164697666,-0.008313405,2.0,2.155631126,3.1556311260000003,11,0,0,1.0,0.0,0.0,0,0,0,0,0,0.150509259,-0.210484306,1.602078719,1.5676639669999999,-1.7480500730000001,241.85991890000003,41.95445575,-0.02479764,0.024382523,-0.175816384,0.0,-0.872548775,0.303372072,-9.68241081,-340.26352,954.8619322999999,11.76653264,-0.131058578,0.060843932999999996,0.160769363,-0.942788159,0.282169332,-9.869777937,2294028,-0.13137664599999999,0.042882123,0.169685972,-340.26352,92.87044028,98.48724618,-1.7714033790000001,-3.2695094869999997,15.36637192,14.60948576,0.015137722,0.922148909,-0.10025216699999999,52.57313259,497.8902266,11.76586815,95485.92177999999,1.1345307070000001,0.5172115970000001,-0.128052248,0.209089587,-0.122968276,0.035152745,0.197644912,0.142939246,-0.193162732,1.609395966,0.6833713579999999,0.118591701,-0.015468971000000001,0.720205475,0.0,398733617.4,327301071.5,498649.2805,14.12460292,2.374754951,13.92064213,3.256583207,1.401422214,0,0,0.0,39.8714138,32.7364372,216.842666,-538.8088161000001,-98.23450313,2.160477155,14.127147500000001,3.3222700119999997,-2.470228736,1.4808568530000001,0.5775825920000001,1.438329895,98.40398313,-0.075929107,0.046476413,0.077258578,0.0,77912527,0,0,1,0,0
1599,77952631,-0.035884246,0.054369086,-0.1611183,0.0,0.0,1418.458492,1500.0,1028.316063,1516.541508,1482.458492,1536.853771,14.30505552,14.65413948,14.20489236,14.40026191,14.75164541,15.41425168,15.79038068,123.69066950000001,123.69066950000001,11.76570118,-0.00142602,-0.005967406999999999,9.39e-05,-0.22439852,0.16466910699999998,-0.008291146,2.0,2.158231646,3.1582316460000004,11,0,0,1.0,0.0,0.0,0,0,0,0,0,0.144933513,-0.207825798,1.6026312669999998,1.567806742,-1.777381675,241.23106620000001,42.09067952,-0.024750379,0.02445251,-0.175991179,0.0,-0.8934775979999999,0.285719336,-9.800650577999999,-340.26352,954.8768472999999,11.76747055,-0.131778999,0.080154114,0.155280195,-0.839792558,0.25384708300000003,-10.01389632,2294028,-0.13279043699999998,0.056873268,0.16338887300000002,-340.26352,92.77605916,98.35687941,-1.5587158909999999,-3.2976808039999996,15.36629756,14.67089721,0.013908008000000001,0.9492365229999999,-0.100334014,52.30137331,497.7933,11.76678589,95487.05144,1.1345440759999998,0.397174585,-0.282693973,-0.449157441,-0.11635030199999999,0.037952302,0.19387495899999999,0.136504818,-0.18748702,1.609106434,0.6841813720000001,0.114372321,-0.015835201,0.7201135259999999,0.0,398733626.3,327301140.9,498513.6373,14.16829166,2.2707341469999998,13.98097419,3.291950322,1.409446753,0,0,0.0,39.8714138,32.7364372,216.9304625,-538.2208717999999,-98.09672869,2.055118445,14.18836291,3.344306301,-2.44289221,1.467160293,0.479809208,1.445774467,98.26620869,-0.076904674,0.039270792,0.074651951,0.0,77952631,0,0,1,0,0
1600,77998997,-0.029658295,0.03183706,-0.153923976,0.0,0.0,1417.0,1500.0,1000.0,1517.0,1482.0,1542.186237,14.33026302,14.68000754,14.24890159,14.44497686,14.7973668,15.45622797,15.83329009,124.4390655,124.4390655,11.76649974,-0.0014258539999999998,-0.00596746,9.31e-05,-0.224372143,0.164640548,-0.008268888,2.0,2.160832166,3.160832166,11,0,0,1.0,0.0,0.0,0,0,0,0,0,0.139357766,-0.20516729,1.603183816,1.5679495159999999,-1.8067132769999998,240.60221349999998,42.22690329,-0.024708999,0.024478441,-0.176156372,0.0,-0.9115815540000001,0.24297202699999998,-10.04225679,-340.26352,954.9013424000001,11.76857062,-0.134424942,0.070541635,0.152133543,-0.851087494,0.264094679,-10.33018795,2294028,-0.129197027,0.057676846,0.156065692,-340.26352,92.67695321,98.225083,-1.523313598,-3.319653846,15.36620553,14.73241399,0.012675833000000001,0.97262076,-0.100363479,52.03807096,497.6381745,11.76770311,95488.80246,1.1345649290000002,0.548603785,0.046387852,-0.43482209,-0.126875372,0.031418904,0.193266236,0.13022042,-0.186239811,1.608815858,0.6847110740000001,0.111775471,-0.017681718,0.719972598,0.0,398733635.3,327301210.4,498377.9942,14.2119804,2.166713343,14.04130626,3.327317437,1.4174712930000002,0,0,0.0,39.8714138,32.7364372,217.0155,-537.5928574,-97.94908356,1.944657879,14.25290481,3.3550639760000003,-2.4933748419999997,1.48109148,0.20493262,1.4536369569999998,98.11856356,-0.07504230099999999,0.024298478,0.07453702200000001,0.0,77998997,0,0,1,0,0
1601,78037364,-0.029864647999999997,0.020854736999999998,-0.152527359,0.0,0.0,1418.0,1500.0,1000.0,1517.0,1482.0,1532.0,14.33405203,14.68375481,14.29291083,14.48969182,14.84308819,15.49820427,15.8761995,125.18746159999999,125.18746159999999,11.76729829,-0.001425689,-0.005967513000000001,9.23e-05,-0.224345767,0.16461199,-0.008246629,2.0,2.163432687,3.163432687,11,0,0,1.0,0.0,0.0,0,0,0,0,0,0.13378202,-0.202508782,1.603736364,1.56809229,-1.836044878,239.97336090000002,42.36312706,-0.024664582,0.024458616000000002,-0.176309002,0.0,-0.92968551,0.200224719,-10.283863,-340.26352,954.9258376,11.769670699999999,-0.135356489,0.052973449000000006,0.14772289,-0.8019783,0.2608583,-10.410011,2294028,-0.125603616,0.058480425,0.148742511,-340.26352,92.56780698,98.09024864,-1.864642343,-3.3284555510000002,15.36607593,14.79415458,0.011438428,0.988135324,-0.100281632,51.79273958,497.5389813,11.768621099999999,95489.94912,1.134578555,0.16407079800000002,-0.10482057199999999,0.120814811,-0.11900252800000001,0.023358043999999998,0.179388767,0.124100209,-0.186606434,1.608439618,0.685165323,0.109806377,-0.020032573,0.719781549,0.0,398733643.5,327301280.0,498241.3065,14.25716136,2.060454083,14.10238448,3.3477615519999997,1.425547921,0,0,0.0,39.8714138,32.7364372,217.1005375,-536.9648429,-97.80143843,1.834197312,14.3174467,3.365821651,-2.543857475,1.495022666,-0.069943968,1.4614994469999998,97.97091843,-0.077537304,0.053507228,0.064901072,0.0,78037364,0,0,1,0,0
1602,78075731,-0.033282061,0.005155606,-0.151249039,0.0,0.0,1422.79956,1500.0,1000.0,1514.79956,1484.20044,1515.60132,14.48342295,14.83659975,14.33692006,14.53440677,14.88880958,15.54018057,15.91910891,125.93585759999999,125.93585759999999,11.76809684,-0.001425523,-0.005967566999999999,9.15e-05,-0.22431939,0.164583431,-0.00822437,2.0,2.166033207,3.166033207,11,0,0,1.0,0.0,0.0,0,0,0,0,0,0.128206273,-0.199850274,1.6042889130000002,1.568235064,-1.86537648,239.3445082,42.49935083,-0.024619706,0.024436548,-0.17647237699999999,0.0,-0.934802976,0.22555660100000002,-10.24847486,-340.26352,954.9479066,11.77058344,-0.128553781,0.010990722,0.138916225,-0.8799182790000001,0.165173713,-10.30642442,2294028,-0.126987383,0.033790624,0.14163240400000002,-340.26352,92.45866075,97.95541427,-2.205971088,-3.3372572560000004,15.36594634,14.85589516,0.010201023,1.003649888,-0.100199785,51.54740821,497.2691088,11.76953854,95493.02455,1.134615156,0.243947277,0.469318876,-0.413124098,-0.12301959900000001,0.027797426,0.178728672,0.118166597,-0.18295350100000002,1.6081486180000002,0.6857843240000001,0.10646905699999999,-0.020916861000000002,0.7196675140000001,0.0,398733650.3,327301349.7,498102.7508,14.30501072,1.95019201,14.16479696,3.341520304,1.433717694,0,0,0.0,39.8714138,32.7364372,217.1705961,-536.3749358,-97.66385855,1.73460518,14.37680817,3.3607075180000003,-2.462708684,1.489933641,-0.082138878,1.46796094,97.83333855,-0.074803501,0.040318762,0.065278358,0.0,78075731,0,0,1,0,0
1603,78114098,-0.033830552,0.017736791000000002,-0.152507774,0.0,0.0,1423.0,1500.0,1000.0,1514.057211,1484.942789,1510.0,14.45147489,14.80380383,14.38092929,14.57912172,14.93453097,15.58215687,15.96201832,126.6842537,126.6842537,11.76889539,-0.0014253570000000001,-0.00596762,9.08e-05,-0.22429301399999999,0.164554872,-0.008202111,2.0,2.168633727,3.168633727,11,0,0,1.0,0.0,0.0,0,0,0,0,0,0.12263052699999999,-0.19719176600000002,1.604841461,1.5683778380000002,-1.894708082,238.71565550000003,42.63557459,-0.024575483,0.024405136,-0.17663763899999999,0.0,-0.938560211,0.258019238,-10.18407376,-340.26352,954.9697215,11.77147657,-0.12672936099999998,-0.006090624,0.13566657,-0.8905955179999999,0.250346118,-10.20361795,2294028,-0.128892469,0.006430595,0.134544615,-340.26352,92.34951452,97.82057990000001,-2.5472998330000003,-3.346058962,15.36581674,14.91763575,0.008963618000000001,1.019164452,-0.100117938,51.30207683,497.2041562,11.77048691,95493.7624,1.1346239040000001,-0.179216892,0.354608153,0.18314817100000003,-0.125296965,0.042434705999999996,0.168085108,0.11220210900000001,-0.179349553,1.607854413,0.686392841,0.10313652699999999,-0.021828575,0.7195491620000001,0.0,398733657.2,327301419.4,497964.195,14.35286008,1.839929937,14.22720944,3.335279056,1.441887467,0,0,0.0,39.8714138,32.7364372,217.2390858,-535.7890203,-97.52733292,1.63615143,14.43562704,3.3539309389999996,-2.367772548,1.4828523999999998,-0.06681997,1.47427569,97.69681292,-0.076455297,0.030989441,0.062836927,0.0,78114098,0,0,1,0,0
1604,78156465,-0.031471679,0.023655641,-0.154973126,0.0,0.0,1424.0,1500.0,1000.0,1516.0,1483.0,1502.0,14.55865686,14.91339066,14.42594129,14.62464559,14.98106991,15.62548288,16.00629934,127.4938947,127.4938947,11.76977535,-0.0014252260000000001,-0.005968043,9e-05,-0.224280769,0.164500433,-0.008171931,2.0,2.1712342469999997,3.1712342469999997,11,0,0,1.0,0.0,0.0,0,0,0,0,0,0.117054781,-0.19453325800000001,1.60539401,1.568520612,-1.924039684,238.0868029,42.77179836,-0.024532424,0.024344453,-0.176800125,0.0,-0.92720233,0.237128964,-10.02222129,-340.26352,954.9834404,11.7723625,-0.13789192,-0.032046454,0.134735984,-0.880061035,0.200954513,-9.839161386,2294028,-0.131766642,-0.013569834,0.129958518,-340.26352,92.24036829,97.68574554,-2.888628577,-3.354860667,15.36568715,14.97937634,0.007726213000000001,1.034679016,-0.100036091,51.05674545,497.0861693,11.77140405,95495.13872,1.134640157,0.034566446,0.883035495,-0.295534215,-0.12442068099999999,0.06902860200000001,0.164037366,0.106316905,-0.179810988,1.607558024,0.686776435,0.101277066,-0.024120797000000003,0.719371377,0.0,398733664.1,327301489.1,497825.6393,14.40070944,1.729667864,14.28962192,3.3290378080000003,1.45005724,0,0,0.0,39.8714138,32.7364372,217.3052133,-535.1729781,-97.38468824,1.539068796,14.49434938,3.355496847,-2.26125015,1.431883896,0.06987109400000001,1.48023947,97.55416824,-0.07595690599999999,0.027775672999999997,0.060401434000000004,0.0,78156465,0,0,1,0,0
1605,78198832,-0.033233231,0.02634721,-0.155826873,0.0,0.0,1423.0,1500.0,1000.0,1517.0,1482.0,1511.0,14.55625614,14.91082049,14.47178316,14.6708389,15.02828544,15.66992591,16.05171547,128.3542211,128.3542211,11.77072267,-0.001425125,-0.005968773,8.94e-05,-0.22428021899999998,0.164424575,-0.008135195999999999,2.0,2.173834767,3.173834767,11,0,0,1.0,0.0,0.0,0,0,0,0,0,0.111479034,-0.19187475,1.605946558,1.5686633859999999,-1.9533712859999999,237.4579502,42.90802213,-0.024480305,0.024245716,-0.17695654800000002,0.0,-0.903335388,0.17208455600000003,-9.779719417999999,-340.26352,954.990459,11.77324247,-0.139915614,-0.045608380999999996,0.12413094400000001,-0.919735318,0.209849607,-9.571219504,2294028,-0.135442817,-0.02747956,0.127442788,-340.26352,92.10669229,97.54106944,-3.025716596,-3.364496866,15.36559301,15.04205009,0.006470856999999999,1.047060569,-0.1,50.805906799999995,496.87613430000005,11.77232203,95497.56061,1.1346690259999999,-0.366927944,0.685462557,-0.438359767,-0.127875994,0.086803555,0.163159834,0.100576425,-0.18162125899999998,1.607268652,0.687078994,0.09994687599999999,-0.02682767,0.7191718140000001,0.0,398733670.9,327301558.8,497687.0836,14.44855881,1.61940579,14.35203441,3.322796559,1.4582270130000001,0,0,0.0,39.8714138,32.7364372,217.3693858,-534.5320036,-97.23697949,1.4431208780000002,14.55299183,3.363966881,-2.145139119,1.3445949,0.307008079,1.485912792,97.40645949,-0.07481351900000001,0.024124654,0.057099965,0.0,78198832,0,0,1,0,0
1606,78237199,-0.027071632,0.027219292000000003,-0.155318032,0.0,0.0,1422.0,1500.0,1000.0,1515.0,1484.0,1511.0,14.59689439,14.95248344,14.51762503,14.71703221,15.07550096,15.71436894,16.0971316,129.2145476,129.2145476,11.77166999,-0.0014250229999999999,-0.005969503,8.88e-05,-0.224279669,0.164348717,-0.00809846,2.0,2.176435287,3.176435287,11,0,0,1.0,0.0,0.0,0,0,0,0,0,0.10590328800000001,-0.18921624199999998,1.6064991069999999,1.568806161,-1.9827028880000002,236.82909750000002,43.0442459,-0.024441377,0.024199845,-0.177098752,0.0,-0.8886609259999999,0.126618078,-9.570630572,-312.0242952,954.9982395999999,11.77412742,-0.136847591,-0.033509046,0.124716609,-0.894993823,0.185228936,-9.496100869,2294028,-0.138109192,-0.037612064,0.125081621,-312.0242952,91.95366829,97.38863061,-3.001708437,-3.374791277,15.36552685,15.10545989,0.005201341,1.0569709390000002,-0.1,50.55072424,496.8268847,11.7732397,95498.11027,1.134675511,-0.02836198,-0.024260972000000002,0.090461786,-0.128372834,0.087996613,0.154351995,0.094961371,-0.17822456899999997,1.606955893,0.687630265,0.096801674,-0.027683796,0.719042135,0.0,398733676.9,327301630.8,497544.6239,14.4964084,1.5183295769999998,14.40985386,3.333778733,1.4655550880000001,0,0,0.0,39.8714138,32.7364372,217.43099139999998,-533.8995047000001,-97.09105797,1.3502839640000002,14.61007215,3.375422107,-2.034122634,1.273338364,0.512738537,1.491425859,97.26053797,-0.075992452,0.030444326,0.052232609000000006,0.0,78237199,0,0,1,0,0
1607,78283131,-0.027138019,0.042478151,-0.159706425,0.0,0.0,1422.0,1500.0,1000.0,1516.0,1483.0,1513.0,14.61282107,14.96869592,14.56346691,14.76322552,15.12271649,15.75881197,16.14254774,130.074874,130.074874,11.77261731,-0.001424921,-0.005970232,8.809999999999999e-05,-0.22427911899999997,0.16427286,-0.008061724000000001,2.0,2.179035807,3.179035807,11,0,0,1.0,0.0,0.0,0,0,0,0,0,0.10032754199999999,-0.18655773399999998,1.607051655,1.568948935,-2.01203449,236.2002449,43.18046967,-0.024395667000000003,0.024152273999999998,-0.17725284800000002,0.0,-0.9133926370000001,0.16507793099999998,-9.504776137,-162.72964030000003,955.009287,11.77503369,-0.14188578300000002,-0.028344587999999997,0.12600044900000001,-0.98830836,0.245324273,-9.389840293999999,2294028,-0.136446771,-0.031552437,0.123383039,-162.72964030000003,91.80064428,97.23619178,-2.9777002789999996,-3.385085688,15.36546069,15.16886968,0.003931825999999999,1.066881309,-0.1,50.29554169,496.59649129999997,11.774169,95500.73922999999,1.134706722,-0.34320616299999995,-0.668298565,0.05201228,-0.127855358,0.063395311,0.14580517699999998,0.08939055,-0.175693693,1.606606657,0.6881439540000001,0.093978405,-0.028825305,0.718884465,0.0,398733682.1,327301704.6,497398.9948,14.54425817,1.424710874,14.46394447,3.358743684,1.4721998330000001,0,0,0.0,39.8714138,32.7364372,217.4815932,-533.3033389999999,-96.95279783,1.270783243,14.66045597,3.399674203,-1.944945358,1.270809504,0.5838360260000001,1.4962519440000002,97.12227783,-0.076142983,0.020472399,0.04991099,0.0,78283131,0,0,1,0,0
1608,78321932,-0.028057291,0.039196873,-0.15690443699999998,0.0,0.0,1422.0,1500.0,1000.0,1513.0,1486.0,1513.0,14.75728789,15.11642827,14.60930878,14.80941883,15.16993201,15.803254999999998,16.18796387,130.93520049999998,130.93520049999998,11.77356463,-0.001424819,-0.005970962,8.75e-05,-0.22427856899999998,0.16419700199999998,-0.008024989,2.0,2.181636327,3.181636327,11,0,0,1.0,0.0,0.0,0,0,0,0,0,0.096192493,-0.18498745,1.607570859,1.569098776,-2.041150349,235.5517883,43.31551791,-0.024348667,0.024100304,-0.17738594,0.0,-0.938124347,0.20353778399999997,-9.438921702,-13.43498551,955.0203344,11.77593996,-0.129812332,-0.004436705,0.124078091,-0.922220741,0.21605603399999998,-9.417311471,2294028,-0.13478435,-0.025492811,0.121684456,-13.43498551,91.64762028,97.08375295,-2.95369212,-3.3953800989999996,15.36539452,15.23227947,0.0026623109999999997,1.076791679,-0.1,50.04035913,496.46005410000004,11.77510498,95502.27234,1.134725021,0.21621493,-0.802093414,-0.23840268,-0.125770409,0.019286576,0.138092081,0.08405103,-0.17706221,1.6063222380000002,0.688431905,0.09262467099999999,-0.031232225,0.7186815940000001,0.0,398733687.3,327301778.5,497253.3657,14.59210795,1.331092172,14.51803508,3.383708636,1.4788445780000001,0,0,0.0,39.8714138,32.7364372,217.53219500000003,-532.7071733,-96.8145377,1.191282522,14.71083979,3.4239262989999997,-1.855768082,1.268280643,0.654933515,1.501078029,96.9840177,-0.072475048,0.026787274,0.047200125999999995,0.0,78321932,0,0,1,0,0
1609,78368299,-0.028607512999999998,0.037270258,-0.158426318,0.0,0.0,1420.0,1500.0,1000.0,1513.0,1486.0,1521.0,14.76182268,15.12115989,14.65515065,14.85561214,15.21714754,15.84769803,16.23338001,131.7955269,131.7955269,11.77451195,-0.001424717,-0.005971692,8.68e-05,-0.224278019,0.164121144,-0.007988253,2.0,2.1842368469999998,3.1842368469999998,11,0,0,1.0,0.0,0.0,0,0,0,0,0,0.092521168,-0.18376743899999998,1.608079331,1.569250892,-2.0701967669999997,234.89702169999998,43.45018778,-0.024293251000000002,0.024040732000000002,-0.177499002,0.0,-0.9632033190000001,0.16785187399999998,-9.545092959,11.77684588,955.0363693,11.77684588,-0.12725039999999999,0.006993699999999999,0.11979784,-0.864466187,0.20472707199999998,-9.464683475,2294028,-0.13259115400000002,-0.005358999000000001,0.118721467,11.77684588,91.49459628,96.93131413,-2.929683962,-3.405674509,15.36532836,15.29568926,0.001392796,1.0867020490000001,-0.1,49.78517657,496.46816060000003,11.77605163,95502.18014,1.134723926,0.268258641,-0.597664335,0.046777121,-0.129090761,-0.00438248,0.133601012,0.085489989,-0.178936068,1.611437201,0.686430323,0.093866979,-0.031117992999999997,0.72042849,0.0,398733692.5,327301852.3,497107.7365,14.63995773,1.237473469,14.57212569,3.408673587,1.4854893230000001,0,0,0.0,39.8714138,32.7364372,217.5793778,-532.0654225,-96.66441341,1.111914418,14.76501901,3.448560896,-1.7567984,1.255418793,0.582799042,1.5063364190000001,96.83389341,-0.054581448,0.017157517,0.05253573,0.0,78368299,0,0,1,0,0
1610,78406666,-0.028500105,0.033552927,-0.157521486,0.0,0.0,1421.0,1500.0,1000.0,1513.0,1486.0,1519.0,14.7924572,15.152437699999998,14.70099252,14.90180545,15.26436306,15.89214106,16.27879614,132.6558534,132.6558534,11.77545927,-0.001424616,-0.005972422,8.62e-05,-0.22427746899999998,0.16404528599999998,-0.007951518000000001,2.0,2.186837367,3.186837367,11,0,0,1.0,0.0,0.0,0,0,0,0,0,0.08884984300000001,-0.182547428,1.608587802,1.569403008,-2.099243184,234.2422551,43.58485764,-0.024235652000000003,0.024011295,-0.177605235,0.0,-0.988352846,0.117101161,-9.686216087,11.77775172,955.0534175,11.77775172,-0.136125981,0.02972972,0.113687403,-1.0242659490000001,0.057144636,-9.659837312999999,2294028,-0.13029011599999998,0.017634379,0.115501577,11.77775172,91.36105196,96.78905434,-2.8885418960000004,-3.423529427,15.36520771,15.35468979,0.000210371,1.0963952670000001,-0.1,49.56787618,496.2177643,11.77699245,95505.08611,1.134758419,-0.39868080100000003,-0.9872048440000001,-0.300239821,-0.12734742699999999,-0.030114696,0.134944547,0.085827658,-0.174659905,1.6154406280000002,0.685172516,0.092513619,-0.02933885,0.721881342,0.0,398733697.7,327301926.2,496962.1074,14.68780751,1.143854766,14.6262163,3.4336385380000003,1.4921340680000001,0,0,0.0,39.8714138,32.7364372,217.625866,-531.4144098999999,-96.51187859,1.032573259,14.81996938,3.473273209,-1.6558391140000002,1.240457505,0.48156295600000004,1.511682645,96.68135859,-0.055173127,0.056209432000000004,0.043680904000000007,0.0,78406666,0,0,1,0,0
1611,78445033,-0.026992175,0.036901454,-0.158773628,0.0,0.0,1420.0,1500.0,1000.0,1514.0,1485.0,1518.0,14.92158877,15.28446486,14.746834400000001,14.94799877,15.31157859,15.93658408,16.32421227,133.5161798,133.5161798,11.77640659,-0.001424514,-0.0059731509999999995,8.55e-05,-0.224276919,0.163969429,-0.007914781999999999,2.0,2.189437888,3.189437888,11,0,0,1.0,0.0,0.0,0,0,0,0,0,0.08517851800000001,-0.181327417,1.609096274,1.5695551230000002,-2.128289601,233.58748849999998,43.719527500000005,-0.024186267999999997,0.024052265,-0.177722225,0.0,-0.989706374,0.078734209,-9.797827862,-58.85547259,955.0723397,11.77866981,-0.133362229,0.040355398,0.109671702,-0.8262423520000001,0.122558524,-9.830372939,2294028,-0.128090462,0.034068509,0.112911379,-58.85547259,91.23243567,96.64936968,-2.843065239,-3.443297027,15.36507329,15.41257485,-0.000950023,1.1060335479999999,-0.1,49.36015933,496.0338822,11.77794993,95507.17821,1.134783284,0.475577662,-0.327368531,0.319946399,-0.135706203,-0.030890582000000003,0.12630071199999998,0.081051376,-0.156083194,1.615056711,0.68633308,0.08420971099999999,-0.024664102,0.721973121,0.0,398733701.6,327301999.9,496816.1682,14.73565698,1.0610882179999999,14.67875675,3.444650761,1.498048276,0,0,0.0,39.8714138,32.7364372,217.6671014,-530.7844445000001,-96.3640588,0.957629409,14.87297374,3.490523495,-1.612751645,1.259620709,0.363868938,1.51674065,96.53353879999999,-0.05238059,0.074413505,0.040077047000000005,0.0,78445033,0,0,1,0,0
1612,78483400,-0.027941939,0.039905969,-0.16078831400000002,0.0,0.0,1421.0,1500.0,1000.0,1514.0,1485.0,1516.0,14.91874469,15.28159057,14.79267627,14.99419208,15.35879411,15.98102711,16.36962841,134.37650630000002,134.37650630000002,11.77735391,-0.0014244120000000001,-0.0059738809999999995,8.49e-05,-0.22427636899999998,0.163893571,-0.007878046,2.0,2.192038408,3.192038408,11,0,0,1.0,0.0,0.0,0,0,0,0,0,0.081507194,-0.18010740600000003,1.609604746,1.569707239,-2.157336019,232.9327219,43.85419737,-0.024134261,0.024136328,-0.17785658,0.0,-0.964559273,0.054158544,-9.876574051,-208.15103330000002,955.0933489,11.77960152,-0.127798494,0.049931101,0.10315729800000001,-0.938857343,0.141673307,-9.951691898,2294028,-0.126003715,0.043197873,0.111022441,-208.15103330000002,91.10381939,96.50968503,-2.797588582,-3.4630646260000004,15.36493886,15.470459900000002,-0.002110416,1.11567183,-0.1,49.15244249,495.96875480000006,11.77890484,95507.93861,1.134792257,-0.018766275,0.18037005600000003,0.692439658,-0.13720163400000002,-0.015101671,0.123959845,0.076547089,-0.137564832,1.614761387,0.6873512829999999,0.076011161,-0.019903636000000002,0.722059982,0.06861891099999999,398733705.2,327302073.5,496670.12299999996,14.78350634,0.982032406,14.73076715,3.4508920510000003,1.503712687,0,0,0.0,39.8714138,32.7364372,217.70248700000002,-530.1779184,-96.22148997,0.887582663,14.9238109,3.499463627,-1.634113645,1.31678696,0.227846393,1.5214776780000001,96.39096997,-0.052302220999999996,0.11164051400000001,0.032974749,0.0,78483400,0,0,1,0,0
1613,78521767,-0.027500216,0.040068367,-0.162333131,0.0,0.0,1420.0,1500.0,1000.0,1513.0,1486.0,1518.0,14.95891279,15.32258545,14.83851814,15.04038539,15.40600964,16.02547014,16.41504454,135.23683269999998,135.23683269999998,11.77830123,-0.00142431,-0.0059746109999999995,8.420000000000001e-05,-0.224275819,0.163817713,-0.007841311,2.0,2.1946389280000003,3.1946389280000003,11,0,0,1.0,0.0,0.0,0,0,0,0,0,0.077835869,-0.178887395,1.6101132169999999,1.569859355,-2.186382436,232.27795530000003,43.98886723,-0.024083998,0.024223308,-0.177995652,0.0,-0.9421729529999999,0.041271735,-9.96709008,-340.26352,955.1145200999999,11.78055857,-0.133953042,0.051743645,0.10362865199999999,-0.979261717,0.298342824,-10.03750471,2294028,-0.12444071599999999,0.051093775,0.10892203800000001,-340.26352,90.97520311,96.37000037,-2.752111924,-3.482832226,15.36480443,15.52834496,-0.00327081,1.125310112,-0.1,48.94472565,495.86838560000007,11.77987689,95509.07994,1.134805799,-0.32369874600000004,0.38532092700000004,0.11546208599999999,-0.130125321,-0.007453456999999999,0.11686376300000001,0.072357821,-0.11909607,1.614469172,0.6882629579999999,0.067930226,-0.01504319,0.722112483,0.0,398733708.7,327302147.2,496524.0778,14.8313557,0.902976595,14.78277756,3.457133341,1.509377098,0,0,0.0,39.8714138,32.7364372,217.7373387,-529.564925,-96.07757369,0.8171977640000001,14.975135,3.5066388760000002,-1.647662496,1.362847854,0.083444234,1.5262251409999998,96.24705369,-0.052190242000000005,0.137410131,0.027763267999999997,0.0,78521767,0,0,1,0,0
1614,78560134,-0.028030736,0.037731926,-0.163012433,0.0,0.0,1419.0,1500.0,1000.0,1513.415883,1485.584117,1519.0,14.86140783,15.22258157,14.88436001,15.086578699999999,15.45322517,16.06991317,16.46046067,136.0971592,136.0971592,11.77924855,-0.0014242089999999998,-0.0059753409999999995,8.36e-05,-0.22427526899999997,0.163741855,-0.007804575,2.0,2.197239448,3.197239448,11,0,0,1.0,0.0,0.0,0,0,0,0,0,0.074164544,-0.17766738399999998,1.610621689,1.570011471,-2.2154288540000002,231.62318870000001,44.12353710000001,-0.024033776,0.024247841000000003,-0.178113945,0.0,-0.94101297,0.118254969,-10.14809881,-340.26352,955.1369372000001,11.78171038,-0.13268406800000002,0.062901258,0.094608353,-0.996517546,0.128373337,-10.27313001,2294028,-0.126904572,0.049506182,0.105195774,-340.26352,90.84658921,96.23027263,-2.709164627,-3.501659207,15.36467084,15.58562667,-0.00441912,1.134622574,-0.1,48.73763325,495.5878404,11.78084794,95512.30556000001,1.134844142,0.626111776,0.839293575,-0.653064062,-0.12556144,0.012948349,0.120069085,0.068184867,-0.113001097,1.614176013,0.688708216,0.064299686,-0.014452441000000002,0.722032591,0.0,398733712.2,327302220.8,496378.0326,14.87920506,0.823920784,14.83478796,3.463374631,1.51504151,0,0,0.0,39.8714138,32.7364372,217.7680849,-528.9022076,-95.92329757,0.744212979,15.03020283,3.500244779,-1.601139755,1.3235249279999999,-0.125384805,1.5310528369999998,96.09277757,-0.050882607999999996,0.089623954,0.030987117,0.0,78560134,0,0,1,0,0
1615,78602501,-0.028458542000000003,0.032056125,-0.159112123,0.0,0.0,1418.0,1500.0,1000.0,1514.0,1485.0,1517.0,14.99148978,15.35568279,14.93020188,15.13277201,15.50044069,16.1143562,16.50587681,136.95748559999998,136.95748559999998,11.78019587,-0.0014241070000000002,-0.00597607,8.3e-05,-0.22427471899999998,0.163665998,-0.007767839,2.0,2.199839968,3.199839968,11,0,0,1.0,0.0,0.0,0,0,0,0,0,0.07049321900000001,-0.17644737300000002,1.61113016,1.570163587,-2.2444752709999998,230.9684221,44.25820696,-0.023981685,0.024136947000000002,-0.178200848,0.0,-0.939852988,0.195238204,-10.32910754,-340.26352,955.1593542999999,11.782862199999999,-0.127730886,0.041047743,0.089303118,-0.907306121,0.131376363,-10.24594506,2294028,-0.129368429,0.047918589000000004,0.101469511,-340.26352,90.7180372,96.08942812,-2.7317861310000002,-3.4961024610000004,15.36455889,15.62726792,-0.005254183000000001,1.135488787,-0.1,48.54672838,495.5223948,11.78180333,95513.04895,1.134853004,-0.26291199600000004,-0.199882421,-0.004236073,-0.125207962,0.028471577999999997,0.11983659699999999,0.064128607,-0.13138540699999998,1.6138775580000002,0.688345118,0.069510532,-0.022282357000000003,0.7216989779999999,0.0,398733715.8,327302294.5,496231.9874,14.92705442,0.744864973,14.88679836,3.4696159210000004,1.520705921,0,0,0.0,39.8714138,32.7364372,217.798831,-528.2394902999999,-95.76902145,0.6712281940000001,15.08527067,3.4938506830000002,-1.554617015,1.2842020029999999,-0.334213844,1.5358805340000001,95.93850145,-0.048322727,0.051913992,0.033110258,0.0,78602501,0,0,1,0,0
