timestamp,control[0],control[1],control[2],control[3],control[4],output[2],output[3],output[4],output[5],output[6],output[7],indicated_airspeed_m_s,true_airspeed_m_s,indicated_airspeed_m_s.1,equivalent_airspeed_m_s,true_airspeed_m_s.1,equivalent_ground_minus_wind_m_s,true_ground_minus_wind_m_s,differential_pressure_raw_pa,differential_pressure_filtered_pa,temperature,gyro_bias[0],gyro_bias[1],gyro_bias[2],accel_bias[0],accel_bias[1],accel_bias[2],instance_count,seq_reached,seq_current,seq_total,item_changed_index,item_do_jump_remaining,valid,warning,finished,failure,stay_in_failsafe,flight_termination,item_do_jump_changed,execution_mode,nav_roll,nav_pitch,nav_bearing,target_bearing,xtrack_error,wp_dist,acceptance_radius,rollspeed_integ,pitchspeed_integ,yawspeed_integ,additional_integ1,x,y,z,temperature.1,pressure,temperature.2,gyro_rad[0],gyro_rad[1],gyro_rad[2],accelerometer_m_s2[0],accelerometer_m_s2[1],accelerometer_m_s2[2],x.1,y.1,z.1,temperature.3,altitude_sp,altitude_filtered,height_rate_setpoint,height_rate,airspeed_sp,airspeed_filtered,airspeed_derivative_sp,airspeed_derivative,throttle_integ,pitch_integ,baro_alt_meter,baro_temp_celcius,baro_pressure_pa,rho,xyz[0],xyz[1],xyz[2],xyz[0].1,xyz[1].1,xyz[2].1,roll_body,pitch_body,yaw_body,q_d[0],q_d[1],q_d[2],q_d[3],thrust_body[0],lat,lon,alt,vel_m_s,vel_n_m_s,vel_e_m_s,vel_d_m_s,cog_rad,ground_contact,maybe_landed,landed,ref_lat,ref_lon,x.2,y.2,z.2,vx,vy,vz,ax,ay,az,yaw,dist_bottom,roll,pitch,yaw.1,thrust_body[0].1,timestamp.1,isTakeoff,isClimbing,isDescending,isCruise,isLand
84025681,-0.09003539199999999,-0.067256428,-0.042044603,0.0,0.0,1491.0,1500.0,1000.0,1546.653931,1452.346069,1444.346069,12.07321961,12.37104907,12.43330729,12.43214077,12.73864129,12.24661954,12.54854292,94.55528156,94.55528156,11.73357171,-0.001273575,-0.006063369,0.000462199,-0.236874273,0.168452982,-0.004806604,2.0,0.9723944790000001,1.972394479,11,0,0,1,0,0.0,0,0,0,0,0,-0.075302843,-0.20590947199999998,-0.04631057400000001,-0.026935545,0.830564345,230.3220594,36.10521225,-0.021614299,0.034183761,-0.069001374,0.0,-1.068764222,1.729680352,-8.786425662000001,9.64623084,954.2553231,11.73257513,-0.264119824,0.050463217000000005,0.42464942200000005,-1.189929938,1.62767192,-8.903480814,-0.267205501,0.035205206,0.418694027,9.64623084,90.84936643,98.20109193,-2.424279533,-4.133204978999999,15.36632283,13.99504655,0.027425516,1.3157208870000001,-0.100154867,77.12297171,503.1290782,11.73279031,95425.95031,1.133818081,0.095090484,1.150176567,-0.26257668300000003,-0.263986533,0.067820344,0.437904074,-0.088530341,-0.18748180600000003,-0.046184375,0.994270062,-0.046203641,-0.092469337,-0.027109251,0.0,398673321.9,327335134.4,503663.8066,12.45086417,12.11956791,-2.934512704,1.146975395,6.045117256,0,0,0.0,39.871413700000005,32.7364371,-452.0771857,-249.9335392,-103.45718740000001,12.29138093,-2.422062103,1.484257561,0.338485771,4.417731164,1.864615649,-0.065338914,103.697952,-0.20005123100000002,-0.09832201199999999,0.019240071,0.0,84025681,0,0,1,0,0
84067799,-0.091980041,-0.056245019,-0.054063928,0.0,0.0,1486.0,1500.0,1000.0,1545.0,1454.0,1454.893179,12.11219451,12.41093717,12.39230755,12.39199267,12.69747767,12.22069324,12.52195239,93.9602696,93.9602696,11.73374246,-0.0012731980000000001,-0.006065139000000001,0.000458914,-0.236910455,0.168384974,-0.004727935,2.0,0.9749949990000001,1.974994999,11,0,0,1,0,0.0,0,0,0,0,0,-0.083146835,-0.209848212,-0.047366997,-0.027130881000000003,0.872465347,229.78255950000002,36.21801906,-0.021603048,0.034396389,-0.069419412,0.0,-1.257392859,1.7069091730000001,-8.88530931,8.606503282,954.2659315,11.73298732,-0.270738213,0.01994436,0.40996065,-1.214055013,1.6248529369999998,-9.090309173,-0.26698258,0.004988628,0.401230744,8.606503282,90.74302220000001,98.00679327,-2.014421544,-4.139907923,15.36615123,14.06462688,0.02603048,1.31544589,-0.10030572,76.70019169,502.90002010000006,11.73324228,95428.56799,1.133849211,0.287405825,0.619128833,-0.7281759809999999,-0.266485033,0.049807620999999996,0.416074713,-0.097061663,-0.21143867600000002,-0.046616514000000005,0.992851716,-0.050683822,-0.104244589,-0.028269497,0.0,398673369.9,327335121.6,503606.7568,12.441478300000002,12.14556511,-2.746783199,1.230956191,6.060270428,0,0,0.0,39.871413700000005,32.7364371,-451.5501033,-250.0329853,-103.3939377,12.30205053,-2.2295650869999997,1.564214995,0.311184278,4.346533934,1.668461815,-0.04796499,103.6347027,-0.198985059,-0.080194257,0.011016708,0.0,84067799,0,0,1,0,0
84110118,-0.086337905,-0.049642409000000005,-0.061407447999999996,0.0,0.0,1479.0,1500.0,1000.0,1545.559712,1453.440288,1465.440288,12.08344851,12.38148045,12.3513078,12.35184458,12.65631406,12.19476693,12.49536186,93.36525764,93.36525764,11.73391321,-0.001272888,-0.006066843000000001,0.00045589199999999995,-0.23694791899999998,0.168307764,-0.004643464,2.0,0.9775955190000001,1.977595519,11,0,0,1,0,0.0,0,0,0,0,0,-0.09099082800000001,-0.213786953,-0.048423419,-0.027326216,0.914366349,229.24305959999998,36.33082588,-0.021590346,0.034472172,-0.069797107,0.0,-1.205923949,1.642055929,-8.849822182,3.393783405,954.2836586000001,11.733421400000001,-0.272068455,-0.045314127,0.385331385,-1.162004703,1.6590889580000001,-8.958745496,-0.270582284,-0.04985892,0.38338711700000006,3.393783405,90.63667797,97.81249461,-1.604563556,-4.146610867,15.36597963,14.13420722,0.024635442999999996,1.315170894,-0.100456574,76.27741168,502.8235563,11.73369523,95429.44552000001,1.133859712,-0.12316415800000001,-0.8752435820000001,-0.5181103779999999,-0.267008564,0.000640711,0.393423675,-0.105113379,-0.235302631,-0.046769795999999995,0.991294653,-0.054895405999999994,-0.115965184,-0.029356947,0.0,398673417.8,327335109.0,503549.24600000004,12.43276455,12.17170634,-2.559437774,1.313736747,6.075402648,0,0,0.0,39.871413700000005,32.7364371,-450.98238899999996,-250.12102149999998,-103.3190448,12.31171612,-2.034555651,1.648251388,0.261159622,4.173928157,1.8548959409999999,-0.032317296,103.5598093,-0.20837920100000001,-0.043320843,0.002709299,0.0,84110118,0,0,1,0,0
84150336,-0.085856042,-0.02708027,-0.07399449,0.0,0.0,1473.0,1500.0,1000.0,1546.0,1453.0,1470.987397,12.06238224,12.35981342,12.31030806,12.31169648,12.61515044,12.16884063,12.46877133,92.77024568,92.77024568,11.73408396,-0.0012725780000000001,-0.006068546,0.00045287,-0.236985384,0.16823055399999998,-0.004558993,2.0,0.9801960390000001,1.980196039,11,0,0,1,0,0.0,0,0,0,0,0,-0.09883482,-0.217725694,-0.049479842,-0.027521552,0.956267352,228.70355959999998,36.4436327,-0.021581767999999998,0.034379671,-0.070140753,0.0,-1.177753875,1.6073969419999998,-8.674403602,-6.64e-34,954.2970216,11.73386957,-0.271900207,-0.105770071,0.362667811,-1.1785372729999999,1.6298035030000002,-8.704171799,-0.273349203,-0.098792749,0.367720098,-6.64e-34,90.53033374,97.61819595,-1.194705567,-4.153313811,15.36580803,14.20378755,0.023240406,1.314895897,-0.100607427,75.85463166,502.7715286,11.73417174,95430.02342,1.133866543,0.055529147,-1.195414384,-0.877995764,-0.27342204800000003,-0.058999151,0.368926065,-0.112943272,-0.259079283,-0.047093368,0.989589458,-0.058989074,-0.127617414,-0.030601717,0.0,398673465.7,327335096.4,503491.7353,12.42405081,12.19784757,-2.3720923480000002,1.3965173030000002,6.090534868,0,0,0.0,39.871413700000005,32.7364371,-450.41467479999994,-250.2090576,-103.2441519,12.32138171,-1.839546215,1.73228778,0.211134966,4.00132238,2.041330066,-0.016669602,103.484916,-0.20186816600000002,-0.013353901999999999,-0.004192841,0.0,84150336,0,0,1,0,0
84198555,-0.086923907,-0.016542109,-0.084148843,0.0,0.0,1469.0,1500.0,1000.0,1543.0,1456.0,1475.0,12.09805309,12.39621643,12.26930831,12.27154839,12.57398683,12.14291432,12.442180800000001,92.17523372,92.17523372,11.73425472,-0.001272268,-0.00607025,0.00044984800000000003,-0.23702284899999998,0.16815334399999998,-0.0044745209999999995,2.0,0.9827965590000001,1.982796559,11,0,0,1,0,0.0,0,0,0,0,0,-0.10667881300000001,-0.221664435,-0.050536264000000004,-0.027716888,0.998168354,228.1640597,36.55643952,-0.021570417,0.034200028,-0.070497897,0.0,-1.193054917,1.629074595,-8.237900018,-6.64e-34,954.302242,11.73434407,-0.275602996,-0.152053312,0.351323349,-1.197627288,1.620832597,-8.284073806,-0.274562307,-0.136692721,0.356114207,-6.64e-34,90.42864875,97.43338648,-1.148833662,-4.150030345,15.36565746,14.26619544,0.021989237999999998,1.311922262,-0.10062541900000001,75.46818531,502.6810369,11.73468096,95431.084,1.133879135,-0.065296968,-1.5568481019999998,-0.570228096,-0.270625664,-0.11759729699999999,0.354420594,-0.12031153,-0.279032315,-0.047336497000000005,0.9880167740000001,-0.06280369400000001,-0.137364431,-0.031752462,0.0,398673513.6,327335083.7,503434.2246,12.41533707,12.2239888,-2.184746923,1.47929786,6.105667089,0,0,0.0,39.871413700000005,32.7364371,-449.8827495,-250.27805640000003,-103.1666192,12.32796145,-1.6758047040000001,1.838729992,0.228719974,3.781021095,2.393284534,-0.0038453140000000003,103.4073821,-0.197008684,0.001422184,-0.011643996,0.0,84198555,0,0,1,0,0
84253547,-0.084057744,-0.011536175,-0.094142918,0.0,0.0,1461.0,1500.0,1000.0,1543.0,1456.0,1489.0,12.09201065,12.39004757,12.22830857,12.2314003,12.53282322,12.11698802,12.41559028,91.58022177,91.58022177,11.73442547,-0.0012719580000000001,-0.006071954,0.000446826,-0.237060314,0.168076134,-0.00439005,2.0,0.9853970790000001,1.985397079,11,0,0,1,0,0.0,0,0,0,0,0,-0.114522805,-0.22560317600000002,-0.051592687000000005,-0.027912224,1.0400693559999998,227.62455970000002,36.66924633,-0.02155919,0.034025285,-0.070809681,0.0,-1.207275918,1.6480332619999998,-7.814027943999999,-6.64e-34,954.3088422000001,11.73483986,-0.27890778899999996,-0.17251815399999998,0.340256337,-1.13882195,1.659632746,-7.72800597,-0.275651868,-0.17025308600000003,0.344930429,-6.64e-34,90.33288487,97.26063620000001,-1.565527405,-4.134055816,15.36553361,14.31948835,0.020920904,1.305519106,-0.100474566,75.127913,502.6289797,11.735236,95431.67942999999,1.133886178,0.539431048,-1.29300757,-0.713831274,-0.273259652,-0.153478269,0.340723328,-0.12775969,-0.272395179,-0.048084716,0.988222797,-0.066483401,-0.133939286,-0.032432418,0.0,398673562.5,327335072.7,503367.5125,12.40409082,12.24253246,-1.999089818,1.573052611,6.120637254,0,0,0.0,39.871413700000005,32.7364371,-449.35800530000006,-250.3432353,-103.08855679999999,12.33392201,-1.518337071,1.9496679080000001,0.259870793,3.551149754,2.7784504930000002,0.00841246,103.3293184,-0.192240938,0.014032308,-0.018957115,0.0,84253547,0,0,1,0,0
84298992,-0.085988384,-0.011220751000000001,-0.101336686,0.0,0.0,1456.371274,1500.0,1000.0,1543.371274,1455.628726,1493.0,12.10502326,12.40334699,12.22979906,12.2336532,12.53507655,12.13330017,12.43224896,91.61844911,91.61844911,11.73499078,-0.001271648,-0.006073657,0.000443804,-0.23709777899999998,0.167998924,-0.004305579,2.0,0.9879976,1.9879976000000001,11,0,0,1,0,0.0,0,0,0,0,0,-0.12236679800000001,-0.229541916,-0.052649109000000006,-0.02810756,1.081970359,227.0850598,36.78205315,-0.021545152,0.033906411000000004,-0.071155972,0.0,-1.211573436,1.6420096819999999,-7.506215116,-6.64e-34,954.3281198999999,11.73553117,-0.27710430199999997,-0.17600639699999998,0.338560408,-1.211021485,1.6530118280000001,-7.4117916489999995,-0.275606311,-0.16394082599999998,0.33762506299999995,-6.64e-34,90.23712099,97.08788592,-1.982221148,-4.118081287,15.36540976,14.37278126,0.01985257,1.29911595,-0.100323712,74.78764068,502.5342791,11.73580097,95432.76217,1.133899099,0.050001591,-0.850286708,-0.129140513,-0.273861609,-0.163490512,0.333221609,-0.142495918,-0.260148282,-0.056702444000000005,0.98837728,-0.0742255,-0.12732559699999998,-0.037266512,0.0,398673612.8,327335064.2,503286.2569,12.38884177,12.24906766,-1.81610122,1.684152831,6.13535128,0,0,0.0,39.871413700000005,32.7364371,-448.8076985,-250.40207650000002,-102.9988966,12.34077207,-1.363427219,2.077856394,0.240285875,3.385985215,2.9825553910000004,0.021097532999999998,103.23965729999999,-0.187584782,0.039305133,-0.024974771,0.0,84298992,0,0,1,0,0
84343210,-0.085459083,-0.000644411,-0.10928405599999999,0.0,0.0,1453.0,1500.0,1000.0,1542.0,1457.0,1493.175835,12.1336353,12.43253538,12.26192205,12.26647428,12.56863048,12.1800633,12.48008732,92.1131978,92.1131978,11.73584055,-0.0012713380000000001,-0.006075361,0.00044078199999999997,-0.237135243,0.16792171399999997,-0.004221107,2.0,0.99059812,1.99059812,11,0,0,1,0,0.0,0,0,0,0,0,-0.13021079,-0.23348065699999998,-0.053705532,-0.028302896,1.123871361,226.54555980000004,36.89485997,-0.021533676,0.033982184,-0.071556334,0.0,-1.215870953,1.635986103,-7.198402287,-6.64e-34,954.3473976,11.73622248,-0.272848465,-0.165079493,0.32360382600000004,-1.185466944,1.5614653269999998,-7.260736071,-0.27556075399999996,-0.157628565,0.33031969699999997,-6.64e-34,90.14135711,96.91513564,-2.398914891,-4.102106758,15.36528591,14.42607417,0.018784236,1.292712794,-0.100172859,74.44736837,502.3444677,11.73641073,95434.94636,1.133925005,-0.284147725,-0.362941881,-0.005469422,-0.273586576,-0.156177614,0.323406496,-0.148616828,-0.25515562,-0.057092696,0.988462018,-0.077228036,-0.12472720699999999,-0.03767514,0.0,398673663.1,327335055.7,503205.0012,12.37359272,12.25560286,-1.6331126230000002,1.795253051,6.150065306,0,0,0.0,39.871413700000005,32.7364371,-448.2389628,-250.4563486,-102.9008751,12.34826341,-1.21036135,2.218481337,0.184124032,3.2674697669999997,3.0561278960000005,0.034090657,103.1416354,-0.18160473100000002,0.049654826,-0.030913866,0.0,84343210,0,0,1,0,0
84383429,-0.079121313,0.008200446,-0.110985857,0.0,0.0,1449.554111,1500.0,1000.0,1542.168834,1456.831166,1492.891778,12.11631482,12.41476648,12.29404503,12.29929535,12.60218441,12.22682643,12.52792568,92.60794649,92.60794649,11.73669031,-0.001271029,-0.006077065,0.00043776,-0.237172708,0.16784450399999998,-0.004136636,2.0,0.99319864,1.99319864,11,0,0,1,0,0.0,0,0,0,0,0,-0.13805478300000001,-0.237419398,-0.054761954,-0.028498232000000002,1.1657723629999999,226.0060599,37.00766679,-0.021528942000000002,0.034206125,-0.071953212,0.0,-1.215559321,1.629667517,-7.206925499,-6.64e-34,954.3578544,11.73687954,-0.264636869,-0.137341049,0.31301221,-1.185917252,1.586547835,-7.146749937999999,-0.27698916100000004,-0.137402156,0.322784477,-6.64e-34,90.04559323,96.74238535,-2.8156086339999997,-4.0861322289999995,15.36516207,14.47936708,0.017715903,1.2863096379999999,-0.100022005,74.10709605,502.39333430000005,11.73706113,95434.39098,1.133918433,0.31301317,0.237650506,0.050945711,-0.271788898,-0.14402887,0.319724092,-0.154137912,-0.252717223,-0.057220071,0.9883988090000001,-0.079941715,-0.123411911,-0.037993805,0.0,398673713.5,327335047.2,503123.7455,12.35834367,12.26213806,-1.450124025,1.906353271,6.164779332,0,0,0.0,39.871413700000005,32.7364371,-447.6842871,-250.5050025,-102.8008853,12.35689986,-1.063870694,2.354471442,0.171820876,3.170316072,3.0540507189999997,0.046747294,103.0416453,-0.187998267,0.058532209,-0.036089411,0.0,84383429,0,0,1,0,0
84427647,-0.079563911,0.007679344,-0.106660804,0.0,0.0,1445.0,1500.0,1000.0,1540.810162,1458.189838,1500.919784,12.17761416,12.47759921,12.32616802,12.33211642,12.63573834,12.27358956,12.57576404,93.10269519,93.10269519,11.73754007,-0.001270719,-0.006078768000000001,0.00043473800000000005,-0.237210173,0.167767294,-0.0040521640000000005,2.0,0.99579916,1.99579916,11,0,0,1,0,0.0,0,0,0,0,0,-0.145898775,-0.24135813899999997,-0.055818375999999996,-0.028693568,1.2076733659999999,225.4665599,37.120473600000004,-0.021517117000000002,0.034500135,-0.072443278,0.0,-1.2144174540000001,1.623295793,-7.272429537000001,-6.64e-34,954.3667224999999,11.73753042,-0.265320762,-0.108954811,0.304984146,-1.156356194,1.658050045,-7.291894641,-0.27868307,-0.11466942599999999,0.315207855,-6.64e-34,89.89490649,96.57456067,-3.0248154780000003,-4.066068303,15.36504008,14.52371241,0.016826556,1.268758023,-0.1,73.78318468,502.1793181,11.73776767,95436.85627,1.133947737,0.393473291,0.857108035,0.371321635,-0.262606277,-0.118445911,0.31079040399999996,-0.15968321,-0.24261681100000002,-0.057501735,0.988797732,-0.082605468,-0.11829942199999999,-0.038089989,0.0,398673763.8,327335038.7,503042.4899,12.34309462,12.26867326,-1.267135427,2.017453491,6.179493357999999,0,0,0.0,39.871413700000005,32.7364371,-447.1582505,-250.54221280000002,-102.69688640000001,12.36786886,-0.9307733229999999,2.4810206790000002,0.248855044,3.116674894,2.897880003,0.058718528,102.9376464,-0.183441048,0.05614246,-0.041552959,0.0,84427647,0,0,1,0,0
84475866,-0.07747822900000001,0.007440938,-0.102011851,0.0,0.0,1444.0,1500.0,1000.0,1539.1828369999998,1459.8171630000002,1503.8171630000002,12.14476777,12.44377888,12.35829101,12.36493749,12.66929227,12.32035269,12.623602400000001,93.59744388,93.59744388,11.73838984,-0.001270409,-0.006080472,0.000431716,-0.237247638,0.16769008400000002,-0.003967693,2.0,0.99839968,1.99839968,11,0,0,1,0,0.0,0,0,0,0,0,-0.153742768,-0.24529688,-0.056874799000000004,-0.028888904,1.249574368,224.92706,37.23328042,-0.021498954,0.034772195,-0.07295712,0.0,-1.235822666,1.63605154,-7.425490021,-6.64e-34,954.3718107999999,11.73822159,-0.26580466399999997,-0.080356813,0.292558314,-1.10167298,1.6919114080000002,-7.473603664,-0.272344521,-0.095663859,0.302577899,-6.64e-34,89.73483981,96.40757721,-3.198586858,-4.0453059730000005,15.36491841,14.56652963,0.015967778000000002,1.249302428,-0.1,73.4620675,502.0285619,11.73850013,95438.57715,1.133968075,-0.249441706,0.510085014,0.318054374,-0.267737126,-0.09211492199999999,0.304420605,-0.16483531199999998,-0.23640374600000003,-0.057726085999999996,0.988957579,-0.085107505,-0.115118216,-0.038263476,0.0,398673813.1,327335033.0,502941.7872,12.34,12.27868132,-1.1240828170000001,2.1476534959999998,6.191085987,0,0,0.0,39.871413700000005,32.7364371,-446.62873310000003,-250.5784537,-102.5912063,12.37923026,-0.797047168,2.60660163,0.325227479,3.06420247,2.730833998,0.070731165,102.83196629999999,-0.177676954,0.069920946,-0.0469721,0.0,84475866,0,0,1,0,0
84516084,-0.07513287099999999,0.017859527,-0.094326626,0.0,0.0,1446.0,1500.0,1000.0,1539.6357269999999,1459.3642730000001,1503.0,12.26231533,12.56417499,12.39041399,12.39775857,12.7028462,12.36711582,12.67144075,94.09219257,94.09219257,11.7392396,-0.001270099,-0.006082175,0.000428694,-0.237285103,0.167612874,-0.003883222,2.0,1.0010002,2.0010002,11,0,0,1,0,0.0,0,0,0,0,0,-0.160989305,-0.245712312,-0.058458,-0.029190063,1.313612419,224.37021380000002,37.35930956,-0.021479513,0.035046151,-0.07351195599999999,0.0,-1.272474809,1.661741788,-7.637758487,-6.64e-34,954.3743432,11.73894001,-0.259958505,-0.06947147,0.288354276,-1.1439768999999997,1.6503463,-7.644638499999999,-0.26057421199999997,-0.079178699,0.286530745,-6.64e-34,89.57477312,96.24059374,-3.372358239,-4.024543642,15.36479674,14.60934686,0.015109000000000001,1.2298468329999999,-0.1,73.14095031,502.10417580000006,11.73926567,95437.68112000001,1.133957493,-0.375321616,0.192644182,0.048740325,-0.261733405,-0.069079729,0.291160187,-0.17067638,-0.237279143,-0.058884578,0.988628651,-0.08806916699999999,-0.11538597699999999,-0.039207197,0.0,398673862.1,327335028.0,502836.133,12.34,12.28957361,-0.99119824,2.282716465,6.201883883,0,0,0.0,39.871413700000005,32.7364371,-446.0577681,-250.6031539,-102.4655092,12.39526409,-0.65583411,2.7206532310000004,0.393720665,3.0256463680000003,2.434296176,0.083236801,102.70626920000001,-0.17271505,0.07199396799999999,-0.05197009599999999,0.0,84516084,0,0,1,0,0
84560302,-0.07340076599999999,0.018016179,-0.09100607599999999,0.0,0.0,1448.088618,1500.0,1000.0,1538.0,1461.0,1503.0,12.25387394,12.55552345,12.42253698,12.43057964,12.73640013,12.41387895,12.71927911,94.58694127,94.58694127,11.74008937,-0.001269789,-0.006083879,0.000425672,-0.23732256699999998,0.167535664,-0.00379875,2.0,1.00360072,2.00360072,11,0,0,1,0,0.0,0,0,0,0,0,-0.167279912,-0.240490452,-0.060884046,-0.02966054,1.4130697490000002,223.78561380000002,37.50649441,-0.021457585,0.035296631,-0.074089739,0.0,-1.275788146,1.66574268,-7.846573962999999,-6.64e-34,954.3821299000001,11.73968193,-0.258666499,-0.053365217,0.272325889,-1.227671256,1.6603616490000002,-7.78446512,-0.253017642,-0.063291687,0.27027837,1.803806009,89.41470644,96.07361028,-3.546129619,-4.003781312,15.36467507,14.65216408,0.014250222,1.210391238,-0.1,72.81983313,501.88872369999996,11.74006097,95440.16207,1.1339870109999999,-0.40082761299999997,0.012907743000000001,0.005064453,-0.25875797,-0.054606688,0.281657041,-0.183219228,-0.23867540199999998,-0.066842983,0.9878077390000001,-0.094741658,-0.11545398800000001,-0.04392399,0.0,398673911.1,327335023.0,502730.4789,12.34,12.3004659,-0.858313663,2.417779434,6.2126817789999995,0,0,0.0,39.871413700000005,32.7364371,-445.48680310000003,-250.6278542,-102.33981209999999,12.41129791,-0.514621051,2.834704832,0.46221385200000004,2.987090266,2.137758355,0.09574243699999999,102.58057209999998,-0.170198188,0.06800882700000001,-0.058320357999999996,0.0,84560302,0,0,1,0,0
84600521,-0.07075139700000001,0.026286017000000002,-0.088869171,0.0,0.0,1452.0,1500.0,1000.0,1536.541508,1462.458492,1508.458492,12.19746866,12.4975593,12.45465997,12.46340071,12.76995406,12.46064208,12.76711747,95.08168996,95.08168996,11.74093913,-0.001269479,-0.006085583,0.00042265,-0.237360032,0.167458454,-0.003714279,2.0,1.00620124,2.00620124,11,0,0,1,0,0.0,0,0,0,0,0,-0.17357052,-0.235268592,-0.063310093,-0.030131016,1.512527079,223.20101380000003,37.65367926,-0.021438541000000002,0.035475018999999997,-0.074659497,0.0,-1.216026897,1.6287088930000002,-8.048856636,-6.64e-34,954.399857,11.74046832,-0.26361058,-0.042854250999999996,0.253007754,-1.144044502,1.6877320869999999,-8.048505109,-0.253433158,-0.048536327000000004,0.25363773100000003,7.02028146,89.2496598,95.89989253,-3.6530407210000004,-4.002748199,15.36454794,14.69728792,0.013345203,1.194889576,-0.1,72.49220188,501.70955269999996,11.74089829,95442.20219,1.134011289,-0.422965276,0.304278245,0.18486508,-0.255715663,-0.031454207000000005,0.26483614699999997,-0.18801865199999998,-0.222689367,-0.067164938,0.988507914,-0.096951094,-0.10742917199999999,-0.043643985999999996,0.0,398673960.1,327335018.0,502624.8248,12.34,12.31135819,-0.7254290859999999,2.552842403,6.223479674,0,0,0.0,39.871413700000005,32.7364371,-444.95042639999997,-250.64127180000003,-102.2142084,12.43113964,-0.387595801,2.922631361,0.54118368,2.8980941039999997,1.937298811,0.10634899199999999,102.4549684,-0.173636703,0.066235386,-0.06330367099999999,0.0,84600521,0,0,1,0,0
84644739,-0.068044545,0.058086766,-0.087360947,0.02501078,0.0,1454.0,1500.0,1000.0,1536.0,1463.0,1508.005601,12.26055779,12.56219106,12.48678296,12.49622178,12.80350799,12.50740521,12.81495583,95.57643866,95.57643866,11.74178889,-0.001269169,-0.006087286,0.000419628,-0.23739749699999999,0.167381244,-0.003629808,2.0,1.00880176,2.00880176,11,0,0,1,0,0.0,0,0,0,0,0,-0.179861128,-0.230046732,-0.065736139,-0.030601492999999997,1.611984409,222.6164137,37.80086411,-0.021426506,0.035577369,-0.07521289999999999,0.0,-1.161800663,1.597401454,-8.236953795,-6.64e-34,954.418213,11.74125988,-0.252834373,-0.034601845,0.243077715,-1.238558147,1.7281776180000001,-8.237471335,-0.25387184100000004,-0.035247833,0.23668208300000002,11.24560309,89.07100359,95.70777082,-3.577230927,-4.055632605,15.36440589,14.74871547,0.012313812,1.1901935270000001,-0.1,72.14676847,501.61591,11.74175704,95443.26814,1.134023882,0.278694588,0.570303737,0.270004723,-0.259019297,-0.023974738,0.24768897399999998,-0.192352923,-0.21988221600000002,-0.067212261,0.988454752,-0.099064002,-0.105943886,-0.043771798,0.0,398674009.0,327335013.7,502514.9848,12.34315063,12.32405081,-0.593894779,2.67800341,6.234199038,0,0,0.0,39.871413700000005,32.7364371,-444.4213523,-250.6523074,-102.08862459999999,12.45178533,-0.263566013,3.005042122,0.622365434,2.798448567,1.7571242059999999,0.116554596,102.3293846,-0.168745912,0.077665295,-0.065882144,0.0,84644739,0,0,1,0,0
84688958,-0.069960508,0.085409814,-0.08538738800000001,0.07412535,0.0,1455.0,1500.0,1000.0,1535.0,1464.0,1513.0,12.45469243,12.76095266,12.51890594,12.52904286,12.83706192,12.55416834,12.86279418,96.07118735,96.07118735,11.74263866,-0.001268859,-0.00608899,0.000416606,-0.237434962,0.167304034,-0.0035453359999999996,2.0,1.01140228,2.01140228,11,0,0,1,0,0.0,0,0,0,0,0,-0.186151736,-0.22482487199999998,-0.068162185,-0.031071968999999998,1.7114417380000002,222.03181370000001,37.94804896,-0.021410124,0.035678456000000004,-0.07572019599999999,0.0,-1.160301366,1.6206435819999998,-8.289918802999999,-6.64e-34,954.4425600999999,11.7421007,-0.249464486,-0.036700786,0.220366741,-1.2068485709999999,1.6790614190000002,-8.428792887,-0.25453120100000004,-0.035932796,0.21672564100000002,6.029127637999999,88.89234738,95.51564911,-3.501421132,-4.10851701,15.36426383,14.80014302,0.011282421,1.185497478,-0.1,71.80133506,501.48368200000004,11.74263559,95444.80667,1.134042265,-0.058364528,-0.326933385,-0.86405424,-0.251122224,-0.022262969,0.23323717,-0.196591545,-0.22283314899999998,-0.06751122700000001,0.988069532,-0.101207754,-0.107294855,-0.044282537000000004,0.0,398674057.6,327335012.2,502389.0712,12.35839968,12.34365673,-0.46754550899999997,2.765140881,6.244616841,0,0,0.0,39.871413700000005,32.7364371,-443.86551119999996,-250.65594469999996,-101.9524363,12.47514289,-0.13742344199999998,3.0826177230000003,0.628612511,2.700700064,1.62208302,0.12634406199999998,102.1931963,-0.16260292699999998,0.079942372,-0.070294408,0.0,84688958,0,0,1,0,0
84733176,-0.068418199,0.096015074,-0.086362689,0.0,0.0,1456.0,1500.0,1025.0,1533.90018,1465.09982,1528.90018,12.461748199999999,12.76803772,12.55102893,12.56186393,12.87061585,12.60093147,12.91063254,96.56593604,96.56593604,11.74348842,-0.001268549,-0.006090693,0.000413584,-0.23747242699999999,0.167226824,-0.003460865,2.0,1.014002801,2.0140028009999997,11,0,0,1,0,0.0,0,0,0,0,0,-0.192442344,-0.219603012,-0.070588232,-0.031542446,1.8108990680000001,221.4472136,38.09523381,-0.021389496,0.035764911,-0.076182451,0.0,-1.158802069,1.643885709,-8.34288381,-6.64e-34,954.4669071000001,11.74294151,-0.237994155,-0.040174174,0.209066298,-1.240152091,1.743327069,-8.487381024,-0.25519056100000004,-0.03661776,0.196769198,0.8126521859999999,88.71369117,95.3235274,-3.425611338,-4.161401416,15.36412178,14.85157056,0.01025103,1.180801429,-0.1,71.45590166,501.36222860000004,11.74351087,95446.18159,1.1340585109999999,0.36522306,-0.053391749,-0.331317653,-0.24480203899999997,-0.021982698,0.21405720600000003,-0.208795713,-0.226476483,-0.076052466,0.98702281,-0.107738391,-0.108363562,-0.049333901,0.0,398674106.2,327335010.6,502263.1576,12.37364873,12.36326265,-0.341196239,2.852278352,6.255034642999999,0,0,0.0,39.871413700000005,32.7364371,-443.2897945,-250.6540884,-101.8083739,12.50051413,-0.009712038000000001,3.1566030080000003,0.579217355,2.604360191,1.5205553459999999,0.135824527,102.0491339,-0.156192214,0.08776882300000001,-0.07380365700000001,0.0,84733176,0,0,1,0,0
84777395,-0.069703303,0.062179899000000004,-0.087666453,0.0,0.0,1457.0,1500.0,1074.0,1535.0,1464.0,1542.0,12.48539606,12.79225444,12.58315192,12.594685,12.90416978,12.6476946,12.9584709,97.06068474,97.06068474,11.74433819,-0.001268239,-0.006092396999999999,0.00041056199999999995,-0.23750989100000003,0.167149614,-0.0033763940000000004,2.0,1.0166033209999998,2.016603321,11,0,0,1,0,0.0,0,0,0,0,0,-0.198732952,-0.214381152,-0.073014278,-0.032012922,1.910356398,220.8626136,38.24241866,-0.021366753999999998,0.035818665,-0.07659679900000001,0.0,-1.18865848,1.6826467530000002,-8.470907705,-6.64e-34,954.4755535,11.74381646,-0.251312522,-0.03605927,0.200176104,-1.176991029,1.661460325,-8.56592998,-0.247944915,-0.035235327999999996,0.18522319399999998,-6.64e-34,88.53503496,95.13140568,-3.349801544,-4.214285822,15.36397972,14.90299811,0.009219639,1.176105381,-0.1,71.11046825,501.13032419999996,11.74443812,95448.83213,1.134090071,-0.167385032,-0.091518824,-0.649017679,-0.246830506,-0.024498046000000002,0.19918197,-0.21245833100000003,-0.21117783699999998,-0.07630264,0.9876788009999999,-0.10935942400000001,-0.100700717,-0.048882722999999996,0.0,398674154.8,327335009.1,502137.244,12.38889778,12.38286857,-0.214846969,2.939415823,6.265452445,0,0,0.0,39.871413700000005,32.7364371,-442.7275153,-250.6489954,-101.66581049999999,12.52625567,0.111781862,3.225875416,0.572429615,2.5237825419999997,1.442626948,0.144618359,101.9065705,-0.161921285,0.12733001900000002,-0.073121438,0.0,84777395,0,0,1,0,0
84817613,-0.068133444,0.044978787,-0.08986398,0.0,0.0,1456.0,1500.0,1000.0,1534.0,1465.0,1548.0,12.48616666,12.79297165,12.615274900000001,12.62750607,12.93772371,12.69445773,13.00630926,97.55543343,97.55543343,11.74518795,-0.0012679289999999999,-0.006094100999999999,0.00040754,-0.23754735600000002,0.167072404,-0.003291922,2.0,1.019203841,2.019203841,11,0,0,1,0,0.0,0,0,0,0,0,-0.205023559,-0.209159293,-0.075440325,-0.032483398,2.009813728,220.27801359999998,38.38960351,-0.021351546000000002,0.035861352,-0.076957602,0.0,-1.224301065,1.724271554,-8.612782465,-6.64e-34,954.4813026,11.74469771,-0.234521235,-0.03325619999999999,0.18356258600000003,-1.184182141,1.726649206,-8.597245494,-0.239240532,-0.033471392999999995,0.175229196,-6.64e-34,88.37823921,94.94841756,-3.297924375,-4.2398581339999994,15.36384332,14.94800144,0.008316844,1.169362968,-0.1,70.80384801,501.0917493,11.7453685,95449.29967000001,1.1340955190000002,0.348003355,-0.615235746,0.033070613,-0.23754760600000002,-0.020420523,0.18679893600000003,-0.215447544,-0.208995596,-0.076303665,0.987632748,-0.110806746,-0.099549073,-0.048921137999999996,0.0,398674203.4,327335007.6,502011.3305,12.40414683,12.40247449,-0.0884977,3.0265532939999997,6.2758702479999995,0,0,0.0,39.871413700000005,32.7364371,-442.19352069999997,-250.63708939999998,-101.5264021,12.55277665,0.220188565,3.285227709,0.655326014,2.476382722,1.414372552,0.151966896,101.7671621,-0.154822839,0.171645215,-0.07073234099999999,0.13426217,84817613,0,0,1,0,0
84861832,-0.065841765,0.016239036999999998,-0.09268064300000001,0.0,0.0,1455.258852,1500.0,1000.0,1532.0,1467.0,1538.0,12.55121588,12.85955971,12.64739789,12.66032715,12.97127764,12.74122086,13.05414761,98.05018212,98.05018212,11.74603771,-0.001267619,-0.006095804,0.00040451800000000003,-0.237584821,0.166995194,-0.0032074509999999996,2.0,1.021804361,2.021804361,11,0,0,1,0,0.0,0,0,0,0,0,-0.211314167,-0.203937433,-0.07786637099999999,-0.032953875,2.109271058,219.6934135,38.53678836,-0.021336864,0.035956893,-0.077260053,0.0,-1.1294337559999998,1.71383169,-8.69660775,-6.64e-34,954.4965221000001,11.74574809,-0.228885759,-0.033635474,0.166441287,-1.223744078,1.692930564,-8.582634435,-0.232992681,-0.015775377,0.16122070000000002,-6.64e-34,88.23165285,94.76969507,-3.257224355,-4.252674999,15.36370955,14.99000448,0.0074741059999999995,1.1616648509999998,-0.1,70.51535451,500.9368496999999,11.74632988,95451.04078,1.134116253,0.010120869000000001,-0.108344127,0.032880253,-0.22964337899999998,-0.022824802999999998,0.169411759,-0.218458355,-0.21328883899999998,-0.07655543,0.9872245270000001,-0.112362444,-0.10158248,-0.049418881,0.0,398674253.0,327335007.8,501875.2156,12.43013389,12.43013389,0.032482496,3.098925785,5.442306779,0,0,0.0,39.871413700000005,32.7364371,-441.6562182,-250.6242631,-101.38573459999999,12.58042621,0.328784809,3.344126984,0.7348464020000001,2.427968864,1.367954694,0.159275865,101.6264946,-0.148345903,0.21317027100000002,-0.068499274,0.0,84861832,0,0,1,0,0
84906050,-0.065100102,-0.00789332,-0.093030291,0.0,0.0,1455.0,1500.0,1000.0,1534.0,1465.0,1522.0,12.54583062,12.85392951,12.67952088,12.69314822,13.00483157,12.78798399,13.10198597,98.54493082,98.54493082,11.74688748,-0.0012673089999999999,-0.006097508000000001,0.000401495,-0.23762228600000002,0.166917984,-0.003122979,2.0,1.024404881,2.024404881,11,0,0,1,0,0.0,0,0,0,0,0,-0.217604775,-0.198715573,-0.080292417,-0.033424351,2.208728388,219.10881349999997,38.68397321,-0.021312987000000002,0.036061621,-0.077535607,0.0,-0.945150335,1.6677208159999999,-8.740661656,-6.64e-34,954.5182300000001,11.74691435,-0.227558025,-0.013516211,0.152517746,-1.160797954,1.676156391,-8.674742437999999,-0.228427871,0.012836169,0.144461756,-6.64e-34,88.08506649,94.59097257,-3.216524335,-4.2654918639999995,15.36357578,15.03200753,0.006631369,1.1539667340000002,-0.1,70.22686101,500.88497469999993,11.74729977,95451.64885,1.1341234390000001,-0.018278383999999998,0.43845954200000004,-0.357421916,-0.223740109,-0.002744602,0.154134046,-0.226609554,-0.19251690600000002,-0.082277617,0.987696916,-0.116365419,-0.09078019699999999,-0.051525039,0.0,398674303.3,327335009.1,501732.7459,12.46281021,12.46281021,0.15011802400000002,3.16210042,4.082984485,0,0,0.0,39.871413700000005,32.7364371,-441.07515020000005,-250.59926090000002,-101.2284072,12.62300767,0.43988881399999996,3.397032484,0.7696995759999999,2.366138512,1.081220267,0.166061316,101.4691672,-0.13985504699999998,0.18454615300000002,-0.07645881,0.0,84906050,0,0,1,0,0
84954268,-0.065115281,-0.016182874,-0.09724826800000001,0.0,0.0,1453.164633,1500.0,1000.0,1533.164633,1465.835367,1508.0,12.66198759,12.9728538,12.71164386,12.72596929,13.0383855,12.83474712,13.14982433,99.03967951,99.03967951,11.74773724,-0.001266999,-0.006099212,0.00039847300000000005,-0.237659751,0.166840774,-0.003038508,2.0,1.027005401,2.027005401,11,0,0,1,0,0.0,0,0,0,0,0,-0.223895383,-0.193493713,-0.082718464,-0.033894827999999995,2.3081857169999997,218.5242134,38.83115806,-0.021286335,0.036153646,-0.077779388,0.0,-0.885864795,1.6458316469999998,-8.899133335,-6.64e-34,954.5374475,11.74800616,-0.222867244,0.032991941000000004,0.138497652,-0.868887472,1.6153991509999999,-8.837103167,-0.22465514,0.035873708,0.129706139,-6.64e-34,87.93848014,94.41225007,-3.175824315,-4.278308729,15.36344201,15.07401058,0.005788631,1.146268618,-0.1,69.93836751,500.61908150000005,11.74828658,95454.71395,1.1341598529999999,0.18019759100000002,0.055892407000000005,-0.656431697,-0.221983625,0.032126476,0.141060405,-0.231541246,-0.17074534100000002,-0.08514079699999999,0.9883683059999999,-0.11859124,-0.079723214,-0.051958277000000004,0.12294818,398674353.7,327335010.4,501590.2763,12.49548653,12.49548653,0.26775355100000003,3.225275055,2.723662192,0,0,0.0,39.871413700000005,32.7364371,-440.4940822,-250.57425869999997,-101.07107990000002,12.66558912,0.55099282,3.449937984,0.80455275,2.304308159,0.79448584,0.17284676699999998,101.31183990000001,-0.144760475,0.129109665,-0.08913493900000001,0.0,84954268,0,0,1,0,0
84998487,-0.068975685,0.017047692,-0.099808517,0.0,0.0,1453.0,1500.0,1000.0,1532.0,1467.0,1495.382476,12.72597164,13.03840242,12.74376685,12.75879036,13.07193943,12.88151025,13.19766269,99.53442821,99.53442821,11.74858701,-0.0012666889999999999,-0.006100915,0.000395451,-0.237697215,0.166763564,-0.002954037,2.0,1.029605921,2.029605921,11,0,0,1,0,0.0,0,0,0,0,0,-0.22992875399999999,-0.188996368,-0.08513144199999999,-0.034368462,2.4077736830000003,217.93760330000003,38.97914367,-0.021260586,0.036353515,-0.078006878,0.0,-1.06639122,1.670412506,-9.277118746000001,-6.64e-34,954.5518868999999,11.74895517,-0.225610623,0.06612687099999999,0.127503038,-1.16608598,1.698291798,-9.217125925,-0.22240203600000003,0.048217354000000004,0.11879396199999999,-6.64e-34,87.79465948,94.23364396,-3.099035738,-4.288330775,15.36330821,15.11581476,0.004949871,1.137786338,-0.10000540699999999,69.65167045,500.4786322,11.74927437,95456.28255,1.13417853,0.45585578299999996,1.0944077970000001,-0.305873811,-0.2251409,0.076087716,0.125395888,-0.23356319899999997,-0.14906346199999998,-0.085233556,0.989158616,-0.11923783800000001,-0.068937951,-0.050863675,0.022021711,398674404.0,327335011.7,501447.8066,12.52816284,12.52816284,0.385389078,3.28844969,1.364339898,0,0,0.0,39.871413700000005,32.7364371,-439.94629010000006,-250.543619,-100.92107829999999,12.70146487,0.647683534,3.472226943,0.8240778809999999,2.195289963,0.507733788,0.178292101,101.16183829999999,-0.136186569,0.081997218,-0.101320275,0.0,84998487,0,0,1,0,0
85038705,-0.066559169,0.030585846,-0.10393288199999999,0.0,0.0,1451.0,1500.0,1000.0,1532.0,1467.0,1491.929586,12.84691368,13.16216126,12.77588984,12.79161144,13.10549336,12.92827338,13.24550105,100.02917690000001,100.02917690000001,11.74943677,-0.00126639,-0.006102435,0.000392861,-0.237731642,0.16667721800000002,-0.0028747240000000004,2.0,1.032206441,2.032206441,11,0,0,1,0,0.0,0,0,0,0,0,-0.23277394899999998,-0.19347862,-0.087382461,-0.034881241,2.508980737,217.32608009999998,39.13705376,-0.021239361000000002,0.036610277999999996,-0.078205565,0.0,-1.227769407,1.688748671,-9.622277377,-6.64e-34,954.5668184,11.74990543,-0.20867502,0.062481045,0.111963125,-1.204243158,1.7148257519999999,-9.553063282,-0.220110461,0.055071972999999996,0.108516795,-6.64e-34,87.67705984,94.0561412,-2.680099874,-4.271855792,15.36317411,15.15573353,0.004148814,1.1218695909999998,-0.100062077,69.38200502,500.3546062,11.75029132,95457.70956,1.134195442,-0.128302415,0.7763109159999999,-0.282613388,-0.21108487,0.075294542,0.11509865400000001,-0.23526700600000003,-0.141633166,-0.08524266800000001,0.989343827,-0.11995563699999999,-0.06521626400000001,-0.050504819000000006,0.0,398674454.3,327335013.1,501305.0064,12.56117524,12.56089518,0.502576515,3.350840168,0.040169421000000004,0,0,0.0,39.871413700000005,32.7364371,-439.4058784,-250.511729,-100.77270159999999,12.73585333,0.7411774640000001,3.487725331,0.8402033409999999,2.07580578,0.22097782600000002,0.183440205,101.01346159999999,-0.125777736,0.024881657,-0.11639140699999999,0.0,85038705,0,0,1,0,0
85082924,-0.063394276,0.03329908,-0.108683783,0.0,0.0,1449.5233050000002,1500.0,1000.0,1534.0,1465.0,1508.0,12.76823747,13.081385800000001,12.80801283,12.82443251,13.13904729,12.97503651,13.2933394,100.5239256,100.5239256,11.75028653,-0.001266115,-0.006103555,0.000391212,-0.237759429,0.166570905,-0.0028066859999999996,2.0,1.034806961,2.034806961,11,0,0,1,0,0.0,0,0,0,0,0,-0.235619145,-0.19796087199999998,-0.08963348,-0.035394019,2.610187791,216.7145568,39.29496385,-0.021214531000000002,0.036871616,-0.078350425,0.0,-1.199824083,1.645341961,-9.642869277,-6.64e-34,954.5866159,11.75086821,-0.216771963,0.034403357999999995,0.10609756599999999,-1.238313629,1.617058685,-9.772383513,-0.21743851600000003,0.007655185,0.104518141,-6.64e-34,87.5594602,93.87863844,-2.261164011,-4.25538081,15.36304001,15.1956523,0.0033477570000000002,1.105952843,-0.100118746,69.11233959,500.0950017,11.75127827,95460.66529,1.134230557,1.0879336720000001,0.047342224,-0.574036836,-0.21382806399999998,0.045878231,0.10674317900000001,-0.244918845,-0.163142181,-0.09367883800000001,0.9876593690000001,-0.125400343,-0.075081225,-0.056259385999999995,0.0,398674506.0,327335017.0,501149.6839,12.606922500000001,12.59575015,0.602784557,3.383516703,0.048001721,0,0,0.0,39.871413700000005,32.7364371,-438.8376216,-250.4722819,-100.6170547,12.77254364,0.83320855,3.502610046,0.8375842459999999,1.952062414,0.243389088,0.188361152,100.8578147,-0.127875294,-0.0044197740000000004,-0.12696774,0.0,85082924,0,0,1,0,0
85131142,-0.059452985,0.039054104,-0.111261858,0.0,0.0,1447.0,1500.0,1000.0,1532.976195,1466.023805,1517.0,12.86463177,13.18005082,12.84013581,12.85725358,13.17260122,13.02179964,13.34117776,101.0186743,101.0186743,11.7511363,-0.00126584,-0.006104674,0.000389564,-0.23778721600000002,0.166464592,-0.0027386479999999998,2.0,1.037407481,2.037407481,11,0,0,1,0,0.0,0,0,0,0,0,-0.23846434,-0.202443125,-0.09188449900000001,-0.035906798,2.711394844,216.1030336,39.45287394,-0.021188987000000003,0.03708684,-0.078484875,0.0,-1.171878758,1.60193525,-9.663461177,-6.64e-34,954.6064134,11.75183098,-0.215618707,-0.012381484,0.09817835800000001,-1.254038293,1.635358144,-9.675496212,-0.214766572,-0.039761604,0.10051948599999999,-6.64e-34,87.44186056,93.70113568,-1.842228147,-4.238905827,15.36290591,15.23557107,0.0025467,1.090036096,-0.10017541599999999,68.84267415,499.9529208000001,11.75229622,95462.29785,1.134250081,-0.358158109,-0.18694985100000003,-0.000970312,-0.21354266600000002,0.00081289,0.09905054099999999,-0.24546232399999998,-0.184565817,-0.093614196,0.986643011,-0.126047943,-0.085654694,-0.057509585999999994,0.0,398674557.6,327335020.9,500994.3615,12.65266975,12.63060512,0.7029925990000001,3.4161932389999996,0.055834021,0,0,0.0,39.871413700000005,32.7364371,-438.2480715,-250.4270559,-100.4558482,12.81099418,0.924120992,3.51702548,0.82063108,1.825062027,0.502222343,0.19310839,100.6966082,-0.120423825,-0.011157604,-0.130974971,0.0,85131142,0,0,1,0,0
85171361,-0.05939610099999999,0.062534496,-0.11393272900000001,0.0,0.0,1445.0,1500.0,1000.0,1531.5709140000001,1467.4290859999999,1518.283657,12.86341767,13.17870719,12.872258800000001,12.89007465,13.20615515,13.06856277,13.38901612,101.513423,101.513423,11.75198606,-0.001265565,-0.006105794,0.000387916,-0.237815003,0.16635828,-0.00267061,2.0,1.040008002,2.040008002,11,0,0,1,0,0.0,0,0,0,0,0,-0.241309535,-0.206925377,-0.09413551699999999,-0.036419577,2.812601898,215.49151040000004,39.61078404,-0.021166705,0.037139802,-0.07865843900000001,0.0,-1.203878745,1.604156168,-9.252860457999999,4.39224047,954.6197537999999,11.75280496,-0.21221023,-0.092837139,0.092086043,-1.24219802,1.6121449209999998,-9.333742122,-0.214556251,-0.08176122200000001,0.09980046,4.39224047,87.32426092,93.52363291,-1.423292283,-4.222430845,15.36277182,15.27548984,0.0017456420000000002,1.074119348,-0.100232085,68.57300872,499.9503058,11.7533136,95462.3395,1.13425049,-0.049210392,-1.673815331,0.167332124,-0.216325047,-0.056593868,0.09850925099999999,-0.24591133699999998,-0.205917353,-0.093748216,0.9855166479999999,-0.126641692,-0.096172201,-0.058848165,0.0,398674609.2,327335024.9,500839.039,12.69841701,12.66546009,0.80320064,3.448869774,0.063666321,0,0,0.0,39.871413700000005,32.7364371,-437.6716233,-250.38088330000002,-100.2976678,12.84748462,1.008572305,3.5431304619999997,0.7967349659999999,1.6940014559999999,0.817018205,0.197739852,100.53842829999999,-0.113180145,-0.019574093,-0.136759574,0.0,85171361,0,0,1,0,0
85215579,-0.057634472,0.068035305,-0.115488378,0.0,0.0,1444.0,1500.0,1000.0,1530.0,1469.0,1523.0,12.98651179,13.30481826,12.90438179,12.92289572,13.23970908,13.115325899999998,13.43685448,102.0081717,102.0081717,11.75283582,-0.00126529,-0.006106913,0.00038626800000000005,-0.23784279,0.166251967,-0.002602572,2.0,1.042608522,2.042608522,11,0,0,1,0,0.0,0,0,0,0,0,-0.244154731,-0.21140762899999999,-0.096386536,-0.036932355,2.9138089519999997,214.8799872,39.76869413,-0.021137323,0.037091105,-0.07891849299999999,0.0,-1.247206727,1.6149994380000001,-8.760776338,9.61449212,954.631874,11.75378107,-0.21338797,-0.139242214,0.096507839,-1.159971432,1.601325169,-8.864089767000001,-0.214811108,-0.122737145,0.099701192,9.61449212,87.21971305,93.33742990000002,-1.3870592069999998,-4.195257063,15.36262273,15.32060179,0.000840421,1.057701092,-0.100231045,68.30566809,499.77832,11.75433113,95464.2916,1.134273665,0.274060194,-1.404885035,0.192174975,-0.21003823300000002,-0.11339938599999999,0.09769023199999999,-0.245884961,-0.225651324,-0.09376567400000001,0.984409098,-0.12695565,-0.105902901,-0.060007563,0.0,398674660.8,327335028.8,500683.7165,12.74416427,12.70031506,0.903408682,3.4815463089999996,0.07149862,0,0,0.0,39.871413700000005,32.7364371,-437.12368430000004,-250.33265079999998,-100.1460718,12.87970992,1.078964424,3.594671499,0.7577312359999999,1.5541060619999998,1.253586778,0.20211939,100.38683420000001,-0.10391964,0.004808759,-0.13562939,0.0,85215579,0,0,1,0,0
85255798,-0.062322584,0.066261415,-0.118583909,0.0,0.0,1442.0,1500.0,1000.0,1529.0,1470.0,1531.0,12.97563923,13.29350105,12.93792835,12.95710583,13.27468247,13.16278125,13.48539821,102.53276740000001,102.53276740000001,11.75370507,-0.001265015,-0.0061080330000000006,0.000384619,-0.237870577,0.166145654,-0.0025345339999999997,2.0,1.045209042,2.0452090419999998,11,0,0,1,0,0.0,0,0,0,0,0,-0.246999926,-0.215889881,-0.098637555,-0.037445134,3.015016006,214.2684639,39.92660422,-0.021106003999999998,0.037023437,-0.07921025599999999,0.0,-1.238405112,1.611516774,-8.409954657,8.671618229,954.6489718,11.75477317,-0.218034292,-0.14574356300000002,0.10482784699999999,-1.232988371,1.535273941,-8.416580145,-0.214871993,-0.13298226800000001,0.102492117,8.671618229,87.12774662,93.14284015,-1.719737826,-4.157770025,15.3624592,15.37071976,-0.00016521,1.0407993979999999,-0.100174376,68.04056849,499.5815026000001,11.75535285,95466.55914,1.134300692,0.6882891729999999,-0.754858716,-0.474960724,-0.209133192,-0.130527,0.09883413099999999,-0.25405689600000003,-0.238624883,-0.101947867,0.982842164,-0.131638855,-0.11150798699999999,-0.065241862,0.0,398674711.9,327335033.7,500528.2044,12.78706696,12.73422194,0.993186637,3.514222835,0.078371076,0,0,0.0,39.871413700000005,32.7364371,-436.5726717,-250.2836196,-99.9931873,12.91202176,1.149238197,3.648229572,0.725106008,1.419611414,1.6686038230000002,0.20655111899999998,100.23395119999999,-0.109429811,0.023083553,-0.135382005,0.0,85255798,0,0,1,0,0
85300016,-0.057836378,0.05607447,-0.116952802,0.0,0.0,1441.0,1500.0,1000.0,1527.787758,1471.212242,1533.0,13.21822529,13.54198659,12.99262512,13.01195302,13.33074495,13.220521100000001,13.54442183,103.5008046,103.5008046,11.75486379,-0.00126474,-0.006109152,0.00038297099999999996,-0.23789836399999997,0.166039341,-0.002466496,2.0,1.047809562,2.047809562,11,0,0,1,0,0.0,0,0,0,0,0,-0.249845121,-0.220372133,-0.10088857400000001,-0.037957912,3.11622306,213.65694069999998,40.08451431,-0.021072767000000003,0.036982275,-0.079577445,0.0,-1.193418954,1.5980900980000001,-8.157186997,3.449366579,954.6695245999999,11.75577637,-0.21800281800000001,-0.131728229,0.10883185599999999,-1.212564742,1.606016625,-8.017089576,-0.214798237,-0.121896324,0.10728920199999999,3.449366579,87.03578019,92.9482504,-2.052416444,-4.120282986,15.36229567,15.42083774,-0.0011708410000000002,1.0238977040000001,-0.100117706,67.77546889,499.429759,11.75642635,95468.28078,1.134321151,-0.041446306,-0.34464375700000005,-0.5812739720000001,-0.21427067600000002,-0.134468144,0.10671827800000001,-0.25399251,-0.248016221,-0.10211469199999999,0.982247014,-0.131780497,-0.11612026800000001,-0.065881026,0.0,398674762.2,327335039.8,500372.4463,12.82627891,12.76689869,1.0694318859999998,3.546899349,0.083998165,0,0,0.0,39.871413700000005,32.7364371,-435.97599389999993,-250.22272169999997,-99.82115795,12.9456193,1.217753685,3.73175504,0.7872471120000001,1.3653564169999999,1.7634267330000002,0.211758278,100.0619201,-0.102187763,0.054522489,-0.130802485,0.0,85300016,0,0,1,0,0
85340234,-0.056914174000000005,0.074214919,-0.117895174,0.0,0.0,1440.0,1500.0,1000.0,1531.0,1468.0,1532.240648,13.13897309,13.46055141,13.0473219,13.06680021,13.38680744,13.27826095,13.60344546,104.46884190000002,104.46884190000002,11.75602251,-0.001264465,-0.006110272,0.00038132300000000004,-0.237926151,0.165933028,-0.002398458,2.0,1.050410082,2.050410082,11,0,0,1,0,0.0,0,0,0,0,0,-0.252690316,-0.22485438600000002,-0.10313959199999999,-0.038470691,3.217430114,213.04541749999999,40.24242441,-0.021046415,0.037000683,-0.080005857,0.0,-1.185048223,1.586997142,-8.027757809,-6.64e-34,954.6900322,11.75679345,-0.21785269699999998,-0.108785652,0.107485137,-1.185063265,1.488567786,-7.922364485,-0.213586628,-0.10477150699999999,0.109237791,-6.64e-34,86.94381375,92.75366066,-2.385095063,-4.082795948,15.36213214,15.47095572,-0.002176473,1.00699601,-0.10006103699999999,67.51036929,499.22433939999996,11.75750073,95470.6386,1.1343491890000001,-0.311142776,-0.5407867120000001,-0.043535454,-0.21288753,-0.11012319400000001,0.104096995,-0.253576436,-0.25307823399999996,-0.10206782699999999,0.981945614,-0.13166040099999998,-0.118626784,-0.066134916,0.0,398674812.5,327335045.9,500216.6881,12.86549086,12.79957545,1.145677135,3.579575862,0.089625254,0,0,0.0,39.871413700000005,32.7364371,-435.37931619999995,-250.16182379999998,-99.6491286,12.97921684,1.286269173,3.8152805080000003,0.8493882159999999,1.31110142,1.858249644,0.21696543699999998,99.88988894,-0.094967236,0.07092117099999999,-0.130678657,0.0,85340234,0,0,1,0,0
85380453,-0.054336539,0.075649582,-0.119835921,0.0,0.0,1441.0,1500.0,1000.0,1529.0,1470.0,1531.0,13.10605675,13.4267232,13.10201868,13.121647400000002,13.44286992,13.3360008,13.66246908,105.4368791,105.4368791,11.75718122,-0.00126419,-0.006111391,0.000379675,-0.237953938,0.165826715,-0.00233042,2.0,1.053010602,2.053010602,11,0,0,1,0,0.0,0,0,0,0,0,-0.255535512,-0.229336638,-0.105390611,-0.038983469,3.318637168,212.4338943,40.4003345,-0.021015955,0.037098314,-0.080495567,0.0,-1.247917317,1.580444725,-8.138298832,-6.64e-34,954.7104517000001,11.75783753,-0.211811755,-0.066111194,0.10804267099999999,-1.251757597,1.5922983640000001,-8.019392029,-0.210161188,-0.075897319,0.10564428,-6.64e-34,86.85184732,92.55907091,-2.717773682,-4.045308909,15.361968599999999,15.521073699999999,-0.0031821040000000003,0.990094316,-0.100004367,67.24526969,499.00874960000004,11.758605099999999,95473.13512,1.134378695,0.333987167,-0.246905665,0.13495976699999998,-0.206012405,-0.075834863,0.104549136,-0.25356185600000003,-0.24839318300000002,-0.102278469,0.982245727,-0.131585029,-0.11630913400000001,-0.0659589,0.0,398674862.9,327335052.0,500060.93,12.90470281,12.8322522,1.221922384,3.6122523760000003,0.095252343,0,0,0.0,39.871413700000005,32.7364371,-434.8169616,-250.1008971,-99.48214162,13.01436031,1.344450186,3.8868753519999997,0.902213633,1.257834109,1.677475384,0.22165053699999998,99.72290162,-0.08876464099999999,0.082555056,-0.13109187,0.0,85380453,0,0,1,0,0
85428671,-0.053080184,0.070950099,-0.12237542400000001,0.0,0.0,1440.0,1500.0,1000.0,1527.0,1472.0,1534.292859,13.27881626,13.60365287,13.15671545,13.17649459,13.4989324,13.39374065,13.721492699999999,106.4049164,106.4049164,11.75833994,-0.001263915,-0.006112511,0.000378026,-0.23798172399999998,0.165720402,-0.0022623820000000003,2.0,1.055611122,2.0556111219999997,11,0,0,1,0,0.0,0,0,0,0,0,-0.258380707,-0.23381889,-0.10764163,-0.039496248,3.419844222,211.822371,40.55824459,-0.02098501,0.037267167999999996,-0.081020775,0.0,-1.30463312,1.58111575,-8.263730422,-6.64e-34,954.731309,11.75888642,-0.20487398899999998,-0.03211697,0.099541365,-1.2620228470000001,1.56225329,-8.204880736,-0.206860674,-0.047287458,0.10143765800000001,-6.64e-34,86.69927940000001,92.39403731,-2.919849935,-3.994770857,15.36189281,15.55372543,-0.003836656,0.958294323,-0.1,67.02465727,498.9026815,11.75972607,95474.33644,1.1343931090000001,-0.178714657,0.486839745,0.131883571,-0.209738478,-0.051164442000000004,0.106132521,-0.261933302,-0.23045979800000002,-0.110505168,0.982526483,-0.135823213,-0.106652113,-0.069380218,0.0,398674913.2,327335058.1,499905.1718,12.94391477,12.86492895,1.2981676340000001,3.6449288889999996,0.10087943199999999,0,0,0.0,39.871413700000005,32.7364371,-434.26259220000003,-250.0399636,-99.31632774,13.04986343,1.4002268969999998,3.9556945519999998,0.952871768,1.2047965809999999,1.432583849,0.22621418,99.55708774,-0.092692803,0.082148216,-0.134129972,0.0,85428671,0,0,1,0,0
85468890,-0.05681172,0.062629979,-0.12481389999999999,0.0,0.0,1439.0,1500.0,1000.0,1526.0,1473.0,1537.0,13.37906407,13.706296400000001,13.21141223,13.23134178,13.55499489,13.45148051,13.78051632,107.37295359999999,107.37295359999999,11.75949865,-0.00126364,-0.00611363,0.000376378,-0.238009511,0.165614089,-0.002194344,2.0,1.058211642,2.058211642,11,0,0,1,0,0.0,0,0,0,0,0,-0.261225902,-0.238301142,-0.10989264900000001,-0.040009026,3.521051276,211.2108478,40.71615468,-0.020954233,0.037501828,-0.08156455900000001,0.0,-1.2981293090000001,1.656001214,-8.542149366,-6.64e-34,954.7566646,11.759984699999999,-0.202325537,0.005097194,0.09082253400000001,-1.284634042,1.678685023,-8.601454258,-0.20484366899999998,-0.021393324,0.09093185699999999,-6.64e-34,86.54165131,92.23147163,-3.1110210210000004,-3.9431430589999996,15.36182434,15.58491875,-0.004461893,0.925250338,-0.1,66.80775948,498.65117999999995,11.76088748,95477.21758,1.1344273059999999,0.098580319,0.662233141,0.032344526,-0.20283898600000003,-0.018774719,0.09953574,-0.261826194,-0.22176677399999997,-0.110469891,0.9830517740000001,-0.135596257,-0.102379457,-0.068821123,0.0,398674965.0,327335065.4,499736.5311,12.98680736,12.90680736,1.35968992,3.7180935369999997,0.10518958099999999,0,0,0.0,39.871413700000005,32.7364371,-433.6802473999999,-249.97199159999997,-99.13958331,13.09133606,1.4564849309999999,4.010835504,1.0223241509999998,1.160177374,1.1706296090000001,0.230225286,99.38034356,-0.085376188,0.095769539,-0.134140341,0.0,85468890,0,0,1,0,0
85509108,-0.054128867000000004,0.077688521,-0.11990765199999999,0.0,0.0,1438.0,1500.0,1000.0,1525.05221,1473.94779,1535.0,13.48255754,13.81210064,13.26610901,13.28618897,13.61105737,13.50922036,13.83953995,108.3409908,108.3409908,11.76065737,-0.0012633660000000001,-0.006114749,0.00037473,-0.238037298,0.165507777,-0.002126306,2.0,1.060812162,2.060812162,11,0,0,1,0,0.0,0,0,0,0,0,-0.26210027399999997,-0.23500923399999998,-0.111524248,-0.04044149,3.60025144,210.5801332,40.85681819,-0.020929616,0.03778555,-0.08212667400000001,0.0,-1.291625497,1.7308866790000002,-8.82056831,-6.64e-34,954.7820201,11.76108298,-0.20494363699999998,0.011639378999999998,0.069787194,-1.256782858,1.6687258580000002,-8.823686601,-0.202826665,0.004500809000000001,0.080426056,-6.64e-34,86.38402323,92.06890595,-3.3021921069999998,-3.89151526,15.36175588,15.61611207,-0.005087131,0.892206352,-0.1,66.59086169,498.5771913,11.76204843,95478.07121000001,1.134437393,0.627977085,1.138951804,-0.3176075,-0.19729561899999998,0.0047711229999999995,0.088259505,-0.26175411600000004,-0.221374695,-0.11067168599999999,0.983073295,-0.135563395,-0.10217529300000001,-0.06889255799999999,0.0,398675017.0,327335073.1,499565.5239,13.03037608,12.95037608,1.418507661,3.7986956789999997,0.10925781400000001,0,0,0.0,39.871413700000005,32.7364371,-433.0758736,-249.8984772,-98.95423174,13.13750931,1.5131219759999999,4.0552056610000005,1.106575868,1.122187085,0.89523952,0.233801302,99.19499243,-0.075668052,0.09543356,-0.13647842599999999,0.0,85509108,0,0,1,0,0
85549327,-0.050460650999999995,0.07864789400000001,-0.12176886099999999,0.0,0.0,1437.0,1500.0,1000.0,1528.0,1471.0,1533.0,13.410243900000001,13.73800138,13.32080578,13.34103616,13.66711985,13.56696021,13.89856357,109.30902809999999,109.30902809999999,11.76181609,-0.001263091,-0.006115869,0.00037308199999999995,-0.238065085,0.165401464,-0.002058268,2.0,1.063412683,2.063412683,11,0,0,1,0,0.0,0,0,0,0,0,-0.26236823800000003,-0.22932527600000002,-0.112965256,-0.040849241,3.6726802530000002,209.94351349999997,40.99217505,-0.020906537,0.038061785,-0.082668268,0.0,-1.2892763059999999,1.68276224,-9.060749084,-6.64e-34,954.8036529999999,11.7624426,-0.200848702,0.025627362999999997,0.053749665999999995,-1.316996593,1.660198469,-9.143491725,-0.199149148,0.017318785,0.06406339,-6.64e-34,86.22639514,91.90634027,-3.493363193,-3.8398874610000004,15.36168741,15.64730539,-0.005712368000000001,0.859162367,-0.1,66.37396389999999,498.3530276000001,11.76321224,95480.64193,1.134468003,0.245429924,0.544321265,-0.353475417,-0.198368004,0.02476633,0.07459608400000001,-0.26389503,-0.221974235,-0.113244304,0.9828003829999999,-0.136756156,-0.102217799,-0.07030022,0.0,398675069.1,327335080.7,499394.5167,13.07394479,12.99394479,1.477325403,3.879297822,0.113326047,0,0,0.0,39.871413700000005,32.7364371,-432.4842867,-249.8256336,-98.77228164,13.18428645,1.5658166119999999,4.091275463000001,1.16623183,1.0713082170000001,0.6346867270000001,0.236754278,99.01304305,-0.07161192,0.083639189,-0.142170201,0.0,85549327,0,0,1,0,0
85589545,-0.049665941,0.070746583,-0.12317366699999999,0.0,0.0,1439.0,1500.0,1000.0,1526.0,1473.0,1536.0,13.53691951,13.86755222,13.37550256,13.39588335,13.72318234,13.62470006,13.95758719,110.27706529999999,110.27706529999999,11.7629748,-0.0012628160000000002,-0.006116988,0.000371433,-0.23809287199999998,0.165295151,-0.00199023,2.0,1.066013203,2.0660132030000002,11,0,0,1,0,0.0,0,0,0,0,0,-0.262636201,-0.223641317,-0.11440626400000001,-0.041256992,3.7451090660000004,209.3068938,41.12753192,-0.020876793,0.038261413,-0.083192602,0.0,-1.2877308029999999,1.610842226,-9.293532897999999,-6.64e-34,954.8245655999999,11.76385277,-0.19743294600000003,0.033238599,0.038322329,-1.2925455,1.6121020000000001,-9.391582458,-0.195150415,0.027607253,0.04656774599999999,-6.64e-34,86.05900981,91.74517900000001,-3.643177534,-3.811988374,15.36159935,15.67633363,-0.006294694,0.831582823,-0.1,66.15898627,498.120649,11.76439961,95483.28163,1.134499347,0.072146247,0.408266211,-0.5821402379999999,-0.19546626600000003,0.040951594,0.058072023,-0.268998267,-0.20637194399999997,-0.11870133199999999,0.983142801,-0.139200425,-0.093981384,-0.07225519,0.0,398675121.2,327335088.3,499223.5095,13.117513500000001,13.0375135,1.536143145,3.959899964,0.11739428,0,0,0.0,39.871413700000005,32.7364371,-431.92147520000003,-249.75429959999997,-98.59798611,13.23242256,1.609639385,4.108666425,1.170538337,0.991425325,0.407523284,0.238305182,98.83874885,-0.072439298,0.107569586,-0.138461155,0.0,85589545,0,0,1,0,0
85637764,-0.049134192,0.091105559,-0.12215389800000001,0.0,0.0,1438.0,1500.0,1000.0,1524.5891179999999,1474.4108820000001,1536.0544109999998,13.55947655,13.89054417,13.43019934,13.45073054,13.77924482,13.68243991,14.01661081,111.24510249999999,111.24510249999999,11.76413352,-0.001262541,-0.006118108000000001,0.000369785,-0.23812065899999998,0.165188838,-0.001922192,2.0,1.068613723,2.068613723,11,0,0,1,0,0.0,0,0,0,0,0,-0.262904165,-0.217957359,-0.115847273,-0.041664742000000005,3.8175378789999996,208.6702741,41.26288878,-0.020846794,0.038370584,-0.083690022,0.0,-1.3192809970000001,1.6143225490000002,-9.439145395,-6.64e-34,954.84606,11.76510356,-0.19130656699999998,0.033260222,0.023716694,-1.301271583,1.706225504,-9.572789432999999,-0.19164669399999998,0.030095576000000002,0.029394691,-6.64e-34,85.87240242,91.5867845,-3.711517961,-3.830835497,15.36147266,15.70109663,-0.0067924840000000005,0.8147683790000001,-0.1,65.94779141,497.87353600000006,11.76558698,95486.11133,1.1345330040000001,0.164057414,0.880638956,-0.354020537,-0.193513705,0.050111878,0.040463242999999996,-0.268143614,-0.20138695399999998,-0.11882419400000001,0.983468317,-0.138674002,-0.091548739,-0.07195953,0.0,398675173.7,327335096.3,499049.1222,13.16440688,13.08219044,1.592744454,4.023324665,0.12125942099999999,0,0,0.0,39.871413700000005,32.7364371,-431.3557714,-249.6823241,-98.42281478,13.28091037,1.653130754,4.125470368,1.175833626,0.91020208,0.19019381600000002,0.23977076,98.66357869,-0.062977271,0.09504511,-0.14417808,0.0,85637764,0,0,1,0,0
85681982,-0.04930468,0.10793647,-0.12213557,0.110842444,0.0,1438.0,1500.0,1000.0,1522.136227,1476.863773,1537.8173630000001,13.62665011,13.95928321,13.48489611,13.50557773,13.8353073,13.74017976,14.07563444,112.21313980000001,112.21313980000001,11.76529224,-0.001262266,-0.006119227,0.000368137,-0.238148446,0.165082525,-0.001854154,2.0,1.071214243,2.071214243,11,0,0,1,0,0.0,0,0,0,0,0,-0.263172129,-0.21227340100000003,-0.117288281,-0.042072492999999996,3.889966692,208.0336544,41.39824564,-0.020823316,0.038463514,-0.084122772,0.0,-1.374104776,1.6708259619999999,-9.523457203,-6.64e-34,954.8679635,11.76624228,-0.190045678,0.030558255,-0.001237218,-1.329821333,1.6838543519999998,-9.547167471,-0.18849107399999998,0.027098674,0.012448487,-6.64e-34,85.68579503,91.42838999,-3.779858388,-3.84968262,15.36134598,15.72585962,-0.007290274,0.797953935,-0.1,65.73659655,497.76595210000005,11.76677335,95487.32826000001,1.134547365,0.11217034199999999,-0.162873467,-0.547783196,-0.189949862,0.049191099,0.020763768999999998,-0.26684086100000004,-0.20443581600000002,-0.118738981,0.9833963309999999,-0.13809807,-0.09310308199999999,-0.072050422,0.0,398675227.5,327335105.5,498864.8266,13.22104621,13.13011602,1.642848497,4.036395279,0.12452921900000001,0,0,0.0,39.871413700000005,32.7364371,-430.7411791,-249.59950600000002,-98.23283981,13.33534278,1.691020323,4.13235179,1.197842535,0.8063225559999999,0.139090233,0.239794025,98.47360193,-0.055207028,0.107540148,-0.14031091199999998,0.0,85681982,0,0,1,0,0
