,timestamp,control[0],control[1],control[2],control[3],control[4],output[2],output[3],output[4],output[5],output[6],output[7],indicated_airspeed_m_s,true_airspeed_m_s,air_temperature_celsius,indicated_airspeed_m_s.1,equivalent_airspeed_m_s,true_airspeed_m_s.1,equivalent_ground_minus_wind_m_s,true_ground_minus_wind_m_s,differential_pressure_raw_pa,differential_pressure_filtered_pa,temperature,gyro_bias[0],gyro_bias[1],gyro_bias[2],accel_bias[0],accel_bias[1],accel_bias[2],instance_count,seq_reached,seq_current,seq_total,item_changed_index,item_do_jump_remaining,valid,warning,finished,failure,stay_in_failsafe,flight_termination,item_do_jump_changed,execution_mode,nav_roll,nav_pitch,nav_bearing,target_bearing,xtrack_error,wp_dist,acceptance_radius,rollspeed_integ,pitchspeed_integ,yawspeed_integ,additional_integ1,x,y,z,temperature.1,pressure,temperature.2,gyro_rad[0],gyro_rad[1],gyro_rad[2],accelerometer_m_s2[0],accelerometer_m_s2[1],accelerometer_m_s2[2],x.1,y.1,z.1,temperature.3,altitude_sp,altitude_filtered,height_rate_setpoint,height_rate,airspeed_sp,airspeed_filtered,airspeed_derivative_sp,airspeed_derivative,throttle_integ,pitch_integ,baro_alt_meter,baro_temp_celcius,baro_pressure_pa,rho,xyz[0],xyz[1],xyz[2],xyz[0].1,xyz[1].1,xyz[2].1,roll_body,pitch_body,yaw_body,q_d[0],q_d[1],q_d[2],q_d[3],thrust_body[0],lat,lon,alt,vel_m_s,vel_n_m_s,vel_e_m_s,vel_d_m_s,cog_rad,ground_contact,maybe_landed,landed,ref_timestamp,ref_lat,ref_lon,x.2,y.2,z.2,vx,vy,vz,ax,ay,az,dist_bottom,roll,pitch,yaw,thrust_body[0].1,timestamp.1,isTakeoff,isClimbing,isDescending,isCruise,isLand
1431,68006090,-0.017702851999999998,-0.064736298,0.07597240200000001,0.0,0.0,1531.6001199999998,1500.0,1000.0,1516.6001199999998,1482.3998800000002,1467.0,17.22467704,17.6487412,11.73865257,16.1314204,16.10693894,16.50332184,16.12029723,16.51700965,158.9567594,158.9567594,11.73811597,-0.001577531,-0.006019878,0.00017644400000000002,-0.21496098,0.17735896,-0.004911441,2.0,1.721344269,2.721344269,11,0,0,1,0,0.0,0,0,0,0,0,0.20899567300000002,-0.22193692899999998,1.9547865880000002,1.9738561559999999,1.317542446,178.8642888,49.91317798,-0.018799338999999998,0.015022467,-0.004487317,0.0,-1.4909172819999998,-0.22616653399999997,-7.743638885,-5.32e+20,954.3788722,11.73891721,-0.127107896,-0.08977388,0.36801902,-1.3710067240000001,0.035796561,-7.160100518999999,-0.11062267199999999,-0.096843062,0.501208403,-5.32e+20,92.93794434,101.88756059999999,-4.370203334,-2.393170709,15.36880148,17.00132959,-0.032650566,-0.287253418,-0.1,90.30314773,502.153091,11.73865257,95437.12444,1.133950963,0.461499615,0.375048599,-0.289180769,-0.11180689199999999,-0.07191636400000001,0.381970281,0.19088202899999998,-0.175448665,1.967147725,0.542457709,0.12519702900000002,0.030705261,0.83012997,0.0,398726906.3,327340852.4,502646.5291,16.59471613,-1.3436847369999998,16.52317263,1.274502819,1.6510743019999998,0,0,0.0,764000,39.8714138,32.7364368,141.66562119999998,-198.3288415,-102.4270796,-2.788586459,17.34945691,2.054014776,-2.357493091,-0.884259951,2.050721926,102.5972396,-0.066781038,-0.047422899000000004,0.124632994,0.0,68006090,0,0,1,0,0
1432,68042228,-0.017565581,-0.062812659,0.075409188,0.0,0.0,1520.189638,1500.0,1000.0,1520.0,1479.0,1470.0,17.24584692,17.67054067,11.73908993,16.0844096,16.06059734,16.45583989,16.06921105,16.46466636,157.9165386,157.9165386,11.73805512,-0.0015776579999999998,-0.006019434000000001,0.00017649200000000002,-0.21496098,0.17735896,-0.004911441,2.0,1.7239447890000001,2.723944789,11,0,0,1,0,0.0,0,0,0,0,0,0.205240681,-0.219860257,1.9568120569999998,1.97440714,1.216147831,178.249641,49.89404761,-0.018755086,0.014882323000000001,-0.004622817,0.0,-1.516045412,-0.23494341,-7.855034981,-5.32e+20,954.3916159,11.73940236,-0.11262610199999999,-0.089167089,0.38217402799999994,-1.379097946,0.082535836,-7.404467479,-0.11807929699999999,-0.090524992,0.544996852,-5.32e+20,92.76126236,101.8012672,-4.387863343,-2.4254844909999997,15.36872504,17.07622737,-0.034150051,-0.277837756,-0.1,90.08185456,502.050884,11.73908993,95438.32118,1.1339651290000001,0.224087162,-0.13130469,-0.5713419439999999,-0.09664486,-0.073366181,0.384042988,0.181325632,-0.17954458199999998,1.963897763,0.544144313,0.124329718,0.025399166,0.829338653,0.0,398726899.1,327340924.1,502584.9872,16.80276992,-1.6618843769999998,16.69276255,1.454582853,1.668681145,0,0,0.0,764000,39.8714138,32.7364368,141.56444199999999,-197.7091692,-102.3518725,-2.877515092,17.3183931,2.1246204509999997,-2.538419325,-0.896170075,1.9452765319999998,102.5220325,-0.075203589,-0.06515085,0.12229371300000001,0.0,68042228,0,0,1,0,0
1433,68078367,-0.048079005999999994,-0.06808222400000001,0.05643760900000001,0.0,0.0,1518.0,1500.0,1000.0,1516.0,1483.0,1473.220844,17.24879557,17.67332883,11.73955693,16.09743133,16.07439579,16.4699363,16.08336557,16.47912743,158.2029345,158.2029345,11.73842236,-0.0015777529999999999,-0.0060190140000000005,0.00017677,-0.21496098,0.17735896,-0.004911441,2.0,1.726545309,2.7265453089999996,11,0,0,1,0,0.0,0,0,0,0,0,0.201485688,-0.217783585,1.958837526,1.9749581230000002,1.114753217,177.63499319999997,49.87491723,-0.018709431000000002,0.014722105,-0.0049055520000000005,0.0,-1.539096946,-0.05396737099999999,-8.042677706000001,-5.32e+20,954.4062587000001,11.73998949,-0.09561744800000001,-0.088170913,0.384766159,-1.409442563,0.223162274,-7.564700703,-0.117017267,-0.079626889,0.558865851,-5.32e+20,92.59408877,101.7172255,-4.39877992,-2.438383735,15.36863755,17.13334058,-0.035294064,-0.27111281600000003,-0.1,89.87768294,501.8961705,11.73955693,95440.06627000001,1.133985875,0.19119567399999998,0.138033404,-0.393977232,-0.09024511199999999,-0.079774498,0.377200671,0.18125362899999997,-0.186767899,1.9677519769999998,0.542096284,0.127226852,0.02360044,0.8302930479999999,0.0,398726891.9,327340995.8,502523.4453,17.0108237,-1.9800840169999998,16.86235247,1.6346628859999999,1.6862879869999998,0,0,0.0,764000,39.8714138,32.7364368,141.4549598,-197.0665663,-102.2701332,-2.978767097,17.28497485,2.191985395,-2.731740409,-0.926787923,1.82303306,102.4402932,-0.066768023,-0.076967838,0.12455178199999999,0.0,68078367,0,0,1,0,0
1434,68114505,-0.03879044,-0.057334674,0.039863682000000004,0.0,0.0,1515.368674,1500.0,1000.0,1514.368674,1484.631326,1476.0,17.28447191,17.70981943,11.74005646,16.13590685,16.11369363,16.51014194,16.12518215,16.52191356,159.0518157,159.0518157,11.73897112,-0.001577835,-0.006018604,0.000177146,-0.21496098,0.17735896,-0.004911441,2.0,1.7291458290000001,2.7291458289999997,11,0,0,1,0,0.0,0,0,0,0,0,0.197730696,-0.215706913,1.960862995,1.975509107,1.013358602,177.02034540000002,49.85578686,-0.018669308,0.014545037,-0.00530703,0.0,-1.56214848,0.12700866800000002,-8.230320432000001,-5.32e+20,954.4209014,11.74057663,-0.08609876400000001,-0.098043566,0.364815296,-1.467694399,0.242144422,-7.739510291,-0.11595523699999999,-0.068728785,0.5727348489999999,-5.32e+20,92.42691517,101.6331839,-4.409696497,-2.451282979,15.36855006,17.1904538,-0.036438077,-0.264387877,-0.1,89.67351132,501.9144605,11.74005646,95439.85292,1.133983444,0.12741129199999998,0.075128952,-1.104439566,-0.078458608,-0.081285573,0.356794681,0.18295661600000002,-0.193014075,1.972945942,0.539430326,0.13018991300000002,0.022908457000000004,0.831585771,0.0,398726884.8,327341067.5,502461.9034,17.21887749,-2.298283657,17.03194239,1.81474292,1.70389483,0,0,0.0,764000,39.8714138,32.7364368,141.34547769999998,-196.42396340000002,-102.18839390000001,-3.080019103,17.25155661,2.25935034,-2.9250614919999998,-0.957405772,1.7007895880000001,102.3585539,-0.054153029000000005,-0.08349395,0.12705318599999998,0.0,68114505,0,0,1,0,0
1435,68153287,-0.032245245,-0.050588833,0.034901222,0.0,0.0,1513.958192,1500.0,1000.0,1514.083617,1484.916383,1479.0,17.25201502,17.67658045,11.74055528,16.17438238,16.15299146,16.55034757,16.16699873,16.56469968,159.900697,159.900697,11.73951988,-0.001577917,-0.006018193000000001,0.00017752099999999998,-0.21496098,0.17735896,-0.004911442,2.0,1.731746349,2.731746349,11,0,0,1,0,0.0,0,0,0,0,0,0.193975703,-0.21363024,1.9628884640000002,1.976060091,0.911963987,176.4056975,49.83665648,-0.018629458,0.014363516000000002,-0.005779451,0.0,-1.603709407,0.278749315,-8.475241521000001,-5.32e+20,954.4304694,11.74111055,-0.081783181,-0.093732209,0.35205845799999996,-1.4790601859999999,0.32289120600000004,-7.815600314,-0.113567603,-0.047354593,0.535939255,-5.32e+20,92.25974158,101.5491422,-4.420613073999999,-2.4641822230000003,15.36846257,17.24756701,-0.03758209,-0.257662938,-0.1,89.46933971,501.7970135,11.74055528,95441.19578,1.133999347,-0.540725122,-0.005116048,4.003471451,-0.071066842,-0.090060631,0.33820086,0.174051144,-0.198217542,1.970258359,0.540794384,0.12995210199999999,0.017589353999999998,0.8308691090000001,0.0,398726877.6,327341139.2,502400.3615,17.42693127,-2.616483297,17.20153231,1.9948229530000001,1.7215016730000001,0,0,0.0,764000,39.8714138,32.7364368,141.2349362,-195.8185636,-102.10742979999999,-3.1852075610000004,17.21691679,2.307536804,-3.037131287,-1.001239403,1.4627905469999998,102.27758979999999,-0.063011843,-0.09651819,0.123157291,0.0,68153287,0,0,1,0,0
1436,68186782,-0.029204857999999997,-0.045275152,0.031277743,0.0,0.0,1513.0,1500.0,1000.0,1514.54771,1484.45229,1480.45229,17.31560435,17.74153719,11.74105452,16.2128579,16.192289300000002,16.59055321,16.2088153,16.6074858,160.7495782,160.7495782,11.74006864,-0.0015779989999999999,-0.0060177830000000005,0.00017789599999999998,-0.21496098,0.17735896,-0.004911442,2.0,1.7343468690000001,2.734346869,11,0,0,1,0,0.0,0,0,0,0,0,0.19022071100000001,-0.211553568,1.9649139340000001,1.976611075,0.810569373,175.7910497,49.81752611,-0.01859553,0.014185277,-0.006288059,0.0,-1.6532177869999998,0.417937044,-8.744756449,-5.32e+20,954.4378585000001,11.74162162,-0.07238135400000001,-0.109369669,0.31040065,124.43529850000002,126.0057842,-7.7680702870000005,-0.110610791,-0.021482241000000003,0.477389601,-5.32e+20,92.09256798,101.4651005,-4.43152965,-2.477081467,15.36837508,17.30468023,-0.038726102000000005,-0.25093799899999997,-0.1,89.26516809,501.7650639,11.74105452,95441.57878,1.134003893,-0.45733235,-0.297993255,2.311407101,-0.06888793900000001,-0.093760853,0.35749173700000003,0.172858454,-0.20276798899999998,1.973494025,0.539238954,0.131471607,0.01604328,0.831671284,0.0,398726869.3,327341211.5,502331.13200000004,17.55432887,-2.859067801,17.29928786,2.132054411,1.735039345,0,0,0.0,764000,39.8714138,32.7364368,141.1239399,-195.2291377,-102.0267985,-3.2920862289999997,17.18175246,2.347488528,-3.1143138919999998,-1.050747547,1.175089076,102.1969585,-0.055273928,-0.10037685199999999,0.12312626900000001,0.0,68186782,0,0,1,0,0
1437,68222921,-0.032204355,-0.041105497000000005,0.027684538999999998,0.0,0.0,1513.0,1500.0,1000.0,1514.0,1485.0,1482.0,17.22578788,17.64949687,11.74159557,16.25133343,16.23158714,16.63075885,16.25063188,16.65027192,161.5984595,161.5984595,11.7406174,-0.00157808,-0.006017371999999999,0.00017827099999999997,-0.21496098,0.17735896,-0.004911442,2.0,1.736947389,2.7369473889999996,11,0,0,1,0,0.0,0,0,0,0,0,0.186465718,-0.20947689600000002,1.966939403,1.9771620580000002,0.709174758,175.1764019,49.79839573,-0.018559066000000003,0.013998853,-0.006832605,0.0,-1.7027261669999998,0.557124773,-9.014271378,-5.32e+20,954.4452476,11.74213269,-0.079503352,-0.10733644,0.42441890299999996,-1.468417535,-0.545718202,-7.660999249,-0.10765397800000001,0.0043901109999999995,0.41883994799999996,-5.32e+20,91.92539439,101.3810589,-4.442446227,-2.489980711,15.36828759,17.36179344,-0.039870115,-0.24421306,-0.1,89.06099647,501.47391,11.74159557,95444.93633,1.134043731,-0.52672722,-0.258521679,1.535634428,-0.087814949,-0.09818641199999999,0.470814856,0.166162509,-0.20680338199999998,1.9727690130000002,0.53972512,0.13132993099999998,0.012094148,0.83144577,0.0,398726859.2,327341285.1,502248.2603,17.53859372,-2.9674654460000003,17.26956591,2.193246649,1.7413558519999999,0,0,0.0,764000,39.8714138,32.7364368,141.0129436,-194.6397119,-101.9461672,-3.398964898,17.14658813,2.3874402519999998,-3.1914964969999997,-1.100255692,0.887387604,102.1163272,-0.059267469,-0.106447901,0.11973607,0.0,68222921,0,0,1,0,0
1438,68259059,-0.030026611,-0.037724282000000005,0.026634762000000003,0.0,0.0,1514.0,1500.0,1000.0,1513.0,1486.0,1482.0,17.25279071,17.67691642,11.74214014,16.28980895,16.27088497,16.67096449,16.29244845,16.69305805,162.44734069999998,162.44734069999998,11.74116616,-0.0015781620000000001,-0.006016962,0.000178646,-0.21496098,0.17735896,-0.004911443,2.0,1.73954791,2.73954791,11,0,0,1,0,0.0,0,0,0,0,0,0.18271072600000002,-0.207400224,1.968964872,1.977713042,0.6077801429999999,174.5617541,49.77926535,-0.018525319,0.013825158,-0.00729317,0.0,-1.730416687,0.613573791,-9.253390557000001,-3.63e+20,954.451323,11.74266316,-0.10844608800000001,-0.09930363,0.520462706,-1.533047524,-0.31226798699999997,-7.776981537999999,-0.10798766,0.023089518,0.32767670000000004,-3.63e+20,91.79035054,101.2940774,-4.324163039,-2.514375104,15.36821937,17.39765614,-0.040588732999999995,-0.23624370600000003,-0.1,88.85925278,501.49085310000004,11.74214014,95444.73181,1.134041351,0.002393943,0.437429671,0.573134268,-0.113915784,-0.089922291,0.5412566089999999,0.165633129,-0.21051487300000002,1.976629819,0.537920474,0.132690944,0.011101902,0.832412908,0.0,398726849.1,327341358.7,502165.3885,17.52285857,-3.07586309,17.23984397,2.254438888,1.74767236,0,0,0.0,764000,39.8714138,32.7364368,140.88334369999998,-194.0101305,-101.8566523,-3.51483109,17.10895245,2.409309265,-3.175424281,-1.074929467,0.6954839340000001,102.0268123,-0.052088499,-0.110153272,0.11943722400000001,0.0,68259059,0,0,1,0,0
1439,68291197,-0.02780191,-0.035352145,0.026967622000000004,0.0,0.0,1514.3162630000002,1500.0,1000.0,1514.7349470000001,1484.2650529999999,1482.0,17.22668121,17.6502878,11.74268483,16.32828447,16.31018281,16.71117013,16.33426503,16.73584417,163.296222,163.296222,11.74171492,-0.001578244,-0.006016552,0.000179021,-0.21496098,0.17735896,-0.004911443,2.0,1.74214843,2.74214843,11,0,0,1,0,0.0,0,0,0,0,0,0.178955733,-0.205323552,1.970990341,1.978264026,0.506385529,173.9471063,49.76013498,-0.018497416000000003,0.013669473,-0.007662471999999999,0.0,-1.755486319,0.660083757,-9.488858423,-1.73e+20,954.4572406999999,11.74319597,-0.129286811,-0.09780856800000001,0.576447313,-1.5404470190000001,-0.101237853,-7.9461173579999995,-0.108716616,0.04092727,0.23259571899999998,-1.73e+20,91.66397663,101.20630279999999,-4.171016423,-2.5418713630000003,15.36815635,17.42778456,-0.041192562,-0.22793855899999999,-0.1,88.65816424,501.5100538,11.74268483,95444.48766,1.1340384490000002,0.043452233,0.706642203,-0.691315188,-0.12302684800000001,-0.079926524,0.58532438,0.161125784,-0.213770866,1.977597424,0.537611859,0.13281277800000002,0.008391228,0.832621946,0.0,398726838.9,327341432.3,502082.5167,17.50712342,-3.184260735,17.21012202,2.315631126,1.753988867,0,0,0.0,764000,39.8714138,32.7364368,140.7515091,-193.3757254,-101.7660704,-3.631776915,17.07101989,2.429006077,-3.1481497569999997,-1.040613705,0.515088051,101.9362304,-0.055221565,-0.11524423199999999,0.115030489,0.0,68291197,0,0,1,0,0
1440,68323336,-0.026947258999999998,-0.034242355,0.028286818,0.0,0.0,1516.0,1500.0,1000.0,1514.0,1485.0,1482.0,17.17418967,17.59644027,11.74325514,16.36676,16.34948064,16.75137577,16.37608161,16.77863029,164.1451032,164.1451032,11.74226368,-0.0015783260000000001,-0.006016141,0.000179396,-0.21496098,0.17735896,-0.004911443,2.0,1.74474895,2.74474895,11,0,0,1,0,0.0,0,0,0,0,0,0.17520074100000002,-0.20324688,1.97301581,1.97881501,0.404990914,173.3324585,49.741004600000004,-0.018469864,0.013510375,-0.00793074,0.0,-1.774997384,0.692157957,-9.712145329,11.74373062,954.4633707999999,11.74373062,-0.129423808,-0.083806781,0.599313644,-1.5685421240000001,0.07780864900000001,-8.141346513,-0.110069301,0.056705675,0.139602685,11.74373062,91.53760271,101.11852809999999,-4.017869806,-2.569367623,15.36809333,17.45791299,-0.04179639,-0.219633412,-0.1,88.4570757,501.37105189999994,11.74325514,95446.08092000001,1.134057322,-0.390799064,1.115570241,-0.629588347,-0.12051307800000001,-0.062012174,0.5924113560000001,0.157454345,-0.216705628,1.97914182,0.537029792,0.13303039,0.0061553169999999996,0.832984994,0.0,398726828.8,327341506.0,501999.6449,17.49138828,-3.2926583789999997,17.18040008,2.376823365,1.760305375,0,0,0.0,764000,39.8714138,32.7364368,140.6196381,-192.74576580000002,-101.6759426,-3.746989565,17.03367889,2.447979419,-3.107904637,-1.00421317,0.35087253,101.8461026,-0.049117522999999996,-0.115487665,0.114133884,0.0,68323336,0,0,1,0,0
1441,68363474,-0.031463846000000004,-0.03488089,0.028909392000000003,0.0,0.0,1517.0,1500.0,1000.0,1514.0,1485.0,1481.0,17.22082172,17.64414585,11.74381435,16.40523552,16.38877848,16.79158141,16.41789818,16.82141641,164.9939845,164.9939845,11.74281244,-0.0015784070000000002,-0.006015731,0.00017977099999999998,-0.21496098,0.17735896,-0.004911443,2.0,1.74734947,2.74734947,11,0,0,1,0,0.0,0,0,0,0,0,0.171765838,-0.203841734,1.974711904,1.979299189,0.32040277,172.7160983,49.73201378,-0.018444796,0.013357269,-0.008094194,0.0,-1.735362385,0.570628068,-9.805820442,11.74428498,954.4717609999999,11.74428498,-0.115822625,-0.06054274900000001,0.576142274,-1.59281093,0.193031129,-8.302792356,-0.118058791,0.050571565,0.068826501,11.74428498,91.41122879999999,101.03075340000001,-3.86472319,-2.596863882,15.36803031,17.48804141,-0.042400219,-0.211328264,-0.1,88.25598716,501.24805939999993,11.74381435,95447.46837,1.134073793,0.126365016,0.201117223,-1.7918385369999998,-0.116787247,-0.037939611,0.570877846,0.156945153,-0.219287258,1.9830045440000001,0.535292959,0.133946548,0.005490573,0.833959942,0.0,398726818.6,327341579.6,501916.7732,17.47565313,-3.401056024,17.15067814,2.438015603,1.7666218830000002,0,0,0.0,764000,39.8714138,32.7364368,140.4873795,-192.1631091,-101.5906477,-3.84376032,17.00263234,2.459254656,-2.929645598,-0.9456295640000001,0.35882452200000003,101.7608077,-0.042221035999999997,-0.118189106,0.113471772,0.0,68363474,0,0,1,0,0
1442,68399613,-0.02945456,-0.035971695,0.032769997,0.0,0.0,1518.0,1500.0,1000.0,1514.0,1485.0,1480.0,17.20437686,17.627038,11.74440376,16.44371105,16.42807631,16.83178705,16.45971476,16.86420254,165.84286569999998,165.84286569999998,11.743361199999999,-0.001578489,-0.006015321,0.000180147,-0.21496098,0.17735896,-0.004911444,2.0,1.74994999,2.74994999,11,0,0,1,0,0.0,0,0,0,0,0,0.16853543699999998,-0.206143395,1.976197564,1.9797406869999998,0.246552092,172.0986441,49.72950101,-0.018419189,0.013181773,-0.008151221,0.0,-1.6957273869999998,0.44909817799999996,-9.899495556,11.74483934,954.4801512,11.74483934,-0.115865372,-0.024740516,0.5375693260000001,-1.707041447,0.488542421,-8.501397795,-0.12604828099999998,0.044437455,-0.001949682,11.74483934,91.28485488,100.9429787,-3.7115765730000003,-2.624360141,15.36796729,17.51816984,-0.043004047000000004,-0.203023117,-0.1,88.05489863,501.2218243,11.74440376,95447.81521,1.134077928,0.20364832300000002,0.319795965,-2.217664632,-0.110406966,-0.010792578999999998,0.511507061,0.14603538800000002,-0.22166427800000002,1.979114066,0.537493283,0.132005342,3.15e-05,0.8328716540000001,0.0,398726807.3,327341650.9,501830.4287,17.46327866,-3.5083334560000003,17.11759552,2.468961792,1.772977464,0,0,0.0,764000,39.8714138,32.7364368,140.3551209,-191.58045239999998,-101.5053528,-3.940531074,16.9715858,2.4705298940000002,-2.751386558,-0.887045958,0.366776515,101.6755128,-0.046462157999999996,-0.121953945,0.10912159699999999,0.0,68399613,0,0,1,0,0
1443,68431751,-0.028709702,-0.037558057,0.035428186,0.0,0.0,1519.0,1500.0,1000.0,1514.674335,1484.325665,1479.0,17.22992791,17.65338843,11.74496349,16.48218657,16.46737415,16.87199268,16.50153133,16.90698866,166.691747,166.691747,11.74390996,-0.001578571,-0.00601491,0.00018052200000000002,-0.21496098,0.17735896,-0.004911444,2.0,1.75255051,2.75255051,11,0,0,1,0,0.0,0,0,0,0,0,0.165305035,-0.20844505600000002,1.977683224,1.980182185,0.172701414,171.4811899,49.72698825,-0.01839186,0.012996031000000002,-0.008093679,0.0,-1.6553227190000002,0.331393378,-9.926229869,-5.29e+19,954.4905516000001,11.7453938,-0.114661513,0.001116231,0.465382005,-1.721941966,0.613659871,-8.827222851,-0.133362982,0.035642824,-0.056745724000000004,-5.29e+19,91.15450172,100.8534557,-3.585588744,-2.650338335,15.36790677,17.54801,-0.04360206,-0.19464696,-0.1,87.85119242,501.1829119,11.74496349,95448.23039,1.134082878,0.597717291,0.7835771640000001,-2.5959458509999997,-0.110069209,0.021492299,0.442461958,0.149143569,-0.22382634199999998,1.9855190930000002,0.534484846,0.13372820400000002,0.001158535,0.8345302059999999,0.0,398726795.2,327341721.0,501742.13700000005,17.45278856,-3.614982768,17.08262853,2.48294859,1.779354954,0,0,0.0,764000,39.8714138,32.7364368,140.2170383,-190.9848692,-101.4175869,-4.034035159,16.94122426,2.4844725359999997,-2.5631096330000003,-0.8323225040000001,0.41221733299999996,101.58774670000001,-0.044263532,-0.123907714,0.10769262199999999,0.0,68431751,0,0,1,0,0
1444,68463890,-0.028302692,-0.03918651,0.037580476,0.0,0.0,1520.0,1500.0,1000.0,1514.0,1485.0,1478.0,17.15748506,17.57909646,11.74555301,16.5206621,16.50667198,16.91219832,16.54334791,16.94977478,167.5406282,167.5406282,11.74445872,-0.001578653,-0.0060145,0.000180897,-0.21496098,0.17735896,-0.004911444,2.0,1.75515103,2.75515103,11,0,0,1,0,0.0,0,0,0,0,0,0.162074634,-0.210746718,1.9791688840000001,1.9806236830000001,0.098850737,170.8637358,49.72447548,-0.018367171,0.012812216999999999,-0.007955434,0.0,-1.61292961,0.22357069699999998,-9.780022558999999,-2.42e+20,954.5061456,11.74594851,-0.11088724900000001,0.017009957,0.40048585700000006,-1.817904388,0.637670989,-9.064262642000001,-0.138934366,0.019974732,-0.070257052,-2.42e+20,90.99087523,100.7493133,-3.6866946000000005,-2.66362292,15.36786716,17.57543981,-0.044151445,-0.185677046,-0.1,87.62559802,500.97200549999997,11.74555301,95450.66858,1.134111841,-0.063862925,0.7374951359999999,-3.1421449760000004,-0.102826087,0.044477313,0.336567114,0.138955809,-0.225869034,1.981964615,0.536519712,0.131839974,-0.003886503,0.833515233,0.0,398726783.1,327341791.1,501653.8454,17.44229846,-3.72163208,17.04766153,2.4969353869999997,1.785732444,0,0,0.0,764000,39.8714138,32.7364368,140.0639094,-190.35589009999998,-101.3234372,-4.119099802,16.91263242,2.505306424,-2.348951491,-0.787571756,0.554510572,101.4935963,-0.052565713,-0.12833894199999998,0.10306708099999999,0.0,68463890,0,0,1,0,0
1445,68496028,-0.030545118,-0.041208483,0.03865728,0.0,0.0,1520.0,1500.0,1000.0,1512.1466289999998,1486.8533710000002,1477.0,17.18281139,17.60486225,11.74611223,16.55913762,16.54596982,16.95240396,16.58516449,16.9925609,168.3895095,168.3895095,11.74500747,-0.001578734,-0.00601409,0.000181272,-0.21496098,0.17735896,-0.004911445,2.0,1.75775155,2.75775155,11,0,0,1,0,0.0,0,0,0,0,0,0.158844233,-0.21304837899999998,1.980654544,1.981065181,0.025000058999999998,170.24628159999997,49.72196271,-0.018338625,0.012621841000000002,-0.007722928,0.0,-1.570536502,0.115748016,-9.633815249,-4.32e+20,954.5217395999999,11.74650323,-0.10737390699999999,0.03571853,0.31503031,-1.742345413,0.7052097009999999,-9.280795619,-0.14450575,0.00430664,-0.08376838,-4.32e+20,90.82724875,100.6451708,-3.7878004560000003,-2.676907505,15.36782755,17.60286961,-0.04470083,-0.17670713100000002,-0.1,87.40000362,501.00656619999995,11.74611223,95450.24401000001,1.1341068,0.188812205,0.389578605,-2.747485883,-0.100026368,0.066573559,0.241199495,0.140074583,-0.22774889399999998,1.9865347340000001,0.534426541,0.13292374199999998,-0.0036325059999999998,0.834687443,0.0,398726771.1,327341861.2,501565.5537,17.43180836,-3.828281393,17.01269454,2.510922184,1.792109934,0,0,0.0,764000,39.8714138,32.7364368,139.9107804,-189.726911,-101.22928759999999,-4.204164445,16.88404058,2.526140312,-2.134793349,-0.742821008,0.696803811,101.3994459,-0.042606674000000004,-0.12955752199999998,0.10443198199999999,0.0,68496028,0,0,1,0,0
1446,68540166,-0.02843669,-0.043149676,0.040719506,0.0,0.0,1520.0,1500.0,1000.0,1513.4428890000002,1485.5571109999998,1476.0,17.19972658,17.62209007,11.74670245,16.59761314,16.58526765,16.9926096,16.62698106,17.03534703,169.23839080000002,169.23839080000002,11.74555623,-0.001578816,-0.006013679,0.000181647,-0.21496098,0.17735896,-0.004911445,2.0,1.76035207,2.76035207,11,0,0,1,0,0.0,0,0,0,0,0,0.15561383199999998,-0.21535004100000002,1.982140204,1.9815066780000001,-0.048850619000000005,169.6288274,49.71944994,-0.018311028,0.012426897,-0.007447751999999999,0.0,-1.575495193,0.021818385,-9.462631131,-5.32e+20,954.5354930999999,11.74713482,-0.11096725699999999,0.05142008,0.217627913,-1.788590862,0.709809208,-9.579263791,-0.148580854,-0.008039648,-0.075658158,-5.32e+20,90.66362226,100.54102840000002,-3.888906313,-2.69019209,15.36778795,17.63029942,-0.045250215,-0.167737217,-0.1,87.17440922,500.76858260000006,11.74670245,95452.95994,1.134139029,-0.551524244,-0.429940459,-2.073692406,-0.105762719,0.069001934,0.146127051,0.132732059,-0.22931354699999998,1.984815929,0.535536475,0.131600919,-0.0072386609999999995,0.834161825,0.0,398726759.0,327341931.4,501477.2621,17.42131826,-3.934930705,16.97772755,2.524908982,1.7984874240000002,0,0,0.0,764000,39.8714138,32.7364368,139.759884,-189.1221895,-101.13740870000001,-4.279539217,16.85805687,2.552072756,-1.9768678069999999,-0.7047467390000001,0.797679065,101.3075671,-0.05380565599999999,-0.131834643,0.09835510900000001,0.0,68540166,0,0,1,0,0
1447,68572305,-0.025663146,-0.044577132,0.041732905,0.0,0.0,1520.0,1500.0,1000.0,1512.0,1487.0,1476.0,17.18657333,17.60851051,11.74729167,16.63608867,16.62456549,17.03281524,16.66879764,17.07813315,170.08727199999998,170.08727199999998,11.74610499,-0.0015788979999999998,-0.006013269,0.000182022,-0.21496098,0.17735896,-0.004911445,2.0,1.762952591,2.7629525910000003,11,0,0,1,0,0.0,0,0,0,0,0,0.15238343099999999,-0.217651702,1.983625864,1.981948176,-0.122701296,169.01137319999998,49.71693717,-0.018278855,0.012214838,-0.00710317,0.0,-1.633379795,-0.056582749,-9.26353001,-5.32e+20,954.5471895,11.74785235,-0.108574249,0.060459850999999995,0.108496038,-1.755472093,0.720184767,-9.803913867999999,-0.150983541,-0.016673098,-0.043381162,-5.32e+20,90.49999578,100.436886,-3.990012169,-2.703476675,15.36774834,17.65772923,-0.045799599999999996,-0.158767302,-0.1,86.94881482,500.6596102,11.74729167,95454.22757,1.1341542009999999,-0.258877519,-0.267353169,-2.0524925780000003,-0.11390488300000001,0.07085026400000001,0.073450929,0.132229868,-0.230637846,1.987935047,0.534190749,0.132026499,-0.00760565,0.834955667,0.0,398726747.0,327342001.5,501388.9704,17.41082817,-4.041580017,16.94276055,2.538895779,1.8048649140000002,0,0,0.0,764000,39.8714138,32.7364368,139.61148269999998,-188.54458119999998,-101.048068,-4.344083455,16.83498831,2.583703943,-1.8817944009999998,-0.674134883,0.852260734,101.2182271,-0.047510164,-0.13450189199999998,0.09874128900000001,0.0,68572305,0,0,1,0,0
1448,68604443,-0.02843121,-0.046245865,0.041167776,0.0,0.0,1519.0,1500.0,1000.0,1509.621924,1489.378076,1483.0,17.07431146,17.49342276,11.74788189,16.67456419,16.66386332,17.07302088,16.71061421,17.12091927,170.9361533,170.9361533,11.74665375,-0.00157898,-0.006012859000000001,0.000182397,-0.21496098,0.17735896,-0.004911445,2.0,1.765553111,2.7655531110000005,11,0,0,1,0,0.0,0,0,0,0,0,0.149153029,-0.219953363,1.9851115240000001,1.982389674,-0.196551974,168.39391899999998,49.7144244,-0.018251065,0.012037484,-0.006820511,0.0,-1.6912643969999999,-0.134983883,-9.064428888,-5.32e+20,954.5588859,11.74856988,-0.117606566,0.055950890999999996,0.041005416,-1.778497206,0.5850716810000001,-9.862870843,-0.15338622699999999,-0.025306548999999998,-0.011104166,-5.32e+20,90.33636929,100.3327436,-4.091118026,-2.71676126,15.36770873,17.68515903,-0.046348985,-0.149797388,-0.1,86.72322042,500.63527769999996,11.74788189,95454.51608,1.134157603,0.239047085,-0.17255846,-0.74123676,-0.11595901900000001,0.06727522400000001,-0.011024306999999999,0.123774654,-0.231889335,1.98505313,0.5358743779999999,0.130266275,-0.011664606999999999,0.8341035609999999,0.0,398726733.3,327342072.1,501296.975,17.40355855,-4.116022953,16.91745549,2.5577135269999998,1.80941559,0,0,0.0,764000,39.8714138,32.7364368,139.4630815,-187.9669729,-100.95872729999999,-4.408627693,16.81191974,2.61533513,-1.786720994,-0.6435230270000001,0.906842402,101.128887,-0.056563314,-0.136346463,0.093200948,0.0,68604443,0,0,1,0,0
1449,68644582,-0.024121785,-0.046842957000000005,0.041023613,0.0,0.0,1516.0,1500.0,1000.0,1511.0,1488.0,1487.0,17.15809629,17.57926678,11.74847884,16.71303972,16.70316116,17.11322652,16.75243079,17.16370539,171.7850345,171.7850345,11.74720251,-0.001579061,-0.006012448,0.00018277200000000002,-0.21496098,0.17735896,-0.004911446,2.0,1.768153631,2.768153631,11,0,0,1,0,0.0,0,0,0,0,0,0.145922628,-0.222255025,1.9865971830000002,1.9828311719999998,-0.27040265199999997,167.7764649,49.71191163,-0.018213279,0.011846164,-0.006513745,0.0,-1.706560184,-0.128249489,-9.070548954,-5.32e+20,954.5676120999999,11.74920065,-0.11961676199999999,0.058961203,-0.019700798999999998,-1.6773202109999998,0.448065382,-9.900338717999999,-0.152753348,-0.021002668999999998,0.032886763,-5.32e+20,90.17452141,100.2330878,-4.165593811,-2.728053754,15.36765247,17.70531066,-0.046753143,-0.140951283,-0.1,86.50567251,500.64273260000004,11.74847884,95454.44193,1.134156629,-0.40145073,-0.253926403,-0.267094276,-0.12722297400000002,0.052588410999999995,-0.062062321,0.12679589900000002,-0.233349896,1.990448525,0.533340939,0.13170912,-0.010450053,0.8355180609999999,0.0,398726719.5,327342142.7,501204.6621,17.39656498,-4.187705342,16.892978600000003,2.576945355,1.8138096819999998,0,0,0.0,764000,39.8714138,32.7364368,139.30192480000002,-187.3589703,-100.8620158,-4.4745558139999995,16.78883269,2.643968497,-1.7644800719999998,-0.624803456,0.7851738220000001,101.03217579999999,-0.04427487,-0.138765189,0.095642611,0.0,68644582,0,0,1,0,0
1450,68676720,-0.020912602,-0.03213505,0.037990057,0.0,0.0,1514.0,1500.0,1000.0,1510.0,1489.0,1494.0,17.11407893,17.53408247,11.74909232,16.75151524,16.74245899,17.15343216,16.79424737,17.20649152,172.6339158,172.6339158,11.74775127,-0.0015791429999999999,-0.006012038000000001,0.00018314700000000001,-0.21496098,0.17735896,-0.004911446,2.0,1.770754151,2.770754151,11,0,0,1,0,0.0,0,0,0,0,0,0.142692227,-0.224556686,1.9880828430000002,1.98327267,-0.34425333,167.15901069999998,49.70939886,-0.018177116,0.011662879,-0.006239414,0.0,-1.700435774,-0.078695875,-9.179885751,-5.32e+20,954.5748444,11.74978779,-0.130592384,0.043529858,-0.056755939000000005,-1.7281833340000001,0.38626265299999996,-9.853902699999999,-0.15059372099999999,-0.010191912,0.082769256,-5.32e+20,90.01506872,100.13947399999999,-4.204207767,-2.736663565,15.36757378,17.715660999999997,-0.046961727,-0.13227191,-0.1,86.29896053,500.55231100000003,11.74909232,95455.44796,1.134168615,-0.12260982699999999,-0.565001805,0.41974646,-0.1389734,0.036135368,-0.09025733,0.127968211,-0.234769125,1.994311657,0.531566094,0.13262859,-0.010091481,0.8365076029999999,0.0,398726705.7,327342213.3,501112.3493,17.389571399999998,-4.259387731,16.8685017,2.596177184,1.818203775,0,0,0.0,764000,39.8714138,32.7364368,139.13435259999997,-186.7356809,-100.76159720000001,-4.541179963,16.76573634,2.6710941000000004,-1.778870509,-0.612065152,0.5748595470000001,100.9317572,-0.038218983,-0.139056354,0.09563502,0.0,68676720,0,0,1,0,0
1451,68712859,-0.024032707,-0.025327118,0.03400113,0.0,0.0,1512.0,1500.0,1000.0,1508.828566,1490.171434,1496.171434,17.15170442,17.57263548,11.74968758,16.78999077,16.78175683,17.19363779,16.83606394,17.24927764,173.482797,173.482797,11.74830003,-0.001579225,-0.006011628000000001,0.000183523,-0.21496098,0.17735896,-0.004911446,2.0,1.7733546709999999,2.7733546710000003,11,0,0,1,0,0.0,0,0,0,0,0,0.13946182599999998,-0.22685834800000002,1.989568503,1.983714168,-0.41810400700000006,166.54155649999998,49.70688609,-0.018138791,0.011476453999999999,-0.006029056,0.0,-1.694311364,-0.029142261000000003,-9.289222549,-5.32e+20,954.5820767000001,11.75037492,-0.141473416,0.028161073,-0.086835441,-1.684980594,0.255315022,-9.734863898,-0.14843409300000002,0.0006188459999999999,0.132651749,-5.32e+20,89.85561603,100.0458602,-4.242821724,-2.7452733769999997,15.36749509,17.72601134,-0.047170312,-0.123592536,-0.1,86.09224854,500.31711669999993,11.74968758,95458.11567,1.134200292,-0.859850062,0.335187577,0.266264762,-0.140908408,0.024287461,-0.091486611,0.11867993,-0.23612270300000002,1.990347261,0.533756551,0.130690715,-0.014603305,0.8353502690000001,0.0,398726691.8,327342284.0,501020.0364,17.38257783,-4.33107012,16.844024800000003,2.6154090130000003,1.8225978669999998,0,0,0.0,764000,39.8714138,32.7364368,138.9667804,-186.1123914,-100.6611786,-4.607804113,16.74263998,2.698219702,-1.793260946,-0.599326848,0.36454527200000003,100.8313386,-0.04513581,-0.14152159,0.090353263,0.0,68712859,0,0,1,0,0
1452,68748997,-0.020855791999999998,-0.010702806,0.029152202000000002,0.0,0.0,1511.0,1500.0,1000.0,1509.0,1490.0,1493.0,17.14993106,17.57067568,11.75032314,16.82846629,16.82105466,17.23384343,16.87788052,17.29206376,174.3316783,174.3316783,11.74884879,-0.001579307,-0.006011216999999999,0.000183898,-0.21496098,0.17735896,-0.004911447,2.0,1.775955191,2.7759551910000004,11,0,0,1,0,0.0,0,0,0,0,0,0.136231425,-0.229160009,1.991054163,1.984155666,-0.491954685,165.92410230000002,49.70437332,-0.018101443000000002,0.011300676,-0.005879645,0.0,-1.6456845169999998,-0.028250119,-9.455605514,-5.32e+20,954.5933953,11.75098072,-0.14408881099999998,0.015682551,-0.096083791,-1.6711678209999998,0.130914539,-9.564747797999999,-0.141823394,0.009401995,0.17296781,-5.32e+20,89.69616334,99.95224648,-4.28143568,-2.753883188,15.36741641,17.73636168,-0.047378896,-0.114913162,-0.1,85.88553656,500.33303729999994,11.75032314,95457.93617999999,1.13419822,0.391038634,0.18697129899999998,0.52945226,-0.154005454,0.007947955,-0.077210415,0.123043154,-0.237409919,1.9962354119999999,0.530933738,0.132424665,-0.012741648999999999,0.836903836,0.0,398726678.0,327342354.6,500927.7235,17.37558426,-4.402752509,16.81954791,2.634640842,1.826991959,0,0,0.0,764000,39.8714138,32.7364368,138.7930237,-185.4912124,-100.5595381,-4.6784616539999995,16.72036609,2.708131652,-1.8629816080000001,-0.63423927,0.263921974,100.7296965,-0.033107198,-0.14089495,0.092354906,0.0,68748997,0,0,1,0,0
1453,68785135,-0.015801041000000002,-0.003432652,0.026106335,0.0,0.0,1510.0,1500.0,1000.0,1508.569514,1490.430486,1492.0,17.09381196,17.51309579,11.75095812,16.86694181,16.8603525,17.27404907,16.9196971,17.33484988,175.1805595,175.1805595,11.74939755,-0.001579388,-0.006010807,0.000184273,-0.21496098,0.17735896,-0.004911447,2.0,1.7785557109999999,2.778555711,11,0,0,1,0,0.0,0,0,0,0,0,0.133001023,-0.23146167,1.9925398230000002,1.984597164,-0.565805363,165.30664819999998,49.70186055,-0.018061855,0.011124987,-0.005787698000000001,0.0,-1.590052689,-0.035378049,-9.631390462999999,-5.32e+20,954.6053873999999,11.75158958,-0.149362899,-0.006279241,-0.073869417,-1.69602021,0.068661853,-9.506938498,-0.134479097,0.017850967,0.21170719300000002,-5.32e+20,89.53671065,99.85863272,-4.320049636999999,-2.762493,15.36733772,17.74671203,-0.047587480999999994,-0.10623378900000001,-0.1,85.67882458,500.1262087,11.75095812,95460.35233,1.134226934,0.652754126,-0.16578685599999998,2.0603953809999997,-0.151931667,-0.014156598000000001,-0.049383147,0.114919812,-0.23866951100000003,1.992856371,0.532810187,0.130762273,-0.016704191,0.835903725,0.0,398726663.9,327342425.4,500834.0024,17.36929489,-4.474082806,16.79436687,2.652112326,1.831361473,0,0,0.0,764000,39.8714138,32.7364368,138.61824769999998,-184.87038130000002,-100.45769609999999,-4.749783953000001,16.69822775,2.715206558,-1.9418214440000001,-0.677005181,0.18137724100000002,100.6278528,-0.042698904,-0.140887076,0.086379656,0.0,68785135,0,0,1,0,0
1454,68817274,-0.01989017,-0.009896071999999999,0.023640646,0.0,0.0,1509.0,1500.0,1000.0,1510.0,1489.0,1489.0,17.17250047,17.59352024,11.75159327,16.90541734,16.89965033,17.31425471,16.96151367,17.37763601,176.0294408,176.0294408,11.74994631,-0.00157947,-0.006010397,0.00018464799999999998,-0.21496098,0.17735896,-0.004911447,2.0,1.781156231,2.781156231,11,0,0,1,0,0.0,0,0,0,0,0,0.129770622,-0.233763332,1.9940254830000002,1.9850386619999998,-0.63965604,164.689194,49.69934778,-0.01802594,0.010973993999999999,-0.005770496999999999,0.0,-1.538364312,-0.039233053999999996,-9.799748662999999,-5.32e+20,954.6173643999999,11.75219845,-0.15884398,-0.030316071,-0.053197213,-1.621983505,-0.09882269199999999,-9.294129538,-0.127413904,0.025219539,0.248600995,-5.32e+20,89.37725796,99.76501896,-4.358663593,-2.771102812,15.36725903,17.75706237,-0.047796066,-0.097554415,-0.1,85.47211259999999,500.1471227,11.75159327,95460.07072,1.134223607,-0.047015124000000005,-0.09168875900000001,1.687701965,-0.153833689,-0.022689507,-0.004824685,0.11679862199999999,-0.23976449100000002,1.996715395,0.5310112810000001,0.13174727,-0.015962793,0.836907671,0.0,398726648.7,327342496.7,500734.6961,17.36579837,-4.54401674,16.76639328,2.662602442,1.835633513,0,0,0.0,764000,39.8714138,32.7364368,138.4438092,-184.2521066,-100.3562412,-4.820942306,16.67608855,2.7220994519999997,-2.016280678,-0.71493001,0.10382789199999999,100.5263963,-0.032520456,-0.140107794,0.08675446,0.0,68817274,0,0,1,0,0
1455,68853412,-0.018568927,-0.015910629,0.022226721,0.0,0.0,1509.0,1500.0,1000.0,1509.0,1490.0,1488.0,17.16370761,17.58464431,11.75222876,16.94389286,16.93894817,17.35446035,17.00333025,17.42042213,176.878322,176.878322,11.75049507,-0.0015795520000000001,-0.006009986,0.00018502299999999998,-0.21496098,0.17735896,-0.004911447,2.0,1.7837567509999999,2.7837567510000003,11,0,0,1,0,0.0,0,0,0,0,0,0.125582791,-0.234182014,1.995005044,1.985359514,-0.691057215,164.08446930000002,49.83375283,-0.017989783999999998,0.010815532,-0.00581941,0.0,-1.559072543,0.01699858,-9.831761416,-5.32e+20,954.6290642999999,11.75280732,-0.16204031900000002,-0.035262298,-0.021380634,-1.618729459,-0.09401379,-9.091814049,-0.125472696,0.012753383,0.25161232699999997,-5.32e+20,89.213753,99.66990134,-4.382420744,-2.786040668,15.36718192,17.76523029,-0.047960965999999994,-0.08732124699999999,-0.1,85.25781705,500.00801050000007,11.75222876,95461.69302,1.134242845,-0.213557035,0.7308736990000001,1.557228115,-0.151684127,-0.016539568,0.046455159,0.11169934699999999,-0.240739333,1.995364485,0.531856276,0.13078489599999998,-0.018449373,0.83647081,0.0,398726633.5,327342568.0,500635.3899,17.36230185,-4.613950675,16.73841968,2.673092557,1.8399055530000001,0,0,0.0,764000,39.8714138,32.7364368,138.2755673,-183.68076499999998,-100.2618917,-4.889090833,16.65393346,2.725650835,-2.010317766,-0.6639788879999999,0.117987273,100.43204859999999,-0.036217816,-0.138895982,0.082775171,0.0,68853412,0,0,1,0,0
1456,68885551,-0.014610175,-0.018631247,0.021166993,0.0,0.0,1508.0,1500.0,1000.0,1510.0,1489.0,1486.0,17.13942472,17.5595991,11.75286358,16.98236839,16.978246,17.39466599,17.04514682,17.46320825,177.7272033,177.7272033,11.75104383,-0.001579634,-0.006009576,0.000185398,-0.21496098,0.17735896,-0.004911448,2.0,1.786357271,2.7863572710000004,11,0,0,1,0,0.0,0,0,0,0,0,0.120393255,-0.232630643,1.9954551040000001,1.985554139,-0.7189707590000001,163.4930627,50.11140716,-0.017952205,0.010701779,-0.005922639,0.0,-1.579780774,0.073230214,-9.86377417,-5.32e+20,954.6407642999999,11.75341619,-0.15367581800000002,-0.031471637000000004,0.031898953,-1.6390174,-0.126037969,-8.979355766,-0.12353148800000001,0.00028722700000000003,0.25462366,-5.32e+20,89.04886434,99.57427022,-4.401104838999999,-2.8031393189999996,15.36710534,17.77265299,-0.04811095,-0.07655751400000001,-0.1,85.04093199,499.97033550000003,11.75286358,95462.09829,1.134247614,0.7424168529999999,0.862414743,1.340203847,-0.155710152,-0.000248224,0.09262613800000001,0.11371546800000001,-0.23474662,1.999222275,0.5304429039999999,0.128865696,-0.015730976,0.8377177920000001,0.0,398726618.3,327342639.4,500536.0836,17.35880532,-4.683884609,16.71044609,2.683582673,1.8441775930000002,0,0,0.0,764000,39.8714138,32.7364368,138.1073253,-183.10942350000002,-100.1675422,-4.957239361,16.63177838,2.729202218,-2.0043548540000002,-0.6130277670000001,0.132146654,100.3377008,-0.027158803,-0.11803234300000001,0.08082258099999999,0.0,68885551,0,0,1,0,0
1457,68917689,-0.018996126000000002,-0.023781427,0.019198821,0.0,0.0,1508.0,1500.0,1000.0,1509.0,1490.0,1486.0,17.20770951,17.629511100000002,11.75349896,17.02084391,17.01754384,17.43487163,17.0869634,17.50599437,178.5760845,178.5760845,11.75159258,-0.001579716,-0.006009166,0.000185773,-0.21496098,0.17735896,-0.004911448,2.0,1.788957792,2.7889577919999997,11,0,0,1,0,0.0,0,0,0,0,0,0.11520372,-0.231079272,1.9959051630000002,1.985748765,-0.746884304,162.901656,50.38906149,-0.017915711,0.010604018,-0.006091419,0.0,-1.616942497,0.129130245,-9.857448316000001,-5.32e+20,954.6492424,11.75402505,-0.155380334,-0.013494571,0.08812256,-1.560532337,-0.22791116399999997,-8.925286428,-0.120204343,-0.010624043,0.250859044,-5.32e+20,88.88397569,99.47863909,-4.419788934,-2.820237971,15.36702877,17.78007569,-0.048260934000000005,-0.065793781,-0.1,84.82404693,499.80577760000006,11.75349896,95463.98101,1.134270046,0.48008153299999995,-0.392060763,1.0965953929999999,-0.145883089,0.01815829,0.14105094599999998,0.105176683,-0.220794882,1.995259886,0.533382499,0.120769344,-0.015769563,0.837057763,0.0,398726603.1,327342710.7,500436.7774,17.355308800000003,-4.753818543,16.68247249,2.694072788,1.8484496330000002,0,0,0.0,764000,39.8714138,32.7364368,137.93749680000002,-182.5387222,-100.0731015,-5.024971826,16.60953163,2.7343065510000004,-1.996985395,-0.582229715,0.160572195,100.2432615,-0.035599212000000005,-0.09666474800000001,0.072263124,0.0,68917689,0,0,1,0,0
1458,68953828,-0.017345188,-0.024935702999999997,0.018280565,0.0,0.0,1508.0,1500.0,1000.0,1509.0,1490.0,1484.517103,17.12043947,17.53993174,11.75413422,17.05931944,17.05684167,17.47507727,17.12877998,17.54878049,179.4249658,179.4249658,11.75214134,-0.0015797970000000002,-0.006008755,0.000186148,-0.21496098,0.17735896,-0.004911448,2.0,1.7915583119999998,2.791558312,11,0,0,1,0,0.0,0,0,0,0,0,0.110014184,-0.2295279,1.9963552230000001,1.985943391,-0.774797848,162.3102494,50.66671582,-0.01788317,0.010532544,-0.006266509,0.0,-1.70486098,0.18400733,-9.732853132999999,-5.32e+20,954.6477817,11.75463392,-0.147441773,0.0015939270000000002,0.12716807,-1.621588781,-0.12724065099999998,-8.918039825,-0.11260177099999999,-0.016738704,0.22619155600000002,-5.32e+20,88.71908703,99.38300796,-4.438473029,-2.837336623,15.36695219,17.78749839,-0.048410917000000005,-0.055030049000000004,-0.1,84.60716188,499.7712409,11.75413422,95464.38914,1.134274827,-0.128646743,0.23060585600000003,1.3443041690000002,-0.137384633,0.022049468,0.200141746,0.109692344,-0.206841718,2.000803046,0.531508309,0.11620133099999999,-0.009767928,0.8389827679999999,0.0,398726587.9,327342782.0,500337.4711,17.35181227,-4.823752478,16.6544989,2.704562904,1.852721673,0,0,0.0,764000,39.8714138,32.7364368,137.7627743,-181.9699957,-99.97837966,-5.091420797,16.58700211,2.744201522,-1.9852769319999999,-0.613601109,0.233006876,100.1485397,-0.01847061,-0.055746405,0.069981788,0.0,68953828,0,0,1,0,0
1459,68985966,-0.019911134,-0.027342651000000003,0.017099956,0.0,0.0,1508.0,1500.0,1000.0,1510.0,1489.0,1484.0,17.15096194,17.57124688,11.75476904,17.09779496,17.09613951,17.5152829,17.17059655,17.59156662,180.273847,180.273847,11.7526901,-0.001579879,-0.006008345,0.000186524,-0.21496098,0.17735896,-0.004911449,2.0,1.794158832,2.794158832,11,0,0,1,0,0.0,0,0,0,0,0,0.104824649,-0.22797652899999998,1.996805282,1.986138016,-0.8027113929999999,161.7188428,50.94437015,-0.017850293,0.010460676,-0.006476253,0.0,-1.792779462,0.238884415,-9.60825795,-5.32e+20,954.6463210000001,11.75524279,-0.147022079,0.013555015,0.178525162,-1.626780656,-0.1177151,-9.259080551,-0.104999198,-0.022853365,0.201524068,-5.32e+20,88.55419837,99.28737684,-4.457157125,-2.854435275,15.36687562,17.79492109,-0.048560901,-0.04426631599999999,-0.1,84.39027682,499.5603659,11.75476904,95466.78952,1.134303453,-0.344426432,0.23750626800000002,0.91760468,-0.132778476,0.028621319,0.233898167,0.102350162,-0.19321796300000002,1.997763586,0.533864697,0.10855930800000001,-0.009327557,0.83851938,0.0,398726572.3,327342851.8,500239.3439,17.34831566,-4.894528631,16.62989398,2.712526505,1.857023097,0,0,0.0,764000,39.8714138,32.7364368,137.5880517,-181.40126919999997,-99.88365782,-5.157869768,16.56447258,2.754096493,-1.9735684690000002,-0.644972503,0.305441557,100.05381779999999,-0.0261264,-0.02811267,0.061311089000000006,0.0,68985966,0,0,1,0,0
1460,69022104,-0.017992442,-0.028631681000000003,0.016930946000000002,0.0,0.0,1508.0,1500.0,1000.0,1509.0,1490.0,1484.0,17.13039101,17.54996849,11.75540443,17.13627049,17.13543734,17.55548854,17.21241313,17.63435274,181.1227283,181.1227283,11.75323886,-0.001579961,-0.006007935,0.00018689900000000003,-0.21496098,0.17735896,-0.004911449,2.0,1.7967593519999998,2.796759352,11,0,0,1,0,0.0,0,0,0,0,0,0.09963511300000001,-0.22642515800000002,1.997255341,1.9863326419999998,-0.8306249370000001,161.1274362,51.22202448,-0.017816117,0.010331251,-0.006677446,0.0,-1.79745191,0.283001958,-9.53167981,-5.32e+20,954.6538477,11.75585634,-0.137390037,0.014063606999999999,0.209634853,-1.610948562,-0.075495461,-9.43017867,-0.098789404,-0.0247393,0.17285398100000002,-5.32e+20,88.38779845,99.19067236,-4.475332445,-2.8721127660000003,15.36679724,17.80184148,-0.048700875,-0.033297252,-0.1,84.17070738,499.68056160000003,11.75540443,95465.40896,1.134286952,0.51820598,-0.303900114,0.38298233299999995,-0.12442774300000001,0.023387186,0.253347341,0.104438898,-0.19082131,2.0016150130000003,0.532248733,0.108133768,-0.007592653,0.839617807,0.0,398726556.4,327342920.0,500142.4853,17.34481896,-4.96621102,16.60891378,2.7177715539999996,1.861356136,0,0,0.0,764000,39.8714138,32.7364368,137.4038284,-180.8127595,-99.78496655,-5.224315806,16.54180325,2.7667691939999997,-1.9232267730000001,-0.640154331,0.368416501,99.95512655,-0.018840267,-0.036069525,0.063192443,0.0,69022104,0,0,1,0,0
1461,69062243,-0.020372162,-0.030640007,0.016268749,0.0,0.0,1508.0,1500.0,1000.0,1508.2856570000001,1490.7143429999999,1483.7143429999999,17.20411441,17.62569147,11.75604168,17.18021067,17.180007699999997,17.60106926,17.26054638,17.68358301,182.08516609999998,182.08516609999998,11.75388231,-0.00157999,-0.006007828000000001,0.000187144,-0.214958719,0.177357285,-0.00491268,2.0,1.799359872,2.7993598719999997,11,0,0,1,0,0.0,0,0,0,0,0,0.094445578,-0.224873787,1.997705401,1.9865272680000001,-0.858538481,160.53602959999998,51.49967881,-0.01778341,0.01015624,-0.006839321,0.0,-1.6952919480000002,0.31331142100000003,-9.516723543,-5.32e+20,954.6729082,11.75647589,-0.127141459,0.011517975,0.235567788,-1.6771551230000001,-0.053388617,-9.647484713999999,-0.09436700599999999,-0.021198372000000004,0.139047223,-5.32e+20,88.19957809,99.07847016,-4.486161779,-2.898147898,15.36669285,17.80150931,-0.048696322,-0.019363491,-0.1,83.91237924,499.41597360000003,11.75604168,95468.46944,1.134323333,-0.087596755,-0.151114066,0.142654592,-0.113723616,0.014658848,0.265089907,0.09610729,-0.19889592399999997,1.997868524,0.533892013,0.10925896199999999,-0.013476845,0.838354625,0.0,398726540.5,327342988.2,500045.6267,17.34132226,-5.037893409,16.58793359,2.723016603,1.8656891759999998,0,0,0.0,764000,39.8714138,32.7364368,137.2074125,-180.1988614,-99.68118117,-5.290758079,16.51895451,2.783006648,-1.8233057609999999,-0.588892883,0.41925145,99.85134117,-0.028604379,-0.049550794,0.059506588,0.0,69062243,0,0,1,0,0
1462,69094381,-0.019439133,-0.030957075,0.016645066,0.0,0.0,1508.124825,1500.0,1000.0,1510.875175,1488.124825,1483.0,17.15744783,17.57755042,11.75670549,17.22752901,17.22783743,17.64997276,17.31258447,17.73679692,183.11780249999998,183.11780249999998,11.75458428,-0.001579986,-0.00600791,0.000187309,-0.214955062,0.177354575,-0.004914671,2.0,1.8019603919999998,2.801960392,11,0,0,1,0,0.0,0,0,0,0,0,0.089256042,-0.22332241600000002,1.99815546,1.9867218930000001,-0.886452026,159.944623,51.77733314,-0.017748012,0.009933115,-0.006969398000000001,0.0,-1.593131985,0.34362088399999996,-9.501767275,-5.32e+20,954.6919687000001,11.75709545,-0.125899246,0.014052936,0.250997472,-1.631519734,0.066010725,-9.676010889,-0.08994460900000001,-0.017657443999999998,0.10524046599999999,-5.32e+20,88.01135773,98.96626796,-4.496991113,-2.92418303,15.36658846,17.80117713,-0.048691769,-0.00542973,-0.1,83.65405109,499.37149189999997,11.75670549,95468.96509,1.134329237,0.248173179,-0.314871193,-0.180266063,-0.10751904699999999,0.004366995,0.26532974600000003,0.10137995,-0.20585484899999998,2.004106091,0.530647996,0.11360443099999999,-0.012798337,0.8398459290000001,0.0,398726524.6,327343056.4,499948.7682,17.33782557,-5.109575798,16.56695339,2.728261652,1.870022216,0,0,0.0,764000,39.8714138,32.7364368,137.0109966,-179.58496330000003,-99.57739579,-5.3572003519999996,16.49610576,2.799244102,-1.72338475,-0.537631434,0.470086399,99.74755579,-0.016901438,-0.061667310999999995,0.063594375,0.0,69094381,0,0,1,0,0
1463,69137039,-0.018679398,-0.032253445,0.017596074,0.0,0.0,1509.0,1500.0,1000.0,1509.0,1490.0,1482.0,17.17069901,17.59109418,11.75734031,17.27484735,17.27566716,17.69887626,17.36462257,17.79001084,184.15043899999998,184.15043899999998,11.75528626,-0.0015799829999999999,-0.006007991,0.000187474,-0.21495140399999998,0.177351865,-0.004916663,2.0,1.804560912,2.804560912,11,0,0,1,0,0.0,0,0,0,0,0,0.084066507,-0.221771045,1.99860552,1.986916519,-0.91436557,159.3532164,52.05498747,-0.017741092,0.009733012,-0.007236129,0.0,-1.560113986,0.34336605200000003,-9.462809033,-5.32e+20,954.7105345000001,11.75782495,-0.11688704400000001,0.006961818000000001,0.266402542,-1.5889405890000001,0.118507197,-9.876217211,-0.090534771,-0.016560147,0.078990422,-5.32e+20,87.82313736,98.85406576,-4.507820447,-2.950218162,15.36648407,17.80084495,-0.048687216,0.008504031,-0.1,83.39572294,499.2847416999999,11.75734031,95469.9713,1.134341148,-0.300040746,-0.392889392,-0.471022431,-0.10338013900000001,0.000606188,0.252282847,0.091056069,-0.211874333,2.000086419,0.532627661,0.11333720800000001,-0.018984415,0.83850393,0.0,398726508.7,327343124.6,499851.9096,17.33432887,-5.181258187,16.54597319,2.733506701,1.8743552559999999,0,0,0.0,764000,39.8714138,32.7364368,136.8204829,-179.00236130000002,-99.47787572,-5.416508137,16.47638079,2.816761105,-1.646438734,-0.512052993,0.507987977,99.64803572,-0.02399248,-0.082819001,0.061208614,0.0,69137039,0,0,1,0,0
1464,69185316,-0.019406045,-0.033873858,0.018404349,0.0,0.0,1509.0,1500.0,1000.0,1510.0,1489.0,1482.0,17.13630123,17.55571696,11.75799141,17.32216569,17.32349688,17.74777975,17.41666067,17.84322476,185.1830754,185.1830754,11.75598824,-0.001579979,-0.006008073,0.00018763900000000002,-0.21494774600000002,0.177349155,-0.004918654000000001,2.0,1.8071614319999998,2.807161432,11,0,0,1,0,0.0,0,0,0,0,0,0.07887697099999999,-0.220219673,1.999055579,1.987111144,-0.942279115,158.76180980000004,52.3326418,-0.017765173000000002,0.009500516,-0.008208078,0.0,-1.567510819,0.325245789,-9.409821165,-5.32e+20,954.7288113,11.75861873,-0.10871842699999999,-0.007337366999999999,0.265726628,-1.6735647530000002,0.112696836,-9.836588636,-0.094054872,-0.016891199,0.057157425,-5.32e+20,87.634917,98.74186356,-4.518649781000001,-2.9762532939999997,15.36637968,17.80051277,-0.048682663,0.022437792999999998,-0.1,83.1373948,499.1267,11.75799141,95471.7492,1.13436229,0.110663703,0.070912463,-0.545647452,-0.10179179199999999,-0.011493933999999999,0.232536317,0.03531809,-0.213663165,1.9986371930000002,0.5361022010000001,0.099153917,-0.042888178,0.83715501,0.0,398726492.8,327343192.8,499755.05100000004,17.33083217,-5.252940576,16.524993,2.73875175,1.878688296,0,0,0.0,764000,39.8714138,32.7364368,136.6334191,-178.4380526,-99.38084881,-5.4716456739999995,16.45848172,2.835026027,-1.582922054,-0.501486771,0.538329747,99.55100881,-0.1331557,-0.09415073199999999,0.020066904,0.0,69185316,0,0,1,0,0
1465,69222797,-0.016985997,-0.0345509,0.019537236,0.0,0.0,1510.0,1500.0,1000.0,1508.643729,1490.356271,1481.0,17.24470675,17.66671613,11.75864131,17.36948403,17.37132661,17.79668325,17.46869877,17.89643867,186.2157118,186.2157118,11.75669021,-0.001579976,-0.006008154,0.00018780400000000002,-0.214944088,0.177346445,-0.004920646,2.0,1.809761952,2.8097619519999997,11,0,0,1,0,0.0,0,0,0,0,0,0.073687436,-0.21866830199999998,1.999505638,1.98730577,-0.9701926590000001,158.17040319999998,52.61029613,-0.017779245,0.009331923,-0.009384639,0.0,-1.574907651,0.307125527,-9.356833298,-5.32e+20,954.7470880000001,11.7594125,-0.104096013,-0.010440661,0.252152762,-1.63785455,0.22392416699999998,-9.833421212000001,-0.09757497300000001,-0.017222252,0.035324427,-5.32e+20,87.44669663,98.62966136,-4.529479115,-3.0022884260000002,15.36627529,17.80018059,-0.04867811,0.036371554,-0.1,82.87906665,499.0450823,11.75864131,95472.69088,1.134373547,0.007720613,-0.306296298,-0.888965175,-0.095747267,-0.007931076,0.207291965,-0.00628653,-0.21545091100000002,2.0011258069999998,0.536981036,0.08881794300000001,-0.0606712,0.8367086509999999,0.0,398726475.7,327343261.6,499654.5953,17.32866773,-5.312632487,16.4986836,2.759983983,1.8824633030000002,0,0,0.0,764000,39.8714138,32.7364368,136.4463553,-177.8737439,-99.28382189,-5.526783211000001,16.44058265,2.85329095,-1.5194053730000001,-0.49092055,0.5686715170000001,99.45398189,-0.15941830199999998,-0.09718384,0.013610442,0.0,69222797,0,0,1,0,0
1466,69254935,-0.020676915,-0.036762455,0.019189347,0.0,0.0,1509.0,1500.0,1000.0,1510.0,1489.0,1480.0,17.13508651,17.55426771,11.75932222,17.41680237,17.41915634,17.84558675,17.52073687,17.94965259,187.2483483,187.2483483,11.75739219,-0.001579972,-0.006008236,0.00018796900000000002,-0.21494043,0.177343735,-0.0049226370000000005,2.0,1.8123624719999998,2.812362472,11,0,0,1,0,0.0,0,0,0,0,0,0.06849789999999999,-0.217116931,1.9999556980000002,1.987500396,-0.998106203,157.5789966,52.88795046,-0.017774817,0.009156793,-0.010944007,0.0,-1.598834593,0.244295028,-9.340275264,-5.32e+20,954.7605898,11.76008088,-0.103796766,-0.02546501,0.232910984,-1.733783052,0.26709964399999997,-9.771843568,-0.10042951300000001,-0.017936846,0.024046257999999997,-5.32e+20,87.28219239,98.52026809,-4.476862488,-3.027694752,15.36618335,17.8000165,-0.048676669000000006,0.04929015,-0.1,82.62837343,498.8662078,11.75932222,95474.74905,1.134397939,-0.029879892999999998,-0.30135786800000003,-1.163920261,-0.088820328,-0.011809595,0.179252045,-0.013199556999999999,-0.2137612,1.997456405,0.538862927,0.086137505,-0.06326797599999999,0.835585583,0.0,398726458.2,327343330.7,499553.0162,17.32691938,-5.368579624,16.47070983,2.786209211,1.8860640290000001,0,0,0.0,764000,39.8714138,32.7364368,136.2415369,-177.2718351,-99.17838753,-5.579500765,16.42427433,2.874985278,-1.448209047,-0.462542781,0.600715204,99.34854636,-0.1555352,-0.091300804,0.015101875,0.0,69254935,0,0,1,0,0
1467,69287073,-0.017582391,-0.036996144,0.020409251,0.0,0.0,1510.0,1500.0,1000.0,1509.0,1490.0,1480.0,17.06983159,17.48730274,11.75997259,17.46412071,17.46698607,17.89449024,17.57277497,18.00286651,188.28098469999998,188.28098469999998,11.75809417,-0.0015799689999999999,-0.006008316999999999,0.000188134,-0.214936772,0.177341025,-0.004924629,2.0,1.8149629930000002,2.814962993,11,0,0,1,0,0.0,0,0,0,0,0,0.063308364,-0.21556556,2.000405757,1.987695021,-1.026019748,156.98758999999998,53.16560479,-0.017756799,0.008992841,-0.012604404,0.0,-1.626286005,0.171931625,-9.331484628,-5.32e+20,954.7730734999999,11.76072252,-0.096938806,-0.01949448,0.201995237,-1.6420059280000001,0.41099043,-9.713412142000001,-0.103142144,-0.018733216,0.01501854,-5.32e+20,87.15571813,98.4153791,-4.322507073,-3.0520927560000004,15.36611135,17.80012195,-0.048680218,0.060580879000000004,-0.1,82.38992318,498.86341789999994,11.75997259,95474.7542,1.13439805,-0.5206203970000001,0.540451818,-0.380241806,-0.09086981400000001,-0.012442618,0.143030976,-0.009635491999999999,-0.21224609600000002,2.001026607,0.5372564479999999,0.08657388699999999,-0.06121702,0.8367275,0.0,398726440.7,327343399.7,499451.4371,17.32517103,-5.424526761,16.44273606,2.8124344389999996,1.889664755,0,0,0.0,764000,39.8714138,32.7364368,136.032933,-176.6619094,-99.07116057,-5.6317023410000004,16.40830519,2.897410808,-1.3753753030000002,-0.43036731799999994,0.633121766,99.24131797,-0.140027326,-0.08808331800000001,0.012800899,0.0,69287073,0,0,1,0,0
1468,69319212,-0.019875767,-0.038027776,0.019352081,0.0,0.0,1509.0,1500.0,1000.0,1510.0,1489.0,1479.0,17.13627119,17.555370800000002,11.76065304,17.51143905,17.5148158,17.94339374,17.62481307,18.05608043,189.31362109999998,189.31362109999998,11.75879614,-0.001579965,-0.006008399,0.000188299,-0.21493311399999998,0.177338315,-0.00492662,2.0,1.817563513,2.817563513,11,0,0,1,0,0.0,0,0,0,0,0,0.058118829000000004,-0.214014189,2.0008558169999997,1.9878896469999998,-1.053933292,156.3961834,53.44325912,-0.017733001,0.008824513,-0.014241439,0.0,-1.652690443,0.10063697199999999,-9.321122032,-5.32e+20,954.7853915,11.76136435,-0.093566082,-0.023473938,0.17278848600000002,-1.670413457,0.364272634,-9.623898714,-0.105844306,-0.019558787,0.006377339,-5.32e+20,87.02924388,98.3104901,-4.168151658,-3.07649076,15.36603935,17.80022739,-0.048683767,0.071871607,-0.1,82.15147293,498.7593456,11.76065304,95475.95852999999,1.134412341,-0.716251814,-0.36120268,-0.405381104,-0.09545245599999999,-0.003081714,0.11267536199999999,-0.013936795,-0.210926552,1.999769,0.538001044,0.08482606699999999,-0.062715911,0.8363166,0.0,398726423.2,327343468.8,499349.85799999995,17.32342268,-5.480473897,16.41476229,2.8386596660000003,1.893265481,0,0,0.0,764000,39.8714138,32.7364368,135.824533,-176.05283219999998,-98.96403513,-5.683727212000001,16.39241519,2.919863258,-1.302853727,-0.39871219399999996,0.665322274,99.13419115,-0.128657621,-0.083111945,0.013143775,0.0,69319212,0,0,1,0,0
1469,69355350,-0.017987996000000003,-0.039144802,0.02025453,0.0,0.0,1510.0,1500.0,1000.0,1507.0018,1491.9982,1479.0,17.13805895,17.55713348,11.76133394,17.55875738,17.56264553,17.99229724,17.67685117,18.10929434,190.3462576,190.3462576,11.75949812,-0.001579962,-0.00600848,0.000188464,-0.21492945600000002,0.177335605,-0.004928612,2.0,1.8201640330000002,2.820164033,11,0,0,1,0,0.0,0,0,0,0,0,0.052036148,-0.212900746,2.0008912519999997,1.987933292,-1.0582564620000001,155.7758621,53.621697399999995,-0.017711836,0.008634354,-0.015696202,0.0,-1.619991476,0.089674979,-9.222019839,-5.32e+20,954.7883485,11.76201669,-0.08900562699999999,-0.026738074,0.12462902,-1.654654759,0.41873322799999996,-9.559624905,-0.107955442,-0.022032778,0.019555676,-5.32e+20,86.90276962,98.20560111,-4.013796243,-3.100888765,15.36596735,17.80033284,-0.048687315999999994,0.08316233599999999,-0.1,81.91302268,498.5435307,11.76133394,95478.43347,1.134441752,0.017780716000000002,0.11453010599999999,-1.525032895,-0.09193173199999999,-0.007301222,0.083426095,-0.021214032999999997,-0.20968577100000002,1.9967467330000002,0.539598048,0.082249015,-0.065549547,0.835326212,0.0,398726405.7,327343537.9,499248.2789,17.32167433,-5.536421034,16.38678853,2.864884894,1.896866207,0,0,0.0,764000,39.8714138,32.7364368,135.6276468,-175.4916551,-98.86264033,-5.725776732000001,16.38099313,2.943835397,-1.247954536,-0.396431025,0.6858907759999999,99.03279778,-0.129999221,-0.081553291,0.017108165,0.0,69355350,0,0,1,0,0
