,timestamp,control[0],control[1],control[2],control[3],control[4],output[2],output[3],output[4],output[5],output[6],output[7],indicated_airspeed_m_s,true_airspeed_m_s,air_temperature_celsius,indicated_airspeed_m_s.1,equivalent_airspeed_m_s,true_airspeed_m_s.1,equivalent_ground_minus_wind_m_s,true_ground_minus_wind_m_s,differential_pressure_raw_pa,differential_pressure_filtered_pa,temperature,gyro_bias[0],gyro_bias[1],gyro_bias[2],accel_bias[0],accel_bias[1],accel_bias[2],instance_count,seq_reached,seq_current,seq_total,item_changed_index,item_do_jump_remaining,valid,warning,finished,failure,stay_in_failsafe,flight_termination,item_do_jump_changed,execution_mode,nav_roll,nav_pitch,nav_bearing,target_bearing,xtrack_error,wp_dist,acceptance_radius,rollspeed_integ,pitchspeed_integ,yawspeed_integ,additional_integ1,x,y,z,temperature.1,pressure,temperature.2,gyro_rad[0],gyro_rad[1],gyro_rad[2],accelerometer_m_s2[0],accelerometer_m_s2[1],accelerometer_m_s2[2],x.1,y.1,z.1,temperature.3,altitude_sp,altitude_filtered,height_rate_setpoint,height_rate,airspeed_sp,airspeed_filtered,airspeed_derivative_sp,airspeed_derivative,throttle_integ,pitch_integ,baro_alt_meter,baro_temp_celcius,baro_pressure_pa,rho,xyz[0],xyz[1],xyz[2],xyz[0].1,xyz[1].1,xyz[2].1,roll_body,pitch_body,yaw_body,q_d[0],q_d[1],q_d[2],q_d[3],thrust_body[0],lat,lon,alt,vel_m_s,vel_n_m_s,vel_e_m_s,vel_d_m_s,cog_rad,ground_contact,maybe_landed,landed,ref_timestamp,ref_lat,ref_lon,x.2,y.2,z.2,vx,vy,vz,ax,ay,az,dist_bottom,roll,pitch,yaw,thrust_body[0].1,timestamp.1,isTakeoff,isClimbing,isDescending,isCruise,isLand
1158,53535941,-0.035826086,0.031709114,0.19568548300000002,0.0,0.0,1585.8195640000001,1500.0,1000.0,1518.639128,1480.360872,1516.90218,15.34817697,15.72423202,11.75477356,15.45513595,15.47380568,15.85291271,15.24661085,15.62015211,146.45196059999998,146.45196059999998,11.75473131,-0.001478811,-0.005770674,6.63e-05,-0.20030213100000002,0.17958831100000003,-0.029656986,2.0,1.01140228,2.01140228,11,0,0,1,0,0.0,0,0,0,0,0,0.226363495,-0.181259576,-2.98062526,-3.1189319419999997,-8.119743032,240.3014617,47.41478489,-0.011412581000000002,0.012604381999999999,0.09242265599999999,0.0,-1.330278944,0.017599292,-9.151587766,10.84501329,954.6563936000001,11.75513897,-0.162463689,0.014938518999999999,0.35005248899999997,-1.409043045,-0.026769948999999998,-9.122858936,-0.174255485,0.02960192,0.33895115600000003,10.84501329,91.27022057,97.96635268,-3.01919857,-2.541772496,15.36609335,17.12392455,-0.03515662,0.976961897,-0.1,74.02212735,499.6082733,11.75477356,95466.28074,1.134297343,-0.5334568820000001,-0.267499666,-0.674244313,-0.110573126,0.140386494,0.22121367399999997,0.385532865,-0.17831793899999998,-3.008555434,0.081999414,-0.074514876,-0.19619864899999997,-0.974282249,0.0,398727202.2,327430474.5,500406.3667,15.65190578,-15.00611522,4.345286937,1.652230406,2.8596981219999997,0,0,0.0,787999,39.8714138,32.7364368,142.6522517,564.8096735,-99.94526541,-15.08797307,3.524221647,2.028482889,-0.500021582,-4.427471992,1.86031461,100.0941326,-0.146050695,0.108288304,0.272475321,0.0,53535941,0,0,1,0,0
1159,53575015,-0.038960273999999996,0.023782888,0.195470275,0.0,0.0,1585.0,1500.0,1000.0,1518.028606,1480.971394,1513.0,15.36998174,15.74651893,11.75528846,15.43228388,15.45113384,15.82964654,15.22162879,15.59451955,146.0089166,146.0089166,11.75508596,-0.00147901,-0.005770888,6.620000000000001e-05,-0.200306522,0.179588253,-0.029650525,2.0,1.014002801,2.0140028009999997,11,0,0,1,0,0.0,0,0,0,0,0,0.216197588,-0.184016738,-2.980161147,-3.1187694639999997,-8.137443271,239.6599486,47.39114776,-0.011401928,0.012594926000000001,0.092329905,0.0,-1.347653152,0.019662886,-9.024989573,6.306662106,954.6658369999999,11.75565747,-0.160447525,-0.010993521000000001,0.37418039200000003,-1.383927554,0.049444718,-9.01841139,-0.170328586,0.005074741,0.358855617,6.306662106,91.1788207,97.86127469,-2.9442996439999995,-2.579157925,15.36603856,17.11758962,-0.035031015,0.891151582,-0.1,73.87131043,499.6276011,11.75528846,95466.04471,1.134294566,-0.149526418,-0.052038140999999996,-0.411286616,-0.11587156800000001,0.127947019,0.197663647,0.376385985,-0.168301564,-3.006730188,0.08164289400000001,-0.069818952,-0.19156164399999998,-0.975581653,0.0,398727150.8,327430494.2,500344.924,15.62725266,-15.03645729,4.1575453510000004,1.712914562,2.871812041,0,0,0.0,787999,39.8714138,32.7364368,142.0908016,564.9375737,-99.87106927,-15.10754188,3.361134694,2.093563074,-0.491960103,-4.360958718,1.77691117,100.01993809999999,-0.14516805800000002,0.073275046,0.286621794,0.0,53575015,0,0,1,0,0
1160,53614089,-0.039812072000000004,0.023952101,0.19025411600000003,0.0,0.0,1586.0,1500.0,1000.0,1518.0,1481.0,1506.123225,15.25508117,15.62876787,11.75581859,15.40943182,15.428462,15.80638037,15.19664674,15.568887,145.5658725,145.5658725,11.75544061,-0.001479209,-0.005771101999999999,6.620000000000001e-05,-0.200310913,0.179588195,-0.029644065,2.0,1.0166033209999998,2.016603321,11,0,0,1,0,0.0,0,0,0,0,0,0.20603168100000002,-0.18677390100000002,-2.979697035,-3.118606986,-8.15514351,239.01843540000002,47.36751063,-0.011390348,0.012565706999999999,0.09218851900000001,0.0,-1.36502736,0.02172648,-8.898391379,1.7683109259999998,954.6752805,11.75617597,-0.158048876,-0.027459546,0.38011935700000005,-1.346560379,0.16433176800000002,-8.85428906,-0.166401687,-0.019452437,0.37876007899999997,1.7683109259999998,91.08742083,97.75619671,-2.869400718,-2.616543354,15.36598377,17.1112547,-0.034905411000000004,0.8053412679999999,-0.1,73.72049351,499.48797469999994,11.75581859,95467.64421,1.134313525,-0.483484212,-0.8607176540000001,-0.589567634,-0.125499792,0.109249529,0.184510421,0.365479681,-0.166330875,-3.0067273169999997,0.08109232599999999,-0.069298173,-0.186188907,-0.976706236,0.0,398727099.4,327430513.9,500283.4813,15.60259954,-15.06679936,3.969803765,1.7735987180000001,2.88392596,0,0,0.0,787999,39.8714138,32.7364368,141.51886130000003,565.0641387000001,-99.79392352,-15.1271608,3.196605703,2.161031875,-0.479834091,-4.294685601,1.735361315,99.94279271,-0.15212221,0.037272809,0.29374893399999996,0.0,53614089,0,0,1,0,0
1161,53653163,-0.038303889,0.032187625,0.18394479100000002,0.0,0.0,1586.0,1500.0,1000.0,1518.55011,1480.44989,1505.174835,15.31098827,15.68578323,11.75636973,15.38657975,15.40579015,15.7831142,15.17166469,15.54325445,145.1228284,145.1228284,11.75579527,-0.0014794089999999999,-0.005771315,6.620000000000001e-05,-0.20031530399999997,0.179588136,-0.029637603999999998,2.0,1.019203841,2.019203841,11,0,0,1,0,0.0,0,0,0,0,0,0.195865774,-0.189531063,-2.979232922,-3.118444508,-8.172843749,238.37692230000002,47.3438735,-0.011381852,0.012540883999999999,0.091926649,0.0,-1.3576119619999998,0.057791765,-8.788469933,-1.3900000000000002e-25,954.6845307,11.75670885,-0.163156739,-0.028790097999999997,0.382645962,-1.435651249,0.127093503,-8.803191245,-0.163217686,-0.028382942,0.38494162600000004,-1.3900000000000002e-25,90.99602096,97.65111872,-2.7945017919999997,-2.653928783,15.36592898,17.10491977,-0.034779807,0.7195309529999999,-0.1,73.5696766,499.46103489999996,11.75636973,95467.94218,1.1343171,-0.42423428399999996,-1.189795855,-0.478999468,-0.13781759,0.09024553800000001,0.18318784,0.359139456,-0.17129046899999997,-3.0024576260000004,0.083383802,-0.071591432,-0.183369043,-0.976879084,0.0,398727046.8,327430530.1,500206.6019,15.58473195,-15.09205241,3.7973293,1.8461571980000002,2.8950332039999997,0,0,0.0,787999,39.8714138,32.7364368,140.907763,565.1857195,-99.70576733,-15.14696678,3.0266938110000003,2.237417005,-0.45253581600000004,-4.229308948,1.850044328,99.85463265,-0.14864350199999998,0.005679177,0.304867056,0.0,53653163,0,0,1,0,0
1162,53696238,-0.038892683,0.049820549000000006,0.17515829100000002,0.0,0.0,1584.0,1500.0,1000.0,1517.0,1482.0,1508.0,15.29080727,15.66509537,11.75691188,15.36372769,15.38311831,15.75984803,15.14668263,15.51762189,144.67978440000002,144.67978440000002,11.75614992,-0.0014796079999999999,-0.005771529,6.61e-05,-0.200319695,0.179588078,-0.029631143999999998,2.0,1.021804361,2.021804361,11,0,0,1,0,0.0,0,0,0,0,0,0.18618611899999998,-0.190872025,-2.979358043,-3.118392682,-8.164171653,237.7358793,47.32688481,-0.011373887,0.01255704,0.09162018300000001,0.0,-1.3343716190000001,0.115562714,-8.689194424,-1.3900000000000002e-25,954.6936575999999,11.7572509,-0.163429503,-0.025871395,0.382115311,-1.380417225,0.198632621,-8.649825273,-0.16050793,-0.027356996,0.382362873,-1.3900000000000002e-25,90.891318,97.54909888,-2.7937880969999997,-2.674426262,15.36585662,17.09564405,-0.034595739,0.644198762,-0.1,73.42149040000001,499.247775,11.75691188,95470.36408,1.134345937,-0.342710763,-0.40988893200000004,0.232748979,-0.139722393,0.063708918,0.18887126199999998,0.35158521600000003,-0.176655117,-2.9994432410000003,0.08503739699999999,-0.074262368,-0.179934503,-0.977176878,0.0,398726994.1,327430545.8,500127.9022,15.56766453,-15.11670534,3.6266552030000003,1.9201159509999999,2.906021736,0,0,0.0,787999,39.8714138,32.7364368,140.29666469999998,565.3073003,-99.61761113,-15.16677276,2.856781919,2.313802135,-0.42523754,-4.163932295,1.964727341,99.76647259,-0.148516333,0.0016465370000000002,0.301437092,0.0,53696238,0,0,1,0,0
1163,53731312,-0.035198446,0.051611475,0.17059634899999998,0.0,0.0,1580.0,1500.0,1000.0,1518.421284,1480.578716,1511.578716,15.28942243,15.6637429,11.75748936,15.34087562,15.36044646,15.73658185,15.12170058,15.49198934,144.2367403,144.2367403,11.75650457,-0.001479807,-0.005771743,6.61e-05,-0.200324086,0.17958802,-0.029624683,2.0,1.024404881,2.024404881,11,0,0,1,0,0.0,0,0,0,0,0,0.177399728,-0.189611372,-2.980565608,-3.118544127,-8.1070526,237.09570010000002,47.32210953,-0.011364488,0.012649193000000001,0.09116306800000001,0.0,-1.315271024,0.180499668,-8.611003053,-1.3900000000000002e-25,954.7029922,11.75779653,-0.151656602,-0.017873043,0.36696535799999996,-1.410050955,0.161810024,-8.652758188,-0.157746109,-0.02602635,0.37889363,-1.3900000000000002e-25,90.75521409,97.45429755,-2.9681830060000003,-2.655061018,15.36574276,17.07942683,-0.034273673,0.593599385,-0.1,73.27951385,499.3595102,11.75748936,95469.10863,1.134330928,-0.588652101,-0.442798795,0.616898314,-0.149321155,0.050080242000000004,0.201200672,0.37648979,-0.16410000800000002,-3.010184602,0.079568759,-0.068110504,-0.19139141199999998,-0.9758782229999999,0.0,398726941.4,327430561.6,500049.2024,15.55059712,-15.14135827,3.4559811060000003,1.994074705,2.9170102680000003,0,0,0.0,787999,39.8714138,32.7364368,139.71417480000002,565.4133,-99.52919044,-15.18464818,2.699166013,2.390030805,-0.42411945,-4.115013183,2.02657458,99.67805189,-0.14448408199999999,0.0062585209999999995,0.29156317600000003,0.0,53731312,0,0,1,0,0
1164,53768772,-0.036140587,0.042582358,0.17085752699999998,0.0,0.0,1576.730546,1500.0,1000.0,1519.730546,1479.269454,1513.808362,15.2802261,15.65429128,11.75810435,15.31802356,15.33777462,15.71331568,15.09671853,15.46635678,143.79369619999997,143.79369619999997,11.75685922,-0.001480006,-0.005771956,6.61e-05,-0.200328477,0.179587962,-0.029618223,2.0,1.027005401,2.027005401,11,0,0,1,0,0.0,0,0,0,0,0,0.168613338,-0.18835072,-2.981773172,-3.118695573,-8.049933548,236.45552080000002,47.31733425,-0.011357663999999998,0.012740298999999998,0.09071526099999999,0.0,-1.496895104,0.592896049,-9.555122066000001,-1.3900000000000002e-25,954.7224002999999,11.7585154,-0.146243341,-0.0020319070000000003,0.349753075,-1.4398056719999999,0.25438432,-8.702653852000001,-0.15245984699999998,-0.009921655,0.332247005,-1.3900000000000002e-25,90.61911018,97.35949623,-3.142577915,-2.635695774,15.365628899999999,17.06320961,-0.033951608,0.5430000079999999,-0.1,73.13753729,499.12092019999994,11.75810435,95471.84332999999,1.134363438,0.197289711,-0.718003831,1.237629452,-0.14723863199999998,0.041227561,0.22789852800000002,0.418349624,-0.160769531,-3.009769467,0.080858998,-0.064745211,-0.21170276,-0.971826138,0.0,398726888.7,327430577.3,499970.5027,15.53352971,-15.1660112,3.285307009,2.068033459,2.9279987989999996,0,0,0.0,787999,39.8714138,32.7364368,139.1490358,565.50985,-99.44060934,-15.20135274,2.54900749,2.466164584,-0.43887935899999997,-4.076075393,2.0563774930000003,99.58947309999999,-0.143586228,0.032837784,0.269811674,0.0,53768772,0,0,1,0,0
1165,53809460,-0.038978122999999996,0.026730043,0.17132830100000002,0.0,0.0,1575.0,1500.0,1000.0,1517.0,1482.0,1517.0,15.35968348,15.73551155,11.75871312,15.29517149,15.31510278,15.69004951,15.07173648,15.44072423,143.35065219999998,143.35065219999998,11.75721387,-0.001480205,-0.00577217,6.6e-05,-0.200332867,0.17958790300000002,-0.029611762000000003,2.0,1.029605921,2.029605921,11,0,0,1,0,0.0,0,0,0,0,0,0.159826947,-0.187090068,-2.9829807369999997,-3.1188470180000003,-7.992814495,235.81534159999998,47.31255897,-0.011351583,0.012833339,0.090211425,0.0,-1.678519185,1.00529243,-10.49924108,-1.3900000000000002e-25,954.7418083999999,11.75923428,-0.137002334,0.030577477000000002,0.206423575,-1.910780849,1.209998368,-10.88785127,-0.147173585,0.006183039,0.28560037899999996,-1.3900000000000002e-25,90.48300627,97.26469490000001,-3.3169728239999996,-2.61633053,15.36551505,17.04699239,-0.033629542000000005,0.49240063100000003,-0.1,72.99556073,499.02373439999997,11.75871312,95472.95761,1.134376727,-0.44117422700000003,-0.004144295,0.675632012,-0.165232375,0.04447312900000001,0.257781175,0.40859586700000006,-0.163107336,-3.0056852289999996,0.082757151,-0.065855052,-0.20715515699999998,-0.9725741529999999,0.0,398726836.0,327430593.0,499891.80299999996,15.51646229,-15.19066413,3.114632912,2.141992213,2.9389873310000003,0,0,0.0,787999,39.8714138,32.7364368,138.58102639999998,565.6074051,-99.35196232,-15.23393243,2.4143284769999998,2.535747705,-0.451622697,-4.054674016,2.068199761,99.50082831,-0.14871841800000002,0.041832086,0.251566244,0.0,53809460,0,0,1,0,0
1166,53852535,-0.038332017,0.013341496999999999,0.173730048,0.0,0.0,1573.0,1500.0,1000.0,1520.0,1479.0,1516.0,16.56287387,16.96806473,11.75931976,15.30154238,15.32156993,15.696617600000002,15.07617444,15.445214300000002,143.43876809999998,143.43876809999998,11.75767847,-0.0014806270000000002,-0.0057725269999999995,6.620000000000001e-05,-0.20033538899999997,0.17958794100000003,-0.029607957,2.0,1.032206441,2.032206441,11,0,0,1,0,0.0,0,0,0,0,0,0.151040556,-0.18582941600000003,-2.9841883019999997,-3.1189984639999997,-7.935695442999999,235.1751623,47.30778369,-0.011346736999999999,0.012914696000000002,0.089734823,0.0,-1.764221714,1.141430195,-10.93566126,-1.3900000000000002e-25,954.7534893,11.75987196,-0.08947093199999999,0.092181598,0.028326449,-1.7917560890000002,1.037800351,-10.31687917,-0.132470514,0.039108689,0.19325699899999998,-1.3900000000000002e-25,90.34690236,97.16989357,-3.491367733,-2.596965286,15.36540119,17.03077516,-0.033307476,0.441801254,-0.1,72.85358417,498.7896558,11.75931976,95475.62775,1.134408453,0.46664854899999997,0.278473714,1.036266003,-0.160230907,0.053321728,0.289354622,0.39529033399999997,-0.171554197,-3.005630009,0.08314291900000001,-0.07052074700000001,-0.20089306,-0.973525031,0.0,398726782.1,327430606.9,499805.4447,15.6714174,-15.35317063,3.10419884,2.165286869,2.941811939,0,0,0.0,787999,39.8714138,32.7364368,137.9306166,565.7338143,-99.26142279,-15.72225062,2.724030477,2.4172765480000002,-0.40647494799999995,-4.536702605,1.5638392209999998,99.41028840000001,-0.14482060300000002,0.045301784000000005,0.243850603,0.0,53852535,0,0,1,0,0
1167,53887609,-0.037941803999999996,0.012928077,0.173115658,0.0,0.0,1582.186037,1500.0,1000.0,1496.0,1503.0,1526.0,16.57131483,16.97655728,11.75986059,15.346642499999998,15.36665502,15.74272506,15.119602800000003,15.48962592,144.230831,144.230831,11.75828878,-0.001481342,-0.0057730740000000004,6.659999999999999e-05,-0.20033543399999998,0.179588105,-0.029607669,2.0,1.034806961,2.034806961,11,0,0,1,0,0.0,0,0,0,0,0,0.142254165,-0.184568763,-2.985395867,-3.119149909,-7.87857639,234.53498309999998,47.30300841,-0.011318681,0.013015058000000001,0.08937870199999999,0.0,-1.722799297,0.911442083,-10.69922758,-1.3900000000000002e-25,954.7549293999999,11.76040205,-0.073587691,0.150688186,-0.121850284,-1.69044985,0.8485810979999999,-10.31584253,-0.105287335,0.09432717,0.040351655,-1.3900000000000002e-25,90.21053117,97.07514514,-3.656003285,-2.57909151,15.36528903,17.01460281,-0.032986273999999996,0.39210365399999997,-0.1,72.71102058,498.8411201,11.75986059,95475.01846,1.134401167,0.187175565,-0.45359972200000004,0.39200442799999996,-0.161449818,0.04531517,0.31433530600000004,0.389781957,-0.175085961,-2.998734448,0.086641169,-0.071788088,-0.19854658600000002,-0.9736073000000001,0.0,398726727.5,327430619.6,499714.4185,15.93122155,-15.59969994,3.1914322860000004,2.157701371,2.9396605719999997,0,0,0.0,787999,39.8714138,32.7364368,137.28020680000003,565.8602236,-99.17088327,-16.21056881,3.033732477,2.298805391,-0.36132719799999996,-5.018731194,1.0594786809999999,99.31974848,-0.143960569,0.040769063,0.238115491,0.0,53887609,0,0,1,0,0
1168,53930683,-0.036460393,0.016047512,0.168831571,0.0,0.0,1570.337868,1500.0,1000.0,1504.0,1495.0,1519.662132,16.51067764,16.91448307,11.76040171,15.39174261,15.41174011,15.78883253,15.16303116,15.53403754,145.0228939,145.0228939,11.75889909,-0.0014820570000000002,-0.005773621,6.709999999999999e-05,-0.20033547899999998,0.17958827,-0.029607382,2.0,1.037407481,2.037407481,11,0,0,1,0,0.0,0,0,0,0,0,0.133467774,-0.18330811100000002,-2.9866034310000003,-3.119301355,-7.821457337999999,233.8948038,47.29823313,-0.011240449,0.013088767,0.08983891699999999,0.0,-1.681376879,0.6814539709999999,-10.46279389,-1.3900000000000002e-25,954.7563694,11.76093213,-0.07079210400000001,0.16371738,-0.210731432,-1.709798931,0.588244297,-10.46843066,-0.078104156,0.149545651,-0.11255369,-1.3900000000000002e-25,90.06790971,96.98163363,-3.592420042,-2.596095139,15.36521655,16.99947984,-0.032685264,0.36349376299999997,-0.1,72.55472937,498.79109569999997,11.76040171,95475.61678,1.13440829,-0.379501411,-0.171823349,0.9733783009999999,-0.158407152,0.033449134,0.335102671,0.377359593,-0.16764557900000002,-2.998726042,0.085523122,-0.068689206,-0.192296511,-0.9751861,0.0,398726672.8,327430632.3,499623.3923,16.191025699999997,-15.84622925,3.278665733,2.1501158730000003,2.937509206,0,0,0.0,787999,39.8714138,32.7364368,136.64629309999998,565.9793728,-99.08415675,-16.48695198,3.122199671,2.242876926,-0.340118,-5.1968118169999995,0.722397208,99.23302089,-0.081092316,0.085397082,0.240864475,0.0,53930683,0,0,1,0,0
1169,53967514,-0.037864701,0.026351702,0.16117461800000002,0.0,0.0,1574.0,1500.0,1000.0,1507.510302,1491.489698,1514.0,16.44396442,16.84611064,11.76096926,15.43684272,15.45682521,15.83493999,15.20645952,15.57844916,145.81495669999998,145.81495669999998,11.759509399999999,-0.001482772,-0.005774166999999999,6.75e-05,-0.200335524,0.179588434,-0.029607095,2.0,1.040008002,2.040008002,11,0,0,1,0,0.0,0,0,0,0,0,0.124681384,-0.182047459,-2.9878109960000003,-3.1194528,-7.764338285,233.25462459999997,47.29345785,-0.011208976,0.013012454,0.09081162,0.0,-1.642422604,0.40888633,-10.40841157,-1.3900000000000002e-25,954.7753101,11.76147227,-0.082450103,0.159723933,-0.25032045399999997,-1.6818381930000001,0.306565952,-10.41662672,-0.083663448,0.154713414,-0.174577,-1.3900000000000002e-25,89.92528824,96.88812212,-3.528836798,-2.613098767,15.36514407,16.98435687,-0.032384254,0.334883873,-0.1,72.39843816,498.785809,11.76096926,95475.64565,1.13440853,0.107579196,-0.230080278,0.676172647,-0.16008416,0.011099235,0.36981898700000004,0.36554053700000005,-0.16202107,-2.998732312,0.08461829300000001,-0.066442298,-0.18637525100000002,-0.976567603,0.0,398726618.2,327430645.0,499532.3661,16.45082985,-16.09275855,3.36589918,2.142530375,2.935357839,0,0,0.0,787999,39.8714138,32.7364368,136.0329659,566.0894618,-99.00218871,-16.49884816,2.93457407,2.264999411,-0.348783223,-4.995576702,0.594073779,99.15105092,-0.021500379,0.105641556,0.25825532,0.0,53967514,0,0,1,0,0
1170,54012831,-0.038212208,0.032389872,0.153569813,0.0,0.0,1578.6415279999999,1500.0,1000.0,1509.3584720000001,1489.6415279999999,1506.0,16.54351947,16.94805709,11.76152908,15.48194283,15.5019103,15.88104746,15.24988788,15.62286078,146.6070196,146.6070196,11.76011971,-0.0014834870000000001,-0.005774714,6.8e-05,-0.20033556800000002,0.179588599,-0.029606808,2.0,1.042608522,2.042608522,11,0,0,1,0,0.0,0,0,0,0,0,0.115894993,-0.180786807,-2.9890185610000004,-3.119604246,-7.707219232999999,232.61444530000003,47.28868257,-0.011199221,0.012823053999999999,0.092163146,0.0,-1.603938813,0.128202048,-10.38873244,-1.3900000000000002e-25,954.7975867,11.76201432,-0.10151030400000001,0.13483377900000001,-0.246730623,-1.646812655,0.045456297,-10.41329082,-0.095464211,0.150340356,-0.219276097,-1.3900000000000002e-25,89.78266678,96.79461061,-3.465253554,-2.630102396,15.36507159,16.96923389,-0.032083244,0.306273982,-0.1,72.24214695,498.5609584,11.76152908,95478.22556,1.134439305,0.032007976,-0.44851488799999994,0.156736984,-0.156920098,-0.0048018340000000005,0.379017967,0.361936159,-0.158789652,-2.9918617530000002,0.08757626199999999,-0.064378381,-0.184747622,-0.9767562479999999,0.0,398726563.6,327430657.7,499441.3399,16.710634,-16.33928786,3.453132627,2.1349448769999997,2.9332064730000003,0,0,0.0,787999,39.8714138,32.7364368,135.4196388,566.1995508,-98.92022068,-16.51074434,2.7469484680000003,2.287121895,-0.357448445,-4.794341587,0.465750351,99.06908096,-0.034116087,0.073811026,0.243192963,0.0,54012831,0,0,1,0,0
1171,54051906,-0.036500398999999996,0.033832019,0.15092154800000002,0.0,0.0,1579.793359,1500.0,1000.0,1510.793359,1488.206641,1506.0,16.4844689,16.88728339,11.76208799,15.52704294,15.54699539,15.92715492,15.29331624,15.667272400000002,147.3990825,147.3990825,11.76073002,-0.001484203,-0.005775260999999999,6.840000000000001e-05,-0.200335613,0.179588763,-0.029606521,2.0,1.045209042,2.0452090419999998,11,0,0,1,0,0.0,0,0,0,0,0,0.107108602,-0.179526154,-2.990226126,-3.1197556910000004,-7.65010018,231.9742661,47.28390729,-0.011192176000000002,0.012553898999999999,0.09397068199999999,0.0,-1.57000905,-0.120823254,-10.33830077,-1.3900000000000002e-25,954.8134418999999,11.76255628,-0.122992794,0.122817451,-0.19329292899999997,-1.5965481030000002,-0.13965048,-10.29619916,-0.10786558,0.13987195300000002,-0.23626755300000002,-1.3900000000000002e-25,89.64004531,96.70109909,-3.401670311,-2.647106025,15.3649991,16.95411092,-0.031782234,0.277664092,-0.1,72.08585574,498.5457387,11.76208799,95478.39935,1.1344413770000001,0.476413624,-0.226192654,0.108346897,-0.15863176199999998,-0.019722939,0.385662083,0.351303583,-0.16049364800000002,-2.9918756419999997,0.08737135,-0.065678545,-0.179602092,-0.977646073,0.0,398726508.3,327430670.6,499353.7463,16.87273855,-16.50462092,3.440026005,2.139241755,2.93592869,0,0,0.0,787999,39.8714138,32.7364368,134.75987949999998,566.3011417,-98.83062881,-16.52089196,2.568000769,2.301443371,-0.295432423,-4.560234456,0.38138651100000004,98.97949079,-0.057758776,0.032360811,0.251546245,0.0,54051906,0,0,1,0,0
1172,54090980,-0.039781053,0.032388,0.147700587,0.0,0.0,1579.0,1500.0,1000.0,1512.0,1487.0,1505.0,16.51565802,16.91917582,11.76265689,15.57214306,15.59208049,15.97326239,15.3367446,15.71168402,148.1911454,148.1911454,11.76134033,-0.0014849179999999998,-0.005775808,6.890000000000001e-05,-0.200335658,0.179588928,-0.029606234,2.0,1.047809562,2.047809562,11,0,0,1,0,0.0,0,0,0,0,0,0.09832221099999999,-0.178265502,-2.99143369,-3.1199071369999998,-7.592981128,231.33408680000002,47.27913201,-0.011187359,0.012282185,0.09589577099999999,0.0,-1.549760265,-0.274740248,-10.19548386,-1.3900000000000002e-25,954.8100058,11.76309794,-0.13641383,0.074477992,-0.105734679,-1.560606886,-0.37355183,-10.126951400000001,-0.12207126,0.11109222099999999,-0.17002111600000003,-1.3900000000000002e-25,89.49742385,96.60758758,-3.338087067,-2.664109654,15.36492662,16.93898795,-0.031481224,0.249054201,-0.1,71.92956453,498.34111399999995,11.76265689,95480.76388,1.134469373,0.265005027,0.44576165100000004,-0.34368049799999995,-0.155058474,-0.013867128999999999,0.38285958700000006,0.34122331,-0.149831104,-2.991907559,0.08615137199999999,-0.060892744000000006,-0.174349988,-0.979014629,0.0,398726451.6,327430683.6,499272.5813,16.85187838,-16.51789558,3.239009802,2.165791084,2.947777798,0,0,0.0,787999,39.8714138,32.7364368,134.09231129999998,566.4013034,-98.73975477,-16.53074551,2.390512512,2.31445288,-0.221529294,-4.320598939,0.304415754,98.88861907,-0.069348695,0.019182854,0.25239676699999997,0.0,54090980,0,0,1,0,0
1173,54134054,-0.014013687,0.049233413,0.15439741099999998,0.0,0.0,1580.0,1500.0,1000.0,1511.0,1488.0,1501.0,16.49802998,16.90112161,11.76323853,15.61724317,15.63716558,16.01936985,15.38017296,15.75609564,148.9832083,148.9832083,11.76195064,-0.0014856329999999999,-0.005776354,6.929999999999999e-05,-0.200335703,0.179589092,-0.029605947,2.0,1.050410082,2.050410082,11,0,0,1,0,0.0,0,0,0,0,0,0.08953582,-0.17700485,-2.992641255,-3.120058582,-7.535862076,230.6939076,47.27435673,-0.011180873999999999,0.012023032,0.097784295,0.0,-1.52951148,-0.42865724200000005,-10.05266695,-1.3900000000000002e-25,954.8065697000001,11.76363961,-0.15512731400000002,0.034983996,0.014274415,-1.5550662569999998,-0.469811033,-9.773164437,-0.13627694,0.082312488,-0.10377467800000001,-1.3900000000000002e-25,89.35015686,96.49828457,-3.310683137,-2.7012152,15.36487265,16.91773655,-0.031057279,0.233813368,-0.1,71.74509157,498.3068256,11.76323853,95481.14039,1.134473867,0.5825369020000001,0.10826932,0.172368888,-0.156794713,-0.008851413,0.373361734,0.33151062800000003,-0.146378784,-2.991940405,0.08556651900000001,-0.059618282,-0.16948652600000003,-0.979998389,0.0,398726394.9,327430696.7,499191.4163,16.8310182,-16.53117023,3.0379935989999995,2.192340413,2.959626907,0,0,0.0,787999,39.8714138,32.7364368,133.4248463,566.4968357000001,-98.64855434,-16.53911402,2.220295148,2.328926584,-0.15952113,-4.078195706,0.284429185,98.79742013,-0.09035309300000001,0.013093863,0.244367101,0.0,54134054,0,0,1,0,0
1174,54174256,0.001994221,0.055092264,0.169903671,0.0,0.0,1578.75115,1500.0,1000.0,1512.75115,1486.24885,1498.75115,16.34942333,16.74879263,11.76379961,15.66234328,15.68225067,16.06547731,15.42360132,15.80050726,149.7752712,149.7752712,11.76256095,-0.001486348,-0.005776901,6.97e-05,-0.200335748,0.179589256,-0.02960566,2.0,1.053010602,2.053010602,11,0,0,1,0,0.0,0,0,0,0,0,0.080749429,-0.175744197,-2.99384882,-3.1202100280000002,-7.478743023,230.05372830000002,47.26958145,-0.011165396999999999,0.011778644,0.09946888599999999,0.0,-1.514355612,-0.45506686700000004,-9.845048506,-1.3900000000000002e-25,954.8162735999999,11.76419706,-0.151039897,0.006872407,0.131621703,-1.473923483,-0.466806504,-9.671888847,-0.144674244,0.052298778,-0.005887853,-1.3900000000000002e-25,89.20161328,96.38464206,-3.2932212439999997,-2.7438447310000003,15.36482376,16.89480107,-0.030599551000000003,0.222246337,-0.1,71.55287428,498.35253150000005,11.76379961,95480.63902999999,1.134467972,0.216710205,0.151783806,-0.5529637860000001,-0.151425044,0.003350455,0.36026738399999997,0.326398893,-0.150544696,-2.9883477989999996,0.087498059,-0.061581477999999995,-0.167217982,-0.9800942509999999,0.0,398726338.2,327430709.8,499110.2513,16.81015803,-16.54444489,2.836977395,2.218889741,2.9714760160000004,0,0,0.0,787999,39.8714138,32.7364368,132.7576643,566.5796727999999,-98.55645889,-16.543410199999997,2.070016377,2.347415474,-0.130131909,-3.8282027060000003,0.420707395,98.70532391,-0.09589337699999999,-0.005926397,0.248821995,0.0,54174256,0,0,1,0,0
1175,54212405,-0.01663364,0.031146367,0.146774251,0.0,0.0,1575.0,1500.0,1000.0,1511.80136,1487.19864,1501.19864,16.45932797,16.86140837,11.76438817,15.70744339,15.72733577,16.11158478,15.46702967,15.84491888,150.5673341,150.5673341,11.76317126,-0.0014870629999999998,-0.005777448,7.020000000000001e-05,-0.20033579199999998,0.17958942100000003,-0.029605372,2.0,1.055611122,2.0556111219999997,11,0,0,1,0,0.0,0,0,0,0,0,0.072405473,-0.17569015,-2.9952321669999997,-3.120399622,-7.414244191,229.41394309999998,47.27103469,-0.011145768,0.01157678,0.10084432199999999,0.0,-1.501828217,-0.415669466,-9.603985753,-1.3900000000000002e-25,954.8327591,11.76476267,-0.16863752,-0.009428513000000001,0.244728323,-1.483284227,-0.595833026,-9.534619472000001,-0.150073824,0.021648208,0.108328694,-1.3900000000000002e-25,89.05306971,96.27099956,-3.275759351,-2.786474262,15.36477487,16.87186559,-0.030141822999999998,0.21067930699999998,-0.1,71.36065699999999,498.1056773,11.76438817,95483.45342,1.134501389,-0.17245869100000003,-0.13756516400000002,-0.14870454800000002,-0.146088217,0.025737543999999998,0.288618411,0.321241437,-0.154848577,-2.984993105,0.08931443900000001,-0.063645004,-0.16493532800000002,-0.980187355,0.0,398726281.5,327430722.9,499029.0862,16.78929786,-16.55771954,2.635961192,2.24543907,2.983325125,0,0,0.0,787999,39.8714138,32.7364368,132.0904824,566.66251,-98.46436344,-16.54770637,1.919737606,2.365904365,-0.100742687,-3.5782097060000004,0.556985605,98.61322769,-0.100633148,-0.029593728,0.255655135,0.0,54212405,0,0,1,0,0
1176,54262553,-0.020197653,0.014372245,0.157385947,0.0,0.0,1572.0,1500.0,1000.0,1513.0,1486.0,1503.0,16.38868675,16.78884361,11.76497798,15.7525435,15.77242086,16.15769224,15.51045803,15.8893305,151.359397,151.359397,11.76378157,-0.0014877789999999998,-0.005777995,7.06e-05,-0.200335837,0.179589585,-0.029605085,2.0,1.058211642,2.058211642,11,0,0,1,0,0.0,0,0,0,0,0,0.065092582,-0.178448015,-2.997025165,-3.1206781180000003,-7.332547265,228.77507630000002,47.28700308,-0.011122036,0.011453156,0.10177215099999999,0.0,-1.4907556,-0.372914565,-9.376212723,-1.3900000000000002e-25,954.8483064,11.765329099999999,-0.158554239,-0.029773407,0.31885603,-1.544590382,-0.354810973,-9.333829563,-0.155037808,-0.007688898,0.22074981899999999,-1.3900000000000002e-25,88.90452614,96.15735706,-3.258297457,-2.8291037930000003,15.36472597,16.84893011,-0.029684093999999998,0.199112276,-0.1,71.16843971,498.0137404,11.76497798,95484.52033,1.134514086,0.63430503,0.892685007,-4.5394530810000004,-0.103249168,0.087370645,0.07620539999999999,0.312111395,-0.151743176,-2.9850315989999996,0.08877273599999999,-0.06252914400000001,-0.160356702,-0.9810676159999999,0.0,398726224.6,327430735.7,498947.0548,16.76886377,-16.5705681,2.439063813,2.271278256,2.994946178,0,0,0.0,787999,39.8714138,32.7364368,131.4577368,566.7319667,-98.37513012,-16.54962023,1.787271742,2.392561429,-0.05589790099999999,-3.434457418,0.69208454,98.5239957,-0.112753724,-0.012237743999999998,0.237572084,0.0,54262553,0,0,1,0,0
1177,54302351,-0.021955900000000004,0.012687806999999999,0.160163833,0.0,0.0,1569.0,1500.0,1000.0,1511.295659,1487.704341,1502.408682,16.41724084,16.81806131,11.76556818,15.79764361,15.81750595,16.20379971,15.55388639,15.93374212,152.15145990000002,152.15145990000002,11.76439188,-0.001488494,-0.005778541999999999,7.11e-05,-0.200335882,0.17958975,-0.029604797999999998,2.0,1.060812162,2.060812162,11,0,0,1,0,0.0,0,0,0,0,0,0.05777969,-0.18120588,-2.998818163,-3.120956615,-7.250850338999999,228.1362095,47.30297148,-0.011099088,0.011381648000000001,0.102240539,0.0,-1.499181349,-0.285159121,-9.326561649,-1.3900000000000002e-25,954.8512792000001,11.76590667,-0.146239369,-0.035737337,0.404464321,-1.518300645,-0.326502853,-9.291807224,-0.154163513,-0.019421658999999997,0.30910693699999997,-1.3900000000000002e-25,88.75598256,96.04371456,-3.2408355639999997,-2.8717333239999996,15.36467708,16.82599463,-0.029226366,0.187545245,-0.1,70.97622243,497.97863949999993,11.76556818,95484.90784,1.134518619,1.4522776430000002,1.4565044719999998,-3.9001338160000003,-0.06022823099999999,0.149753994,-0.08444790699999999,0.302876887,-0.138576329,-2.9850775919999997,0.087512865,-0.056464615,-0.155387362,-0.982344488,0.0,398726165.4,327430745.2,498854.3219,16.75369274,-16.57815343,2.293042609,2.288345669,3.0037502710000004,0,0,0.0,787999,39.8714138,32.7364368,130.8413155,566.7950806,-98.28725359,-16.55040476,1.663250013,2.423090581,-0.0037264679999999997,-3.341068093,0.826624445,98.43612148,-0.118657027,-0.014362274,0.230300483,0.0,54302351,0,0,1,0,0
1178,54337425,-0.025843194,0.010469131,0.159305135,0.0,0.0,1567.8561710000001,1500.0,1000.0,1511.1438289999999,1487.8561710000001,1502.0,16.37190999,16.77160793,11.76616982,15.84274373,15.86259105,16.24990717,15.59731475,15.97815374,152.9435227,152.9435227,11.7650022,-0.001489209,-0.005779088000000001,7.15e-05,-0.200335927,0.179589914,-0.029604511,2.0,1.063412683,2.063412683,11,0,0,1,0,0.0,0,0,0,0,0,0.05046679900000001,-0.183963745,-3.000611161,-3.121235112,-7.169153412000001,227.49734269999996,47.31893987,-0.011070305,0.011343186000000002,0.102241859,0.0,-1.507607098,-0.197403678,-9.276910575,-1.3900000000000002e-25,954.854252,11.76648424,-0.14154676,-0.034077848,0.477707428,-1.5360542240000001,-0.12695331099999999,-9.217775524,-0.153289218,-0.03115442,0.397464055,-1.3900000000000002e-25,88.61884872,95.93361036,-3.22841978,-2.9019150419999997,15.36459385,16.81179751,-0.028944089,0.181403843,-0.1,70.79045854,497.9336068,11.76616982,95485.44226,1.134524935,0.309521673,1.18716203,-3.206079392,-0.061863447,0.177384168,-0.172413893,0.29346367,-0.122794797,-2.98512977,0.08611024800000001,-0.049109015,-0.150227683,-0.9836684609999999,0.0,398726106.2,327430754.7,498761.5889,16.7385217,-16.58573875,2.147021404,2.305413083,3.012554363,0,0,0.0,787999,39.8714138,32.7364368,130.2249593,566.8571379,-98.19907204,-16.55105584,1.539351335,2.4545416209999997,0.04249566,-3.2582195960000004,0.956250499,98.34794183,-0.12112424,-0.023506821,0.22817574899999998,0.0,54337425,0,0,1,0,0
1179,54388499,-0.023514456,0.003205183,0.16139826599999998,0.0,0.0,1563.991998,1500.0,1000.0,1513.0,1486.0,1505.0,16.42819203,16.82924591,11.76677942,15.88784384,15.90767614,16.29601464,15.64074311,16.02256536,153.73558559999998,153.73558559999998,11.76561251,-0.001489924,-0.005779635,7.2e-05,-0.200335971,0.17959007899999999,-0.029604224,2.0,1.066013203,2.0660132030000002,11,0,0,1,0,0.0,0,0,0,0,0,0.043153907000000005,-0.18672161,-3.0024041589999997,-3.121513609,-7.087456486000001,226.85847579999998,47.33490827,-0.01103995,0.011345933999999998,0.101838636,0.0,-1.493617169,-0.09288545,-9.268549769,-1.3900000000000002e-25,954.8663471000001,11.76714638,-0.142734565,-0.016088327,0.5098033989999999,-1.571239711,0.023634706000000002,-9.155521826000001,-0.147945726,-0.027032042000000003,0.454851415,-1.3900000000000002e-25,88.49191999,95.82667089,-3.220517348,-2.920963159,15.3644799,16.80541616,-0.028818739,0.18011524199999998,-0.1,70.61046672,497.9201415,11.76677942,95485.57923999999,1.134526591,-0.140120796,0.37327100399999996,-1.9246235530000002,-0.077112145,0.177554309,-0.236186092,0.283653776,-0.10700729699999999,-2.9852090889999996,0.08475662199999999,-0.041753217999999995,-0.144852902,-0.984927647,0.0,398726047.1,327430764.2,498668.856,16.72335067,-16.59332408,2.0010002,2.322480496,3.021358456,0,0,0.0,787999,39.8714138,32.7364368,129.60926429999998,566.9084587,-98.10779086,-16.55035089,1.4167030919999999,2.495360736,0.028261841,-3.2824854180000003,1.035942741,98.25665833,-0.10759197699999999,-0.007751571,0.221999079,0.0,54388499,0,0,1,0,0
1180,54423574,-0.023378372,-0.004569508,0.161241617,0.0,0.0,1559.0,1500.0,1000.0,1513.0,1486.0,1511.0,16.40986632,16.81043414,11.76739985,15.93294395,15.95276123,16.342122099999997,15.68417147,16.06697698,154.5276485,154.5276485,11.76622282,-0.001490639,-0.005780181999999999,7.240000000000001e-05,-0.200336016,0.179590243,-0.029603937,2.0,1.068613723,2.068613723,11,0,0,1,0,0.0,0,0,0,0,0,0.035841016,-0.189479475,-3.004197156,-3.121792105,-7.00575956,226.219609,47.35087667,-0.01101592,0.011383542,0.101062504,0.0,-1.455272906,0.029845315,-9.305050281,-1.3900000000000002e-25,954.8883535,11.76790039,-0.127717122,0.0190192,0.5111541270000001,-1.498993349,0.19461367,-9.356633718,-0.137746511,-0.005683268000000001,0.47859055,-1.3900000000000002e-25,88.36499126,95.71973143,-3.212614917,-2.9400112760000003,15.36436594,16.79903482,-0.028693387999999997,0.17882664199999998,-0.1,70.43047489,497.76088,11.76739985,95487.40534,1.13454842,-0.395873945,0.37340614899999997,-0.522540274,-0.087520297,0.165246493,-0.25439870600000003,0.273379887,-0.09599772699999999,-2.985289176,0.083770419,-0.036761782,-0.139403059,-0.985998312,0.0,398725987.9,327430773.6,498576.12299999996,16.70817964,-16.60090941,1.854978996,2.33954791,3.0301625480000003,0,0,0.0,787999,39.8714138,32.7364368,128.9935692,566.9597795,-98.01650968,-16.54964593,1.2940548490000001,2.536179851,0.014028023,-3.3067512389999996,1.1156349840000002,98.16537484,-0.112925817,-0.005895167,0.21368796899999998,0.0,54423574,0,0,1,0,0
1181,54465295,-0.024720635,0.004160693,0.15206185,0.0,0.0,1554.6883380000002,1500.0,1000.0,1514.0,1485.0,1520.3116619999998,16.46266267,16.86433972,11.76802651,15.97804406,15.99784633,16.38822957,15.72759983,16.1113886,155.31971140000002,155.31971140000002,11.76683313,-0.001491355,-0.005780729,7.290000000000001e-05,-0.200336061,0.179590408,-0.02960365,2.0,1.071214243,2.071214243,11,0,0,1,0,0.0,0,0,0,0,0,0.028528125,-0.19223734,-3.0059901539999996,-3.122070602,-6.924062632999999,225.58074219999997,47.36684506,-0.010997553,0.011470458000000001,0.099985645,0.0,-1.416928644,0.152576081,-9.341550793,-1.3900000000000002e-25,954.9103599,11.76865439,-0.119849185,0.063103653,0.484471745,-1.598231364,0.317874502,-9.584618527,-0.127547297,0.015665506000000003,0.502329685,-1.3900000000000002e-25,88.23806253,95.61279196,-3.204712486,-2.9590593939999996,15.36425199,16.79265347,-0.028568037999999997,0.17753804199999998,-0.1,70.25048306,497.4958347,11.76802651,95490.4307,1.134584344,-0.795867436,-0.448241887,0.42697893,-0.11054647199999999,0.138515012,-0.214973652,0.269244448,-0.11180539099999999,-2.9798679889999997,0.08739312800000001,-0.04436199,-0.138043002,-0.985562024,0.0,398725928.7,327430783.1,498483.3901,16.693008600000002,-16.60849474,1.7089577919999999,2.356615323,3.038966641,0,0,0.0,787999,39.8714138,32.7364368,128.3510888,567.006419,-97.91913325,-16.5494944,1.161293302,2.576980144,0.004998196,-3.392036037,1.062471369,98.06799648,-0.116911111,0.022617413,0.19234069899999998,0.0,54465295,0,0,1,0,0
1182,54505722,-0.02742396,0.00604852,0.144820182,0.0,0.0,1551.073015,1500.0,1000.0,1515.463493,1483.536507,1527.390478,16.45560761,16.85689237,11.76866629,16.02314417,16.04293142,16.43433703,15.77102819,16.15580022,156.1117743,156.1117743,11.76744344,-0.00149207,-0.005781275,7.329999999999999e-05,-0.200336106,0.179590572,-0.029603362999999997,2.0,1.073814763,2.073814763,11,0,0,1,0,0.0,0,0,0,0,0,0.021215232999999997,-0.194995205,-3.007783152,-3.1223490989999996,-6.842365707000001,224.9418753,47.38281346,-0.010985227,0.011601288999999999,0.098690444,0.0,-1.513416155,0.25684685,-9.702199552,-1.3900000000000002e-25,954.9207982,11.76930371,-0.126139322,0.11343351300000001,0.443500545,-1.6420296730000001,0.42542248299999996,-10.08938195,-0.125132658,0.058404854000000006,0.47573588,-1.3900000000000002e-25,88.1111338,95.5058525,-3.1968100539999997,-2.978107511,15.36413804,16.78627213,-0.028442687999999997,0.176249442,-0.1,70.07049124,497.421571,11.76866629,95491.28542,1.134594472,-1.0756177279999999,-0.5400506079999999,2.156440131,-0.127376409,0.103952692,-0.145624232,0.25960624600000004,-0.127626924,-2.978488558,0.088834206,-0.052500955,-0.13389695,-0.9856037670000001,0.0,398725870.5,327430789.9,498389.2889,16.68239848,-16.6115193,1.569017804,2.393446689,3.047293115,0,0,0.0,787999,39.8714138,32.7364368,127.68190590000002,567.0483919,-97.81568048,-16.54989459,1.018449827,2.617761674,0.001156215,-3.538150508,0.8768640659999999,97.96454216,-0.11383199699999999,0.052880723,0.17536860399999998,0.0,54505722,0,0,1,0,0
1183,54540796,-0.024635892000000003,0.002174727,0.140378096,0.0,0.0,1548.0,1500.0,1000.0,1517.0,1482.0,1533.0,16.37032275,16.7695816,11.76933606,16.06824429,16.08801651,16.4804445,15.81445655,16.20021184,156.9038372,156.9038372,11.76805375,-0.001492785,-0.005781822,7.37e-05,-0.20033615100000002,0.179590737,-0.029603075,2.0,1.076415283,2.0764152830000002,11,0,0,1,0,0.0,0,0,0,0,0,0.013902342,-0.19775307,-3.00957615,-3.122627595,-6.760668781000001,224.3030085,47.39878185,-0.010979191000000001,0.011735468999999998,0.09728326400000001,0.0,-1.6267183509999998,0.358815499,-10.10327239,-1.3900000000000002e-25,954.9297938,11.76993996,-0.131971254,0.14672443,0.36772870399999996,-1.634843611,0.48427716,-10.75262204,-0.12368882099999999,0.103811791,0.44286512299999997,-1.3900000000000002e-25,87.99777395,95.39840725,-3.1592234660000003,-2.993098365,15.36404455,16.78167841,-0.028352681,0.17452725100000002,-0.1,69.89095482,497.4656637,11.76933606,95490.75682000001,1.134588147,0.111528006,-0.311163083,2.122172883,-0.13974313800000002,0.067033608,-0.04761723,0.24759038600000002,-0.143463485,-2.9785663110000002,0.08941221699999999,-0.060857432,-0.128543679,-0.985787987,0.0,398725812.4,327430795.9,498294.8492,16.67291658,-16.61341568,1.4305821159999998,2.435167033,3.05550144,0,0,0.0,787999,39.8714138,32.7364368,127.012723,567.0903647999999,-97.7122277,-16.55029477,0.875606352,2.658543205,-0.0026857659999999996,-3.6842649780000003,0.6912567629999999,97.86108784,-0.119964055,0.098546656,0.147966404,0.0,54540796,0,0,1,0,0
1184,54575870,-0.02467144,0.0039468559999999995,0.135382154,0.0,0.0,1550.0,1500.0,1000.0,1516.0,1483.0,1525.0,16.48012735,16.88199114,11.76997663,16.113344400000003,16.13310161,16.52655196,15.857884900000002,16.24462346,157.6959001,157.6959001,11.76866406,-0.0014935,-0.005782369,7.42e-05,-0.200336195,0.17959090100000002,-0.029602787999999998,2.0,1.0790158029999999,2.0790158030000003,11,0,0,1,0,0.0,0,0,0,0,0,0.00658945,-0.200510935,-3.011369147,-3.122906092,-6.678971855,223.6641417,47.41475025,-0.010980367,0.011845246,0.09582432199999999,0.0,-1.701819569,0.431291291,-10.47562555,-1.3900000000000002e-25,954.9396897,11.77057622,-0.132606046,0.143032558,0.302004567,-1.6079318390000001,0.565697934,-11.04101997,-0.122494478,0.134799684,0.39729169,-1.3900000000000002e-25,87.9208607,95.28960345,-3.041903852,-2.997191223,15.36400603,16.78188634,-0.028357608,0.171640417,-0.1,69.71264165,497.2924639,11.76997663,95492.73859,1.134611662,0.05627643,-1.5460694209999999,2.703749756,-0.151941468,0.037357693,0.055202289,0.235330867,-0.159318124,-2.978658977,0.089863643,-0.069239818,-0.123064276,-0.985888674,0.0,398725754.4,327430802.0,498200.4095,16.66343469,-16.61531206,1.292146429,2.4768873769999997,3.063709766,0,0,0.0,787999,39.8714138,32.7364368,126.39141200000002,567.1166194,-97.61437603,-16.54883461,0.727449025,2.665015706,0.053880692,-3.8667972739999996,0.280357717,97.76323955,-0.12309007699999999,0.132451985,0.127801128,0.0,54575870,0,0,1,0,0
1185,54614945,-0.024795562,0.011197833,0.13001322099999998,0.0,0.0,1551.0,1500.0,1000.0,1516.0,1483.0,1520.0,16.39971997,16.79950961,11.77064496,16.15844451,16.1781867,16.57265942,15.90131326,16.28903508,158.48796299999998,158.48796299999998,11.76927437,-0.001494216,-0.005782916,7.46e-05,-0.20033624,0.17959106600000002,-0.029602501,2.0,1.081616323,2.081616323,11,0,0,1,0,0.0,0,0,0,0,0,-0.000723441,-0.2032688,-3.013162145,-3.1231845889999996,-6.597274927999999,223.0252748,47.43071864,-0.010981138,0.011837937,0.09465182300000001,0.0,-1.6873437969999998,0.434609655,-10.78063427,-1.3900000000000002e-25,954.9516967000001,11.77121247,-0.130237131,0.127777181,0.222193157,-1.669146887,0.555244674,-11.29138765,-0.12188516699999999,0.131976544,0.321931911,-1.3900000000000002e-25,87.84394746,95.18079965,-2.9245842389999996,-3.00128408,15.3639675,16.78209427,-0.028362536,0.168753583,-0.1,69.53432849,497.19289800000007,11.77064496,95493.92388999999,1.134625827,-0.11293535099999999,-0.890020459,2.921980915,-0.152904997,0.014164873,0.167527758,0.223117067,-0.172029436,-2.978656117,0.090103331,-0.076065425,-0.117495395,-0.986045636,0.0,398725696.4,327430808.1,498105.9698,16.65395279,-16.61720844,1.1537107420000001,2.518607722,3.0719180919999998,0,0,0.0,787999,39.8714138,32.7364368,125.7747223,567.1413566000001,-97.51706506,-16.54719486,0.57877872,2.66817615,0.116278743,-4.052845204,-0.15229010699999998,97.66593245,-0.125815191,0.124901899,0.124476362,0.0,54614945,0,0,1,0,0
1186,54654019,-0.027057009,0.02256,0.12059934300000001,0.0,0.0,1553.0,1500.0,1000.0,1517.9291859999998,1481.0708140000002,1511.0,16.42472557,16.82505033,11.77131512,16.20354462,16.22327179,16.61876689,15.94474162,16.3334467,159.2800259,159.2800259,11.76988468,-0.0014949310000000001,-0.005783462,7.509999999999998e-05,-0.200336285,0.17959123,-0.029602213999999998,2.0,1.0842168429999999,2.084216843,11,0,0,1,0,0.0,0,0,0,0,0,-0.008036333,-0.20602666600000002,-3.0149551430000003,-3.123463085,-6.515578002000001,222.38640800000002,47.44668704,-0.010982823999999999,0.011721516999999999,0.093607253,0.0,-1.672868025,0.43792802,-11.08564299,-1.3900000000000002e-25,954.9637037,11.77184873,-0.14933562,0.085161692,0.148639208,-1.69346517,0.577965765,-11.13447703,-0.121275856,0.129153405,0.246572133,-1.3900000000000002e-25,87.76703422,95.07199586,-2.807264625,-3.005376937,15.36392898,16.7823022,-0.028367463,0.16586675,-0.1,69.35601532,497.0955927,11.77131512,95495.02462000001,1.1346388809999999,-0.47256862,-0.374532411,2.975263668,-0.16095020000000002,-0.0025743420000000003,0.270490594,0.21104673399999999,-0.181543807,-2.9787519330000003,0.090059634,-0.081313373,-0.11187785,-0.9862848320000001,0.0,398725638.4,327430814.1,498011.5301,16.64447089,-16.61910482,1.015275055,2.560328066,3.0801264180000003,0,0,0.0,787999,39.8714138,32.7364368,125.14114,567.1611707000001,-97.41746356,-16.54479893,0.42394972700000005,2.66161515,0.154170201,-4.159608672,-0.474529405,97.56633306,-0.12379849300000001,0.088067859,0.135374092,0.0,54654019,0,0,1,0,0
1187,54689093,-0.028473575,0.03597554,0.113334054,0.0,0.0,1555.0,1500.0,1000.0,1521.0,1478.0,1502.0,16.38444028,16.78377199,11.77198135,16.24864473,16.26835689,16.66487435,15.98816998,16.37785832,160.0720887,160.0720887,11.77049499,-0.001495646,-0.0057840090000000005,7.55e-05,-0.20033633,0.179591395,-0.029601927000000004,2.0,1.086817363,2.086817363,11,0,0,1,0,0.0,0,0,0,0,0,-0.015349224,-0.20878453100000002,-3.0167481410000003,-3.123741582,-6.4338810760000005,221.7475412,47.46265543,-0.010990069,0.011544575,0.092950743,0.0,-1.691656819,0.401026341,-11.0483641,3.221907087,954.9781188,11.77246829,-0.151897725,0.049566510999999994,0.09274633199999999,-1.7318310419999998,0.457703625,-10.92949432,-0.130569322,0.10398031,0.182640945,3.221907087,87.69012098,94.96319206,-2.6899450110000003,-3.009469795,15.36389046,16.78251013,-0.028372391,0.162979916,-0.1,69.17770216,496.9701501,11.77198135,95496.46534,1.134655974,0.201266373,-0.14773455300000002,2.861504651,-0.155087427,-0.021993246,0.35519420799999996,0.199646225,-0.18703829800000002,-2.97883515,0.08980671900000001,-0.084544657,-0.10644656300000001,-0.9866372409999999,0.0,398725581.0,327430818.4,497914.3845,16.6359912,-16.617994699999997,0.8718283659999999,2.577995599,3.088702071,0,0,0.0,787999,39.8714138,32.7364368,124.4721754,567.1706731,-97.3130644,-16.54081911,0.256221045,2.634692089,0.140731341,-4.1003067689999995,-0.565512385,97.46193236,-0.12743566,0.062412218,0.13939406699999998,0.0,54689093,0,0,1,0,0
1188,54728167,-0.031244742000000002,0.051297403,0.10460501900000001,0.0,0.0,1556.374475,1500.0,1000.0,1520.625525,1478.374475,1499.0,16.38899366,16.78827701,11.77262393,16.29374484,16.31344198,16.71098182,16.03159834,16.42226994,160.86415159999999,160.86415159999999,11.771105300000002,-0.001496361,-0.005784556,7.6e-05,-0.200336375,0.17959155899999998,-0.02960164,2.0,1.0894178840000002,2.089417884,11,0,0,1,0,0.0,0,0,0,0,0,-0.021775097,-0.21017145199999998,-3.0185385080000002,-3.124025305,-6.3521841320000005,221.11610240000002,47.47975273,-0.010999974,0.011319048,0.092542103,0.0,-1.7241113190000001,0.347601517,-10.87046705,7.767433897999999,954.9935232999999,11.77308099,-0.165372403,0.014186553999999999,0.049314287000000005,-1.624930727,0.407452466,-10.5613985,-0.143931034,0.069625434,0.12340483599999999,7.767433897999999,87.61214349,94.85422503,-2.577440893,-3.013141685,15.36385131,16.78271634,-0.028377297000000003,0.160043771,-0.1,68.99906225,496.8585398,11.77262393,95497.7128,1.1346707870000001,0.32888870000000003,-0.182938364,2.260692691,-0.14787154,-0.026582072,0.447194784,0.188892297,-0.19094692600000002,-2.9789358619999997,0.089469189,-0.086963447,-0.10127577800000001,-0.987002934,0.0,398725524.3,327430821.1,497814.8246,16.62840568,-16.61420213,0.723910782,2.574202841,3.0976054580000003,0,0,0.0,787999,39.8714138,32.7364368,123.8032108,567.1801755,-97.20866525,-16.5368393,0.088492364,2.607769027,0.12729248099999999,-4.041004867,-0.656495365,97.35753166,-0.138309152,0.021720552999999997,0.14513627699999998,0.0,54728167,0,0,1,0,0
1189,54767241,-0.034473323,0.066141269,0.096823331,0.0,0.0,1557.0,1500.0,1000.0,1521.473695,1477.526305,1494.0,16.35079677,16.748988,11.77326371,16.33884496,16.35852707,16.75708928,16.0750267,16.46668157,161.6562145,161.6562145,11.77171562,-0.001497076,-0.005785103000000001,7.64e-05,-0.200336419,0.17959172399999998,-0.029601352999999997,2.0,1.092018404,2.092018404,11,0,0,1,0,0.0,0,0,0,0,0,-0.025511904,-0.20740225,-3.020320902,-3.1243248710000002,-6.270487137000001,220.50718219999996,47.50027238,-0.011011208,0.011086003,0.092413248,0.0,-1.74705875,0.293417147,-10.66346218,11.23428129,955.0078989,11.77369368,-0.18157675199999998,-0.015430451000000001,0.022809217000000003,-1.5717789519999998,0.274560275,-10.02744741,-0.157205032,0.035881731,0.067880519,11.23428129,87.46293789,94.73433321,-2.787230998,-2.988638815,15.36377056,16.78280766,-0.02838074,0.153807325,-0.1,68.79855440000001,496.6636885,11.77326371,95499.97202,1.13469767,-0.188396125,-0.35066496399999997,1.1063807190000001,-0.132545995,-0.014381787,0.49757934299999995,0.17901482800000001,-0.17875836399999998,-2.979024442,0.088502129,-0.081379933,-0.09595497900000001,-0.988094107,0.0,398725467.6,327430823.7,497715.2647,16.62082016,-16.61040956,0.575993199,2.570410082,3.106508845,0,0,0.0,787999,39.8714138,32.7364368,123.17310859999999,567.1781899,-97.11180285,-16.53020219,-0.057623414000000005,2.591814149,0.19189521,-3.83608937,-0.472070195,97.26066999,-0.15178903800000002,-0.018755158,0.14948872900000001,0.0,54767241,0,0,1,0,0
1190,54810316,-0.03371572,0.05368052,0.099052294,0.0,0.0,1558.0,1500.0,1000.0,1521.0,1478.0,1492.0,16.44867672,16.84912234,11.77390277,16.38394507,16.40361217,16.80319675,16.11845506,16.51109319,162.4482774,162.4482774,11.77232593,-0.0014977920000000002,-0.005785649,7.68e-05,-0.200336464,0.179591888,-0.029601066000000002,2.0,1.0946189240000002,2.094618924,11,0,0,1,0,0.0,0,0,0,0,0,-0.02924871,-0.20463304899999998,-3.0221032969999997,-3.124624437,-6.188790142,219.89826200000002,47.52079204,-0.011019703,0.010875441000000001,0.092525055,0.0,-1.699388175,0.233590911,-10.24024588,6.688754479,955.0146321000001,11.77430619,-0.195966837,-0.038593856,0.007783305999999999,-1.574604097,0.096558251,-9.400838569,-0.16982749800000002,0.006677784,0.039927202,6.688754479,87.31373229,94.61444139,-2.9970211030000002,-2.964135945,15.363689800000001,16.78289897,-0.028384184,0.14757087800000002,-0.1,68.59804654,496.57271160000005,11.77390277,95501.00529,1.134709958,0.400196547,0.58361832,0.7374609990000001,-0.127257418,0.026213284,0.5099065660000001,0.169995659,-0.175515833,-2.979126004,0.087957731,-0.08017837,-0.091375835,-0.9886766770000001,0.0,398725410.9,327430826.4,497615.7047,16.61323465,-16.60661699,0.428075615,2.566617323,3.1154122319999997,0,0,0.0,787999,39.8714138,32.7364368,122.5570659,567.172048,-97.01766709,-16.52260373,-0.195920138,2.57982731,0.284731602,-3.578494202,-0.18800865,97.16653577,-0.163706294,-0.045393059000000006,0.148934738,0.0,54810316,0,0,1,0,0
1191,54849390,-0.034108603,0.041479296,0.102460854,0.0,0.0,1558.0,1500.0,1000.0,1521.0,1478.0,1490.0,16.42912057,16.82905933,11.77454226,16.42904518,16.44869726,16.84930421,16.16188342,16.55550481,163.2403403,163.2403403,11.77293624,-0.001498507,-0.0057861959999999995,7.730000000000001e-05,-0.200336509,0.179592052,-0.029600777999999998,2.0,1.097219444,2.0972194440000003,11,0,0,1,0,0.0,0,0,0,0,0,-0.032985516,-0.20186384699999999,-3.0238856910000003,-3.1249240030000003,-6.107093146,219.28934180000002,47.54131169,-0.011027071000000001,0.010696028,0.09282363,0.0,-1.6517176,0.173764675,-9.817029582,2.143227668,955.0213653,11.774918699999999,-0.20432214399999998,-0.041052974,0.014313213,-1.615766559,0.025600436,-9.131092706,-0.182449964,-0.022526163,0.011973885,2.143227668,87.16452668,94.49454956,-3.2068112089999996,-2.939633075,15.36360904,16.78299029,-0.028387627000000002,0.14133443199999998,-0.1,68.39753868,496.58503679999995,11.77454226,95500.84739,1.134708042,0.091976995,1.11616575,-0.513634412,-0.124801248,0.069305352,0.49373690000000003,0.161689531,-0.176770756,-2.9792287039999996,0.087616493,-0.08116902299999999,-0.087311278,-0.9889943990000001,0.0,398725354.2,327430829.0,497516.1448,16.60564913,-16.60282442,0.280158032,2.562824565,3.124315619,0,0,0.0,787999,39.8714138,32.7364368,121.93356399999999,567.1638399,-96.9222922,-16.51469774,-0.331470512,2.573187317,0.360174782,-3.3130172,0.10556367400000001,97.07116186,-0.167197579,-0.060989333,0.148229907,0.0,54849390,0,0,1,0,0
1192,54892464,-0.038178361,0.023261972000000002,0.10649226,0.0,0.0,1556.0,1500.0,1000.0,1521.018204,1477.981796,1496.0,16.3525389,16.75065197,11.77518156,16.45018207,16.46973906,16.87078107,16.18409914,16.5781853,163.6027573,163.6027573,11.77359138,-0.001499189,-0.0057866490000000005,7.79e-05,-0.20034177399999997,0.179589069,-0.02959496,2.0,1.0998199640000001,2.099819964,11,0,0,1,0,0.0,0,0,0,0,0,-0.036722323,-0.199094645,-3.025668085,-3.1252235689999996,-6.025396151,218.6804216,47.56183134,-0.011029072,0.010561101000000002,0.09323112900000001,0.0,-1.6040396380000002,0.109905387,-9.505912894,-1.3900000000000002e-25,955.0329710000001,11.77553754,-0.21356049800000002,-0.039784024,0.025955004,-1.589546027,0.061215333,-8.984388409,-0.194485063,-0.036988932999999995,0.008052159,-1.3900000000000002e-25,87.01532108,94.37465774,-3.416601314,-2.915130206,15.36352829,16.783081600000003,-0.028391071,0.135097985,-0.1,68.19703082,496.45538020000004,11.77518156,95502.34207,1.134725818,-0.264482763,1.135574186,-0.945486295,-0.121908382,0.122885274,0.446829955,0.14487423900000002,-0.17587798699999999,-2.986329004,0.08338656,-0.081740308,-0.07867033400000001,-0.990036299,0.0,398725296.9,327430830.8,497416.4881,16.59854771,-16.59709537,0.134176835,2.55854771,3.133151401,0,0,0.0,787999,39.8714138,32.7364368,121.2662623,567.1434986,-96.81964134,-16.50498595,-0.450894631,2.5979434009999998,0.333487002,-3.0012589689999998,0.454982207,96.96850868,-0.177981718,-0.071385882,0.142334019,0.0,54892464,0,0,1,0,0
1193,54931538,-0.042189212999999996,0.006625204,0.111047659,0.0,0.0,1555.866373,1500.0,1000.0,1519.133627,1479.866373,1496.267253,16.34210019,16.73982057,11.77582081,16.449939999999998,16.46933048,16.87028357,16.18738987,16.58147823,163.5818628,163.5818628,11.77428651,-0.0014998429999999998,-0.005787019,7.859999999999999e-05,-0.200351697,0.179583278,-0.029584206000000002,2.0,1.102420484,2.102420484,11,0,0,1,0,0.0,0,0,0,0,0,-0.040459128999999996,-0.19632544300000002,-3.0274504789999996,-3.125523134,-5.943699156,218.0715014,47.58235099,-0.011026003000000001,0.010493016,0.09368019,0.0,-1.5563550869999998,0.042447982999999995,-9.294806645,-1.3900000000000002e-25,955.0489236999999,11.77616202,-0.214195479,-0.035368277999999996,0.060417645,-1.555598078,-0.032216792,-8.878430972,-0.20599613600000002,-0.038300258999999996,0.025570382000000003,-1.3900000000000002e-25,86.86611548,94.25476592,-3.62639142,-2.890627336,15.36344753,16.78317292,-0.028394514,0.128861539,-0.1,67.99652296,496.33775130000004,11.77582081,95503.70115,1.134741959,-0.334144663,1.454920415,-1.121018598,-0.117778685,0.148390438,0.39103680700000004,0.137521075,-0.17390203899999998,-2.986449313,0.082968315,-0.081071343,-0.074954566,-0.9904154009999999,0.0,398725238.0,327430829.8,497316.5489,16.59285857,-16.58571691,-0.006155231,2.552858572,3.1417899589999996,0,0,0.0,787999,39.8714138,32.7364368,120.5989606,567.1231572,-96.71699047,-16.49527417,-0.570318749,2.622699485,0.306799223,-2.689500738,0.80440074,96.86585550000001,-0.180980749,-0.052653159000000005,0.129397484,0.0,54931538,0,0,1,0,0
1194,54970613,-0.041587199,-0.0014676189999999999,0.114371754,0.0,0.0,1555.0,1500.0,1000.0,1520.0,1479.0,1496.0,16.39455759,16.79340764,11.77646531,16.44969793,16.46892189,16.86978607,16.190680599999997,16.58477116,163.5609683,163.5609683,11.77498164,-0.001500496,-0.005787389,7.929999999999999e-05,-0.20036162,0.179577486,-0.029573452000000004,2.0,1.1050210040000001,2.105021004,11,0,0,1,0,0.0,0,0,0,0,0,-0.044195936,-0.19355624100000002,-3.029232873,-3.1258227,-5.862002161,217.4625812,47.60287064,-0.011014288999999998,0.010462999,0.094108043,0.0,-1.508670536,-0.025009421,-9.083700396000001,-1.3900000000000002e-25,955.0648764,11.7767865,-0.227851702,-0.025819377,0.09543354400000001,-1.5396199609999999,0.010214403,-8.861609222,-0.21750721,-0.039611586000000004,0.043088605,-1.3900000000000002e-25,86.71947715,94.14571866,-3.637830358,-2.905081716,15.36332805,16.77999096,-0.028333266,0.131241818,-0.1,67.8062242,496.23463219999996,11.77646531,95504.87936,1.134755983,0.8873904659999999,0.8371237840000001,-1.55657104,-0.117339817,0.15778827,0.336752125,0.13039705699999998,-0.16873291199999998,-2.986574441,0.082464705,-0.078807966,-0.07123671599999999,-0.990914733,0.0,398725179.0,327430828.9,497216.6097,16.58716943,-16.57433844,-0.146487297,2.547169434,3.150428517,0,0,0.0,787999,39.8714138,32.7364368,119.9611822,567.0982311,-96.61650789,-16.48627547,-0.673757693,2.656692248,0.282288827,-2.497157631,0.996696578,96.7653721,-0.18272361,-0.046315265999999994,0.12102143800000001,0.0,54970613,0,0,1,0,0
1195,55005687,-0.043959881,-0.011520035,0.11567749199999999,0.0,0.0,1553.0,1500.0,1000.0,1521.437287,1477.562713,1496.688138,16.3662528,16.76429265,11.77713035,16.44945586,16.46851331,16.86928858,16.19397133,16.58806409,163.54007380000002,163.54007380000002,11.77567677,-0.001501149,-0.005787759,8e-05,-0.200371543,0.179571695,-0.029562698999999998,2.0,1.107621524,2.1076215240000002,11,0,0,1,0,0.0,0,0,0,0,0,-0.047932742,-0.190787039,-3.031015268,-3.1261222660000003,-5.780305165,216.853661,47.6233903,-0.01099839,0.010439951999999999,0.094496378,0.0,-1.506967126,-0.034908044,-8.999207282,-1.3900000000000002e-25,955.0783512,11.77758795,-0.228867166,-0.020321343000000002,0.13298892699999998,-1.547522703,-0.061736587999999995,-8.910592099,-0.219838423,-0.035019237,0.072374747,-1.3900000000000002e-25,86.57365778,94.04013084,-3.5859949980000003,-2.931963512,15.36319621,16.77576482,-0.028251382000000002,0.136370845,-0.1,67.61918215,496.18906339999995,11.77713035,95505.37381,1.134761817,0.45830685299999996,-0.035721451,-1.696489048,-0.12835225,0.150714085,0.276293717,0.123613739,-0.16724483699999998,-2.986624103,0.08213058200000001,-0.078350771,-0.067820028,-0.991217224,0.0,398725120.0,327430827.9,497116.6705,16.581480300000003,-16.56295997,-0.28681936399999997,2.541480296,3.1590670739999998,0,0,0.0,787999,39.8714138,32.7364368,119.3469125,567.0696542999999,-96.51775186,-16.47784458,-0.7644679759999999,2.698039983,0.259512235,-2.399902289,1.063878904,96.66661646,-0.184742598,-0.040363146,0.114002076,0.0,55005687,0,0,1,0,0
