timestamp,roll_body,pitch_body,yaw_body,yaw_sp_move_rate,q_d[0],q_d[1],q_d[2],q_d[3],thrust_body[0]
9144000,0.007868854,0,2.405463,0,0.35980776,0.001415645,0.003670911,0.93301815,0.15
9168000,0.007756463,0,2.4053264,0,0.35987157,0.001395672,0.003618384,0.93299377,0.15
9192000,0.007676402,0,2.4053264,0,0.35987163,0.001381267,0.003581036,0.9329939,0.15
9216000,0.007634909,0,2.4051898,0,0.3599354,0.001374044,0.003561586,0.93296945,0.15
9240000,0.007575062,0,2.4051898,0,0.35993546,0.001363273,0.003533668,0.93296957,0.15
9264000,0,0,1.6196171,0,0.68963706,0,0,0.7241552,0
9288000,0,0,1.6196171,0,0.68963706,0,0,0.7241552,1
9312000,0,0,1.6196171,0,0.68963706,0,0,0.7241552,1
9336000,0,0,1.6196171,0,0.68963706,0,0,0.7241552,1
9360000,0,0,1.6196171,0,0.68963706,0,0,0.7241552,1
9384000,0,0,1.6196171,0,0.68963706,0,0,0.7241552,1
9408000,0,0,1.6196171,0,0.68963706,0,0,0.7241552,1
9432000,0,0,1.6196171,0,0.68963706,0,0,0.7241552,1
9456000,0,0,1.6196171,0,0.68963706,0,0,0.7241552,1
9480000,0,0,1.6196171,0,0.68963706,0,0,0.7241552,1
9504000,0,0,1.6196171,0,0.68963706,0,0,0.7241552,1
9528000,0,0,1.6196171,0,0.68963706,0,0,0.7241552,1
9552000,0,0,1.6196171,0,0.68963706,0,0,0.7241552,1
9576000,0,0,1.6196171,0,0.68963706,0,0,0.7241552,1
9600000,0,0,1.6196171,0,0.68963706,0,0,0.7241552,1
9624000,0,0,1.6196171,0,0.68963706,0,0,0.7241552,1
9648000,0,0,1.6196171,0,0.68963706,0,0,0.7241552,1
9672000,0,0,1.6196171,0,0.68963706,0,0,0.7241552,1
9696000,0,0,1.6196171,0,0.68963706,0,0,0.7241552,1
9720000,0,-0.2652124,1.6196171,0,0.6835825,0.09574628,-0.091182366,0.7177976,1
9744000,0,-0.25010222,1.6196171,0,0.6842519,0.09032058,-0.08601529,0.7185005,1
9768000,0,-0.23590183,1.6196171,0,0.6848453,0.08521685,-0.08115484,0.71912366,1
9792000,0,-0.22263223,1.6196171,0,0.6853687,0.08044377,-0.076609276,0.7196732,1
9816000,0,-0.2101332,1.6196171,0,0.6858341,0.07594462,-0.07232458,0.72016186,1
9840000,0,-0.19827937,1.6196171,0,0.68625075,0.071674965,-0.06825846,0.72059935,1
9864000,0,-0.18697076,1.6196171,0,0.6866257,0.067599356,-0.064377114,0.7209931,1
9888000,0,-0.17621501,1.6196171,0,0.686962,0.063720986,-0.060683616,0.7213462,1
9912000,0,-0.16592832,1.6196171,0,0.68726504,0.060010027,-0.057149544,0.7216644,1
9936000,0,-0.15604234,1.6196171,0,0.6875391,0.05644213,-0.05375172,0.72195226,1
9960000,0,-0.1465004,1.6196171,0,0.6877877,0.052997086,-0.050470885,0.72221327,1
9984000,0,-0.1373216,1.6196171,0,0.6880121,0.04968202,-0.04731384,0.7224489,1
10008000,0,-0.12845515,1.6196171,0,0.6882151,0.046478756,-0.044263266,0.72266203,1
10032000,0,-0.11985828,1.6196171,0,0.688399,0.043372024,-0.04130462,0.72285515,1
10056000,0,-0.11149474,1.6196171,0,0.68856573,0.040348843,-0.038425542,0.7230302,1
10080000,0,-0.10333343,1.6196171,0,0.68871677,0.037398074,-0.03561543,0.7231889,1
10104000,0,-0.09537907,1.6196171,0,0.68885297,0.034521535,-0.032876007,0.72333187,1
10128000,0,-0.08760448,1.6196171,0,0.6889756,0.031709474,-0.030197987,0.7234606,1
10152000,0,-0.079986066,1.6196171,0,0.68908566,0.02895344,-0.027573325,0.7235761,1
10176000,0,-0.07250319,1.6196171,0,0.68918395,0.02624603,-0.024994968,0.7236794,1
10200000,0,-0.06515812,1.6196171,0,0.6892711,0.023588123,-0.022463754,0.7237709,1
10224000,0,-0.05793278,1.6196171,0,0.68934774,0.020973228,-0.019973502,0.7238514,1
10248000,0,-0.050811186,1.6196171,0,0.6894145,0.018395614,-0.017518755,0.7239215,1
10272000,0,-0.04377911,1.6196171,0,0.68947184,0.01585017,-0.015094643,0.72398174,1
10296000,0,-0.036836207,1.6196171,0,0.68952006,0.013336811,-0.012701089,0.72403234,1
10320000,0,-0.02997009,1.6196171,0,0.68955964,0.010851093,-0.010333856,0.7240739,1
10344000,0,-0.023169613,1.6196171,0,0.68959075,0.00838901,-0.007989133,0.7241066,1
10368000,0,-0.016424742,1.6196171,0,0.6896138,0.005946964,-0.005663492,0.72413075,1
10392000,0,-0.009736234,1.6196171,0,0.6896289,0.003525259,-0.003357221,0.7241466,1
10416000,0,-0.003095231,1.6196171,0,0.68963623,0.001120713,-0.001067293,0.72415435,1
10440000,0,0.003506344,1.6196171,0,0.689636,-0.001269568,0.001209052,0.72415406,1
10464000,0,0.010075843,1.6196171,0,0.6896283,-0.003648222,0.003474323,0.724146,1
10488000,0,0.016615067,1.6196171,0,0.6896133,-0.006015874,0.005729117,0.7241302,1
10512000,0,0.023130408,1.6196171,0,0.68959093,-0.008374816,0.007975616,0.7241067,1
10536000,0,0.029627696,1.6196171,0,0.68956137,-0.010727133,0.010215805,0.72407573,1
10560000,0,0.036112264,1.6196171,0,0.68952465,-0.013074731,0.012451501,0.7240371,1
10584000,0,0.042582233,1.6196171,0,0.6894807,-0.015416907,0.014682033,0.72399104,1
10608000,0,0.049042374,1.6196171,0,0.6894297,-0.017755365,0.016909026,0.72393745,1
10632000,0,0.05549707,1.6196171,0,0.6893716,-0.020091666,0.019133963,0.7238764,1
10656000,0,0.06195033,1.6196171,0,0.68930626,-0.02242724,0.021358207,0.7238078,1
10680000,0,0.06840583,1.6196171,0,0.6892337,-0.024763389,0.023582999,0.7237317,1
10704000,0,0.074864335,1.6196171,0,0.68915397,-0.02710037,0.025808584,0.72364795,1
10728000,0,0.081329,1.6196171,0,0.68906695,-0.029439295,0.028036019,0.7235565,1
10752000,0,0.08780274,1.6196171,0,0.6889726,-0.031781193,0.030266287,0.72345746,1
10776000,0,0.09428817,1.6196171,0,0.6888708,-0.03412699,0.032500267,0.7233506,1
10800000,0,0.1007884,1.6196171,0,0.68876153,-0.036477778,0.034739,0.72323585,1
10824000,0,0.10730558,1.6196171,0,0.6886447,-0.038834307,0.036983203,0.7231131,1
10848000,0,0.11384166,1.6196171,0,0.68852013,-0.04119726,0.03923352,0.72298235,1
10872000,0,0.12039841,1.6196171,0,0.6883878,-0.043567244,0.041490532,0.7228434,1
10896000,0,0.12697442,1.6196171,0,0.6882477,-0.045943715,0.04375373,0.7226963,1
10920000,0,0.13357115,1.6196171,0,0.6880996,-0.048327174,0.046023577,0.7225408,1
10944000,0,0.14018992,1.6196171,0,0.6879436,-0.050718073,0.04830051,0.72237694,1
10968000,0,0.1468319,1.6196171,0,0.68777937,-0.0531168,0.050584894,0.7222045,1
10992000,0,0.15350004,1.6196171,0,0.68760693,-0.055524375,0.05287771,0.7220234,1
11016000,0,0.16019513,1.6196171,0,0.68742603,-0.057941064,0.0551792,0.72183347,1
11040000,0,0.16691785,1.6196171,0,0.68723667,-0.060367078,0.057489574,0.7216346,1
11064000,0,0.17366877,1.6196171,0,0.6870387,-0.062802576,0.059808984,0.7214268,1
11088000,0,0.18044682,1.6196171,0,0.6868321,-0.06524714,0.062137023,0.72120976,1
11112000,0,0.18725234,1.6196171,0,0.6866166,-0.06770087,0.064473785,0.72098356,1
11136000,0,0.19408557,1.6196171,0,0.68639237,-0.07016379,0.06681931,0.72074807,1
11160000,0,0.20094661,1.6196171,0,0.6861591,-0.07263592,0.0691736,0.72050315,1
11184000,0,0.2078372,1.6196171,0,0.68591666,-0.07511782,0.0715372,0.7202486,1
11208000,0,0.2147572,1.6196171,0,0.6856651,-0.07760943,0.073910035,0.7199844,1
11232000,0,0.22170645,1.6196171,0,0.6854041,-0.08011063,0.076292016,0.7197104,1
11256000,0,0.22868468,1.6196171,0,0.68513376,-0.08262129,0.078683004,0.71942645,1
11280000,0,0.23569155,1.6196171,0,0.6848539,-0.08514124,0.081082836,0.7191326,1
11304000,0,0.24272682,1.6196171,0,0.6845644,-0.087670356,0.08349139,0.7188287,1
11328000,0,0.24979001,1.6196171,0,0.6842653,-0.09020841,0.08590847,0.71851456,1
11352000,0,0.25688055,1.6196171,0,0.68395644,-0.09275517,0.08833383,0.71819025,1
11376000,0,0.26399776,1.6196171,0,0.68363774,-0.09531033,0.0907672,0.7178556,1
11400000,0,0.27114293,1.6196171,0,0.68330914,-0.09787432,0.09320897,0.7175105,1
11424000,0,0.27831522,1.6196171,0,0.68297046,-0.10044678,0.09565881,0.7171549,1
11448000,0,0.28551382,1.6196171,0,0.6826217,-0.10302738,0.0981164,0.7167887,1
11472000,0,0.29273787,1.6196171,0,0.6822629,-0.10561576,0.1005814,0.7164119,1
11496000,0,0.2999877,1.6196171,0,0.6818938,-0.108211994,0.10305388,0.71602434,1
11520000,0,0.30726236,1.6196171,0,0.6815145,-0.1108157,0.10553347,0.71562606,1
11544000,0,0.31456083,1.6196171,0,0.6811248,-0.11342643,0.10801976,0.7152169,1
11568000,0,0.32188207,1.6196171,0,0.68072486,-0.116043806,0.110512376,0.7147969,1
11592000,0,0.32922503,1.6196171,0,0.6803145,-0.11866738,0.11301089,0.714366,1
11616000,0,0.33658865,1.6196171,0,0.6798938,-0.12129673,0.11551491,0.7139242,1
11640000,0,0.34397185,1.6196171,0,0.67946273,-0.12393142,0.118024014,0.7134716,1
11664000,0,0.34906584,1.6196171,0,0.67915994,-0.12574823,0.11975422,0.7131536,1
11688000,0,0.34906584,1.6196171,0,0.67915994,-0.12574823,0.11975422,0.7131536,1
11712000,0,0.34906584,1.6196171,0,0.67915994,-0.12574823,0.11975422,0.7131536,1
11736000,0,0.34906584,1.6196171,0,0.67915994,-0.12574823,0.11975422,0.7131536,1
11760000,0,0.34906584,1.6196171,0,0.67915994,-0.12574823,0.11975422,0.7131536,1
11784000,-0.35629976,0.34906584,1.5537057,0,0.66960204,-0.24425943,-0.00047034,0.7014058,1
11808000,-0.331806,0.34906584,1.553529,0,0.6726051,-0.23604009,0.00814037,0.7012996,1
11832000,-0.34623942,0.34906584,1.5466056,0,0.673308,-0.24087578,0.003912993,0.6990135,1
11856000,-0.3500459,0.34906584,1.5465026,0,0.67288435,-0.24215668,0.002595075,0.69898504,1
11880000,-0.35369614,0.34906584,1.5463105,0,0.6725083,-0.24338424,0.001342706,0.69892395,1
11904000,-0.35685384,0.34906584,1.5462066,0,0.6721596,-0.24444573,0.000251904,0.6988903,1
11928000,-0.3699026,0.34906584,1.5392128,0,0.6729902,-0.24883947,-0.003437758,0.69652796,1
11952000,-0.3729641,0.34906584,1.5390085,0,0.67267966,-0.2498698,-0.004478432,0.6964532,1
11976000,-0.37545627,0.34906584,1.5388938,0,0.67240775,-0.25070813,-0.005331889,0.6964085,1
12000000,-0.3777576,0.34906584,1.5386899,0,0.67218983,-0.2514823,-0.006107576,0.69633335,1
12024000,-0.38943806,0.34906584,1.5317295,0,0.6731288,-0.25543758,-0.009285264,0.6939474,1
12048000,-0.39097905,0.34906584,1.5315171,0,0.6730054,-0.2559572,-0.009792782,0.6938686,1
12072000,-0.39222482,0.34906584,1.5313046,0,0.67291963,-0.25637743,-0.010197751,0.6937909,1
12096000,-0.39295202,0.34906584,1.5311825,0,0.6728687,-0.25662273,-0.01043433,0.69374603,1
12120000,-0.4033277,0.34906584,1.5240844,0,0.673986,-0.26015815,-0.013109997,0.69129497,1
12144000,-0.40369925,0.34906584,1.5239578,0,0.6739815,-0.26028422,-0.013221927,0.69124985,1
12168000,-0.4041605,0.34906584,1.5237421,0,0.6739959,-0.26044106,-0.013353273,0.6911741,1
12192000,-0.40419137,0.34906584,1.5236193,0,0.6740343,-0.2604523,-0.013347961,0.6911324,1
12216000,-0.41381982,0.34906584,1.5164855,0,0.67523336,-0.263752,-0.015734367,0.6886561,1
12240000,-0.41359687,0.34906584,1.516268,0,0.6753376,-0.26367846,-0.015628912,0.6885844,1
12264000,-0.41306803,0.34906584,1.516143,0,0.6754504,-0.26350084,-0.015430369,0.68854624,1
12288000,-0.4220212,0.34906584,1.5089842,0,0.67672396,-0.26658645,-0.017558455,0.68605244,1
12312000,-0.4210419,0.34906584,1.5088515,0,0.67689997,-0.2662562,-0.017204858,0.6860161,1
12336000,-0.41996902,0.34906584,1.5086293,0,0.67711896,-0.26589492,-0.016807303,0.68595004,1
12360000,-0.418916,0.34906584,1.5085044,0,0.67730165,-0.2655394,-0.016429566,0.6859164,1
12384000,-0.42738137,0.34906584,1.5013233,0,0.6786298,-0.2684715,-0.018368855,0.6834085,1
12408000,-0.42598882,0.34906584,1.5011944,0,0.67886066,-0.2680001,-0.017875701,0.6833773,1
12432000,-0.4244985,0.34906584,1.5009727,0,0.6791359,-0.26749608,-0.01733683,0.6833153,1
12456000,-0.42280293,0.34906584,1.5008446,0,0.67940617,-0.26692128,-0.016740434,0.6832862,1
12480000,-0.43049878,0.34139243,1.4936354,0,0.68185323,-0.26719666,-0.021203205,0.6806119,0.40080243
12504000,-0.4285787,0.3337202,1.4933894,0,0.6832015,-0.26413524,-0.023322023,0.6803855,0.4234835
12528000,-0.42592925,0.32604828,1.493059,0,0.68465817,-0.2608198,-0.025182426,0.68013376,0.44484073
12552000,-0.4232232,0.31837568,1.4925689,0,0.6861589,-0.2574806,-0.027004413,0.679824,0.4650283
12576000,-0.4298637,0.31070143,1.4850521,0,0.6888291,-0.25745645,-0.031099536,0.6769516,0.48400396
12600000,-0.4269258,0.3030165,1.4844958,0,0.69036156,-0.25403586,-0.03285279,0.67659986,0.50280154
12623999,-0.42368412,0.295321,1.4840338,0,0.6918825,-0.25049904,-0.034520984,0.6762818,0.5202569
12648000,-0.42042178,0.2876138,1.4834839,0,0.69341713,-0.24694633,-0.036177352,0.67593,0.5363334
12672000,-0.4263354,0.27989602,1.4757792,0,0.6962206,-0.24671441,-0.040056452,0.6729075,0.55108404
12696000,-0.4228267,0.27215913,1.4752063,0,0.6977709,-0.24306695,-0.041653268,0.67253196,0.5655779
12719999,-0.41913927,0.2644041,1.4747517,0,0.6992837,-0.239342,-0.043213062,0.6721982,0.57873094
12744000,-0.41555208,0.2566307,1.4742202,0,0.7007905,-0.235641,-0.044806078,0.671832,0.5905917
12768000,-0.42159367,0.24884078,1.4664401,0,0.7035809,-0.23548487,-0.048786245,0.66868585,0.6012606
12792000,-0.41829315,0.24102741,1.4659506,0,0.7050178,-0.23187098,-0.050510496,0.6683071,0.61170954
12815999,-0.4149169,0.23319224,1.4655966,0,0.7063996,-0.22821368,-0.05223477,0.66797435,0.62101805
12840000,-0.4116758,0.2253357,1.4651827,0,0.7077672,-0.22459263,-0.054006673,0.66761297,0.62921923
12864000,-0.40845665,0.2174603,1.4649025,0,0.7090687,-0.22096351,-0.055809155,0.6672945,0.6364504
12888000,-0.41487026,0.209559,1.4571683,0,0.71177703,-0.22096397,-0.0600108,0.6640385,0.64372575
12911999,-0.41191375,0.2016339,1.4568416,0,0.713045,-0.21741478,-0.06192773,0.6636736,0.650099
12936000,-0.40892267,0.19640833,1.4566536,0,0.71397275,-0.21469875,-0.06284969,0.66347367,0.65560514
12960000,-0.40620303,0.19770192,1.4564031,0,0.7142142,-0.21414539,-0.061441585,0.66352445,0.66036034
12984000,-0.4034005,0.19877896,1.4562865,0,0.7144419,-0.21348935,-0.06010034,0.6636137,0.66480196
13007999,-0.41046765,0.19974071,1.4485813,0,0.7161339,-0.2165546,-0.061254904,0.6606847,0.6685482
13032000,-0.4078097,0.2005703,1.4485142,0,0.7163574,-0.21586624,-0.060061306,0.66077715,0.6716314
13056000,-0.4052105,0.20132546,1.4483671,0,0.71660805,-0.2151775,-0.05890601,0.66083395,0.6741664
13080000,-0.40245694,0.20198905,1.448329,0,0.7168481,-0.21440111,-0.057745345,0.6609286,0.67616147
13104000,-0.3996899,0.20253468,1.4482032,0,0.71712965,-0.21358484,-0.056614578,0.66098523,0.6779853
13128000,-0.39670756,0.2030204,1.4481753,0,0.71740687,-0.21266928,-0.05544523,0.6610786,0.6793478
13152000,-0.4033688,0.20345332,1.4406586,0,0.71912885,-0.21540853,-0.056676596,0.6582102,0.68029666
13175999,-0.40043402,0.2038427,1.4405463,0,0.7194411,-0.2144784,-0.055553384,0.65826845,0.6808895
13200000,-0.3971981,0.20413877,1.440529,0,0.71976256,-0.21340758,-0.054375947,0.65836334,0.6812997
13224000,-0.39398992,0.20442586,1.440411,0,0.72011364,-0.21234608,-0.053200126,0.6584188,0.6814294
13248000,-0.39052883,0.20467627,1.4403857,0,0.720463,-0.21117894,-0.05196446,0.6585106,0.6812603
13271999,-0.38704136,0.2049073,1.4402539,0,0.7208503,-0.20999834,-0.05071602,0.6585617,0.6808489
13296000,-0.39326543,0.20509024,1.4327451,0,0.7226414,-0.21249446,-0.051899545,0.65569955,0.6801442
13320000,-0.3896926,0.20528084,1.4326102,0,0.7230449,-0.21126623,-0.05064246,0.65575,0.6792632
13344000,-0.38582286,0.20544219,1.4325633,0,0.72345144,-0.20991851,-0.04930821,0.655836,0.6781971
13367999,-0.38214457,0.20559327,1.4324229,0,0.72386724,-0.20863834,-0.04803069,0.6558806,0.6769869
13392000,-0.37834334,0.20568961,1.432387,0,0.7242647,-0.2072932,-0.046744213,0.6559612,0.6757318
13416000,-0.37459186,0.20579873,1.4322423,0,0.7246889,-0.20597182,-0.045457877,0.6559994,0.67438394
13440000,-0.3706206,0.2058884,1.4321947,0,0.7251032,-0.20456162,-0.04411675,0.65607435,0.67290556
13464000,-0.3768626,0.20596899,1.4245895,0,0.72694224,-0.20702288,-0.045347035,0.6531769,0.67131925
13488000,-0.37289777,0.20603897,1.4245313,0,0.7273634,-0.20560448,-0.044019774,0.65324694,0.6696646
13512000,-0.36896822,0.20611116,1.4243708,0,0.7278113,-0.20420098,-0.04269266,0.6532763,0.6679507
13536000,-0.36488926,0.20617738,1.4243082,0,0.72824025,-0.20273817,-0.041328967,0.65334165,0.66617846
13560000,-0.36089513,0.20624295,1.4241407,0,0.72869205,-0.2013073,-0.039982565,0.65336406,0.66437876
13584000,-0.3567855,0.20627499,1.424085,0,0.7291193,-0.19982065,-0.038622327,0.65342563,0.66276157
13608000,-0.3527217,0.20630944,1.4240313,0,0.7295381,-0.19835049,-0.03727624,0.6534842,0.6610804
13632000,-0.3487324,0.20634376,1.4238704,0,0.7299816,-0.1969086,-0.03594394,0.6534998,0.6593704
13656000,-0.3548995,0.20637874,1.4163476,0,0.73182005,-0.19931085,-0.03719627,0.65063894,0.6576528
13680000,-0.3508645,0.20641433,1.4161749,0,0.7322735,-0.19784819,-0.035853,0.65065056,0.6559192
13704000,-0.34664804,0.20645379,1.4161029,0,0.7327087,-0.1963175,-0.034459226,0.65069956,0.6541303
13728000,-0.34247673,0.20649992,1.4159327,0,0.73316765,-0.19480611,-0.033067994,0.65070915,0.65232664
13752000,-0.33819017,0.20654866,1.4158499,0,0.7336058,-0.19325079,-0.031646848,0.6507496,0.6505171
13776000,-0.33407605,0.2065969,1.4156839,0,0.7340514,-0.1917589,-0.030273981,0.6507538,0.64870036
13800000,-0.3298043,0.20664684,1.4156075,0,0.7344796,-0.19020735,-0.028857827,0.65079033,0.6468588
13824000,-0.32572275,0.20670061,1.4154258,0,0.73492044,-0.18872735,-0.027492173,0.6507827,0.6450211
13848000,-0.3214705,0.20675643,1.4153448,0,0.73534137,-0.1871829,-0.026079752,0.65081143,0.6431986
13872000,-0.31732932,0.20681316,1.4151585,0,0.7357829,-0.18567999,-0.024693377,0.65079695,0.641396
13896000,-0.3130659,0.20686488,1.4150622,0,0.73620373,-0.1841284,-0.023277566,0.650814,0.63961107
13920000,-0.3089641,0.20692043,1.414862,0,0.73664,-0.18263772,-0.021903455,0.650788,0.6378406
13944000,-0.30470148,0.2069765,1.4147645,0,0.73705447,-0.18108588,-0.02048631,0.65079874,0.636063
13968000,-0.3005644,0.20703673,1.414565,0,0.73748714,-0.17958169,-0.019099332,0.65076745,0.63430655
13992000,-0.29642826,0.20706889,1.414467,0,0.7378861,-0.1780671,-0.01773256,0.65077025,0.63271356
14016000,-0.30313393,0.20710808,1.406817,0,0.73976505,-0.1806272,-0.019208781,0.6478832,0.63112557
14040000,-0.2990608,0.20714769,1.4067068,0,0.7401635,-0.17913356,-0.017864354,0.6478811,0.6295583
14064000,-0.29503185,0.20718637,1.406489,0,0.7405902,-0.17765605,-0.016525134,0.647836,0.6280207
14088000,-0.2908893,0.20722386,1.4063606,0,0.7409949,-0.17613438,-0.015157692,0.64782214,0.62651443
14112000,-0.28695446,0.20726196,1.4061356,0,0.74140966,-0.17468968,-0.01384899,0.647768,0.62502205
14136000,-0.2829121,0.20730282,1.4060167,0,0.74179626,-0.17320433,-0.012513861,0.64775145,0.6235356
14160000,-0.2789733,0.20734464,1.4057899,0,0.74220586,-0.17175746,-0.011202775,0.6476914,0.62207925
14184000,-0.2749352,0.20734465,1.4056659,0,0.7425913,-0.17025916,-0.009884469,0.64766675,0.6209258
14208000,-0.27120206,0.20735195,1.4054515,0,0.7429766,-0.16887599,-0.008654669,0.6476046,0.6197733
14232000,-0.26737785,0.20736186,1.4053286,0,0.74333715,-0.1674586,-0.007402293,0.6475744,0.61864734
14256000,-0.26360965,0.2073701,1.405101,0,0.74372447,-0.16606104,-0.006160148,0.6475028,0.6175332
14280000,-0.2598187,0.20738134,1.40497,0,0.7440793,-0.1646549,-0.004917778,0.64746475,0.6164218
14304000,-0.25610408,0.20737818,1.4047413,0,0.74445814,-0.16327205,-0.003697723,0.6473875,0.6154683
14328000,-0.25225523,0.2073783,1.4046061,0,0.7448147,-0.1618393,-0.0024409,0.6473431,0.61450505
14352000,-0.24857838,0.2073839,1.4043751,0,0.7451853,-0.16047165,-0.001230128,0.6472605,0.61352557
14376000,-0.24482867,0.20738855,1.4042373,0,0.74552906,-0.1590757,-3.88E-06,0.64721036,0.61253774
14400000,-0.24135639,0.207405,1.4040183,0,0.74587375,-0.15778618,0.001143314,0.647128,0.6114871
14424000,-0.2377132,0.20742409,1.4038885,0,0.74620044,-0.15643308,0.002339542,0.64707655,0.610451
14448000,-0.23424722,0.20744611,1.4036646,0,0.74654114,-0.15514621,0.003486671,0.6469883,0.6094111
14472000,-0.23067789,0.20747085,1.4035298,0,0.74685854,-0.15382111,0.004661113,0.6469309,0.6083826
14496000,-0.22728533,0.20748794,1.403293,0,0.7471937,-0.15255868,0.005783066,0.6468338,0.6074148
14520000,-0.22377267,0.2075093,1.4031605,0,0.74750173,-0.15125239,0.006937273,0.6467732,0.60643333
14544000,-0.22045086,0.20753632,1.4029267,0,0.74782556,-0.15001823,0.008039333,0.64667374,0.60546196
14568000,-0.21706374,0.20756304,1.4027927,0,0.7481199,-0.14875934,0.009154648,0.6466093,0.6044777
14592000,-0.21389578,0.20756614,1.4025601,0,0.74842954,-0.14757392,0.0101972,0.64650697,0.60374105
14616000,-0.21069832,0.20756613,1.4024442,0,0.748702,-0.14637655,0.011239246,0.6464464,0.6029638
14640000,-0.20764655,0.20757459,1.4022235,0,0.7489952,-0.14523526,0.012244903,0.6463459,0.602187
14664000,-0.2045235,0.20758209,1.4021018,0,0.7492598,-0.14406705,0.013265803,0.64628047,0.6013951
14688000,-0.1900249,0.20759456,1.4094629,0,0.7479003,-0.13870081,0.017444868,0.6489244,0.6006126
14712000,-0.18708844,0.20760712,1.4092338,0,0.74817663,-0.13760443,0.018418163,0.6488125,0.5998107
14736000,-0.18403977,0.20762385,1.4090991,0,0.74842805,-0.1364678,0.019422706,0.6487332,0.5990111
14760000,-0.1811923,0.2076395,1.4088699,0,0.74869484,-0.13540472,0.020367771,0.6486191,0.5981849
14784000,-0.17828074,0.20759825,1.4087341,0,0.748938,-0.13430011,0.021305427,0.64853793,0.5977811
14808000,-0.17564811,0.20756683,1.4085122,0,0.74918824,-0.13330173,0.02216193,0.6484262,0.59733295
14832000,-0.17292114,0.2075438,1.408386,0,0.7494117,-0.13227133,0.023045614,0.6483481,0.59688115
14856000,-0.1704404,0.20752187,1.4081621,0,0.74964917,-0.13133205,0.02385614,0.6482351,0.59639955
14880000,-0.16796045,0.20750986,1.408035,0,0.74985355,-0.13039702,0.024663635,0.6481574,0.5959171
14904000,-0.16564184,0.20751716,1.4078114,0,0.7500761,-0.1295271,0.025432277,0.6480445,0.5952601
14928000,-0.1632885,0.20753075,1.4076803,0,0.75026965,-0.12864703,0.026208404,0.64796495,0.5945771
14952000,-0.16108987,0.20754777,1.4074455,0,0.7504855,-0.12782441,0.026942175,0.64784765,0.5938977
14976000,-0.15877476,0.20756936,1.4073156,0,0.75067365,-0.12696066,0.027708564,0.6477672,0.5931998
15000000,-0.1567015,0.20754975,1.4070857,0,0.75088066,-0.12617293,0.028387077,0.64765185,0.592835
15024000,-0.15460195,0.20754014,1.4069577,0,0.7510547,-0.12537968,0.029071316,0.64757365,0.59244746
15048000,-0.15262935,0.20752823,1.4067304,0,0.75125235,-0.12463169,0.029719625,0.6474593,0.59203285
15072000,-0.15056969,0.20752725,1.4066055,0,0.75142086,-0.123855755,0.03039375,0.6473815,0.59160125
15096000,-0.13705389,0.20754531,1.4138956,0,0.7498756,-0.11890665,0.034341644,0.64989877,0.59095734
15120000,-0.13498108,0.2075763,1.4137735,0,0.7500362,-0.11813719,0.035034157,0.6498169,0.5902812
15144000,-0.13323177,0.20760572,1.413544,0,0.750212,-0.11748645,0.035627164,0.6496996,0.5895931
15168000,-0.1313357,0.20764512,1.4134125,0,0.7503634,-0.116785355,0.036265712,0.6496158,0.58891
15192000,-0.12969342,0.20766506,1.4131818,0,0.7505328,-0.116171286,0.036820102,0.6494991,0.5883161
15216000,-0.12803489,0.2076984,1.4130602,0,0.75066626,-0.11555725,0.03737838,0.64942235,0.5876974
15240000,-0.12640993,0.20772922,1.4129289,0,0.7508008,-0.11495468,0.03792525,0.64934224,0.5870681
15264000,-0.12492578,0.20776926,1.4126993,0,0.75095797,-0.114405885,0.038435448,0.64922726,0.58644027
15288000,-0.12338907,0.20778328,1.4125613,0,0.75108963,-0.11383064,0.038947444,0.64914554,0.5859668
15312000,-0.1220979,0.2078066,1.4123318,0,0.75123614,-0.11334868,0.03938838,0.6490339,0.5854449
15336000,-0.120678455,0.20783255,1.4122015,0,0.75135714,-0.11282116,0.039866198,0.64895654,0.58489686
15360000,-0.1194709,0.20786214,1.4119709,0,0.7514982,-0.112372324,0.040282223,0.6488454,0.58433807
15384000,-0.10630128,0.20788378,1.419371,0,0.74981576,-0.10759251,0.04416426,0.6513446,0.5838163
15408000,-0.105256215,0.20791055,1.4191358,0,0.74994683,-0.107204065,0.04452734,0.6512328,0.5832841
15432000,-0.10414411,0.2079391,1.4190025,0,0.7500482,-0.106793225,0.044907372,0.6511576,0.58274347
15456000,-0.10321471,0.20796871,1.418765,0,0.7501735,-0.106448814,0.045233816,0.6510471,0.5821943
15480000,-0.10213118,0.20800161,1.4186282,0,0.7502737,-0.10604985,0.045606226,0.65097076,0.5816393
15504000,-0.101356305,0.20804411,1.4183993,0,0.7503868,-0.10576756,0.045886625,0.65086657,0.5810068
15528000,-0.10047319,0.20808773,1.4182621,0,0.7504757,-0.10544706,0.046197776,0.650794,0.5803494
15552000,-0.09973957,0.20813951,1.4180274,0,0.7505878,-0.105182976,0.046468437,0.6506883,0.57968056
15576000,-0.098872,0.20819128,1.4178975,0,0.75067276,-0.10487097,0.046777107,0.65061843,0.57899487
15600000,-0.09811712,0.20821978,1.4177686,0,0.75075257,-0.104593754,0.04704021,0.6505519,0.5784773
15624000,-0.097614,0.20825663,1.4175339,0,0.7508532,-0.10441119,0.047230065,0.6504514,0.5779462
15648000,-0.0852685,0.2082966,1.4249504,0,0.7490653,-0.099976666,0.050888963,0.652929,0.57738936
15672000,-0.084800825,0.2083402,1.424721,0,0.7491611,-0.09980972,0.051069535,0.65283036,0.5768221
15696000,-0.08426361,0.20836687,1.4245915,0,0.7492288,-0.0996138,0.05126141,0.6527677,0.5763918
15720000,-0.083875045,0.20840089,1.4243592,0,0.7493221,-0.09947325,0.051412627,0.65266997,0.5759265
15744000,-0.08347155,0.20843796,1.4242251,0,0.749384,-0.099330604,0.051564954,0.6526087,0.57544786
15768000,-0.083257884,0.20847791,1.4239869,0,0.7494702,-0.09925729,0.051661573,0.6525132,0.5749545
15792000,-0.08289539,0.20850606,1.4238464,0,0.7495325,-0.099126905,0.05179744,0.6524507,0.5745457
15816000,-0.0827616,0.20854366,1.4236162,0,0.74961233,-0.09908293,0.05186668,0.65236026,0.57411546
15840000,-0.08251735,0.2085855,1.4234915,0,0.7496628,-0.09900166,0.05196832,0.6523064,0.57364595
15864000,-0.082209416,0.20863096,1.4233677,0,0.74971604,-0.09889769,0.05209204,0.6522511,0.57314855
15888000,-0.07026249,0.20865676,1.4307014,0,0.74789655,-0.094630584,0.055650413,0.6546746,0.57279795
15912000,-0.07010754,0.2086891,1.4305748,0,0.7479437,-0.0945796,0.055719294,0.6546222,0.5724095
15936000,-0.07006001,0.2087247,1.4303455,0,0.7480191,-0.094567,0.055759087,0.65453446,0.5720024
15960000,-0.06989537,0.20876367,1.4302179,0,0.7480667,-0.09451451,0.05583367,0.6544813,0.5715874
15984000,-0.07006792,0.20878798,1.4299859,0,0.74813324,-0.09458046,0.055797324,0.65439886,0.571271
16008000,-0.07011031,0.20882083,1.4298575,0,0.74817157,-0.0946034,0.055801895,0.6543513,0.5709166
16032000,-0.07043187,0.20886031,1.4296349,0,0.74822724,-0.094730295,0.055722103,0.65427613,0.57054824
16056000,-0.07051467,0.20890416,1.4295071,0,0.7482628,-0.09477194,0.05571758,0.6542297,0.5701649
16080000,-0.07079224,0.20895195,1.4292864,0,0.74831945,-0.09488513,0.055655237,0.6541539,0.56974685
16104000,-0.07090786,0.20902176,1.4291574,0,0.74835265,-0.09494744,0.05564984,0.6541074,0.56913596
16128000,-0.059253912,0.20909749,1.4366118,0,0.74644744,-0.0908309,0.05915072,0.65655696,0.5684816
16152000,-0.05964127,0.2091741,1.4363884,0,0.7464995,-0.090993844,0.059062466,0.65648323,0.56781495
16176000,-0.059928905,0.20925166,1.4362609,0,0.7465244,-0.09112272,0.059002966,0.6564424,0.56713766
16200000,-0.0603916,0.2092992,1.4360294,0,0.74657696,-0.09130411,0.058879517,0.6563685,0.56669873
16224000,-0.060786374,0.20935439,1.4359058,0,0.74659675,-0.091465816,0.05877633,0.65633273,0.5662471
16248000,-0.061359886,0.20941357,1.4356858,0,0.7466397,-0.09169273,0.058620423,0.65626603,0.56577116
16272000,-0.06177917,0.20947433,1.4355669,0,0.7466566,-0.09186556,0.05851111,0.65623254,0.56525743
16296000,-0.062373657,0.2095179,1.4353397,0,0.74670166,-0.09209506,0.058342867,0.6561641,0.56486243
16320000,-0.062840365,0.20956597,1.4352169,0,0.746718,-0.09228138,0.058213465,0.65613073,0.5644373
16344000,-0.06347531,0.20961788,1.4349947,0,0.746759,-0.0925289,0.058034934,0.65606505,0.5639902
16368000,-0.052053336,0.20967248,1.4424565,0,0.74482095,-0.08851043,0.061471447,0.658505,0.56352127
16392000,-0.05259372,0.2097326,1.442333,0,0.7448348,-0.08872755,0.061321497,0.65847415,0.56297696
16416000,-0.053286318,0.20980068,1.4421053,0,0.7448758,-0.08900079,0.06112908,0.6584089,0.5624177
16440000,-0.05393979,0.20987438,1.4419801,0,0.7448843,-0.08926445,0.06094712,0.6583803,0.5618585
16464000,-0.054712202,0.20995319,1.441754,0,0.7449204,-0.089571044,0.060732465,0.65831774,0.56129265
16488000,-0.055317134,0.20999983,1.4416338,0,0.74493057,-0.089807965,0.060556207,0.65829015,0.56097966
16512000,-0.056049842,0.21005112,1.441411,0,0.7449684,-0.090090916,0.06034427,0.6582281,0.56063175
16536000,-0.056718,0.21010518,1.4412924,0,0.7449747,-0.09035389,0.060149975,0.6582027,0.5602527
16560000,-0.0575625,0.21016158,1.4410698,0,0.745007,-0.09068023,0.059903253,0.6581439,0.5598557
16584000,-0.058262967,0.21024805,1.4409463,0,0.7450115,-0.09096571,0.05971075,0.6581167,0.5592297
16608000,-0.047016755,0.21033916,1.4484134,0,0.74304605,-0.08704108,0.06312002,0.66054696,0.55859625
16632000,-0.047999453,0.21043217,1.4481896,0,0.7430727,-0.08742968,0.06283995,0.6604924,0.5579581
16656000,-0.04873459,0.2105285,1.4480723,0,0.74307466,-0.08773075,0.06263826,0.66046935,0.55730647
16680000,-0.049729694,0.21062641,1.4478455,0,0.7431012,-0.08812553,0.062356174,0.6604137,0.55665517
16704000,-0.05058026,0.2107006,1.4477249,0,0.7430999,-0.088462174,0.06210833,0.66039354,0.5561668
16728000,-0.05157304,0.21078344,1.4475042,0,0.7431248,-0.08885138,0.06182124,0.6603401,0.5556635
16752000,-0.05246569,0.21086936,1.4473745,0,0.7431238,-0.08920725,0.06156438,0.66031736,0.555172
16776000,-0.053485133,0.21095799,1.4471546,0,0.7431465,-0.089608364,0.061270736,0.6602647,0.5546713
16800000,-0.054312933,0.21100289,1.447032,0,0.7431477,-0.08992692,0.061019726,0.66024333,0.5545151
16824000,-0.055102374,0.2110534,1.4468997,0,0.74315333,-0.090232804,0.060783952,0.660217,0.5543449
16848000,-0.044307355,0.211109,1.4542804,0,0.74118674,-0.08647553,0.06404864,0.66261756,0.5541619
16872000,-0.045235615,0.21116997,1.454164,0,0.7411822,-0.08683591,0.06376884,0.6626025,0.55394864
16896000,-0.04627139,0.21127625,1.453945,0,0.74120474,-0.08724782,0.06347479,0.6625514,0.5533486
16920000,-0.047233853,0.21138987,1.4538199,0,0.7411987,-0.08763797,0.063203715,0.6625325,0.55273867
16944000,-0.04839088,0.21150711,1.453601,0,0.7412149,-0.08809849,0.06287371,0.66248477,0.5521038
16968000,-0.049315985,0.21162848,1.4534816,0,0.74120784,-0.08847755,0.06261774,0.6624664,0.55146414
16992000,-0.050289713,0.21168382,1.4533606,0,0.74120206,-0.08885285,0.06232118,0.6624505,0.5513579
17016000,-0.051366486,0.21175115,1.4531388,0,0.74122435,-0.089267194,0.061999485,0.66240007,0.55123734
17040000,-0.052334115,0.21181779,1.4530231,0,0.7412162,-0.08964416,0.06170901,0.6623854,0.55108553
17064000,-0.05351347,0.21189381,1.4528022,0,0.7412327,-0.09009947,0.06135667,0.66233796,0.5509224
17088000,-0.054532032,0.21197133,1.4526821,0,0.7412227,-0.09049879,0.06105365,0.66232264,0.55066466
17112000,-0.043867934,0.21205781,1.4600835,0,0.7392358,-0.0868123,0.064295694,0.6647256,0.5503731
17136000,-0.04483313,0.21214679,1.4599668,0,0.7392284,-0.08719472,0.064013004,0.664711,0.55006206
17160000,-0.046025075,0.21223831,1.4597481,0,0.7392447,-0.08765857,0.063660406,0.6646658,0.5497469
17184000,-0.04703295,0.21235067,1.459631,0,0.73923403,-0.0880645,0.063372314,0.66465145,0.5492578
17208000,-0.047927316,0.21246836,1.4595144,0,0.7392277,-0.08843028,0.06312394,0.6646336,0.54875374
17232000,-0.049107194,0.21258844,1.4593004,0,0.7392409,-0.08889932,0.06278594,0.66458845,0.5482313
17256000,-0.050176978,0.21271329,1.4591812,0,0.7392268,-0.08933224,0.062482126,0.6645746,0.5477058
17280000,-0.05143947,0.2128398,1.4589612,0,0.7392373,-0.0898338,0.062119476,0.6645293,0.54717094
17304000,-0.05248654,0.21296392,1.45884,0,0.73922443,-0.09025805,0.061823145,0.66451377,0.54666245
17328000,-0.053714033,0.2130918,1.4586209,0,0.7392355,-0.090747215,0.061472736,0.66446733,0.54613024
17352000,-0.054768458,0.21322194,1.4585035,0,0.73922026,-0.091176294,0.061176106,0.664453,0.54558635
17376000,-0.055838067,0.21335456,1.4583809,0,0.7392056,-0.09161167,0.06087564,0.664437,0.5450452
17400000,-0.04521635,0.2134559,1.4657989,0,0.7372087,-0.08795644,0.06411536,0.66684043,0.54473084
17424000,-0.046244103,0.21356346,1.465685,0,0.7371963,-0.088367306,0.06381752,0.66682845,0.5443803
17448000,-0.047452003,0.21367612,1.4654633,0,0.73721135,-0.08884283,0.06346635,0.6667821,0.5440352
17472000,-0.048485525,0.21379447,1.4653441,0,0.7371994,-0.08925925,0.06317091,0.66676766,0.5436939
17496000,-0.049750157,0.21388996,1.4651233,0,0.73721194,-0.08975009,0.06279457,0.66672367,0.54353327
17520000,-0.050773308,0.21399231,1.4650098,0,0.73719877,-0.09015758,0.062496506,0.6667111,0.543334
17544000,-0.051794756,0.21409813,1.4648936,0,0.7371862,-0.09056552,0.06220045,0.6666973,0.54310936
17568000,-0.05299416,0.21420789,1.4646735,0,0.7371999,-0.091037154,0.061851304,0.6666506,0.5428749
17592000,-0.05401182,0.21433502,1.4645531,0,0.7371874,-0.09145065,0.06156469,0.66663426,0.54249066
17616000,-0.055135377,0.21446924,1.4643357,0,0.7372018,-0.09190256,0.061249904,0.6665852,0.5420975
17640000,-0.05611216,0.21460713,1.4642174,0,0.7371895,-0.09230464,0.0609809,0.6665679,0.54170144
17664000,-0.057275612,0.21475065,1.4640026,0,0.7372002,-0.092774466,0.060656283,0.6665206,0.5412922
17688000,-0.05821773,0.21485367,1.4638929,0,0.73718786,-0.09315249,0.060385615,0.66650605,0.5412217
17712000,-0.047420677,0.2149629,1.4714217,0,0.7351618,-0.08944798,0.063687064,0.66893953,0.54113317
17736000,-0.04857166,0.21507399,1.4712079,0,0.7351765,-0.08990122,0.06335273,0.66889447,0.54100657
17760000,-0.049600348,0.21518812,1.4710923,0,0.7351632,-0.090313636,0.063056044,0.6688814,0.5408498
17784000,-0.050759394,0.21530615,1.4708769,0,0.73517716,-0.09077216,0.06272178,0.6688356,0.5406759
17808000,-0.05171503,0.21542251,1.470763,0,0.73516613,-0.09115855,0.062450364,0.6688205,0.54053915
17832000,-0.052832395,0.21554436,1.4705478,0,0.73518115,-0.09160306,0.062131573,0.66877294,0.54036915
17856000,-0.05382228,0.215668,1.4704312,0,0.73516864,-0.092004396,0.061851613,0.6687575,0.54019636
17880000,-0.054843593,0.21579427,1.4703202,0,0.7351525,-0.092418335,0.061561886,0.668745,0.5399962
17904000,-0.056013793,0.21593733,1.4701068,0,0.7351626,-0.09288944,0.061233386,0.6686987,0.5396315
17928000,-0.056997728,0.21609256,1.4699954,0,0.7351464,-0.093299255,0.06096697,0.6686839,0.5392426
17952000,-0.05811615,0.2162366,1.4697841,0,0.73515755,-0.09375177,0.060656175,0.66863644,0.5388169
17976000,-0.058969945,0.21639007,1.4696755,0,0.73514616,-0.09411326,0.060432576,0.66861856,0.53838575
18000000,-0.060052976,0.2165038,1.469462,0,0.73516077,-0.09454267,0.06012264,0.66856974,0.53830487
18024000,-0.06091391,0.21662661,1.4693516,0,0.7351507,-0.09489658,0.05988548,0.668552,0.53819424
18048000,-0.06178123,0.21675281,1.4692378,0,0.73514116,-0.095253855,0.059647642,0.66853297,0.53807247
18072000,-0.051042356,0.21688333,1.4766846,0,0.7331427,-0.09158354,0.0629441,0.6709339,0.537928
18096000,-0.051898327,0.21704161,1.476572,0,0.73313344,-0.09194655,0.06272043,0.6709153,0.537529
18120000,-0.052878376,0.21720265,1.4763595,0,0.73315173,-0.09235283,0.06246081,0.67086375,0.53709936
18144000,-0.053724814,0.21736519,1.4762495,0,0.7331415,-0.092713855,0.062241882,0.67084545,0.53665054
18168000,-0.054721035,0.21752912,1.4760371,0,0.73315835,-0.09312709,0.06197802,0.67079425,0.5361896
18192000,-0.055566512,0.21767126,1.4759206,0,0.73315096,-0.093480766,0.06175229,0.6707738,0.5359223
18216000,-0.056392737,0.21781722,1.475806,0,0.7331435,-0.09382873,0.06153436,0.6707535,0.5356307
18240000,-0.05738224,0.21796481,1.4755968,0,0.73315984,-0.0942342,0.06126676,0.67070335,0.5353191
18264000,-0.058264792,0.21811758,1.4754833,0,0.7331485,-0.09460512,0.06103248,0.6706847,0.5350015
18288000,-0.05935268,0.21829663,1.4752698,0,0.7331596,-0.09505705,0.060743824,0.67063504,0.5344639
18312000,-0.060179863,0.2184816,1.4751565,0,0.7331489,-0.09541841,0.06054006,0.6706138,0.53392106
18336000,-0.061187536,0.21866858,1.47494,0,0.7331639,-0.095843494,0.060281515,0.6705601,0.5333892
18360000,-0.061980706,0.21885651,1.474824,0,0.73315513,-0.0961933,0.060090467,0.6705367,0.53287876
18384000,-0.06273763,0.21901001,1.4747045,0,0.7331509,-0.09651826,0.059899077,0.6705117,0.53267914
18408000,-0.063731246,0.21916926,1.4744872,0,0.73316765,-0.09692899,0.059635237,0.6704578,0.5324612
18432000,-0.06447081,0.21932963,1.4743723,0,0.73316205,-0.09725003,0.059452057,0.6704337,0.532231
18456000,-0.06541809,0.21949123,1.4741548,0,0.7331805,-0.09764457,0.059204753,0.670378,0.53198314
18480000,-0.054390393,0.21965554,1.4817204,0,0.7311597,-0.09389265,0.062606074,0.67280763,0.5317233
18504000,-0.055383936,0.21981075,1.4815036,0,0.73117816,-0.09430097,0.062339112,0.67275524,0.5315403
18528000,-0.056133546,0.21997054,1.4813846,0,0.7311748,-0.0946247,0.062151328,0.6727308,0.53133905
18552000,-0.056832492,0.220133,1.4812692,0,0.73117244,-0.09493092,0.061981432,0.67270595,0.5311275
18576000,-0.057683356,0.22029816,1.4810526,0,0.7311965,-0.09529045,0.061766285,0.67264867,0.530902
18600000,-0.05835674,0.2204844,1.4809359,0,0.7311943,-0.09559524,0.06161388,0.67262197,0.5304538
18624000,-0.059238378,0.22067437,1.4807186,0,0.73121554,-0.09597432,0.061397657,0.67256457,0.52999216
18648000,-0.059913225,0.22086519,1.4806029,0,0.73121244,-0.0962812,0.061246477,0.6725379,0.52953804
18672000,-0.06071424,0.22105989,1.4803921,0,0.7312347,-0.096632615,0.061058912,0.6724803,0.5290662
18696000,-0.061433166,0.22122784,1.4802793,0,0.73122925,-0.09694807,0.06088443,0.67245656,0.52885103
18720000,-0.062190905,0.2213997,1.4801677,0,0.73122126,-0.09727907,0.060698316,0.6724344,0.5286098
18744000,-0.06301956,0.22157282,1.4799501,0,0.73124516,-0.09763321,0.06049402,0.67237544,0.5283659
18768000,-0.063666426,0.22174723,1.4798324,0,0.7312441,-0.097924344,0.06034649,0.67234755,0.5281265
18792000,-0.06448828,0.22192934,1.479617,0,0.73126686,-0.09827909,0.060147807,0.67228884,0.52779794
18816000,-0.065146774,0.22211486,1.4794992,0,0.7312644,-0.098578185,0.060000535,0.67226076,0.52746993
18840000,-0.065751046,0.22230062,1.479381,0,0.7312647,-0.09885752,0.05987163,0.672231,0.5271376
18864000,-0.06657775,0.2224888,1.4791656,0,0.7312863,-0.099216096,0.05967372,0.6721722,0.52679014
18888000,-0.0671947,0.22265024,1.4790486,0,0.73128664,-0.099492006,0.05953162,0.67214376,0.5267363
18912000,-0.06800472,0.2228182,1.478828,0,0.73131156,-0.0998376,0.05933224,0.67208284,0.5266638
18936000,-0.056878027,0.22298887,1.4864191,0,0.72929215,-0.09606341,0.06276899,0.6745108,0.5265739
18960000,-0.057650954,0.2231608,1.4862018,0,0.7293196,-0.09639603,0.062581845,0.6744511,0.5264691
18984000,-0.05822198,0.22334985,1.4860862,0,0.72932136,-0.09666395,0.06246422,0.67442167,0.5261865
19008000,-0.058729198,0.22354169,1.4859697,0,0.72932637,-0.0969095,0.062369198,0.67438984,0.5258922
19032000,-0.059496272,0.22373371,1.4857556,0,0.7293515,-0.09724684,0.062191404,0.6743305,0.5255729
19056000,-0.0600692,0.22392616,1.485641,0,0.72935236,-0.09751662,0.06207443,0.67430127,0.52524346
19080000,-0.060819447,0.22412169,1.4854236,0,0.72937906,-0.09784892,0.061903857,0.6742401,0.5249226
19104000,-0.061359245,0.2243038,1.4853135,0,0.72938037,-0.098103315,0.061794117,0.6742118,0.5246978
19128000,-0.06206716,0.2244922,1.4850945,0,0.7294097,-0.098417774,0.0616354,0.6741488,0.5244677
19152000,-0.06255588,0.22468229,1.484981,0,0.7294141,-0.09865609,0.061546035,0.6741174,0.52422357
19176000,-0.06309773,0.22487213,1.4848648,0,0.7294166,-0.098913625,0.061438836,0.6740867,0.52396923
19200000,-0.06376229,0.22507031,1.4846492,0,0.729446,-0.09921566,0.06129829,0.67402315,0.52360946
19224000,-0.06419002,0.22527346,1.4845357,0,0.7294525,-0.09943611,0.061234374,0.6739896,0.5232382
19248000,-0.06481555,0.22547846,1.4843206,0,0.7294831,-0.09972622,0.06110956,0.6739249,0.5228647
19272000,-0.06538354,0.22568429,1.4842074,0,0.7294821,-0.09999873,0.0609994,0.67389554,0.52247936
19296000,-0.065891646,0.2258525,1.4840924,0,0.7294866,-0.100236766,0.060895756,0.67386466,0.52247095
19320000,-0.06650271,0.22602597,1.4838798,0,0.7295184,-0.100511156,0.06076424,0.67380124,0.5224357
19344000,-0.06701382,0.22620088,1.4837644,0,0.72952235,-0.100752525,0.060662102,0.6737701,0.5224016
19368000,-0.06763854,0.22637734,1.4835511,0,0.72955334,-0.1010329,0.060527235,0.6737067,0.52233464
19392000,-0.06809184,0.22658089,1.4834363,0,0.7295582,-0.10126276,0.06045512,0.6736733,0.5219724
19416000,-0.068507016,0.22678882,1.4833212,0,0.72956496,-0.10148018,0.06039752,0.6736385,0.5215967
19440000,-0.06905258,0.22699773,1.4831018,0,0.7296,-0.10174234,0.060301676,0.67356956,0.5212297
19464000,-0.069505244,0.22720726,1.4829834,0,0.72960573,-0.101973854,0.06023225,0.67353463,0.5208697
19488000,-0.058261335,0.22740331,1.4905063,0,0.72762007,-0.098176345,0.06372104,0.6759217,0.5206486
19512000,-0.058735467,0.22760329,1.4903938,0,0.7276245,-0.09841236,0.06363954,0.6758903,0.52041185
19536000,-0.05925498,0.22780308,1.49018,0,0.7276607,-0.098661594,0.063547656,0.67582357,0.5201661
19560000,-0.05964832,0.22800344,1.4900703,0,0.727668,-0.098868415,0.063493505,0.6757905,0.5198942
19584000,-0.059993528,0.22817947,1.4899586,0,0.7276795,-0.099049516,0.06344685,0.675756,0.5198551
19608000,-0.060586695,0.22836064,1.4897454,0,0.72771275,-0.09931933,0.06332336,0.6756922,0.51980025
19632000,-0.060982488,0.22854443,1.489632,0,0.7277218,-0.09952138,0.06326258,0.67565846,0.5197386
19656000,-0.061412595,0.22872953,1.4894187,0,0.72776276,-0.0997332,0.063195705,0.6755894,0.51966244
19680000,-0.061818413,0.22891639,1.489305,0,0.7277711,-0.099939905,0.06313273,0.6755556,0.5195733
19704000,-0.062211394,0.22910593,1.4891901,0,0.7277804,-0.100142814,0.063075185,0.675521,0.5194658
19728000,-0.06280368,0.2293003,1.4889712,0,0.7278143,-0.100416586,0.06295732,0.67545474,0.5193447
19752000,-0.06317593,0.22949655,1.4888568,0,0.727824,-0.100614205,0.062909245,0.6754195,0.51920444
19776000,-0.06370615,0.2296943,1.4886388,0,0.72786045,-0.100866556,0.06281362,0.67535144,0.519066
19800000,-0.06410839,0.22988276,1.4885238,0,0.727869,-0.101072475,0.062752664,0.6753171,0.5190052
19824000,-0.0645949,0.23007512,1.4883082,0,0.727907,-0.1013072,0.06266979,0.6752487,0.5189177
19848000,-0.06490396,0.23026855,1.4881923,0,0.7279201,-0.10148083,0.06264221,0.6752109,0.51882213
19872000,-0.0652798,0.23046327,1.4880768,0,0.7279297,-0.1016792,0.06259256,0.67517537,0.51870954
19896000,-0.065813996,0.23066573,1.4878612,0,0.7279645,-0.10193468,0.062497415,0.67510813,0.51850116
19920000,-0.06620828,0.23087299,1.4877473,0,0.7279718,-0.10214402,0.062446106,0.67507344,0.51827615
19944000,-0.06671536,0.23108277,1.48753,0,0.728008,-0.10239202,0.062362976,0.67500454,0.51805294
19968000,-0.06704705,0.23129338,1.4874178,0,0.72801757,-0.10257975,0.062334,0.6749684,0.517821
19992000,-0.06735292,0.23147689,1.4873065,0,0.72802955,-0.10274902,0.06230376,0.67493254,0.5178375
20016000,-0.06783703,0.23166773,1.4870918,0,0.7280668,-0.10298241,0.062221415,0.6748643,0.5178268
20040000,-0.0681839,0.23186176,1.4869747,0,0.7280779,-0.10316995,0.062181566,0.6748273,0.51781964
20064000,-0.05682561,0.23205855,1.4945292,0,0.72608906,-0.099348255,0.06571031,0.6772051,0.51780677
20088000,-0.057056673,0.23227009,1.4944156,0,0.72610503,-0.09949952,0.065715,0.6771653,0.5176165
20112000,-0.05735711,0.23248658,1.494303,0,0.7261169,-0.099677674,0.065697975,0.677128,0.5174171
20136000,-0.057787843,0.23270437,1.4940865,0,0.72615737,-0.09990015,0.06564252,0.6770573,0.517212
20160000,-0.05821867,0.23292284,1.4939768,0,0.7261615,-0.100126386,0.06558198,0.67702526,0.51698947
20184000,-0.058704775,0.2331439,1.493764,0,0.72619754,-0.10037019,0.06550888,0.6769576,0.5167165
20208000,-0.05905409,0.23336771,1.4936509,0,0.7262065,-0.10056851,0.065478116,0.6769215,0.51643276
20232000,-0.05939888,0.23359193,1.4935355,0,0.7262164,-0.10076525,0.06544917,0.6768844,0.5161474
20256000,-0.05991593,0.23381752,1.4933192,0,0.7262516,-0.1010217,0.06536756,0.6768163,0.51585865
20280000,-0.060181994,0.23404506,1.4932094,0,0.7262633,-0.10119114,0.06536623,0.6767786,0.51554376
20304000,-0.06063037,0.2342686,1.4929945,0,0.7263014,-0.10142201,0.06530712,0.6767088,0.51527506
20328000,-0.06096987,0.23449793,1.4928803,0,0.7263107,-0.10161856,0.06528188,0.6766719,0.5149998
20352000,-0.061471123,0.23472722,1.4926658,0,0.72634554,-0.10187057,0.065207034,0.67660373,0.5147256
20376000,-0.06173736,0.23495877,1.4925538,0,0.72635746,-0.10204133,0.06520733,0.6765652,0.51444983
20400000,-0.06206666,0.23518872,1.4924392,0,0.72636706,-0.10223436,0.065185875,0.67652774,0.5141862
20424000,-0.06260923,0.23542102,1.4922222,0,0.7264003,-0.1025023,0.065098405,0.67645997,0.51391417
20448000,-0.06293176,0.2356534,1.4921044,0,0.7264111,-0.10269359,0.065080345,0.6764211,0.5136471
20472000,-0.06333198,0.23588657,1.4918878,0,0.7264512,-0.10291011,0.06504141,0.6763488,0.513379
20496000,-0.06363077,0.22730406,1.491771,0,0.7269314,-0.10013526,0.0618065,0.6765529,0.49045575
20520000,-0.06389557,0.21872132,1.4916544,0,0.7274005,-0.09734664,0.05858147,0.6767424,0.45893747
20544000,-0.06433501,0.21013829,1.4914206,0,0.7278885,-0.094616935,0.055301294,0.6768809,0.42982727
20568000,-0.06465204,0.20155469,1.4912614,0,0.7283448,-0.091843605,0.05205718,0.67702925,0.4030769
20592000,-0.06512963,0.1929687,1.4909717,0,0.7288257,-0.089123756,0.048762195,0.67712057,0.37873602
20616000,-0.06543444,0.18437985,1.4907646,0,0.72927415,-0.08634131,0.0455193,0.67722404,0.3565293
20640000,-0.065730624,0.1757876,1.4905354,0,0.7297181,-0.083553314,0.04227756,0.67730564,0.33634683
20664000,-0.06624032,0.16719137,1.4901872,0,0.7301813,-0.08083891,0.038965374,0.67733467,0.31807536
20688000,-0.06654575,0.15858355,1.489929,0,0.7306103,-0.078047425,0.03571287,0.6773786,0.3021871
20712000,-0.055248007,0.14996383,1.4974632,0,0.7288074,-0.071150295,0.036107104,0.68005425,0.2878912
20736000,-0.055580467,0.1413319,1.4972095,0,0.72919315,-0.068344675,0.032844715,0.6800937,0.27503684
20760000,-0.05592731,0.13268748,1.4969484,0,0.72956884,-0.065539606,0.029571744,0.6801172,0.2635057
20784000,-0.05646504,0.1240267,1.4965816,0,0.7299624,-0.06279702,0.026229864,0.6800908,0.25349993
20808000,-0.056742653,0.11534953,1.4963151,0,0.7303179,-0.059955224,0.02296587,0.6800835,0.24455024
20832000,-0.05697124,0.106656015,1.4960508,0,0.73066175,-0.05708983,0.01971129,0.680063,0.23653941
20856000,-0.057266828,0.09794626,1.4956762,0,0.73102844,-0.054242343,0.016429815,0.67998904,0.22937885
20880000,-0.05748653,0.08922045,1.4954098,0,0.7313478,-0.05136265,0.013164081,0.6799404,0.22296844
20904000,-0.057681847,0.08046685,1.4951427,0,0.7316554,-0.04846456,0.009895442,0.6798777,0.2182493
20928000,-0.05806682,0.07168609,1.4947705,0,0.7319815,-0.045626298,0.006553806,0.6797634,0.21408328
20952000,-0.05824968,0.06287886,1.494508,0,0.7322624,-0.042705685,0.003267618,0.67967457,0.21038902
20976000,-0.058467515,0.054045953,1.4941398,0,0.73256516,-0.039789245,-3.86E-05,0.6795331,0.20711066
21000000,-0.05862101,0.04518298,1.493881,0,0.73281884,-0.03683932,-0.003337089,0.67941767,0.19633482
21024000,-0.05870363,0.036290996,1.4936275,0,0.7330584,-0.03385372,-0.006622925,0.67929035,0.1850537
21048000,-0.05901357,0.028351406,1.4932672,0,0.7333022,-0.03127528,-0.009635455,0.6791149,0.17486887
21072000,-0.059044193,0.025183083,1.4930142,0,0.7334349,-0.03021298,-0.01080459,0.679002,0.16574077
21096000,-0.059095863,0.021984125,1.4927573,0,0.7335672,-0.029148255,-0.011992294,0.6788856,0.1582692
21120000,-0.059288852,0.018988043,1.4923961,0,0.7337284,-0.028205102,-0.013152269,0.67872983,0.15158917
21144000,-0.059343506,0.016170656,1.4921442,0,0.73385054,-0.027271377,-0.014201505,0.6786147,0.14556159
21168000,-0.059401065,0.013534742,1.4918927,0,0.7339689,-0.026400462,-0.015185312,0.6784999,0.14020006
21192000,-0.05966754,0.010794824,1.4915328,0,0.7341212,-0.02557205,-0.016276976,0.6783414,0.13623911
21216000,-0.05971126,0.008217444,1.4912803,0,0.73423696,-0.024716387,-0.017235005,0.67822427,0.13269393
21240000,-0.059846595,0.005787396,1.491025,0,0.73434967,-0.023944538,-0.018170146,0.6781055,0.1295149
21264000,-0.059879526,0.003515169,1.490774,0,0.7344593,-0.023188738,-0.01901283,0.67798996,0.12670808
21288000,-0.059995808,0.001075598,1.4904078,0,0.73460793,-0.022408169,-0.019944098,0.6778284,0.12506706
21312000,-0.059926677,-0.00121676,1.4901524,0,0.7347185,-0.021608528,-0.020759914,0.67770994,0.123652175
21336000,-0.059825882,-0.003383221,1.4898976,0,0.734827,-0.020840082,-0.021518936,0.67759275,0.122357875
21360000,-0.059910282,-0.005415688,1.4895326,0,0.73496866,-0.020186482,-0.02229052,0.6774338,0.12123196
21384000,-0.0479446,-0.007642948,1.4977567,0,0.7322995,-0.0149558,-0.019117322,0.68055,0.121129185
21408000,-0.04785503,-0.009746198,1.4975183,0,0.7323952,-0.014209537,-0.019855114,0.68044204,0.12103766
21432000,-0.04779268,-0.011720349,1.4971709,0,0.73252594,-0.013518453,-0.020554315,0.6802945,0.12099573
21456000,-0.047624584,-0.013579463,1.4969323,0,0.732619,-0.012826839,-0.02117635,0.6801886,0.12094298
21480000,-0.047413915,-0.015324507,1.4966944,0,0.73271066,-0.012158565,-0.021742284,0.6800843,0.12089342
21504000,-0.04723957,-0.017164247,1.496458,0,0.7328014,-0.011471496,-0.022355407,0.67997855,0.12137094
21528000,-0.047175784,-0.018888565,1.4961135,0,0.732927,-0.010865569,-0.022963393,0.6798329,0.12180482
21552000,-0.046935987,-0.02050666,1.4958836,0,0.7330135,-0.010230107,-0.02347343,0.67973197,0.1221524
21576000,-0.046744924,-0.022013234,1.4956534,0,0.73309886,-0.009650536,-0.023959301,0.6796315,0.12246925
21600000,-0.046457063,-0.023474332,1.4954236,0,0.73318374,-0.00905104,-0.024395745,0.67953247,0.12282997
21624000,-0.04639132,-0.024830094,1.4950837,0,0.7333042,-0.008570249,-0.024868708,0.6793917,0.12314536
21648000,-0.046150222,-0.026088854,1.4948571,0,0.7333862,-0.008056849,-0.025247172,0.6792955,0.123376176
21672000,-0.045920055,-0.027244736,1.494634,0,0.7334662,-0.007582451,-0.025591766,0.67920154,0.12356745
21696000,-0.045730654,-0.028660864,1.4942948,0,0.73358583,-0.007036164,-0.026045285,0.67906094,0.1245649
21720000,-0.045463648,-0.029969808,1.4940692,0,0.7336664,-0.006496468,-0.026433714,0.6789642,0.12547086
21744000,-0.0451814,-0.031182371,1.4938483,0,0.73374486,-0.005983939,-0.02678176,0.6788707,0.12625766
21768000,-0.044855032,-0.032293167,1.4936302,0,0.733822,-0.005489828,-0.027077634,0.6787799,0.12696241
21792000,-0.044660244,-0.033522632,1.4932978,0,0.7339371,-0.005005322,-0.027461492,0.67864364,0.12808089
21816000,-0.044320427,-0.034657568,1.4930837,0,0.73401207,-0.004498173,-0.027761895,0.6785539,0.12908043
21840000,-0.043983206,-0.035700627,1.4928718,0,0.7340857,-0.004023198,-0.028029595,0.67846614,0.12994996
21864000,-0.043589406,-0.036653347,1.4926625,0,0.7341582,-0.003558144,-0.02824507,0.6783814,0.13071434
21888000,-0.043458898,-0.03761311,1.4923325,0,0.73427093,-0.003189125,-0.02855232,0.67824835,0.13162006
21912000,-0.043073334,-0.03849192,1.492124,0,0.7343425,-0.002752277,-0.028743677,0.67816466,0.13238701
21936000,-0.042690173,-0.03927577,1.4919206,0,0.7344121,-0.002348504,-0.0289011,0.67808414,0.13309357
21960000,-0.03044012,-0.039991267,1.5005769,0,0.73146874,0.002500832,-0.024999302,0.68141186,0.1336534
21984000,-0.030211516,-0.040584847,1.5002692,0,0.73157203,0.002782939,-0.025138812,0.68129486,0.13409632
22008000,-0.029815948,-0.041110344,1.5000827,0,0.73163366,0.00310441,-0.025196461,0.6812251,0.13438946
22032000,-0.029443374,-0.04155177,1.4998963,0,0.7316954,0.003388806,-0.025231263,0.6811561,0.13466047
22056000,-0.029011047,-0.04193221,1.499711,0,0.73175675,0.00367429,-0.025223467,0.68108904,0.13481379
22080000,-0.028542006,-0.04223959,1.499529,0,0.731817,0.003948356,-0.025176495,0.6810245,0.13492787
22104000,-0.028250428,-0.042681243,1.4992269,0,0.731918,0.004201718,-0.02523936,0.6809122,0.1354382
22128000,-0.027832307,-0.043051664,1.499042,0,0.73197883,0.004478597,-0.025232904,0.68084514,0.13590392
22152000,-0.027358769,-0.043367904,1.498858,0,0.7320394,0.004757311,-0.025187815,0.6807798,0.13625862
22176000,-0.026927538,-0.04361751,1.4986782,0,0.7320987,0.004997908,-0.025132788,0.68071634,0.13657524
22200000,-0.026732363,-0.043939915,1.4983832,0,0.7321975,0.005175438,-0.025185073,0.68060684,0.1371826
22224000,-0.026368054,-0.044210568,1.4982071,0,0.7322555,0.005398762,-0.025160607,0.68054366,0.13766657
22248000,-0.025831884,-0.04442482,1.4980346,0,0.7323119,0.005665856,-0.025057051,0.68048453,0.13807134
22272000,-0.025430817,-0.044578183,1.4978572,0,0.7323706,0.005862704,-0.024977237,0.6804228,0.13846043
22296000,-0.024968548,-0.04486599,1.4976811,0,0.73242795,0.00612776,-0.024925841,0.68036056,0.13922298
22320000,-0.024716804,-0.045097575,1.4973949,0,0.7325236,0.006295213,-0.02492587,0.68025595,0.13990583
22344000,-0.02423038,-0.04527596,1.497227,0,0.73257846,0.006531997,-0.024826273,0.6801983,0.14052416
22368000,-0.023781471,-0.045403484,1.4970616,0,0.7326327,0.00673778,-0.024720844,0.6801418,0.14108308
22392000,-0.023357835,-0.045392103,1.4968977,0,0.732687,0.006887078,-0.024573173,0.6800871,0.14137551
22416000,-0.023120519,-0.04533843,1.4966129,0,0.7327832,0.006952271,-0.024473814,0.6799863,0.1416281
22440000,-0.010730713,-0.045234445,1.5055033,0,0.7296963,0.011546042,-0.020171711,0.6833763,0.14187244
22464000,-0.010369861,-0.045098957,1.5053494,0,0.7297476,0.011629851,-0.01999988,0.68332505,0.14204651
22488000,-0.010053102,-0.044911306,1.5051942,0,0.7298,0.011679759,-0.01982411,0.6832734,0.14220813
22512000,-0.009640655,-0.044699207,1.5050418,0,0.729851,0.011756289,-0.01960672,0.68322384,0.14229968
22536000,-0.009389164,-0.044447664,1.5047709,0,0.7299437,0.011759482,-0.019430622,0.6831297,0.14240277
22560000,-0.009027727,-0.04417381,1.5046233,0,0.7299938,0.01179642,-0.019208109,0.6830819,0.14244705
22584000,-0.008642245,-0.044021573,1.5044739,0,0.73004353,0.011883691,-0.019021783,0.68303245,0.14289252
22608000,-0.008184928,-0.043838494,1.5043237,0,0.7300933,0.011986675,-0.018799685,0.68298364,0.14332053
22632000,-0.007867999,-0.043633733,1.5041773,0,0.7301427,0.012031068,-0.018617602,0.682935,0.14367469
22656000,-0.007583295,-0.043390732,1.5039164,0,0.73023176,0.012049608,-0.018433256,0.6828445,0.14404704
22680000,-0.007169942,-0.043118507,1.5037743,0,0.73027956,0.012106276,-0.018193608,0.68279874,0.14440323
22704000,-0.006866402,-0.042931385,1.5036352,0,0.7303265,0.012151964,-0.018022511,0.6827524,0.14499018
22728000,-0.006556054,-0.04272063,1.5034904,0,0.7303754,0.012192043,-0.017840497,0.6827041,0.1455742
22752000,-0.00615416,-0.042491324,1.5033524,0,0.7304216,0.012259308,-0.017620428,0.6826592,0.14608958
22776000,-0.005958728,-0.04222925,1.5030936,0,0.7305105,0.012238957,-0.017459605,0.68256855,0.14663634
22800000,-0.00554041,-0.041972205,1.5029589,0,0.73055565,0.012302852,-0.01722379,0.68252504,0.14723924
22824000,-0.005123718,-0.04169075,1.5028242,0,0.7306009,0.012357854,-0.01697962,0.6824817,0.14782691
22848000,0.007077786,-0.041386366,1.511818,0,0.72743773,0.016767908,-0.01262921,0.6858525,0.14840686
22872000,0.007460264,-0.041060902,1.511685,0,0.727483,0.016794605,-0.012380771,0.68580836,0.14898038
22896000,0.007660857,-0.040743053,1.5114354,0,0.72756964,0.016757075,-0.012198446,0.6857206,0.1496
22920000,0.008007053,-0.040407415,1.5113057,0,0.7276141,0.016767181,-0.011958717,0.6856774,0.15021522
22944000,0.008246501,-0.040054716,1.511174,0,0.72766036,0.016732622,-0.011749392,0.68563277,0.1508351
22968000,0.008616422,-0.039684106,1.5110483,0,0.7277036,0.01673946,-0.011488769,0.68559116,0.15144104
22992000,0.008878985,-0.039161243,1.5109214,0,0.72774947,0.01665508,-0.011209546,0.68554926,0.15166137
23016000,0.009002093,-0.038624294,1.510673,0,0.7278381,0.016514495,-0.010973983,0.6854622,0.1519316
23040000,0.009288676,-0.038079347,1.510548,0,0.7278833,0.016431384,-0.010678439,0.6854209,0.15219578
23064000,0.009489068,-0.03752729,1.5104225,0,0.72792935,0.016314503,-0.010409836,0.6853789,0.15247224
23088000,0.009708018,-0.037075732,1.5102965,0,0.7279746,0.016238837,-0.010171449,0.68533623,0.15301639
23112000,0.00988413,-0.03661801,1.5101706,0,0.72802013,0.016145496,-0.009945482,0.6852934,0.15356836
23136000,0.009896864,-0.03615098,1.5099281,0,0.728107,0.015988952,-0.009773025,0.6852073,0.15411858
23160000,0.010052045,-0.03567577,1.5098097,0,0.72815025,0.015882103,-0.009547768,0.685167,0.1546549
23184000,0.010197335,-0.03517278,1.5096879,0,0.72819495,0.015762145,-0.009315795,0.68512547,0.15515356
23208000,0.022233268,-0.0346665,1.5187125,0,0.72499293,0.019993111,-0.004918051,0.6884484,0.15565951
23232000,0.022333222,-0.03415747,1.518593,0,0.72503823,0.019853912,-0.004700241,0.68840635,0.15617238
23256000,0.022324616,-0.033644665,1.5183532,0,0.72512597,0.019673811,-0.004519592,0.68832034,0.15669411
23280000,0.02239434,-0.033130143,1.5182341,0,0.7251713,0.019521825,-0.004310146,0.68827814,0.15724032
23304000,0.02247362,-0.032563254,1.5181149,0,0.72521716,0.019355318,-0.004078398,0.68823606,0.15767041
23328000,0.022519315,-0.031998947,1.5179945,0,0.72526366,0.019177541,-0.003859135,0.6881933,0.15812206
23352000,0.022535099,-0.03143507,1.5178754,0,0.7253099,0.01898909,-0.003650284,0.6881509,0.1585872
23376000,0.022415722,-0.030874576,1.5176405,0,0.7253972,0.018752608,-0.003490228,0.6880661,0.15906106
23400000,0.022411838,-0.030294064,1.5175251,0,0.7254424,0.018551365,-0.003282014,0.688025,0.15949494
23424000,0.022361822,-0.029715564,1.5174094,0,0.725488,0.018334106,-0.003090377,0.68798363,0.15995276
23448000,0.022415658,-0.029139047,1.5172933,0,0.72553265,0.018155219,-0.002863718,0.68794215,0.1604311
23472000,0.02239761,-0.028564466,1.5171777,0,0.72557795,0.017950946,-0.002662461,0.6879007,0.16092284
23496000,0.022233443,-0.027981192,1.5169417,0,0.7256657,0.017690541,-0.002509343,0.6878153,0.16140434
23520000,0.022052567,-0.027402578,1.5168264,0,0.7257121,0.017425852,-0.002362552,0.6877737,0.16191237
23544000,0.021885123,-0.026826931,1.5167109,0,0.7257584,0.017167069,-0.002212188,0.68773204,0.16243514
23568000,0.03364544,-0.026253454,1.5257301,0,0.72254205,0.0212278,0.002135711,0.69099766,0.16297418
23592000,0.03356457,-0.025716525,1.5256152,0,0.7225883,0.021013293,0.002300622,0.69095534,0.16361995
23616000,0.033275522,-0.025182536,1.5253808,0,0.7226778,0.020724744,0.00239134,0.69087017,0.16428022
23640000,0.03323954,-0.024650333,1.5252665,0,0.7227231,0.020528123,0.002570119,0.69082797,0.16496526
23664000,0.033068266,-0.024120104,1.5251522,0,0.72276974,0.020283319,0.00270148,0.69078594,0.16566853
23688000,0.032977253,-0.02355052,1.5250394,0,0.7228153,0.020053938,0.002874832,0.6907442,0.1662727
23712000,0.0326977,-0.02298704,1.5248077,0,0.72290367,0.01975872,0.002979713,0.6906598,0.16688381
23736000,0.03244572,-0.022427445,1.5246952,0,0.7229504,0.019474644,0.003093939,0.6906184,0.16750604
23760000,0.03219904,-0.021872029,1.5245835,0,0.7229967,0.019193936,0.003208527,0.6905773,0.16814046
23784000,0.03193524,-0.021200612,1.5244715,0,0.7230442,0.018867012,0.00335918,0.69053584,0.16848552
23808000,0.031615887,-0.020540902,1.5243589,0,0.7230922,0.018524056,0.003486452,0.6904943,0.1688698
23832000,0.031130344,-0.019890705,1.5241272,0,0.72318256,0.018124515,0.003551868,0.69040996,0.1692786
23856000,0.030855423,-0.019250808,1.524014,0,0.72322977,0.01780449,0.003687407,0.69036806,0.16972588
23880000,0.030564418,-0.0186227,1.5238993,0,0.72327745,0.01748273,0.003813151,0.69032574,0.17020959
23904000,0.042020205,-0.018013181,1.532889,0,0.72006184,0.02137887,0.00808383,0.6935334,0.17073946
23928000,0.041621245,-0.017412813,1.5327739,0,0.72011226,0.021027593,0.008160502,0.69349086,0.17129976
23952000,0.041049615,-0.016820956,1.5325397,0,0.7202054,0.020617582,0.008173054,0.6934063,0.17189176
23976000,0.040748164,-0.016234584,1.5324267,0,0.7202536,0.020306267,0.008278617,0.69336414,0.17250335
24000000,0.040378716,-0.015663723,1.5323155,0,0.7203015,0.019975845,0.008355074,0.693323,0.1731483
24024000,0.04007633,-0.015103515,1.5322013,0,0.72034955,0.019673282,0.008450948,0.69328064,0.17383483
24048000,0.0395722,-0.014550406,1.532087,0,0.7203994,0.01930052,0.008474366,0.69323903,0.17454685
24072000,0.038998015,-0.014005031,1.5318539,0,0.72049075,0.018905701,0.008469638,0.69315505,0.17528635
