timestamp,control[0],control[1],control[2],control[3],control[4],output[2],output[3],output[4],output[5],output[6],output[7],indicated_airspeed_m_s,true_airspeed_m_s,indicated_airspeed_m_s.1,equivalent_airspeed_m_s,true_airspeed_m_s.1,equivalent_ground_minus_wind_m_s,true_ground_minus_wind_m_s,differential_pressure_raw_pa,differential_pressure_filtered_pa,temperature,gyro_bias[0],gyro_bias[1],gyro_bias[2],accel_bias[0],accel_bias[1],accel_bias[2],instance_count,seq_reached,seq_current,seq_total,item_changed_index,item_do_jump_remaining,valid,warning,finished,failure,stay_in_failsafe,flight_termination,item_do_jump_changed,execution_mode,nav_roll,nav_pitch,nav_bearing,target_bearing,xtrack_error,wp_dist,acceptance_radius,rollspeed_integ,pitchspeed_integ,yawspeed_integ,additional_integ1,x,y,z,temperature.1,pressure,temperature.2,gyro_rad[0],gyro_rad[1],gyro_rad[2],accelerometer_m_s2[0],accelerometer_m_s2[1],accelerometer_m_s2[2],x.1,y.1,z.1,temperature.3,altitude_sp,altitude_filtered,height_rate_setpoint,height_rate,airspeed_sp,airspeed_filtered,airspeed_derivative_sp,airspeed_derivative,throttle_integ,pitch_integ,baro_alt_meter,baro_temp_celcius,baro_pressure_pa,rho,xyz[0],xyz[1],xyz[2],xyz[0].1,xyz[1].1,xyz[2].1,roll_body,pitch_body,yaw_body,q_d[0],q_d[1],q_d[2],q_d[3],thrust_body[0],lat,lon,alt,vel_m_s,vel_n_m_s,vel_e_m_s,vel_d_m_s,cog_rad,ground_contact,maybe_landed,landed,ref_timestamp,ref_lat,ref_lon,x.2,y.2,z.2,vx,vy,vz,ax,ay,az,dist_bottom,roll,pitch,yaw,thrust_body[0].1,timestamp.1,isTakeoff,isClimbing,isDescending,isCruise,isLand
32785486.0,0.022988841,0.056992031,0.015310011,0.41744525,0.0,1507.0,1500.0,1490.0,1469.603321,1529.396679,1540.0,15.98312722,16.33485529,16.7962992,16.77024589,17.13970109,16.61033421,16.97626421,174.8719321,174.8719321,12.07706888,-0.001883914,-0.006296102,0.000915038,-0.185196646,0.193669518,-0.096913109,2.0,-0.273254651,0.7267453490000001,11.0,0.0,0.0,1.0,0.0,0.0,0.0,0.0,0.0,0.0,0.0,0.48944613,0.210972744,-1.652837898,-1.187863652,27.163375,191.0217403,48.32195109,-0.019747798,0.012312289,0.01269013,0.0,4.413803037,-0.194062984,-9.956223037,79448900.01,960.4297027,12.0805671,0.014569108,-0.016314968,-0.036112527,0.081543722,-0.43132228,-9.624803885,0.287244181,0.054253171,0.017193426,79448900.01,56.10684518,52.93032711,4.15067173,5.040687303,15.33208654,19.67718721,-0.086902003,1.3575302480000002,-0.223643163,81.60195585,449.4306415,12.080566,96041.97854,1.1411376009999998,2.235897464,0.557099728,0.128204665,0.4330393870000001,0.125795145,0.045407712,0.585049304,0.234453817,-1.5098517,0.669441519,0.285305879,-0.114678311,-0.676172635,0.62983787,398701419.7,327344765.4,449972.235,16.05052351,-8.102784352999999,-13.8395655,-0.12,4.182663117,0.0,0.0,0.0,756000.0,39.87141370000001,32.7364371,-102.511909,-99.07534689,-48.81380692,-9.685253329,-14.01837583,0.606262975,1.085544339,-0.843518852,-0.493893449,48.87310546,0.527502,0.279135522,0.017184743,0.5952156,32785486.0,0.0,1.0,0.0,0.0,0.0
32810251.0,0.03704119717635271,0.06614665423446894,0.015296655907815631,0.44501122513026053,0.0,1507.0,1500.0,1515.6593186372745,1463.5694914008016,1535.4305085991984,1544.8820784248496,16.028788420721444,16.381437601943887,16.85184896561122,16.82595019468938,17.196677344609217,16.663688890881765,17.030838554108218,176.01964059038076,176.01964059038076,12.076747590340682,-0.001882584380761523,-0.006294586933867735,0.0009143533627254509,-0.1851942660981964,0.19363537769338676,-0.09687149716633267,2.0,-0.27173811528857716,0.728261884711423,11.0,0.0,0.0,1.0,0.0,0.0,0.0,0.0,0.0,0.0,0.0,0.5163893557995992,0.21785990631462926,-1.6283544473807614,-1.1352734053747495,28.95881272757515,199.69791690501003,48.48841060701403,-0.01972691189779559,0.01243248308016032,0.012555434905811623,0.0,4.661270739210421,-0.17424087051903808,-10.199542064761523,81159557.79174349,960.4251098569139,12.080548047955912,0.0170546567995992,-0.013415238142284567,-0.034299316496993984,0.06126154451703407,-0.4105855564348697,-9.648512337887775,0.3374729929498998,0.07683749263727456,0.029254249905811627,81159557.79174349,56.21208286903808,53.042475302585174,4.150864293855712,5.099198931342686,15.332158829298598,19.668989961603206,-0.08673661177955912,1.3163347006212425,-0.22381393976152306,81.82586042320641,449.39768834509016,12.08054850501002,96042.34967288577,1.1411419969078156,2.3141734023767535,0.7798260212124248,0.19204640971342685,0.4846355723767536,0.15162255375150302,0.056599232014028056,0.6200913630460921,0.24395476172545089,-1.5098517,0.6628662713627255,0.29989982466533066,-0.123112642753507,-0.6747073846853707,0.6336497460641283,398701403.7212425,327344729.943487,449974.3141046092,16.069125466312624,-8.118103751751503,-13.84503680735471,-0.12,4.182013795695391,0.0,0.0,0.0,756000.0,39.87141370000001,32.7364371,-102.72834127054108,-99.38618047611223,-48.801202491182366,-9.662800781376754,-14.037120248016032,0.5951994115931865,1.0982869992324649,-0.8161878415831664,-0.5204729434609219,48.86050148605211,0.5441434100020041,0.28619513418036074,0.019525563911823647,0.6011195001402805,32810250.741482966,0.0,1.0,0.0,0.0,0.0
32835015.0,0.05129197608016032,0.07564690493787575,0.015306050300601202,0.4727966046893788,0.0,1507.0,1500.0,1538.732711729459,1458.4022621402805,1540.5977378597195,1549.4098641142284,16.094151397975953,16.448186808116233,16.90739873288577,16.881654499378758,17.253653597555108,16.717043573426853,17.085412898216433,177.16734906412825,177.16734906412825,12.076426300681364,-0.0018812545951903809,-0.0062930717014028055,0.0009136687254509018,-0.18519188603006012,0.19360123738677354,-0.096829885498998,2.0,-0.2702215795771543,0.7297784204228458,11.0,0.0,0.0,1.0,0.0,0.0,0.0,0.0,0.0,0.0,0.0,0.5433325815991984,0.22474706846292586,-1.603870996761523,-1.082683158749499,30.754250455150302,208.37409351002006,48.654870122364734,-0.019708900356713428,0.012545420232464929,0.012412614128256512,0.0,4.903657070975952,-0.15498844309018037,-10.447856609198396,82382296.0,960.4202619925852,12.080528641623246,0.018867921068136274,-0.013038758683366732,-0.033139030899799596,0.1297625305891784,-0.3853946829458918,-9.659474081909819,0.3877820620741483,0.09960392691983969,0.04139235729058117,82382296.0,56.31732330921844,53.154818673246496,4.151037095228457,5.157499116769539,15.332231165170342,19.6604591646493,-0.0865645486232465,1.2752433109238477,-0.22398473149298595,82.04975969372745,449.38469088517036,12.080532824709419,96042.4973960521,1.1411437386452905,2.3172438787374747,0.9835895334649298,0.2862389492224449,0.534883217498998,0.17728518155511022,0.06889324618436873,0.6470580112765532,0.2534288071322645,-1.5098517,0.6574543464028055,0.3117846165651303,-0.12883212418036072,-0.6737345785270541,0.6371494182104209,398701387.742485,327344694.48697394,449976.39319258515,16.087727420961922,-8.133423150669339,-13.850508113046093,-0.12,4.181364474390782,0.0,0.0,0.0,756000.0,39.87141370000001,32.7364371,-102.94545972985972,-99.6982032858918,-48.788600291222444,-9.640270019643287,-14.05593277759519,0.5840671238537074,1.110496911739479,-0.7902504312725451,-0.5462163717695391,48.8478997143487,0.5695038934909821,0.2965072286052104,0.021703273689378758,0.6080571178757515,32835015.48296593,0.0,1.0,0.0,0.0,0.0
32859780.0,0.06604000712024048,0.08601330640681362,0.015372455450901804,0.5011318170340681,0.0,1507.0,1500.0,1555.3257130941884,1455.4067542104208,1543.5932457895792,1553.0497836713428,16.20888750196393,16.56547473717435,16.962948504328658,16.937358804068136,17.310629846332663,16.77039826014028,17.139987242324647,178.31505749619237,178.31505749619237,12.076105011022044,-0.0018799243927855713,-0.006291556052104208,0.0009129840881763527,-0.18518950554509017,0.19356709708016032,-0.096788274248497,2.0,-0.26870504386573146,0.7312949561342686,11.0,0.0,0.0,1.0,0.0,0.0,0.0,0.0,0.0,0.0,0.0,0.5702758073987976,0.23163423019438878,-1.5793875461422844,-1.0300929121242486,32.549688182725454,217.0502701150301,48.821329633547094,-0.01969809253507014,0.012640171348697394,0.012249430192384768,0.0,5.133309365963927,-0.13716366263527055,-10.708690038797595,82382296.0,960.4147750388777,12.08050834743487,0.01899642410220441,-0.0189856055250501,-0.0336149908496994,0.42075626388376763,-0.34904160241883764,-9.63849226636473,0.4382922576112225,0.12282673987975952,0.053724138935871746,82382296.0,56.42257064382766,53.26765116486974,4.1511603713426855,5.215269421154309,15.332303617755512,19.651092486973948,-0.08637576543486974,1.2344129428857715,-0.22415556073947895,82.27364567559118,449.42170287775554,12.080521692064128,96042.08524907815,1.1411388289679358,2.1318476551062124,1.1398318596973946,0.4564913118336674,0.581751388248497,0.20253486433266532,0.08395013727655311,0.6537874854148297,0.2628354421983968,-1.5098517,0.6549577361042084,0.3168802038476954,-0.12774812527054108,-0.6739958492905812,0.6398666998156313,398701371.7637274,327344659.03046095,449978.47223887773,16.106329371442882,-8.148742550004007,-13.855979414569138,-0.12,4.180715153086172,0.0,0.0,0.0,756000.0,39.87141370000001,32.7364371,-103.16429779478958,-100.01320631883767,-48.77600367683367,-9.61754325146493,-14.074915996392786,0.5727626112805612,1.1213717456092185,-0.7678054164088177,-0.5698645981543087,48.83530346152305,0.6167145852364729,0.3149701219078156,0.023472223034068138,0.6175852568136273,32859780.224448897,0.0,1.0,0.0,0.0,0.0
32884545.0,0.07781008398797595,0.09536585073346693,0.015280088753507014,0.5262326042084168,0.0,1507.0,1500.0,1568.9558034128256,1454.3057550460921,1544.6942449539079,1555.84695948497,16.327361280581165,16.686597658777554,17.01849827577154,16.993063105430863,17.36760609511022,16.823752943527055,17.194561586432865,179.46276592825652,179.46276592825652,12.075783721362725,-0.0018785941903807616,-0.006290040735470942,0.0009122997835671342,-0.18518712506012025,0.1935329567735471,-0.09674666266533066,2.0,-0.26718850815430867,0.7328114918456915,11.0,0.0,0.0,1.0,0.0,0.0,0.0,0.0,0.0,0.0,0.0,0.5972190331983968,0.2385213919258517,-1.5549040951903808,-0.9775026658316633,34.34512590697395,225.72644668677356,48.98778914805611,-0.01969878162725451,0.01272595380761523,0.012060189246492985,0.0,5.32603844295992,-0.12402707813226453,-10.98779002523046,82382296.0,960.4099989577154,12.080482361342685,0.03343871991382766,-0.019672769312625252,-0.029994687228456912,1.0944920049298599,-0.31978666625651303,-9.654846788587175,0.48774763492384776,0.1460695493527054,0.06554282921843688,82382296.0,56.52781797843688,53.38048365316633,4.151283647456913,5.273039725539078,15.33237607034068,19.64172581262525,-0.08618698257915831,1.1935825748476954,-0.22432638965330662,82.49753165745491,449.47502012885775,12.080500789038076,96041.47444102204,1.1411315557034067,2.0272808058276555,1.3806252929238476,0.4153938706412825,0.624320316016032,0.22667705831663326,0.09455776662925852,0.6573302618777555,0.27219700743286573,-1.5098517,0.6529464911763526,0.32090538321042084,-0.12560527989178358,-0.6744510589519038,0.6420995774529058,398701355.3192385,327344622.6757515,449980.29473366734,16.16341181519038,-8.183045608208417,-13.90095720246493,-0.12974837860921845,4.180280732254509,0.0,0.0,0.0,756000.0,39.87141370000001,32.7364371,-103.39126856232465,-100.34230426873748,-48.763433496032064,-9.59388947973948,-14.094706494148296,0.5606435696412826,1.1259323929018037,-0.7618775093286574,-0.5836036734328657,48.822733306292584,0.6448218995110221,0.32593725726653305,0.02586720495190381,0.6238420547094189,32884544.965931863,0.0,1.0,0.0,0.0,0.0
32909310.0,0.08733772548496996,0.10395494841683367,0.015068164941883767,0.548897830260521,0.0,1507.0,1500.0,1580.354786016032,1454.6313438076152,1544.3686561923848,1558.0095391062125,16.448649573226454,16.810608375971942,17.07404804721443,17.048767404288576,17.424582343887778,16.877107624408822,17.24913593054108,180.61047436032067,180.61047436032067,12.075462431703407,-0.001877263987975952,-0.006288525669338677,0.0009116157294589179,-0.18518474457515036,0.19349881646693387,-0.09670505083166332,2.0,-0.2656719724428858,0.7343280275571143,11.0,0.0,0.0,1.0,0.0,0.0,0.0,0.0,0.0,0.0,0.0,0.624162258997996,0.24540855365731465,-1.530420643987976,-0.924912419789579,36.14056362871744,234.40262323346695,49.15424866507014,-0.019708128034068136,0.012804982759519037,0.011851327058116232,0.0,5.4909638919498995,-0.11442076166533066,-11.280644949038075,82382296.0,960.4057581721443,12.080452089178356,0.058659474142284576,-0.016399328390781565,-0.023289847785571142,2.0564370891623245,-0.2958767183206413,-9.699316022983968,0.5364087214048097,0.16932741644088178,0.0769751555230461,82382296.0,56.633065313046096,53.493316138957915,4.151406923571143,5.330810029923848,15.332448522925851,19.632359140781563,-0.08599819997394789,1.1527522068096192,-0.22449721831663327,82.72141763931863,449.54061543607213,12.080472528797594,96040.71403877756,1.1411225026292584,1.9835794492845693,1.6850867284048097,0.21514748080160317,0.66365186202004,0.2499852998957916,0.10181504828657315,0.6584734165971944,0.2815246345410822,-1.5098517,0.6513007322204408,0.32412453251302603,-0.12266511036472946,-0.6750523069398797,0.6439676930661322,398701338.5240481,327344585.6446894,449981.92404208414,16.249470533987978,-8.231643590260521,-13.975683850581163,-0.14683740376152304,4.180008134068136,0.0,0.0,0.0,756000.0,39.87141370000001,32.7364371,-103.62436335290582,-100.68201586092184,-48.75088322004008,-9.56953766317435,-14.11510488268537,0.5479111778016031,1.1257383816272544,-0.7683871834108217,-0.5898810385410822,48.81018280286573,0.6585441403887776,0.33125999658316635,0.02873359693987976,0.6276354933867736,32909309.70741483,0.0,1.0,0.0,0.0,0.0
32933751.0,0.0945769112745491,0.11169229793787576,0.015071476430861723,0.5661860365410821,0.0,1507.0,1500.0,1593.4769539078156,1452.047790719439,1546.952209280561,1560.6561442885773,16.537712720000002,16.901670659679358,17.129597818657313,17.10447170813627,17.48155859266533,16.93046231028056,17.30371027963928,181.75818284228458,181.75818284228458,12.075141142044089,-0.0018759337855711422,-0.006287010104208417,0.0009109311763527055,-0.18518236409018038,0.19346467616032065,-0.09666343949699399,2.0,-0.26415543673146297,0.7358445632685372,11.0,0.0,0.0,1.0,0.0,0.0,0.0,0.0,0.0,0.0,0.0,0.639719862492986,0.2506413723627255,-1.5135261274609217,-0.89825962351503,36.82126663857716,238.5900162018036,49.324343387474954,-0.019744047581162324,0.012858291358717435,0.011649665909819638,0.0,5.52183626182966,-0.12183536514428858,-11.639818243426854,82382296.0,960.404098304008,12.080401148517034,0.09978190479358719,-0.009665383771543086,-0.017833268795591183,2.7481304999378757,-0.3048277953907816,-9.703843108997996,0.5812401948717435,0.192657883246493,0.08654465693987977,82382296.0,56.738312642665335,53.6061486247495,4.151530199685371,5.388580334308617,15.332520970521042,19.622992463947895,-0.08580941686973947,1.111921838771543,-0.2246680474789579,82.94530361619239,449.521825790982,12.080444173747495,96040.92934228457,1.1411250881843686,2.0946432243847695,1.5832294219739478,0.6394463520120242,0.7043221133607214,0.27183820583567136,0.11379349569138276,0.6614089142344689,0.29075775641883767,-1.5065069398857713,0.6504737626092184,0.32807785507214426,-0.11980513280961924,-0.6744408515751503,0.6442911010020039,398701321.5791583,327344548.26432866,449983.47006773547,16.34803166753507,-8.286409414587174,-14.063246259078158,-0.16709370342484972,4.179805357677354,0.0,0.0,0.0,756000.0,39.87141370000001,32.7364371,-103.85745814348698,-101.02172745310621,-48.73833293905812,-9.54518584611022,-14.135503276212425,0.5351787859619238,1.1255443703527053,-0.774896856993988,-0.5961584036492986,48.797632294448896,0.6791241745971944,0.3387924986252505,0.030484537290581162,0.6310648242044089,32933750.599198397,0.0,1.0,0.0,0.0,0.0
32957586.0,0.10040784770340681,0.11863810646092185,0.015108818442885771,0.5814881431422846,0.0,1507.0,1500.0,1606.1583872144288,1448.9989986913831,1550.0010013086169,1563.4037048156313,16.63108818967936,16.997131937074148,17.1851475901002,17.16017601282565,17.538534841442885,16.983816996993987,17.358284628757517,182.9058913244489,182.9058913244489,12.07481985238477,-0.0018746035831663326,-0.006285494537074148,0.0009102465390781563,-0.18517998368737476,0.19343053593587176,-0.09662182816432865,2.0,-0.2626389009378758,0.7373610990621243,11.0,0.0,0.0,1.0,0.0,0.0,0.0,0.0,0.0,0.0,0.0,0.6520768900160321,0.2554091438677355,-1.4987649121122242,-0.8788980210841683,37.188610133486975,241.51558154869738,49.49545999282565,-0.01978906960921844,0.012905908092184368,0.011439840583166333,0.0,5.530097268967936,-0.13212096708617235,-12.010177768997996,82382296.0,960.4028737713427,12.08034672242485,0.1438318906653307,-0.0009386477074148107,-0.011938919086172336,3.348203146392786,-0.30981861464729454,-9.71672941592986,0.6254257094348697,0.2160005958697395,0.09579994692985973,82382296.0,56.84355997226453,53.71898111136272,4.151653475717435,5.446350638693387,15.332593418096192,19.61362578709419,-0.08562063368136272,1.0710914707334669,-0.22483887664328658,83.1691895930461,449.4992476222445,12.08041476004008,96041.1881658517,1.1411281947334668,2.1545027970020034,1.3889794494709415,1.0494480089098193,0.743049341,0.292818625486974,0.12535611355511023,0.6656558667054109,0.29957866238476955,-1.5010580034348695,0.6501877903106211,0.3324487693066132,-0.1171734168517034,-0.6730376679659319,0.6442981021683367,398701304.609018,327344510.8250501,449985.00203747494,16.448701642945892,-8.342215597851704,-14.152973736412827,-0.1878842421623247,4.1796143583747485,0.0,0.0,0.0,756000.0,39.87141370000001,32.7364371,-104.08872621563127,-101.35930725891784,-48.72598125581162,-9.52088026702004,-14.155655469278557,0.522458795513026,1.126637492290581,-0.7800561220380762,-0.6018922758797595,48.78528042156313,0.6981554601182364,0.346954665747495,0.03225039946092185,0.6344252833186373,32957586.200400803,0.0,1.0,0.0,0.0,0.0
32978064.0,0.10000558423246493,0.12163347209819639,0.015132293220440882,0.5902101735911823,0.0,1507.0,1500.0,1614.3801111022044,1446.1054486472947,1552.8945513527053,1566.2690243607215,16.783902011062125,17.153303950941883,17.240697361543088,17.21588031751503,17.595511090220445,17.037171683707413,17.41285897286573,184.05359975651302,184.05359975651302,12.07449856272545,-0.001873273380761523,-0.006283979470941884,0.0009095619018036072,-0.18517760378557113,0.19339639621242485,-0.09658021633066133,2.0,-0.2611223646432866,0.7388776353567135,11.0,0.0,0.0,1.0,0.0,0.0,0.0,0.0,0.0,0.0,0.0,0.6566283714468938,0.25904276056312625,-1.4892063791282564,-0.8773181400961924,36.7917342796994,241.36380906993986,49.669068767515036,-0.01986226398196393,0.01294527181963928,0.011172827380761523,0.0,5.538358276106212,-0.1424065685270541,-12.38053729456914,82382296.0,960.4016492386774,12.080292301342686,0.1893778810460922,0.01638011290581163,-0.0020913945270541034,3.667567593448898,-0.25686381616833664,-9.82166725191984,0.669611223496994,0.23934330899398798,0.10505523691983969,82382296.0,56.948807306873746,53.831813602985974,4.151776751248496,5.504120943078156,15.332665870681362,19.604259115250503,-0.08543185049298596,1.0302611026953907,-0.22500970530661327,83.39307557490982,449.5403589825652,12.080378988617234,96040.70883811623,1.1411225076953908,1.7429650254308617,1.0492601192525048,0.7299240676112222,0.7685519989999999,0.30997582569939885,0.1295274463486974,0.6760560626633266,0.3059832557254509,-1.486218823496994,0.652358453783567,0.3386108739218437,-0.11585106211623246,-0.6680541436753508,0.6439645321923848,398701287.63887775,327344473.3857715,449986.5339571142,16.549371623366735,-8.398021781116233,-14.242701218757515,-0.2086747808997996,4.1794233585711416,0.0,0.0,0.0,756000.0,39.87141370000001,32.7364371,-104.30885576072144,-101.68388836733467,-48.714840539498994,-9.496856627308617,-14.174306434889779,0.5098144233006011,1.13557898747495,-0.7769811891863728,-0.6043121671482966,48.774139746072144,0.7006898864208416,0.3566835037114229,0.03525449509819639,0.6377402795070141,32978064.086172346,0.0,1.0,0.0,0.0,0.0
32999375.0,0.1030483034228457,0.12583159673346694,0.015024066827655311,0.5999084408817635,0.0,1507.0,1500.0,1621.3104358717435,1444.4602490961925,1554.5397509038075,1568.2446955931864,16.899212884789577,17.271133716072143,17.296247132985975,17.271584622204408,17.652487341482967,17.090526367935873,17.467433316973946,185.20130818857714,185.20130818857714,12.074177273066132,-0.0018719434268537074,-0.006282464156312625,0.0009088775130260521,-0.18517522363527053,0.19336225624048098,-0.09653860474549099,2.0,-0.2596058285971944,0.7403941714028056,11.0,0.0,0.0,1.0,0.0,0.0,0.0,0.0,0.0,0.0,0.0,0.6611798528777555,0.26267637750701406,-1.4796478458957916,-0.8757382591082165,36.39485842591182,241.21203656633264,49.84267753971944,-0.019933220639278555,0.01297651267735471,0.010919457657314629,0.0,5.52617612562525,-0.15145716003607215,-12.755238370761523,82382296.0,960.4004002290582,12.08022802238477,0.2383452421523046,0.036712054136272536,0.007280086825651301,4.030979921370742,-0.23411299906813626,-9.941355994218437,0.7063301829218437,0.2613937979899799,0.11469141987174349,82382296.0,57.057629198677354,53.951488511523046,4.151661279813626,5.55880242286974,15.332749493206412,19.592606323246493,-0.08519712219839679,0.990677456252505,-0.2251848257615231,83.62206746178357,449.5726021064129,12.080326836272544,96040.3317072545,1.1411180492264528,1.6368237034148296,0.9362631183727453,0.5361886926212425,0.78847151649499,0.3262523103206413,0.1357816548537074,0.686753426981964,0.31072101745891784,-1.4703085290741484,0.6550472787154308,0.3444335636993988,-0.11498421057114229,-0.6625754471282566,0.6432630057595191,398701270.6687375,327344435.94649297,449988.0658767535,16.650041601302608,-8.453827964380762,-14.332428698617234,-0.22946531963727454,4.179232359016032,0.0,0.0,0.0,756000.0,39.87141370000001,32.7364371,-104.52534721042083,-102.00422378036072,-48.70409534839679,-9.472925075861722,-14.192467068717434,0.49719474994989976,1.1470839498176353,-0.7712167701382766,-0.6056496328456914,48.76339467779559,0.6915216745591182,0.3675873649298597,0.03693097939278557,0.6407764426853707,32999374.685370743,0.0,1.0,0.0,0.0,0.0
33021807.0,0.11073063635871744,0.1316495661482966,0.014738468697394789,0.610921478757515,0.0,1507.0,1500.0,1626.5015376352706,1444.4962957735472,1554.5037042264528,1569.0222114368737,16.964015756432865,17.33732513008016,17.35179690442886,17.327288926893786,17.709463596092185,17.143881048817633,17.522007661082164,186.34901662064127,186.34901662064127,12.073855983406814,-0.0018706138076152305,-0.006280948507014028,0.0009081934589178357,-0.1851728431503006,0.19332811593386773,-0.09649699349498998,2.0,-0.25808929288577154,0.7419107071142285,11.0,0.0,0.0,1.0,0.0,0.0,0.0,0.0,0.0,0.0,0.0,0.6657313343086173,0.26630999478557116,-1.4700893123286574,-0.8741583781202404,35.99798257212424,241.06026402925852,50.01628630857716,-0.020001163599198398,0.012996813863727455,0.010684462619238477,0.0,5.486461658028055,-0.15884447204008015,-13.135786535290581,82382296.0,960.3991182545091,12.080150467094189,0.2919204170581163,0.061102069262525066,0.016010445472945896,4.4537147985230465,-0.2520401246312626,-10.08091087646493,0.7329933792464931,0.2817039528777555,0.12484057963527055,82382296.0,57.171265211863734,54.080378610581164,4.151224270126252,5.609323953410822,15.332848159118237,19.577874643607213,-0.0849005162204409,0.9527728622805611,-0.2253657262905812,83.85793584975953,449.5929017182365,12.080252622525048,96040.09221250501,1.1411152453627254,1.941982438460922,1.1286098997474951,0.5118621125791583,0.8008718044388778,0.34134266991182366,0.14484102661523046,0.6978510099799599,0.3132139333987976,-1.4529556853046093,0.6584339501282565,0.34979913833266535,-0.11473081896793587,-0.6564298653647295,0.6420659250661322,398701253.6985972,327344398.5072144,449989.59779639274,16.750711575891785,-8.50963414764529,-14.42215617513026,-0.2502558583747495,4.179041359795591,0.0,0.0,0.0,756000.0,39.87141370000001,32.7364371,-104.73693896713426,-102.3188412004008,-48.693882840440885,-9.449117546513026,-14.209967336352705,0.48460834038877754,1.1620413235751503,-0.7618302204869739,-0.6055293157174348,48.753182403106216,0.6665926516212424,0.38007371714428856,0.03681947099198397,0.6434370807615231,33021806.761523046,0.0,1.0,0.0,0.0,0.0
33042580.0,0.11088390265531062,0.13456732037274552,0.01485472974749499,0.6172439132264529,0.0,1507.0,1500.0,1630.9508588396793,1443.3727450440883,1555.6272549559117,1570.1129867274549,17.053430434428858,17.4287226603006,17.407346675871747,17.382993231583164,17.766439846553105,17.197235733847695,17.57658200519038,187.49672509418838,187.49672509418838,12.073534693747495,-0.0018692837735470942,-0.006279433272545091,0.0009075089899799599,-0.18517046266533066,0.1932939756272545,-0.09645538182965932,2.0,-0.25657275717434874,0.7434272428256513,11.0,0.0,0.0,1.0,0.0,0.0,0.0,0.0,0.0,0.0,0.0,0.6702828157394789,0.2699436120641283,-1.4605307787615232,-0.8725784967174348,35.60110671833667,240.90849153366733,50.18989508158317,-0.020075799835671343,0.013002683126252504,0.010425737250501003,0.0,5.430526387517034,-0.1652518539258517,-13.51977954486974,82382296.0,960.3978168659319,12.080065088116232,0.3407781876573147,0.07552669702605212,0.027024701078156327,4.72366217297996,-0.2641879130721443,-10.219407328717436,0.7537321721022044,0.30098878117835676,0.13529196188777556,82382296.0,57.28835539961924,54.21588068787575,4.150556553753508,5.656860687482966,15.3329576147495,19.560933834248498,-0.08455951226853708,0.9160730020861723,-0.22555077304208418,84.09873818436874,449.5680104921844,12.080183166873747,96040.38479901804,1.1411187153827655,1.9528007193547092,1.1165151762324648,0.4408097859278556,0.8001788246753507,0.35921265288176357,0.15320218779158318,0.7054971583587174,0.31542492280561124,-1.4395802548577155,0.6610969138657314,0.35371825628657316,-0.11407462983967936,-0.6517546668256513,0.6404762404569138,398701236.7699399,327344361.10941887,449991.12971603207,16.851381554629256,-8.56544033090982,-14.511883655791584,-0.2710463975270542,4.178850360575151,0.0,0.0,0.0,756000.0,39.87141370000001,32.7364371,-104.94921639579158,-102.6346828242485,-48.6837062235471,-9.425211114306613,-14.227513890681363,0.47195234481162324,1.1772105869298597,-0.7525832991803607,-0.6051054644088176,48.743005994589176,0.6422125072284569,0.3852434232985972,0.038925407156312625,0.6442980218436873,33042579.933867734,0.0,1.0,0.0,0.0,0.0
33062680.0,0.10798189553306613,0.13630817567935874,0.015134064088176353,0.6216629144288577,0.0,1507.0,1500.0,1635.0991676432866,1441.7786330480963,1557.2213669519037,1571.3308817935872,17.152832512104208,17.53034875941884,17.46289644731463,17.438697536272546,17.82341609533066,17.25059042056112,17.631156349298596,188.64443358456913,188.64443358456913,12.073213404088177,-0.0018679535711422846,-0.0062779182064128265,0.0009068243527054109,-0.1851680821803607,0.19325983532064128,-0.09641376999599198,2.0,-0.2550562214629259,0.7449437785370742,11.0,0.0,0.0,1.0,0.0,0.0,0.0,0.0,0.0,0.0,0.0,0.6748342971703406,0.2735772293426854,-1.4509722451943887,-0.8709986151462925,35.204230864549096,240.75671905490984,50.363503856272544,-0.020153152184368736,0.013002695955911824,0.01015738218236473,0.0,5.368008762200401,-0.17126158301002004,-13.90517046258517,82382296.0,960.3965075991985,12.079976534308617,0.3877216492625251,0.08590739948296594,0.0389657554488978,4.931608821705411,-0.27399046326052107,-10.357474273146293,0.7720668592024048,0.3198575349218437,0.1458659851503006,82382296.0,57.406847281402804,54.35406588677355,4.149795217276554,5.703186199799598,15.333071448817636,19.543096566452906,-0.084200491747495,0.8798620193667334,-0.2257375023186373,84.34154270022044,449.5247809551102,12.080115642044088,96040.89330256513,1.1411247313266535,1.8441764971142283,1.0214586826172345,0.35079628673947894,0.7941726348276553,0.3782105989619239,0.16128001713627257,0.7117427245731462,0.31752150724248496,-1.4278188472084168,0.6634661991262525,0.3570504063126253,-0.11325498664328658,-0.6476761455370741,0.6387272383166333,398701219.85811627,327344323.7284569,449992.66163567133,16.9520515350501,-8.621246514174349,-14.601611138136272,-0.2918369368476954,4.178659361354709,0.0,0.0,0.0,756000.0,39.87141370000001,32.7364371,-105.16177206813627,-102.95102122645291,-48.67354417114229,-9.401264547607214,-14.245079228016033,0.4592681114308617,1.1924658344689378,-0.7433930386513026,-0.6045584398096192,48.73284414046092,0.6180550961583167,0.38744405568937873,0.04193117589779559,0.6444286511022044,33062679.92785571,0.0,1.0,0.0,0.0,0.0
33082779.0,0.10644594997394789,0.13690950010420844,0.014574183759519037,0.626265096252505,0.0,1507.0,1500.0,1637.3721551242486,1446.7926115731464,1552.2073884268536,1571.8357801863726,17.276989995190384,17.657236398216433,17.518446218757518,17.494401835150303,17.880392344108216,17.303945107274547,17.68573069340681,189.79214201683368,189.79214201683368,12.072892120240482,-0.001866623368737475,-0.006276403140280561,0.0009061397154308617,-0.1851657022765531,0.19322569501402806,-0.09637215874348698,2.0,-0.25353968575150304,0.746460314248497,11.0,0.0,0.0,1.0,0.0,0.0,0.0,0.0,0.0,0.0,0.0,0.6793857791823648,0.2772108466212425,-1.4414137122084167,-0.8694187341563125,34.807355010761526,240.60494657615232,50.5371126251503,-0.020231093831663327,0.01297943614028056,0.009878685330661323,0.0,5.303180915521042,-0.17681344568136273,-14.282838459458919,82382296.0,960.3951942062124,12.079883697334669,0.43115743533667333,0.11130263051703407,0.05243284909819639,5.146298932835672,-0.21914383940080162,-10.661222529799598,0.7885785104108217,0.33814219030861725,0.1561633896753507,82382296.0,57.525339157374745,54.49225108567134,4.1490338807996,5.749511712116232,15.333185282885772,19.52525930446894,-0.08384147180761524,0.8436510360661322,-0.2259242321763527,84.58434722188376,449.5580412717435,12.080009376933868,96040.50199248498,1.1411200416793588,1.7188261122484971,1.2568071381402803,0.3503156022204409,0.787209969769539,0.3866951250621243,0.16426573648096193,0.7166148042945892,0.31936599276152305,-1.417014614488978,0.6657639130841683,0.3597948896452906,-0.11220632190380762,-0.6439611459318637,0.636988995234469,398701202.36513025,327344284.7202405,450000.2628078156,17.053258666372745,-8.656105742308617,-14.699932349138276,-0.34270515452505007,4.179752641372746,0.0,0.0,0.0,756000.0,39.87141370000001,32.7364371,-105.38898221342686,-103.29352466072145,-48.6641491251503,-9.37520409186974,-14.263633907034068,0.4450965837014028,1.2122498917074147,-0.7371871181422845,-0.5975238531062125,48.723448868496995,0.6073350123426854,0.3966523968577154,0.043587112034068135,0.6441506651302605,33082779.340681363,0.0,1.0,0.0,0.0,0.0
33102879.0,0.1067456009478958,0.13847928627855713,0.014218516609218437,0.6307162961703408,0.0,1506.8356713426854,1500.0,1639.8216432865731,1452.6150905931866,1546.3849094068134,1572.3568586192384,17.383772981062126,17.766382176633268,17.5739959902004,17.5501061356513,17.937368592885772,17.357299792344687,17.740305037515025,190.9398504488978,190.9398504488978,12.07257083476954,-0.0018652931663326654,-0.00627488790981964,0.0009054552424849699,-0.18516332221042084,0.19319155470741484,-0.09633054732865731,2.0,-0.2520231500400802,0.7479768499599199,11.0,0.0,0.0,1.0,0.0,0.0,0.0,0.0,0.0,0.0,0.0,0.6839372610320642,0.2808444638997996,-1.4318551790601202,-0.867838853004008,34.41047915697395,240.45317408096193,50.710721395651305,-0.02030977206012024,0.012953316290581161,0.009600477519038076,0.0,5.228676147002004,-0.18044742154709417,-14.628157128016033,82382296.0,960.3938637252505,12.07977288775551,0.4757229416332666,0.13630356630460927,0.06401761359318639,5.3195200215410825,-0.18697159005611227,-10.953850368777555,0.7974539320581162,0.35398020582364736,0.16530210945691384,82382296.0,57.64383103496994,54.63043628456914,4.148272544158316,5.795837224432866,15.333299116953908,19.50742204250501,-0.08348245170541081,0.807440052763527,-0.22611096203607214,84.82715174192384,449.59761904989983,12.079896976953908,96040.0404858517,1.1411145345551104,1.4643418769238465,1.3499492815551095,0.37524080012625266,0.778236565014028,0.39533773355310625,0.16920406399198398,0.7213671892785573,0.32112782654509014,-1.40607626450501,0.6681258529498998,0.3624814158036072,-0.1111122584488978,-0.6401969660701402,0.6351404990881764,398701184.7058116,327344245.2627255,450009.6530519038,17.154624138476954,-8.68479032470541,-14.800786778577153,-0.4024395301142286,4.181224495234469,0.0,0.0,0.0,756000.0,39.87141370000001,32.7364371,-105.61624289138277,-103.63611830280561,-48.65475672400802,-9.34913634685972,-14.282191999218437,0.4309199275350701,1.2320495653667334,-0.7309914882965931,-0.5904668953346693,48.71405623991984,0.5944501162264529,0.40127988261523045,0.0457460059478958,0.6437685551983968,33102878.751503006,0.0,1.0,0.0,0.0,0.0
33122978.0,0.1117117783727455,0.14252748408416835,0.014390719795591181,0.6347810663967937,0.0,1506.25250501002,1500.0,1642.7374749498997,1460.4401820641283,1538.5598179358717,1572.9254428777556,17.44605461470942,17.830085826392786,17.62954576164329,17.60581044034068,17.994344841663327,17.410654473226455,17.794879381623243,192.08755888096192,192.08755888096192,12.072249545110221,-0.0018639629639278558,-0.0062733722605210415,0.0009047711883767535,-0.18516094172545092,0.1931574144008016,-0.09628893549498999,2.0,-0.25050661432865734,0.7494933856713427,11.0,0.0,0.0,1.0,0.0,0.0,0.0,0.0,0.0,0.0,0.0,0.6884887424629259,0.2844780811783567,-1.422296645492986,-0.8662589714328658,34.01360330318637,240.30140154388778,50.88433017034068,-0.020390322492985974,0.01292011138276553,0.009323607056112224,0.0,5.129527333216433,-0.17919714908617232,-14.891092335731464,82382296.0,960.3924897270541,12.07961630759519,0.5231986853927856,0.16016756889779563,0.07079132206412826,5.386986407436875,-0.21315953906012028,-11.216678547975953,0.7868823032765532,0.36358740695390784,0.17149002734669339,82382296.0,57.762322916753504,54.76862148346694,4.147511207098197,5.842162736749499,15.333412951022044,19.48958478054108,-0.08312343118436874,0.7712290694609218,-0.22629769189579158,85.06995625777556,449.6526263891784,12.079769281022044,96039.40797198396,1.1411070379519037,0.8808708077755503,1.0777348559519033,0.4641331206352706,0.7641466325150301,0.404475660735471,0.17916391513426855,0.7258265700841684,0.3226812148697395,-1.394787666541082,0.6706521195891784,0.36502538678957913,-0.10990449648096191,-0.6363042415751503,0.6330108975230462,398701166.6276553,327344204.6743487,450023.5499056112,17.256388465511023,-8.697921191184369,-14.908022296332666,-0.4845074463366735,4.183649963322645,0.0,0.0,0.0,756000.0,39.87141370000001,32.7364371,-105.84350356933868,-103.97871190300602,-48.64536432286573,-9.3230686018497,-14.300750095591182,0.4167432717875751,1.2518492386072144,-0.7247958580320641,-0.5834099371442886,48.70466361134268,0.5759294894569138,0.39417018344488974,0.0491986923727455,0.6431246474268537,33122978.16232465,0.0,1.0,0.0,0.0,0.0
33145723.0,0.1063423472004008,0.14666883216032064,0.014540936318637274,0.6384031991583167,0.0,1506.0,1500.0,1644.0,1466.1997479839679,1532.8002520160321,1574.2920726172345,17.54405817300601,17.93027377024048,17.685095533086173,17.661514745030058,18.051321093747497,17.464009157414832,17.84945372573146,193.23526734609217,193.23526734609217,12.071928255450903,-0.0018626327615230461,-0.006271856941883767,0.0009040868036072144,-0.18515856124048097,0.1931232740941884,-0.09624732399198396,2.0,-0.24899007861723446,0.7510099213827656,11.0,0.0,0.0,1.0,0.0,0.0,0.0,0.0,0.0,0.0,0.0,0.6930402238937876,0.28811169845691387,-1.4127381119258517,-0.8646790901923848,33.616727449398795,240.14962903987976,51.05793894172345,-0.020471685360721442,0.01288304534268537,0.009038758396793587,0.0,5.030378519430862,-0.1779468769559118,-15.154027543446894,82382296.0,960.3911157619239,12.07945972743487,0.5684588594128257,0.1848781048176353,0.08193455226853708,5.471656725657315,-0.20202709764328655,-11.556000251022045,0.77631067449499,0.373194607753507,0.17767794490581162,82382296.0,57.880814795230464,54.90680668567134,4.146749870368738,5.888488249066133,15.33352678509018,19.47174751527054,-0.08276441066332665,0.7350180864889779,-0.226484421755511,85.31276077362726,449.6585121703407,12.079619582885773,96039.33956633267,1.1411062081422845,0.21220157992985916,0.8277475241362724,0.49383874084368734,0.7516543523607214,0.4086387023466934,0.18590220145691383,0.7311005079438877,0.324132203004008,-1.3816711304609217,0.6735898945751503,0.3679102901002004,-0.10862655792985972,-0.6317313675711423,0.631015093763527,398701148.54949903,327344164.08597195,450037.44675931864,17.35815279254509,-8.711052057993989,-15.01525781739479,-0.5665753628897796,4.18607543108016,0.0,0.0,0.0,756000.0,39.87141370000001,32.7364371,-106.06458015310622,-104.31386354028056,-48.636525028837674,-9.297275448913828,-14.318263275731463,0.4027868890561122,1.2576519519278557,-0.716638657507014,-0.5794112109679358,48.6958242254509,0.5601823288396793,0.38816486234068137,0.053798042164328666,0.6418046748056112,33145722.863727454,0.0,1.0,0.0,0.0,0.0
33170488.0,0.09308026946292586,0.15088131317034068,0.014674363026052104,0.6416873178557114,0.0,1506.0,1500.0,1644.0,1470.382003482966,1528.617996517034,1576.2681189058114,17.669340291943886,18.05832244775551,17.74064530452906,17.71721904971944,18.108297348356714,17.51736384412826,17.90402806983968,194.38297583647295,194.38297583647295,12.071606965791583,-0.0018613025591182365,-0.006270341875751504,0.0009034021663326654,-0.18515618075551102,0.19308913378757514,-0.09620571274148297,2.0,-0.24747354290581164,0.7525264570941884,11.0,0.0,0.0,1.0,0.0,0.0,0.0,0.0,0.0,0.0,0.0,0.6975917053246492,0.29174531573547097,-1.4031795783587175,-0.8630992092044087,33.219851595611225,239.99785656112226,51.23154771058116,-0.020553668633266534,0.012843030801603206,0.008747817296593187,0.0,4.93122970564529,-0.1766966050781563,-15.416962751162325,82382296.0,960.389741822044,12.07930314727455,0.6120271438136272,0.2102350843687375,0.09641450816032064,5.569464592198397,-0.16239544899599198,-11.953735190460922,0.7657390457134268,0.3828018083006012,0.18386586221242485,82382296.0,57.99930667118237,55.0449918904008,4.145988533891783,5.934813761382767,15.333640619158317,19.45391024747495,-0.08240539014228458,0.6988071037695391,-0.22667115161523047,85.55556528947896,449.626886943487,12.079453083066133,96039.70193422846,1.1411104693386773,-0.521528060012024,0.5947336093947897,0.47834724445891785,0.7403820976332666,0.4090027404308617,0.19018038373547094,0.7369964711903807,0.3255049946292585,-1.3671587143647295,0.6768419122985971,0.37105554173146293,-0.10729502998797595,-0.6266391066693386,0.6291214628737475,398701130.4713427,327344123.4975952,450051.3436130261,17.459917119579156,-8.724182925056112,-15.122493340981963,-0.6486432796953907,4.18850089858517,0.0,0.0,0.0,756000.0,39.87141370000001,32.7364371,-106.28093433767536,-104.6433322240481,-48.62810810751503,-9.271691984470943,-14.33497851983968,0.38899871480961923,1.2527660776733467,-0.7069835306012023,-0.5777478619659319,48.68740731579158,0.5465530878296593,0.38300288448697395,0.0592730257995992,0.6399684344809619,33170487.60521042,0.0,1.0,0.0,0.0,0.0
33191276.0,0.07961919433867737,0.14928272030460923,0.014115179905811624,0.6431827402805611,0.0,1506.4969939879759,1500.0,1643.5030060120241,1472.9275295551101,1526.0724704448899,1576.2817397034069,17.73886923268537,18.129380849519038,17.796195075971944,17.772923354408817,18.16527359799599,17.570718525871744,17.958602413947897,195.5306842771543,195.5306842771543,12.071285676132264,-0.0018599728537074148,-0.006268826312625251,0.0009027175290581163,-0.18515380027054107,0.19305499348096192,-0.09616410099398798,2.0,-0.2459570071943888,0.7540429928056113,11.0,0.0,0.0,1.0,0.0,0.0,0.0,0.0,0.0,0.0,0.0,0.7021431872525049,0.29537893251703407,-1.393621045288577,-0.8615193282164328,32.82297574182365,239.84608403266535,51.40515648440882,-0.0206366573246493,0.01280040654509018,0.008448814456913829,0.0,4.827427752348697,-0.17128139784168336,-15.625726131062123,75354985.96633267,960.3877980288577,12.079115345951903,0.6545465293607214,0.2335926531302605,0.10346253821643286,5.56104972445491,-0.13868848568737477,-12.319410518837675,0.7521945847715431,0.38853503514028054,0.18934052555511022,75354985.96633267,58.11420675667335,55.18101752206413,4.145121219907815,5.97689480240481,15.333745328416834,19.43555304941884,-0.08203615341282566,0.6650754287374749,-0.22685058808817635,85.78771962673348,449.66149963406815,12.07928336769539,96039.30175927856,1.1411057558176352,-0.46850934157314644,0.6129315615390781,0.19296210033066158,0.7229558218076152,0.40926018871142283,0.20003542401803606,0.74008167052505,0.3267168412124249,-1.3563327824849698,0.6794404162264529,0.37299989486172347,-0.10578826395390782,-0.6229123193547095,0.6271490107254509,398701112.44288576,327344082.90921843,450065.2404170341,17.56168144661323,-8.737313791621242,-15.229728859599199,-0.7307111965010019,4.190926366587174,0.0,0.0,0.0,756000.0,39.87141370000001,32.7364371,-106.4887114993988,-104.96247913787575,-48.62045833120241,-9.246489368012025,-14.350244519539078,0.3755160507194389,1.2284669716593186,-0.6946077835591182,-0.5803261598416833,48.67975773503006,0.5278341925190381,0.376759977511022,0.06568908096993988,0.6386655159198396,33191276.39478958,0.0,1.0,0.0,0.0,0.0
33211696.0,0.0670080326292585,0.14760053591783567,0.013513846016032064,0.6442139288577154,0.0,1506.9275846893788,1500.0,1642.8551694589178,1474.9915208496993,1524.0084791503007,1575.6793587174348,17.797167281302606,18.188966388256514,17.851744846613226,17.828627659098196,18.222249846773547,17.62407320755511,18.01317675805611,196.67839270921843,196.67839270921843,12.070964386472946,-0.0018586431543086172,-0.006267310743486974,0.0009020328917835671,-0.18515141986573147,0.1930208531743487,-0.09612248924048097,2.0,-0.2444404714829659,0.7555595285170341,11.0,0.0,0.0,1.0,0.0,0.0,0.0,0.0,0.0,0.0,0.0,0.7066946691863727,0.2990125492925852,-1.3840625122244488,-0.8599394471482966,32.426099887234464,239.69431150360722,51.57876525829659,-0.02071982419038076,0.012756851721442886,0.008146614376753507,0.0,4.721897054,-0.16431882443486973,-15.814363470721442,65716873.5824649,960.3856425326653,12.078915946112225,0.6948649044509019,0.25532612148296596,0.10999444983166334,5.538505766084168,-0.11891487048296591,-12.671019174028055,0.7375456503266533,0.39282899426452905,0.1945501992224449,65716873.5824649,58.22725828927856,55.31593170881764,4.1441993636573144,6.016791382462926,15.33384534052104,19.416928263286575,-0.08166165867134269,0.632619755270541,-0.22702627116432866,86.0143927383968,449.7037147761523,12.079105413827655,96038.81562815631,1.141100026557114,-0.32415039719839706,0.6814350748877758,-0.03791748598997929,0.704950801016032,0.4088320755350701,0.21041701791583167,0.7424513797855712,0.3278792992765531,-1.3463949786392784,0.6818909654468938,0.3746377359038076,-0.10423256800400801,-0.6195149693847696,0.6251705999639279,398701094.41503006,327344042.32084167,450079.1372204409,17.663445773647297,-8.7504446581002,-15.33696437735471,-0.812779113226453,4.193351834675351,0.0,0.0,0.0,756000.0,39.87141370000001,32.7364371,-106.69500151603206,-105.27983638196393,-48.61294156713427,-9.22135278567936,-14.365259238156312,0.3620863581482966,1.2008018618316632,-0.68176031601002,-0.5836399045551103,48.67224119839679,0.508235279511022,0.3705183761022044,0.07208032071142285,0.637303945745491,33211696.44689379,0.0,1.0,0.0,0.0,0.0
33234129.0,0.059946587557114225,0.15171628654509017,0.01340157833266533,0.6442781587975952,0.0,1506.4007633046092,1500.0,1641.801527272545,1475.8146496312625,1523.1853503687375,1573.3466933867735,17.84565116452906,18.238565361322642,17.907294612224447,17.884331963787574,18.279226095551106,17.677427894268536,18.06775110216433,197.82610114128255,197.82610114128255,12.070643096813628,-0.0018573129519038076,-0.006265795677354709,0.0009013482545090181,-0.18514903996392784,0.19298671286773547,-0.09608087798997995,2.0,-0.2429239357715431,0.757076064228457,11.0,0.0,0.0,1.0,0.0,0.0,0.0,0.0,0.0,0.0,0.0,0.7112461506172345,0.3026461665711423,-1.3745039786573146,-0.8583595655771543,32.02922402761523,239.54253902484973,51.75237402715431,-0.0208030152004008,0.01271029696993988,0.00783312281763527,0.0,4.610581115,-0.1521779947735471,-15.93564907496994,47341718.10364728,960.3827786028056,12.078677734328657,0.7225131451062125,0.2690437267715431,0.12137368350701405,5.542872527246494,-0.10649689277154308,-12.969240441082164,0.7192005980280561,0.3923064474889779,0.19887308586573146,47341718.10364728,58.33261803503006,55.44622120296594,4.1430505586392785,6.047598471855712,15.333925805811623,19.397190048196393,-0.08126528518036072,0.6054734948637275,-0.22718633690981965,86.21825859673346,449.7215681801604,12.078879261923849,96038.61977174348,1.1410976880601202,-0.4626169213667336,0.7922864606713428,0.3668706799579162,0.6900097553326654,0.4042180343527054,0.21803509175350702,0.7433895113006012,0.32890695323847696,-1.33801926851503,0.684124124523046,0.37565879600400803,-0.10256049658316632,-0.6166991979839679,0.623240556751503,398701076.3368737,327344001.7324649,450093.0340741483,17.76521010068136,-8.763575524579158,-15.44419989511022,-0.8948470294488978,4.195777302763528,0.0,0.0,0.0,756000.0,39.87141370000001,32.7364371,-106.90129153266533,-105.5971935757515,-48.605424798036076,-9.196216203346694,-14.380273951743488,0.3486566655771543,1.173136752507014,-0.6689128479579158,-0.5869536492685371,48.66472465673347,0.48865181985370737,0.36546102237074146,0.07729195401202406,0.6349940804689378,33234128.52304609,0.0,1.0,0.0,0.0,0.0
33255575.0,0.05424034761122245,0.15377126731863727,0.013593801955911823,0.6442252109018036,0.0,1506.3192960801603,1500.0,1640.6526209699398,1477.4332226172346,1521.5667773827654,1571.5070140280561,17.927328692945892,18.322057154468936,17.962844380300602,17.940036268476952,18.33620234432866,17.730782580981963,18.122325446272544,198.973809597996,198.973809597996,12.07032180715431,-0.001855982749498998,-0.006264280364729459,0.0009006638637274549,-0.18514665981563125,0.19295257256112225,-0.09603926649298597,2.0,-0.24140740006012024,0.7585925999398798,11.0,0.0,0.0,1.0,0.0,0.0,0.0,0.0,0.0,0.0,0.0,0.7157976320480962,0.3062797838496994,-1.3649454453366734,-0.8567796842525051,31.632348170460922,239.3907665460922,51.92598279601202,-0.020886347697394787,0.012663949026052106,0.00751358922244489,0.0,4.499265176,-0.14003716486573148,-16.056934676753507,28966562.62606212,960.3799146729459,12.07843952008016,0.7486971506252504,0.2842826231743487,0.1285654583486974,5.537384363751503,-0.125686369997996,-13.255460561162325,0.700855545729459,0.39178390095991983,0.20319597250901805,28966562.62606212,58.43797777831663,55.57651069711423,4.14190175337475,6.078405561248497,15.334006271102204,19.37745183064128,-0.08086891144288577,0.5783272342104209,-0.22734640265531061,86.42212445753506,449.7485021392786,12.078642594629258,96038.31485204409,1.1410940488196393,-0.4783386641262525,0.5043229659098194,0.6169282201482966,0.6746093785971945,0.4020485698577154,0.22437707978356713,0.7449817109679359,0.3298905224228457,-1.3283372831082163,0.6866313727074148,0.37695331566933865,-0.10085325776152304,-0.6133914561623246,0.621448662997996,398701058.3573146,327343961.0701403,450108.5227549098,17.863654973226453,-8.770671035931864,-15.551058197254509,-0.9803852753126253,4.198464795114229,0.0,0.0,0.0,756000.0,39.87141370000001,32.7364371,-107.11405689539077,-105.92640614549099,-48.598243187915834,-9.17020181216433,-14.395588326853707,0.33488754895991985,1.1632183705931864,-0.6560260428296593,-0.5900995359559118,48.65754308671343,0.47057021632464935,0.3612166224729459,0.08281832705811623,0.6326572949539078,33255574.62725451,0.0,1.0,0.0,0.0,0.0
33275674.0,0.05038511954509017,0.1530115380480962,0.014201916144288578,0.6440122152304609,0.0,1506.8461174649299,1500.0,1639.3735978256514,1480.13825597996,1518.86174402004,1570.3406813627255,18.054343883086172,18.45184157991984,18.018394151743486,17.995740573166334,18.393178593106214,17.784137267695392,18.176899790380762,200.12151808837677,200.12151808837677,12.07000051749499,-0.0018546525470941883,-0.006262764715430862,0.0008999798096192385,-0.18514427933066133,0.19291843225450903,-0.09599765465931864,2.0,-0.23989086434869739,0.7601091356513026,11.0,0.0,0.0,1.0,0.0,0.0,0.0,0.0,0.0,0.0,0.0,0.720349113478958,0.3099134011282565,-1.3553869123527054,-0.855199803264529,31.235472316673345,239.2389940673347,52.09959156486974,-0.020969873444889778,0.012617883551102205,0.007185803090180361,0.0,4.387949237,-0.12789633462124245,-16.178220275170343,10591407.150160275,960.3770507430862,12.07820130246493,0.772881225226453,0.3015993806112225,0.1300377772224449,5.518435815358718,-0.18804700518837691,-13.525288870741484,0.6825104934308617,0.39126135476753504,0.2075188591523046,10591407.150160275,58.54333751823647,55.70680019126253,4.140752947773548,6.1092126506412825,15.334086736392784,19.357713609719436,-0.08047253736873747,0.5511809732204408,-0.2275064684008016,86.6259903217034,449.7878388078156,12.0783915648497,96037.86096785571,1.1410886329539078,-0.3264089981322641,-0.3283632925230483,0.6556463690601203,0.6585816228637275,0.40321803937474954,0.2289761213446894,0.7474672720140281,0.330813878252505,-1.3168711168276555,0.6895129865030061,0.37862134108216433,-0.09909798541683366,-0.609411754741483,0.6198454611883767,398701040.5124248,327343920.3068136,450126.185638477,17.957565956713427,-8.769523135404809,-15.657401278076152,-1.0706634836132267,4.201510174262526,0.0,0.0,0.0,756000.0,39.87141370000001,32.7364371,-107.33566663326653,-106.2718114238477,-48.59151935591182,-9.142988462553106,-14.411311995751502,0.32065482876753504,1.177539421240481,-0.643085509012024,-0.5930161531442886,48.650819038937875,0.454539928482966,0.3580825985430862,0.08877458853707416,0.6302837403326653,33275674.03807615,0.0,1.0,0.0,0.0,0.0
33297425.0,0.04782895844088176,0.1495457667695391,0.014269347623246493,0.6429732545090181,0.0,1507.4128256513027,1500.0,1637.7807644368738,1481.8028427895792,1517.1971572104208,1569.567932957916,18.08990260729459,18.4882123,18.073943923186373,18.051444873727455,18.450154846012023,17.837491950280562,18.231474134488977,201.26922653747496,201.26922653747496,12.069679227835671,-0.0018533223446893787,-0.006261249478957916,0.0008992953426853708,-0.18514189884569138,0.1928842919478958,-0.09595604323847695,2.0,-0.2383743282244489,0.7616256717755511,11.0,0.0,0.0,1.0,0.0,0.0,0.0,0.0,0.0,0.0,0.0,0.7249005949098197,0.31354701840681365,-1.3458283789559118,-0.8536199218637275,30.83859646288577,239.08722154729458,52.273200337855705,-0.021053988707414827,0.012566436068136273,0.006860976092184369,0.0,4.280344076316633,-0.1051810611863727,-16.242888854228458,13918665.925400825,960.3714523799599,12.077918829939879,0.786515843735471,0.319199332729459,0.1384778367935872,5.444642153511022,-0.15192214358917822,-13.85279000953908,0.6640028976372745,0.3907898817134269,0.21737032054108218,13918665.925400825,58.64869725815631,55.837089685410824,4.139604142585171,6.140019740034068,15.334167201683366,19.337975392925852,-0.08007616370741483,0.5240347126432865,-0.2276665341462926,86.82985618587173,449.8501000563126,12.078107591583166,96037.14890663327,1.141080208002004,-0.32361151211422856,-0.4714855295170338,0.5167535059478954,0.636188892753507,0.40097079247895795,0.2397844524729459,0.7482308670881763,0.3316534734088177,-1.307672631985972,0.6920211202344689,0.37955016170941885,-0.09726746734068135,-0.6062768320741483,0.6182847176713426,398701023.3693387,327343878.96553105,450157.5269220441,18.02295317703407,-8.716513960416833,-15.760502963346694,-1.1907619241302607,4.206807104100202,0.0,0.0,0.0,756000.0,39.87141370000001,32.7364371,-107.5575130028056,-106.61764992144289,-48.58480777244489,-9.115743036801604,-14.427046608657315,0.3064097060541082,1.1925089557595192,-0.6301435377354709,-0.5959266361563126,48.64410722731463,0.43302081646492985,0.3537706240921844,0.09415768742284569,0.6287475538316634,33297424.751503006,0.0,1.0,0.0,0.0,0.0
33319857.0,0.045808820112224445,0.14496342475951904,0.014113681867735471,0.6415934829659319,0.0,1507.995991983968,1500.0,1636.058446238477,1483.0381191282565,1515.9618808717435,1568.9575858256512,18.08772444022044,18.48603853,18.129493694629257,18.10714917258517,18.50713110062124,17.890846631162326,18.286048478597195,202.41693496953908,202.41693496953908,12.069357938176353,-0.0018519921422845691,-0.006259734412825652,0.0008986107054108217,-0.18513951836072146,0.19285015164128258,-0.09591443198797596,2.0,-0.23685779192985973,0.7631422080701402,11.0,0.0,0.0,1.0,0.0,0.0,0.0,0.0,0.0,0.0,0.0,0.7294520763406813,0.31718063568537075,-1.3362698453887776,-0.8520400402925852,30.441720609098194,238.93544901022045,52.44680911254508,-0.021138347216432863,0.012512767853707415,0.006537370096192385,0.0,4.174270062026052,-0.07810254662925849,-16.284196041803607,26200804.367374767,960.3647257312625,12.077618096893787,0.7957975313326654,0.3369161370220442,0.14979293500200402,5.348218226402806,-0.07516006244088166,-14.204088189519037,0.6454282329258517,0.39033948252705414,0.22950298995591184,26200804.367374767,58.75405699807615,55.96737917955912,4.138455337567135,6.170826829426854,15.334247666973948,19.31823717783567,-0.07967979021643286,0.4968884522364729,-0.22782659989178355,87.03372205004007,449.92182047615233,12.07781002513026,96036.3303160521,1.1410705414368738,-0.38234914890180366,-0.3300789227134267,0.30457454564128233,0.6111698382645291,0.39731373541282566,0.2531548691022044,0.7482839422224449,0.3324585071222445,-1.2994098409418837,0.6943751481142285,0.3801739706533066,-0.09540590126853708,-0.6034904831643286,0.6167414933527054,398701006.51583165,327343837.3857716,450194.5122056112,18.076570883426854,-8.64210571586974,-15.862267179579158,-1.3231648293967937,4.213033071843688,0.0,0.0,0.0,756000.0,39.87141370000001,32.7364371,-107.77945701162325,-106.9636671745491,-48.578101242985966,-9.088484375749498,-14.44278573729459,0.29215946579559116,1.2077460685751504,-0.6172009733326653,-0.5988345880761523,48.63740046458918,0.4092368983547094,0.3489726020961924,0.09930428718036072,0.6275568833026052,33319856.82765531,0.0,1.0,0.0,0.0,0.0
33339972.0,0.04056991561523046,0.1424579097234469,0.015249411743486974,0.6404911861723447,0.0,1508.5791583166333,1500.0,1634.2821400601201,1485.3237361402807,1513.6762638597193,1567.2429100400802,18.14272791739479,18.542354607054108,18.185043466072145,18.162853477234467,18.564107349438878,17.94420131783567,18.34062282270541,203.5646434016032,203.5646434016032,12.069036648517034,-0.0018506619398797595,-0.0062582187675350705,0.0008979260681362725,-0.1851371384549098,0.19281601191382766,-0.09587282015831664,2.0,-0.23534125621442886,0.7646587437855711,11.0,0.0,0.0,1.0,0.0,0.0,0.0,0.0,0.0,0.0,0.0,0.7340035583507014,0.32081425296392785,-1.3267113118216434,-0.8504601593006013,30.04484475531062,238.78367653106213,52.62041788144288,-0.02122103601202405,0.01245235939478958,0.006197768905811623,0.0,4.069230699589179,-0.04807562974749498,-16.30971708218437,44534083.44044089,960.3572365627255,12.07730502777555,0.7941047896873747,0.35212872851503013,0.15489682725651302,5.294699153000001,-0.1055742237715431,-14.495578497114229,0.6268082473386773,0.38990332426452906,0.24317715525450903,44534083.44044089,58.85941674378758,56.09766867370741,4.13730653196994,6.201633918819639,15.334328126472945,19.298498956953907,-0.0792834167254509,0.469742191250501,-0.22798666563727454,87.23758791420842,449.9704532130261,12.077491661102204,96035.76451649299,1.141063765450902,-0.7355589109198398,-0.4036731552825652,0.21884063582164326,0.5903181828877756,0.39995530709018035,0.2589506994008016,0.7495320757935872,0.3331926124749499,-1.288587317244489,0.6972609475771544,0.3813007693286573,-0.09343577196993988,-0.599733013751503,0.6155879354368738,398700989.66232467,327343795.80601203,450231.4974312626,18.13018858981964,-8.567697471322646,-15.964031395811622,-1.455567734663327,4.219259039008016,0.0,0.0,0.0,756000.0,39.87141370000001,32.7364371,-107.99234420060121,-107.29847846713427,-48.57228057092184,-9.061885549188377,-14.457518555190381,0.27838922789579157,1.2125938045591182,-0.6074051810861724,-0.5909419740801604,48.63157966350701,0.3907113288737475,0.3470902883587174,0.10500266670340681,0.6253111479058117,33339972.270541083,0.0,1.0,0.0,0.0,0.0
33360721.0,0.035740987955911824,0.1398537653747495,0.016214952875751504,0.6390980571142284,0.0,1509.1623246492986,1500.0,1632.3507014028055,1487.4688768096194,1511.5311231903806,1565.837123284569,18.18941104779559,18.590130561583166,18.24059323751503,18.218557781923845,18.621083598216433,17.997556004549097,18.395197166813627,204.7123518498998,204.7123518498998,12.068715358857714,-0.0018493317374749499,-0.006256703280561122,0.0008972415931863728,-0.18513475839078156,0.1927818720280561,-0.09583120848697395,2.0,-0.233824720503006,0.7661752794969939,11.0,0.0,0.0,1.0,0.0,0.0,0.0,0.0,0.0,0.0,0.0,0.7385550402024048,0.32444787008016035,-1.3171527784168338,-0.8488802783126254,29.647968901523047,238.6319040523046,52.79402665192384,-0.021303784837675352,0.012388247765531062,0.0058583795611222445,0.0,3.9655567626733466,-0.019718404376753516,-16.332677009118235,61785709.484088175,960.3498594292586,12.076987302224449,0.7902133608677354,0.3649302873927856,0.1606995911743487,5.220262597579159,-0.12464344873346694,-14.793383977094189,0.6081945328116233,0.3897300326132264,0.2563694567254509,61785709.484088175,58.96477651713427,56.22797160022044,4.136156891208416,6.232431259480962,15.334408650861723,19.278764227635268,-0.07888711173547094,0.4426027975671343,-0.22814672359118235,87.44142443981964,450.0213158196393,12.07716691501002,96035.18022609218,1.1410568000701402,-0.94478071350501,-0.3779993042064129,0.11982853933466939,0.5694362285531062,0.401812809244489,0.2663195138797595,0.7502134580681363,0.33390075921042084,-1.2785419965771543,0.7000201007174349,0.38218225699599195,-0.09145269315831664,-0.5962652169038076,0.6144561658256514,398700972.8088176,327343754.2262525,450268.4826727455,18.18380629458918,-8.49328922677555,-16.065795612044088,-1.5879706400921845,4.225485006330661,0.0,0.0,0.0,756000.0,39.87141370000001,32.7364371,-108.20190123106214,-107.62916936833668,-48.56678562386774,-9.035529340326653,-14.471881356933869,0.2647954846172345,1.2136214152765532,-0.5987664423306613,-0.5790780418577155,48.62608462386774,0.3713587503827655,0.34511368541082166,0.11100004273146291,0.6232752624448897,33360720.97995992,0.0,1.0,0.0,0.0,0.0
