timestamp,control[0],control[1],control[2],control[3],control[4],output[2],output[3],output[4],output[5],output[6],output[7],indicated_airspeed_m_s,true_airspeed_m_s,indicated_airspeed_m_s.1,equivalent_airspeed_m_s,true_airspeed_m_s.1,equivalent_ground_minus_wind_m_s,true_ground_minus_wind_m_s,differential_pressure_raw_pa,differential_pressure_filtered_pa,temperature,gyro_bias[0],gyro_bias[1],gyro_bias[2],accel_bias[0],accel_bias[1],accel_bias[2],instance_count,seq_reached,seq_current,seq_total,item_changed_index,item_do_jump_remaining,valid,warning,finished,failure,stay_in_failsafe,flight_termination,item_do_jump_changed,execution_mode,nav_roll,nav_pitch,nav_bearing,target_bearing,xtrack_error,wp_dist,acceptance_radius,rollspeed_integ,pitchspeed_integ,yawspeed_integ,additional_integ1,x,y,z,temperature.1,pressure,temperature.2,gyro_rad[0],gyro_rad[1],gyro_rad[2],accelerometer_m_s2[0],accelerometer_m_s2[1],accelerometer_m_s2[2],x.1,y.1,z.1,temperature.3,altitude_sp,altitude_filtered,height_rate_setpoint,height_rate,airspeed_sp,airspeed_filtered,airspeed_derivative_sp,airspeed_derivative,throttle_integ,pitch_integ,baro_alt_meter,baro_temp_celcius,baro_pressure_pa,rho,xyz[0],xyz[1],xyz[2],xyz[0].1,xyz[1].1,xyz[2].1,roll_body,pitch_body,yaw_body,q_d[0],q_d[1],q_d[2],q_d[3],thrust_body[0],lat,lon,alt,vel_m_s,vel_n_m_s,vel_e_m_s,vel_d_m_s,cog_rad,ground_contact,maybe_landed,landed,ref_timestamp,ref_lat,ref_lon,x.2,y.2,z.2,vx,vy,vz,ax,ay,az,dist_bottom,roll,pitch,yaw,thrust_body[0].1,timestamp.1,isTakeoff,isClimbing,isDescending,isCruise,isLand
44017585.0,-0.025569286,-0.101295922,-0.081925497,0.177893135,0.0,1455.0,1500.0,1180.0,1513.0,1486.0,1460.904781,13.23186085,13.55984198,13.39041983,13.27695378,13.6058617,12.81559022,13.13306806,109.7806573,109.7806573,11.71873856,-0.001698043,-0.005918071,0.000249794,-0.196124661,0.187341207,-0.056878575999999986,2.0,0.486097219,1.486097219,11.0,0.0,0.0,1.0,0.0,0.0,0.0,0.0,0.0,0.0,0.0,0.002938135,-0.019946387,-0.840770755,-0.784748841,4.531713795,75.289273,39.04761851,-0.030423084,-0.034052793,-0.06667362,0.0,-0.769564818,1.3048307259999998,-5.901274725,82382296.0,953.9837969,11.716712,-0.033162766,-0.269407971,0.091950898,-0.686250455,1.283742217,-5.580589159,-0.032577294,-0.264116767,0.095678315,82382296.0,100.1113287,104.8559772,-0.237221123,-2.070707261,15.37105755,13.3599147,0.04022287,0.085130129,-0.32350782,83.77864367,505.5402562,11.7167069,95398.3721,1.133490481,0.095274351,0.386798581,0.280283231,-0.032742306,-0.236348623,0.098241918,-0.003242408,-0.02457614,-0.837381232,0.913540612,-0.00647566,-0.010564278,-0.406550302,0.184759629,398710093.5,327328809.7,505816.6877,13.82607522,9.029073432999999,-10.47174235,-1.140486097,5.423985135,0.0,0.0,0.0,756000.0,39.87141370000001,32.7364371,-92.49421143,-250.144331,-86.81773342,14.18188008,-9.657331214,-3.425228958,-1.252881002,-2.350847031,0.032428459,86.87703177,-0.00960208,-0.088263005,0.003497096,0.18346474,44017585.0,0.0,0.0,0.0,1.0,0.0
44190127.0,-0.02951569383967936,-0.0658715785490982,-0.09146275724248497,0.18320948661322645,0.0,1453.0,1500.0,1185.4208416833667,1513.4208416833667,1485.5791583166333,1479.2750686573147,13.178168812304609,13.504911924048097,13.339457335450902,13.228101180561122,13.555698497835673,12.79206142955912,13.108859098857716,109.41188041262525,109.41188041262525,11.719482067154308,-0.0016943240721442885,-0.005913717470941883,0.00024702313226452905,-0.19650533825651303,0.1874207801503006,-0.05625273170541083,2.0,0.4975937072144288,1.497593707214429,11.0,0.0,0.0,1.0,0.0,0.0,0.0,0.0,0.0,0.0,0.0,-0.007828834761523046,-0.022376177426853706,-0.8364759161462926,-0.783976922254509,4.340968468326653,72.97881143877756,38.817841883667334,-0.030355890128256513,-0.03252019379158316,-0.06834906019238478,0.0,-0.787510040230461,1.3194264540741483,-6.299953980410821,27877973.99426853,953.9819629292587,11.716451638236473,-0.038336437122244486,-0.2549795479198397,0.09359770069539078,-0.7564594778036072,1.3001501736132264,-5.9213477829038075,-0.03988015939478958,-0.22623056760721444,0.10566972385771543,27877973.99426853,100.11133,104.47797347975951,-0.21833226998797595,-2.2170955833066133,15.370819961723447,13.56411276537074,0.03613415093787575,0.28560756003607213,-0.32405982910420844,82.50624631238477,505.63797163587174,11.716434711823647,95397.24445296593,1.13347712149499,-0.08565132980360717,-0.4620657399078157,-0.2698903012605209,-0.028113636352705407,-0.20316330186172346,0.10162773947895791,-0.012407435677354708,-0.02692990112024048,-0.8316164566432865,0.9146530029258517,-0.011112178344689378,-0.009809059883767535,-0.40396033769338674,0.1883252156973948,398710232.61983967,327328601.5462926,505962.86166913825,13.658351185691382,9.068438683675351,-10.225141950761524,-0.42964600532665337,5.43791075231463,0.0,0.0,0.0,756000.0,39.87141370000001,32.7364371,-90.03164819180361,-251.87289328777558,-87.43345785555111,13.945729541743487,-10.075094607655311,-3.4413596197975953,-1.5147423116953909,-2.3746503849218437,-0.15899767159318634,87.4927481333066,-0.01788099667735471,-0.015251632072144292,0.0034053657795591183,0.18677059328657314,44190126.79559118,0.0,0.0,0.0,1.0,0.0
44373505.0,-0.029537569931863725,-0.027759296330661327,-0.09295368017034068,0.1868263487775551,0.0,1450.1583166332666,1500.0,1188.858278274549,1516.266848543086,1482.733151456914,1495.3833283747495,13.106624811663327,13.43151557226453,13.288494839318638,13.179248581122245,13.505535295671343,12.768532639118236,13.08465013771543,109.0431035252505,109.0431035252505,11.720225584308617,-0.001690606144288577,-0.005909363941883768,0.0002442522645290581,-0.19688601535470943,0.18750035345891783,-0.05562688741082165,2.0,0.5090901944288577,1.5090901944288575,11.0,0.0,0.0,1.0,0.0,0.0,0.0,0.0,0.0,0.0,0.0,-0.01859580352304609,-0.02480596769539078,-0.8321810764509018,-0.7832050035090181,4.150223141653306,70.66834987755512,38.58806525733467,-0.030309750607214428,-0.030718226128256514,-0.07000847668136272,0.0,-0.775260505002004,1.3592950709779559,-6.716519613326653,82382296.0,953.9864571627255,11.716799496172344,-0.033263193492985975,-0.21789318765731464,0.10404479491583166,-0.7715238542424849,1.3474053529158314,-6.296912644126253,-0.025216353529058114,-0.18342972980961925,0.10392242572144288,82382296.0,100.11133,104.1156906739479,-0.2002180855971944,-2.2975120605230464,15.370633619358717,13.748328395490981,0.03244609981563127,0.43631861688176354,-0.3245417074188377,81.42758513987977,505.4555590963928,11.71682215727455,95399.35586795592,1.1335021311863727,-0.12058472861723402,-0.13876049262525061,0.12414080429058072,-0.040832301492985966,-0.1639415076472946,0.09951455836472947,-0.01870845779158317,-0.02703350452905812,-0.8231011008336673,0.9163250913687374,-0.013978086486973948,-0.008643671120240481,-0.40009167499398796,0.19271052749298598,398710368.8763527,327328403.39258516,505989.3685046092,13.538060676713428,9.106347214266533,-10.011831407094189,0.1931032626613226,5.450392270749499,0.0,0.0,0.0,756000.0,39.87141370000001,32.7364371,-87.6089667248497,-253.6781157517034,-88.05557731258516,13.66477721735471,-10.497709906613226,-3.494856323669339,-1.7449060313326652,-2.3744489436212426,-0.4169779144468938,88.11487231258516,-0.021872182621242485,0.044294080889779555,-0.0015596126312625242,0.19145244006012024,44373505.022044085,0.0,0.0,0.0,1.0,0.0
44540822.0,-0.034296481126252505,0.002809537120240475,-0.099445057,0.19131637334669338,0.0,1448.933095228457,1500.0,1193.2625250501003,1515.634874054108,1483.365125945892,1510.8544799218437,13.134235403567134,13.45971351018036,13.237532338977957,13.130395981683368,13.455372103507013,12.745003846052104,13.060441179198396,108.67432673787575,108.67432673787575,11.720969094088176,-0.0016866005831663326,-0.005905143841683367,0.000241593,-0.19724974499398798,0.1875725530260521,-0.055025454356713424,2.0,0.5205866826432866,1.5205866826432866,11.0,0.0,0.0,1.0,0.0,0.0,0.0,0.0,0.0,0.0,0.0,-0.029151717781563124,-0.02594300821442886,-0.8276984794068135,-0.7824000224488978,3.9594773026152303,68.35971491268536,38.42547172861723,-0.030256994456913832,-0.02872654598997996,-0.07161490503206414,0.0,-0.5950928622985973,1.4298201729959918,-7.381262814903807,82382296.0,954.0133840921843,11.717860277935872,-0.03981103431262525,-0.18580198260521047,0.10310180233266533,-0.6525888070921844,1.3832592503406815,-6.961337684601203,-0.038224402126252506,-0.15798772327855712,0.09176579965330661,82382296.0,100.11133,103.75742332645291,-0.1823046812725451,-2.327126424971944,15.37038977488978,13.936275290400802,0.02868228441482966,0.5499967773687374,-0.32498052861122245,80.47918333442887,505.40990036873745,11.717769272064128,95399.88003308617,1.133508362238477,0.017080528941884415,0.05114492049098209,0.12800092420240486,-0.03807587219238478,-0.1308704575731463,0.0856067198236473,-0.029484618234468934,-0.02459011838677355,-0.8185620628236473,0.9171654435891784,-0.0184151974248497,-0.005411792677354711,-0.3980423014709419,0.19673144410220442,398710508.19579154,327328205.96513027,505909.58528897795,13.470508385370742,9.204446825204409,-9.828705001663327,0.7177840424188375,5.465100312845691,0.0,0.0,0.0,756000.0,39.87141370000001,32.7364371,-85.18871788198396,-255.6000435801603,-88.70608903224449,13.341011398016033,-10.923676839338677,-3.5839208323867737,-1.9449220671803606,-2.3050006820060123,-0.4853261574468938,88.76538210769539,-0.026290436160320646,0.09990907555711422,-0.006802405226452905,0.19534348888577155,44540821.52905811,0.0,0.0,0.0,1.0,0.0
44717795.0,-0.034030206813627256,0.03185299372945891,-0.10346502486172345,0.19528772845290582,0.0,1447.0,1500.0,1197.683366733467,1516.366733466934,1482.633266533066,1523.0501002004007,13.143837552264529,13.46945948234469,13.200842543727456,13.095767681302606,13.419776708356714,12.733435506813628,13.048480296232464,108.48151152244489,108.48151152244489,11.721838860621244,-0.0016814237775551102,-0.005901469438877756,0.000239388,-0.19754428630861723,0.1876146507014028,-0.05452367214228457,2.0,0.5320831698577154,1.5320831698577155,11.0,0.0,0.0,1.0,0.0,0.0,0.0,0.0,0.0,0.0,0.0,-0.038846043042084166,-0.021802688302605212,-0.8224494001923848,-0.781460069248497,3.7687293744869743,66.05853664008016,38.53713808815631,-0.030206265681362726,-0.026570102052104208,-0.07312513823847695,0.0,-0.679345146006012,1.5227810434208418,-7.7312711386372746,48523042.11609222,954.0476076851703,11.719230805751502,-0.03974677066733466,-0.14792177657314629,0.08754721575150301,-0.6512867960120241,1.4012546888436874,-7.494211820511023,-0.054715813975951905,-0.11963068303006012,0.08953807990380762,48523042.11609222,100.11133,103.38206348436874,-0.16353671015230462,-2.3166886328657315,15.370033573246493,14.13670515511022,0.024666569689378758,0.6325091399679358,-0.32541090725450905,79.59515832012025,505.14545112905813,11.71919423713427,95402.90450883769,1.1335443284969942,0.06266129884368693,0.1587715751002004,-0.012316537501002423,-0.04145381357314629,-0.09886471759118237,0.07468724744889779,-0.04220506430861723,-0.02063543705210421,-0.8160936874488978,0.9175574102605211,-0.0234606594248497,-0.0010952920440881774,-0.3969071476412826,0.20110858509418836,398710652.4144289,327328009.19018036,505738.20451402804,13.439013116813626,9.317935531296593,-9.681078283939879,1.1357789482505007,5.478650505897795,0.0,0.0,0.0,756000.0,39.87141370000001,32.7364371,-82.9100623216433,-257.5239218078156,-89.35152050436874,12.997872450000001,-11.312571576833667,-3.685094064801603,-2.0818569022364732,-2.205658307056112,-0.6354691648156312,89.41081533893788,-0.030076896769539084,0.1468250836032064,-0.011677241639278555,0.1999116604008016,44717795.38476954,0.0,0.0,0.0,1.0,0.0
44895847.0,-0.03694318495390783,0.0561383401002004,-0.10741126227855712,0.19969596423246494,0.0,1445.949990797595,1500.0,1202.1042084168337,1516.6159043627256,1482.3840956372744,1532.7201127795593,13.205343737134267,13.532195461242484,13.324398139438877,13.220841378156313,13.547740080220441,12.856152027855712,13.174033516893788,110.2642895767535,110.2642895767535,11.724126056713427,-0.0016762469719438877,-0.005897795402805611,0.000237182,-0.19783882798997998,0.18765674827254508,-0.05402189092785571,2.0,0.5435796580721444,1.5435796580721441,11.0,0.0,0.0,1.0,0.0,0.0,0.0,0.0,0.0,0.0,0.0,-0.048540368406813625,-0.017662368128256514,-0.8172003213446893,-0.7805201163106212,3.577981446358718,63.75735837010021,38.64880443873747,-0.030160864198396795,-0.02428164398597195,-0.07456168990981964,0.0,-0.6047445770521042,1.562020861763527,-8.291216196242486,73990039.67761531,954.0703407867735,11.720940009278557,-0.043939819200400805,-0.11669090281362729,0.07390923719839679,-0.6170519955751502,1.4925945940901806,-7.970292586180361,-0.04699521142885771,-0.09674441277755513,0.07310237401202403,82382296.0,100.11133,102.98576796873748,-0.14372199743687375,-2.272418044426854,15.36962810246493,14.330920243547094,0.02077415781162325,0.6835760259579159,-0.32584156868537073,78.76216891268538,504.80070409178364,11.720985573106212,95406.81508184368,1.1335907719879759,-0.015701293585168488,0.06745047333667398,0.283215626490981,-0.04329407498196392,-0.059710223394789576,0.07122803191182367,-0.059231955470941886,-0.01539533776152305,-0.8180144568877756,0.9169937070480961,-0.030227343112224452,0.004718656334669338,-0.39772034660921846,0.2054229397294589,398710794.9242485,327327819.5128256,505504.40568757517,13.445871191482967,9.460520508815632,-9.555932256629259,1.5022031771322641,5.492708813498998,0.0,0.0,0.0,756000.0,39.87141370000001,32.7364371,-80.66974099825651,-259.53695525831665,-90.0217348101002,12.632379525210421,-11.679923463727453,-3.8013497083907817,-2.191455002777555,-1.986456138222445,-0.6477199373186372,90.08103481010019,-0.03321801589378756,0.18452695859519036,-0.01648915702805611,0.20507935639278557,44895847.48096193,0.0,0.0,0.0,1.0,0.0
45084001.0,-0.036467637607214415,0.07507985970140281,-0.10796189148496994,0.2049416829258517,0.0,1445.0,1500.0,1206.0,1517.4749498997996,1481.5250501002004,1541.0501002004007,13.337824066012026,13.667807686472944,13.454294183326653,13.352234028537074,13.682175002264529,12.984181813426854,13.305027781022044,112.12523615210421,112.12523615210421,11.726469342805611,-0.0016710701663326653,-0.005894120683366734,0.00023497699999999998,-0.19813336998797595,0.18769884552705413,-0.05352010871342685,2.0,0.5550761452865731,1.5550761452865731,11.0,0.0,0.0,1.0,0.0,0.0,0.0,0.0,0.0,0.0,0.0,-0.058294577206412825,-0.012945756551102207,-0.8124499168737476,-0.7799578663887775,3.409704626735471,61.4472375482966,38.81001769314629,-0.03012029902004008,-0.022041156561122245,-0.07594630220841683,0.0,-0.6885980014448897,1.5322084183787577,-8.714071292855712,65307554.76561118,954.0852327523046,11.722921933647294,-0.048805471919839694,-0.07757205559919841,0.06949145946292584,-0.6138430576092184,1.4717638225731462,-8.363643336991982,-0.05396230669539078,-0.06033494565731464,0.06807600498196394,82382296.0,100.11133,102.63607589078157,-0.12623738448897798,-2.202779120861724,15.369506869018036,14.451581605851704,0.018358497633266534,0.7062079648877756,-0.3261882357895792,78.11404391292585,504.5231139438878,11.72306443513026,95410.01869108216,1.1336288661723446,-0.38118214447895865,0.3472765953687368,0.24154459351703356,-0.05053275207214429,-0.03881660736873749,0.06327911347895791,-0.06437519294188376,-0.009116239919839682,-0.8096921967434869,0.9186191475751503,-0.031374483284569134,0.008488310262525047,-0.3938033813707415,0.2097121486492986,398710939.8991984,327327631.5178357,505215.3644142285,13.492271040801603,9.628885465194388,-9.450557177725452,1.7932283896012022,5.5069990452044095,0.0,0.0,0.0,756000.0,39.87141370000001,32.7364371,-78.50272352154309,-261.6052674466934,-90.70767374468937,12.260349219358718,-12.010709560280562,-3.928338145012024,-2.160885647466934,-1.7866426113426854,-0.7217410171282566,90.76697133036073,-0.03475532499799599,0.21261244110821642,-0.020784705004008017,0.20913012961322647,45084000.77755511,0.0,0.0,0.0,1.0,0.0
45260169.0,-0.032714113579158315,0.08976660713627253,-0.11084029565931863,0.20886724775551102,0.0,1444.054108216433,1500.0,1210.945891783567,1517.9813289318638,1481.0186710681362,1547.8917835671343,13.422531478997996,13.754417710801604,13.58419022721443,13.48362667995992,13.816609924308617,13.112211598997996,13.436022045651303,113.98618272745492,113.98618272745492,11.728812629398798,-0.001665893360721443,-0.005890445963927855,0.000232771,-0.19842791198597196,0.1877409427815631,-0.05301832744488978,2.0,0.566572633501002,1.5665726335010022,11.0,0.0,0.0,1.0,0.0,0.0,0.0,0.0,0.0,0.0,0.0,-0.0682419960741483,-0.006369764809619238,-0.8093084623527054,-0.7806142641202404,3.313929855691383,59.10826398967936,39.13109183200401,-0.030069216651302605,-0.0197852215751503,-0.07737656392585171,0.0,-0.5853427110721442,1.474259139933868,-9.08273507660521,82382296.0,954.1416098529058,11.725441737054108,-0.0528481889739479,-0.05702879072945892,0.06437493411022044,-0.5427854904589178,1.4588417860400802,-8.850795908176352,-0.05888525464529058,-0.03776570767334669,0.06687592708016032,82382296.0,100.11133,102.30144298737474,-0.10950569212625251,-2.1095960283607216,15.369114472965933,14.538857003747495,0.01660515302204409,0.7127231660561123,-0.326472838991984,77.54621561775551,504.1337341264529,11.72536020531062,95414.4763816032,1.1336817786032063,0.13693612942084166,-0.42725924970541085,0.7322004223366734,-0.05651844393186373,-0.01236966283767535,0.06004626890981964,-0.07422470113827656,-0.002432072396793587,-0.806541087753507,0.9191303521102204,-0.03460417122645291,0.013443183368737475,-0.3921993152184369,0.21414880125450902,398711089.6819639,327327442.6346693,504883.75583587174,13.570688749098196,9.81514045422445,-9.368714784935872,1.9994981333066133,5.520845790236473,0.0,0.0,0.0,756000.0,39.87141370000001,32.7364371,-76.40168087044088,-263.7244097961924,-91.41511607907816,11.88505857729459,-12.30841331264529,-4.066551153703407,-2.1729031183707415,-1.5441279772464929,-0.7770778236653307,91.47441262953907,-0.038652407869739475,0.23551958895791583,-0.025574446569138275,0.21478434627855714,45260169.10621242,0.0,0.0,0.0,1.0,0.0
45464538.0,-0.0362447183547094,0.10164293821042084,-0.11309290362124248,0.21466874368737476,0.0,1443.633266533066,1500.0,1216.366733466934,1516.6211065971943,1482.3788934028057,1551.366733466934,13.540165919078156,13.874684061803608,13.714086281102205,13.615019331382767,13.951044846352705,13.240241384569138,13.567016305030059,115.84712930280561,115.84712930280561,11.731155910741483,-0.0016607165551102204,-0.0058867712444889775,0.000230566,-0.19872245361723448,0.1877830404028056,-0.05251654528456914,2.0,0.5780691207154308,1.578069120715431,11.0,0.0,0.0,1.0,0.0,0.0,0.0,0.0,0.0,0.0,0.0,-0.07818941394188376,0.0002062279318637245,-0.8061670078316634,-0.7812706618517034,3.2181550856472945,56.769290431062124,39.45216597086172,-0.03002366917234469,-0.01757815068737475,-0.07880337120841684,0.0,-0.5715899464649299,1.5154008421623246,-9.406773991334669,14373559.652248437,954.1847179791583,11.727753786513027,-0.053437224703406803,-0.02598274658917837,0.06656752753306613,-0.6158330393547095,1.4393363778737474,-9.151817364547094,-0.061889572811623245,-0.008300693414829665,0.06500802562725452,14373559.652248437,100.11133,101.9545151266533,-0.09215925176553107,-1.991995442014028,15.368992976773546,14.646327246452906,0.01445331377955912,0.709795757006012,-0.3267240685811623,77.01205766745491,503.77576597695395,11.727767010601204,95418.54453557114,1.1337300896953908,-0.18417243006011996,-0.04606675520641404,-0.1249599890360722,-0.05262654469939879,0.006340308118236463,0.06095285394188377,-0.08571274066733467,0.0041591058717434844,-0.805490007490982,0.9191746564188377,-0.038600214330661325,0.018705454655310618,-0.39150141547294587,0.21911290458316632,398711238.48897797,327327260.0072144,504536.7760561122,13.66343718749499,10.013724313218438,-9.318943837212425,2.166691840751503,5.533933243501002,0.0,0.0,0.0,756000.0,39.87141370000001,32.7364371,-74.35984945478958,-265.8949491869739,-92.15016620072144,11.516268310140282,-12.569930487014028,-4.216397221823647,-2.120528766809619,-1.360372950208417,-0.8344355154889781,92.20946004240481,-0.03967791191182362,0.24690951716633266,-0.029356790490981964,0.21950859551102206,45464537.83567134,0.0,0.0,0.0,1.0,0.0
45636058.0,-0.03351124305410822,0.10658123607014028,-0.11267501512224448,0.21952532997995994,0.0,1443.7875751503007,1500.0,1221.0,1517.2124248496993,1481.7875751503007,1553.2124248496993,13.61911711741483,13.955348685651304,13.84398232498998,13.746411982805611,14.085479768396793,13.36827117014028,13.698010564408818,117.70807587815631,117.70807587815631,11.733499194208417,-0.0016558941462925852,-0.0058832125571142285,0.00022913274749498998,-0.19900126016432865,0.1878314235771543,-0.05200096870941884,2.0,0.5895656089298598,1.5895656089298595,11.0,0.0,0.0,1.0,0.0,0.0,0.0,0.0,0.0,0.0,0.0,-0.08850903203406812,0.006742927919839673,-0.8042387092965932,-0.7830145994448897,3.171399244300601,54.41400874388778,39.79176763262525,-0.02997048767935872,-0.015407213298597197,-0.08022053164529058,0.0,-0.5266297503867735,1.5520288969138276,-9.754912013394788,82382296.0,954.2282525715431,11.730126937855712,-0.057083236458917816,-0.00857016018637275,0.054064442072144316,-0.5395925731182368,1.4915288982905814,-9.541308730531062,-0.05375041932264531,0.012392896162324623,0.05587080168336674,82382296.0,100.11133,101.63657108376754,-0.07626208366533067,-1.8686107626112227,15.368762754148296,14.741129225310623,0.01255266389178357,0.6982660145531062,-0.3269182029498998,76.56441880244489,503.38593343567123,11.73024847513026,95423.00920236473,1.1337832372825651,-0.344938855050102,0.21471386512224358,-0.35233276896192117,-0.04874827464328659,0.02168395423046091,0.053961659142284575,-0.09842216744889778,0.011126747753507008,-0.8067366491843687,0.9187235662124248,-0.043061463478957916,0.024418887494989976,-0.3917851760621242,0.22315632816232464,398711392.58637273,327327075.0793587,504161.40822064126,13.778595746753506,10.204837259358717,-9.26917288848898,2.2292982659739478,5.545716714258517,0.0,0.0,0.0,756000.0,39.87141370000001,32.7364371,-72.3719165149499,-268.11984891002004,-92.91738321811624,11.163765628216433,-12.793226967374748,-4.370762352549098,-1.9906521845270542,-1.1279801633827657,-0.8654752314388777,92.97668214679359,-0.044848830585170335,0.2553623325591183,-0.033138580659318635,0.22401355985971944,45636057.86573146,0.0,0.0,0.0,1.0,0.0
45809276.0,-0.035921749779559115,0.10991798616432866,-0.11177544096392786,0.22375075737474948,0.0,1443.2084168336673,1500.0,1225.2084168336673,1518.0,1481.0,1554.9937462444889,13.781223646673348,14.121176279619238,13.970450589739478,13.874696858016032,14.216724957054108,13.494385033587175,13.827036411763526,119.53173315891783,119.53173315891783,11.735818811503005,-0.0016519971763527053,-0.005879955396793588,0.00022972071943887776,-0.19923888261322645,0.18789625764128257,-0.05144928524649299,2.0,0.6010620961442885,1.6010620961442887,11.0,0.0,0.0,1.0,0.0,0.0,0.0,0.0,0.0,0.0,0.0,-0.09980281702404808,0.013176788022044078,-0.8054856364268536,-0.7876049838276553,3.2529418668757515,52.01604339543086,40.179861854028054,-0.029927126308617234,-0.01337390757915832,-0.08151534688176353,0.0,-0.5076316043747494,1.7307589088356712,-9.920788742496995,82382296.0,954.2702004873747,11.732897640240482,-0.050048591715430815,0.006888683070140258,0.05496276812825652,-0.4927693797054105,1.5473437130601204,-9.813349113292585,-0.05759300677755514,0.017693163739478896,0.044780364184368766,82382296.0,100.11133,101.35759136653307,-0.06231311386573149,-1.7340426992304612,15.368482614088176,14.816289211623246,0.011043863749499,0.6786045403146292,-0.3270513094709419,76.20737430833667,503.01603312585166,11.732757868717435,95427.25365316632,1.1338336328376752,-0.12416454048697384,-0.13731139237274645,0.12765733057314488,-0.055313882533066135,0.03462228755711423,0.042094517833667355,-0.109996000741483,0.01767888498196392,-0.808255804725451,0.9182089125330661,-0.04706911106613228,0.02973102739478958,-0.3921596738436874,0.2280642003466934,398711552.2863727,327326888.0631262,503777.36503947893,13.908261169779559,10.382093211903808,-9.226168283901803,2.2738317160981967,5.55649899804008,0.0,0.0,0.0,756000.0,39.87141370000001,32.7364371,-70.38529811957916,-270.4534403452906,-93.73562701198396,10.82515208751503,-12.974140711783567,-4.531346122498999,-1.8974302615150302,-0.8130105212364732,-0.8820056209919837,93.79492037384769,-0.03800799416232464,0.25756758223446896,-0.03708020898797594,0.22874599187174346,45809276.29458918,0.0,0.0,0.0,1.0,0.0
45974680.0,-0.035253689370741484,0.11109671708617234,-0.11204798928456913,0.2287906096993988,0.0,1443.0,1500.0,1230.71107848497,1517.1940444168338,1481.8059555831662,1555.0,13.920876778496995,14.264009668657314,14.063243226713427,13.972449948817635,14.316633139759519,13.601676262945892,13.93672384993988,120.98904760480961,120.98904760480961,11.737905856653306,-0.001648099993987976,-0.005876698236472946,0.00023030869138276552,-0.1994765052745491,0.1879610920761523,-0.05089760157114229,2.0,0.6125585839879759,1.612558583987976,11.0,0.0,0.0,1.0,0.0,0.0,0.0,0.0,0.0,0.0,0.0,-0.11109660159719438,0.019610649124248494,-0.8067325637695391,-0.7921953682104209,3.3344844886633265,49.618078043266536,40.567956075430864,-0.029873374641282566,-0.011393094669338678,-0.08277900306813628,0.0,-0.46897297840881763,1.5291722315551102,-10.062649381022045,62027456.47304612,954.3345161793587,11.735263487935871,-0.058748185238476955,0.021842455166332667,0.04213328632264529,-0.5200926945190381,1.5471329920460923,-10.028422402805612,-0.06443342660120241,0.02675862498797595,0.031660361126252506,62027456.47304612,100.11133,101.09899708256513,-0.04938329123046093,-1.5623310209559118,15.368434680981965,14.888453004248497,0.00959963833466934,0.650820158242485,-0.32713942882565133,75.9026541268938,502.66619516533063,11.735236414048096,95431.2553190982,1.1338811781162323,0.05175601165731433,-0.007420361202404982,-0.012206051699398507,-0.05508816201402806,0.043935349647294585,0.03644588269138277,-0.11560804329458917,0.023486338717434867,-0.8054460124168337,0.918659844022044,-0.048549503102204405,0.03342915305811623,-0.3906168357975952,0.2344165540961924,398711711.69038075,327326705.18917835,503399.23246152303,14.040984019198397,10.561353028897795,-9.225184503478959,2.2646924936212423,5.565212565474949,0.0,0.0,0.0,756000.0,39.87141370000001,32.7364371,-68.55206601038076,-272.69497861523047,-94.53661225480963,10.532549843727455,-13.103383328817635,-4.682744590543086,-1.6565360938917837,-0.6325592114769539,-0.8507686069198397,94.59591075517034,-0.03477984000601203,0.2543203876492986,-0.042176811322645294,0.23547777390781563,45974680.09218437,0.0,0.0,0.0,1.0,0.0
46150215.0,-0.03648923828857716,0.11084838475751503,-0.11549058843687375,0.2352853227054108,0.0,1441.9498997995993,1500.0,1238.1002004008017,1518.0,1481.0,1554.0,14.027276631102206,14.372837757134269,14.156035863687375,14.070203039118237,14.41654132246493,13.70896749230461,14.046411288116232,122.4463621507014,122.4463621507014,11.739992901803607,-0.0016442038116232464,-0.005873441076152305,0.0002308966633266533,-0.19971412788577153,0.18802592671943888,-0.050345917945891785,2.0,0.6240550715731463,1.6240550715731463,11.0,0.0,0.0,1.0,0.0,0.0,0.0,0.0,0.0,0.0,0.0,-0.11292814651102205,0.025544170921843686,-0.7237930383787577,-0.6504428359038079,7.383111411378749,64.64444800404806,40.9508119144489,-0.029815504008016032,-0.009543826553106214,-0.08398723685170341,0.0,-0.5674906464068137,1.5609506343967936,-10.22482920492986,76026725.76080158,954.3569398969939,11.73755674046092,-0.05746456850701401,0.03037966323647294,0.035778803747495,-0.5230285773186375,1.6103854632264532,-10.20564712248497,-0.04849142734468937,0.04520232572545091,0.0327211146953908,76026725.76080158,100.11133,100.85047981783566,-0.03695754064128257,-1.320966672196393,15.368109144028058,14.957901060581163,0.008204166448897796,0.6110773448577155,-0.32719410754909817,75.63403311418838,502.2876470791584,11.737626242204408,95435.57613781563,1.1339324924028056,-0.6683656741262555,0.4811665067715436,-0.32558513106212444,-0.05498853702805614,0.05305511271142285,0.027477224430861716,-0.12168867022845689,0.028425911096192382,-0.8042632140861723,0.9187707559719439,-0.05039785589378757,0.03685138763527053,-0.38982128862525045,0.24229561739278563,398711874.10881764,327326521.76573145,503023.9362915832,14.173706548216432,10.74048984228457,-9.246713318577156,2.2198600443186374,5.572447967777555,0.0,0.0,0.0,756000.0,39.87141370000001,32.7364371,-66.71816488366733,-275.01727199519036,-95.38626159276554,10.268828738056111,-13.190818457014029,-4.835525986284569,-1.378983098242485,-0.30933560265531085,-0.8309106811222446,95.44555179146292,-0.043925423669338715,0.2486114217715431,-0.04673968283767535,0.2440478331262525,46150215.15430862,0.0,0.0,0.0,1.0,0.0
46333174.0,-0.03220078095190381,0.10851608223847696,-0.11628191453907816,0.24395279541082163,0.0,1441.4709418837676,1500.0,1246.4709418837676,1516.3037240781562,1482.6962759218438,1553.1872162144286,14.144876187254509,14.492958085170342,14.248828500661322,14.167956125711424,14.51644950517034,13.816258721663328,14.156098731583166,123.90367659659319,123.90367659659319,11.742079946953908,-0.001640306629258517,-0.005870183915831663,0.00023148563527054108,-0.19995175012625252,0.18809076083366733,-0.04979423469138277,2.0,0.6355515587875752,1.635551558787575,11.0,0.0,0.0,1.0,0.0,0.0,0.0,0.0,0.0,0.0,0.0,-0.09430558280360724,0.030396132136272538,-0.45887135716032096,-0.1923472498957921,20.00721018110219,117.33623817134263,41.32234417981964,-0.029768511565130263,-0.0077771538036072166,-0.0852061590280561,0.0,-0.379964686725451,1.5842280311663326,-10.422664215430862,82382296.0,954.3804873501002,11.739980927014027,-0.05659340193186377,0.04047043316032065,0.029921823128256482,-0.4523282209438876,1.6307664106653301,-10.367135454328658,-0.05602270512825652,0.041291149248496986,0.027138531322645258,82382296.0,100.11133,100.66921421002004,-0.02789416531462927,-1.0819568173346696,15.367906348737476,15.014901096272546,0.007060105366733468,0.591973089240481,-0.32720466419238475,75.44368505527055,501.7951268324649,11.739951613727454,95441.21194785571,1.133999524791583,-0.23626503397394374,-0.15798477454508852,0.3531642057194384,-0.05098630230260519,0.0535555123286573,0.024373009456913845,-0.12902570364328658,0.0334158363026052,-0.8053025427915832,0.9184033916993988,-0.052770018685370755,0.04059981046092185,-0.38999739147494994,0.2489462393787575,398712042.2016032,327326334.3088176,502650.4673711423,14.306429077234469,10.906429077234469,-9.26660726977956,2.1618300092384772,5.578733567222446,0.0,0.0,0.0,756000.0,39.87141370000001,32.7364371,-64.9477378869539,-277.3285323062124,-96.25513482128257,10.051197681022044,-13.237854398456912,-4.9766677265270545,-1.1434153460300605,-0.05111828982565153,-0.6829448938757516,96.31443371432866,-0.03024005131062129,0.24090004735470943,-0.05152397419038076,0.2512545156312625,46333174.318637274,0.0,0.0,0.0,1.0,0.0
46532104.0,-0.0318991357254509,0.10516003931262524,-0.11671540309218437,0.2517134040480962,0.0,1441.0,1500.0,1253.830109507014,1517.1742781222445,1481.8257218777555,1551.1082164328657,14.290463438076152,14.641897553066133,14.34162113763527,14.265709211222445,14.616357688957917,13.92354994993988,14.26578617446894,125.36099114248496,125.36099114248496,11.744166992104208,-0.0016364103386773546,-0.0058669267555110215,0.00023207360721442887,-0.20018937236673345,0.18815559500601203,-0.049242551436873755,2.0,0.647048047002004,1.647048047002004,11.0,0.0,0.0,1.0,0.0,0.0,0.0,0.0,0.0,0.0,0.0,-0.07568301898797596,0.0352480933006012,-0.19394967594188375,0.2657483361122245,32.63130895380762,170.02802826913825,41.69387644519038,-0.02971499249699399,-0.006103460214428857,-0.08640730058316633,0.0,-0.3415303630561122,1.697466291533066,-10.44841741482966,82382296.0,954.4426996717435,11.742201283527054,-0.058345425006012024,0.04017107206412825,0.0210798100501002,-0.3869392695470942,1.6339893660961924,-10.421851796933868,-0.05324556257314629,0.049544307314629256,0.02025674581763527,82382296.0,100.11133,100.52774637555109,-0.020820841314629256,-0.822688391232465,15.367861565691383,15.061829133306613,0.006120651096192385,0.5789665730200401,-0.32719356089579155,75.2912122448497,501.62346101703406,11.74214627266533,95443.17599482965,1.134022796749499,0.0003074803366733825,-0.17762243927655313,-0.45153292218236474,-0.05206225162925852,0.055766759404809615,0.016516164743486977,-0.08492342816232465,0.038018757140280565,-0.10724262674348684,0.9902299648316633,-0.040859385885771544,0.02215680999599198,-0.0515368492384769,0.25550470276753506,398712208.92024046,327326150.2018036,502296.90639298595,14.439017803046093,11.039285400541083,-9.299921682366733,2.069914299583166,5.582929830701403,0.0,0.0,0.0,756000.0,39.87141370000001,32.7364371,-63.21528043727455,-279.6389186200401,-97.14594873238477,9.87629060936473,-13.241620428176354,-5.103171901767535,-0.9178337669519039,0.18362083027254508,-0.6682045255210421,97.20524613557114,0.1768999805511022,0.2238647575771543,0.01529710710821644,0.257664541242485,46532103.61923847,0.0,0.0,0.0,1.0,0.0
46699122.0,0.05305116542284567,0.0981263617975952,-0.09219324654709417,0.2580956266933868,0.0,1442.2232218597194,1500.0,1259.69419453507,1458.0945076472947,1540.9054923527053,1549.381569284569,14.383921118617234,14.737510345851703,14.434413774609219,14.363462298897796,14.716265870581163,14.030841173507014,14.37547361264529,126.81830558837675,126.81830558837675,11.74625403725451,-0.0016316499458917837,-0.005863625529058117,0.00023283003006012022,-0.20040337429058114,0.18821521292184368,-0.04871051937074148,2.0,0.6585445342164329,1.6585445342164329,11.0,0.0,0.0,1.0,0.0,0.0,0.0,0.0,0.0,0.0,0.0,0.018635116821643184,0.039658820675350696,-0.023375213,0.5647528336993989,39.904862314308616,203.69477517054108,42.03517491096192,-0.02950074371743487,-0.004567940873747496,-0.08726109909819639,0.0,-0.26518851474749494,1.6674068981683368,-10.466501736833667,82382296.0,954.4582808020041,11.744180584509017,-0.05369662261322646,0.04592067985571142,0.020146533641282553,-0.28237157015631265,1.6928421969879757,-10.483259611042083,-0.03546620558917844,0.04496480386573146,0.022811743953907813,82382296.0,100.11133,100.42665542865731,-0.015766311805611225,-0.5119328548517036,15.36778442745491,15.091739293426853,0.005520906492985972,0.5604200816132264,-0.32716517692585173,75.15844939280561,501.33542216252505,11.744205966993988,95446.4871386573,1.1340621753887776,-0.2931225954368747,-0.09880842403607155,0.028012197693386004,-0.012725340380761618,0.058514920252505,0.019058203460921852,0.18072198371943876,0.042123920050100204,-0.023375213,0.995497308004008,0.09044620169338671,0.019916110356713427,-0.013538909174348697,0.26103250650501003,398712375.6859719,327325968.4823647,501981.6231490982,14.563631175230459,11.180116269038075,-9.341209842873747,1.938125865478958,5.586987178172345,0.0,0.0,0.0,756000.0,39.87141370000001,32.7364371,-61.50926319162325,-281.9486870018036,-98.05713572693386,9.740657357020039,-13.208535337274549,-5.2194312103106215,-0.7283583825651304,0.35018673259919836,-0.5918067914729458,98.11643314519038,0.4997431333326652,0.21879754983967936,-0.04243661145090182,0.2624354687374749,46699121.941883765,0.0,0.0,0.0,1.0,0.0
46864883.0,0.1261885123647294,0.09663741213426855,-0.11428645380761523,0.2629709266533066,0.0,1446.2323242004009,1500.0,1263.0,1427.839944735471,1571.160055264529,1546.0,14.387153325330662,14.740488733466933,14.516056868036072,14.450326181362726,14.805041458156312,14.132097866553107,14.479001344168337,128.07049877154307,128.07049877154307,11.748141300681363,-0.001625328875751503,-0.005860242897795591,0.00023389103206412825,-0.20057467064328657,0.18826539931663325,-0.04821401706212425,2.0,0.6700410224308617,1.6700410224308615,11.0,0.0,0.0,1.0,0.0,0.0,0.0,0.0,0.0,0.0,0.0,0.24980658880961903,0.04327181985370741,-0.023375213,0.5761295936793587,37.50493051126253,202.96531398857715,42.32181236569138,-0.028904583016032066,-0.0030966432585170355,-0.08831391730260521,0.0,-0.24905718740480987,1.6621439729358716,-10.786228259559119,82382296.0,954.4969599308617,11.746028073707414,0.0012486323947893813,0.050473510535070105,0.01745353997595192,-0.25093706641883784,1.6437980673286576,-10.524034898176353,0.25018521308016006,0.04944680593987975,0.03334840599999998,82382296.0,100.11133,100.37411746192384,-0.013139375897795591,-0.17171778484969968,15.367681429559118,15.095848663907816,0.005436657859719439,0.5360614378436874,-0.3271237011222445,75.03892588026052,500.93343616713423,11.74612793747495,95451.09475124249,1.134116951272545,1.4593831141362728,-0.17452182314428466,-0.38319608308015835,0.28107087545691356,0.05887867756713427,0.03855630102204405,0.44636733182965904,0.04602022881763527,-0.023375213,0.9747111343867736,0.22150127356913815,0.019846978631262526,-0.016488074382765526,0.2636265904549098,398712549.591984,327325779.6142285,501661.3531134268,14.688059028296594,11.288447498216433,-9.369611527945892,1.8054033370440883,5.590242151673347,0.0,0.0,0.0,756000.0,39.87141370000001,32.7364371,-59.817321136292584,-284.257283307014,-98.99071231723447,9.649894819787574,-13.141042307014027,-5.324692005927856,-0.4041938052885774,0.5618728130641281,-0.501727623941884,99.05000269130261,0.7627060089138277,0.20386901316032066,-0.0021332789298597627,0.2645005411222445,46864882.57915831,0.0,0.0,0.0,1.0,0.0
47040478.0,0.15734532568336665,0.08972715371342685,-0.10031998488176355,0.26485369883767534,0.0,1453.092631721443,1500.0,1266.2785518977955,1425.4497977174344,1573.5502022825656,1543.9699346633267,14.509694486232465,14.866003669639278,14.533800588116232,14.474782696953907,14.830014721402806,14.198769862965932,14.547227015671343,128.14711569979963,128.14711569979963,11.74888358517034,-0.0016190073386773546,-0.005856859953907816,0.00023495203406813627,-0.2007459671503006,0.18831558586573147,-0.04771751475350701,2.0,0.6815375096452906,1.6815375096452907,11.0,0.0,0.0,1.0,0.0,0.0,0.0,0.0,0.0,0.0,0.0,0.4809780611102201,0.046884818032064124,-0.023375213,0.58750635350501,35.104998708216435,202.23585279118237,42.6084498235471,-0.02841747617234469,-0.001753248619238479,-0.08979459553707415,0.0,-0.20295081122845693,1.574902748470942,-11.07733584282565,82382296.0,954.5367214104208,11.747800052104209,0.300023313372745,0.04694697032464931,0.04103428817635268,-0.2567773368016035,1.650213633619238,-10.707918966893786,0.5653178252745487,0.04942412004008015,0.0747706908737474,82382296.0,100.11133,100.37800847835672,-0.013333983997995989,0.14371866570741443,15.367693102044088,15.068312805511022,0.005987608607214427,0.5128438363847696,-0.3270735329559118,74.92985011723447,500.6826382723447,11.747883613086172,95453.97185843687,1.1341509934368736,1.6344379181482929,0.22724347284970076,-0.40604911375150293,0.605854881863727,0.05208738343086167,0.08525547913627246,0.6194649175110221,0.0493154373246493,-0.023375213,0.9519724625270541,0.3049647395811623,0.019919165985971942,-0.01864219443286573,0.268440223006012,398712722.5563126,327325593.1961924,501372.8448416834,14.802821841583167,11.416983607194389,-9.394497348649299,1.658183460426854,5.5943789203366725,0.0,0.0,0.0,756000.0,39.87141370000001,32.7364371,-58.128472107535075,-286.56429387595193,-99.94528946316633,9.602863097745491,-13.04303577709419,-5.416210996074149,-0.10714454621643323,0.7251863462945889,-0.43761188093787573,100.00458089490981,0.717540804194389,0.2005757894268537,0.05539061270541074,0.270537895751503,47040477.63527054,0.0,0.0,0.0,1.0,0.0
47206530.0,0.09386905606813639,0.08848990525851703,-0.08285840638076156,0.2718092604569138,0.0,1462.0993934108217,1500.0,1275.1503006012024,1464.8248443126251,1534.1751556873749,1543.4248496993987,14.569224671843688,14.926586034549098,14.551040853887775,14.49874751501002,14.854485297955913,14.265169376212425,14.615174546593186,128.21447041743485,128.21447041743485,11.74961685018036,-0.0016126865350701402,-0.005853478010020041,0.0002360130360721443,-0.2009172643486974,0.18836577268136273,-0.047221012444889784,2.0,0.6930339978597193,1.6930339978597195,11.0,0.0,0.0,1.0,0.0,0.0,0.0,0.0,0.0,0.0,0.0,0.6211866565911823,0.049968830416833664,-0.004570433807615316,0.599309138242485,32.62672165699399,201.44772216232465,42.837616294228454,-0.02831296280561122,-0.0005828001162324668,-0.09152585421843687,0.0,-0.2641523200821647,1.6299202706613227,-11.362035556553105,70742900.89322662,954.5907494685371,11.749412917875752,0.5916170843386769,0.04214673333066131,0.0813434672444889,-0.19835067544088153,1.6817379220701403,-11.063025701262525,0.7708682948296592,0.0706181260641282,0.14973874965731448,70742900.89322662,100.11133,100.4336075993988,-0.016113972420841678,0.4311306527835666,15.367734988236473,15.015539001923848,0.007043918066132263,0.4880462727995992,-0.3270141821843688,74.8054099576954,500.412096971944,11.749401969058116,95457.03985855711,1.1341875416192384,1.9592252596372743,0.07401513806813605,0.5318122616793587,0.7903705999198396,0.07517050945691378,0.1547383316513025,0.5995414156032064,0.052042168478957915,-0.023375213,0.9549243780501002,0.2954711383126253,0.021406090951903805,-0.018844707264529057,0.2763671247034068,398712896.2360721,327325408.9436874,501118.55046172347,14.898148465931865,11.594444718577154,-9.341192635352705,1.4661717754649304,5.604760004058116,0.0,0.0,0.0,756000.0,39.87141370000001,32.7364371,-56.44150864412826,-288.8576246162325,-100.91564381102205,9.592850173581162,-12.914017919498999,-5.497419544529058,0.0363970983827652,0.9238600233266523,-0.3669062612765534,100.97493646072144,0.5268081433687378,0.20678816451703405,0.1146116161042083,0.27692836007014027,47206530.30661323,0.0,0.0,0.0,1.0,0.0
47381294.0,0.05063641933066135,0.08750318670140282,-0.06617361577755514,0.277587152004008,0.0,1468.9919839679358,1500.0,1278.0051801543086,1475.995991983968,1523.004008016032,1543.0,14.636243983446894,14.995205453006013,14.568281119659318,14.522712333066131,14.878955874509018,14.331568890961924,14.68312207751503,128.28182513507014,128.28182513507014,11.75035011519038,-0.00160636572745491,-0.005850095066132265,0.00023707304208416832,-0.20108856070140285,0.188415959496994,-0.046724510136272546,2.0,0.7045304850741483,1.7045304850741483,11.0,0.0,0.0,1.0,0.0,0.0,0.0,0.0,0.0,0.0,0.0,0.6226394178977955,0.052245918551102194,0.04291937586973937,0.6117617862004008,30.028935850200405,200.5700965713427,42.979115863907815,-0.028696009691382765,0.00018611498396793456,-0.0935810717014028,0.0,-0.02720790144889791,1.5409464864609221,-11.972915513266532,63765723.63110189,954.5902204446894,11.750611371382766,0.7889540945430862,0.06577974578957904,0.15425752829258502,-0.1112152400981969,1.620226800787575,-11.474242278096192,0.6766778959418841,0.12321552403607197,0.22773418082765512,63765723.63110189,100.11133,100.54944269839679,-0.021905719931863712,0.6985072540681356,15.367802376633266,14.95060220991984,0.00834399254308617,0.44772690648296604,-0.32694559001402806,74.63075694122244,500.25930790160317,11.75066090236473,95458.81022969939,1.1342085948517033,-0.5619030988136237,0.36828920387374486,0.8719186766553058,0.6523933436773551,0.14512671553306594,0.23538449305010006,0.6118331059098197,0.05428161232665331,0.041830822276552965,0.953180988735471,0.30044872240881765,0.032168040861723424,0.011764390412825586,0.2794632129078156,398713076.0324649,327325223.96513027,500888.85900501005,14.971380337735471,11.849754778056111,-9.117386966176353,1.2116188147294595,5.627416963517034,0.0,0.0,0.0,756000.0,39.87141370000001,32.7364371,-54.75837664456914,-291.1216891517035,-101.8919546771543,9.526850688835673,-12.640116356633268,-5.480081544126253,-0.9172612515470919,2.4686814335611187,0.868554379769535,101.95124937474948,0.41177942039078175,0.21049030913426853,0.17038326559318623,0.2802257631543086,47381293.911823645,0.0,0.0,0.0,1.0,0.0
47552968.0,0.0330466013046093,0.08457331783366734,-0.053506736769539105,0.2804715884769539,0.0,1475.4168336673347,1500.0,1281.0,1486.5796814108216,1512.4203185891784,1541.5218049879759,14.679688410641283,15.039688635130261,14.58552138543086,14.546677151122244,14.903426446893787,14.39796839995992,14.751069608436874,128.34917989438875,128.34917989438875,11.7510833802004,-0.0016000439278557113,-0.005846712122244489,0.0002381340400801603,-0.20125985747094188,0.18846614589579158,-0.046228007827655314,2.0,0.7160269732885772,1.7160269732885771,11.0,0.0,0.0,1.0,0.0,0.0,0.0,0.0,0.0,0.0,0.0,0.6240921782124248,0.05452300668537074,0.09040918496392772,0.6242144351583166,27.431150049158322,199.69247093867736,43.120615433587176,-0.02900335249298597,0.0003052662905811629,-0.09598467203406813,0.0,0.1286761737835671,1.6383066945811626,-12.62124428531062,82382296.0,954.5988121879759,11.751581636212425,0.651311006138277,0.12702673627855693,0.24209263119839655,0.00937035240480983,1.6038402323667325,-11.996920303907812,0.5240269874468941,0.2013201117434868,0.3106418529038074,82382296.0,100.11133,100.69194520541082,-0.02903077351703405,0.8885684055731459,15.367895024669338,14.8763235048497,0.009831425346693382,0.40171902246092195,-0.32689142292985973,74.43255959631263,500.1172842490982,11.751608376953907,95460.42086683367,1.1342277315490983,-1.0817840694028114,0.8231032722344672,0.38836995955911896,0.5055550520621246,0.22699603946693364,0.32157873460320624,0.6229662962725451,0.055902207851703405,0.12132215762324637,0.9502711846533066,0.3041727254148297,0.045124508256513006,0.04913486643486968,0.28176626288577156,398713262.7320641,327325043.9018036,500698.07756913826,15.036050707855711,12.25888609282565,-8.683551822130262,0.9285749533366742,5.666494004831663,0.0,0.0,0.0,756000.0,39.87141370000001,32.7364371,-53.10953173629259,-293.3033671262525,-102.83459536332666,9.339066653146293,-12.172237153266535,-5.145353259913829,-1.124519650883768,2.757325340202405,2.8488845322244445,102.89388982184369,0.3167810578116235,0.21212623563126254,0.21718855927054095,0.28246627265731467,47552967.58917835,0.0,0.0,0.0,1.0,0.0
47712039.0,0.014222504543086172,0.08192158721242485,-0.04184587265731463,0.2828060600400802,0.0,1481.6753507014027,1500.0,1283.0,1497.7086663747496,1501.2913336252504,1540.0,14.672281180941884,15.031981908396794,14.602761651202405,14.570641969178356,14.927897019238477,14.464367910581162,14.819017140981964,128.41653465410823,128.41653465410823,11.75181664521042,-0.0015938863266533065,-0.005844216509018036,0.00023949388176352707,-0.2013911791563126,0.1885100781963928,-0.04574378953707415,2.0,0.7275234605030061,1.727523460503006,11.0,0.0,0.0,1.0,0.0,0.0,0.0,0.0,0.0,0.0,0.0,0.6179101736192385,0.055642107316633264,0.14401726234669338,0.6360385386112224,24.963622598416833,198.64824815831665,43.16023068246493,-0.029293930531062124,-0.00015547534268537077,-0.09873782852705411,0.0,0.26543275056312626,1.6251254220881763,-13.320126816432866,82382296.0,954.6172083705411,11.752257888336672,0.49488434473747495,0.2219812176753507,0.32540961405410823,0.17826725100601204,1.6773170298216435,-12.729691853226452,0.4147931161382765,0.2697502012284569,0.3698148740601202,82382296.0,100.11133,100.85475395430862,-0.03717122033266533,1.0003652578577154,15.367992238196393,14.787402403687373,0.011611799927855711,0.35601349151703404,-0.32684583326252503,74.19628621905811,500.0498677903808,11.752250363186372,95461.20214372745,1.1342369697975951,-0.33138156518036066,0.24086368310420844,0.48630643050300604,0.4029111662004008,0.2899545276032064,0.376946364997996,0.6178994483767535,0.05640031833466934,0.1897726373747495,0.9487969097214428,0.3000231398096192,0.05553658220841683,0.08168695032064129,0.2839752307575151,398713450.88496995,327324879.9735471,500561.59195851703,15.064039243446894,12.72674555224449,-8.014914031064128,0.6235159741362725,5.721067830382766,0.0,0.0,0.0,756000.0,39.87141370000001,32.7364371,-51.49624346038076,-295.3965706496994,-103.6931498501002,9.176595238521042,-11.722515047795591,-4.532143221382766,-0.7953863332825651,2.3803744379018035,4.187588736278557,103.7524457234469,0.21174958741082162,0.21044607899999998,0.2653163933366734,0.2843861295791583,47712038.721442886,0.0,0.0,0.0,1.0,0.0
47883584.0,-0.008155368943887771,0.07801395988376754,-0.028561431793587184,0.28457386633266535,0.0,1488.5170340681364,1500.0,1285.0,1510.0,1489.0,1536.9081563947896,14.609397839178357,14.967503972244488,14.600455009458917,14.574594052204409,14.931901213046093,14.523334161442886,14.879386588416834,128.2607493739479,128.2607493739479,11.75223128482966,-0.0015879390360721444,-0.005842868152304609,0.0002412411142284569,-0.20147075030661324,0.18854591353907815,-0.04527547225651303,2.0,0.7390199487174349,1.739019948717435,11.0,0.0,0.0,1.0,0.0,0.0,0.0,0.0,0.0,0.0,0.0,0.6018446767915832,0.05526214923647295,0.2055456684108216,0.6470489662865732,22.664719548817637,197.38835911823645,43.0679528182966,-0.02958298496192385,-0.0010745605811623242,-0.10131837333066132,0.0,0.3839920921162324,1.715492312002004,-13.806135815691382,18182198.974288598,954.6033834400802,11.752514745771542,0.3999352088697395,0.2794518539118236,0.37855045551503,0.2534131048557112,1.7155472132625251,-13.466006611703406,0.31881851392384775,0.32017108791182364,0.4041735715631263,18182198.974288598,100.11133,101.03742111783568,-0.046304647306613225,1.0415488138416835,15.368111475711423,14.682633328496994,0.013709566182364729,0.3155610199759519,-0.3268041856232465,73.8972572609018,499.9589098885772,11.75251188997996,95462.24151711423,1.1342493306853707,-0.7623517933466931,0.4800540780761532,0.11928958276553261,0.3064203401523046,0.32992711639478955,0.40612037864729456,0.5972539330521043,0.05587311751703407,0.24577062162525048,0.9491612916893788,0.28860075383567135,0.06254150737074148,0.10894881724649298,0.285487650743487,398713652.4210421,327324728.66553104,500481.4265200401,15.063691127274549,13.256343815971944,-7.1245524455090194,0.3355198530801605,5.789833735288577,0.0,0.0,0.0,756000.0,39.87141370000001,32.7364371,-49.86874875426854,-297.4626723793587,-104.44413263426853,9.083185158102205,-11.341836536893789,-3.706226483853708,-0.3286686449498999,1.9753396887454913,5.125494617056112,104.50342442204409,0.10849139059318644,0.2025100757955912,0.31089729675551103,0.2856456237675351,47883583.65731463,0.0,0.0,0.0,1.0,0.0
48063846.0,-0.030497444863727425,0.07126344213627256,-0.014518956631262538,0.2856344074549098,0.0,1495.4966848897795,1500.0,1285.6793587174348,1518.7174348697395,1480.2825651302605,1533.3206412825652,14.518588440941885,14.874481871202404,14.514510256252505,14.492914792304608,14.848333015911823,14.550494663326653,14.907330586072144,127.15018361342685,127.15018361342685,11.751282616412825,-0.0015819915831663328,-0.005841519795591182,0.00024298734669338676,-0.20155032245691382,0.18858174988176354,-0.04480715481362725,2.0,0.7505164359318637,1.7505164359318637,11.0,0.0,0.0,1.0,0.0,0.0,0.0,0.0,0.0,0.0,0.0,0.5857791799639278,0.05488219015631263,0.26707407447494985,0.6580593937995992,20.36581648921844,196.1284700781563,42.97567496412825,-0.029874889226452907,-0.0023720610941883754,-0.10339032126653307,0.0,0.6151339820340678,1.7929815108557114,-14.10622233755511,82382296.0,954.6202906837675,11.752420302084168,0.29590817313426865,0.32247877364328653,0.41080826680961924,0.5006670311302603,1.7446121453987977,-13.95262318747495,0.20532336769739487,0.35036039716432865,0.41993572254108213,82382296.0,100.11133,101.23421090901803,-0.05614411180961923,1.0206631705531062,15.36829107234469,14.569738946092185,0.015971038460921842,0.28564423758717433,-0.32676754103607214,73.52163122983967,499.88590578717435,11.752423499018036,95463.07673148296,1.1342592328797596,-0.6990819402084166,0.36731981284969933,0.25106417647895757,0.2156791639078157,0.36600468881763526,0.4123652907254509,0.5735143249298598,0.05442909997595191,0.3055773035691382,0.9488054433887775,0.2754718221703407,0.06882086233867735,0.13831979522244486,0.28600390256112224,398713860.46953905,327324597.1931864,500454.381011022,15.032379072004009,13.739376444749498,-6.041714138484971,0.03046749706212453,5.868763196941884,0.0,0.0,0.0,756000.0,39.87141370000001,32.7364371,-48.335170808617235,-299.36778867995986,-105.0138916216433,9.043888547997996,-11.03063516991984,-2.825255403979961,-0.19298447809619249,1.8147187459378757,5.299076619925851,105.07318684448897,0.010185487933867792,0.18837300730260523,0.3508346899799599,0.2858897518036072,48063845.94589178,0.0,0.0,0.0,1.0,0.0
48246845.0,-0.04863861231663326,0.06266666350100202,-0.0027746997114228606,0.2856726870641283,0.0,1499.8997995991983,1500.0,1284.8997995991983,1524.9004702184366,1474.0995297815634,1529.6993987975952,14.563723345170342,14.920885643807617,14.428565503046093,14.411235541402807,14.764764818777556,14.57765515521042,14.935274583727455,126.03961781703407,126.03961781703407,11.750333937995991,-0.0015760442304609218,-0.005840171438877754,0.00024473457915831666,-0.20162989450701405,0.18861758532464928,-0.04433883837074148,2.0,0.762012923246493,1.762012923246493,11.0,0.0,0.0,1.0,0.0,0.0,0.0,0.0,0.0,0.0,0.0,0.5589948585210421,0.05338918690180361,0.3215450848617234,0.6682299888757515,18.246924995911826,194.64709901062125,42.82159943857715,-0.030150514821643288,-0.0038453096753506993,-0.10486731381763527,0.0,0.6983219331482964,1.6255573311482965,-14.004645635991984,82382296.0,954.5959955428858,11.751930422945891,0.1949676455150302,0.3546272293066132,0.4112844297094188,0.6743716871723445,1.6946769550981966,-14.096567593406814,0.12009041868136285,0.36118727489779556,0.4286389136272545,82382296.0,100.11133,101.40215838717435,-0.06454151585971943,0.9466048890160321,15.368495165951904,14.477727169639278,0.017815356046092183,0.2763786260340681,-0.3267426109118236,73.12569483012024,500.1419553170341,11.751974095030059,95460.16335384769,1.1342246689038078,-0.3926489836613221,0.07155983218036083,0.6537693044068152,0.1274057584889781,0.37323407869539077,0.42254386196392785,0.5425337819679359,0.05237544468136274,0.36024507616432866,0.9487733086553106,0.2590069649398798,0.07280313931863729,0.16563688641883767,0.2849952709258517,398714071.74969935,327324489.5260521,500479.4783058116,14.976811551783568,14.144637542184368,-4.809129591981966,-0.28724655270340643,5.955270715340681,0.0,0.0,0.0,756000.0,39.87141370000001,32.7364371,-46.760781282364746,-301.2779339136273,-105.44618815911824,9.020907450851704,-10.725469431723447,-1.9506507474068147,-0.13347677449098216,1.781339364927856,4.79803412342485,105.50547923887775,-0.06679486897995991,0.1583981327695391,0.3558807759739479,0.28423003813627257,48246845.308617234,0.0,0.0,0.0,1.0,0.0
48416544.0,-0.06058730024248498,0.04793590196392788,-0.003495631901803602,0.2839056754509018,0.0,1496.4789579158316,1500.0,1282.4789579158316,1532.2300094589177,1466.7699905410823,1520.124474228457,14.470516844228456,14.8253639148497,14.34262074983968,14.32955628250501,14.681196621643288,14.604815651883767,14.963218581382765,124.92905198857716,124.92905198857716,11.74938526957916,-0.0015700971983967935,-0.005838823082164328,0.0002464808116232465,-0.20170946623647293,0.18865342156713427,-0.04387052092785571,2.0,0.7735094113607214,1.7735094113607215,11.0,0.0,0.0,1.0,0.0,0.0,0.0,0.0,0.0,0.0,0.0,0.5203947327094189,0.05066922768937876,0.36823643548096185,0.6774748009539078,16.326467690741488,192.92157936312626,42.5994018006012,-0.030401968306613226,-0.0054501624689378735,-0.10595846223446893,0.0,0.8318452199579155,1.624666006460922,-13.837334371142285,77985933.89218444,954.5953913492987,11.751222137735471,0.11074125542284587,0.35918571078957917,0.421030733244489,0.7173442479398798,1.712718103410822,-14.06343039498998,0.024653313939879927,0.3515809513366734,0.43404025931462925,77985933.89218444,100.11133,101.5549431993988,-0.07218077209619238,0.8362415013627257,15.368491698116232,14.398683451482965,0.019396158707414828,0.26683753636472946,-0.3267309192665331,72.68326025322645,500.2165996761523,11.75122557965932,95459.27889771544,1.1342141619739479,-0.699189788088175,-0.14322705705009864,-0.14214615215030174,0.02973740340080175,0.3586369956172346,0.423585711256513,0.5024628242084169,0.04972345657114229,0.40525844469338673,0.9497325574509018,0.23858910953507018,0.07359425209218438,0.18881300559318634,0.2827846817975952,398714287.5773547,327324406.7785571,500555.26383667334,14.906869029859719,14.477455296653305,-3.475874770154311,-0.5846176970480957,6.047415793446894,0.0,0.0,0.0,756000.0,39.87141370000001,32.7364371,-45.177960795891785,-303.1479639563126,-105.72788414028057,9.022766029112224,-10.445438695771543,-1.1518414562745505,0.05503942346492953,1.5736921916893791,4.430507329202406,105.7871767739479,-0.12008749963527048,0.1259728735871744,0.34292619023046095,0.282217664729459,48416544.138276555,0.0,0.0,0.0,1.0,0.0
48588300.0,-0.07019077977354708,0.033921044769539103,-0.011067533038076133,0.2819637164008016,0.0,1491.0723343106213,1500.0,1281.0,1536.2804573486974,1462.7195426513026,1513.0723343106213,14.445368169899801,14.799693605370742,14.25667599721443,14.24787703260521,14.597628424509018,14.631976148977955,14.991162589038076,123.81848616012024,123.81848616012024,11.748436601162325,-0.0015641501663326654,-0.005837474725450902,0.00024822804408817633,-0.20178903790781563,0.18868925790981964,-0.04340220448496994,2.0,0.7850058985751501,1.7850058985751502,11.0,0.0,0.0,1.0,0.0,0.0,0.0,0.0,0.0,0.0,0.0,0.4817946068977957,0.047949267535070145,0.4149277861583165,0.6867196130320642,14.406010385571147,191.1960596256513,42.37720415262525,-0.03062200048496994,-0.0070458856593186335,-0.10721657109018036,0.0,0.9733003093306618,1.476943475509019,-13.282881116472948,50261309.28156281,954.5858496537074,11.750268530721442,0.01991534316032087,0.3404835473947897,0.42498232895591176,0.839385326913828,1.5531003492304614,-13.778636538076153,-0.05009572195991971,0.30316198290180374,0.4263116398256513,50261309.28156281,100.11133,101.69648158476954,-0.07925769641282564,0.6923477861843691,15.368657334308617,14.369425761923848,0.01998462897795591,0.2797294178316633,-0.326743140240481,72.16548362460922,500.3320974340681,11.750227590841684,95457.9624222445,1.1341984949058117,-0.39657579812024196,-0.2134737416833651,0.09508959770941916,-0.04054686591583149,0.3212248810801604,0.42617942255511015,0.45844015931863735,0.04611190370340683,0.44478525646092176,0.9507613194468938,0.21661155237474955,0.0719989622945892,0.2096282492725451,0.2811797738957916,398714514.0244489,327324349.5496994,500682.17976432864,14.81562145763527,14.668243100300602,-2.057402830240484,-0.8251772800100194,6.143403463442886,0.0,0.0,0.0,756000.0,39.87141370000001,32.7364371,-43.59129823707415,-304.9729911282566,-105.87716428016032,9.052212029569139,-10.192264692945892,-0.4224829435430877,0.23781143933867688,1.4227155720861728,3.9934738089338686,105.93646126392785,-0.16268277115230456,0.09531066885771548,0.31992269480761526,0.280183083747495,48588300.04008016,0.0,0.0,0.0,1.0,0.0
