timestamp,control[0],control[1],control[2],control[3],control[4],output[2],output[3],output[4],output[5],output[6],output[7],indicated_airspeed_m_s,true_airspeed_m_s,indicated_airspeed_m_s.1,equivalent_airspeed_m_s,true_airspeed_m_s.1,equivalent_ground_minus_wind_m_s,true_ground_minus_wind_m_s,differential_pressure_raw_pa,differential_pressure_filtered_pa,temperature,gyro_bias[0],gyro_bias[1],gyro_bias[2],accel_bias[0],accel_bias[1],accel_bias[2],instance_count,seq_reached,seq_current,seq_total,item_changed_index,item_do_jump_remaining,valid,warning,finished,failure,stay_in_failsafe,flight_termination,item_do_jump_changed,execution_mode,nav_roll,nav_pitch,nav_bearing,target_bearing,xtrack_error,wp_dist,acceptance_radius,rollspeed_integ,pitchspeed_integ,yawspeed_integ,additional_integ1,x,y,z,temperature.1,pressure,temperature.2,gyro_rad[0],gyro_rad[1],gyro_rad[2],accelerometer_m_s2[0],accelerometer_m_s2[1],accelerometer_m_s2[2],x.1,y.1,z.1,temperature.3,altitude_sp,altitude_filtered,height_rate_setpoint,height_rate,airspeed_sp,airspeed_filtered,airspeed_derivative_sp,airspeed_derivative,throttle_integ,pitch_integ,baro_alt_meter,baro_temp_celcius,baro_pressure_pa,rho,xyz[0],xyz[1],xyz[2],xyz[0].1,xyz[1].1,xyz[2].1,roll_body,pitch_body,yaw_body,q_d[0],q_d[1],q_d[2],q_d[3],thrust_body[0],lat,lon,alt,vel_m_s,vel_n_m_s,vel_e_m_s,vel_d_m_s,cog_rad,ground_contact,maybe_landed,landed,ref_timestamp,ref_lat,ref_lon,x.2,y.2,z.2,vx,vy,vz,ax,ay,az,dist_bottom,roll,pitch,yaw,thrust_body[0].1,timestamp.1,isTakeoff,isClimbing,isDescending,isCruise,isLand
61001734.0,-0.011327833999999998,-0.07908636200000001,-0.032765425,0.0,0.0,1481.0,1500.0,1000.0,1507.0,1492.0,1463.0,15.57676852,15.96058492,15.46430235,15.43941272,15.81979906,16.62075668,17.03024927,147.9017784,147.9017784,11.73633719,-0.001535701,-0.005886606,8.120000000000001e-05,-0.205757545,0.182172911,-0.006876359,2.0,1.625125025,2.625125025,11.0,0.0,0.0,1.0,0.0,0.0,0.0,0.0,0.0,0.0,0.0,0.44035048,-0.19323728,1.7981184730000002,1.939402687,8.320593014,198.608567,45.64063405,-0.027602474,0.00101945,-0.173621092,0.0,-0.924857237,0.33851194700000004,-6.74378534,82382296.0,954.3287033,11.73589635,-0.100800224,-0.125391365,0.322532909,-0.913546384,0.384652627,-6.592971252999999,-0.076333098,-0.103765155,0.287929633,82382296.0,94.2037693,101.9329254,-3.851546761,-2.451028062,15.36897678,15.63458137,-0.005312088,-0.026741298,-0.1,65.10012771,502.4966296,11.73587476,95433.19913,1.133904299,0.613422645,-0.651753894,-0.577963522,-0.066252108,-0.092394574,0.260995767,0.441772737,-0.216399085,1.825976922,0.574318048,0.216546478,0.107944865,0.78205757,0.0,398726854.0,327339325.8,502969.1046,16.0279916,2.844634927,15.76166433,-0.457963593,1.3920822780000002,0.0,0.0,0.0,756000.0,39.87141370000001,32.7364371,103.748852,-263.6309088,-99.90528777,11.60686612,10.67588939,-0.08694533800000001,-0.147352142,0.011303297,-0.023690208,99.96458532,0.013136811000000002,-0.177730532,0.407475619,0.0,61001734.0,0.0,0.0,1.0,0.0,0.0
61031798.0,-0.012335467386773546,-0.08208687975551102,-0.03206968219438878,0.0,0.0,1481.7815631262524,1500.0,1000.0,1505.436873747495,1493.563126252505,1463.0,15.545436154468938,15.928433288737475,15.451839044188377,15.427119599559118,15.807188023126251,16.607270831703406,17.01641511809619,147.62746889098196,147.62746889098196,11.736444014048097,-0.0015359745470941884,-0.0058864668817635276,8.120000000000001e-05,-0.2057608971242485,0.18215994095991986,-0.006800887356713426,2.0,1.6271574955410824,2.6271574955410824,11.0,0.0,0.0,1.0,0.0,0.0,0.0,0.0,0.0,0.0,0.0,0.4394958118036072,-0.19671725703406814,1.8037544841422846,1.9406399037735471,8.056995408328657,198.19201323647295,45.58227082354709,-0.02756203748697395,0.0008164702404809619,-0.17309460919438877,0.0,-0.9069619103667335,0.3249672587234469,-6.840868263527054,82382296.0,954.3324578511022,11.735942087074148,-0.09925089937074148,-0.12461127980961924,0.3092692973967936,-0.915735900272545,0.4217141159779559,-6.602416573901804,-0.0701559325490982,-0.10295791908817635,0.2760076002945892,82382296.0,94.08292672925852,101.86347906132265,-3.83516330102004,-2.5152087980921842,15.36890410244489,15.657764626913828,-0.005777207158316633,0.011219738092184368,-0.1,64.897219760501,502.6174817683367,11.73591282993988,95431.83044883767,1.1338880073166333,0.2574306145190381,0.13845547832464933,0.06038277806012027,-0.06145537060521043,-0.08616329546292587,0.25785153776152303,0.43899791435470953,-0.2234853967234469,1.8294558611182363,0.5724166612264528,0.2182370357755511,0.10507173109218437,0.7833682412024049,0.0,398726861.8156313,327339381.36913824,502983.6229947896,16.001594492985973,2.7449125374008014,15.754331806352706,-0.3435761459458918,1.3980459993426855,0.0,0.0,0.0,756000.0,39.87141370000001,32.7364371,104.12124924448898,-263.28802689619243,-99.90959470647294,11.602191997354709,10.67740642747495,-0.0887619697234469,-0.15593831478557116,0.020022116679358715,-0.044679057619238474,99.9688937961523,0.012697113745490981,-0.17642022578757513,0.4032911065751503,0.0,61031797.60721443,0.0,0.0,1.0,0.0,0.0
61063363.0,-0.013484471366733468,-0.07898575055911823,-0.03356247100400802,0.0,0.0,1481.436873747495,1500.0,1000.0,1505.563126252505,1493.436873747495,1463.0,15.542874477935872,15.925880817815631,15.458733828376754,15.434387210100201,15.814593821342685,16.610903728657313,17.02009396176353,147.68078809398799,147.68078809398799,11.736752133206412,-0.0015362475310621243,-0.005886328326653307,8.120000000000001e-05,-0.20576424868537074,0.1821469709198397,-0.006725415713426854,2.0,1.6291899660821643,2.6291899660821647,11.0,0.0,0.0,1.0,0.0,0.0,0.0,0.0,0.0,0.0,0.0,0.4386411436072144,-0.20019723350501004,1.809390494721443,1.9418771211102204,7.793397803220441,197.7754594729459,45.52390759709419,-0.027526930963927856,0.0006447231523046092,-0.17260217863326655,0.0,-0.8890665837334669,0.3114225704468938,-6.937951187054108,82382296.0,954.3362124022044,11.735987824148296,-0.08926879965531062,-0.12299266978356714,0.30154020210220445,-0.9210480383366734,0.431660434496994,-6.665355074737475,-0.06397876766132264,-0.10215068373947896,0.2640855675891784,82382296.0,93.96208415851703,101.79403272264528,-3.8187798416032064,-2.5793895341843687,15.368831424889779,15.680947878196392,-0.006242326879759518,0.04918077418436873,-0.1,64.694311811002,502.5442845719439,11.735957004168338,95432.66909306613,1.1338979865991983,0.20151632275951903,0.284712298745491,-0.06351078925250503,-0.05944739490380762,-0.08221916658917837,0.24603295621643287,0.43640429109619244,-0.2208446467975952,1.8331295276052104,0.5715686471583166,0.21630241987174348,0.10525690826853708,0.7844973131983968,0.0,398726869.57494986,327339436.9382765,502998.14144589176,15.975197391603206,2.6451901483647298,15.74699927707415,-0.22918869945490983,1.404009721248497,0.0,0.0,0.0,756000.0,39.87141370000001,32.7364371,104.47770207595191,-262.9595358527054,-99.913870777996,11.59772173767535,10.678388433066132,-0.09009730475951903,-0.1663893066232465,0.028977997306613226,-0.043563030975951905,99.97316973486974,0.02069687532264529,-0.17190441235671342,0.4009490193607214,0.0,61063362.509018034,0.0,0.0,1.0,0.0,0.0
61095051.0,-0.013334874348697396,-0.07489787801002004,-0.03499349647094188,0.0,0.0,1481.3212456753506,1500.0,1000.0,1505.2871775390781,1493.7128224609219,1462.7021976833666,15.511835951402805,15.89408131268537,15.47313762256513,15.449242435150301,15.829764160460922,16.621176992985973,17.030566106092184,147.86119459098197,147.86119459098197,11.73713833480962,-0.0015365202965931864,-0.005886189645290581,8.120000000000001e-05,-0.2057676003727455,0.18213400053507015,-0.006649944070140281,2.0,1.6312224366232466,2.6312224366232466,11.0,0.0,0.0,1.0,0.0,0.0,0.0,0.0,0.0,0.0,0.0,0.4377864754108216,-0.20367721010220444,1.8150265050821643,1.9431143386653307,7.529800198330661,197.35890570941885,45.46554436719438,-0.02749232533266533,0.0004844587234468938,-0.17210430270541083,0.0,-0.8738312122825651,0.30169900176953907,-7.028905766436874,82382296.0,954.3388915569138,11.736060446993989,-0.08081104173547095,-0.11634105812825651,0.296207954995992,-0.923744566248497,0.4098683538837675,-6.719789948028056,-0.058838796426853704,-0.10082330613226453,0.2533224977695391,82382296.0,93.84124158777556,101.72458638396793,-3.8023963820601203,-2.643570270276553,15.368758747334669,15.704131130741484,-0.006707446819639278,0.0871418102765531,-0.1,64.4914038649499,502.4741080276553,11.736026454308618,95433.47597771542,1.1339075964949898,0.13591657584569142,0.2353502509739479,-0.19377450472344693,-0.055370806450901804,-0.08041637756713427,0.2346242926733467,0.4346994042184369,-0.21871647571943886,1.8376659529158317,0.5702239790220441,0.21477405763126253,0.10572736117034068,0.7858328524569138,0.0,398726876.76092184,327339492.1282565,503005.5556294589,15.951481131282566,2.5463613726212424,15.740113552665331,-0.11748209550701405,1.4099812440380763,0.0,0.0,0.0,756000.0,39.87141370000001,32.7364371,104.82476741703407,-262.63951766312624,-99.91812867947895,11.593371509058116,10.679055435791584,-0.09114926926452906,-0.17793823845090181,0.03807345107414829,-0.02943242871943888,99.97742652044089,0.02649037116232465,-0.1715254263286573,0.4005136657094188,0.0,61095050.63727455,0.0,0.0,1.0,0.0,0.0
61126493.0,-0.011872787260521041,-0.07287317973547094,-0.03534007595591182,0.0,0.0,1481.9405729378757,1500.0,1000.0,1503.9405729378757,1495.0594270621243,1462.245105755511,15.450614840841684,15.831242333266534,15.487541416753507,15.4640976602004,15.844934502685371,16.63145025731463,17.041038253527056,148.0416010753507,148.0416010753507,11.737524535150301,-0.0015367931883767535,-0.005886050527054108,8.120000000000001e-05,-0.20577095237074147,0.18212102983967934,-0.006574472426853707,2.0,1.6332549071643288,2.6332549071643285,11.0,0.0,0.0,1.0,0.0,0.0,0.0,0.0,0.0,0.0,0.0,0.43693180721442887,-0.20715718701002006,1.8206625154428857,1.9443515562204408,7.266202593440882,196.94235193326654,45.40718113418838,-0.027454400883767535,0.0003196916653306613,-0.17156535747895793,0.0,-0.862158622236473,0.2970934944689379,-7.111651955214429,82382296.0,954.3401303038077,11.73616908018036,-0.07792900798196394,-0.10571847278957916,0.29058695702004006,-0.9277756707034068,0.3699308291983968,-6.758661510068136,-0.05508805663527054,-0.09879924228857716,0.24411175916232467,82382296.0,93.71797052611223,101.65217188677354,-3.7905485709719438,-2.7068858051482967,15.368690921663328,15.729164681242487,-0.007209475416833667,0.12492974017034068,-0.1,64.28505997775552,502.4883194076152,11.736127495691383,95433.31992432865,1.1339057455310622,-0.05515059265931864,0.24643907608817636,0.022732786300601205,-0.048087954573146297,-0.08024503577755511,0.2284453156252505,0.43405012761923845,-0.22235608847094188,1.8432048582064129,0.5676867254629259,0.21567611243887774,0.10496366707214429,0.7875236663446894,0.0,398726883.1468938,327339546.76192385,503002.8010240481,15.931602125470942,2.4488116818176353,15.733867371823647,-0.009612750310621237,1.4159639326553106,0.0,0.0,0.0,756000.0,39.87141370000001,32.7364371,105.16872615190381,-262.3222760204409,-99.92237378697395,11.58905803511022,10.67961517777555,-0.09205507014629259,-0.18865649163727455,0.04697256585370742,-0.009558951961923847,99.98167019430862,0.026173338274549096,-0.17335766651703405,0.39943643011022045,0.0,61126493.438877754,0.0,0.0,1.0,0.0,0.0
61159683.0,-0.012502019825651304,-0.07247825666933867,-0.036048990444889774,0.0,0.0,1481.9937301723446,1500.0,1000.0,1503.9937301723446,1495.0062698276554,1462.9203551943888,15.493488846052104,15.875231691583167,15.501945210941884,15.478952885250502,15.860104838356714,16.641723521643286,17.051510394408815,148.22200749418838,148.22200749418838,11.737910728937877,-0.001537066735470942,-0.005885911408817636,8.120000000000001e-05,-0.20577430371342686,0.18210805979959918,-0.006499000783567134,2.0,1.6352873777054109,2.635287377705411,11.0,0.0,0.0,1.0,0.0,0.0,0.0,0.0,0.0,0.0,0.0,0.4360771390180361,-0.21063716326252505,1.8262985258036073,1.945588773775551,7.002604988551102,196.52579809158314,45.348817907735466,-0.027409556354709423,0.0001357148316633266,-0.1709359623486974,0.0,-0.8514797117955912,0.2939154430861724,-7.192108777018037,82382296.0,954.3409672797595,11.736287752725453,-0.0724403707274549,-0.10545509148697395,0.2818224995250501,-0.9639094536292586,0.375410998997996,-6.90920092858517,-0.051724781044088175,-0.09658086836072144,0.23533397445290585,82382296.0,93.58209444014028,101.56435123346694,-3.8022429374649303,-2.765710533685371,15.368648279579158,15.763802136553107,-0.007903077521042084,0.16181916646292585,-0.1,64.06088189719439,502.4254873595191,11.73624180711423,95434.00746541083,1.1339138769138277,-0.0679825500741483,0.21492884711022042,0.13593047387575152,-0.04488820621643287,-0.08029107297194388,0.2245785437815631,0.4334957000240481,-0.22773916233867736,1.8487682590080161,0.5649147383286574,0.2172696922985972,0.10372179609018035,0.7892368394308618,0.0,398726889.0086172,327339601.0024048,502994.0020300601,15.914004059338676,2.3520223040220443,15.728001349779559,0.09597565586172348,1.4219532595691384,0.0,0.0,0.0,756000.0,39.87141370000001,32.7364371,105.51762913987976,-262.0004295755511,-99.92659325871743,11.584665923887774,10.68032514971944,-0.09283820343286574,-0.19259893129659317,0.054539332567134266,0.010913107797595193,99.98588878288577,0.030190197593186373,-0.15127260114629257,0.3871854288877755,0.0,61159683.298597194,0.0,0.0,1.0,0.0,0.0
61190116.0,-0.009696624030060122,-0.07232389990380761,-0.03558368402805611,0.0,0.0,1480.6088309098195,1500.0,1000.0,1503.9875884248497,1495.0124115751503,1466.4593053627254,15.52021914496994,15.90251837462926,15.516348998236474,15.493808110300602,15.875275180921843,16.651996785971942,17.061982535290582,148.40241398196392,148.40241398196392,11.738296929619239,-0.0015373395931863728,-0.0058857722905811625,8.120000000000001e-05,-0.20577765574549098,0.18209508975951905,-0.006423529140280561,2.0,1.6373198489358718,2.637319848935872,11.0,0.0,0.0,1.0,0.0,0.0,0.0,0.0,0.0,0.0,0.0,0.4352224708216433,-0.2141171402044088,1.8319345368537074,1.9468259906412826,6.739007382971944,196.10924431883768,45.29045468128256,-0.027369014238476954,-5.340338877755506e-05,-0.1702946761242485,0.0,-0.838916626492986,0.29571330620440883,-7.256580739871743,82382296.0,954.3418800873748,11.736417076172344,-0.06861671346492987,-0.10145234883767536,0.2661269004669339,-0.9359395307595191,0.3527713479238477,-6.940228961835671,-0.04922983659519038,-0.09479846445290581,0.22748877098597198,82382296.0,93.4435017675551,101.47321032525049,-3.819011021312625,-2.8235674213246496,15.368611069799599,15.800509389539078,-0.008637966519038075,0.19851494970941883,-0.1,63.8328602680962,502.42379410741484,11.736379874529058,95434.023978998,1.1339140701002004,-0.26920506032264524,-0.24084320335070125,-0.29007556989979943,-0.04666414555511022,-0.08032512049098196,0.21919014274348697,0.43527903783166333,-0.23330016624248495,1.8567546365631262,0.5608994862484971,0.2194741306753507,0.10362443034268537,0.7914990399639279,0.0,398726894.87034065,327339655.24288577,502985.20296713425,15.896405986312626,2.2552329262264528,15.72213532773547,0.20156406272344685,1.427942586482966,0.0,0.0,0.0,756000.0,39.87141370000001,32.7364371,105.88592449018036,-261.66052251022046,-99.9307122052505,11.579965384609219,10.681624388837676,-0.0931402103226453,-0.1699653104028056,0.056880369773547095,0.033732923436873744,99.99000898332666,0.03052722135270541,-0.1431564651062124,0.38124041575350703,0.0,61190115.64328657,0.0,0.0,1.0,0.0,0.0
61218295.0,-0.008238939711422847,-0.07298079057515029,-0.03541392590180361,0.0,0.0,1479.5195329539079,1500.0,1000.0,1503.987177773547,1495.012822226453,1468.9514089298598,15.505217130440881,15.887174645971944,15.530752789318637,15.508663335350702,15.890445519699398,16.662270050300602,17.072454676172345,148.5828204789579,148.5828204789579,11.738683131222444,-0.001537612358717435,-0.00588563317234469,8.120000000000001e-05,-0.2057810073987976,0.18208211971943888,-0.006348057496993988,2.0,1.639352319787575,2.6393523197875752,11.0,0.0,0.0,1.0,0.0,0.0,0.0,0.0,0.0,0.0,0.0,0.4343678026252505,-0.21759711723847697,1.8375705475250501,1.9480632078857714,6.475409777771543,195.69269055531063,45.23209145482966,-0.027329284799599198,-0.00023329532264529067,-0.16963344579358716,0.0,-0.8215706834969939,0.31014221353907817,-7.280476151625249,82382296.0,954.3429854310622,11.736573419559118,-0.06625401277354709,-0.09978326982965932,0.25258100359318636,-0.9148381207795591,0.3595617626933868,-7.009438170783567,-0.04893909422044088,-0.09412274378156313,0.22201086449298596,82382296.0,93.30454582577154,101.38162542945892,-3.8364575673647296,-2.8812948883787577,15.368574586432866,15.83749342250501,-0.009378376909819639,0.23518483882765534,-0.1,63.60432467611223,502.4210256805611,11.736527678837675,95434.06913811623,1.1339146018937876,0.034134522112224785,-0.10445507461322617,-0.5751726935771544,-0.046351311476953906,-0.0798929862224449,0.21562458590981964,0.4353084611482966,-0.23506937360721442,1.8628670910220442,0.5582647512685371,0.2198390184208417,0.10376982850901803,0.7932438339919841,0.0,398726900.7320641,327339709.4833667,502976.4039420842,15.878807917074148,2.1584435484308617,15.716269305691382,0.30715246920641287,1.4339319133967936,0.0,0.0,0.0,756000.0,39.87141370000001,32.7364371,106.25681300521042,-261.3182003148297,-99.93481770945891,11.575223606753507,10.68300242531062,-0.09337788054308617,-0.14377791396993986,0.058522617098196394,0.0568666836472946,99.99411602250501,0.030825859709418837,-0.14182712528657315,0.3787416309539078,0.0,61218295.48296593,0.0,0.0,1.0,0.0,0.0
61247253.0,-0.008125194813627256,-0.07120254978557114,-0.036479176891783566,0.0,0.0,1479.0,1500.0,1000.0,1504.2472717975952,1494.7527282024048,1469.5030716553106,15.47605370262525,15.8573392252505,15.545156583507014,15.523518560400802,15.905615857895791,16.67254331462926,17.08292681705411,148.7632269507014,148.7632269507014,11.73906933282565,-0.001537885376753507,-0.005885494054108217,8.120000000000001e-05,-0.20578435874148296,0.18206914967935872,-0.006272585853707415,2.0,1.6413847903286571,2.641384790328657,11.0,0.0,0.0,1.0,0.0,0.0,0.0,0.0,0.0,0.0,0.0,0.43341275939478957,-0.2205537432985972,1.842967139452906,1.9492527375971944,6.225063805238477,195.27277948517033,45.187540376152306,-0.02729064946492986,-0.0003969168256513026,-0.16898199650300602,0.0,-0.8012362716012024,0.3324633649018036,-7.279018153176351,82382296.0,954.3442110531063,11.73674664773547,-0.06457063610821644,-0.09850190021042084,0.24198227453106214,-0.9157543056653307,0.3719485785210421,-7.086504681356713,-0.05002560139478958,-0.09413851103607214,0.21801211399198395,82382296.0,93.16558988340681,101.29004053366734,-3.8539041134168337,-2.939022355432866,15.368538103066133,15.874477456052105,-0.010118787358717435,0.2718547281983968,-0.1,63.37578908412826,502.38579599038076,11.73669239242485,95434.47774352705,1.1339194611843686,0.2687414714829659,0.25984079343486977,-0.42297211853507005,-0.043392127168336674,-0.07970861092384769,0.214170980254509,0.43403314941282567,-0.2342143115511022,1.8675540720400803,0.5566463874168337,0.2189122263527054,0.10403243691783567,0.794600821983968,0.0,398726906.59378755,327339763.7490982,502967.6049228457,15.861209850941885,2.0616541706352707,15.710403283647294,0.41274087537875753,1.439921240058116,0.0,0.0,0.0,756000.0,39.87141370000001,32.7364371,106.62157807174349,-260.9814329965932,-99.9387727585571,11.5707424651503,10.684430990561122,-0.09356036705611222,-0.13138542553306612,0.05786535148697395,0.06379467136272546,99.9980716136473,0.03105822288777555,-0.14417056335871742,0.3781137492665331,0.0,61247253.13026052,0.0,0.0,1.0,0.0,0.0
61280307.0,-0.008291361823647295,-0.0634069577775551,-0.03946032685571142,0.0,0.0,1478.9980577414829,1500.0,1000.0,1504.9659318637275,1494.0340681362725,1468.064983751503,15.471222448396793,15.852271676192384,15.55956037769539,15.538373785450903,15.920786201042084,16.682816578957915,17.093398958276556,148.94363337294595,148.94363337294595,11.739455534088176,-0.001538158889779559,-0.005885354935871744,8.120000000000001e-05,-0.2057877101182365,0.18205617963927856,-0.006197114210420842,2.0,1.6434172608697395,2.6434172608697395,11.0,0.0,0.0,1.0,0.0,0.0,0.0,0.0,0.0,0.0,0.0,0.4322430485390782,-0.22239110196793588,1.8478516978557116,1.9503402794308617,6.003058508641283,194.84568828757514,45.172528722765534,-0.027253846202404813,-0.0005403732444889779,-0.16837627553907816,0.0,-0.7824358077074147,0.35231787104609213,-7.277821322949899,82382296.0,954.3453725911824,11.73692132773547,-0.06229212926653307,-0.09424003882765532,0.2336067997254509,-0.9383011498196393,0.3498899713366733,-7.106726417861722,-0.05098765828056112,-0.09410999867334668,0.21416343148496994,82382296.0,93.02663394633267,101.19845563787575,-3.871350659468938,-2.996749822486974,15.368501619358717,15.911461484308617,-0.010859197312625251,0.30852461806412823,-0.1,63.14725349214428,502.3052578140281,11.73688414488978,95435.37298823647,1.1339301255490981,-0.33469277313426865,0.18471157833667354,0.3038382105931865,-0.03887348474348697,-0.08048115689378757,0.21451387494989982,0.4328312197675352,-0.23325775524649298,1.872241390448898,0.5550303003907816,0.21797073765931865,0.10435462781362725,0.7959520837234468,0.0,398726912.43166333,327339818.0983968,502958.4662424849,15.843727296232466,1.9648647928396794,15.704675875991985,0.5183523843466934,1.4459125819338676,0.0,0.0,0.0,756000.0,39.87141370000001,32.7364371,106.97310623787575,-260.65667358356717,-99.94240257244489,11.566824727855712,10.68596878270541,-0.09362356428657315,-0.14881304119038075,0.052237287474949906,0.035691049450901825,100.00169982685371,0.0305907917254509,-0.14719163093186374,0.37771217333667334,0.0,61280307.43086173,0.0,0.0,1.0,0.0,0.0
61310370.0,-0.007607114248496993,-0.05915462208617235,-0.04142541883967936,0.0,0.0,1478.9535000460921,1500.0,1000.0,1504.1843687374749,1494.8156312625251,1468.8215321683367,15.451348470440882,15.831939053547094,15.573964171883768,15.553229010501001,15.935956536713427,16.69308984328657,17.103871106973948,149.1240398699399,149.1240398699399,11.739841727875753,-0.0015384316553106213,-0.005885215817635271,8.120000000000001e-05,-0.20579106224248497,0.1820432095991984,-0.006121642567134269,2.0,1.6454497314108216,2.645449731410822,11.0,0.0,0.0,1.0,0.0,0.0,0.0,0.0,0.0,0.0,0.0,0.4309777173767535,-0.22372990240881763,1.8525081798396794,1.951382392256513,5.793677089823647,194.41539870841683,45.17067490973948,-0.02721413966933868,-0.0006887623827655311,-0.1677677043767535,0.0,-0.7972919792304609,0.3180512791623247,-7.282354842388776,82382296.0,954.3451292124249,11.737127746372746,-0.0532739818517034,-0.0926820536973948,0.23181169225050105,-0.8914441597995991,0.3211744167074148,-7.160799203513026,-0.049219129422845696,-0.09310993941482966,0.21360741731663327,82382296.0,92.88767800925852,101.10687074208417,-3.8887972055210422,-3.054477289541082,15.368465128176354,15.948445512565131,-0.011599608014028057,0.3451945071823647,-0.1,62.91871790016032,502.4424073711424,11.73709072765531,95433.82671248497,1.133911670498998,-0.1027910450380761,-0.3335959362925853,-0.006250867563126317,-0.03828597827054109,-0.07677278210420842,0.21862541438877756,0.43055964796392787,-0.23502106560721442,1.8758225642765531,0.553640578767535,0.2178322798436874,0.1033162141262525,0.7970910150260521,0.0,398726917.7462926,327339873.1204409,502941.8761583167,15.828779198036072,1.8680754150440881,15.701989831102203,0.6244707958296594,1.4519481515931862,0.0,0.0,0.0,756000.0,39.87141370000001,32.7364371,107.31570834208416,-260.34001155951904,-99.94581306382766,11.56328691983968,10.687580233006013,-0.09360631909619238,-0.1863494673226453,0.04325722719438878,-0.016035695498998012,100.00510720761523,0.031572484250501,-0.14538514936873748,0.37519447870741485,0.0,61310370.25651303,0.0,0.0,1.0,0.0,0.0
61338045.0,-0.009019805482965933,-0.06019804797795592,-0.04149477994188377,0.0,0.0,1477.7826468717435,1500.0,1000.0,1504.0,1495.0,1471.4377570501003,15.460389336933869,15.841194635911824,15.5883679601002,15.568084235551101,15.95112687238477,16.703363113587177,17.1143432496994,149.3044463669339,149.3044463669339,11.74022792763527,-0.0015387044208416834,-0.005885076699398798,8.120000000000001e-05,-0.20579441376953908,0.18203023955911823,-0.006046170326653307,2.0,1.6474822019519038,2.6474822019519038,11.0,0.0,0.0,1.0,0.0,0.0,0.0,0.0,0.0,0.0,0.0,0.42971238621442887,-0.22506870225250503,1.857164661226453,1.9524245050821643,5.584295671006011,193.98510918897796,45.16882109671342,-0.027175868791583166,-0.0008275569959919841,-0.16720855821643288,0.0,-0.8295797795951905,0.25575399091382756,-7.289856255503006,82382296.0,954.3441581523047,11.7373505997996,-0.04886211658517034,-0.09276355946092185,0.22533453956112226,-0.8866439276953907,0.31218107419038077,-7.22149473996994,-0.04603636183967936,-0.0916066919278557,0.2147567604028056,82382296.0,92.75348595154308,101.0153960286573,-3.907993687,-3.1059258386673347,15.368405197114228,15.988195398857716,-0.01239580443486974,0.378017400236473,-0.1,62.702283986653306,502.3236455763528,11.737330842885772,95435.17968410821,1.1339277368677356,-0.07252986913426857,-0.3385537754068135,0.06612178102204429,-0.034768251533066126,-0.07832076123446895,0.22028203997995993,0.4283540918196393,-0.23905549547895796,1.8794123173987978,0.5519672387795591,0.21858869751503004,0.10163178899198397,0.7982585071503007,0.0,398726922.2248497,327339929.2174349,502914.76697274554,15.81740894517034,1.7712860366513026,15.703597213747495,0.731304787725451,1.4580461561342686,0.0,0.0,0.0,756000.0,39.87141370000001,32.7364371,107.66105138937876,-260.0207792705411,-99.94926858963927,11.559614677394789,10.689157708917836,-0.0935892984509018,-0.21834103970340685,0.03684740556713426,-0.059625535519038125,100.0085599751503,0.03376980536873748,-0.12990064994989978,0.3663355465270541,0.0,61338044.901803605,0.0,0.0,1.0,0.0,0.0
61366497.0,-0.00937990250501002,-0.061580591539078154,-0.041518284815631266,0.0,0.0,1476.62124248497,1500.0,1000.0,1503.62124248497,1495.37875751503,1473.4702443466933,15.461540297214428,15.842347740260522,15.602771750260521,15.582939460601203,15.966297211843688,16.71363638194389,17.12481539058116,149.4848528260521,149.4848528260521,11.740614129238477,-0.0015389775651302605,-0.005884937581162324,8.120000000000001e-05,-0.20579776549098197,0.18201726951903807,-0.005970698280561123,2.0,1.649514672492986,2.649514672492986,11.0,0.0,0.0,1.0,0.0,0.0,0.0,0.0,0.0,0.0,0.0,0.4284470554308617,-0.22640750229058118,1.8618211428076152,1.9534666182865732,5.3749142521883755,193.5548196501002,45.16696728368738,-0.027136693517034068,-0.0009599246673346692,-0.16665352811422846,0.0,-0.8672491566492986,0.18480293063326655,-7.298273931472946,82382296.0,954.3429624388777,11.737578530841684,-0.04898715446292585,-0.09285064440480963,0.22019205605611222,-0.9091484346633266,0.28356297512024053,-7.257183394354709,-0.04241698326452906,-0.08994809811823647,0.21643258924248496,82382296.0,92.62358127088176,100.92402051543085,-3.9287650696613228,-3.151723508961924,15.368324167054109,16.030434493867737,-0.013242207012024047,0.40737808666132264,-0.1,62.49674130410822,502.2827888390782,11.73758316254509,95435.6369636473,1.1339332004388778,0.01346833835871733,0.1790063016853703,0.24242383848897786,-0.03346066947094188,-0.07751429777755511,0.22323552124048096,0.426199989993988,-0.24403039541282567,1.8830129730460923,0.5501695367855711,0.2197260441262525,0.09969252928056112,0.7994310988256513,0.0,398726926.44529057,327339985.68416834,502884.41031723446,15.807143258216433,1.6744966584529057,15.7065300803006,0.8383596966853707,1.4641634354949902,0.0,0.0,0.0,756000.0,39.87141370000001,32.7364371,108.01901806092184,-259.68970981683367,-99.95293151454909,11.555323296192384,10.690578730521041,-0.09357330765731463,-0.2247961595731463,0.04227464208016031,-0.06574140878757517,100.01222151182364,0.034786302030060126,-0.11832253727454911,0.3587094156212425,0.0,61366497.28657315,0.0,0.0,1.0,0.0,0.0
61395920.0,-0.0084767075751503,-0.06009038081763527,-0.04258584559719439,0.0,0.0,1475.978833507014,1500.0,1000.0,1503.1603206412826,1495.8396793587174,1474.250183965932,15.440202591603207,15.820455258296594,15.617175544448898,15.597794685651303,15.981467553727455,16.723909646272546,17.13528753146292,149.66525926092186,149.66525926092186,11.741000329238478,-0.0015392509519038076,-0.005884798462925851,8.120000000000001e-05,-0.20580111745490984,0.1820042994789579,-0.00589522663727455,2.0,1.6515471430340682,2.651547143034068,11.0,0.0,0.0,1.0,0.0,0.0,0.0,0.0,0.0,0.0,0.0,0.42718172488977957,-0.22774630273146293,1.8664776246312624,1.954508731733467,5.165532833370741,193.1245300709419,45.165113470661325,-0.0270971975250501,-0.0010823475931863728,-0.16610558975751502,0.0,-0.8908160533827655,0.12782163772745492,-7.31055162740481,82382296.0,954.3447721122244,11.737834360100202,-0.050384895845691384,-0.09202044538677355,0.21816915303006013,-0.9407492738016032,0.23333616017034067,-7.2489350738737475,-0.03856918007815631,-0.0884149492004008,0.219323626496994,82382296.0,92.49667207428858,100.83271430901803,-3.9506367970561125,-3.1935730488817637,15.36822839270541,16.074412738356713,-0.014123687513026053,0.4343198143767535,-0.1,62.29880805861723,502.36214215971944,11.73784341745491,95434.72669931863,1.1339224349679358,0.23694144691583174,0.7882132099819639,0.3329572089498998,-0.03374218550300601,-0.07258157332865732,0.2283380855691383,0.4245146434408818,-0.24673480968136272,1.8870874621843687,0.5484000279679359,0.22009847811422847,0.09866423755711423,0.8006710231342685,0.0,398726930.6817635,327340042.17515033,502854.05368597194,15.796877568837676,1.5777072806573145,15.70946294282565,0.9454146054028056,1.4702807146132266,0.0,0.0,0.0,756000.0,39.87141370000001,32.7364371,108.38950991663326,-259.3468955342685,-99.95680022076152,11.55041760260521,10.691844518897796,-0.09355833837875752,-0.20591398694789578,0.05944661891382766,-0.03467557644288576,100.01609018717434,0.03442596293186373,-0.11570740036072144,0.35468640566132265,0.0,61395919.771543086,0.0,0.0,1.0,0.0,0.0
61422858.0,-0.009683892004008017,-0.052808343803607216,-0.045476226258517036,0.0,0.0,1475.8756468537074,1500.0,1000.0,1503.941883767535,1495.058116232465,1474.9481034248497,15.401023199418837,15.780295731242486,15.631579338637275,15.612649910701402,15.996637889398798,16.734182910601202,17.14575967234469,149.84566575791584,149.84566575791584,11.741386523026053,-0.0015395237174348696,-0.005884659344689379,8.120000000000001e-05,-0.20580446879759517,0.18199132943887775,-0.005819754993987977,2.0,1.6535796135751502,2.6535796135751504,11.0,0.0,0.0,1.0,0.0,0.0,0.0,0.0,0.0,0.0,0.0,0.42591639372745493,-0.22908510317234468,1.8711341058336675,1.9555508445591183,4.956151414553106,192.69424049178357,45.16325965763527,-0.027062012334669337,-0.00118051348496994,-0.1656310512004008,0.0,-0.8597358388737474,0.12497319339879759,-7.337786899128257,82382296.0,954.3582276593186,11.738198279338677,-0.04387805221843687,-0.0896986456472946,0.21677760880160318,-0.9485820377094188,0.20534169287575146,-7.181911023633266,-0.03383623308416833,-0.08736789767735471,0.22692359791983968,82382296.0,92.3697628776954,100.74140804048096,-3.9725085238296596,-3.2354225881803607,15.368132612144288,16.11839098284569,-0.015005168014028058,0.46126154271342684,-0.1,62.10087481312625,502.26067322585175,11.738126788797596,95435.896988497,1.1339363968116232,0.5068955367555112,0.2523554085190376,0.14943312933066114,-0.027345364080160316,-0.06804979443086172,0.23330066284368736,0.4245176680901803,-0.239654850503006,1.8929640415831663,0.5468914298116232,0.2170755740460922,0.1013942305230461,0.8021871829138276,0.0,398726934.98036075,327340098.604008,502823.69699258514,15.786611885671343,1.4809179028617234,15.7123958053507,1.052469514741483,1.4763979943527055,0.0,0.0,0.0,756000.0,39.87141370000001,32.7364371,108.76000171022044,-259.00408131382767,-99.96066892697395,11.545511902805611,10.69311030727455,-0.0935433691002004,-0.18703181494388776,0.0766185963687375,-0.0036097434769538778,100.01995892464929,0.0351432018496994,-0.11432338961923848,0.35147734263527053,0.0,61422857.90781563,0.0,0.0,1.0,0.0,0.0
61455582.0,-0.008384811144288578,-0.04994931568537075,-0.046796798058116235,0.0,0.0,1475.9634877995993,1500.0,1000.0,1504.0,1495.0,1474.2765531062125,15.483907391623246,15.86524801759519,15.64598313282565,15.627505135751504,16.01180823230461,16.744456174929862,17.15623181322645,150.02607225490982,150.02607225490982,11.741772724048095,-0.001539796482965932,-0.005884520226452906,8.120000000000001e-05,-0.20580782086372745,0.18197835939879758,-0.005744283350701403,2.0,1.6556120841162325,2.6556120841162323,11.0,0.0,0.0,1.0,0.0,0.0,0.0,0.0,0.0,0.0,0.0,0.42465106256513024,-0.23042390288977954,1.8757905877595191,1.9565929573847696,4.746769995735471,192.26395098496994,45.16140584460921,-0.02702562622244489,-0.0012947833046092184,-0.16515700096993988,0.0,-0.8281524301543087,0.12262320832064127,-7.365159902118236,82382296.0,954.3717904212425,11.738563189699398,-0.0421893786492986,-0.09241527877755511,0.21224883639478956,-0.8814363842885772,0.21780263559919838,-7.2639251679499,-0.02909513646092185,-0.0863253221202405,0.2345669291322645,82382296.0,92.2428536811022,100.65010177194388,-3.9943802513266533,-3.277272128202405,15.368036838817634,16.1623692201002,-0.01588664851503006,0.48820327032665334,-0.1,61.90294156763527,502.22629907194386,11.738429613627256,95436.29569985972,1.1339411122805612,0.015103733501002359,0.2412564165350701,0.48128547208416805,-0.024130897282565133,-0.06124334078757515,0.23554619423647294,0.4225421291482966,-0.23918533088777555,1.896750056236473,0.5456416180140281,0.21616358383767534,0.1011495444228457,0.8033154102124248,0.0,398726939.20661324,327340155.1052104,502793.34029919835,15.776346195270541,1.3841285250661324,15.71532867511022,1.1595244240801603,1.4825152733687377,0.0,0.0,0.0,756000.0,39.87141370000001,32.7364371,109.11495531142285,-258.67526079899795,-99.96447077222446,11.540710509579158,10.694735967074148,-0.09353197509619239,-0.17893852294188378,0.0702817199198397,0.01467073696793586,100.02376247955912,0.03741023040681363,-0.1173208373246493,0.35101519878356713,0.0,61455582.17234469,0.0,0.0,1.0,0.0,0.0
61486752.0,-0.008555269076152304,-0.04914391288777555,-0.04755612649498998,0.0,0.0,1474.9899799599198,1500.0,1000.0,1503.403059975952,1495.596940024048,1476.5250501002004,15.493602616312625,15.875143958156313,15.660386927014027,15.642360360801604,16.026978570741484,16.75472943925852,17.166703954108215,150.2064787014028,150.2064787014028,11.742158925651301,-0.001540069753507014,-0.005884381108216433,8.125050100200401e-05,-0.20581117248296593,0.18196538885370742,-0.00566881170741483,2.0,1.6576445546573146,2.6576445546573146,11.0,0.0,0.0,1.0,0.0,0.0,0.0,0.0,0.0,0.0,0.0,0.4233857314028056,-0.2317627030541082,1.880447069238477,1.9576350707154309,4.537388576917835,191.83366143346692,45.15955203158317,-0.026988065945891784,-0.001424443641282565,-0.16467221052905812,0.0,-0.8153423600901804,0.12740176357515032,-7.407529117577154,82382296.0,954.3832612068136,11.738925922284569,-0.04400959790380762,-0.09374752196392785,0.21556589118436872,-0.8427375998476955,0.1876763693747495,-7.329842090182365,-0.025720396781563126,-0.08376332745891785,0.2401672576012024,82382296.0,92.11594448450901,100.55879550340681,-4.016251978881764,-3.319121667777555,15.367941066072143,16.206347461823647,-0.016768129521042084,0.5151449978817636,-0.1,61.70500832719439,502.1191442014028,11.738747888977956,95437.50506563127,1.133955448781563,0.1730781470440882,0.1510636506633266,0.4636491464288577,-0.02361679586773547,-0.0583948028757515,0.2392439228496994,0.4204111400741483,-0.24256721399398798,1.9003691180801603,0.5440163541863727,0.21671243056713427,0.09969550631062124,0.804448792765531,0.0,398726943.4270541,327340211.5617235,502762.5775272545,15.766262353346693,1.2873997605931864,15.7182312397996,1.266124734004008,1.4886288500981963,0.0,0.0,0.0,756000.0,39.87141370000001,32.7364371,109.46103514188377,-258.35443201302604,-99.96823443587175,11.535968683366734,10.696567148316634,-0.09352262220240481,-0.177006657250501,0.05051916315430862,0.025649625068136273,100.02752878056113,0.03770797666733467,-0.10568715222244489,0.34423762029458915,0.0,61486752.22044088,0.0,0.0,1.0,0.0,0.0
61518037.0,-0.009036838236472944,-0.049707636498997995,-0.04784659010621242,0.0,0.0,1473.7134268537075,1500.0,1000.0,1502.8701306292585,1496.1298693707415,1479.0593323907815,15.480337314709418,15.861476148677355,15.674790718336673,15.657215582985971,16.042148906412827,16.765002703587175,17.17717609785571,150.3868851488978,150.3868851488978,11.742545124388778,-0.001540343014028056,-0.00588424198997996,8.13e-05,-0.2058145238256513,0.18195241831863726,-0.005593340064128257,2.0,1.6596770251983968,2.659677025198397,11.0,0.0,0.0,1.0,0.0,0.0,0.0,0.0,0.0,0.0,0.0,0.42212040052705413,-0.23310150349498998,1.885103550727455,1.9586771840360722,4.3280071581002,191.40337188296593,45.157698218557115,-0.02695242072745491,-0.0015511494048096193,-0.16421898478156313,0.0,-0.8304313459819639,0.14269190049899802,-7.472119911601201,82382296.0,954.3916169815631,11.739285303767536,-0.04335306760521041,-0.09426794338276553,0.22088876192184367,-0.8504528674629259,0.13555314802805607,-7.344726484627254,-0.0243728079498998,-0.07894764330661322,0.24273283839478957,82382296.0,91.98751689729458,100.46595457835672,-4.038215748286573,-3.360575944759519,15.36784595531062,16.250082162124247,-0.017644726164328658,0.5418658153687376,-0.1,61.50579465777555,502.0295585987976,11.739084223727454,95438.52169428857,1.1339675171843688,0.40972721039879734,0.10170111840881774,0.1317086486973944,-0.023793016104208416,-0.0551181819759519,0.2424054212985972,0.41843239962725454,-0.24753963359719441,1.904184112460922,0.5421047327915831,0.21791447142484968,0.09786050391983968,0.8056391974769538,0.0,398726947.0170341,327340267.5034068,502724.61738917837,15.75940132719439,1.1917452308496994,15.720596791703407,1.3646682906112226,1.4946768074028056,0.0,0.0,0.0,756000.0,39.87141370000001,32.7364371,109.80340449919841,-258.0369208024048,-99.9719791002004,11.531239488136272,10.698504052705411,-0.09350073877354709,-0.17819007676753507,0.02552788770741481,0.03320145061322646,100.03127643046092,0.03745646183767535,-0.09016611159118236,0.3357300096352705,0.0,61518037.1242485,0.0,0.0,1.0,0.0,0.0
61551395.0,-0.008371474957915832,-0.05026432158917836,-0.04800946293987975,0.0,0.0,1473.0,1500.0,1000.0,1503.0681362725452,1495.9318637274548,1479.261070270541,15.498513376392786,15.880028131482966,15.689194505390782,15.672070800901805,16.057319242765534,16.77527596791583,17.187648245871745,150.56729164589177,150.56729164589177,11.742931318857716,-0.0015406157795591182,-0.005884102871743487,8.13e-05,-0.20581787523647294,0.1819394482785571,-0.005517868420841684,2.0,1.6617094958076153,2.661709495807615,11.0,0.0,0.0,1.0,0.0,0.0,0.0,0.0,0.0,0.0,0.0,0.4208550700781563,-0.23444030393587173,1.8897600327114228,1.9597192968617234,4.118625739282566,190.9730823751503,45.15584440553106,-0.02692077483967936,-0.0016580030681362724,-0.16383286458917834,0.0,-0.8759139095691383,0.16943348451903806,-7.560919168763527,82382296.0,954.3965792040079,11.739641031543087,-0.03586203628657315,-0.09403791304208417,0.22219873830260523,-0.899250526741483,0.10084978012424843,-7.306196347533067,-0.025233622358717435,-0.0716767623246493,0.24199232758517034,82382296.0,91.85506746246493,100.36904872825652,-4.060423314146291,-3.4009832684348695,15.36775259983968,16.29317177202405,-0.01850838503006012,0.5680014959699399,-0.1,61.303189439499,502.03548141162327,11.739439010220442,95438.47934503005,1.1339670448757515,0.1588884897054106,0.20834304155110234,-0.2767987118677359,-0.022590595671342688,-0.047794530208416834,0.24306670546292586,0.41681874276152303,-0.2512943066873748,1.9084398534268536,0.5401177611122244,0.21872652493987976,0.09657871149098196,0.8069078788276552,0.0,398726949.51803607,327340322.6104208,502674.60954148293,15.757934973406813,1.0978888641442885,15.722063441803607,1.4497256368917835,1.5006149239559117,0.0,0.0,0.0,756000.0,39.87141370000001,32.7364371,110.14888551803608,-257.7164461190381,-99.97571686621244,11.52640732501002,10.700501183406816,-0.09338865535070141,-0.180816257008016,0.007819258356713397,0.040813320132264526,100.03501665130261,0.03808215770140281,-0.08328591406412825,0.3308895508456914,0.0,61551394.75951904,0.0,0.0,1.0,0.0,0.0
61584381.0,-0.006618757122244488,-0.04280599128857715,-0.05100647460320641,0.0,0.0,1473.0,1500.0,1000.0,1503.8496993987976,1495.1503006012024,1479.880817785571,15.439174376192385,15.819205583787575,15.703598299579157,15.686926025951903,16.072489586252505,16.78554923224449,17.198120386753505,150.74769814288572,150.74769814288572,11.743317520460922,-0.0015408885450901805,-0.005883963753507014,8.13e-05,-0.20582122736072142,0.18192647823847696,-0.005442396777555111,2.0,1.6637419671302605,2.6637419671302607,11.0,0.0,0.0,1.0,0.0,0.0,0.0,0.0,0.0,0.0,0.0,0.4195897389158317,-0.2357791043767535,1.8944165146953906,1.9607614096873747,3.90924432046493,190.54279279599197,45.15399059250501,-0.026885695941883767,-0.0017500438496993987,-0.16347175428857716,0.0,-0.9213964731563126,0.1961750678256513,-7.6497184266392795,82382296.0,954.4015414264529,11.73999675218437,-0.03252183869138276,-0.08291283087775551,0.2254161155971944,-0.8801722628937875,0.19239936802004007,-7.353333130118236,-0.02609443676753507,-0.06440588134268538,0.24125181606212426,82382296.0,91.70796786426854,100.25733584649299,-4.083518943765531,-3.43757691607014,15.367665650941884,16.333911539358716,-0.019324919198396795,0.5920057318016032,-0.1,61.08823003669339,501.94948195671344,11.73979792745491,95439.4772291984,1.1339789269799598,0.4222281748557114,0.009156684637274565,0.32598652847294585,-0.018680635430861722,-0.046847153775551105,0.24379157165531062,0.4163088150260521,-0.24641765133667337,1.9137766986172344,0.5385963953406814,0.21643045660320642,0.09836857624048097,0.8083245862625251,0.0,398726952.0190381,327340377.78877753,502624.60169378755,15.75646861248497,1.0040324981523046,15.723530091903807,1.5347829838857714,1.506553040509018,0.0,0.0,0.0,756000.0,39.87141370000001,32.7364371,110.51853001903807,-257.3729584256513,-99.97940106100201,11.520775553066132,10.70296602248497,-0.09257611731462927,-0.19464629945290582,0.046664547154308615,0.048891460472945895,100.0386992985972,0.037089661629258516,-0.0887927836232465,0.33100139878156315,0.0,61584381.41282565,0.0,0.0,1.0,0.0,0.0
61615007.0,-0.006950107062124249,-0.040312347581162325,-0.052001439062124254,0.0,0.0,1473.0,1500.0,1000.0,1503.36873747495,1495.63126252505,1480.0,15.50829567749499,15.889966035490982,15.718002093767534,15.701781251002004,16.087659923426852,16.795822496573148,17.20859252763527,150.9281045767535,150.9281045767535,11.743703722064128,-0.0015411619418837675,-0.005883824635270541,8.13e-05,-0.20582457885370742,0.1819135081983968,-0.005366925134268538,2.0,1.6657744378216433,2.6657744378216433,11.0,0.0,0.0,1.0,0.0,0.0,0.0,0.0,0.0,0.0,0.0,0.418324407753507,-0.23711790418637274,1.899072996048096,1.961803522513026,3.6998629016472946,190.11250327995992,45.15213677947896,-0.0268487049498998,-0.001857681865731463,-0.1630915842785571,0.0,-0.9480973814228457,0.1847936574549098,-7.715223928162325,82382296.0,954.406951403407,11.740375141462925,-0.028391037809619234,-0.0787534459779559,0.22932694550701405,-0.9056188778637274,0.17181257557515026,-7.40947843862525,-0.024063239332665326,-0.061605371783567134,0.24175181178356714,82382296.0,91.56086826607215,100.14562296472947,-4.106614573384769,-3.4741705637054108,15.367578708356714,16.374651313006012,-0.020141453366733467,0.616009968264529,-0.1,60.8732706402004,501.9226446781563,11.740191658817634,95439.78611557114,1.1339825868897795,-0.11656036754909865,0.1506070869018038,0.3878355265891783,-0.017683442945891782,-0.042788599356713426,0.2433022687695391,0.41440628175951905,-0.24481561036472946,1.9177283966432865,0.5373935160320641,0.21510126151302605,0.0984901795270541,0.8094663984368737,0.0,398726954.5200401,327340432.904008,502574.5938460922,15.755002251563127,0.9101761315290581,15.724996748316633,1.6198403308797595,1.5124911564308616,0.0,0.0,0.0,756000.0,39.87141370000001,32.7364371,110.88817458316633,-257.0294706691383,-99.98308524947896,11.51514378743487,10.705430861563126,-0.09176357864729459,-0.20847634252905814,0.0855098353206413,0.056969600813627265,100.04238194589178,0.03984599128857715,-0.09054816415430862,0.33053079277955916,0.0,61615007.14428858,0.0,0.0,1.0,0.0,0.0
61643420.0,-0.00771957780761523,-0.03948549919238477,-0.052495213266533065,0.0,0.0,1473.0,1500.0,1000.0,1503.0,1496.0,1479.2907886492985,15.580740353326654,15.964186998777556,15.732405887955911,15.716636476052104,16.10283026322645,16.806095760901805,17.219064668517035,151.10851103687375,151.10851103687375,11.744089919539077,-0.0015414350761523046,-0.005883685929859719,8.13e-05,-0.20582793060921845,0.18190053815831664,-0.005291453490981964,2.0,1.6678069083627254,2.6678069083627256,11.0,0.0,0.0,1.0,0.0,0.0,0.0,0.0,0.0,0.0,0.0,0.417059077004008,-0.23845670425851703,1.9037294776633267,1.962845635751503,3.4904814828296598,189.68221373767537,45.150282966452906,-0.026812262276553107,-0.0019728273767535068,-0.1627164959058116,0.0,-0.9665128822925851,0.15659453012825653,-7.770453537633267,82382296.0,954.4125588515031,11.740763526913828,-0.02945732105611222,-0.07508116887975952,0.2334677954749499,-0.9118768441883768,0.1371511840440882,-7.456346716973947,-0.020756249168336675,-0.0607769384248497,0.2427990490541082,82382296.0,91.41376867200401,100.03391004581162,-4.129710203416834,-3.5107642113406814,15.367491763146292,16.415391088156312,-0.02095798753507014,0.6400142044649298,-0.1,60.65831124521042,501.92286993947897,11.74059843501002,95439.77908042083,1.1339824958196394,-0.6288051106793585,0.15946335893787594,0.28091677673747506,-0.017001716549098198,-0.039778800366733466,0.2424746968496994,0.41219995313426855,-0.2457905473747495,1.921349846507014,0.5360501238997996,0.21471361380561121,0.09770541464529059,0.8105550652785571,0.0,398726957.02104205,327340488.045491,502524.5859983968,15.753535890641283,0.816319764755511,15.726463402104208,1.7048976778737475,1.5184292726152304,0.0,0.0,0.0,756000.0,39.87141370000001,32.7364371,111.25015381563126,-256.6928552887776,-99.98670144406813,11.5097188695992,10.70781795731463,-0.09112468420641283,-0.21584804301402807,0.10348054473947896,0.059340657294589184,100.0459966008016,0.04114787981763527,-0.08211223485971945,0.325416479232465,0.0,61643419.861723445,0.0,0.0,1.0,0.0,0.0
61671548.0,-0.008039956721442884,-0.03948911905410822,-0.052786882691382764,0.0,0.0,1472.805611222445,1500.0,1000.0,1503.194388777555,1495.805611222445,1479.1991713667335,15.585266939138275,15.968853976513026,15.746809682144288,15.731491701102204,16.118000604769538,16.81636902523046,17.229536809398798,151.2889175338677,151.2889175338677,11.74447611527054,-0.0015417078416833667,-0.005883547398797594,8.13e-05,-0.20583128253907815,0.18188756811823648,-0.005215981653306613,2.0,1.6698393789038075,2.669839378903808,11.0,0.0,0.0,1.0,0.0,0.0,0.0,0.0,0.0,0.0,0.0,0.4157937464288577,-0.2397955046993988,1.9083859594529058,1.9638877491643287,3.2811000640120236,189.2519241779559,45.148429151482965,-0.026775643755511024,-0.002089800448897796,-0.1623531491462926,0.0,-0.9803533043907816,0.12175894248496986,-7.822390503106212,82382296.0,954.4184853322646,11.741158030080161,-0.03067812676953905,-0.07119140504208417,0.23842699338677356,-0.8867695973086172,0.14038252878957935,-7.510341221322644,-0.017241647122244484,-0.06040886285370741,0.2438817841763527,82382296.0,91.26666907967936,99.92219710148296,-4.152805833623247,-3.547357858975952,15.367404814248497,16.456130861362727,-0.021774521703406814,0.664018440490982,-0.1,60.44335185022044,501.8906686052104,11.74101143987976,95440.13780074148,1.1339867580541083,-0.7635376045951895,0.08949888679158373,0.14883368672144265,-0.01707622109619239,-0.03622175994388775,0.24031707546092185,0.4103598261983968,-0.24885954910220442,1.9253136116412826,0.5342790063186373,0.2152290640761523,0.09650169016633266,0.8117305006432867,0.0,398726959.52204406,327340543.2044088,502474.5781507014,15.752069531663325,0.7224633981763524,15.727930052204409,1.7899550246733467,1.5243673891683365,0.0,0.0,0.0,756000.0,39.87141370000001,32.7364371,111.6017387743487,-256.3655588857716,-99.99022543993988,11.504574440260521,10.7100996349499,-0.09072125283366733,-0.2144621778176353,0.09314515269338669,0.053972860961923816,100.04951905310621,0.04053351131462926,-0.06976721630661323,0.31773359635671344,0.0,61671548.04609218,0.0,0.0,1.0,0.0,0.0
61703271.0,-0.007160517663326654,-0.040693459374749504,-0.05253420567735471,0.0,0.0,1472.0240480961925,1500.0,1000.0,1503.9759519038075,1495.0240480961925,1482.8865424288576,15.458193637735471,15.838615633627255,15.761213476332665,15.746346926152304,16.13317094044088,16.82664228955912,17.24000895028056,151.4693240308617,151.4693240308617,11.744862316873748,-0.0015419806072144288,-0.005883408280561123,8.13e-05,-0.2058346338817635,0.18187459807815629,-0.005140509228456914,2.0,1.6718718494448899,2.6718718494448894,11.0,0.0,0.0,1.0,0.0,0.0,0.0,0.0,0.0,0.0,0.0,0.4145284152665331,-0.24113430514028056,1.9130424406553106,1.96492986198998,3.0717186451943888,188.8216346769539,45.146575330641284,-0.026735786380761524,-0.0022020579238476957,-0.1619993151983968,0.0,-0.9906633178176353,0.08776207350701401,-7.8771426718837665,82382296.0,954.4251303382765,11.741558604629258,-0.017835932440881757,-0.06980514418036071,0.24568297308617235,-0.8472937543226452,0.22401201309819643,-7.616677991382765,-0.014684260809619237,-0.058982346801603205,0.24439215818436874,82382296.0,91.11956948148297,99.81048418064128,-4.175901463242486,-3.583951506611222,15.367317865350701,16.496870628697394,-0.02259105587174349,0.6880226771042084,-0.1,60.22839245523046,501.7255084509018,11.741430428056113,95442.01109032064,1.1340090083747496,-0.3448427981222443,0.35801057296392796,0.048588097663326585,-0.020455000555110223,-0.02618355775951903,0.2342745741182365,0.40955091070741484,-0.25340473415230463,1.930312598034068,0.5317995926513025,0.21655321489779558,0.09540618485571142,0.8131348288997997,0.0,398726962.02304614,327340598.30460924,502424.570303006,15.750603178557114,0.6286070321843686,15.72939670230461,1.8750123708857716,1.5303055057214427,0.0,0.0,0.0,756000.0,39.87141370000001,32.7364371,111.94260791863728,-256.04786965330663,-99.99365438402806,11.49971918254509,10.712272638356714,-0.09056056814428858,-0.20404783821843686,0.053628027543086154,0.040626815551102195,100.05294644188376,0.040463183919839676,-0.07070086145691384,0.3144467381002004,0.0,61703270.911823645,0.0,0.0,1.0,0.0,0.0
61737837.0,-0.00664229813226453,-0.041531482849699396,-0.05255026393787575,0.0,0.0,1471.2424849699398,1500.0,1000.0,1504.0,1495.0,1484.5150300601204,15.54750276995992,15.929932552104209,15.775617262945893,15.761202151202406,16.148341276112223,16.836915553887774,17.250481098737474,151.6497304521042,151.6497304521042,11.745248518476954,-0.001542254130260521,-0.005883269162324649,8.13e-05,-0.2058379852244489,0.18186162803807615,-0.005065037561122245,2.0,1.673904319985972,2.673904319985972,11.0,0.0,0.0,1.0,0.0,0.0,0.0,0.0,0.0,0.0,0.0,0.4132630841042085,-0.24247310482364728,1.9176989226152306,1.9659719748156312,2.862337226376754,188.3913451002004,45.14472151737475,-0.026700102156312626,-0.0022967834709418837,-0.1616761545490982,0.0,-0.9748646379298598,0.059967836072144315,-7.952714324661322,82382296.0,954.437089236473,11.74200408466934,-0.024965294633266525,-0.07399842011623245,0.24394223993186373,-0.9233922726312624,0.06343557838877772,-7.68196657183968,-0.019205838817635268,-0.04972826735070141,0.24066970637274548,82382296.0,90.97246988328656,99.69877126737475,-4.198997093619239,-3.620545154246493,15.367230916452906,16.537610403607214,-0.02340759004008016,0.7120269129599198,-0.1,60.01343306024048,501.64577932665327,11.74188279234469,95442.92445685371,1.134019878547094,-0.1274316561503008,0.6479257788917833,0.18184999740280547,-0.01873750371743487,-0.021700951867735477,0.2317363191242485,0.40818901606212427,-0.2552229991743487,1.9348148825791585,0.5298992355931863,0.21669026921843687,0.09481679654709418,0.8144051201743486,0.0,398726963.38777554,327340652.9503006,502365.47515350697,15.754129735791583,0.5397436878877756,15.737853390521042,1.9540780610661321,1.5360519096132264,0.0,0.0,0.0,756000.0,39.87141370000001,32.7364371,112.28347706292587,-255.7301804965932,-99.99708332811623,11.49486392482966,10.714445634188376,-0.09039988345490982,-0.1936334986192385,0.014110903150300641,0.027280770140280575,100.05637390641283,0.038877044709418836,-0.06822312175350702,0.3107026793747495,0.0,61737836.731462926,0.0,0.0,1.0,0.0,0.0
61767169.0,-0.007415543304609221,-0.03729992089178355,-0.054218736196392794,0.0,0.0,1471.5390781563126,1500.0,1000.0,1503.4609218436874,1495.5390781563126,1483.9218436873748,15.608770452044089,15.992742707114228,15.790021054709419,15.776057376252504,16.163511617174347,16.847188823607212,17.26095324204409,151.83013692484968,151.83013692484968,11.745634714689379,-0.0015427368396793587,-0.00588320982765531,8.140781563126252e-05,-0.20584574245290585,0.1818517647054108,-0.004993569651302605,2.0,1.675936790527054,2.675936790527054,11.0,0.0,0.0,1.0,0.0,0.0,0.0,0.0,0.0,0.0,0.0,0.4116642883587175,-0.2434055861823647,1.9219501046172345,1.966952840276553,2.670846056328657,187.9519360975952,45.16490931098197,-0.026667093783567134,-0.0023901271202404813,-0.16137280574148297,0.0,-0.9582371106352705,0.0323705081142284,-8.028946913977956,82382296.0,954.4492168296593,11.74245098488978,-0.025926500064128253,-0.06706133211623244,0.2437441831082164,-0.9354224339478958,0.06936724919038093,-7.73129268232465,-0.023952146390781574,-0.040225693823647275,0.2368128785991984,82382296.0,90.8331405198998,99.5909918351503,-4.217155320663326,-3.6500019289198398,15.367162085971945,16.576410516252505,-0.024184968266533068,0.7311138131583167,-0.1,59.81701098354709,501.5355252192385,11.742354981503006,95444.19129727455,1.1340349070761524,0.12853819858116286,0.7847623608056113,0.08513951058116193,-0.018192670571142284,-0.01606663146292584,0.22730967078356712,0.4062690775991984,-0.25248021453507014,1.938696717,0.5288468486593186,0.2149187655771543,0.09523527682765531,0.8155089121102204,0.0,398726964.39298594,327340707.4198397,502303.3536480962,15.759319106492985,0.4525431816172343,15.74863797977956,2.0311483353907818,1.5417344673206412,0.0,0.0,0.0,756000.0,39.87141370000001,32.7364371,112.6426690963928,-255.39498149078156,-100.00073692224449,11.489673500661322,10.71627141492986,-0.09016823074348698,-0.1822313732304609,-0.011241694146292622,0.018798564941883755,100.06002800180362,0.03987105195390782,-0.06990098209418838,0.30996036992585174,0.0,61767169.40681363,0.0,0.0,1.0,0.0,0.0
61794107.0,-0.008266205509018036,-0.03229715491983968,-0.055977811006012027,0.0,0.0,1472.0,1500.0,1000.0,1503.0,1496.0,1482.679358717435,15.621878517174348,16.006144661222447,15.804424848897794,15.790912601302605,16.17868195745491,16.857462092545088,17.27142538292585,152.0105434218437,152.0105434218437,11.746020911683367,-0.001543375517034068,-0.0058832097875751495,8.162825651302604e-05,-0.20585677113026057,0.1818442081523046,-0.004925074621242485,2.0,1.677969261068136,2.6779692610681365,11.0,0.0,0.0,1.0,0.0,0.0,0.0,0.0,0.0,0.0,0.0,0.40981787308817635,-0.2440363499298597,1.9259003255791582,1.9678882258677355,2.492639560316633,187.50575529398796,45.20146443122245,-0.026632512661322646,-0.0024944005270541086,-0.16105294716432866,0.0,-0.9548718717575151,0.010145242282565125,-8.114457810551103,82382296.0,954.4603601182364,11.742935865851702,-0.02461187303006012,-0.057802503498997994,0.24406365114428857,-0.9456384561322646,0.12955340734669338,-7.795784406092185,-0.027179325068136275,-0.03271454570741483,0.23280590068336673,82382296.0,90.6978620213026,99.48526305278557,-4.2327395251523035,-3.6757380293006015,15.367102700801604,16.61419942226453,-0.024941933116232464,0.747637152737475,-0.1,59.63025298755511,501.41810542164336,11.742832225591181,95445.5332107014,1.1340508267955913,0.2449902943126252,0.45559585908216393,-0.033061434649298595,-0.016825975120240477,-0.012643243607214428,0.2229364892004008,0.4040991216272545,-0.2494772887234469,1.9423049759178357,0.5279603420060119,0.21299294533667334,0.09559380145691383,0.8165486051162324,0.0,398726965.2527054,327340761.8166333,502240.00061002,15.765185133146293,0.3660193439619238,15.760369878577155,2.1074066035270542,1.547391044054108,0.0,0.0,0.0,756000.0,39.87141370000001,32.7364371,113.01052309639279,-255.05150492765532,-100.00449672304609,11.484324631322645,10.717933052004009,-0.08990302900000001,-0.17036228254909822,-0.029898164026052113,0.012615687426853706,100.06378926432866,0.041337501853707416,-0.07199808205410821,0.30937801619839683,0.0,61794106.901803605,0.0,0.0,1.0,0.0,0.0
61821452.0,-0.008274578148296595,-0.030126322346693386,-0.05657189359318637,0.0,0.0,1471.7955911823647,1500.0,1000.0,1503.0,1496.0,1482.5110220440881,15.586966747635271,15.970136145731463,15.81882864308617,15.805767826352705,16.193852294148297,16.867735356873748,17.281897523807615,152.19094990861728,152.19094990861728,11.746407113286573,-0.0015441030501002003,-0.005883243496993988,8.19306613226453e-05,-0.20586965363527054,0.1818379587735471,-0.004858264260521042,2.0,1.6800017316092184,2.6800017316092184,11.0,0.0,0.0,1.0,0.0,0.0,0.0,0.0,0.0,0.0,0.0,0.4078311255531062,-0.24449612309418836,1.9296799850761523,1.9687978370681363,2.3219618086112224,187.05573671683365,45.24729530857716,-0.02659452511022044,-0.0026122572104208415,-0.16070173233667334,0.0,-0.9742602740360722,-0.002863366092184365,-8.215887171893788,82382296.0,954.4698146837673,11.743485913507014,-0.023743658649298605,-0.05298641362725451,0.24395104544088175,-0.9896456611062124,0.1472075028977956,-7.885634803342685,-0.027800187290581167,-0.02862001593787575,0.22854131563727453,82382296.0,90.56338234635271,99.37993865917836,-4.247816135875751,-3.700740418056112,15.36704517775551,16.651788920681366,-0.025694872376753507,0.7636549615350702,-0.1,59.44540073284569,501.3204040410822,11.743308274549097,95446.6424108016,1.134064006985972,0.10693458816633303,-0.2716288958476959,-0.06409225829458887,-0.013397941727454914,-0.012806011991983971,0.2196464896012024,0.402208906745491,-0.24956931704809618,1.9461993743887775,0.526559576517034,0.21234522497394792,0.0952107135771543,0.8176652834949899,0.0,398726966.1226453,327340816.2134269,502176.6475719439,15.771051155190381,0.2794955063066133,15.772101780961924,2.183664872124248,1.5530476211462927,0.0,0.0,0.0,756000.0,39.87141370000001,32.7364371,113.37740262785572,-254.70889168797598,-100.00826268857716,11.478983650641283,10.719565110260522,-0.08962565192785571,-0.15933167960721445,-0.04703412994989979,0.00931232503406812,100.06755668056113,0.041499352641282565,-0.0699889435470942,0.30622084234468944,0.0,61821452.49699399,0.0,0.0,1.0,0.0,0.0
