timestamp,control[0],control[1],control[2],control[3],control[4],output[2],output[3],output[4],output[5],output[6],output[7],indicated_airspeed_m_s,true_airspeed_m_s,indicated_airspeed_m_s.1,equivalent_airspeed_m_s,true_airspeed_m_s.1,equivalent_ground_minus_wind_m_s,true_ground_minus_wind_m_s,differential_pressure_raw_pa,differential_pressure_filtered_pa,temperature,gyro_bias[0],gyro_bias[1],gyro_bias[2],accel_bias[0],accel_bias[1],accel_bias[2],instance_count,seq_reached,seq_current,seq_total,item_changed_index,item_do_jump_remaining,valid,warning,finished,failure,stay_in_failsafe,flight_termination,item_do_jump_changed,execution_mode,nav_roll,nav_pitch,nav_bearing,target_bearing,xtrack_error,wp_dist,acceptance_radius,rollspeed_integ,pitchspeed_integ,yawspeed_integ,additional_integ1,x,y,z,temperature.1,pressure,temperature.2,gyro_rad[0],gyro_rad[1],gyro_rad[2],accelerometer_m_s2[0],accelerometer_m_s2[1],accelerometer_m_s2[2],x.1,y.1,z.1,temperature.3,altitude_sp,altitude_filtered,height_rate_setpoint,height_rate,airspeed_sp,airspeed_filtered,airspeed_derivative_sp,airspeed_derivative,throttle_integ,pitch_integ,baro_alt_meter,baro_temp_celcius,baro_pressure_pa,rho,xyz[0],xyz[1],xyz[2],xyz[0].1,xyz[1].1,xyz[2].1,roll_body,pitch_body,yaw_body,q_d[0],q_d[1],q_d[2],q_d[3],thrust_body[0],lat,lon,alt,vel_m_s,vel_n_m_s,vel_e_m_s,vel_d_m_s,cog_rad,ground_contact,maybe_landed,landed,ref_timestamp,ref_lat,ref_lon,x.2,y.2,z.2,vx,vy,vz,ax,ay,az,dist_bottom,roll,pitch,yaw,thrust_body[0].1,timestamp.1,isTakeoff,isClimbing,isDescending,isCruise,isLand
143720495.0,0.031148271,0.26866257,-0.00894736,0.17712682,1.0,1496.0,2000.0,1177.0,1486.0,1513.0,1636.0,12.03689082,12.30251833,12.3407508,12.30915462,12.58074985,11.16772975,11.41414019,93.23391081,93.23391081,12.07132401,-0.000792937,-0.006220275,-0.000135291,-0.262416532,0.187505426,-0.0034053620000000003,2.0,7.24224845,8.24224845,11.0,0.0,0.0,1.0,0.0,0.0,0.0,0.0,0.0,0.0,0.0,-0.071845405,0.132040676,-1.677572615,-1.576700358,3.657057206,582.7896653,35.52827281,0.000300127,0.139854458,-0.00980298,0.0,-0.35384551200000003,0.149410607,-9.254433047000001,82382296.0,960.2806538,12.07315487,0.12509488300000002,-0.02981504,-0.128787369,-0.298143704,0.091360578,-9.185549283,0.125763038,-0.027800704,-0.122952675,82382296.0,50.111397,51.37292013,-0.063076176,-0.331538796,10.26328371,12.51198562,-0.044974023,-1.008615219,-0.352876903,114.5146264,450.73651849999993,12.07293394,96026.95732,1.14095914,0.296621462,-0.187822433,0.060841612,0.121687388,-0.020429965,-0.128907865,-0.041016041,0.133821591,-1.673606775,0.669218262,0.035928746,0.059968823,-0.739769935,0.176068627,398688992.0,327372574.8,451257.9386,12.42226045,-0.47640728,-12.38907168,0.586377241,4.673694398,0.0,0.0,0.0,756000.0,39.87141370000001,32.7364371,-280.8909522,88.97258536,-51.55003566,2.562346216,-13.65566025,0.296452344,-2.063612714,0.103094236,0.17674520000000002,51.60933523,0.117507381,0.241261593,0.006701821,0.17802596,143720495.0,0.0,0.0,0.0,0.0,1.0
143846956.0,0.026356708675350702,0.27884710017835673,-0.004625347086172345,0.1779683785971944,1.0,1498.8445424509018,2000.0,1178.0,1486.9914324008016,1512.0085675991984,1640.0,12.1019686051503,12.368963101903807,12.303561143266533,12.271980050340682,12.542717565831664,11.132370320420842,11.377966521743486,92.77219769176352,92.77219769176352,12.071797606713428,-0.0007926686913827654,-0.006219031809619238,-0.0001347224248496994,-0.2625944957675351,0.18762779346492986,-0.003159003531062124,2.0,7.2497790139278555,8.249779013927856,11.0,0.0,0.0,1.0,0.0,0.0,0.0,0.0,0.0,0.0,0.0,-0.056622441040080164,0.13287069674148297,-1.6754466638176353,-1.5766463872364729,3.5682565553486976,581.4629691006011,35.397301311202405,0.0002599434889779559,0.14168083291382766,-0.008666927805611223,0.0,-0.30306121480961923,0.14667891196593186,-9.248038174338678,82382296.0,960.2960116975952,12.0736957998998,0.1233152217995992,-0.030273950030060122,-0.117315080248497,-0.2941243173486974,0.0987818711523046,-9.209898485635271,0.1265643178016032,-0.029810247933867735,-0.10731917306613227,82382296.0,50.111397,51.33613599589178,-0.061237004096192385,-0.3996431189839679,10.254665822084169,12.396702203667335,-0.0428407245731463,-0.9465367035751504,-0.35356740936272546,114.64211830561122,450.58570010941884,12.073495533747495,96028.66956142285,1.1409794731643286,0.7299410820521042,-0.1029474267014028,0.28704476342885765,0.12669989549298596,-0.020569859571142286,-0.12039479710821643,-0.030436075691382767,0.1352249579258517,-1.6739073260400803,0.6688838091663326,0.03999710867935872,0.05651698291983967,-0.7401351635310621,0.17729571286172346,398688986.1292585,327372412.0086173,451180.93020841683,12.381500767955911,-0.6339969193006012,-12.349643400861725,0.6692124035911825,4.660914405490981,0.0,0.0,0.0,756000.0,39.87141370000001,32.7364371,-280.6179277162325,87.41032601991984,-51.52200689977956,2.3077533521022042,-13.55121707789579,0.30724702350701405,-2.3409924520741483,1.121326832492986,-0.043596383296593155,51.581306469138276,0.11057614879559119,0.25155353242084166,0.011989469398797595,0.1785873951022044,143846955.8977956,0.0,0.0,0.0,0.0,1.0
143958441.0,0.022679844050100203,0.28471312811823646,-0.0007450579418837677,0.17858498965931863,1.0,1500.0,2000.0,1178.0,1488.206916024048,1510.793083975952,1644.5831663326653,12.11959898777555,12.38686511262525,12.266371494448897,12.234805478597195,12.504685281663326,11.097010890841684,11.341792853486973,92.31048457352705,92.31048457352705,12.072271203426853,-0.0007923505130260521,-0.006217726084168337,-0.00013423379959919842,-0.2627688825791583,0.18775310266132267,-0.002928254498997996,2.0,7.257309577855711,8.257309577855711,11.0,0.0,0.0,1.0,0.0,0.0,0.0,0.0,0.0,0.0,0.0,-0.04187189391382765,0.13381125236472946,-1.673277925773547,-1.5765923563126254,3.4794558991563127,580.1298059042082,35.2793429092986,0.00024269328657314628,0.14358257230460922,-0.007649351450901803,0.0,-0.28491099913426854,0.19309617488777556,-9.287027429877757,38175243.69559119,960.3137269603207,12.074269596633266,0.13006607205210421,-0.032516400731462926,-0.1112984026713427,-0.23840598458116233,0.1206073213947896,-9.335919707757515,0.13676159927054107,-0.030244621044088177,-0.09298829743486975,38175243.69559119,50.111397,51.29484257214428,-0.05917235317034068,-0.47081180374348697,10.246429142324649,12.293201907995991,-0.04093546118837676,-0.8813793938597194,-0.3542631394248497,114.77065672324649,450.423333701002,12.07408603707415,96030.5265275952,1.141001479496994,0.37876660971943876,0.03618566860320641,-0.343969293785571,0.13232679432464928,-0.018964252338677354,-0.11090733716232465,-0.02088216688777555,0.13679590441883768,-1.6742055311683366,0.6685449706272546,0.04378213348496994,0.05349862533867736,-0.7404512008737475,0.17830385388176354,398688979.57935876,327372247.9172345,451099.4263168337,12.343465625911824,-0.7861374606012024,-12.322475441723446,0.7615834851823646,4.6485862927735475,0.0,0.0,0.0,756000.0,39.87141370000001,32.7364371,-280.3755335805611,85.8750050575551,-51.4946414293988,2.0374110761723445,-13.42520616513026,0.272743251735471,-2.393001587062124,1.1555876075551101,-0.5763676810701402,51.5539414293988,0.11736338438276553,0.261451393238477,0.014451963945891783,0.1800412679759519,143958441.3707415,0.0,0.0,0.0,0.0,1.0
144066665.0,0.028250956066132267,0.29434363575551103,0.0016721847775551103,0.17995710196392786,1.0,1499.312625250501,2000.0,1180.687374749499,1485.9787996312625,1513.0212003687375,1648.687374749499,12.097766488156314,12.3645195298998,12.229181846673347,12.197630901022045,12.46665299749499,11.061651468136272,11.30561918523046,91.84877144529058,91.84877144529058,12.072744800140281,-0.0007917314649298597,-0.006216042511022045,-0.000134230124248497,-0.26292173874148295,0.18789610478156316,-0.002791430991983968,2.0,7.264840142783567,8.264840142783568,11.0,0.0,0.0,1.0,0.0,0.0,0.0,0.0,0.0,0.0,0.0,-0.02996425521242485,0.13541698805210423,-1.6708517108597194,-1.5765379585410821,3.390655206048096,578.7577256064128,35.239694748236474,0.00021100783166332665,0.1455047007995992,-0.006888983206412826,0.0,-0.2804145112344689,0.07665650609418838,-9.410308030206414,12.074916951402805,960.3283885420842,12.074916951402805,0.12582838966933868,-0.031367784683366734,-0.10067706854709418,-0.19815184152304607,0.12953948939278556,-9.285566235098196,0.12908616508416834,-0.029490506519038076,-0.09097244826452906,53069109.20661323,50.111397,51.23436007216433,-0.056148181422845694,-0.5550692791683367,10.239757637154309,12.23980135472946,-0.04000087585170341,-0.8037468029298597,-0.3549832075110221,114.9043506981964,450.3940357460923,12.074727702024049,96030.89556607214,1.1410058799358718,0.2645508908136273,0.1308187254228457,-0.1450230877635271,0.1277402290561122,-0.02116351823046092,-0.10101475190581162,-0.012112089745490981,0.13858167779358718,-1.674405292731463,0.6682354735390782,0.04738019960921844,0.05084267832064128,-0.7406962152044088,0.17864141175951903,398688971.13787574,327372090.27555114,451012.4901150301,12.320245988817636,-0.898770029222445,-12.285430476993987,0.8243235298136272,4.6390156912464935,0.0,0.0,0.0,756000.0,39.87141370000001,32.7364371,-280.15855007695393,84.31100668689379,-51.47274737452906,1.7503806041783567,-13.294193109579158,0.19953409719038076,-2.4822492851262523,1.153568705571142,-0.6393888339719438,51.53204737452906,0.11162295727855712,0.26980054958717437,0.007190508164328657,0.18234196174348696,144066664.5571142,0.0,0.0,0.0,0.0,1.0
144174054.0,0.02417939543687375,0.301200718008016,-0.0025777627935871738,0.1822815323246493,1.0,1497.4168336673347,2000.0,1182.5831663326653,1488.642702268537,1510.357297731463,1650.6810414709419,12.104219585270542,12.371031821222445,12.191992193066133,12.160456331362726,12.428620703326652,11.026292037515029,11.269445522805611,91.3870583270541,91.3870583270541,12.073218396853708,-0.0007910992865731463,-0.0062143436813627256,-0.000134247498997996,-0.2630736626553106,0.18803987345891787,-0.002658673739478958,2.0,7.272370706711423,8.272370706711422,11.0,0.0,0.0,1.0,0.0,0.0,0.0,0.0,0.0,0.0,0.0,-0.01817970336673347,0.1370515244028056,-1.6684143475631263,-1.576483544721443,3.3018545116472944,577.3839603418838,35.20343713098196,0.00016352738276553106,0.14747294795791582,-0.006335600523046093,0.0,-0.28374582271142285,0.0878319816533066,-9.333487258062124,61931154.03881763,960.3353134981963,12.07559332014028,0.1234682151222445,-0.028959635320641282,-0.08787653536272545,-0.18046804240080158,0.11598722096593186,-9.3433120760501,0.12905690743286574,-0.02890967905811623,-0.08084898538076152,82382296.0,50.111397,51.170594391322645,-0.0529598670240481,-0.6361022129218437,10.233527574468939,12.193830165250501,-0.0392060503987976,-0.7268007825951904,-0.3556657283967936,115.03478801182365,450.24703360981965,12.075432681062123,96032.56217719438,1.141025678715431,-0.05182245998196361,-0.4799929189018032,-0.041932837220440666,0.12688339314629257,-0.018664532046092183,-0.09152172935070141,0.007560390849699398,0.14034028123647296,-1.6624615498456914,0.6721075881382765,0.054337518867735475,0.04446742465931864,-0.7371166820601203,0.180403730751503,398688962.1006012,327371933.00080156,450923.32649358717,12.300530949318636,-1.007441880799599,-12.252107098356714,0.8840930358356713,4.62981557897996,0.0,0.0,0.0,756000.0,39.87141370000001,32.7364371,-279.98262181563126,82.8267214962525,-51.45910534817635,1.476756315008016,-13.164760969218436,0.14283308324048097,-2.3526118122845694,1.166624499260521,-0.3722911661543087,51.51840534817635,0.10250169690180361,0.27762440616833667,-0.0007904807174348683,0.18368324496993987,144174054.0761523,0.0,0.0,0.0,0.0,1.0
144280072.0,0.019657957783567135,0.3074347259839679,-0.006643005851703404,0.18362134621242485,1.0,1494.5210420841684,2000.0,1184.9579158316633,1490.0,1509.0,1655.5924638076153,11.974214877895792,12.238149297715431,12.154802541122244,12.123281761703407,12.390588419158316,10.990932612104208,11.233271853507015,90.92534520881763,90.92534520881763,12.073691993567135,-0.0007904671082164329,-0.006212643851703407,-0.000134264873747495,-0.26322558656913825,0.1881836418236473,-0.0025259171743486973,2.0,7.27990127063928,8.279901270639279,11.0,0.0,0.0,1.0,0.0,0.0,0.0,0.0,0.0,0.0,0.0,-0.006395151687374753,0.138686059753507,-1.665976984953908,-1.5764291313807615,3.2130538170801604,576.0101951252504,35.167179513727454,0.0001283264128256513,0.14943455984769538,-0.0060376481262525055,0.0,-0.17323379523647298,0.0694515331963928,-9.439574087480961,82382296.0,960.3515285168337,12.076423895090182,0.12068447486372745,-0.02310122603607214,-0.075818596,-0.2077444254709419,0.06852810554308618,-9.323800123803608,0.12159411743286574,-0.026785780765531064,-0.06194386671342686,82382296.0,50.111397,51.10119700665331,-0.049490006030060124,-0.7096121621523046,10.228118033086172,12.160186236352706,-0.03864136324849699,-0.6520608434729459,-0.3562686384749499,115.15813034188378,450.1977012803607,12.076152451362725,96033.14502168336,1.1410326274849698,0.07631066633667294,0.0842022425751506,0.1947835660400798,0.11959576264729459,-0.016474930266533065,-0.08243055698396794,0.014430282194388775,0.14215522102004008,-1.6625863156232463,0.6718230152064129,0.057316910729458916,0.04254205165931864,-0.7372640191342685,0.18275287651903807,398688950.83206415,327371773.85731465,450823.0142292585,12.294194312945892,-1.1161136659599198,-12.25,0.9438625188997996,4.621238544370741,0.0,0.0,0.0,756000.0,39.87141370000001,32.7364371,-279.82919062905813,81.28990904809619,-51.44875762066132,1.204939626983968,-13.034390544008016,0.12442439769138276,-2.2283394110260524,1.075098938206413,-0.01131447335270555,51.50805762066132,0.09902452013627253,0.28473327085971945,-0.013128884891783557,0.18714472428857715,144280072.15831664,0.0,0.0,0.0,0.0,1.0
144395335.0,0.018250288885771546,0.3143200365851704,-0.012964537236472949,0.18701083314629258,1.0,1491.374749498998,2000.0,1188.0,1488.374749498998,1510.625250501002,1657.0,11.936342915691382,12.19932977008016,12.117612893346694,12.086107192044087,12.35255613498998,10.95557318252505,11.197098184208418,90.46363209058116,90.46363209058116,12.074165590280561,-0.0007898349298597195,-0.006210944396793587,-0.00013428224849699398,-0.2633775104829659,0.18832741018837676,-0.0023931606092184366,2.0,7.287431834941883,8.287431834941884,11.0,0.0,0.0,1.0,0.0,0.0,0.0,0.0,0.0,0.0,0.0,0.005389399575150302,0.1403205961042084,-1.663539621719439,-1.5763747180821643,3.124253122470942,574.6364299128256,35.13092189647295,7.975551102204408e-05,0.15140456612224448,-0.005897078184368737,0.0,-0.15660122275951904,0.06603277945490982,-9.51964227831463,82382296.0,960.360798507014,12.07721676024048,0.11886630584569138,-0.022063926957915835,-0.060279094799599205,-0.16851184833066135,0.08728787756312625,-9.462179642104209,0.12004752553507014,-0.027084699751503006,-0.04624924164328657,82382296.0,50.111397,51.02544898028056,-0.045702607951903805,-0.778368961246493,10.224482176172344,12.143599688737474,-0.038382350651302605,-0.5771157416012024,-0.3568554216913828,115.28679712805612,449.98642355951904,12.076928746873747,96035.55992186372,1.1410613151863727,0.003970159931863809,-0.3596815516873748,0.45822100707414826,0.125249319997996,-0.010438076466933866,-0.06161741740480961,0.020390240575150303,0.14416192793987975,-1.66267251546493,0.6715616185871743,0.06005929710821644,0.041017195657314626,-0.7373704282264529,0.18438867283567134,398688938.9386774,327371613.9765531,450717.48802224454,12.29,-1.2223069146352705,-12.246282038897796,1.0036320133747494,4.612725204987975,0.0,0.0,0.0,756000.0,39.87141370000001,32.7364371,-279.71135217114227,79.8293402351503,-51.43862817827655,0.9568495909038076,-12.917361609058117,0.14510382335871744,-2.1865164606472947,1.0657400778737476,0.33978514743687377,51.49792765597194,0.09695640916833667,0.28949772360921844,-0.01469378173547094,0.1893215975751503,144395335.11623245,0.0,0.0,0.0,0.0,1.0
144500224.0,0.017899531100200403,0.31776870701002,-0.01550270699198397,0.189262275,1.0,1492.5388900521043,2000.0,1190.2705410821643,1491.8094311342686,1507.1905688657314,1659.2705410821643,12.039858611242485,12.305035358957916,12.080423242865733,12.04893261509018,12.314523850821644,10.920213752945891,11.16092451490982,90.00191897234467,90.00191897234467,12.07463918699399,-0.000789202751503006,-0.006209245192384769,-0.00013430062324649297,-0.2635294343967936,0.1884711788236473,-0.0022604040440881764,2.0,7.29496239949499,8.29496239949499,11.0,0.0,0.0,1.0,0.0,0.0,0.0,0.0,0.0,0.0,0.0,0.014631383573146292,0.14217313726653308,-1.66099456704008,-1.576320060034068,3.0354524281122246,573.2653868745491,35.138516718396794,1.9580561122244493e-05,0.1533654083947896,-0.0058086295150300594,0.0,-0.18792438278957915,0.06991872362525049,-9.655057802454909,74504214.60561123,960.3760015941884,12.07799428028056,0.11805043315430862,-0.01711110853507014,-0.05125262909218437,-0.1780153156192385,0.09115042352905817,-9.515683586048096,0.10831809413226454,-0.019451967312625253,-0.04509836460721442,74504214.60561123,50.111397,50.943095186993986,-0.041584915214428864,-0.8421816457875752,10.222691261162325,12.144755843527054,-0.03844129159318637,-0.5019572339719439,-0.35742542930661325,115.42100217234469,449.85808451543085,12.077725502585169,96037.05031651304,1.141079030496994,0.10862608280761504,0.5518041267835676,0.4527207081382766,0.1200015207234469,-0.005933208983967938,-0.052886127322645284,0.037044425172344686,0.14602751001202405,-1.6506535253927854,0.6754007656673346,0.06612116006212425,0.03590146365731463,-0.7336025875911825,0.18785926574348696,398688925.32845694,327371451.5226453,450596.8622759519,12.29,-1.3201116199078156,-12.22998072038076,1.0634015492705413,4.604285097985972,0.0,0.0,0.0,756000.0,39.87141370000001,32.7364371,-279.617944142485,78.33507547633266,-51.42469159697394,0.7114316352104209,-12.80733047967936,0.19112486166733467,-2.083931380945892,0.937235176995992,0.5172499148296593,51.48398959697395,0.08424204926052105,0.2929452283907816,-0.00826440914228457,0.1920742744488978,144500223.63326654,0.0,0.0,0.0,0.0,1.0
144612891.0,0.014308090625250496,0.3194443405951904,-0.012253557130260523,0.19236051452104208,1.0,1494.0778260561121,2000.0,1193.0,1490.0885066092185,1508.9114933907815,1660.0778260561121,12.026589637114228,12.291397355751503,12.04323358779559,12.01175804272545,12.27649156498998,10.884854323366733,11.124750853947896,89.54020585410824,89.54020585410824,12.075112783707414,-0.0007885707394789579,-0.006207545362725451,-0.00013431799799599198,-0.2636813583106213,0.18861494708416834,-0.0021276474789579157,2.0,7.302492963422846,8.302492963422846,11.0,0.0,0.0,1.0,0.0,0.0,0.0,0.0,0.0,0.0,0.0,0.022050942226452905,0.1441819374709419,-1.6583723226172344,-1.5762652263246493,2.9466517332945896,571.8962951280561,35.17754346531062,-2.7324649298597173e-05,0.15528310522044086,-0.005742457320641282,0.0,-0.15198540212625264,0.07104729965330665,-9.649815837705411,12.078777258156313,960.3922623168337,12.078777258156313,0.1177853027014028,-0.00832017862725451,-0.03792373898597195,-0.0773224218456914,0.06314271208617234,-9.628332250446894,0.11104264849899799,-0.01532536756913828,-0.027590435611222448,14997049.42596791,50.111397,50.84546430967936,-0.036703377649298596,-0.9038792197655311,10.221528252765532,12.166996780621242,-0.03890937172344689,-0.42619203503406816,-0.3580258570701403,115.58351702364729,449.86782963066133,12.078541015811624,96036.93922641283,1.141077650947896,0.3201747066492989,0.022821270268537166,0.5926038599198394,0.11412337563126251,-0.0042594937755511065,-0.04297962913627255,0.04097439005410822,0.14810799690981966,-1.6506626958857715,0.6751987252184368,0.06820939607014027,0.035164275605210425,-0.7336330966212425,0.19026039293186373,398688911.50160325,327371291.53466934,450475.604601002,12.294212713306614,-1.403171075503006,-12.222105673226453,1.1105323066072144,4.597315490649299,0.0,0.0,0.0,756000.0,39.87141370000001,32.7364371,-279.5537234306613,76.87288157547094,-51.40515323815631,0.4795449501422846,-12.709649754368737,0.25043337715230457,-1.9585123926272545,0.9219517932965932,0.6274700421022044,51.46445231789579,0.08642259222645292,0.29667633124448894,-0.0014107452765531078,0.19429006819639277,144612890.91983968,0.0,0.0,0.0,0.0,1.0
144735004.0,0.015107811871743494,0.323547449252505,-0.008982040895791585,0.19426758999599197,1.0,1496.0,2000.0,1195.0,1494.062124248497,1504.937875751503,1662.062124248497,12.097277366633268,12.3636684149499,12.043995855971945,12.012878183026052,12.27758714705411,10.884005240561121,11.123838447074148,89.42509437106213,89.42509437106213,12.075798716833667,-0.0007879384569138276,-0.006205846533066133,-0.000134335372745491,-0.2638332822244489,0.18875871534468938,-0.0019948909138276555,2.0,7.310023527350702,8.310023527350701,11.0,0.0,0.0,1.0,0.0,0.0,0.0,0.0,0.0,0.0,0.0,0.029470500941883766,0.14619073740480962,-1.6557500781943888,-1.5762103916773549,2.857851039144289,570.5272033815631,35.216570221603206,-0.00010326674348697391,0.15724092876152304,-0.0057122868416833675,0.0,0.07499007338877757,-0.005630120082164322,-9.768060285981964,23859094.249839637,960.4034497543087,12.079588287154309,0.11113273525851704,-0.007057534883767538,-0.025044847871743502,-0.08759841587174355,0.07597989406813639,-9.756693322036071,0.11165069665731463,-0.004505401685370748,-0.019566366685370744,82382296.0,50.111397,50.73981257805611,-0.03142080305811624,-0.964324249517034,10.220705695751503,12.200097726513025,-0.03958784446492986,-0.3502243207274549,-0.35864138806412826,115.76094383286573,449.57470541362727,12.079386529038077,96040.30263320642,1.1411176456112224,-0.2517641525631269,0.6232050856272547,0.6998940971422853,0.11356023005210421,-0.0005466547094188488,-0.026650578653306615,0.047308483943887765,0.15022762838476952,-1.6473327996072145,0.6761229702785571,0.07107129234068135,0.03368218775150301,-0.732570269226453,0.19273095425851702,398688897.3955912,327371135.5577154,450353.34881362726,12.30507935496994,-1.4629405844408816,-12.22753980987976,1.1377002650581163,4.592668520230461,0.0,0.0,0.0,756000.0,39.87141370000001,32.7364371,-279.51380533326653,75.4292527236473,-51.37853509298597,0.2594750364529059,-12.620637465711422,0.3172140580320641,-1.8592665926733467,0.8021036758537076,0.6349221604468939,51.43783509298597,0.0716541631503006,0.2987117983046092,0.004570903761523044,0.1970243839478958,144735003.67134267,0.0,0.0,0.0,0.0,1.0
144846405.0,0.008987262002004011,0.3274298559438878,-0.006894923210420843,0.1969295365731463,1.0,1496.9579158316633,2000.0,1197.9158316633266,1496.9158316633266,1502.0841683366734,1663.0,12.066152736873748,12.331731590641283,12.066843429278558,12.036283109338678,12.30145235006012,10.90323870242485,11.143445562304608,89.5116802189579,89.5116802189579,12.076608225791583,-0.0007873061743486974,-0.0062041467034068135,-0.00013435274749499,-0.26398520609619236,0.18890248460521042,-0.0018621343066132264,2.0,7.317554092278557,8.317554092278556,11.0,0.0,0.0,1.0,0.0,0.0,0.0,0.0,0.0,0.0,0.0,0.03689005949098196,0.14819953833867736,-1.653127832771543,-1.5761555579058115,2.769050344118236,569.15811163507,35.25559696913828,-0.00015839608617234464,0.15909271933266533,-0.005709242242484969,0.0,0.027409239416833722,0.007635591028056072,-9.863927190088177,82382296.0,960.4110207801604,12.08047242222445,0.10447310635270543,0.002084913112224452,-0.01498444467134269,0.04769359300200392,0.06994341178957911,-9.723197151422847,0.10500730996392786,0.006337265308617231,-0.011444722703406818,82382296.0,50.111397,50.63450667126252,-0.026155511042084172,-1.0121489418517033,10.220830209679358,12.213991886052105,-0.0398632394769539,-0.2846160356733467,-0.35917881036072147,115.94205648036072,449.4613000328657,12.08023304226453,96041.629101503,1.1411334245971945,0.04948231425250538,-0.1206337955230452,0.30041240576753575,0.11049202690180361,0.011875677631262516,-0.013809572747494999,0.05809074164729459,0.15240341527254508,-1.6385948928577154,0.6788509370621243,0.07537065195591182,0.030795383689378755,-0.7297480977935873,0.1946128164549098,398688882.331463,327370977.6188377,450226.9298813627,12.32189357727455,-1.5108155141462927,-12.232973644529057,1.152973645276553,4.589007789076152,0.0,0.0,0.0,756000.0,39.87141370000001,32.7364371,-279.49744183967937,73.96111268805612,-51.34326674741483,0.04616781970941898,-12.539558101803609,0.3889870284829659,-1.8473153575891783,0.7122630881883768,0.6467614743547094,51.40256674741483,0.07207914917434871,0.29966303962725455,0.01055134590380761,0.19999821326653305,144846404.68537074,0.0,0.0,0.0,0.0,1.0
144972027.0,0.010893432138276562,0.32856182231062125,-0.003906805358717438,0.19988327659318636,1.0,1498.0,2000.0,1200.0,1495.8537074148296,1503.1462925851704,1663.1462925851704,12.084444770621243,12.350328176472946,12.089691001743487,12.059688036272545,12.325317553066133,10.922472155130261,11.16305268753507,89.59826606685368,89.59826606685368,12.077417733907817,-0.0007866474268537075,-0.0062025032184368735,-0.00013430353306613226,-0.26413877585370743,0.18904461801603206,-0.0017439435931863726,2.0,7.325084656206412,8.325084656206412,11.0,0.0,0.0,1.0,0.0,0.0,0.0,0.0,0.0,0.0,0.0,0.04414743241282565,0.15022558743086173,-1.650243737503006,-1.5760948395911822,2.6711224378256513,567.7881176052103,35.29927107725451,-0.0002317220541082164,0.16092964586573144,-0.00575063774749499,0.0,0.01706010738276547,0.053102216709418816,-9.846905767122244,82382296.0,960.4316770587175,12.081393986873747,0.09882434602805612,0.003513102591182353,-0.009814203853707404,0.07852253523647296,0.07987874214228449,-9.840385535649299,0.09526922878957918,0.008759529801603208,0.0014172877374749341,82382296.0,50.111397,50.529051133627256,-0.02088273638877756,-1.0565322580741483,10.221209134549099,12.223190524709418,-0.040039635715430864,-0.22164412795390787,-0.35969694275350705,116.12478355851702,449.31726620060124,12.081078555490983,96043.26455062124,1.1411528464068137,0.003726448328657296,0.02432241693988113,0.742492149306612,0.10226549868737476,0.01258815622044089,-0.007491753498998008,0.059019429551102204,0.15454563866733467,-1.638603927252505,0.6787334447054107,0.07646433106212425,0.031186763811623247,-0.7297269688096193,0.19735193028456913,398688866.60460925,327370817.86072147,450097.067049499,12.343627949539078,-1.5488506556072144,-12.238407239519038,1.158407236250501,4.5861629228837675,0.0,0.0,0.0,756000.0,39.87141370000001,32.7364371,-279.50407044769537,72.56403319511023,-51.2996103395992,-0.1442719814128255,-12.471621563046092,0.46564567798396783,-1.66709561692986,0.6319867023346694,0.7342781761022042,51.35890939519038,0.056798821262525064,0.3002235153486974,0.015464880655310619,0.2015116253507014,144972027.1983968,0.0,0.0,0.0,0.0,1.0
145086175.0,0.004067083733466932,0.32987240627454906,-0.002110628398797595,0.20150966685370741,1.0,1499.0,2000.0,1201.749498997996,1498.0,1501.0,1665.0,12.098219449539078,12.364327148917836,12.11253856713427,12.083092960701402,12.349182756072144,10.941705617414831,11.182659810260521,89.6848519147495,89.6848519147495,12.078227242444889,-0.0007857521563126252,-0.006201355695390782,-0.0001336623647294589,-0.26430705728657317,0.18917214453507014,-0.0017559138016032063,2.0,7.332615220134269,8.332615220134267,11.0,0.0,0.0,1.0,0.0,0.0,0.0,0.0,0.0,0.0,0.0,0.0499555826492986,0.15240577126653307,-1.6450198478096194,-1.5759815337074148,2.491637627270541,566.4100615723447,35.38447198941884,-0.00029894825050100205,0.16274046276953907,-0.005827941897795591,0.0,0.09207551372745493,0.0740650888216433,-10.008263809609218,82382296.0,960.437888441483,12.082186548076152,0.09194896576953908,0.014362686308617235,0.003792898074148298,-0.002821938140280554,0.09829004555310626,-9.917787430068136,0.09346883493186373,0.00964274964529058,0.012920379438877758,82382296.0,50.111397,50.41686844062124,-0.015273610529058115,-1.0866727269979959,10.222544768336673,12.226524100320642,-0.04007959024048097,-0.16486399472745492,-0.36018552846893787,116.32944798056113,449.24176397374754,12.081925033647295,96044.14198755511,1.141163246226453,-0.09759815087374758,-0.6424163003066132,0.2184162773086173,0.10404045261122244,0.017484727767535072,0.0011009545551102242,0.07107688115230461,0.1566658992965932,-1.626632288248497,0.682533184753507,0.08115846459318637,0.027996477028056112,-0.7257946779058115,0.20014792668136272,398688850.50280565,327370655.8032064,449966.82011162327,12.373044349498997,-1.5830449695931865,-12.266885409619238,1.16,4.583720077044088,0.0,0.0,0.0,756000.0,39.87141370000001,32.7364371,-279.5360486917836,71.09843072569137,-51.24202381104208,-0.3312116119358718,-12.409610020521043,0.5488293506492986,-1.5667472981002002,0.4937709338296593,0.7901832462024049,51.301322811042084,0.0549403645971944,0.29890350633667334,0.019819585074148296,0.20446621831663325,145086174.98196393,0.0,0.0,0.0,0.0,1.0
145199406.0,0.004055248865731435,0.329939346242485,-0.0002946344108216433,0.20438226058116232,1.0,1499.6452905811623,2000.0,1204.6452905811623,1497.2905811623245,1501.7094188376755,1664.0,12.197220245891783,12.465524457394789,12.135386141062124,12.10649788014028,12.373047959078157,10.960939079699399,11.202266927995993,89.77143776264529,89.77143776264529,12.079036750981963,-0.0007848470240480962,-0.006200227981963928,-0.00013299758316633268,-0.2644759108937876,0.1892991028296593,-0.0017729555350701398,2.0,7.3401457850621235,8.340145785062123,11.0,0.0,0.0,1.0,0.0,0.0,0.0,0.0,0.0,0.0,0.0,0.05570726570340681,0.1545919607054108,-1.6397047915651304,-1.5758661788496995,2.3089750595430867,565.03169142004,35.47129094208417,-0.0003742602404809618,0.16446675734468938,-0.00595069371743487,0.0,0.11428652973547095,-0.0019110659438876208,-10.017840612885772,23075034.517795704,960.4562326549099,12.082985831062125,0.09074847944689379,0.010591652607214444,0.010094327352705417,0.08044706008817612,0.0823342896012024,-9.980317203064129,0.08538638451703409,0.021231979318637254,0.022101469388777543,23075034.517795704,50.111397,50.30069974607215,-0.009465181222444897,-1.1136889776452905,10.223806534008016,12.233158583206412,-0.04018703963527054,-0.1079419364569139,-0.3606757316212425,116.54473707715431,449.09433706412824,12.082740493266533,96045.83094721443,1.1411833786753507,-0.323935118683366,-0.39493686311021975,0.29801464156512913,0.09506496211823648,0.01999625734468938,0.005868300418837677,0.07036515361923848,0.15892977834068137,-1.626648801747495,0.6824659255490982,0.08173301731262525,0.029031206823647293,-0.725752817753507,0.20161273849498998,398688834.18637276,327370492.7701403,449836.41392925853,12.40564644529058,-1.615646519975952,-12.304920010420842,1.16,4.581443945569138,0.0,0.0,0.0,756000.0,39.87141370000001,32.7364371,-279.58529198196396,69.70498235737475,-51.17751252294589,-0.49922108289178335,-12.357875984709418,0.629667672274549,-1.385968717973948,0.45040832730661323,0.729329574468938,51.23681176170341,0.04515683685571144,0.29667773775751505,0.023458923875751502,0.20624891875751503,145199405.74148297,0.0,0.0,0.0,0.0,1.0
145301788.0,0.0016653813827655327,0.32803342451703404,0.0007071768757515029,0.20629725416833666,1.0,1500.0,2000.0,1206.0,1500.4804930781563,1498.5195069218437,1663.0,12.19886359985972,12.467079069118236,12.158233704989978,12.129902807074147,12.396913162084168,10.980172541983968,11.221874053226452,89.85802361054108,89.85802361054108,12.079846254108217,-0.0007839421823647295,-0.006199100519038076,-0.0001323325511022044,-0.264644765501002,0.1894260601242485,-0.001789997268537074,2.0,7.34767634898998,8.34767634898998,11.0,0.0,0.0,1.0,0.0,0.0,0.0,0.0,0.0,0.0,0.0,0.06145894875751503,0.15677815014428859,-1.6343897350701404,-1.575750823991984,2.1263124918156313,563.6533212677355,35.558109897655314,-0.00046896699799599197,0.16618947738276554,-0.00610528896993988,0.0,0.1332182074529058,0.058468447823647275,-10.053448507294588,133765.5879228329,960.4769024142284,12.083771836452906,0.08541882553306614,0.017359694685370734,0.02157193829458918,0.11474120479158315,0.10173116164328656,-10.020355409018036,0.07455794175551102,0.02759367907214429,0.028519814591182368,133765.5879228329,50.111397,50.16805946254509,-0.0028331513807615246,-1.1297680255410822,10.22452518256513,12.255949403326653,-0.04062847631663327,-0.049018630705410834,-0.3611797191843688,116.80304997054107,449.02910150881763,12.083565792104208,96046.60476376754,1.1411925062084167,-0.27270600756513025,0.08282396895190405,0.1852108463046089,0.08794160907615231,0.024972000515030058,0.015757615134268533,0.07815070073146294,0.16101667895991983,-1.6172739000380763,0.6854467783286573,0.08501800551903807,0.027324892008016032,-0.7226194634248497,0.20448758570741485,398688818.3240481,327370334.9733467,449712.59891563124,12.433540057935872,-1.6058759175811623,-12.324123504649299,1.1552919879539079,4.582372746078156,0.0,0.0,0.0,756000.0,39.87141370000001,32.7364371,-279.6550612693387,68.27028702018036,-51.102008601362726,-0.6602933931663326,-12.31216977995992,0.7110425057014027,-1.313832790238477,0.43562866911422843,0.6607464269859719,51.16130860136273,0.029015731288577158,0.2941199372044088,0.027634861659318638,0.2071560058717435,145301787.93787575,0.0,0.0,0.0,0.0,1.0
145418518.0,-0.004676738749498984,0.32856909501402803,0.0024677133206412794,0.20733142665731463,1.0,1501.0,2000.0,1207.436873747495,1501.25250501002,1497.74749498998,1664.0,12.294079313967936,12.564234793366733,12.181081278917837,12.153307734008015,12.42077836509018,10.999405998637274,11.241481172825651,89.94460945843687,89.94460945843687,12.080655763687375,-0.000783037258517034,-0.006197973056112225,-0.00013166795591182363,-0.26481362010821646,0.18955301741883768,-0.001807039002004008,2.0,7.3552069129178355,8.355206912917836,11.0,0.0,0.0,1.0,0.0,0.0,0.0,0.0,0.0,0.0,0.0,0.06721063181162325,0.15896433958316633,-1.6290746785751504,-1.5756354691342684,1.9436499240881766,562.2749511154309,35.64492884677355,-0.0005404734088176352,0.16783054323246493,-0.006276012004008016,0.0,0.10531675818637275,0.0884642931442886,-10.20779698456914,71617285.57761514,960.4879928416834,12.084530471743488,0.07448152885571138,0.025661228531062136,0.029215000825651278,0.1047373161743482,0.04460533788777596,-10.140696670701404,0.06570460736272546,0.02966227164128256,0.032254905737474936,71617285.57761514,50.111397,50.0391451146493,0.0036125777675350603,-1.1401129092204407,10.225669044468937,12.282456939058116,-0.04113574745290581,0.006097429112224374,-0.36165673295791584,117.06346544048095,448.93152658717435,12.084362170641283,96047.70785262524,1.1412056626032063,0.23128471340280612,0.06801743651302591,0.33716995125250465,0.07906476645891787,0.034169561016032066,0.02487092453507011,0.07840868008416833,0.1631520850841683,-1.6148057901843689,0.686241064232465,0.08583554980561123,0.02807050832264529,-0.7217461431182365,0.20635089825851705,398688802.5971944,327370177.4408818,449589.32866352703,12.461231470460921,-1.591669011531062,-12.343042173326653,1.1472409994629258,4.583676658266533,0.0,0.0,0.0,756000.0,39.87141370000001,32.7364371,-279.7413614771543,66.86597024801604,-51.01884575593186,-0.8037773757454907,-12.274789798897796,0.7854217749959919,-1.256553520925852,0.3387926799539081,0.5987271521823649,51.07814523991984,0.030901387286573174,0.29091010618837676,0.031285787252505005,0.20922718611222446,145418518.49499,0.0,0.0,0.0,0.0,1.0
145532063.0,-0.0020516851723446855,0.3279243503406814,0.003662347781563125,0.20943683299799598,1.0,1501.6673346693387,2000.0,1209.3326653306613,1500.6773453547094,1498.3226546452906,1663.0,12.175997604408817,12.443511904248497,12.203928846172344,12.176712654268536,12.444643571422844,11.01863945987976,11.261088293687376,90.03119530633266,90.03119530633266,12.081465266593186,-0.0007821322084168336,-0.0061968452605210425,-0.0001310034869739479,-0.2649824737154309,0.18967997571342685,-0.0018240807354709418,2.0,7.3627374771783565,8.362737477178356,11.0,0.0,0.0,1.0,0.0,0.0,0.0,0.0,0.0,0.0,0.0,0.07090290969739478,0.16107518795390782,-1.623827863490982,-1.5755196091583166,1.7609873083807617,560.8883669777555,35.72948341226453,-0.0006291528677354709,0.1694192767274549,-0.00646067595991984,0.0,0.15098335955110218,0.05738357349098198,-10.17198767963928,82382296.0,960.5076336378758,12.085404989218436,0.07058670026052105,0.028424213158316655,0.03557338631863727,0.1220680581843688,0.02804516776352705,-10.194680602304608,0.06497096268537075,0.035894943623246495,0.04658367477154309,82382296.0,50.111397,49.919356236292586,0.009602023018036069,-1.1388706335691383,10.227763856773548,12.315861024328658,-0.04176194121643287,0.05289294385370739,-0.36207482188777557,117.32548808977955,448.7814095170341,12.085141351282566,96049.45242236473,1.1412264121643285,0.02524135088977994,-0.19834369348697392,-0.17602910263126292,0.07864799191382765,0.03815015456312625,0.031061258639278562,0.07526020226452906,0.1652846692004008,-1.6148646420641284,0.6862647505691383,0.0855209932745491,0.029940742953907813,-0.7216856773246493,0.20736896101603206,398688786.8036072,327370015.8707415,449461.98288877757,12.493450889519037,-1.5955750949098195,-12.384601559278556,1.1165488288757515,4.583952751639279,0.0,0.0,0.0,756000.0,39.87141370000001,32.7364371,-279.8425902783567,65.46908817430861,-50.92845417468938,-0.9359667002925851,-12.244292213687375,0.8532268132745491,-1.103524319689379,0.2815356959679359,0.5476518710380761,50.98775382442886,0.013381970084168342,0.2858876167675351,0.03473078553507014,0.21130963342685372,145532062.96593186,0.0,0.0,0.0,0.0,1.0
145657208.0,-0.009649169513026055,0.32514053809619237,0.004611840621242485,0.21132132311422847,1.0,1502.0,2000.0,1211.0,1504.4569138276554,1494.5430861723446,1662.0,12.315286999158316,12.585792147014027,12.226776416773546,12.200117577875751,12.468508781102205,11.037872921122245,11.280695418917835,90.11778115422845,90.11778115422845,12.08227477513026,-0.0007812277214428857,-0.0061957179018036065,-0.00013033845490981964,-0.2651513283226453,0.18980693300801604,-0.0018411224689378759,2.0,7.370268041773547,8.370268041773548,11.0,0.0,0.0,1.0,0.0,0.0,0.0,0.0,0.0,0.0,0.0,0.07287086771943888,0.16312295376352706,-1.6186381860841683,-1.5754033250841684,1.578324651779559,559.4949053847695,35.812142033246495,-0.0007201216012024049,0.17096619508416835,-0.00666113609018036,0.0,0.1883869170501002,0.03566189301202404,-10.313760326092185,82382296.0,960.5263908470941,12.086120621282564,0.06573687175150299,0.03319433092384769,0.045545225515030055,0.13137871937875764,0.026518920515030034,-10.239526989759518,0.055881363052104206,0.030356035743486977,0.041424335749499004,82382296.0,50.111397,49.799503912845694,0.015594632601202408,-1.1316935048136272,10.229893149478958,12.345148176713426,-0.04230509712224449,0.09261840033266534,-0.36247712678757515,117.60064162304609,448.6038391456914,12.085879300941883,96051.46852567134,1.1412503581643285,-0.3359245988537067,-0.2625322152464922,-0.30527838544889735,0.07112479547094189,0.035956165919839675,0.038340105346693396,0.08331615128456914,0.1672331383066132,-1.603124492543086,0.690054655278557,0.08881889946292586,0.028228501422845692,-0.717731734,0.20938822587975953,398688771.0663327,327369853.3551102,449335.9075885772,12.526052275611223,-1.5878944673266533,-12.425043831943889,1.0819297048096193,4.58512816460521,0.0,0.0,0.0,756000.0,39.87141370000001,32.7364371,-279.9611527753507,64.04653865296594,-50.82895793809619,-1.0575889388777555,-12.220372510521042,0.9172118247054108,-0.9639366830721443,0.16359162074949893,0.4902865013086172,50.88825793809619,0.003450676573146307,0.28045884035871743,0.03767985727054109,0.21224748230460924,145657207.99599198,0.0,0.0,0.0,0.0,1.0
145769511.0,-0.004330853258517029,0.3247672538456914,0.00571827174749499,0.21247602494989978,1.0,1502.0239848056112,2000.0,1212.0,1502.248496993988,1496.751503006012,1661.875751503006,12.30364211725451,12.57374739498998,12.248965888296594,12.222703541302606,12.49152489490982,11.058613931302606,11.301832276292586,90.3186729066533,90.3186729066533,12.083018193807616,-0.0007803231102204408,-0.00619458966733467,-0.00012967354709418838,-0.26532018205410823,0.1899338904268537,-0.0018581640781563126,2.0,7.377798605701402,8.377798605701404,11.0,0.0,0.0,1.0,0.0,0.0,0.0,0.0,0.0,0.0,0.0,0.07483882628456914,0.1651707195731463,-1.613448508677355,-1.5752870406773547,1.3956619951783569,558.1014437374749,35.89480064755511,-0.0007944351723446892,0.17245352976953907,-0.006867902593186373,0.0,0.1672845554368737,0.0203994694569138,-10.269697741543085,61147094.30032073,960.5283590519037,12.086788503286572,0.05500909825250502,0.03340067775951902,0.05269397857915832,0.11923203485170322,0.019817557929859734,-10.263162726773547,0.04834417205811624,0.03760583142084169,0.05106942910020041,61147094.30032073,50.111397,49.67958366366734,0.02159062957114228,-1.1181621802144288,10.232059365330661,12.370027495931865,-0.04275934836472946,0.1247742441823647,-0.36286253248096195,117.88985370741483,448.4523465797595,12.086584430721443,96053.23078220441,1.1412712413647295,-0.2935600645150309,-0.33013644537675446,-0.6898141436232476,0.05748193740681363,0.04504483922645292,0.040413368521042076,0.07886601437474951,0.16915985254509017,-1.603197258004008,0.6901409959559118,0.08797129336472946,0.030491734274549098,-0.7176604297515031,0.21116486363126252,398688755.3290581,327369688.11783564,449216.91190621245,12.558654093066131,-1.5226914205811624,-12.452211250881764,1.0384609705631263,4.590628426470943,0.0,0.0,0.0,756000.0,39.87141370000001,32.7364371,-280.08710549118234,62.67715663018036,-50.72642357288577,-1.1639513753306614,-12.203635381422847,0.9722833564689378,-0.8985853937735473,0.17153753332264537,0.4891758116332666,50.78572357288577,0.0021414412384769643,0.2748790422885772,0.03997554102805611,0.21316111617635272,145769511.34268537,0.0,0.0,0.0,0.0,1.0
145872901.0,-0.010742645252505009,0.32144214355511025,0.006174841769539078,0.2131503710561122,1.0,1502.9799599198398,2000.0,1213.0,1506.2381782785571,1492.7618217214429,1660.0,12.304809309298598,12.575002595811624,12.270608938757515,12.244609528597193,12.513836022204408,11.080606648797595,11.324239265731462,90.61447248591182,90.61447248591182,12.083706744929861,-0.0007794177474949899,-0.006193462204408818,-0.0001290093907815631,-0.2654890365370742,0.19006084859719438,-0.0018752049358717435,2.0,7.385329169649299,8.385329169649298,11.0,0.0,0.0,1.0,0.0,0.0,0.0,0.0,0.0,0.0,0.0,0.0768067840781563,0.1672184853827655,-1.6082588302905811,-1.5751707562705413,1.2129993395571141,556.7079820673347,35.97745926186373,-0.0008909354268537075,0.17387510851102206,-0.007127727450901802,0.0,0.25994853899398795,0.04496944125851704,-10.395762241442885,30097258.611883774,960.5396229791583,12.087419935631262,0.04919736146693387,0.04436697178557114,0.052654129659318635,0.23032791476152303,0.0762332795691383,-10.349873393867735,0.03848610374749499,0.0356420899498998,0.04733960257915832,30097258.611883774,50.111397,49.55244789058116,0.027947423611222447,-1.0946897630921844,10.233974632825651,12.40277054501002,-0.04337590489178357,0.15073898598797594,-0.36326022731663327,118.22667631523046,448.4830238655311,12.087258825551102,96052.85875094189,1.1412668683847695,0.3670533702164327,0.04715402335671349,-0.1578745819559118,0.05294571188577156,0.05040643867134269,0.04883686170941884,0.0791067629759519,0.17099140150901804,-1.597849514709419,0.6919615830080161,0.08862860416232465,0.031284101975951904,-0.7157810916112224,0.21227581045090183,398688739.8997996,327369524.89378756,449102.9813280561,12.587503880821643,-1.466868207022044,-12.479378945430861,0.9912402907655311,4.595212071022044,0.0,0.0,0.0,756000.0,39.87141370000001,32.7364371,-280.23116840701397,61.23980836108216,-50.611355713787574,-1.2622019457034068,-12.192829649018035,1.0263004329398797,-0.7501502273066133,0.08303844813226453,0.37466164116432865,50.67065563597195,-0.012221699304609219,0.2682255450921844,0.03677340514028056,0.21391725280561122,145872900.88176352,0.0,0.0,0.0,0.0,1.0
145983522.0,-0.014906275102204405,0.31889147680961927,0.003966226218436878,0.2138943499198397,1.0,1501.0,2000.0,1213.0,1507.3754614188376,1491.6245385811624,1658.0841683366734,12.331186231442885,12.601707931022043,12.292251988376753,12.266515525891784,12.536147150741483,11.1025993650501,11.346646253927856,90.91027206517035,90.91027206517035,12.084395296452906,-0.0007785013547094188,-0.006192364963927856,-0.00012834702204408816,-0.2656555694268537,0.19018988116633265,-0.0018983955631262526,2.0,7.392859734557114,8.392859734557115,11.0,0.0,0.0,1.0,0.0,0.0,0.0,0.0,0.0,0.0,0.0,0.0786337633246493,0.16924894105811622,-1.6030752669559118,-1.5750544353146292,1.0303499167434873,555.3137762923848,36.058275808998,-0.0009856722084168336,0.17523633549098197,-0.007430419138276552,0.0,0.3302355848977957,0.047787656432865734,-10.44023623282565,82382296.0,960.5608794831663,12.088013964569138,0.0312478454248497,0.03699179203406815,0.055367836288577166,0.2646299069098198,0.032931323845691536,-10.453913630961923,0.028639206905811634,0.03701293057515029,0.05719479462525047,82382296.0,50.111397,49.42139948955912,0.03449986251703406,-1.0658267684128258,10.235753836132265,12.439777728957916,-0.044080471254509014,0.17334658916633264,-0.36366458507014027,118.58931571603206,448.3322207222445,12.087903897174348,96054.60692603207,1.1412876467194388,-0.0036170042264538904,-0.2527718087575157,-0.2898424704408814,0.04782341271543088,0.05144657379358718,0.05386654581563125,0.07967677376553108,0.17274033262324648,-1.5916731516853706,0.6940714053927856,0.08934466859519039,0.03196020244288577,-0.7136250775991985,0.2131566822945892,398688725.22925854,327369365.13767534,448998.65638216434,12.609238244549099,-1.4288330656232464,-12.50654717519038,0.9369043573006013,4.598057425623247,0.0,0.0,0.0,756000.0,39.87141370000001,32.7364371,-280.3780292705411,59.87795654633267,-50.49572633422846,-1.3430526814609218,-12.18905247971944,1.0666733567074147,-0.7036340625410823,0.04567698641883765,0.2812386365751503,50.555025566653306,-0.010711782298597239,0.26038616097595196,0.03943937237274547,0.2141601843486974,145983522.43486974,0.0,0.0,0.0,0.0,1.0
146104434.0,-0.011481432066132273,0.31498770380761526,0.00436761114829659,0.2141489348496994,1.0,1501.76191947495,2000.0,1214.0,1505.4761610501002,1493.5238389498998,1657.0,12.401147090681363,12.673274845531061,12.313895037795591,12.288421513186373,12.558458279278558,11.124592081302605,11.369053244008015,91.20607164442886,91.20607164442886,12.085083839659319,-0.0007773549739478958,-0.006191835531062124,-0.0001277329358717435,-0.26577883215230463,0.19035759628657314,-0.0020361870501002,2.0,7.400390298484971,8.40039029848497,11.0,0.0,0.0,1.0,0.0,0.0,0.0,0.0,0.0,0.0,0.0,0.07783321262124249,0.1709567660721443,-1.5980056510681364,-1.5749374174348698,0.847947146713427,553.9057008753507,36.10476040102204,-0.0010603400681362726,0.1765596579318637,-0.007734585424849699,0.0,0.2575937878697395,0.07430603307414829,-10.549479633246493,82382296.0,960.55194,12.088641676352704,0.030483519519038077,0.04802650498797595,0.06068940323446893,0.24853611397394787,0.11151339679358713,-10.44849810038076,0.021125470006012028,0.04206994123446894,0.06331657354308617,82382296.0,50.111397,49.30799849036072,0.04016991588777555,-1.028212028737475,10.235168005511023,12.490698673066133,-0.04511061068737475,0.18982489655911822,-0.3640135956633267,118.94556228877755,448.2614369428859,12.088470447114227,96055.40951072144,1.1412971771422844,-0.1966042042224443,0.35963578741082186,0.08411816293987948,0.03679308253907815,0.05240048348897796,0.0577917553006012,0.07364160235671344,0.17443377011823646,-1.5917772483146293,0.6942272417995992,0.08785200962525051,0.034700646362725455,-0.7135307877214428,0.2138711214509018,398688711.44769543,327369203.1621243,448899.2691126252,12.628229462765532,-1.3798253073046092,-12.536458560460922,0.8770821211122245,4.602099371150301,0.0,0.0,0.0,756000.0,39.87141370000001,32.7364371,-280.53900431102204,58.46119961356713,-50.37154093707415,-1.4142999043627256,-12.191351329198397,1.1005923434268536,-0.5433840161503007,0.05909940640280564,0.3249883883867736,50.43084093707415,-0.02195998968336673,0.25299283277555107,0.03476385853707415,0.2145902024048096,146104434.40681362,0.0,0.0,0.0,0.0,1.0
146215070.0,-0.016741136667334667,0.3130004497715431,0.0015996790460921888,0.21459095764328656,1.0,1500.2925851703408,2000.0,1214.0,1508.0,1491.0,1656.0,12.361497344248496,12.632752354088176,12.33553808721443,12.310327500480962,12.58076940488978,11.14658479755511,11.39146024032064,91.50187122368737,91.50187122368737,12.085772389098196,-0.0007762034488977956,-0.006191321080160321,-0.0001271207354709419,-0.26590095039078154,0.19052633406212427,-0.0021770112905811624,2.0,7.407920862412825,8.407920862412826,11.0,0.0,0.0,1.0,0.0,0.0,0.0,0.0,0.0,0.0,0.0,0.07696312860320641,0.17265605421843686,-1.5929390513026052,-1.5748203811222445,0.6655509039378761,552.4972583877757,36.15033646392786,-0.0011557253627254508,0.17787976239679357,-0.008132964406813627,0.0,0.29579218844088156,0.05197236884769551,-10.509047223326654,82382296.0,960.5705862254509,12.08919179791583,0.021700879867735487,0.048189731210420805,0.06201834910621243,0.2834138415531065,0.1304589734208418,-10.391934725991984,0.013110121184368752,0.046062457042084164,0.06282160529859718,82382296.0,50.111397,49.199131434168336,0.0456132673767535,-0.9880706241122245,10.23416224282565,12.543270525310621,-0.04618216533266533,0.20415526699198394,-0.3643488723767535,119.30199661703408,448.2046749328657,12.089012868436873,96056.06504336673,1.1413049553186372,-0.2992183621883747,-0.05706546119639444,0.4214918997515017,0.03028598159118241,0.055686444100200405,0.06235406687575147,0.07361916224649295,0.17602885005811622,-1.5853110559058117,0.6964569049238476,0.08829921204208416,0.03555640105410823,-0.7112489666873748,0.2141013596973948,398688698.4166333,327369039.0603207,448804.7246132265,12.64453024004008,-1.3200557983667336,-12.569060383747496,0.8118790147434871,4.607314912871744,0.0,0.0,0.0,756000.0,39.87141370000001,32.7364371,-280.70453718016034,57.0713322044489,-50.24639923290582,-1.4696814208937874,-12.200841211883768,1.123587581016032,-0.40878259032464953,-0.04238292732865715,0.18573825329859747,50.30569873993988,-0.03382073778757513,0.24546885626252507,0.029675099360721456,0.21561799398797596,146215070.41883767,0.0,0.0,0.0,0.0,1.0
146328873.0,-0.021146569679358695,0.3111151116733467,-0.0012910495430861605,0.2155417228056112,1.0,1498.3967935871744,2000.0,1215.6032064128256,1510.2755995811624,1488.7244004188376,1655.0,12.382248308196392,12.653863696452905,12.357181136633265,12.33223348777555,12.60308053238477,11.168577517775551,11.413867228517034,91.79767080294589,91.79767080294589,12.086460940420842,-0.0007750515270541083,-0.006190806629258517,-0.00012650812024048099,-0.26602306881763527,0.19069507183767537,-0.002317834927855711,2.0,7.415451427340682,8.415451427340683,11.0,0.0,0.0,1.0,0.0,0.0,0.0,0.0,0.0,0.0,0.0,0.07609304518837676,0.17435534136472947,-1.5878724511222444,-1.5747033448096193,0.4831546611623252,551.0888159190381,36.195912516833666,-0.0012505702304609215,0.17907439493186372,-0.008526520597194387,0.0,0.27987861863727476,0.13916537193587128,-10.35265684248497,82382296.0,960.5797242549098,12.089640860861723,0.01111361345490984,0.04816000449899803,0.058396294030060164,0.2795711847615231,0.09738601658917827,-10.47652386507014,0.013615447226452892,0.04404399790380763,0.060388358388777576,82382296.0,50.111397,49.097845555330665,0.05067754771743485,-0.93993412844489,10.234998114168338,12.572529299418838,-0.04675062154308617,0.2071252145751503,-0.36466777088376756,119.68354983186373,448.05183348597194,12.089502942925852,96057.82480472946,1.1413258244108218,-0.4879654990861738,0.14485424114629364,-0.5656386067174337,0.01833102763527058,0.058348723204408814,0.061138373064128226,0.0718158110200401,0.17750889839679357,-1.5803676167234468,0.6982320561743487,0.08809919633867737,0.036929568603206404,-0.7094690207615231,0.21450113388376754,398688685.7062124,327368872.8346693,448719.92803847697,12.657220672865732,-1.2386242656252509,-12.598051684148297,0.728624240450902,4.613980040653307,0.0,0.0,0.0,756000.0,39.87141370000001,32.7364371,-280.87624175971945,55.67767775108217,-50.11773460757515,-1.5151909906993988,-12.217976775611223,1.137286839533066,-0.2513101844789585,-0.19219690836072084,0.10002764296793594,50.17703424282565,-0.044191390643286546,0.23708046253106213,0.02392318198396795,0.21655752244488977,146328873.36673346,0.0,0.0,0.0,0.0,1.0
146435854.0,-0.02361082006412826,0.3059651642985972,-0.004802986406813629,0.21655735290581163,1.0,1497.0,2000.0,1216.0,1511.4989979959919,1487.5010020040081,1652.5010020040081,12.362923803627254,12.634077996312625,12.378824186052103,12.35413947507014,12.625391654889778,11.19057023507014,11.436274216713427,92.09347038220442,92.09347038220442,12.087149486753507,-0.0007738993987975952,-0.00619029267735471,-0.0001258957114228457,-0.266145187244489,0.19086380961322646,-0.0024586592725450904,2.0,7.4229819912685375,8.422981991268538,11.0,0.0,0.0,1.0,0.0,0.0,0.0,0.0,0.0,0.0,0.0,0.07522296156713426,0.17605462901202407,-1.5828058511482965,-1.574586307496994,0.3007584173867735,549.6803734503005,36.24148856973948,-0.001339211629258517,0.18026172120641282,-0.008976467761523046,0.0,0.2550516933747495,0.06661315111422841,-10.453484183767534,11872699.680240147,960.582615660521,12.09005115258517,0.007379174601202404,0.04250460011623247,0.0644460730961924,0.32496026124048105,0.11549960597394777,-10.470600939218437,0.005204356577154305,0.045505504218436875,0.06971984230460922,11872699.680240147,50.111397,48.99697360428858,0.05572113578156313,-0.8888291879198397,10.235868206152304,12.599299453026052,-0.04726862023847696,0.2077196544749499,-0.36498752100601206,120.0795516004008,448.05865269919843,12.089937793927856,96057.74504577155,1.1413249481202405,0.08455673284769565,0.017244903789578603,0.11477321000801617,0.011433739791583167,0.05799611699198397,0.06596026933867737,0.06482437993787575,0.1788734470420842,-1.5804874514148297,0.6984349062044088,0.08614140951102203,0.039883640991983965,-0.7093497765430862,0.21533093070941883,398688673.2044088,327368705.45791584,448640.05423807615,12.668087854729459,-1.1462532063046091,-12.625219644328658,0.6362532027975951,4.621377224420842,0.0,0.0,0.0,756000.0,39.87141370000001,32.7364371,-281.0563039951904,54.25673852218437,-49.98549466931864,-1.5493034679298596,-12.242463818136272,1.142428216987976,-0.19046905863126254,-0.19539852550100198,0.009311367511021997,50.044794669318634,-0.040917637240480954,0.23064713744488977,0.026106306452905816,0.2168233290781563,146435854.46492985,0.0,0.0,0.0,0.0,1.0
146541240.0,-0.017160072511022046,0.30456772334268534,-0.003069860374749497,0.2168619481763527,1.0,1497.6052104208418,2000.0,1216.3947895791582,1508.1939408176352,1490.8060591823648,1651.6052104208418,12.431377173607213,12.704015772164329,12.400467235470941,12.376045462364731,12.647702783426855,11.21256295236473,11.458681210961924,92.38926995146292,92.38926995146292,12.087838033066133,-0.000772747873747495,-0.006189778122244489,-0.00012528330460921845,-0.26626730567134266,0.19103254838877756,-0.002599483012024048,2.0,7.430512555196393,8.430512555196394,11.0,0.0,0.0,1.0,0.0,0.0,0.0,0.0,0.0,0.0,0.0,0.072595354749499,0.17748925963326653,-1.579059187991984,-1.5744993843206414,0.1655931746813628,548.302861070942,36.256060313226456,-0.0014136599278557114,0.18142730333266532,-0.009406637741482966,0.0,0.22337663204609215,0.07211191746693374,-10.531466355090181,7878820.046781137,960.5771817897796,12.090421688617235,0.00044852999599200765,0.047372621753507,0.06482017123446895,0.25875326875951893,0.12786954081362728,-10.447413567314628,-0.005072729639278548,0.050303484997995994,0.056551364585170336,7878820.046781137,50.111397,48.89471846392786,0.06083390708016032,-0.8259692030721443,10.236056188216432,12.623978136172346,-0.04775843112224449,0.20122642180761524,-0.36531937033667333,120.53921773006012,448.0146802747495,12.09033055482966,96058.2471356513,1.1413308772124249,0.18085007085771374,0.12769243070541275,0.016492688907815974,0.006989450316633272,0.05644869552905812,0.06833006348496994,0.05743745496192385,0.18012465586773546,-1.5806431890100199,0.698640897492986,0.08400592918637276,0.04293618738076152,-0.7092248078236473,0.21655593533066134,398688662.4787575,327368543.01022047,448568.2399997996,12.67,-1.053882146983968,-12.643432561863728,0.5841798160741483,4.628852495282565,0.0,0.0,0.0,756000.0,39.87141370000001,32.7364371,-281.23306188877757,52.88183868062124,-49.85767172633267,-1.5687781569118235,-12.26933335987976,1.138045992747495,-0.16251689652505016,-0.19727105047094184,-0.054572917871743426,49.91697093685371,-0.04420775174549098,0.22397610243687374,0.024895607206412828,0.2179533058957916,146541239.9759519,0.0,0.0,0.0,0.0,1.0
146643467.0,-0.022487021276553103,0.3039328498737475,-0.005785131260521034,0.21801248238476953,1.0,1496.0,2000.0,1218.0,1510.2905811623245,1488.7094188376755,1651.0,12.344503579899799,12.615307676452906,12.42211028488978,12.397951449659319,12.670013911963927,11.234555669659319,11.481088203106212,92.68506953072144,92.68506953072144,12.088526584388777,-0.0007715953486973948,-0.006189263567134269,-0.00012467039679358717,-0.2663894230981964,0.19120128616432866,-0.0027403072525050095,2.0,7.4380431194148295,8.43804311941483,11.0,0.0,0.0,1.0,0.0,0.0,0.0,0.0,0.0,0.0,0.0,0.06825237973947897,0.17866558100801602,-1.5766008028316634,-1.574441850733467,0.07652611059919862,546.9555368897796,36.240371367755515,-0.0015002896452905809,0.18255203560921843,-0.00989175561322645,0.0,0.2999290430621243,0.2043143714629262,-10.566256494068137,82382296.0,960.5774325068136,12.09073776258517,-0.013729131218436868,0.04444097390180357,0.06396734370741486,0.30135181312625303,0.1704454370240475,-10.47334286498998,-0.011415821913827649,0.04232659948496993,0.06842212464729461,82382296.0,50.111397,48.799369686192385,0.06560135583567134,-0.7632007418056114,10.235484945691383,12.647387723747496,-0.04823804673547094,0.1934725815190381,-0.3656330455230461,120.99081273527054,447.95075220160317,12.090673752264529,96059.01054789578,1.1413399550801604,-0.15114623249899262,0.11587530992585017,-0.172864735827659,-0.0026805341162324465,0.056446740082164305,0.06213149211422847,0.056323257927855676,0.18128304956513025,-1.5746458102825651,0.7007581323146292,0.08389791363527052,0.04399446083567135,-0.7070729210501002,0.21677117287174347,398688652.2701403,327368381.17875755,448499.51831322646,12.669278051102204,-0.9625940098476956,-12.658289441342685,0.5389061932525052,4.636237331717434,0.0,0.0,0.0,756000.0,39.87141370000001,32.7364371,-281.4200717416834,51.4427062881964,-49.72400903513026,-1.5774328739278558,-12.298998698857716,1.1255948043907817,-0.05633015956513075,-0.24710528074348684,-0.12677094288376736,49.78330899256513,-0.051296878104208396,0.21699802315030062,0.020248458779559133,0.21905358959919838,146643467.1703407,0.0,0.0,0.0,0.0,1.0
