timestamp,roll_body,pitch_body,yaw_body,yaw_sp_move_rate,q_d[0],q_d[1],q_d[2],q_d[3],thrust_body[0]
15048000,0,-0.17687172,1.6060507,0,0.69181913,0.063543215,-0.061341617,0.716649,1
15072000,0,-0.16896924,1.6060507,0,0.6920561,0.06071107,-0.0586076,0.7168945,1
15096000,0,-0.16124047,1.6060507,0,0.69227743,0.05794027,-0.0559328,0.71712375,1
15120000,0,-0.15366304,1.6060507,0,0.6924844,0.05522288,-0.05330956,0.71733814,1
15144000,0,-0.14621729,1.6060507,0,0.69267803,0.052551944,-0.050731163,0.7175388,1
15168000,0,-0.13888592,1.6060507,0,0.69285935,0.04992133,-0.048191693,0.7177266,1
15192000,0,-0.13166912,1.6060507,0,0.6930287,0.04733116,-0.045691267,0.717902,1
15216000,0,-0.12455178,1.6060507,0,0.69318694,0.044776097,-0.04322473,0.7180659,1
15240000,0,-0.1175205,1.6060507,0,0.6933346,0.042251363,-0.04078747,0.71821886,1
15264000,0,-0.11056333,1.6060507,0,0.69347227,0.039752726,-0.038375404,0.7183615,1
15288000,0,-0.10366953,1.6060507,0,0.6936004,0.037276376,-0.03598485,0.7184943,1
15312000,0,-0.096839994,1.6060507,0,0.69371927,0.03482267,-0.033616163,0.7186174,1
15336000,0,-0.090065315,1.6060507,0,0.6938292,0.032388274,-0.031266112,0.7187312,1
15360000,0,-0.08333692,1.6060507,0,0.69393045,0.029970143,-0.02893176,0.71883607,1
15384000,0,-0.07664699,1.6060507,0,0.6940233,0.027565496,-0.026610428,0.71893233,1
15408000,0,-0.06999726,1.6060507,0,0.69410795,0.025174994,-0.02430275,0.71902,1
15432000,0,-0.063380666,1.6060507,0,0.69418454,0.02279613,-0.022006307,0.71909934,1
15456000,0,-0.056790747,1.6060507,0,0.6942533,0.020426607,-0.019718882,0.7191706,1
15480000,0,-0.05022157,1.6060507,0,0.69431436,0.018064322,-0.017438443,0.7192338,1
15504000,0,-0.04367388,1.6060507,0,0.6943677,0.01570957,-0.015165276,0.71928906,1
15528000,0,-0.03714241,1.6060507,0,0.69441354,0.013360483,-0.012897579,0.71933657,1
15552000,0,-0.030622354,1.6060507,0,0.69445187,0.011015358,-0.010633707,0.71937627,1
15576000,0,-0.024109293,1.6060507,0,0.6944828,0.008672633,-0.00837215,0.71940833,1
15600000,0,-0.017602123,1.6060507,0,0.6945064,0.006331936,-0.006112551,0.7194327,1
15624000,0,-0.011097007,1.6060507,0,0.6945226,0.003991909,-0.003853601,0.7194495,1
15648000,0,-0.00459045,1.6060507,0,0.69453144,0.001651322,-0.001594109,0.7194587,1
15672000,0,0.001920752,1.6060507,0,0.69453293,-0.000690953,0.000667013,0.71946025,1
15696000,0,0.008437449,1.6060507,0,0.69452715,-0.003035197,0.002930036,0.7194542,1
15720000,0,0.014962368,1.6060507,0,0.69451386,-0.005382367,0.005195883,0.7194405,1
15744000,0,0.021498002,1.6060507,0,0.6944932,-0.007733334,0.007465396,0.71941906,1
15768000,0,0.028046627,1.6060507,0,0.694465,-0.010088891,0.009739338,0.71938986,1
15792000,0,0.034609985,1.6060507,0,0.6944293,-0.012449639,0.012018293,0.7193529,1
15816000,0,0.041189946,1.6060507,0,0.694386,-0.014816224,0.014302882,0.719308,1
15840000,0,0.047788173,1.6060507,0,0.69433504,-0.017189218,0.01659366,0.71925527,1
15864000,0,0.05440617,1.6060507,0,0.69427633,-0.019569134,0.018891118,0.7191944,1
15888000,0,0.061045278,1.6060507,0,0.6942098,-0.021956427,0.021195699,0.7191255,1
15912000,0,0.06770366,1.6060507,0,0.69413537,-0.024350407,0.023506733,0.71904844,1
15936000,0,0.074382424,1.6060507,0,0.694053,-0.026751446,0.025824582,0.7189631,1
15960000,0,0.081082575,1.6060507,0,0.6939626,-0.02915987,0.02814956,0.71886945,1
15984000,0,0.08780494,1.6060507,0,0.69386405,-0.031575955,0.030481935,0.71876734,1
16008000,0,0.0945509,1.6060507,0,0.6937573,-0.034000155,0.032822143,0.7186568,1
16032000,0,0.10132103,1.6060507,0,0.6936422,-0.036432657,0.035170365,0.71853757,1
16056000,0,0.108115785,1.6060507,0,0.6935187,-0.038873587,0.037526723,0.7184096,1
16080000,0,0.11493549,1.6060507,0,0.69338673,-0.04132302,0.039891295,0.7182729,1
16104000,0,0.121779054,1.6060507,0,0.6932462,-0.04378055,0.042263675,0.7181273,1
16128000,0,0.12864664,1.6060507,0,0.69309694,-0.04624619,0.044643886,0.71797276,1
16152000,0,0.13553831,1.6060507,0,0.69293904,-0.048719924,0.047031913,0.71780914,1
16176000,0,0.14245403,1.6060507,0,0.69277227,-0.051201712,0.049427714,0.71763635,1
16200000,0,0.14939517,1.6060507,0,0.69259655,-0.053692006,0.051831726,0.7174544,1
16224000,0,0.15636152,1.6060507,0,0.6924118,-0.056190696,0.054243844,0.717263,1
16248000,0,0.16335276,1.6060507,0,0.69221795,-0.058697626,0.056663916,0.7170622,1
16272000,0,0.1703685,1.6060507,0,0.69201493,-0.061212618,0.05909177,0.71685183,1
16296000,0,0.17740947,1.6060507,0,0.6918026,-0.0637359,0.06152763,0.7166319,1
16320000,0,0.18447514,1.6060507,0,0.6915809,-0.06626724,0.06397126,0.7164023,1
16344000,0,0.19156492,1.6060507,0,0.6913498,-0.06880639,0.06642243,0.71616286,1
16368000,0,0.19867817,1.6060507,0,0.6911092,-0.07135307,0.06888088,0.7159136,1
16392000,0,0.2058151,1.6060507,0,0.69085896,-0.07390732,0.07134664,0.71565443,1
16416000,0,0.212975,1.6060507,0,0.69059914,-0.07646885,0.073819414,0.7153853,1
16440000,0,0.22015707,1.6060507,0,0.6903296,-0.07903732,0.0762989,0.715106,1
16464000,0,0.22736052,1.6060507,0,0.6900503,-0.08161242,0.07878478,0.71481675,1
16488000,0,0.2345845,1.6060507,0,0.6897612,-0.08419379,0.08127671,0.7145173,1
16512000,0,0.24183032,1.6060507,0,0.68946224,-0.08678187,0.08377512,0.7142076,1
16536000,0,0.24909705,1.6060507,0,0.6891533,-0.08937627,0.08627963,0.7138876,1
16560000,0,0.25638372,1.6060507,0,0.68883437,-0.09197659,0.08878986,0.7135572,1
16584000,0,0.26368937,1.6060507,0,0.6885055,-0.094582476,0.09130546,0.7132165,1
16608000,0,0.27101418,1.6060507,0,0.68816644,-0.09719392,0.09382642,0.71286523,1
16632000,0,0.27835718,1.6060507,0,0.68781734,-0.09981055,0.09635239,0.7125036,1
16656000,0,0.2857173,1.6060507,0,0.6874581,-0.10243192,0.09888294,0.7121315,1
16680000,0,0.2930936,1.6060507,0,0.6870887,-0.10505767,0.10141771,0.7117489,1
16704000,0,0.30048496,1.6060507,0,0.6867093,-0.10768735,0.103956275,0.71135575,1
16728000,0,0.30789042,1.6060507,0,0.68631965,-0.11032055,0.10649825,0.71095216,1
16752000,0,0.315309,1.6060507,0,0.6859199,-0.11295692,0.10904327,0.710538,1
16776000,0,0.3227397,1.6060507,0,0.68551,-0.115596026,0.111590944,0.71011347,1
16800000,0,0.33018526,1.6060507,0,0.68508977,-0.11823882,0.11414217,0.7096782,1
16824000,0,0.33764467,1.6060507,0,0.68465936,-0.12088488,0.11669656,0.7092323,1
16848000,0,0.34511685,1.6060507,0,0.6842186,-0.123533785,0.11925369,0.7087757,1
16872000,0,0.34906584,1.6060507,0,0.6839818,-0.12493303,0.12060444,0.70853037,1
16896000,0,0.34906584,1.6060507,0,0.6839818,-0.12493303,0.12060444,0.70853037,1
16920000,0,0.34906584,1.6060507,0,0.6839818,-0.12493303,0.12060444,0.70853037,1
16944000,0,0.34906584,1.6060507,0,0.6839818,-0.12493303,0.12060444,0.70853037,1
16968000,-0.26820308,0.34906584,1.5965633,0,0.66453725,-0.21513966,0.025811985,0.7151496,1
16992000,-0.27157992,0.34906584,1.5968282,0,0.6640783,-0.21626464,0.024575844,0.7152801,1
17016000,-0.2858585,0.34906584,1.5902514,0,0.66486645,-0.22093493,0.02019529,0.71325487,1
17040000,-0.28910798,0.34906584,1.590505,0,0.6644162,-0.22201727,0.019008256,0.7133709,1
17064000,-0.2922131,0.34906584,1.5907595,0,0.66397995,-0.22305083,0.017872304,0.71348417,1
17088000,-0.29525882,0.34906584,1.5908817,0,0.6635959,-0.22406274,0.016772062,0.713551,1
17112000,-0.3084289,0.34906584,1.5843755,0,0.66442406,-0.22838718,0.012816004,0.7114883,1
17136000,-0.31074035,0.34906584,1.5844862,0,0.66412026,-0.22915557,0.011981018,0.71153945,1
17160000,-0.31262428,0.34906584,1.5847323,0,0.66381663,-0.22978245,0.011282496,0.71163213,1
17184000,-0.3141672,0.34906584,1.5849799,0,0.66355103,-0.2302958,0.010704994,0.7117227,1
17208000,-0.3260233,0.34906584,1.5782815,0,0.6645543,-0.23420227,0.007270113,0.70955193,1
17232000,-0.3270579,0.34906584,1.5785227,0,0.6643475,-0.23454684,0.006874785,0.70963573,1
17256000,-0.32818496,0.34906584,1.5786316,0,0.6641766,-0.23492153,0.00646209,0.70967567,1
17280000,-0.32882163,0.34906584,1.5788773,0,0.6640146,-0.23513374,0.006207295,0.70975935,1
17304000,-0.33975548,0.34906584,1.5721358,0,0.6651079,-0.2387511,0.003131792,0.7075447,1
17328000,-0.3398821,0.34906584,1.5723766,0,0.66500765,-0.23879358,0.00305827,0.707625,1
17352000,-0.3398076,0.34906584,1.5726194,0,0.6649305,-0.23876917,0.003055632,0.70770556,1
17376000,-0.3397054,0.34906584,1.5727277,0,0.6649045,-0.23873538,0.003078856,0.7077414,1
17400000,-0.34951052,0.34906584,1.566089,0,0.6660716,-0.24199218,0.000412352,0.70554096,1
17424000,-0.34897333,0.34906584,1.5661937,0,0.66609967,-0.2418133,0.000589192,0.70557576,1
17448000,-0.3481861,0.34906584,1.5664366,0,0.6661091,-0.2415512,0.000837587,0.70565635,1
17472000,-0.35774505,0.34906584,1.5596391,0,0.66734153,-0.2447393,-0.001703277,0.7033882,1
17496000,-0.35676774,0.34906584,1.5598794,0,0.6673765,-0.24441299,-0.00138893,0.7034692,1
17520000,-0.35558346,0.34906584,1.560124,0,0.6674351,-0.24401765,-0.001002207,0.70355153,1
17544000,-0.3544134,0.34906584,1.5602311,0,0.66754013,-0.2436271,-0.000603661,0.7035877,1
17568000,-0.36300698,0.34906584,1.5535423,0,0.6688364,-0.24650387,-0.002802417,0.70134574,1
17592000,-0.36153933,0.34906584,1.5536425,0,0.66898197,-0.2460129,-0.002300091,0.701381,1
17616000,-0.35967505,0.34906584,1.5538833,0,0.66912663,-0.245389,-0.001675844,0.70146346,1
17640000,-0.35803,0.34906584,1.5539883,0,0.6692914,-0.24483848,-0.001111724,0.70149976,1
17664000,-0.36626452,0.34906584,1.5472828,0,0.67062575,-0.24760407,-0.003169827,0.69924474,1
17688000,-0.36443508,0.34146404,1.5473932,0,0.6717468,-0.24450181,-0.005260676,0.6992477,0.39508647
17712000,-0.3622835,0.33386454,1.5476208,0,0.6728507,-0.24128586,-0.007251866,0.69928575,0.41754803
17736000,-0.35984716,0.32626632,1.547571,0,0.6740695,-0.23796943,-0.009109274,0.6992267,0.4386992
17760000,-0.36715353,0.31866825,1.5405747,0,0.67654437,-0.23798232,-0.013546035,0.6967558,0.45867908
17784000,-0.36420995,0.31106928,1.5405571,0,0.6777937,-0.23449409,-0.015242279,0.69668925,0.47747797
17808000,-0.3612615,0.30346012,1.5403967,0,0.67907596,-0.23099557,-0.016924031,0.6965705,0.4961778
17832000,-0.35796067,0.29584035,1.5403789,0,0.68033105,-0.22736622,-0.018503666,0.69649976,0.5135493
17856000,-0.36494556,0.28820974,1.5330458,0,0.6829501,-0.22731382,-0.022837274,0.6938199,0.5296004
17880000,-0.36158895,0.28056827,1.5330142,0,0.684197,-0.22365716,-0.02441679,0.69372606,0.54431546
17904000,-0.35827684,0.27290788,1.5328504,0,0.6854666,-0.22000447,-0.026004106,0.693583,0.55881125
17928000,-0.35471147,0.26522908,1.5328486,0,0.6866891,-0.21625023,-0.027528346,0.69349563,0.57197
17952000,-0.36143395,0.25753248,1.5254025,0,0.6893655,-0.21613884,-0.031821124,0.6906856,0.5838749
17976000,-0.3577894,0.24981886,1.5254198,0,0.6905697,-0.21234375,-0.033346094,0.6905879,0.5945855
18000000,-0.35441673,0.24207842,1.5253174,0,0.6917678,-0.2086291,-0.034962043,0.6904411,0.6055105
18024000,-0.35104892,0.23431243,1.525247,0,0.69293606,-0.20490086,-0.03659249,0.69030166,0.61528623
18048000,-0.3475686,0.22652225,1.525355,0,0.6940353,-0.20111594,-0.038210995,0.6902226,0.62400097
18072000,-0.35466322,0.21870936,1.5179173,0,0.6966602,-0.20115219,-0.04272712,0.6872967,0.63169634
18096000,-0.3514109,0.21087138,1.51808,0,0.6976993,-0.19742863,-0.04445953,0.68721247,0.63894
18120000,-0.3483745,0.20301001,1.5181264,0,0.6987387,-0.1937691,-0.046262577,0.68707895,0.64526296
18144000,-0.34517384,0.19596662,1.5183508,0,0.6996356,-0.1903131,-0.047730252,0.68703187,0.6507439
18168000,-0.35246235,0.1972639,1.5109787,0,0.7013413,-0.19347292,-0.049052157,0.6843118,0.65545034
18192000,-0.3493707,0.19830471,1.5112468,0,0.70144916,-0.19272533,-0.047642738,0.68451166,0.6601685
18216000,-0.34651878,0.1992309,1.5113945,0,0.7015853,-0.19202697,-0.046344988,0.68465745,0.66417384
18240000,-0.34345135,0.2000488,1.5117124,0,0.7016932,-0.19121344,-0.04502868,0.6848624,0.6675415
18264000,-0.34064096,0.20077276,1.5119014,0,0.7018286,-0.19046211,-0.04382176,0.68501127,0.67031825
18288000,-0.34794545,0.20141573,1.5047811,0,0.703501,-0.193399,-0.045401998,0.6823649,0.67257655
18312000,-0.34505373,0.201954,1.5049948,0,0.7036561,-0.19255376,-0.04424014,0.6825202,0.67459345
18336000,-0.34205818,0.2024362,1.5052109,0,0.7038246,-0.19165352,-0.04306317,0.68267524,0.6761455
18360000,-0.33873746,0.20286652,1.5055714,0,0.7039784,-0.19061868,-0.04180748,0.6828844,0.6773083
18384000,-0.33548132,0.20325227,1.5057827,0,0.70417964,-0.18959494,-0.040575378,0.68303615,0.67810166
18408000,-0.33200192,0.20357656,1.5061432,0,0.7043552,-0.18846932,-0.03930307,0.68324107,0.6786927
18432000,-0.33894867,0.20386699,1.4989107,0,0.70613474,-0.19115931,-0.04087936,0.6805591,0.67896616
18456000,-0.33531117,0.20412818,1.4992716,0,0.706334,-0.18995321,-0.039580524,0.6807667,0.6789489
18480000,-0.33185166,0.20436156,1.4994876,0,0.7065663,-0.18880355,-0.038338162,0.68091655,0.67867583
18504000,-0.32812962,0.20455597,1.4998403,0,0.7067785,-0.1875456,-0.03703302,0.6811162,0.67828715
18528000,-0.32447568,0.20473665,1.5000411,0,0.70703495,-0.1863098,-0.03574139,0.68125814,0.67768437
18552000,-0.33099875,0.20490165,1.492964,0,0.70881414,-0.18880193,-0.03723512,0.67863834,0.6768923
18576000,-0.32723746,0.2050538,1.4931624,0,0.7090866,-0.18751478,-0.0359217,0.67878133,0.6759426
18600000,-0.3231908,0.20521496,1.4935044,0,0.7093337,-0.18612653,-0.034521103,0.67897785,0.67463994
18624000,-0.31939566,0.20537023,1.4936963,0,0.70960635,-0.18482786,-0.03319355,0.67911386,0.6732009
18648000,-0.31529993,0.20551702,1.49403,0,0.70985675,-0.18341711,-0.031779647,0.6793023,0.67166483
18672000,-0.31144685,0.20565294,1.494228,0,0.7101294,-0.18209076,-0.03043916,0.6794355,0.6700193
18696000,-0.30743012,0.2057426,1.4945672,0,0.7103705,-0.18068871,-0.029072382,0.6796177,0.66856766
18720000,-0.31422257,0.205832,1.4873539,0,0.7121908,-0.18324144,-0.030686967,0.67695284,0.6670306
18744000,-0.31012046,0.20591788,1.4876825,0,0.7124463,-0.18180357,-0.029296778,0.6771333,0.66543555
18768000,-0.30621862,0.20600091,1.4878623,0,0.71273124,-0.18043792,-0.027961433,0.677255,0.6638086
18792000,-0.30226707,0.2060635,1.4880435,0,0.71301943,-0.17904747,-0.026616558,0.67737484,0.6622678
18816000,-0.29810774,0.20612693,1.4883608,0,0.71327734,-0.17758101,-0.025212668,0.6775432,0.66069204
18840000,-0.29407296,0.20618975,1.4885328,0,0.7135704,-0.17616023,-0.02383782,0.6776552,0.6590919
18864000,-0.28990123,0.20625398,1.4888588,0,0.7138203,-0.17468883,-0.022429183,0.6778211,0.6574515
18888000,-0.29662576,0.20631735,1.4816439,0,0.7156636,-0.17719656,-0.024045758,0.6751657,0.6557984
18912000,-0.2924282,0.20638853,1.481968,0,0.71591836,-0.17571372,-0.022630922,0.67533207,0.6540894
18936000,-0.28847978,0.20646277,1.4821479,0,0.7161968,-0.17432235,-0.021286003,0.6754412,0.6523559
18960000,-0.28418517,0.20653877,1.4824644,0,0.716456,-0.17280577,-0.019834943,0.6756001,0.65062636
18984000,-0.28007117,0.20661488,1.4826337,0,0.7167464,-0.17135502,-0.018431686,0.6757014,0.6489013
19008000,-0.27568594,0.20669664,1.4829441,0,0.7170086,-0.16980718,-0.016946346,0.6758528,0.647112
19032000,-0.27163333,0.20678405,1.4831086,0,0.7172883,-0.16838132,-0.015558496,0.67594606,0.6453134
19056000,-0.2672891,0.20687285,1.4834161,0,0.71754116,-0.16684984,-0.014083192,0.6760898,0.6435209
19080000,-0.2631784,0.2069616,1.4835759,0,0.7178213,-0.1654028,-0.012674123,0.676176,0.6417417
19104000,-0.26979956,0.20703314,1.4765053,0,0.71964973,-0.16785333,-0.014292918,0.6735914,0.6400746
19128000,-0.26575357,0.20710976,1.4766582,0,0.71992993,-0.16642118,-0.012914658,0.67367506,0.6384277
19152000,-0.2613951,0.20718664,1.4769601,0,0.72018296,-0.16487528,-0.011443026,0.67381126,0.63680565
19176000,-0.25734124,0.20726605,1.4771087,0,0.7204592,-0.16344042,-0.010060065,0.67388767,0.63520885
19200000,-0.25305778,0.20734996,1.477401,0,0.72070235,-0.16192323,-0.008609444,0.67401403,0.6335578
19224000,-0.24894542,0.20744202,1.4775474,0,0.7209771,-0.1604706,-0.007201292,0.6740841,0.6319247
19248000,-0.24468839,0.20753331,1.4778346,0,0.72121304,-0.15896475,-0.005755603,0.6742024,0.6303256
19272000,-0.24074934,0.20762208,1.4779773,0,0.72146964,-0.15757278,-0.004406206,0.6742647,0.62874365
19296000,-0.23652777,0.2076527,1.4782695,0,0.7216998,-0.15605918,-0.00299447,0.6743783,0.6275914
19320000,-0.23255748,0.20768754,1.478417,0,0.72195566,-0.15463749,-0.001654275,0.6744364,0.6264333
19344000,-0.22844309,0.20772433,1.4786981,0,0.72217464,-0.15316401,-0.00027477,0.67454016,0.62530833
19368000,-0.22455937,0.20776404,1.4788417,0,0.7224193,-0.15177448,0.001038849,0.67459154,0.6241783
19392000,-0.22045232,0.20782238,1.4791203,0,0.7226311,-0.15031019,0.002424724,0.67468894,0.62290066
19416000,-0.227853,0.20788644,1.4718622,0,0.7245088,-0.15300336,0.000507034,0.67206895,0.62163186
19440000,-0.2237862,0.20795184,1.472135,0,0.7247219,-0.1515515,0.001877159,0.6721658,0.6203958
19464000,-0.22006829,0.20801559,1.4722562,0,0.7249568,-0.15022507,0.00314118,0.6722054,0.6191945
19488000,-0.21618421,0.20807998,1.4725327,0,0.7251494,-0.14883864,0.004449867,0.6722987,0.6180071
19512000,-0.21254273,0.20809746,1.4726654,0,0.7253734,-0.14752418,0.005670622,0.6723377,0.6171803
19536000,-0.2086858,0.20811959,1.4729419,0,0.7255619,-0.14613327,0.006955184,0.6724258,0.61633694
19560000,-0.20503174,0.20814116,1.4730742,0,0.72578174,-0.14481506,0.008182116,0.6724602,0.6154768
19584000,-0.2012152,0.20816873,1.4733485,0,0.72596246,-0.14344016,0.009455867,0.6725429,0.61462086
19608000,-0.19771,0.20820813,1.4734751,0,0.7261674,-0.14218125,0.010640122,0.67257136,0.6136354
19632000,-0.19400188,0.2082585,1.4737473,0,0.72633463,-0.14085281,0.011886552,0.6726494,0.61265767
19656000,-0.19043608,0.20830698,1.4738714,0,0.7265395,-0.13957438,0.013095081,0.6726722,0.61168855
19680000,-0.18683353,0.20835702,1.4741411,0,0.7266955,-0.13828385,0.014306579,0.67274547,0.6107239
19704000,-0.18348135,0.20837906,1.4742682,0,0.72688204,-0.13707387,0.015433587,0.6727668,0.6099367
19728000,-0.17996435,0.20841323,1.4745356,0,0.7270297,-0.13580893,0.016611114,0.6728357,0.6091596
19752000,-0.1766449,0.20844455,1.4746628,0,0.7272091,-0.13461351,0.017730817,0.67285335,0.60836256
19776000,-0.17321259,0.20848165,1.4749302,0,0.72734654,-0.13338009,0.01888141,0.6729191,0.607581
19800000,-0.17005935,0.20849812,1.4750522,0,0.72751385,-0.13223982,0.019940343,0.6729328,0.6069344
19824000,-0.16665202,0.20852323,1.4753245,0,0.7276448,-0.13101135,0.02107821,0.6729969,0.60627306
19848000,-0.16354352,0.2085479,1.4754443,0,0.7278056,-0.12988973,0.022125538,0.6730068,0.6056084
19872000,-0.16029464,0.2085783,1.4757117,0,0.7279237,-0.12872042,0.02321279,0.6730671,0.60494477
19896000,-0.15734512,0.20860651,1.4758407,0,0.7280675,-0.12765765,0.024207558,0.673079,0.6042095
19920000,-0.15423924,0.20864709,1.476115,0,0.7281699,-0.12654373,0.02525042,0.6731401,0.60347563
19944000,-0.15138152,0.20868854,1.4762405,0,0.7283051,-0.1255185,0.026219659,0.67314875,0.6027391
19968000,-0.14836238,0.2087351,1.4765168,0,0.72839785,-0.12443809,0.027235799,0.6732088,0.60200465
19992000,-0.14560239,0.20875409,1.4766467,0,0.728524,-0.12344091,0.028163802,0.67321765,0.6014397
20016000,-0.14268784,0.2087821,1.4769205,0,0.72860914,-0.12239238,0.02913842,0.67327535,0.6008578
20040000,-0.14005978,0.20881422,1.4770398,0,0.7287273,-0.121447295,0.030027725,0.67327976,0.6002816
20064000,-0.13722534,0.20885347,1.4773098,0,0.7288053,-0.12043159,0.030980099,0.6733345,0.5997018
20088000,-0.13465172,0.20888907,1.4774338,0,0.72891575,-0.11950744,0.031852268,0.6733389,0.5990897
20112000,-0.1319446,0.20893413,1.4777088,0,0.7289815,-0.11854014,0.032763984,0.67339486,0.5984583
20136000,-0.12950811,0.20898181,1.4778363,0,0.7290796,-0.117669925,0.033594426,0.6734004,0.59780246
20160000,-0.1270581,0.20903271,1.4781188,0,0.729125,-0.116798475,0.0344216,0.67346114,0.59712964
20184000,-0.12477665,0.2090872,1.4782501,0,0.7292104,-0.11598706,0.035202302,0.6734687,0.5964535
20208000,-0.1223453,0.20913532,1.4785228,0,0.72925615,-0.11512138,0.036023058,0.6735242,0.5958223
20232000,-0.120148875,0.20918909,1.4786478,0,0.72933686,-0.11434059,0.03677539,0.67352915,0.5951818
20256000,-0.11783799,0.2092495,1.4789196,0,0.72937346,-0.11352298,0.037560456,0.6735846,0.59454584
20280000,-0.11568866,0.20930783,1.4790535,0,0.72944665,-0.112761036,0.03829827,0.6735918,0.593878
20304000,-0.11339521,0.20935996,1.4793283,0,0.72947985,-0.11194718,0.03907451,0.6736469,0.59328705
20328000,-0.11150086,0.20941181,1.4794545,0,0.72954005,-0.111275926,0.03972465,0.6736549,0.5926609
20352000,-0.109374955,0.20947376,1.4797288,0,0.72956204,-0.110526554,0.04044837,0.6737114,0.59204143
20376000,-0.107494615,0.20953402,1.4798577,0,0.7296188,-0.10986328,0.04109689,0.67371917,0.59140396
20400000,-0.105503306,0.20959586,1.4801275,0,0.7296335,-0.109163,0.04177574,0.6737753,0.59081346
20424000,-0.10376636,0.2096565,1.4802486,0,0.72968376,-0.10855204,0.04237665,0.67378205,0.590206
20448000,-0.10184599,0.2097255,1.4805146,0,0.72969425,-0.107880056,0.043034658,0.67383695,0.58960426
20472000,-0.10012384,0.20979534,1.4806395,0,0.729741,-0.107277684,0.043633908,0.67384404,0.58899015
20496000,-0.09850888,0.20981345,1.4807581,0,0.72978634,-0.10669705,0.044178344,0.6738515,0.58878887
20520000,-0.09666633,0.20983732,1.4810334,0,0.7297903,-0.10603879,0.044793326,0.6739106,0.5885391
20544000,-0.09514586,0.20986547,1.4811585,0,0.72982705,-0.10549616,0.045309406,0.6739215,0.5882566
20568000,-0.09343931,0.20989884,1.4814267,0,0.7298245,-0.10489066,0.04588266,0.6739799,0.587973
20592000,-0.09197505,0.20997842,1.4815487,0,0.7298558,-0.10438567,0.04639902,0.6739892,0.5873156
20616000,-0.0903284,0.21006426,1.4818199,0,0.72984546,-0.10381972,0.046971448,0.67404807,0.58664125
20640000,-0.088974096,0.21015315,1.4819416,0,0.7298698,-0.103358015,0.04745429,0.67405885,0.58596164
20664000,-0.08745628,0.2102456,1.4822127,0,0.72985166,-0.10284142,0.04798592,0.6741198,0.5852857
20688000,-0.08617116,0.21034019,1.4823315,0,0.7298725,-0.102406874,0.048447795,0.67413026,0.5846091
20712000,-0.072941184,0.21039018,1.4900544,0,0.7279242,-0.09779692,0.052547213,0.6766099,0.5842632
20736000,-0.07180896,0.21044615,1.4901805,0,0.727934,-0.097406924,0.05294462,0.67662466,0.5838893
20760000,-0.07051936,0.21050204,1.4904482,0,0.72790325,-0.09696344,0.053388402,0.6766866,0.5835094
20784000,-0.069552094,0.2105687,1.4905754,0,0.7279036,-0.09663719,0.053733937,0.67670536,0.58311635
20808000,-0.06828151,0.21062678,1.4908483,0,0.72786963,-0.09620161,0.05417199,0.6767691,0.5827683
20832000,-0.06728184,0.2106921,1.4909756,0,0.72787124,-0.09586319,0.054528076,0.6767868,0.5823922
20856000,-0.06606294,0.2107613,1.4912463,0,0.7278346,-0.09545027,0.054952964,0.6768503,0.58199584
20880000,-0.06521002,0.21083398,1.4913741,0,0.7278284,-0.0951678,0.055262163,0.6768716,0.58158255
20904000,-0.06416511,0.21088849,1.4916472,0,0.7277828,-0.094813436,0.055622797,0.67694074,0.5812854
20928000,-0.0634504,0.21094495,1.4917752,0,0.72777057,-0.09457591,0.05587933,0.67696595,0.5809589
20952000,-0.062488016,0.21100439,1.4920509,0,0.7277197,-0.09425342,0.05621385,0.6770379,0.58061445
20976000,-0.061728667,0.21106708,1.4921781,0,0.72770935,-0.094001785,0.056487866,0.67706126,0.5802493
21000000,-0.060874406,0.21115012,1.4924531,0,0.72765225,-0.09372667,0.05679456,0.6771351,0.5797118
21024000,-0.06024882,0.21123946,1.4925869,0,0.72763187,-0.09353291,0.0570328,0.6771637,0.5791361
21048000,-0.059456903,0.21133216,1.4928637,0,0.72757065,-0.0932839,0.057321943,0.6772395,0.5785532
21072000,-0.058905244,0.21142763,1.4929911,0,0.72754854,-0.093118995,0.05753775,0.6772677,0.57795835
21096000,-0.05837636,0.21148497,1.4931177,0,0.72752744,-0.092949525,0.057731934,0.67729694,0.5776421
21120000,-0.05763887,0.2115493,1.4933923,0,0.7274655,-0.09271087,0.057992496,0.67737395,0.57729197
21144000,-0.05727944,0.21161723,1.4935224,0,0.7274349,-0.09260676,0.05813305,0.67740905,0.5769183
21168000,-0.056692336,0.2116884,1.4937974,0,0.72736543,-0.09242519,0.05834522,0.6774902,0.5765374
21192000,-0.056415472,0.2117653,1.4939277,0,0.7273304,-0.092354186,0.058461122,0.6775275,0.5761057
21216000,-0.055890452,0.21184872,1.4942025,0,0.72725743,-0.092199385,0.05865681,0.67760986,0.575649
21240000,-0.055740718,0.21193594,1.4943277,0,0.7272178,-0.09217799,0.05873366,0.6776489,0.5751866
21264000,-0.05529416,0.21202612,1.4946089,0,0.7271387,-0.09205425,0.05890499,0.6777356,0.57469183
21288000,-0.055019896,0.21211903,1.4947336,0,0.7271046,-0.0919895,0.05902616,0.6777705,0.5741939
21312000,-0.042706836,0.2122258,1.5024868,0,0.72502077,-0.087791815,0.06289687,0.68020695,0.5735637
21336000,-0.042525947,0.21233778,1.5026171,0,0.7249793,-0.08776824,0.062993445,0.6802453,0.57291025
21360000,-0.04219478,0.21245204,1.5028965,0,0.72489345,-0.087695695,0.06313543,0.68033284,0.5722529
21384000,-0.04206601,0.21256931,1.5030252,0,0.72485,-0.08769279,0.06321627,0.6803721,0.5715933
21408000,-0.04178656,0.2126333,1.503299,0,0.72476614,-0.08762184,0.063322626,0.6804607,0.5713581
21432000,-0.04167677,0.21270391,1.5034255,0,0.7247247,-0.08760997,0.06338012,0.680501,0.57109624
21456000,-0.041647132,0.21277751,1.5035509,0,0.72467995,-0.08762813,0.063411504,0.6805433,0.570805
21480000,-0.041393545,0.21285416,1.5038245,0,0.7245944,-0.0875709,0.063513696,0.6806323,0.5704936
21504000,-0.04140353,0.2129264,1.5039523,0,0.72454715,-0.08760304,0.06353099,0.6806768,0.570195
21528000,-0.041266933,0.21300471,1.5042274,0,0.724456,-0.08758883,0.06359392,0.68076986,0.5698718
21552000,-0.041410886,0.21308559,1.5043579,0,0.7244015,-0.08767253,0.06356861,0.6808194,0.56951284
21576000,-0.041332804,0.21316941,1.5046349,0,0.72430676,-0.08768145,0.063613534,0.68091476,0.5691383
21600000,-0.041474275,0.21328719,1.5047641,0,0.72425115,-0.087776706,0.06360254,0.6809626,0.5684941
21624000,-0.041399494,0.21340945,1.505044,0,0.7241536,-0.08779997,0.063660175,0.68105817,0.56784815
21648000,-0.04163725,0.21353291,1.5051737,0,0.72409326,-0.08793202,0.063618384,0.6811091,0.56719595
21672000,-0.04164677,0.21365839,1.5054543,0,0.7239915,-0.08798693,0.063648425,0.6812074,0.56653655
21696000,-0.041809745,0.21373393,1.5055803,0,0.723938,-0.08807553,0.063614815,0.681256,0.5663048
21720000,-0.041838203,0.21381874,1.5058568,0,0.7238386,-0.08812338,0.06362378,0.68135446,0.5660535
21744000,-0.042157132,0.21390815,1.5059849,0,0.7237768,-0.08827319,0.06354196,0.6814084,0.5657919
21768000,-0.04224086,0.21400198,1.5062641,0,0.7236736,-0.08834418,0.0635352,0.68150944,0.56550026
21792000,-0.04251856,0.2140775,1.506394,0,0.72361356,-0.08847439,0.06346227,0.68156314,0.5653446
21816000,-0.042835362,0.21416104,1.506527,0,0.7235504,-0.08862155,0.06337877,0.68161875,0.5651425
21840000,-0.042937454,0.21424706,1.5068083,0,0.723446,-0.088696584,0.06336276,0.6817213,0.56490695
21864000,-0.043230448,0.21433584,1.5069411,0,0.72338355,-0.08883687,0.06328924,0.68177605,0.56465197
21888000,-0.04339844,0.21442772,1.5072166,0,0.723278,-0.088937506,0.063253105,0.6818784,0.5643824
21912000,-0.031821173,0.21455523,1.51486,0,0.7211652,-0.085048914,0.066920914,0.6842579,0.5638027
21936000,-0.031998537,0.21468541,1.5151422,0,0.7210554,-0.08516669,0.06689531,0.6843616,0.5632103
21960000,-0.032403328,0.21481577,1.5152711,0,0.7209882,-0.08536137,0.066798456,0.68441755,0.56262124
21984000,-0.032569934,0.21494858,1.5155506,0,0.72087955,-0.08547605,0.06677753,0.68451977,0.562031
22008000,-0.0329936,0.2150855,1.5156854,0,0.7208091,-0.08567993,0.06667626,0.68457824,0.56138074
22032000,-0.03320445,0.21522985,1.5159701,0,0.7206962,-0.08581463,0.06664408,0.6846834,0.56071323
22056000,-0.03359307,0.21537745,1.5161052,0,0.7206267,-0.0860095,0.0665586,0.6847404,0.560038
22080000,-0.033707228,0.2155279,1.5163882,0,0.7205182,-0.08611137,0.06656173,0.6848416,0.55936694
22104000,-0.034112778,0.21567497,1.5165197,0,0.72044903,-0.086312,0.06647035,0.6848979,0.5587282
22128000,-0.03455918,0.21582574,1.5166492,0,0.72037864,-0.086528525,0.066366374,0.68495476,0.5580967
22152000,-0.03479091,0.2159771,1.5169271,0,0.7202666,-0.08667285,0.06632968,0.6850579,0.55747426
22176000,-0.035302546,0.21612604,1.5170587,0,0.7201925,-0.08691227,0.06620254,0.68511754,0.55683696
22200000,-0.035638493,0.2162351,1.5173373,0,0.7200776,-0.08707966,0.06611474,0.6852257,0.5565908
22224000,-0.036230735,0.21634412,1.5174674,0,0.72000223,-0.087334365,0.06594555,0.6852887,0.5562964
22248000,-0.03639459,0.21646184,1.5177472,0,0.7198939,-0.08744274,0.065919705,0.6853912,0.5559983
22272000,-0.03694155,0.21657518,1.5178707,0,0.71982247,-0.08768237,0.065767795,0.68545026,0.55569375
22296000,-0.037195995,0.21669705,1.5181453,0,0.7197116,-0.08782456,0.06571257,0.6855537,0.55534035
22320000,-0.037723426,0.21682508,1.5182787,0,0.71963686,-0.08806243,0.06557215,0.6856152,0.5549526
22344000,-0.037987225,0.21695374,1.5185589,0,0.7195233,-0.08821043,0.065515846,0.6857207,0.5545482
22368000,-0.038542315,0.2170843,1.5186912,0,0.7194474,-0.08845902,0.06536682,0.6857824,0.55413693
22392000,-0.039104875,0.21720208,1.5188227,0,0.719372,-0.088705875,0.06521063,0.6858445,0.55381215
22416000,-0.039444193,0.21732357,1.5190994,0,0.7192564,-0.0888784,0.065125845,0.6859514,0.5534736
22440000,-0.039902687,0.21744834,1.5192306,0,0.7191853,-0.08909016,0.065007806,0.6860098,0.5531152
22464000,-0.040270407,0.21757498,1.5195104,0,0.71906704,-0.08927471,0.06491491,0.6861185,0.5527487
22488000,-0.040885735,0.21770349,1.5196416,0,0.7189886,-0.089544065,0.06474434,0.6861818,0.5523701
22512000,-0.041195817,0.21782991,1.5199213,0,0.71887285,-0.08970775,0.06467105,0.68628854,0.55199593
22536000,-0.0417277,0.21796013,1.5200558,0,0.71879685,-0.08994774,0.0645295,0.68635017,0.55159837
22560000,-0.042129464,0.21809292,1.5203406,0,0.7186748,-0.090146646,0.06442671,0.6864615,0.5511906
22584000,-0.04268039,0.21822889,1.5204716,0,0.7185986,-0.09039527,0.06428077,0.68652225,0.5507859
22608000,-0.042975202,0.2183377,1.520752,0,0.71848387,-0.09054735,0.06420615,0.6866291,0.5505978
22632000,-0.04352964,0.21845381,1.5208881,0,0.7184066,-0.090790555,0.06405152,0.6866924,0.55036634
22656000,-0.043986853,0.21857455,1.5210267,0,0.7183325,-0.09100047,0.06393179,0.6867533,0.550119
22680000,-0.044253666,0.21869953,1.5213151,0,0.7182155,-0.0911482,0.06387213,0.68686163,0.5498544
22704000,-0.044811286,0.21879873,1.521455,0,0.7181372,-0.091386795,0.06371002,0.68692666,0.5498053
22728000,-0.045097485,0.21890296,1.521738,0,0.71802205,-0.09153418,0.06363637,0.6870344,0.5497397
22752000,-0.03371323,0.2190118,1.5294319,0,0.7158796,-0.08774222,0.0672482,0.6894166,0.5496495
22776000,-0.03401838,0.21912608,1.5297191,0,0.7157621,-0.087900326,0.06717145,0.689526,0.54954004
22800000,-0.034439363,0.2192341,1.5298598,0,0.71569014,-0.0880928,0.067058906,0.6895871,0.5494772
22824000,-0.03466447,0.2193507,1.5301487,0,0.7155753,-0.08822308,0.067010425,0.68969434,0.54938215
22848000,-0.03511802,0.21947213,1.5302877,0,0.7155019,-0.088431716,0.06689148,0.68975544,0.5492662
22872000,-0.035533953,0.21959737,1.5304246,0,0.71543056,-0.0886281,0.06678694,0.6898143,0.5491352
22896000,-0.0357148,0.21971604,1.5307157,0,0.71531665,-0.08874327,0.06675426,0.68992066,0.54903895
22920000,-0.036124192,0.21984142,1.5308553,0,0.7152446,-0.0889374,0.066651836,0.68998027,0.5489115
22944000,-0.036424525,0.21997084,1.5311414,0,0.71512663,-0.0890988,0.06658195,0.69008857,0.5487785
22968000,-0.03684829,0.220104,1.5312824,0,0.7150529,-0.08930077,0.06647723,0.6901489,0.54862297
22992000,-0.03713719,0.2202781,1.5315697,0,0.7149329,-0.08947342,0.06642717,0.69025576,0.548077
23016000,-0.037555594,0.22045632,1.5317068,0,0.7148586,-0.08968877,0.06634058,0.690313,0.54752046
23040000,-0.037779804,0.22063608,1.5319965,0,0.7147403,-0.0898403,0.06631469,0.69041836,0.5469501
23064000,-0.038268816,0.22081746,1.5321369,0,0.71466136,-0.09008204,0.06620464,0.6904791,0.54636884
23088000,-0.038718548,0.22099899,1.5322733,0,0.71458554,-0.090309635,0.06610833,0.690537,0.5457927
23112000,-0.038945716,0.22114673,1.5325618,0,0.71446884,-0.09045112,0.066069864,0.6906429,0.5455061
23136000,-0.0394021,0.22130126,1.5327016,0,0.71439266,-0.09067189,0.06596136,0.6907031,0.5451878
23160000,-0.03961992,0.2214582,1.5329953,0,0.7142741,-0.09081333,0.06592909,0.69081026,0.54483867
23184000,-0.04011359,0.22161676,1.5331342,0,0.7141963,-0.09104872,0.06580912,0.69087124,0.5444927
23208000,-0.040312298,0.22177432,1.533425,0,0.71407944,-0.09118342,0.06578374,0.6909767,0.5441295
23232000,-0.040806085,0.22194295,1.5335655,0,0.71400034,-0.09142231,0.065667175,0.6910378,0.5437633
23256000,-0.04096252,0.22210103,1.5338575,0,0.71388495,-0.0915421,0.065656446,0.6911422,0.5433592
23280000,-0.04143441,0.22226693,1.533996,0,0.7138077,-0.09177214,0.0655465,0.691202,0.54297805
23304000,-0.04184398,0.22242105,1.5341355,0,0.7137334,-0.09197588,0.06545379,0.69126034,0.5426998
23328000,-0.0420359,0.22257933,1.5344212,0,0.7136182,-0.09210816,0.06543103,0.6913637,0.54240435
23352000,-0.042454075,0.22273926,1.534561,0,0.71354306,-0.092316955,0.065337345,0.6914223,0.54208744
23376000,-0.042658173,0.22289942,1.5348524,0,0.71342534,-0.092454374,0.065310724,0.69152796,0.54175234
23400000,-0.043090075,0.22305666,1.5349923,0,0.7133495,-0.0926671,0.06521125,0.6915871,0.5414423
23424000,-0.043312717,0.22321944,1.5352825,0,0.71323115,-0.09281199,0.06517913,0.6916928,0.541115
23448000,-0.043675564,0.22338484,1.5354208,0,0.7131586,-0.09300279,0.065106474,0.69174886,0.5407838
23472000,-0.04379538,0.22355221,1.53571,0,0.713045,-0.09311253,0.06511153,0.6918507,0.540434
23496000,-0.044150993,0.22369705,1.535848,0,0.7129738,-0.093293644,0.06503396,0.69190705,0.5402939
23520000,-0.04464254,0.22384718,1.5359864,0,0.71289575,-0.09352504,0.06491122,0.69196767,0.54013926
23544000,-0.04479632,0.22400036,1.5362759,0,0.7127811,-0.093641974,0.064899325,0.6920711,0.5399703
23568000,-0.045151703,0.22415666,1.5364168,0,0.7127082,-0.09382699,0.06482571,0.692128,0.53978306
23592000,-0.045273248,0.22432333,1.5367048,0,0.7125948,-0.09393702,0.06482982,0.6922295,0.5394851
23616000,-0.045643065,0.22449698,1.5368451,0,0.7125205,-0.0941331,0.06475738,0.6922861,0.5391622
23640000,-0.045663092,0.22467378,1.5371356,0,0.7124105,-0.09421052,0.06480007,0.6923848,0.5388435
23664000,-0.045989286,0.22485371,1.5372778,0,0.71233714,-0.094393276,0.06474484,0.69244045,0.53850335
23688000,-0.045999564,0.22503504,1.5375693,0,0.71222705,-0.094468825,0.064792424,0.69253904,0.53814423
23712000,-0.046257023,0.22517909,1.5377097,0,0.7121593,-0.09461467,0.06474818,0.6925929,0.53812045
23736000,-0.046566267,0.22533013,1.5378523,0,0.7120879,-0.094781406,0.064688385,0.692649,0.538056
23760000,-0.046651125,0.22548406,1.5381452,0,0.711975,-0.094874114,0.0647002,0.69275135,0.5379692
23784000,-0.04705162,0.22564156,1.5382851,0,0.7118999,-0.095075466,0.06461118,0.6928093,0.5378777
23808000,-0.047162667,0.22584352,1.5385736,0,0.71178484,-0.09519389,0.06463124,0.6929093,0.5373601
23832000,-0.047510926,0.22604795,1.5387137,0,0.7117096,-0.09539279,0.064577036,0.6929641,0.53683394
23856000,-0.04755686,0.22625272,1.5390027,0,0.71159744,-0.09548903,0.06462058,0.6930621,0.5363117
23880000,-0.04781375,0.22645803,1.539139,0,0.7115279,-0.09565558,0.06459846,0.6931126,0.53580445
23904000,-0.04811261,0.22665106,1.5392779,0,0.711456,-0.095832914,0.06455727,0.6931658,0.5354066
23928000,-0.048196197,0.22684905,1.5395678,0,0.71134186,-0.09594024,0.06458521,0.69326544,0.53499013
23952000,-0.048476662,0.2270493,1.5397056,0,0.7112708,-0.09611346,0.06455296,0.6933174,0.53458273
23976000,-0.04845002,0.2272514,1.5399988,0,0.71116054,-0.09618312,0.06462037,0.6934145,0.534161
24000000,-0.048699778,0.22744244,1.5401425,0,0.71108925,-0.09634243,0.06459514,0.6934678,0.5338309
24024000,-0.048601475,0.22763768,1.5404314,0,0.71098423,-0.09638413,0.06468511,0.6935614,0.5335143
24048000,-0.048931193,0.22783542,1.5405709,0,0.71091026,-0.09657403,0.064634696,0.69361556,0.5332034
24072000,-0.048928525,0.22803423,1.5408595,0,0.7108005,-0.09665096,0.064692736,0.6937118,0.53290695
24096000,-0.0491088,0.22822616,1.5409995,0,0.7107338,-0.09678575,0.064692006,0.6937615,0.5326456
24120000,-0.04932418,0.22842394,1.5411379,0,0.7106655,-0.096934974,0.064681254,0.69381154,0.5323742
24144000,-0.049266938,0.22862513,1.54143,0,0.71055704,-0.09699348,0.06475884,0.6939072,0.53209114
24168000,-0.049448434,0.22882937,1.5415682,0,0.71049017,-0.097132884,0.06476211,0.6939559,0.5318117
24192000,-0.04934268,0.228995,1.5418582,0,0.7103864,-0.097161844,0.06484388,0.6940503,0.53190804
24216000,-0.049613357,0.22916731,1.541998,0,0.71031624,-0.09732198,0.064804696,0.6941034,0.531979
24240000,-0.04952433,0.2293424,1.5422881,0,0.7102113,-0.09736018,0.064884,0.69419813,0.5320357
24264000,-0.049649592,0.22951916,1.5424259,0,0.7101485,-0.09747012,0.06489693,0.69424564,0.5320709
24288000,-0.049796693,0.22969761,1.5425644,0,0.71008444,-0.09758843,0.06490281,0.69429404,0.5320869
24312000,-0.049654976,0.22990856,1.5428541,0,0.70998025,-0.09762032,0.065013185,0.6943857,0.5317661
24336000,-0.0497769,0.23012267,1.5429964,0,0.70991427,-0.09774214,0.06504034,0.6944335,0.5314189
24360000,-0.049593605,0.23033762,1.5432881,0,0.7098113,-0.09776077,0.06516644,0.6945244,0.53105766
24384000,-0.049737357,0.23055437,1.5434277,0,0.70974493,-0.09789117,0.065187044,0.6945719,0.53068346
24408000,-0.049672548,0.23075904,1.5437188,0,0.7096368,-0.09794833,0.06526834,0.6946667,0.53041685
24432000,-0.049825605,0.23096652,1.5438585,0,0.70957047,-0.09807884,0.06528236,0.6947148,0.53013283
24456000,-0.04993724,0.23117511,1.5439979,0,0.70950615,-0.098195024,0.06531116,0.6947613,0.52984333
24480000,-0.049720034,0.23138532,1.5442905,0,0.70940465,-0.09820013,0.06544724,0.6948514,0.5295433
24504000,-0.049822006,0.23159154,1.5444295,0,0.70934105,-0.09831207,0.06547854,0.6948976,0.5292587
24528000,-0.049634952,0.23180154,1.5447195,0,0.70923895,-0.09832778,0.06560418,0.69498765,0.52896285
24552000,-0.049680624,0.23201405,1.5448601,0,0.7091772,-0.09842199,0.06565717,0.69503236,0.52866364
24576000,-0.04952115,0.23222922,1.5451522,0,0.70907277,-0.09844938,0.06577494,0.69512385,0.52836496
24600000,-0.049517278,0.2324543,1.5452931,0,0.70901275,-0.09853043,0.0658496,0.6951665,0.52794164
24624000,-0.049634382,0.23268229,1.5454339,0,0.7089466,-0.09865534,0.065883234,0.6952131,0.52751034
24648000,-0.0494725,0.23291136,1.5457262,0,0.70884144,-0.09868677,0.066006735,0.6953041,0.527077
24672000,-0.049557503,0.23314147,1.545869,0,0.7087761,-0.09880113,0.06605214,0.6953502,0.52663517
24696000,-0.04932647,0.2333323,1.5461621,0,0.70867604,-0.09879492,0.06618601,0.6954404,0.52658504
24720000,-0.04940894,0.23353072,1.5462992,0,0.70861435,-0.098897256,0.06622126,0.6954854,0.52652705
24744000,-0.049151246,0.23373161,1.5465894,0,0.70851606,-0.09888503,0.066368096,0.6955732,0.52646846
24768000,-0.0491142,0.23393491,1.5467303,0,0.70845866,-0.09894688,0.06644644,0.69561535,0.52639526
24792000,-0.049086973,0.23413193,1.5468719,0,0.70840085,-0.099010065,0.06651908,0.6956583,0.5263645
24816000,-0.048883885,0.23433465,1.5471616,0,0.7082999,-0.09901787,0.06664759,0.6957476,0.5263275
24840000,-0.048907265,0.23453882,1.5473024,0,0.70823944,-0.099101454,0.06670519,0.69579166,0.5262686
24864000,-0.048638858,0.23474437,1.547594,0,0.70814097,-0.099087246,0.06685732,0.69587934,0.52619904
24888000,-0.048597246,0.23495208,1.5477321,0,0.7080845,-0.09914899,0.06693891,0.69592017,0.5261332
24912000,-0.04834601,0.23517898,1.5480256,0,0.70798343,-0.09914837,0.06709255,0.69600827,0.5258253
24936000,-0.048251484,0.2354091,1.5481646,0,0.7079282,-0.099199206,0.06720048,0.6960469,0.5255126
24960000,-0.048198935,0.2356396,1.5483061,0,0.70786995,-0.09926511,0.067293786,0.6960877,0.52519274
24984000,-0.047961004,0.23586957,1.5485964,0,0.70776916,-0.09927026,0.06744404,0.6961749,0.5248728
25008000,-0.059778396,0.23606563,1.5410508,0,0.7097829,-0.10327836,0.06378931,0.6938824,0.5249256
25032000,-0.059564225,0.23626631,1.541341,0,0.7096827,-0.103280745,0.06392034,0.6939724,0.5249556
25056000,-0.059483394,0.23646845,1.5414807,0,0.7096278,-0.10332617,0.06401339,0.69401324,0.5249637
25080000,-0.059251614,0.23667054,1.5417733,0,0.7095275,-0.10332294,0.0641509,0.6941035,0.5249515
25104000,-0.059186712,0.23686796,1.5419127,0,0.7094722,-0.10337241,0.06423674,0.69414485,0.5249667
25128000,-0.059178986,0.23706993,1.5420535,0,0.7094131,-0.10344379,0.06430428,0.69418836,0.5249536
25152000,-0.058848128,0.23727429,1.5423479,0,0.70931727,-0.10340635,0.06447688,0.69427586,0.5249131
25176000,-0.058725677,0.23747958,1.5424874,0,0.70926434,-0.10343817,0.06458548,0.6943151,0.5248633
25200000,-0.05846092,0.23770572,1.5427803,0,0.70916444,-0.1034317,0.06474298,0.6944034,0.52454233
25224000,-0.058470074,0.23793566,1.5429173,0,0.70910436,-0.10351865,0.064814806,0.6944451,0.52421916
25248000,-0.058349065,0.2381673,1.5430549,0,0.70905066,-0.103560075,0.06493238,0.6944828,0.52389944
25272000,-0.05798269,0.23840013,1.5433468,0,0.70895594,-0.103519954,0.065127596,0.6945671,0.52358156
25296000,-0.05782807,0.23859501,1.5434864,0,0.7089052,-0.10353689,0.06524362,0.69460547,0.5236699
25320000,-0.05744534,0.23879582,1.5437795,0,0.70881265,-0.10348008,0.065433025,0.69469064,0.523725
25344000,-0.05734352,0.23899911,1.5439187,0,0.70875883,-0.10351866,0.06553371,0.6947302,0.52377397
25368000,-0.056989864,0.2392059,1.5442116,0,0.7086645,-0.10347429,0.06571519,0.69481593,0.5238105
25392000,-0.05670446,0.23943274,1.5443549,0,0.70861757,-0.10345613,0.06588784,0.69485015,0.52361035
25416000,-0.056514658,0.23966357,1.5445001,0,0.7085648,-0.10347331,0.066028595,0.6948881,0.5233812
25440000,-0.05604027,0.23989439,1.5447954,0,0.7084746,-0.103394665,0.06626047,0.69496965,0.5231352
25464000,-0.055972755,0.24012525,1.5449378,0,0.70841646,-0.103455156,0.066358894,0.69501054,0.52288586
25488000,-0.055540513,0.24035682,1.5452349,0,0.7083234,-0.10339184,0.066576295,0.695094,0.5226191
25512000,-0.055325262,0.2405662,1.5453781,0,0.70827377,-0.10339265,0.06671835,0.69513077,0.52258533
25536000,-0.054859083,0.24078086,1.5456715,0,0.7081847,-0.10331148,0.06694173,0.69521224,0.52252716
25560000,-0.054671753,0.24099131,1.5458162,0,0.7081329,-0.10332266,0.06707437,0.69525033,0.52243465
25584000,-0.054487254,0.2412171,1.5459564,0,0.7080819,-0.103340015,0.067211725,0.6952866,0.52236235
25608000,-0.05414383,0.2414292,1.5462526,0,0.7079855,-0.103301644,0.067391396,0.695373,0.52230895
25632000,-0.05400124,0.24163893,1.5463977,0,0.70793146,-0.1033285,0.0675082,0.6954128,0.5222217
25656000,-0.053610496,0.24186297,1.5466942,0,0.7078368,-0.1032776,0.06770856,0.6954972,0.5221391
25680000,-0.053344343,0.24208288,1.5468385,0,0.7077888,-0.10326427,0.06787199,0.6955321,0.5220291
25704000,-0.05310074,0.23554885,1.5469799,0,0.7080907,-0.100924864,0.06562218,0.6957841,0.51091033
25728000,-0.052700214,0.22701934,1.5472732,0,0.7084387,-0.09784293,0.062708214,0.69613856,0.47855812
25752000,-0.052474953,0.2184889,1.5474106,0,0.7088187,-0.09481536,0.05974014,0.6964319,0.44863135
25776000,-0.051904682,0.20995738,1.547681,0,0.7091545,-0.091666594,0.056885153,0.69675046,0.4210798
25800000,-0.051694456,0.20142768,1.5477808,0,0.709519,-0.08863893,0.05391283,0.69700736,0.39554167
25824000,-0.05153337,0.19289929,1.5478631,0,0.709874,-0.08562674,0.05092397,0.6972473,0.37217852
25848000,-0.05114006,0.18437158,1.5480849,0,0.71017635,-0.082533784,0.048009932,0.697519,0.35089558
25872000,-0.051047944,0.17584392,1.5481439,0,0.7105095,-0.07954189,0.04499719,0.6977282,0.3315555
25896000,-0.050699204,0.16730674,1.5483439,0,0.7107904,-0.0764568,0.042064585,0.69797,0.3148513
25920000,-0.050689645,0.15875965,1.5483826,0,0.71110135,-0.07348361,0.039015878,0.6981495,0.29978567
25944000,-0.05040948,0.1502023,1.5485669,0,0.7113584,-0.07041174,0.036052264,0.6983635,0.286245
25968000,-0.05041098,0.14163437,1.5485957,0,0.7116468,-0.067431934,0.03299169,0.69851506,0.27406985
25992000,-0.05045907,0.13304739,1.548622,0,0.7119221,-0.06446072,0.029907592,0.69865394,0.26388663
26016000,-0.05017157,0.124441385,1.5488039,0,0.7121409,-0.06136421,0.026928691,0.69883084,0.25478852
26040000,-0.05015156,0.1158165,1.5488307,0,0.7123927,-0.058352783,0.023854192,0.698944,0.24666212
26064000,-0.049998783,0.10717288,1.5488564,0,0.7126357,-0.05528634,0.020819074,0.6990425,0.23941465
26088000,-0.049620777,0.09851077,1.5490433,0,0.71281487,-0.05213347,0.017851574,0.6991841,0.23294295
26112000,-0.04947824,0.089822,1.5490708,0,0.71303016,-0.049052432,0.014796414,0.6992588,0.2279202
26136000,-0.049054854,0.08110713,1.5492578,0,0.7131828,-0.045862034,0.011826286,0.6993762,0.22348055
26160000,-0.048856337,0.07236685,1.5492929,0,0.7133694,-0.042740785,0.008772064,0.6994285,0.21954614
26184000,-0.048651606,0.06360189,1.5493311,0,0.7135414,-0.039607756,0.005711092,0.69946927,0.21603918
26208000,-0.048172444,0.05480846,1.5495312,0,0.7136479,-0.036366157,0.002732994,0.69955474,0.21255879
26232000,-0.047968987,0.045987528,1.5495743,0,0.7137899,-0.03321199,-0.000348162,0.6995719,0.20066915
26256000,-0.047702365,0.037542913,1.5496249,0,0.71391,-0.030165967,-0.003272754,0.6995798,0.18998222
26280000,-0.04724572,0.034380764,1.5498378,0,0.7138888,-0.028897386,-0.004245833,0.6996497,0.18031473
26304000,-0.04708095,0.031202223,1.5498887,0,0.71391815,-0.027727388,-0.005324359,0.69965976,0.17248915
26328000,-0.046884365,0.028212875,1.5499408,0,0.713943,-0.026612036,-0.006324118,0.6996693,0.16542855
26352000,-0.046373736,0.025415137,1.5501544,0,0.71391106,-0.025450872,-0.007147557,0.6997371,0.15914105
26376000,-0.04610842,0.02278661,1.5502084,0,0.71392816,-0.024436839,-0.007994196,0.6997468,0.15346539
26400000,-0.045903176,0.02012345,1.5502669,0,0.7139418,-0.023432022,-0.008874206,0.69975656,0.14905025
26424000,-0.045426354,0.017618433,1.5504891,0,0.71389794,-0.02238468,-0.009604481,0.69982594,0.14505903
26448000,-0.045207597,0.015270659,1.5505481,0,0.7139053,-0.02148509,-0.010366929,0.6998359,0.1415188
26472000,-0.04496914,0.01306667,1.5506046,0,0.7139109,-0.020628698,-0.011071051,0.699845,0.13835572
26496000,-0.04440941,0.010661173,1.5508307,0,0.7138613,-0.019586066,-0.011736301,0.69991475,0.13659565
26520000,-0.044031613,0.008391833,1.5508934,0,0.7138644,-0.018656831,-0.012414853,0.6999253,0.1350109
26544000,-0.043700766,0.006251375,1.5509565,0,0.71386456,-0.017789377,-0.013063763,0.6999359,0.1335812
26568000,-0.043096427,0.004240521,1.5511839,0,0.71380734,-0.016868476,-0.013572013,0.7000073,0.13232997
26592000,-0.042732622,0.002139428,1.5512497,0,0.7138043,-0.016002828,-0.014195155,0.70001847,0.13186
26616000,-0.042290755,0.000155131,1.5513161,0,0.71379966,-0.015150135,-0.014749229,0.70003074,0.13140863
26640000,-0.04155383,-0.001705637,1.5515511,0,0.71373624,-0.014234039,-0.015157073,0.7001059,0.13102905
26664000,-0.04108624,-0.003457266,1.5516211,0,0.7137268,-0.013453432,-0.015618941,0.70012075,0.13066125
26688000,-0.052508842,-0.005098477,1.5432372,0,0.7165803,-0.01703954,-0.02013157,0.69700575,0.13029653
26712000,-0.051933076,-0.006845342,1.5432903,0,0.7165806,-0.01622382,-0.020557141,0.6970125,0.13052432
26736000,-0.051212452,-0.008477677,1.5435152,0,0.7165203,-0.015394283,-0.020892479,0.6970833,0.13074936
26760000,-0.050666377,-0.010011101,1.5435715,0,0.71651596,-0.01466346,-0.021251807,0.6970927,0.13091427
26784000,-0.050121054,-0.011445628,1.5436326,0,0.7165083,-0.013967294,-0.021575965,0.6971049,0.1310202
26808000,-0.049299132,-0.012959091,1.5438643,0,0.71644294,-0.013142625,-0.021833057,0.69718003,0.131631
26832000,-0.048747037,-0.014375142,1.5439346,0,0.71643066,-0.012450285,-0.02214814,0.69719553,0.13210213
26856000,-0.048177045,-0.015696062,1.5440055,0,0.71641695,-0.011784669,-0.02242287,0.69721234,0.13247673
26880000,-0.04762519,-0.016917214,1.5440754,0,0.7164024,-0.011160329,-0.022668147,0.6972297,0.13281521
26904000,-0.046744738,-0.018194983,1.5443197,0,0.7163285,-0.010396521,-0.022819996,0.69731253,0.1334729
26928000,-0.046074826,-0.019382766,1.544394,0,0.7163115,-0.009741414,-0.023012033,0.697333,0.13401136
26952000,-0.045432653,-0.020476464,1.5444702,0,0.7162928,-0.009129018,-0.02318002,0.6973549,0.13448344
26976000,-0.044568658,-0.021486023,1.544719,0,0.71621406,-0.008464508,-0.023241226,0.6974422,0.13485415
27000000,-0.043835524,-0.022573395,1.5448006,0,0.7161926,-0.007821634,-0.023375096,0.6974672,0.13561013
27024000,-0.04313935,-0.023573417,1.5448878,0,0.7161683,-0.007222393,-0.023490563,0.69749475,0.13624606
27048000,-0.042464457,-0.02449723,1.544976,0,0.7161428,-0.006657337,-0.023586128,0.69752336,0.13674042
27072000,-0.041458078,-0.025330361,1.5452381,0,0.7160569,-0.006003172,-0.023534099,0.6976192,0.13718583
27096000,-0.04064781,-0.026312986,1.5453275,0,0.71603054,-0.005369083,-0.023603339,0.6976491,0.13810205
27120000,-0.039975196,-0.027200757,1.5454217,0,0.71600133,-0.004817314,-0.023686608,0.6976802,0.13894142
27144000,-0.03922094,-0.028011069,1.5455182,0,0.7159711,-0.004263319,-0.023713639,0.69771403,0.13964783
27168000,-0.03823761,-0.028746206,1.5457908,0,0.71587914,-0.003651475,-0.023634125,0.6978145,0.14022787
27192000,-0.037476525,-0.029484203,1.5458916,0,0.7158463,-0.003120221,-0.02363275,0.69785094,0.14093652
27216000,-0.036720328,-0.030140849,1.5459949,0,0.7158121,-0.002619093,-0.023603931,0.697889,0.14155114
27240000,-0.035952102,-0.03072996,1.5460984,0,0.7157774,-0.002137237,-0.023546703,0.6979281,0.1420677
27264000,-0.034854863,-0.031252187,1.5463818,0,0.7156799,-0.001558895,-0.023350827,0.69803625,0.14247729
27288000,-0.034088153,-0.031699724,1.5464952,0,0.71564096,-0.001126934,-0.023243356,0.69808054,0.14280742
27312000,-0.0333276,-0.032232348,1.5466092,0,0.7156016,-0.000667462,-0.023168415,0.698124,0.1434282
27336000,-0.032491136,-0.032690186,1.5467219,0,0.7155624,-0.000206972,-0.023040175,0.6981687,0.14399442
27360000,-0.03152656,-0.033092223,1.5470153,0,0.7154599,0.000281908,-0.022847183,0.6982801,0.14442722
27384000,-0.030733896,-0.033425394,1.547133,0,0.7154184,0.000683188,-0.022689518,0.6983275,0.14482099
27408000,-0.029936755,-0.03384217,1.5472546,0,0.71537524,0.001115303,-0.022560123,0.6983752,0.1454804
27432000,-0.029081978,-0.034202855,1.5473771,0,0.71533155,0.001548429,-0.0223905,0.69842464,0.14606205
27456000,-0.027996609,-0.034500092,1.5476801,0,0.71522444,0.002043831,-0.022117425,0.6985418,0.14659071
27480000,-0.027087346,-0.034741342,1.5478073,0,0.7151786,0.002454691,-0.02188592,0.69859457,0.14704473
27504000,-0.026170217,-0.03515032,1.547936,0,0.7151319,0.002926963,-0.021711558,0.6986462,0.14791252
27528000,-0.02538813,-0.03549134,1.5480686,0,0.71508366,0.003327224,-0.02156002,0.6986984,0.14872171
27552000,-0.024541924,-0.03577592,1.5482,0,0.7150357,0.003730645,-0.021365857,0.69875145,0.14946735
27576000,-0.023404103,-0.036006518,1.5485102,0,0.7149245,0.004221302,-0.02105008,0.6988719,0.15014428
27600000,-0.022566805,-0.03603499,1.5486481,0,0.71487445,0.004531989,-0.020767359,0.69892967,0.15039068
27624000,-0.021751085,-0.036008965,1.5487893,0,0.71482325,0.004815904,-0.020472653,0.69898885,0.15061495
27648000,-0.020850144,-0.03594869,1.5489293,0,0.7147722,0.005118245,-0.020135883,0.69904864,0.15076467
27672000,-0.019795535,-0.035847895,1.549248,0,0.7146583,0.005463049,-0.01973039,0.699174,0.15087385
27696000,-0.01898561,-0.03593796,1.5493914,0,0.71460575,0.005785351,-0.019479007,0.69923234,0.15155418
27720000,-0.018109886,-0.03599358,1.5495331,0,0.7145533,0.006119061,-0.01919227,0.6992908,0.15216208
27744000,-0.017183432,-0.03600031,1.5496762,0,0.7145004,0.006453765,-0.01887028,0.6993507,0.15276968
27768000,-0.01635466,-0.035966888,1.5498222,0,0.7144467,0.006739509,-0.018568048,0.6994109,0.1533275
27792000,-0.01520042,-0.035882995,1.5501469,0,0.7143295,0.007125426,-0.018133285,0.6995383,0.15377554
27816000,-0.002498198,-0.035755236,1.559297,0,0.7110622,0.011679646,-0.013591186,0.7029007,0.15422955
27840000,-0.001614317,-0.035594117,1.5594543,0,0.71100265,0.011938305,-0.013222324,0.70296365,0.15464428
27864000,-0.000679378,-0.035410184,1.559612,0,0.7109427,0.012207036,-0.012827357,0.70302695,0.15499318
27888000,0.000414376,-0.035185527,1.5599521,0,0.71081775,0.012518965,-0.0123609,0.7031561,0.15533581
27912000,0.001301601,-0.03495183,1.5601128,0,0.71075714,0.01275309,-0.011964884,0.70322007,0.15571427
27936000,0.002126023,-0.034694374,1.5602735,0,0.710697,0.012956481,-0.011582471,0.70328355,0.156085
27960000,0.002918033,-0.03441175,1.5604361,0,0.71063656,0.013139452,-0.011202464,0.7033474,0.15642336
27984000,0.003659262,-0.034112677,1.5606008,0,0.71057576,0.013298545,-0.010834426,0.70341164,0.15669797
28008000,0.004655027,-0.033729598,1.5609432,0,0.71045125,0.013519377,-0.010345781,0.7035406,0.15687731
28032000,0.005452687,-0.033326365,1.5611072,0,0.71039087,0.013661705,-0.009920815,0.70360494,0.1570644
28056000,0.006249233,-0.03290663,1.5612737,0,0.71032965,0.013797773,-0.009490335,0.70366985,0.15724313
28080000,0.007081393,-0.032469552,1.5614429,0,0.7102675,0.013940329,-0.009041122,0.70373577,0.15740883
28104000,0.008027889,-0.032070983,1.5617915,0,0.71014094,0.014137728,-0.008564053,0.7038655,0.15770315
28128000,0.008704759,-0.031658806,1.5619599,0,0.7100798,0.014233711,-0.00817827,0.7039298,0.15801004
28152000,0.009401964,-0.031232161,1.5621303,0,0.7100179,0.014331768,-0.00778016,0.70399475,0.15830982
28176000,0.010132514,-0.03079235,1.5623013,0,0.70995575,0.01443696,-0.007365613,0.7040599,0.1586101
28200000,0.010857066,-0.030319829,1.5624723,0,0.70989364,0.014528438,-0.006941544,0.7041248,0.15880218
28224000,0.011695434,-0.029832123,1.5628239,0,0.7097673,0.014655476,-0.006470671,0.70425403,0.15904461
28248000,0.012414731,-0.029337145,1.562995,0,0.7097054,0.014736995,-0.006040436,0.70431846,0.15930556
28272000,0.013029759,-0.02883598,1.5631697,0,0.709643,0.014779276,-0.005644684,0.7043838,0.15956655
28296000,0.0136127,-0.028360946,1.5633448,0,0.70958054,0.014819305,-0.005269495,0.7044487,0.15992264
28320000,0.014261671,-0.027878234,1.5635222,0,0.7095168,0.014879995,-0.004868296,0.70451444,0.16028605
28344000,0.015182341,-0.027388858,1.5638767,0,0.7093888,0.015035033,-0.004367673,0.7046435,0.16067185
28368000,0.015728133,-0.026893744,1.5640528,0,0.7093263,0.015054572,-0.003998402,0.7047081,0.1610766
28392000,0.01636705,-0.026376618,1.5642302,0,0.7092629,0.015099319,-0.003588493,0.7047732,0.16144308
28416000,0.016876241,-0.025855355,1.5644066,0,0.70920086,0.015096531,-0.003222833,0.70483744,0.16182849
28440000,0.017683448,-0.025330797,1.5647603,0,0.7090741,0.01519843,-0.002749621,0.7049648,0.1622389
28464000,0.018268278,-0.0248043,1.5649384,0,0.70901084,0.015220445,-0.002355418,0.70502937,0.16265725
28488000,0.018690431,-0.024276625,1.5651169,0,0.70894873,0.015184311,-0.002018143,0.7050936,0.1630911
28512000,0.019175118,-0.023708208,1.5652952,0,0.70888644,0.015155919,-0.001644381,0.7051578,0.16344397
28536000,0.019691342,-0.023140974,1.5654755,0,0.7088233,0.015139055,-0.00125991,0.7052225,0.16380611
28560000,0.020315735,-0.02257574,1.5658314,0,0.7086973,0.015161233,-0.000836672,0.7053492,0.16418865
28584000,0.020770133,-0.022012282,1.566011,0,0.7086348,0.015123621,-0.000475353,0.7054131,0.16457497
28608000,0.02116651,-0.021400027,1.5661905,0,0.70857316,0.015048178,-0.000117215,0.7054769,0.16486436
28631999,0.0215061,-0.02079283,1.56637,0,0.7085118,0.014954337,0.000219083,0.7055404,0.1651797
28655999,0.021860847,-0.02019205,1.5665493,0,0.70845044,0.014868069,0.000558437,0.7056038,0.16551673
28680000,0.022458496,-0.019597298,1.5669084,0,0.7083237,0.014869811,0.000982681,0.70573044,0.16588251
28704000,0.022861335,-0.018958632,1.5670891,0,0.70826167,0.014787046,0.001352406,0.7057938,0.1661552
28728000,0.023251478,-0.018326212,1.567271,0,0.7081993,0.014701922,0.001715431,0.70585746,0.1664446
28752000,0.02363675,-0.017700754,1.5674535,0,0.7081366,0.014617462,0.002074261,0.70592105,0.16675822
28776000,0.024272049,-0.017082399,1.5678159,0,0.7080086,0.014623735,0.00252013,0.7060479,0.16708027
28800000,0.024704728,-0.016701825,1.5679982,0,0.7079438,0.014642326,0.002808963,0.7061113,0.16802356
28823999,0.025035184,-0.016322967,1.5681788,0,0.70788044,0.014625291,0.003061086,0.70617425,0.16899362
28847999,0.02540665,-0.0159429,1.5683596,0,0.7078166,0.014622297,0.003328117,0.706237,0.1699685
28872000,0.025739469,-0.015561742,1.5685432,0,0.7077521,0.01460519,0.003581904,0.70630074,0.17093588
28896000,0.026270099,-0.015054431,1.5689063,0,0.7076238,0.014613129,0.003951509,0.7064273,0.17157084
28920000,0.026563792,-0.01455156,1.5690899,0,0.7075604,0.014539067,0.004234537,0.7064906,0.17221251
28944000,0.026809353,-0.014052394,1.5692719,0,0.707498,0.014449239,0.004499224,0.7065534,0.17287934
28968000,0.027129764,-0.013554677,1.5694542,0,0.70743483,0.014386348,0.004789827,0.70661587,0.1735668
28992000,0.027365733,-0.013134429,1.569637,0,0.7073716,0.014320905,0.005023182,0.706679,0.17446399
29015999,0.039616253,-0.012716664,1.5790467,0,0.70394206,0.018460982,0.009586392,0.70995283,0.17537886
29039999,0.039811596,-0.01229686,1.579229,0,0.70387936,0.018379858,0.009805203,0.710014,0.17629895
29064000,0.0399887,-0.011877024,1.5794121,0,0.70381665,0.018292263,0.010017546,0.7100755,0.17721681
29088000,0.040279377,-0.011459629,1.579595,0,0.7037529,0.018245459,0.010269335,0.71013635,0.17812227
29112000,0.040710945,-0.010900703,1.5799575,0,0.7036253,0.018196981,0.010622585,0.71025866,0.17864645
29136000,0.040805046,-0.010349962,1.5801393,0,0.70356494,0.018033559,0.010851444,0.7103192,0.17920327
29160000,0.040951822,-0.009803961,1.5803219,0,0.7035037,0.017890302,0.01109732,0.7103797,0.17977007
29184000,0.040973544,-0.009262532,1.580505,0,0.7034433,0.017704636,0.011297144,0.710441,0.18034312
29207999,0.041015055,-0.00870961,1.5806868,0,0.70338327,0.017521817,0.011507994,0.7105016,0.1808898
29231999,0.041277565,-0.008162096,1.5810478,0,0.70325756,0.01741754,0.011796983,0.71062386,0.18145306
29256000,0.04133501,-0.007621861,1.581229,0,0.70319736,0.01724473,0.01200895,0.71068406,0.18204498
29280000,0.04138888,-0.007089125,1.5814114,0,0.70313674,0.017073285,0.012216988,0.71074474,0.18264554
29304000,0.041350387,-0.006639588,1.581594,0,0.70307595,0.016898893,0.012362919,0.7108064,0.18346319
29328000,0.041435655,-0.006191765,1.581778,0,0.70301366,0.016768575,0.012552215,0.71086794,0.1842815
29352000,0.041680582,-0.005746441,1.5821387,0,0.7028872,0.016694099,0.012798835,0.71099025,0.18511122
29376000,0.041661885,-0.005305159,1.5823205,0,0.70282644,0.016529495,0.012948794,0.71105146,0.1859566
29399999,0.04163566,-0.004736017,1.5825032,0,0.70276636,0.016316755,0.013140989,0.7111122,0.18643525
29423999,0.04156638,-0.004173546,1.5826848,0,0.7027069,0.01609123,0.013315477,0.71117276,0.18694358
29448000,0.04174349,-0.003618414,1.5830436,0,0.7025824,0.015953643,0.013576383,0.711294,0.18748519
29472000,0.04167055,-0.00307145,1.5832257,0,0.7025226,0.015732257,0.013744032,0.71135473,0.18802674
29496000,0.041612193,-0.002651194,1.5834067,0,0.702462,0.015561036,0.013872312,0.7114159,0.18890251
29520000,0.041406047,-0.002233429,1.5835885,0,0.70240223,0.015338768,0.013947118,0.7114783,0.18978415
29544000,0.04129795,-0.001819279,1.5837704,0,0.7023415,0.015152202,0.014055499,0.71154004,0.19066046
29568000,0.041346062,-0.00140979,1.5841297,0,0.7022164,0.015020863,0.01421912,0.71166307,0.19153541
29591999,0.041177705,-0.000896759,1.5843111,0,0.70215696,0.014777904,0.014340689,0.71172434,0.19211605
29616000,0.040961187,-0.000391716,1.5844921,0,0.7020979,0.014520859,0.014442266,0.71178585,0.19272149
29640000,0.040735245,0.000106746,1.5846727,0,0.7020389,0.014262832,0.014538129,0.7118473,0.19334331
29664000,0.04072336,0.000596993,1.585031,0,0.70191497,0.014081534,0.014708507,0.7119696,0.19397104
29688000,0.040495586,0.001077945,1.5852113,0,0.7018557,0.013829046,0.01479746,0.71203107,0.19461964
29712000,0.040241435,0.001653831,1.5853916,0,0.7017973,0.013533482,0.014910289,0.71209204,0.19499032
