timestamp,gyro_rad[0],gyro_rad[1],gyro_rad[2],accelerometer_m_s2[0],accelerometer_m_s2[1],accelerometer_m_s2[2]
12000000,0.00321104,-0.003675312,-0.000695232,-0.06265762,0.16750672,-9.994848
12004000,0.004059479,-0.006325307,-0.004387045,-0.10895876,0.18240716,-9.966248
12012000,-0.002043243,-0.003520898,0.002637899,-0.09984762,0.1759088,-9.903284
12016000,0.002884224,-0.007739415,0.006574474,0.003069546,0.1391787,-9.969963
12020000,0.008551162,-0.007570149,0.002420152,-0.046376377,0.1963083,-9.961927
12024000,0.000388367,-0.008120401,-0.002159969,-0.08177395,0.2325839,-9.869204
12028000,0.002040592,-0.00960331,-0.003958677,-0.049985617,0.22323634,-9.897593
12032000,0.002625669,-0.004712899,0.003444341,-0.055251386,0.20213178,-9.946008
12036000,0.00291267,-0.001040818,0.007265624,-0.08335923,0.20554715,-9.922706
12040000,0.004065589,-0.006879319,0.005979314,-0.052093253,0.2451893,-9.902746
12044000,-0.000499591,-0.005688141,0.002101189,-0.014682842,0.19777529,-9.893237
12048000,-0.004534721,-0.00876186,-0.004057464,-0.1016539,0.18612555,-9.928006
12056000,-0.004815579,-0.000547292,-0.000531105,0.001969865,0.13528742,-9.92811
12060000,-0.00484748,-0.006376236,0.002887201,-0.037064794,0.15731701,-9.852687
12064000,-0.002972758,-0.009074601,0.00228631,-0.039890822,0.19622818,-9.885059
12072000,0.002044883,-0.002412629,0.003549525,-0.09835748,0.15634887,-9.940511
12076000,0.001007362,-0.003203547,0.005838975,-0.13358186,0.23316167,-9.943164
12080000,-0.003284542,-7.51E-05,-0.004570384,-0.11976327,0.22728287,-9.95589
12084000,-0.001721089,-0.002628989,-0.002067467,-0.06235916,0.30565223,-9.968235
12088000,-0.000635595,-0.004161602,0.002373659,-0.050532952,0.2647557,-9.948959
12092000,-0.0004798,-0.00160168,-0.0028447,-0.024116782,0.14727911,-9.890848
12096000,0.002050941,-0.005809126,0.004952208,-0.06680956,0.14608945,-9.907981
12100000,0.003728341,-0.005866468,0.004746253,-0.05556584,0.14046904,-9.9752035
12104000,0.002435526,-0.002337959,0.004900152,-0.019559922,0.20683536,-9.977826
12108000,-0.001045116,-0.006638289,0.006078201,-0.03130573,0.21581925,-9.894337
12116000,0.001505178,-0.003180917,-0.002088414,-0.054063816,0.18431629,-9.899211
12124000,-0.003904742,-0.000103999,-0.005430047,-0.06243976,0.14303866,-9.959375
12128000,-0.004521364,-0.002590942,0.003717747,-0.046468463,0.10084242,-9.893584
12136000,-0.003986064,-0.001575522,0.000498611,-0.058228273,0.23410045,-9.907349
12144000,-0.005908747,-0.004404073,0.000877877,0.08381196,0.20023082,-9.977424
12148000,0.001707532,0.000193029,-0.005160369,-0.01727445,0.20000899,-10.033568
12152000,0.000252751,-0.000617758,-0.006786373,-0.0846479,0.21980278,-10.02939
12156000,0.003262212,-0.002200012,-0.003786789,-0.056572113,0.21140842,-9.9487505
12164000,-0.004699104,-0.003939665,0.005844817,-0.007242067,0.21011965,-9.922987
12172000,0.000964656,-0.001462414,0.004013911,-0.07152346,0.14591682,-9.950077
12176000,0.000483841,-0.004234357,-0.002545676,-0.07152346,0.14591682,-9.950077
12184000,-0.000265039,-0.005923797,0.006420424,-0.05246785,0.15571764,-9.901303
12192000,-0.003370926,-0.006973835,0.000978033,-0.07125908,0.121863574,-9.939483
12196000,0.001175632,-0.001300114,-0.002065273,-0.10865984,0.09968037,-9.904372
12200000,0.00195837,-0.000373981,-0.002206008,-0.10757547,0.14211106,-9.874862
12208000,-0.003090507,-0.010567185,-0.001216422,-0.13083139,0.20128791,-9.904132
12212000,0.005286309,-0.006402048,0.005214815,-0.12678726,0.18079196,-9.859068
12216000,0.005162993,-0.001157675,0.004257045,-0.07468492,0.12698914,-9.864059
12220000,0.002062864,-0.002055744,0.00221466,-0.08046148,0.07196598,-9.931681
12224000,0.00122061,-0.006330781,0.000958026,-0.11436525,0.14403528,-9.953218
12228000,-0.001643029,-0.007302742,-0.007427075,-0.12280031,0.15233605,-9.9246235
12232000,-0.005361535,0.002220266,-0.006132847,-0.09738813,0.0957772,-9.986804
12236000,-0.002792917,-0.00062949,-0.003595085,-0.10191224,0.10149318,-9.973596
12240000,-0.002324217,-0.009311156,-0.003000218,-0.12865372,0.10179383,-9.88726
12244000,-0.003360733,-0.004155277,0.002869167,-0.13074504,0.111721724,-9.914053
12252000,-0.006131704,-0.007860192,-0.001889079,-0.14623177,0.18286876,-9.976091
12256000,-0.007091814,-0.007950689,-0.001256893,-0.19470695,0.25084198,-9.947273
12260000,-0.002388874,-0.003052298,0.001393192,-0.2125769,0.2021288,-9.887755
12264000,0.003152382,-0.000337705,0.001126306,-0.19708753,0.23525487,-9.869848
12272000,-0.001944402,-0.007838055,0.002009712,-0.06779561,0.20554586,-9.849448
12276000,-0.00255017,-0.010741241,0.00030795,-0.13264759,0.15466517,-9.891447
12280000,0.000926399,-0.010042656,-0.003039797,-0.16380788,0.11441998,-9.880866
12288000,0.001968942,-0.012313273,0.005088665,-0.09362151,0.19471845,-9.876562
12296000,-0.000193885,-0.007888418,0.002102427,-0.15711688,0.15962584,-9.930504
12300000,-0.00760502,-0.00522454,0.002169292,-0.11626195,0.13322863,-9.972107
12304000,-0.005143029,0.000249424,0.005612394,-0.131073,0.18754315,-10.049692
12312000,-0.00279883,-0.003170188,-0.000212519,-0.13200039,0.21285649,-9.887214
12316000,-0.004259372,-0.002373477,-0.007012472,-0.09902687,0.24347235,-9.877063
12320000,-0.002185119,-0.004272136,-0.009954153,-0.076636694,0.20451795,-9.929926
12324000,-0.003023562,-0.012224068,-0.001631113,-0.016931752,0.16165584,-10.001618
12328000,-0.003919628,-0.005247984,-0.000418252,-0.03247089,0.19554324,-10.012314
12332000,-0.004320078,0.001711802,0.002927297,1.595166,0.180751,-9.954898
12336000,0.001299833,-0.001211583,0.005203767,8.738535,0.16539024,-9.837708
12340000,0.004031479,-0.001065777,0.004460283,19.286892,0.18893903,-9.70323
12344000,-0.002096989,0.000367219,0.003897571,28.465172,0.24260549,-9.576887
12348000,-0.009500454,-0.003478589,0.00054476,35.83112,0.20623454,-9.485422
12352000,-0.004227737,-0.007046587,-0.000101418,41.542484,0.16910096,-9.440674
12356000,-0.000760614,-0.009133233,0.0026736,45.813034,0.1463598,-9.389025
12360000,-0.000986832,-0.010052537,0.002715937,48.86485,0.16965014,-9.355233
12364000,0.002447177,-0.004418239,-0.001099898,50.782467,0.23003691,-9.331971
12372000,0.002617399,-0.005724901,0.001451879,52.799908,0.23325914,-9.274528
12376000,0.004513656,-0.008084799,-0.000896213,53.30317,0.1890755,-9.314615
12380000,0.005955327,-0.003712884,-0.002455355,53.483303,0.13106497,-9.287024
12384000,-0.00228266,-0.004481058,0.008014433,53.398373,0.20198199,-9.327442
12388000,-0.003547415,-0.004532238,0.011140228,53.222885,0.19359812,-9.365116
12392000,0.001622255,-0.00116923,0.001769463,52.88509,0.18085577,-9.391248
12396000,0.002633441,-0.004051462,0.003397815,52.59422,0.20149764,-9.369242
12400000,-0.001034536,-0.011097625,-0.001522456,52.183147,0.15845312,-9.347073
12404000,-0.005343013,-0.00907587,-0.003496851,51.642925,0.15836683,-9.337708
12412000,-0.002841247,-0.002610462,-0.000954209,50.55008,0.19895178,-9.378414
12420000,0.00308304,-0.007755722,0.007360405,49.658604,0.27309653,-9.303398
12424000,-0.000732233,-0.010832197,-0.000108553,49.185444,0.1344505,-9.355495
12428000,-0.00375754,-0.004086112,-0.003799992,48.62126,0.079120226,-9.391366
12432000,-0.000121176,-0.00044613,0.001091256,48.047096,0.11879274,-9.388401
12440000,-0.000307896,-0.005446807,-0.000431504,47.29428,0.120340854,-9.40266
12444000,0.008176618,-0.007773707,-0.004028695,46.83847,0.20520197,-9.418119
12452000,0.002777951,-0.005930189,-0.001366928,45.654167,0.12976964,-9.436269
12456000,-0.000599033,-0.009405102,0.003528081,45.342255,0.20399506,-9.451244
12460000,-0.002258636,-0.004403602,0.001744152,45.00838,0.1652302,-9.468133
12464000,0.000328578,-0.005329341,-0.005890568,44.61707,0.18437694,-9.444322
12468000,-0.000712038,-0.00843634,-0.004110215,44.128483,0.21187155,-9.419253
12472000,0.001275016,-0.00712356,-0.001493423,43.663635,0.1760558,-9.469549
12480000,-0.000815556,-0.003224355,0.000661419,42.89619,0.19737974,-9.556264
12484000,-0.004351438,-0.006872788,-0.000788639,42.538574,0.18374828,-9.511693
12492000,0.002811847,-0.00354578,-0.001868279,41.594612,0.17356624,-9.424908
12496000,-0.003915798,-0.006435048,-0.002875725,41.2261,0.15622623,-9.46645
12500000,-0.000490493,-0.004586087,0.001876249,40.871582,0.13322166,-9.50076
12504000,-0.000533085,-0.002625744,0.005627544,40.589706,0.15124209,-9.465277
12512000,-0.003565172,-0.00255534,-0.000830717,39.61891,0.11065031,-9.409682
12516000,-0.004698781,-0.003753142,0.000857749,39.61891,0.11065031,-9.409682
12524000,-0.003137958,-0.001978526,-0.002368773,38.57428,0.1596906,-9.456475
12528000,-0.005357614,0.002723135,-0.005646916,38.21236,0.116161995,-9.501294
12536000,-0.002662689,-0.009054772,-0.002446544,37.41802,0.21871398,-9.498423
12540000,0.000943308,-0.009294118,0.001318039,37.12358,0.20092058,-9.486457
12548000,-0.008439158,0.001257743,4.65E-05,36.346077,0.17699833,-9.479413
12551999,-0.008940158,-0.000773591,0.001011354,35.870552,0.16836484,-9.513822
12556000,-0.006286479,-0.00673081,0.004215999,35.464016,0.19676778,-9.493969
12560000,-0.00276475,-0.007061993,0.005751445,35.232136,0.18702006,-9.50948
12568000,-0.00615846,-0.004083762,-0.001743741,34.687706,0.0961348,-9.533995
12572000,-0.003396635,-0.007497425,-0.00029252,34.308643,0.15831973,-9.575844
12580000,0.000279769,-0.009111907,0.002171461,33.515636,0.2109044,-9.513387
12583999,-0.004784005,-0.002917138,0.00076314,33.32306,0.30814818,-9.57809
12588000,-0.005863502,-0.000687612,0.004335625,33.05704,0.19151318,-9.609867
12592000,-0.006156361,0.000583499,0.00191014,32.6446,0.16392915,-9.529095
12595999,-0.003454861,0.002022882,0.005704729,32.286964,0.19076696,-9.493753
12600000,-0.000917513,-0.006713504,0.005789394,32.093464,0.1507776,-9.493637
12604000,-0.002215959,-0.009911041,0.004772958,31.902864,0.1353641,-9.473551
12612000,-0.001014326,-0.003494298,0.005255491,31.208494,0.18310721,-9.551414
12620000,-0.00298408,-0.008607542,0.000922077,30.72015,0.12791516,-9.499538
12624000,-0.002180665,-0.006944461,0.005077669,30.591763,0.15903062,-9.5682335
12627999,0.005541086,-0.004338804,0.00704245,30.38536,0.17640026,-9.58717
12632000,0.000484415,-0.000600831,0.008861566,30.036983,0.10989965,-9.535738
12636000,-0.00814313,-0.00486498,0.013058897,29.687119,0.016892945,-9.4769
12640000,-0.00780293,-0.009540896,0.014612529,29.412558,-0.017733302,-9.520521
12644000,0.00064941,-0.002831797,0.015036149,29.266336,-0.016577221,-9.580895
12647999,0.003315053,0.001081763,0.015461911,29.035406,-0.01620466,-9.508607
12652000,-0.00183173,-0.001301659,0.018625224,28.825254,0.004147945,-9.510872
12656000,0.000299699,0.001006821,0.01801214,28.542572,-0.021870436,-9.655519
12659999,-0.003560494,-0.002587629,0.021856865,28.265377,-0.049621057,-9.676601
12668000,-0.005009167,-0.002567428,0.031691927,27.861877,-0.062724695,-9.62125
12672000,-0.004695911,0.001445923,0.038270295,27.52942,-0.06257326,-9.658802
12679999,0.00021409,-0.007057963,0.049461547,27.044212,-0.16646081,-9.58213
12684000,0.004469304,-0.006064144,0.05728018,26.88252,-0.14285058,-9.616348
12688000,0.001117745,-0.003757496,0.0658709,26.691559,-0.20249847,-9.673524
12691999,-0.002715767,-0.001355374,0.072227664,26.334656,-0.2730223,-9.6355715
12700000,-0.002538586,-0.002766768,0.085653864,25.840277,-0.30190542,-9.639464
12704000,0.002890911,-0.008150021,0.095147006,25.71402,-0.2909678,-9.601696
12708000,0.001448953,-0.009145525,0.09523476,25.562792,-0.26617366,-9.597883
12711999,-0.003793536,0.000255814,0.09596798,25.306465,-0.28536418,-9.619207
12716000,-0.004466654,-0.001193942,0.108883604,25.0199,-0.33850688,-9.630182
12720000,-0.000244063,-0.006207775,0.11319188,24.81298,-0.26570448,-9.675239
12723999,0.001628302,-0.000914273,0.114938356,24.660109,-0.07498008,-9.74078
12728000,0.000481237,6.34E-05,0.12176322,24.512594,-0.07133128,-9.754777
12732000,0.003096861,-0.00069752,0.124780186,24.288164,-0.13891616,-9.740856
12736000,0.006702113,0.000937845,0.13411039,23.976244,-0.122693606,-9.773989
12740000,0.008681921,-0.004100229,0.13648017,23.761757,-0.043411486,-9.79924
12743999,0.005704667,-0.015181297,0.13205007,23.829004,-0.25261715,-10.414433
12748000,0.017173909,-0.029265946,0.14453056,23.797962,-0.4593286,-10.990492
12752000,0.02727674,-0.046588503,0.15915245,23.568388,-0.3987367,-11.042751
12755999,0.03198843,-0.06172767,0.1679421,23.359474,-0.4621457,-11.079157
12760000,0.04324468,-0.07048183,0.18156612,23.140402,-0.44499084,-11.0577
12764000,0.048449606,-0.07927251,0.19469595,22.843006,-0.4149596,-11.092998
12768000,0.055761073,-0.08819358,0.2042047,22.683416,-0.35521334,-11.057241
12772000,0.070037544,-0.108665235,0.21004702,22.609167,-0.23356478,-11.035687
12775999,0.079238825,-0.13252895,0.21285026,22.3403,-0.2939275,-11.023447
12780000,0.09135337,-0.14203994,0.22137149,22.036882,-0.30510995,-11.014763
12787999,0.10593121,-0.16361734,0.23214783,21.453272,-0.2325839,-11.012802
12792000,0.11915282,-0.17624678,0.24129236,21.274975,-0.23756334,-10.886688
12800000,0.12880774,-0.18182383,0.24711426,20.853132,-0.30051708,-10.413811
12807999,0.14937508,-0.19159985,0.25544927,20.35678,-0.257053,-10.516449
12812000,0.16121334,-0.19685306,0.26237363,20.252964,-0.25268757,-10.3906555
12816000,0.16219814,-0.20607302,0.2699175,19.93269,-0.32176095,-10.376351
12824000,0.17325701,-0.20979337,0.26979655,19.29409,-0.33566654,-10.476879
12832000,0.17266446,-0.2085677,0.28202,19.035633,-0.3037076,-10.328287
12836000,0.18088135,-0.20449764,0.27968428,18.657337,-0.3773233,-10.294599
12839999,0.1798887,-0.20704052,0.28706786,18.26746,-0.43273497,-10.277681
12844000,0.1822714,-0.20905085,0.28710768,18.03114,-0.4658493,-10.141762
12851999,0.19151011,-0.2107324,0.28428242,17.8241,-0.44480562,-10.072269
12860000,0.20809999,-0.20935836,0.2826328,17.194786,-0.48440316,-10.151871
12864000,0.21169147,-0.20988551,0.2792585,16.9732,-0.47540122,-10.004008
12868000,0.20777225,-0.20277347,0.28069088,16.832186,-0.46641797,-9.937062
12876000,0.2064869,-0.20034386,0.26819453,16.316872,-0.5655896,-9.879911
12880000,0.20639195,-0.18865018,0.2705303,16.0714,-0.50970167,-9.926097
12888000,0.21155171,-0.17475975,0.266747,15.736676,-0.534128,-9.816187
12892000,0.20660302,-0.16259992,0.26282644,15.545826,-0.47507328,-9.720985
12896000,0.20618267,-0.1598947,0.26219705,15.353543,-0.4821758,-9.650579
12900000,0.2111439,-0.16390873,0.25612962,15.081601,-0.5737029,-9.569863
12903999,0.20974934,-0.14987704,0.25590208,14.93349,-0.5441615,-9.565007
12908000,0.21272787,-0.13908753,0.25610855,14.766326,-0.5102174,-9.694586
12915999,0.21464947,-0.11572255,0.23496643,14.53546,-0.53907174,-9.536799
12920000,0.21112506,-0.106016725,0.23557928,14.312569,-0.51848453,-9.569906
12924000,0.21098971,-0.09395801,0.23135617,14.237032,-0.52291703,-9.5284815
12932000,0.21772721,-0.074578844,0.21618351,13.7862215,-0.57527727,-9.552569
12935999,0.21041618,-0.06701747,0.20968065,13.752255,-0.5218832,-9.600807
12940000,0.21024111,-0.05017541,0.20066744,13.585611,-0.42985687,-9.628623
12944000,0.21583183,-0.037681155,0.19204307,13.421103,-0.4466703,-9.554988
12952000,0.22133559,-0.02048842,0.17805311,13.037864,-0.41173008,-9.664913
12956000,0.22114788,-0.0083087,0.16983667,13.035556,-0.33849645,-9.640029
12960000,0.2256037,-0.001049375,0.15811066,12.95151,-0.36615357,-9.730195
12967999,0.22782028,0.019235421,0.1418284,12.480614,-0.43537945,-9.731787
12972000,0.21676777,0.0247096,0.1301617,12.50346,-0.34949118,-9.801878
12976000,0.21656547,0.026877178,0.117483556,12.494033,-0.32758033,-9.756915
12980000,0.22414222,0.033242557,0.10362596,12.304233,-0.3529383,-9.878404
12984000,0.22707038,0.04332227,0.08885205,12.128655,-0.36859915,-9.893688
12988000,0.22936557,0.046292074,0.07526457,11.969302,-0.3175481,-9.839081
12992000,0.2266405,0.051239677,0.06133435,11.937877,-0.24810275,-9.939895
12999999,0.2397895,0.068824634,0.02863905,11.737598,-0.1697185,-9.900808
13004000,0.24185602,0.070200376,0.017500041,11.63575,-0.17044868,-9.995284
13008000,0.2406651,0.07135559,0.010335825,11.575461,-0.17098385,-10.003131
13012000,0.24067661,0.07335865,-0.006940291,11.525794,-0.14959167,-9.940883
13016000,0.24463291,0.07594268,-0.03144459,11.4562435,-0.013592822,-9.894846
13024000,0.25041756,0.07488,-0.05935775,11.295912,-0.14054632,-10.105815
13031999,0.25293788,0.08007675,-0.099119194,11.199738,-0.052888617,-10.17059
13036000,0.26153666,0.07766159,-0.12052791,11.195831,0.049713373,-10.198105
13040000,0.2651355,0.07719311,-0.129351,11.120969,0.108786955,-10.184803
13044000,0.26662782,0.08103981,-0.14449055,10.96447,0.13329746,-10.2199335
13048000,0.26825398,0.08195513,-0.1568036,10.926105,0.14630811,-10.281303
13052000,0.2707853,0.0771602,-0.17543083,10.890645,0.27693266,-10.310496
13056000,0.26993337,0.067966975,-0.19622658,10.844356,0.34137917,-10.33765
13060000,0.27186567,0.064804934,-0.21130127,10.800782,0.36596066,-10.30395
13063999,0.27981645,0.0630695,-0.23092063,10.696306,0.4221893,-10.336247
13068000,0.2812062,0.058393937,-0.24299712,10.606385,0.3799613,-10.38821
13072000,0.27909487,0.049280193,-0.2535959,10.546983,0.37546307,-10.378988
13080000,0.27658737,0.044145092,-0.27803284,10.407584,0.41291562,-10.262349
13083999,0.2764613,0.037718587,-0.28617853,10.294384,0.42973804,-10.371641
13088000,0.2793546,0.031249033,-0.30551282,10.186081,0.5190771,-10.4244175
13095999,0.27485734,0.019364787,-0.32298788,9.9847145,0.34856248,-10.342068
13100000,0.27884436,0.014005838,-0.32750705,9.889961,0.3986493,-10.278427
13104000,0.28172803,0.013071867,-0.33705404,9.696394,0.3823347,-10.335682
13112000,0.28369159,-0.007191081,-0.35305774,9.469914,0.38143662,-10.293022
13115999,0.28592476,-0.008797923,-0.36380222,9.404501,0.2967457,-10.214762
13120000,0.28517288,-0.005691459,-0.3716303,9.252059,0.19245376,-10.259149
13124000,0.28539106,-0.009876298,-0.37518764,9.080028,0.13250583,-10.302242
13127999,0.28662077,-0.022106329,-0.38360807,8.949837,0.103177324,-10.302467
13136000,0.28562602,-0.025097342,-0.3873388,8.674844,-0.098641634,-10.209082
13140000,0.28385252,-0.026319636,-0.38983333,8.603779,-0.20823264,-10.258947
13144000,0.27888972,-0.03460149,-0.39501217,8.562042,-0.20922053,-10.24308
13147999,0.28370425,-0.045263227,-0.3963106,8.473497,-0.18788925,-10.147683
13152000,0.2800247,-0.050170813,-0.3925902,8.1626,-0.33373308,-10.131605
13156000,0.28029802,-0.058997974,-0.39545968,8.1626,-0.33373308,-10.131605
13159999,0.2821983,-0.06761294,-0.39574507,8.032724,-0.46528786,-10.03764
13164000,0.28019318,-0.0640579,-0.39447194,7.897515,-0.46541572,-9.996376
13172000,0.27398205,-0.071784765,-0.40795407,7.6353064,-0.7197445,-10.007021
13176000,0.27031997,-0.07758069,-0.39788952,7.5286517,-0.78620666,-9.93806
13184000,0.27074426,-0.076054044,-0.3898467,7.364971,-0.85778356,-9.856934
13188000,0.26347345,-0.08145205,-0.38991377,7.162179,-1.0031865,-9.776393
13191999,0.258304,-0.0816843,-0.38700685,6.95583,-1.174749,-9.81972
13200000,0.25204098,-0.07812077,-0.37148058,6.9263096,-1.1298395,-9.651757
13204000,0.25115964,-0.07598488,-0.36833096,6.798156,-1.2309483,-9.607187
13208000,0.2549272,-0.0745238,-0.36448056,6.570644,-1.3959556,-9.58631
13216000,0.24528374,-0.079247154,-0.35465497,6.3665056,-1.4382225,-9.672257
13223999,0.24024889,-0.06523466,-0.34624836,6.1758537,-1.5532314,-9.63603
13228000,0.23408417,-0.067992344,-0.33809245,6.002789,-1.6513085,-9.611382
13232000,0.23491399,-0.06806725,-0.3274191,6.027928,-1.7263132,-9.549422
13236000,0.23955183,-0.06344497,-0.318277,6.086067,-1.6567261,-9.459151
13240000,0.23762713,-0.060034815,-0.31214246,5.9624043,-1.6151426,-9.413013
13243999,0.23029345,-0.053343378,-0.30423072,5.7368493,-1.754754,-9.547995
13248000,0.22559513,-0.048744712,-0.29154,5.7344627,-1.8258163,-9.535874
13255999,0.22054754,-0.03832292,-0.27471724,5.5749297,-1.8279315,-9.391682
13260000,0.22480346,-0.031169089,-0.26615542,5.484317,-1.8442378,-9.353563
13268000,0.21947804,-0.01811495,-0.24867983,5.332858,-1.9577875,-9.538073
13272000,0.21197172,-0.014200514,-0.23885989,5.2551455,-1.9150987,-9.435793
13280000,0.20804909,-0.006982185,-0.21349432,5.1918993,-1.8762099,-9.439688
13288000,0.21024416,0.00252736,-0.19536474,5.1387796,-1.9388597,-9.445421
13296000,0.20035684,0.010220176,-0.17537622,5.0050178,-1.9940318,-9.573532
13300000,0.19533645,0.01789252,-0.1675941,5.0537367,-1.939713,-9.525208
13304000,0.20010486,0.02485385,-0.15081476,5.1298966,-1.8618114,-9.497517
13308000,0.19877946,0.026230227,-0.14190683,5.1348467,-1.7174555,-9.523613
13312000,0.19075333,0.028143164,-0.1338913,5.00775,-1.6002142,-9.504577
13320000,0.19763122,0.043238882,-0.11156283,4.970775,-1.6301645,-9.547096
13324000,0.19357121,0.048210397,-0.10222129,4.9728775,-1.566201,-9.488289
13328000,0.19609432,0.0486794,-0.08861248,4.951713,-1.494345,-9.535984
13332000,0.1963928,0.050636087,-0.08051689,5.01068,-1.435918,-9.60677
13336000,0.1911965,0.055184655,-0.070336774,5.014444,-1.3593329,-9.697054
13340000,0.19234324,0.06389028,-0.057929378,5.004795,-1.220363,-9.708411
13348000,0.19899727,0.07311287,-0.035724413,5.057181,-0.9404205,-9.794018
13356000,0.1986969,0.080294594,-0.009611296,4.9564843,-0.93489474,-9.838288
13360000,0.19923003,0.08153864,0.003835735,5.0056443,-0.8634058,-9.825537
13364000,0.19492532,0.08960086,0.004479741,5.0708346,-0.6825741,-9.857962
13368000,0.19699048,0.092426315,0.011443109,5.0994267,-0.5984912,-9.967893
13376000,0.19633378,0.089180544,0.0434376,5.0422335,-0.3942241,-10.0514555
13380000,0.19684109,0.09305956,0.056233265,4.96093,-0.35899222,-10.184041
13388000,0.19959104,0.09748285,0.080482945,4.930741,-0.44885674,-10.334045
13392000,0.20037931,0.09769638,0.09116963,4.865382,-0.41401684,-10.45641
13396000,0.2024258,0.098538704,0.09389801,4.736701,-0.35476714,-10.515289
13400000,0.20053236,0.09791205,0.108899795,4.6407046,-0.32075897,-10.551832
13408000,0.19987081,0.0934919,0.1260481,4.5489464,-0.33731776,-10.829455
13412000,0.19900742,0.10459449,0.1345011,4.477566,-0.37150168,-10.92509
13416000,0.19889238,0.111612074,0.14071059,4.4475307,-0.38315353,-10.99987
13424000,0.19489183,0.11089493,0.16774668,4.2898893,-0.42036295,-11.179064
13432000,0.19853224,0.11553291,0.17979641,4.17402,-0.3512997,-11.249352
13436000,0.19710769,0.11813,0.18940935,4.1134768,-0.3435946,-11.361562
13440000,0.1950006,0.11540437,0.19414854,4.030442,-0.30405563,-11.444495
13448000,0.19185632,0.12302078,0.209884,3.9589596,-0.31364706,-11.562624
13452000,0.19695617,0.12515181,0.21736243,3.9041617,-0.2768402,-11.613358
13456000,0.19361909,0.12826823,0.21474993,3.8193965,-0.23658143,-11.770514
13464000,0.19119488,0.11850787,0.22532733,3.7214673,-0.212364,-11.901071
13468000,0.1922479,0.12164069,0.22787382,3.67942,-0.184784,-11.911162
13472000,0.19258064,0.12976168,0.23419264,3.6271126,-0.17156146,-12.070937
13476000,0.19170374,0.13425712,0.23933885,3.6448975,-0.14659613,-12.196945
13484000,0.18430683,0.12887119,0.23756847,3.566421,-0.15807697,-12.145484
13488000,0.18078741,0.13698918,0.24468574,3.5193088,-0.0785563,-12.347863
13496000,0.1819675,0.13929224,0.25451463,3.360238,-0.05884421,-12.449415
13500000,0.18713687,0.14866862,0.2507879,3.372603,-0.074178204,-12.537691
13504000,0.18571305,0.15057592,0.24542172,3.2974975,0.005962104,-12.600184
13508000,0.17620265,0.14654131,0.24642545,3.2421358,0.019139314,-12.705437
13512000,0.17485668,0.1463784,0.24554704,3.1521747,0.004894373,-12.771196
13516000,0.16788435,0.14754094,0.24836978,3.1380906,0.047375206,-12.753891
13520000,0.16468665,0.15043108,0.25066072,3.198138,0.038440447,-12.800995
13524000,0.17435838,0.14985782,0.24787633,3.1457322,-0.003946475,-12.890958
13528000,0.17681582,0.15362766,0.24526261,3.0366423,0.025852986,-12.950397
13532000,0.17147237,0.15761515,0.24558732,2.991842,0.04156874,-13.02822
13536000,0.16996616,0.15390392,0.24375732,2.9422326,0.12965305,-13.013411
13540000,0.17454748,0.15792592,0.24309064,2.8647082,0.13483748,-13.001182
13544000,0.1726398,0.16294307,0.24258298,2.9029694,0.08846076,-13.107992
13552000,0.16962415,0.16288264,0.23697473,2.809587,0.18272175,-13.198152
13560000,0.15079646,0.16269751,0.22675912,2.7350328,0.23511182,-13.406464
13564000,0.15385957,0.16033193,0.22392844,2.6236355,0.20553166,-13.429454
13568000,0.1588529,0.16266893,0.21707946,2.6483462,0.24718586,-13.445841
13572000,0.1545825,0.16678448,0.21060346,2.5956674,0.2799984,-13.439345
13576000,0.15500116,0.17219497,0.20734625,2.448038,0.25011137,-13.488879
13584000,0.15444104,0.16723882,0.19842382,2.509153,0.28496674,-13.549861
13588000,0.15603183,0.1701198,0.18944035,2.4835098,0.20474766,-13.604694
13592000,0.1487679,0.17258416,0.18463299,2.3727844,0.14377166,-13.656657
13596000,0.14750676,0.17804202,0.18119487,2.3056335,0.14112696,-13.643579
13600000,0.14639744,0.17491938,0.17757052,2.3392704,0.2242087,-13.647517
13604000,0.14271818,0.17292766,0.1748151,2.2858875,0.2719401,-13.686896
13608000,0.13988602,0.17208259,0.16433637,2.2330492,0.25280672,-13.617812
13616000,0.13827801,0.16485895,0.14969216,2.2738905,0.25132412,-13.773665
13620000,0.13440743,0.1704629,0.14051713,2.1969733,0.2474114,-13.840939
13624000,0.13246663,0.17035721,0.13215676,2.161379,0.33345023,-13.909259
13632000,0.12790933,0.16903149,0.119459674,2.133339,0.25093862,-13.83081
13636000,0.13168448,0.17399137,0.1136429,2.0724807,0.24964437,-13.878379
13640000,0.13076474,0.17249765,0.110713534,1.9828647,0.25327817,-13.928122
13648000,0.12782755,0.17537625,0.08890731,2.027901,0.27663288,-13.798205
13652000,0.12343521,0.17263825,0.084972225,1.9518867,0.18320972,-13.866147
13660000,0.11890628,0.17197372,0.07673011,1.8755274,0.28616554,-13.822536
13668000,0.11798793,0.17639077,0.06738099,1.9436604,0.2351272,-13.874965
13676000,0.11609205,0.16089237,0.050141983,1.8700492,0.22659135,-13.991337
13684000,0.106765874,0.16829872,0.043525007,1.8850048,0.2756104,-13.800936
13688000,0.10459481,0.1781735,0.040592887,1.8374996,0.3070844,-13.790565
13696000,0.10907647,0.15836518,0.03089828,1.8099653,0.20699178,-13.867429
13704000,0.09855545,0.16360974,0.013561684,1.832728,0.21615982,-13.790594
13708000,0.10245885,0.15648124,0.007055135,1.7843131,0.20115562,-13.720941
13716000,0.100949585,0.1541518,-0.001717024,1.7209564,0.09782237,-13.779283
13720000,0.0951897,0.16034664,-0.002417279,1.7805879,0.13853732,-13.77604
13724000,0.09026017,0.15663199,-0.002949938,1.6943045,0.16087754,-13.734927
13728000,0.090202585,0.15196453,-0.00636499,1.6311986,0.2287585,-13.741432
13732000,0.08938815,0.14864996,-0.013531383,1.6401048,0.2522527,-13.748488
13736000,0.08879436,0.1489686,-0.019037252,1.6276116,0.21531232,-13.721684
13740000,0.09166243,0.15358183,-0.019795857,1.6023653,0.14635631,-13.719159
13744000,0.09266418,0.1479706,-0.022006482,1.5643204,0.14040048,-13.650702
13748000,0.08550952,0.14490224,-0.029646518,1.4890598,0.16434835,-13.580666
13752000,0.08479731,0.14684226,-0.03384015,1.5189185,0.08392627,-13.5674925
13756000,0.08657235,0.14330105,-0.030896109,1.5699358,0.02027026,-13.536832
13760000,0.083018035,0.14522089,-0.02796592,1.487859,0.03321791,-13.544502
13768000,0.08411448,0.1391345,-0.040259734,1.5454054,0.022026215,-13.519682
13772000,0.08274034,0.13503678,-0.04160673,1.5445924,-0.004491799,-13.437484
13776000,0.08008148,0.13546441,-0.04047439,1.4806956,0.052899376,-13.427397
13780000,0.077831924,0.13613749,-0.043968175,1.4307896,-0.068013616,-13.404277
13788000,0.0769861,0.13833769,-0.0466355,1.4806912,0.004877435,-13.380898
13792000,0.079680055,0.13697314,-0.041566137,1.4543043,-0.0668484,-13.372229
13796000,0.081576824,0.13422877,-0.04778019,1.4602424,-0.099968575,-13.302128
13804000,0.0782871,0.13211711,-0.04483646,1.4115719,-0.077310935,-13.166472
13808000,0.06977357,0.1263247,-0.04382055,1.457008,-0.11351717,-13.174506
13812000,0.07020188,0.12511687,-0.04726618,1.4934043,-0.17879732,-13.14608
13816000,0.07288113,0.13131553,-0.047191832,1.4411707,-0.20529267,-13.1550045
13820000,0.06963089,0.1301926,-0.041237947,1.391065,-0.17341772,-13.161748
13824000,0.07133418,0.13333704,-0.04116861,1.3276771,-0.16267416,-13.086565
13828000,0.070674956,0.13155706,-0.040970955,1.2922558,-0.20428407,-13.008058
13836000,0.06794286,0.12432683,-0.03892332,1.2416766,-0.17597699,-13.114037
13840000,0.069729276,0.12216537,-0.039041054,1.2798325,-0.12859699,-13.037486
13844000,0.07058823,0.120902285,-0.040303145,1.3512824,-0.16487275,-13.050433
13848000,0.07054552,0.11588434,-0.03531048,1.3206233,-0.2232542,-12.914285
13852000,0.06815395,0.117129676,-0.026803983,1.3402034,-0.24575074,-12.818247
13856000,0.06297749,0.11193729,-0.026860097,1.2965554,-0.24530941,-12.905171
13860000,0.056339197,0.11622642,-0.027343638,1.2682649,-0.25994676,-12.893469
13868000,0.05746459,0.11093249,-0.011877029,1.2375973,-0.27100897,-12.820691
13872000,0.054481618,0.109367535,-0.011977488,1.3544029,-0.24882914,-12.763508
13876000,0.056935284,0.11331933,-0.012324966,1.2670641,-0.30743945,-12.785263
13880000,0.061559606,0.11956494,-0.014156087,1.177482,-0.28314805,-12.75287
13888000,0.06305951,0.11671631,-0.008088072,1.1729542,-0.30899543,-12.729784
13892000,0.05761796,0.12005178,-0.000425878,1.132295,-0.3325441,-12.706853
13896000,0.052853078,0.12007438,0.002995423,1.1604507,-0.4353336,-12.710862
13900000,0.050821755,0.11016089,0.007413684,1.1604507,-0.4353336,-12.710862
13908000,0.059894808,0.11323492,0.015165455,1.0999155,-0.26705062,-12.683701
13912000,0.055899836,0.115021676,0.017331494,1.12358,-0.28767595,-12.668312
13916000,0.055541188,0.11480947,0.013556915,1.122736,-0.3217861,-12.717166
13920000,0.053996515,0.120365754,0.020562515,1.1214402,-0.33178663,-12.726106
13928000,0.052030493,0.12402899,0.019817334,1.1191461,-0.34607053,-12.628103
13932000,0.052870385,0.12318993,0.027774543,1.1519302,-0.3207398,-12.629099
13936000,0.05087101,0.122952156,0.037576437,1.122443,-0.28684852,-12.65099
13940000,0.04951524,0.12744498,0.043059003,1.0963876,-0.28017327,-12.711173
13944000,0.050568,0.12762484,0.042898256,1.051255,-0.3995247,-12.723529
13948000,0.047969542,0.12242666,0.050136574,1.0883703,-0.37722516,-12.590016
13956000,0.046448193,0.12741835,0.059367966,1.0782282,-0.39192683,-12.641628
13960000,0.047800247,0.12802066,0.06395114,0.99981683,-0.43726248,-12.7335
13964000,0.046792507,0.13029163,0.064502284,0.99084854,-0.35561407,-12.718864
13968000,0.043820925,0.12599678,0.06816232,1.022526,-0.30846694,-12.633831
13972000,0.04888019,0.12220422,0.073164545,0.99953115,-0.2600572,-12.641799
13976000,0.05453065,0.12559888,0.07439651,0.95620483,-0.2512581,-12.639062
13980000,0.050026283,0.12815285,0.0737412,0.9571659,-0.2724526,-12.585244
13984000,0.047017552,0.13099274,0.07509954,0.98788506,-0.31873658,-12.592934
13992000,0.045232948,0.13235791,0.083253115,0.96931857,-0.38853976,-12.708747
13996000,0.048434675,0.12806475,0.08693314,0.9006326,-0.38740438,-12.671448
14004000,0.041072365,0.12706329,0.09404891,0.9168103,-0.27708772,-12.694608
14008000,0.038828913,0.12762311,0.09463472,0.89287883,-0.33399293,-12.680161
14016000,0.041093994,0.13322589,0.102600835,0.94399625,-0.31392977,-12.713139
14024000,0.051431246,0.13788107,0.1010907,0.8871538,-0.2604747,-12.857177
14028000,0.044757236,0.13523236,0.093730405,0.97472847,-0.34001893,-12.924151
14036000,0.05459303,0.14028846,0.107404135,0.9711482,-0.25627545,-12.891543
14040000,0.051186904,0.13748708,0.108872086,0.93683857,-0.2897416,-12.814967
14044000,0.048948787,0.13699152,0.11228231,0.8883526,-0.31773144,-12.761904
14052000,0.047242843,0.14473021,0.111601256,0.89817363,-0.30988288,-12.929248
14056000,0.04643659,0.14509675,0.12042885,0.89737064,-0.25453937,-12.957456
14060000,0.04746037,0.13941725,0.11634822,0.8942149,-0.26393425,-12.947208
14064000,0.048772205,0.14023733,0.11429833,0.89363414,-0.31101656,-12.92066
14068000,0.043882884,0.14665596,0.11731687,0.9034917,-0.31637794,-12.907126
14076000,0.043998457,0.15356265,0.11125542,0.7903184,-0.25028592,-12.963193
14084000,0.0401452,0.14598101,0.11262601,0.8714098,-0.2627882,-13.050006
14088000,0.04263381,0.14732462,0.11261774,0.882547,-0.26230755,-13.058192
14092000,0.042209435,0.15076451,0.11306127,0.8182248,-0.2255121,-13.012435
14096000,0.0460833,0.15320289,0.11677727,0.83064187,-0.20095308,-13.083823
14100000,0.04536964,0.15498021,0.119289346,0.8790827,-0.2375803,-13.140082
14108000,0.050246194,0.16446652,0.1115327,0.77581847,-0.29793447,-13.150362
14112000,0.042365205,0.16573831,0.11037586,0.862044,-0.29294837,-13.054655
14116000,0.04329477,0.15379938,0.106750205,0.77736306,-0.2396437,-13.098272
14120000,0.045168456,0.15730488,0.11461869,0.72149336,-0.18461181,-13.139868
14124000,0.03877581,0.16249017,0.1142655,0.80554503,-0.19093741,-13.211585
14128000,0.036046017,0.15405333,0.10761667,0.7776538,-0.20872566,-13.258889
14132000,0.038150724,0.15549113,0.11100197,0.7374137,-0.22571076,-13.245143
14140000,0.03944914,0.16026118,0.11076768,0.8409296,-0.2477944,-13.249133
14148000,0.035967212,0.1548537,0.10202644,0.7179107,-0.20810954,-13.394881
14152000,0.038556356,0.15457562,0.10649137,0.67548734,-0.27221113,-13.373482
14156000,0.036609005,0.16079573,0.10419998,0.75563985,-0.2753426,-13.339316
14160000,0.028246073,0.16046837,0.09866973,0.7385686,-0.23771982,-13.405247
14168000,0.035459783,0.15921602,0.099562466,0.7796117,-0.25651115,-13.395371
14172000,0.03145067,0.1527625,0.09722402,0.751116,-0.29569522,-13.464552
14176000,0.029431785,0.157232,0.09308974,0.63706976,-0.2742043,-13.410819
14180000,0.03211214,0.16428614,0.08812589,0.60996765,-0.24764195,-13.359295
14188000,0.037311107,0.16351672,0.07968494,0.69995415,-0.23866007,-13.428083
14192000,0.02913009,0.16234787,0.08018855,0.73060745,-0.2941267,-13.493348
14196000,0.02540908,0.15943465,0.08027311,0.7518198,-0.2836666,-13.418372
14200000,0.02247279,0.15699944,0.078280084,0.7626291,-0.24453011,-13.434068
14208000,0.026409078,0.16210255,0.07563944,0.6255054,-0.14464241,-13.525868
14212000,0.028715193,0.16221769,0.07110941,0.7001841,-0.17331411,-13.520928
14220000,0.017979763,0.16260205,0.069201134,0.7105577,-0.24596322,-13.494624
14228000,0.030721294,0.15380535,0.059191093,0.725018,-0.1984863,-13.403792
14236000,0.02478502,0.16380185,0.056950472,0.8280373,-0.27986407,-13.387543
14240000,0.021078039,0.16073647,0.055485096,0.7627274,-0.31623986,-13.449262
14244000,0.016631337,0.16205,0.061630007,0.73021114,-0.29365548,-13.532383
14252000,0.027038606,0.16069643,0.055726755,0.66336364,-0.3170437,-13.520731
14256000,0.019415744,0.16412823,0.06111217,0.6221208,-0.26201844,-13.451028
14260000,0.012687592,0.16399732,0.060063403,0.74306804,-0.21808346,-13.382064
14264000,0.016385473,0.1635303,0.051100817,0.7070413,-0.2982457,-13.401988
14268000,0.024456846,0.1667105,0.050392255,0.653114,-0.26615503,-13.442401
14272000,0.021490058,0.16291656,0.04746124,0.7009013,-0.26320037,-13.512259
14280000,0.01755283,0.16194774,0.05066558,0.74319506,-0.33730957,-13.46955
14284000,0.01846896,0.16844256,0.045705136,0.6912842,-0.40803146,-13.419318
14292000,0.020212775,0.15665351,0.045019507,0.71172404,-0.28722063,-13.408009
14296000,0.015774542,0.1553789,0.049072932,0.7219348,-0.2913936,-13.353358
14300000,0.013747992,0.15361656,0.039000425,0.67895776,-0.24577393,-13.37742
14304000,0.01746072,0.15610369,0.032904666,0.76874536,-0.25283146,-13.367857
14308000,0.01600444,0.15426232,0.03366889,0.8507758,-0.28527865,-13.362853
14312000,0.012749996,0.15691015,0.03266614,0.8221598,-0.30640894,-13.424389
14316000,0.009002732,0.15845525,0.031904284,0.7615923,-0.30841598,-13.404395
14324000,0.015860457,0.1477527,0.029750373,0.6854581,-0.32980725,-13.379118
14328000,0.016721016,0.15472588,0.03360898,0.6814107,-0.27999857,-13.309594
14332000,0.012994292,0.15718494,0.039293293,0.6974394,-0.29034245,-13.289063
14336000,0.009643566,0.1539014,0.030337127,0.744586,-0.39195594,-13.35296
14340000,0.01330732,0.15338282,0.023002932,0.7201967,-0.37149593,-13.407441
14344000,0.011918006,0.15143937,0.02490351,0.71739966,-0.32363012,-13.333383
14348000,0.007643195,0.14898175,0.02645778,0.7505004,-0.36649114,-13.315569
14356000,0.009534114,0.14752734,0.029589055,0.64924645,-0.44118473,-13.267271
14360000,0.012908345,0.14773302,0.025150483,0.65987116,-0.38668767,-13.255511
14364000,0.009026818,0.1535629,0.026438367,0.7146216,-0.3960814,-13.250095
14372000,0.014820578,0.15630946,0.024143443,0.7566597,-0.27146286,-13.335923
14376000,0.013902253,0.14711775,0.032892685,0.7578577,-0.3206191,-13.30953
14380000,0.00444483,0.14588225,0.029745448,0.7931081,-0.40586063,-13.248472
14384000,0.00738166,0.1501197,0.026071558,0.7735005,-0.4124244,-13.228756
14388000,0.0100851,0.14698005,0.025357448,0.7743155,-0.49558905,-13.204035
14392000,0.003943831,0.14842965,0.024885995,0.83265465,-0.44641194,-13.219434
14396000,0.004054267,0.15158492,0.027206121,0.7032352,-0.3901589,-13.2130165
14404000,0.00113505,0.15757641,0.035991903,0.77558744,-0.45063412,-13.151347
14412000,0.008260074,0.14937243,0.031692274,0.76641583,-0.49137115,-13.189292
14416000,0.008698887,0.14613831,0.037028734,0.7300247,-0.42953828,-13.166362
14420000,0.006018659,0.1430134,0.038313158,0.7668764,-0.413698,-13.142118
14424000,0.002387963,0.14515367,0.037444353,0.7953256,-0.551597,-13.109678
14428000,0.003018389,0.1487713,0.037680354,0.7953256,-0.551597,-13.109678
14432000,0.007266414,0.14667912,0.037916075,0.76917785,-0.42661747,-13.188196
14436000,0.00734246,0.1466614,0.036793813,0.7660543,-0.50986034,-13.162256
14440000,0.005059168,0.14862782,0.036473874,0.7690744,-0.5157368,-13.133485
14444000,0.008866043,0.14559273,0.031054996,0.883243,-0.47003487,-13.089098
14448000,0.007686374,0.14673322,0.030594418,0.9391465,-0.51814306,-13.128422
14452000,0.005946756,0.14854039,0.042046554,0.8125054,-0.517286,-13.176295
14456000,0.004888409,0.14284037,0.038394436,0.7373145,-0.47703552,-13.171585
14460000,0.002655437,0.13754389,0.03210599,0.775791,-0.501964,-13.073977
14468000,0.002366342,0.15037449,0.049762268,0.839427,-0.5343464,-13.078949
14472000,0.012221775,0.1489015,0.05236419,0.8575651,-0.52098906,-13.049301
14480000,0.00583676,0.1416006,0.04373168,0.7968508,-0.51483536,-13.048902
14484000,0.004725501,0.14663255,0.048503444,0.8467981,-0.53508633,-13.01452
14488000,0.007018087,0.1438786,0.048251346,0.8339953,-0.56898725,-13.030465
14496000,0.0082664,0.14327712,0.044015337,0.8981546,-0.41533306,-13.040802
14500000,0.012604794,0.14106667,0.048526246,0.92666394,-0.5077438,-13.006961
14504000,0.005506382,0.1473567,0.0507828,0.91008544,-0.53844446,-13.023579
14512000,0.006465313,0.14775999,0.051078737,0.85737807,-0.5439633,-12.9713125
14520000,0.007115639,0.14706473,0.053049818,0.7328673,-0.55211073,-12.944912
14524000,0.006354715,0.14771686,0.054671925,0.79970825,-0.5550162,-12.939405
14532000,0.00598497,0.14568588,0.057403233,0.85736495,-0.53060526,-13.000447
14536000,0.007659376,0.15147223,0.062142503,0.88479346,-0.5584337,-12.95286
14540000,0.009251185,0.152424,0.0641039,0.88522404,-0.5584019,-12.97486
14544000,0.008596152,0.14771378,0.06461445,0.8896883,-0.5801065,-12.967919
14548000,0.008566994,0.14886089,0.061264656,0.9024021,-0.5591714,-12.978727
14556000,0.00070469,0.14914227,0.060285047,0.8481749,-0.5662202,-13.04465
14560000,4.64E-05,0.14545937,0.06497692,0.8529808,-0.556433,-13.141298
14564000,-0.001887487,0.15095596,0.06413563,0.839631,-0.5550861,-13.075686
14568000,0.001798364,0.15602477,0.06515101,0.9141033,-0.5482675,-12.950698
14572000,0.005097013,0.15173145,0.06669821,0.86954606,-0.48908433,-12.979268
14576000,0.004409212,0.1535151,0.06291386,0.8047182,-0.51481706,-13.051792
14580000,0.00680589,0.156004,0.069333486,0.88552874,-0.5881878,-13.082639
14584000,0.003830624,0.1534839,0.07381621,0.92275494,-0.5824063,-13.014117
14588000,0.004831987,0.15712662,0.072409466,0.8785474,-0.5899934,-13.0061455
14592000,0.001997857,0.15589006,0.07133545,0.8337059,-0.55461407,-13.025184
14596000,0.000604942,0.15090932,0.068756066,0.85635847,-0.5958013,-12.972332
14604000,0.003635708,0.1581873,0.057119004,0.9126353,-0.5929718,-13.158357
14612000,0.001170248,0.15087065,0.06792674,0.96089715,-0.6216264,-12.983742
14616000,-0.00249309,0.14641072,0.06889484,0.89738494,-0.517874,-13.0295515
14624000,-0.002943164,0.1570292,0.07320528,0.8691096,-0.5825496,-13.097746
14628000,0.001635535,0.15666014,0.07651706,0.8921991,-0.58668256,-13.134897
14632000,-0.002559346,0.14956176,0.07246995,0.92293245,-0.60767305,-13.066621
14636000,0.002939998,0.15354691,0.06536528,0.915726,-0.5979432,-12.979743
14640000,0.00202031,0.1573669,0.06424295,0.9069119,-0.59218115,-13.05356
14648000,0.000614389,0.16119663,0.0677429,0.94200295,-0.5814633,-13.200173
14652000,-0.001486738,0.15551572,0.070762865,0.8911155,-0.6226182,-13.238871
14656000,-0.002097657,0.15761876,0.07480549,0.93593234,-0.5389422,-13.158044
14660000,-0.0020244,0.15896578,0.07025191,0.9881456,-0.5209113,-13.098033
14664000,-0.000796163,0.15654662,0.072174884,0.9766371,-0.5182758,-13.171863
14672000,-0.004421072,0.15767522,0.06974187,0.9517879,-0.57593495,-13.168067
14676000,-0.002770982,0.15775838,0.06749817,0.8725359,-0.57650054,-13.200972
14684000,3.08E-05,0.1584095,0.07094807,0.88163173,-0.60081965,-13.217631
14692000,-0.002121504,0.1611167,0.07046331,1.0018903,-0.5713444,-13.11242
14700000,-0.006772049,0.16667838,0.072081774,1.02876,-0.5741539,-13.193638
14704000,-0.005416048,0.16264851,0.07248131,1.0248619,-0.61924213,-13.167188
14708000,0.004247643,0.16676179,0.07479747,0.9954231,-0.5712606,-13.122618
14716000,0.001449795,0.16554266,0.06871103,1.0479846,-0.5581427,-13.213922
14724000,-0.002703183,0.16185158,0.06247283,0.9677385,-0.5019759,-13.195611
14728000,-0.002765196,0.16181035,0.06800871,0.98482007,-0.5798647,-13.231885
14732000,0.000118921,0.15944357,0.067998156,0.97784007,-0.6424323,-13.283132
14736000,-0.001119739,0.16435385,0.06793113,1.0599049,-0.6317295,-13.24565
14740000,0.00242914,0.16613522,0.06724961,1.0859966,-0.7020033,-13.217111
14744000,0.001820529,0.16386515,0.06569282,1.1054368,-0.6367878,-13.253515
14748000,-0.001095504,0.16359603,0.058736965,1.0977526,-0.49585012,-13.287547
14756000,0.002561201,0.16006711,0.06222285,1.0777693,-0.60771525,-13.310574
14760000,0.000166285,0.1708284,0.061834134,1.0262853,-0.6429463,-13.258044
14764000,-0.004209277,0.16956373,0.06357264,0.9850712,-0.6600451,-13.218577
14768000,-0.007901184,0.1664688,0.060144033,0.97986686,-0.6190372,-13.27316
14772000,-0.005142285,0.16309604,0.055639047,1.0041863,-0.587748,-13.316087
14776000,-0.005356511,0.1609784,0.054710932,1.0041863,-0.587748,-13.316087
14780000,-0.003479338,0.16832948,0.05481759,1.0165541,-0.533332,-13.2506
14788000,0.000192055,0.17259921,0.056468233,1.0247619,-0.5789019,-13.36278
14792000,-0.000797199,0.17337829,0.057192557,1.0243927,-0.544786,-13.362917
14796000,-0.002969554,0.17332257,0.052708715,1.0410537,-0.61460996,-13.386531
14800000,-0.002620475,0.17198503,0.05603404,1.0948149,-0.67128694,-13.362857
14804000,-0.00680561,0.1683788,0.05885646,1.0739826,-0.6379254,-13.403315
14808000,-0.00886551,0.16623351,0.056147702,1.0926914,-0.6006203,-13.393516
14812000,-0.010061789,0.16254391,0.05634783,1.0675533,-0.60623854,-13.373946
14816000,-0.01491932,0.16820762,0.062883526,1.064151,-0.6060297,-13.400851
14820000,-0.016936181,0.17647977,0.059020445,1.0812396,-0.64301145,-13.356404
14824000,-0.015235291,0.17294878,0.052668422,1.0318621,-0.6734512,-13.327872
14828000,-0.008311858,0.17106816,0.050708193,1.0760674,-0.64376765,-13.3193445
14832000,-0.001429956,0.17329787,0.04618177,1.0913578,-0.62311155,-13.326263
14836000,-0.003591714,0.16932768,0.05158548,1.0683676,-0.62174726,-13.37738
14840000,-0.005647354,0.16805741,0.05404797,1.0818449,-0.61463547,-13.403493
14844000,-0.001641398,0.1687144,0.048901577,1.0506037,-0.6107817,-13.438623
14848000,0.000207123,0.16583002,0.049808003,1.1103913,-0.6748155,-13.349969
14852000,-0.006166276,0.16763376,0.05249299,1.2110102,-0.7078798,-13.31546
14856000,-0.008873621,0.17063378,0.052116126,1.1637688,-0.6664235,-13.294543
14864000,-0.011127931,0.171214,0.048322555,1.1183662,-0.619988,-13.389061
14868000,-0.008016013,0.1698653,0.05225132,1.1569059,-0.6329518,-13.336641
14876000,-0.009774879,0.16638942,0.04639842,1.0531347,-0.68408954,-13.362913
14880000,-0.006473462,0.17142962,0.050273545,1.1116414,-0.7410253,-13.290428
14884000,-0.006165127,0.17186329,0.048347026,1.1813356,-0.6834199,-13.3084755
14892000,-0.00773501,0.17046815,0.047000237,1.1854713,-0.7670382,-13.417185
14896000,-0.011430073,0.16575016,0.04545399,1.1730102,-0.75170124,-13.423908
14900000,-0.004344622,0.16055019,0.04206077,1.1647966,-0.6696541,-13.435272
14904000,-0.001290093,0.16588823,0.043567568,1.1894894,-0.5623441,-13.374537
14908000,-0.002440014,0.1627134,0.044967946,1.1813123,-0.67106944,-13.314805
14912000,-0.005733659,0.16483477,0.040859304,1.210288,-0.7455665,-13.352313
14916000,-0.012498197,0.17180073,0.038136825,1.227,-0.6956575,-13.359708
14924000,-0.008442236,0.17350465,0.038252603,1.1532762,-0.68909657,-13.33227
14928000,-0.004796486,0.1713471,0.03974121,1.1865293,-0.66700417,-13.423617
14936000,-0.012791194,0.16571349,0.04280678,1.1969312,-0.74088407,-13.463653
14940000,-0.011715677,0.16542673,0.04426992,1.2133074,-0.6716292,-13.433343
14948000,-0.006532783,0.16956341,0.038524736,1.2652997,-0.6280761,-13.338565
14952000,-0.007557324,0.17173256,0.040418595,1.2039598,-0.70298827,-13.379745
14960000,-0.007984282,0.16932131,0.04144777,1.3042328,-0.65574855,-13.3459635
14964000,-0.011214287,0.17126615,0.03723075,1.299585,-0.65478736,-13.30519
14972000,-0.011534222,0.165729,0.0435805,1.2398223,-0.62567586,-13.42343
14980000,-0.011024736,0.16317812,0.039410956,1.249208,-0.6736724,-13.281486
14984000,-0.01394869,0.16556579,0.041728117,1.3545532,-0.7032836,-13.306577
14992000,-0.016206592,0.17235471,0.042912286,1.2522956,-0.7258518,-13.295707
14996000,-0.013621686,0.1687156,0.041597262,1.2408278,-0.74276334,-13.328261
15004000,-0.014994128,0.16083646,0.046594795,1.3037345,-0.6744783,-13.210277
15008000,-0.012657316,0.1630722,0.048648935,1.2074542,-0.7053892,-13.2706375
15012000,-0.010431706,0.16499293,0.047911588,1.256884,-0.67349297,-13.275839
15020000,-0.003939202,0.16241726,0.05106523,1.3278686,-0.71065575,-13.291248
15024000,-0.00835751,0.158186,0.045864414,1.3165855,-0.6731962,-13.234155
15032000,-0.017028797,0.16432717,0.045908503,1.3288969,-0.770137,-13.24233
15040000,-0.009844896,0.16750866,0.039171975,1.2448444,-0.71846014,-13.354441
15044000,-0.006507203,0.17008671,0.040255863,1.2861922,-0.7545711,-13.405896
15048000,-0.008715615,0.16322337,0.047088105,1.3115134,-0.73725003,-13.325045
15052000,-0.018027129,0.15906946,0.054873414,1.2861118,-0.7761126,-13.2564
15060000,-0.017921923,0.17144363,0.039899465,1.3066534,-0.7260951,-13.303898
15068000,-0.013484902,0.16583556,0.041413054,1.4207824,-0.7275199,-13.341872
15072000,-0.015147267,0.1678951,0.040558524,1.4292364,-0.7754846,-13.271701
15076000,-0.012608665,0.17187168,0.041302625,1.3650464,-0.7949787,-13.2676115
15084000,-0.011290911,0.17387486,0.046231907,1.3253747,-0.75037515,-13.248352
15088000,-0.01308427,0.17766996,0.048446648,1.3673236,-0.75894785,-13.240544
15092000,-0.01747371,0.17559655,0.052962735,1.4186785,-0.75047135,-13.358374
15096000,-0.016770957,0.17721666,0.052343305,1.3767104,-0.77355313,-13.358766
15100000,-0.014251989,0.17435691,0.047914386,1.3450543,-0.800447,-13.268987
15108000,-0.016216652,0.17115647,0.051054675,1.3933346,-0.73082525,-13.337878
15112000,-0.015136582,0.17560282,0.056685317,1.4208411,-0.7787732,-13.290126
15116000,-0.013311545,0.17485157,0.056173597,1.4446232,-0.76030296,-13.354827
15120000,-0.013891142,0.1730929,0.051986903,1.3736814,-0.69457984,-13.390378
15124000,-0.021115161,0.17032023,0.059998322,1.4210687,-0.7010039,-13.327453
15128000,-0.023673248,0.16810781,0.056580212,1.5119077,-0.76506114,-13.325579
15132000,-0.013653257,0.1671435,0.050020594,1.4395552,-0.74349475,-13.352569
15136000,-0.007602166,0.16572885,0.057434488,1.3541541,-0.7866457,-13.349161
15144000,-0.01823768,0.17408033,0.050153878,1.4512855,-0.83586806,-13.340671
15148000,-0.018734667,0.16983242,0.055441704,1.5102456,-0.73817515,-13.41502
15152000,-0.019595388,0.16945216,0.05716778,1.5545471,-0.68340147,-13.4023905
15156000,-0.014257537,0.16921012,0.051656555,1.5295031,-0.7502397,-13.366157
15160000,-0.013061584,0.1687099,0.05005112,1.4890243,-0.80154204,-13.372235
15168000,-0.011936879,0.16272935,0.048865966,1.5104059,-0.8393413,-13.366451
15172000,-0.00982361,0.1666361,0.05392121,1.4885801,-0.8341623,-13.308879
15180000,-0.017709432,0.16357268,0.0559702,1.4529487,-0.71696967,-13.349506
15184000,-0.017401122,0.16012338,0.049678147,1.4595115,-0.7934678,-13.299315
15188000,-0.016752444,0.15991217,0.04798168,1.5516983,-0.81942904,-13.302848
15192000,-0.013494071,0.1575909,0.054604273,1.5547013,-0.82395333,-13.28514
15196000,-0.017571334,0.15466775,0.055676784,1.5239986,-0.8486288,-13.292333
15200000,-0.022658395,0.15513039,0.054098766,1.4942738,-0.8437938,-13.348055
15204000,-0.01972944,0.15251781,0.05196599,1.5425192,-0.92420834,-13.348923
15212000,-0.016343756,0.14470719,0.045463584,1.6532476,-0.8383395,-13.177744
15216000,-0.020402277,0.14801535,0.05187474,1.6377276,-0.82237375,-13.259686
15220000,-0.020018853,0.14595483,0.05487258,1.5810356,-0.74996424,-13.2595415
15224000,-0.018339729,0.14096439,0.05460166,1.573742,-0.7399476,-13.174087
15228000,-0.019457981,0.14038004,0.05730258,1.6179451,-0.7930432,-13.16753
15232000,-0.020272799,0.13509405,0.053585615,1.6547852,-0.8445764,-13.149001
15240000,-0.03494937,0.1370687,0.053992942,1.5376681,-0.7865953,-13.074914
15244000,-0.07709959,0.13716398,0.049992397,1.5360544,-0.68954134,-13.045722
15248000,-0.11014845,0.13458422,0.051842343,1.6467522,-0.6839777,-12.997223
15252000,-0.1485249,0.13373946,0.051423274,1.6948829,-0.7950143,-13.03869
15260000,-0.2228896,0.13136427,0.05147847,1.5770175,-0.8445147,-12.991172
15268000,-0.29941308,0.12480536,0.05005589,1.6458398,-0.7783575,-12.9345875
15272000,-0.32120845,0.12745516,0.04724785,1.7153717,-0.76815313,-12.941949
15280000,-0.37249678,0.12690209,0.041489564,1.6571918,-0.74591523,-12.946905
15284000,-0.39621907,0.12537944,0.045774378,1.6339635,-0.8058593,-12.912158
15288000,-0.41448304,0.1178648,0.04233317,1.6431923,-0.78616154,-12.868571
15292000,-0.43631676,0.11818132,0.041941784,1.676982,-0.7389094,-12.845629
15300000,-0.47194657,0.11261932,0.041129667,1.6769114,-0.825561,-12.790348
15304000,-0.492924,0.110280156,0.034970593,1.7656424,-0.7422454,-12.746088
15308000,-0.5006329,0.10971738,0.03457382,1.7363732,-0.78065974,-12.718727
15316000,-0.5306652,0.11125206,0.031309996,1.8476313,-0.7656217,-12.681036
15320000,-0.5438914,0.11135413,0.030017786,1.7801687,-0.8544326,-12.689805
15324000,-0.5533837,0.10667954,0.028738169,1.7085723,-0.8376766,-12.712071
15332000,-0.57348686,0.10694666,0.017543342,1.6991693,-0.7704687,-12.660937
15336000,-0.5802657,0.10860646,0.01585523,1.7396168,-0.7721423,-12.592399
15344000,-0.59188056,0.10213951,0.017195607,1.7660654,-0.90772766,-12.603821
15352000,-0.60057664,0.09865149,0.009615931,1.7653283,-0.86590976,-12.555453
15356000,-0.6084454,0.09411209,0.010872753,1.757637,-0.8298412,-12.470785
15364000,-0.61534,0.09361656,0.00795462,1.8178301,-0.90924937,-12.455184
15368000,-0.6170777,0.09341569,0.001884005,1.7910944,-0.9340432,-12.456641
15372000,-0.628011,0.094065815,-0.003712507,1.7679201,-0.85353065,-12.371552
15376000,-0.62995523,0.088073395,-0.007036426,1.7679201,-0.85353065,-12.371552
15380000,-0.6234738,0.08322639,-0.005576735,1.7723266,-0.8808301,-12.370407
15384000,-0.6191609,0.08259487,-0.004824843,1.8400894,-0.8638751,-12.351796
15392000,-0.6279372,0.08000967,-0.00440426,1.8328692,-0.79322666,-12.273701
15400000,-0.63338053,0.069212735,-0.006774728,1.8943654,-0.8821953,-12.252713
15404000,-0.63295335,0.07044575,-0.015905987,1.9260694,-0.83368105,-12.26979
15408000,-0.6234064,0.07519528,-0.017066237,1.9682587,-0.8630359,-12.218844
15416000,-0.6241529,0.07054287,-0.016825816,1.9096457,-0.87931293,-12.100319
15420000,-0.62449735,0.069808,-0.014376228,1.9088107,-0.8825573,-12.025684
15424000,-0.62853956,0.064730436,-0.014363988,1.9113443,-0.9473175,-11.940903
15428000,-0.6292947,0.060786735,-0.021607202,2.0015755,-0.9210176,-11.926323
15432000,-0.6250508,0.06129637,-0.022764796,2.0181458,-0.9570251,-11.969447
15440000,-0.61665833,0.05754491,-0.011828378,2.00716,-0.8784828,-11.918597
15444000,-0.6149441,0.052351635,-0.02508998,2.0163138,-0.9152365,-11.831622
15448000,-0.61551356,0.046098012,-0.032105274,2.029059,-1.0029516,-11.80292
15452000,-0.6154873,0.042493224,-0.024236323,2.0555353,-1.0037017,-11.778094
15456000,-0.6111195,0.043203022,-0.026005715,1.9926751,-1.0236671,-11.722515
15460000,-0.6048924,0.048860576,-0.03799973,1.8781046,-1.0209029,-11.646367
15464000,-0.5982233,0.047663536,-0.03864765,1.9974447,-1.0341986,-11.6659975
15468000,-0.59509504,0.044983454,-0.03606398,2.0661829,-1.0423324,-11.681241
15476000,-0.59828186,0.04715498,-0.0376061,2.0662286,-1.0741435,-11.555495
15480000,-0.5907234,0.04968373,-0.040887095,2.0754209,-1.0348773,-11.512865
15484000,-0.58754826,0.0442656,-0.040748157,2.048741,-1.096734,-11.618681
15488000,-0.58958155,0.03599878,-0.03835331,2.050163,-1.1024538,-11.596648
15492000,-0.5846192,0.03163478,-0.037193865,1.9836044,-1.0238965,-11.427182
15500000,-0.57151365,0.029890226,-0.046761505,2.015437,-1.0337532,-11.420815
15504000,-0.5700713,0.034229416,-0.04468449,2.054225,-1.0222238,-11.455436
15512000,-0.5624158,0.034257844,-0.040060163,2.0517356,-1.0334002,-11.332366
15516000,-0.56148404,0.03408112,-0.03818408,2.0847042,-1.058963,-11.277978
15524000,-0.5540182,0.03172213,-0.038378093,2.027095,-1.0887303,-11.18856
15528000,-0.5470301,0.03264907,-0.041738227,2.0660236,-1.0726146,-11.217713
15536000,-0.54693544,0.036008466,-0.043520063,2.0800257,-1.0704705,-11.109217
15544000,-0.54784185,0.03146376,-0.040607683,2.0408795,-1.1059211,-11.041153
15548000,-0.5387959,0.02783991,-0.044256974,2.074429,-1.036977,-11.0920925
15556000,-0.53370464,0.026503306,-0.048492193,2.1420958,-1.1467061,-11.076182
15560000,-0.52658117,0.024121117,-0.046958826,2.1533225,-1.1819751,-10.960209
15564000,-0.51866984,0.025165554,-0.047629334,2.1795738,-1.2270672,-10.915828
15572000,-0.50805104,0.029244497,-0.055468515,2.1362522,-1.0859697,-10.962566
15576000,-0.5035043,0.0241548,-0.05389009,2.1398942,-1.1662694,-10.929231
15584000,-0.49730262,0.023739828,-0.04190307,2.2197907,-1.0836556,-10.812279
15588000,-0.49458095,0.021153023,-0.043009754,2.24718,-1.1078974,-10.7878
15596000,-0.49004117,0.016884793,-0.046682306,2.2392147,-1.1516287,-10.839869
15604000,-0.4890479,0.016954964,-0.04872462,2.2053766,-1.087648,-10.763321
15608000,-0.48344874,0.022187361,-0.047835544,2.2338915,-1.1095598,-10.74434
15616000,-0.4730662,0.017631778,-0.049222197,2.204929,-1.1253608,-10.848791
15620000,-0.46531695,0.013335123,-0.048596613,2.1768346,-1.1488512,-10.732295
15624000,-0.46673536,0.014267178,-0.04321037,2.2260728,-1.1458292,-10.675579
15632000,-0.461627,0.01992574,-0.051068492,2.2845705,-1.183843,-10.686432
15636000,-0.45750552,0.020146733,-0.049127933,2.2288232,-1.1784352,-10.719203
15644000,-0.4456541,0.017133815,-0.048682302,2.2410898,-1.1602508,-10.73871
15648000,-0.44914082,0.01420163,-0.05245939,2.3208997,-1.1638033,-10.712043
15656000,-0.4388356,0.019995589,-0.04416225,2.3500454,-1.1422359,-10.6227045
15660000,-0.43536538,0.024924647,-0.045769114,2.349555,-1.1870289,-10.611217
15664000,-0.43102038,0.020281583,-0.046549447,2.3161607,-1.2546813,-10.584859
15668000,-0.4285931,0.01603511,-0.044168692,2.2677937,-1.2607031,-10.560616
15672000,-0.42679447,0.02180245,-0.04610568,2.294822,-1.1690062,-10.562219
15680000,-0.4245898,0.022352617,-0.04988417,2.3382583,-1.1261079,-10.607284
15684000,-0.41549325,0.025933245,-0.053290654,2.2896886,-1.1318505,-10.546085
15692000,-0.41401386,0.027366383,-0.046353597,2.443703,-1.1685251,-10.547389
15696000,-0.4095943,0.029578652,-0.05056194,2.3873484,-1.1446965,-10.604932
15700000,-0.40318137,0.024113463,-0.054986004,2.3714626,-1.1231567,-10.522914
15704000,-0.4007576,0.019429794,-0.05312868,2.3977091,-1.1535946,-10.494763
15708000,-0.39577135,0.015660604,-0.048477437,2.4256382,-1.2446926,-10.587688
15716000,-0.39133093,0.01964362,-0.044504967,2.3442967,-1.1939322,-10.61978
15720000,-0.38509285,0.02532047,-0.049638435,2.3311026,-1.1754715,-10.594121
15728000,-0.38174024,0.023345547,-0.04818845,2.3322,-1.0573294,-10.616868
15732000,-0.38032654,0.027456403,-0.04864041,2.3898335,-1.0688971,-10.579171
15736000,-0.3767107,0.026585909,-0.05254687,2.4588916,-1.1864358,-10.491888
15740000,-0.36721948,0.02196087,-0.056198154,2.4594886,-1.1903822,-10.445249
15748000,-0.36363614,0.02964396,-0.052761737,2.3789012,-1.1831214,-10.519916
15752000,-0.36376676,0.024585044,-0.053065028,2.4200227,-1.2128516,-10.524499
15760000,-0.3558989,0.031172348,-0.04735489,2.4633467,-1.2468984,-10.491804
15764000,-0.3522689,0.030576102,-0.050422587,2.4339492,-1.2509303,-10.530859
15768000,-0.3565426,0.022420306,-0.05661927,2.3692887,-1.2242471,-10.5504
15776000,-0.35331258,0.030812258,-0.052270155,2.419594,-1.1464751,-10.472214
15780000,-0.34522542,0.0276979,-0.05822917,2.406769,-1.17971,-10.480751
15784000,-0.3401884,0.027637282,-0.06237855,2.4159374,-1.2192789,-10.537036
15792000,-0.33982146,0.031782348,-0.06575084,2.4776936,-1.1789557,-10.537413
15796000,-0.33349434,0.032260645,-0.067306615,2.4707422,-1.2464597,-10.565761
15800000,-0.33068994,0.034049343,-0.06694659,2.396184,-1.2273834,-10.579854
15804000,-0.33110225,0.032409277,-0.06736709,2.3531826,-1.208021,-10.526542
15808000,-0.32658535,0.030505165,-0.066685714,2.4554362,-1.2419196,-10.554743
15812000,-0.31946164,0.034368284,-0.07078809,2.5287387,-1.2150813,-10.564352
15816000,-0.31777355,0.033858456,-0.070231974,2.464611,-1.1638511,-10.569433
15820000,-0.32012194,0.0351333,-0.066092595,2.4592125,-1.1575137,-10.548538
15824000,-0.31586936,0.036878005,-0.06334486,2.4655094,-1.1934906,-10.544916
15828000,-0.3145778,0.03675016,-0.06166551,2.4547327,-1.1521626,-10.549006
15832000,-0.31211427,0.03384704,-0.063063286,2.4193141,-1.1229141,-10.525293
15836000,-0.30646494,0.034680154,-0.06931739,2.4008045,-1.127363,-10.519956
15840000,-0.3082135,0.0368074,-0.06933478,2.465644,-1.1196464,-10.510472
15844000,-0.30258122,0.029488511,-0.06819033,2.5081847,-1.1218306,-10.535864
15848000,-0.29815087,0.028765166,-0.06975715,2.454121,-1.1076124,-10.535796
15852000,-0.29768223,0.03130863,-0.06657983,2.4062872,-1.1337287,-10.569061
15856000,-0.29194203,0.03206994,-0.06440877,2.4084044,-1.1712567,-10.585533
15864000,-0.29088855,0.03124105,-0.06574138,2.5019708,-1.1130794,-10.476727
15868000,-0.2869735,0.026049355,-0.07316099,2.4683666,-1.213929,-10.45979
15872000,-0.29183835,0.027782246,-0.0706961,2.4718823,-1.2232679,-10.515582
15880000,-0.28045282,0.034776956,-0.07595506,2.4948902,-1.166192,-10.544732
15884000,-0.26878786,0.037330467,-0.07464829,2.4295921,-1.1348876,-10.521504
15888000,-0.2691736,0.034140464,-0.07720124,2.414103,-1.1592889,-10.510429
15896000,-0.27489042,0.0315672,-0.08109065,2.5379765,-1.1779408,-10.500173
15900000,-0.27015918,0.029869102,-0.0857941,2.5322585,-1.1702905,-10.526649
15904000,-0.27062196,0.031239282,-0.08422549,2.5036817,-1.176153,-10.542215
15908000,-0.2642395,0.02727368,-0.08334349,2.517064,-1.2012546,-10.523737
15916000,-0.26138452,0.029273631,-0.08276054,2.5116107,-1.1822234,-10.535649
15920000,-0.26658785,0.025767906,-0.08476166,2.5126944,-1.1835264,-10.592238
15928000,-0.25458682,0.030148562,-0.08660929,2.5930073,-1.1767642,-10.583482
15932000,-0.2532472,0.027268235,-0.08502253,2.6178074,-1.1071007,-10.533296
