timestamp,roll,pitch,yaw,thrust_body[0]
12124000,0.033807933,0.022716586,-0.003680883,0.15
12128000,0.03382788,0.022681292,-0.003681259,0.15
12132000,0.033812568,0.02267203,-0.003665736,0.15
12136000,0.03382913,0.022629233,-0.003666312,0.15
12140000,0.03386539,0.022597281,-0.003666367,0.15
12144000,0.03389278,0.022577178,-0.00366633,0.15
12148000,0.03387619,0.022521237,-0.00366769,0.15
12152000,0.033867806,0.022472057,-0.003668787,0.15
12156000,0.03325476,0.02242718,-0.003263624,0.15
12164000,0.03324512,0.02237957,-0.003264708,0.15
12168000,0.03325019,0.022329105,-0.003265618,0.15
12172000,0.03323801,0.022285283,-0.003266666,0.15
12176000,0.033228114,0.02226466,-0.003267224,0.15
12180000,0.033055615,0.022258237,-0.003173596,0.15
12184000,0.033050414,0.022249829,-0.003173841,0.15
12188000,0.033077504,0.02228304,-0.003172771,0.15
12192000,0.033089567,0.022284007,-0.003172564,0.15
12196000,0.0330754,0.022240069,-0.003173645,0.15
12200000,0.03305677,0.022188732,-0.003174938,0.15
12204000,0.033633146,0.022168878,-0.003562253,0.15
12212000,0.033605725,0.022195056,-0.003562166,0.15
12216000,0.03356902,0.022149274,-0.003563628,0.15
12220000,0.033549834,0.02211126,-0.003564666,0.15
12224000,0.033535305,0.022107644,-0.003564961,0.15
12228000,0.03397148,0.022119233,-0.003865578,0.15
12232000,0.033994216,0.022048682,-0.003866606,0.15
12236000,0.034002353,0.02200073,-0.003867417,0.15
12240000,0.034007702,0.022022102,-0.003866918,0.15
12244000,0.03401894,0.021996098,-0.003867253,0.15
12252000,0.03497685,0.021975065,-0.004506697,0.15
12256000,0.03500907,0.02198055,-0.004506095,0.15
12260000,0.035014633,0.021946589,-0.004506676,0.15
12264000,0.03498857,0.021890862,-0.004508166,0.15
12268000,0.034974255,0.021843685,-0.004509308,0.15
12272000,0.034977205,0.021848107,-0.004509177,0.15
12276000,0.027794935,0.02187624,-0.004509177,0
12280000,0.0277811,0.021899246,-0.004509177,0
12284000,0.027744532,0.021924257,-0.004509177,0
12288000,0.027725182,0.02196436,-0.004509177,0
12292000,0.027702564,0.021986945,-0.004509177,0
12296000,0.027695438,0.021992374,-0.004509177,0
12300000,0.027730709,0.021976834,-0.004509177,1
12304000,0.027752219,0.021916943,-0.004509177,1
12308000,0.027735557,0.021851918,-0.004509177,1
12312000,0.02774324,0.02182045,-0.004509177,1
12316000,0.027758842,0.021783909,-0.004509177,1
12320000,0.027762383,0.02176297,-0.004509177,1
12324000,0.027771072,0.021804553,-0.004509177,1
12328000,0.02778509,0.02179017,-0.004509177,1
12332000,0.02780173,0.02171982,-0.004509177,1
12336000,0.027786342,0.021672398,-0.004509177,1
12340000,0.0277553,0.021624073,-0.004509177,1
12344000,0.02775927,0.021564491,-0.004509177,1
12348000,0.027805278,0.021536522,-0.004509177,1
12352000,0.027821036,0.02153709,-0.004509177,1
12356000,0.027817138,0.021554047,-0.004509177,1
12360000,0.027814507,0.021578357,-0.004509177,1
12364000,0.02779214,0.02155834,-0.004509177,1
12368000,0.027757438,0.021506907,-0.004509177,1
12376000,0.02770002,0.021506565,-0.004509177,1
12380000,0.027657557,0.021481441,-0.004509177,1
12384000,0.027662797,0.021460976,-0.004509177,1
12388000,0.027675482,0.021440689,-0.004509177,1
12392000,0.027658112,0.021394854,-0.004509177,1
12396000,0.027635023,0.021371989,-0.004509177,1
12400000,0.027632466,0.021406291,-0.004509177,1
12404000,0.02765446,0.021424988,-0.004509177,1
12412000,0.02766451,0.021379063,-0.004509177,1
12420000,0.027656863,0.02132164,-0.004509177,1
12428000,0.02766583,0.021333784,-0.004509177,1
12432000,0.027658513,0.021283407,-0.004509177,1
12436000,0.027675154,0.0212438,-0.004509177,1
12440000,0.027668752,0.021233926,-0.004509177,1
12444000,0.027612953,0.021235712,-0.004509177,1
12452000,0.027543953,0.021197204,-0.004509177,1
12456000,0.02753879,0.021211531,-0.004509177,1
12460000,0.027543131,0.021186454,-0.004509177,1
12464000,0.027532205,0.021169905,-0.004509177,1
12468000,0.027527312,0.021178208,-0.004509177,1
12472000,0.027511243,0.021175563,-0.004509177,1
12480000,0.027477654,0.021129265,-0.004509177,1
12484000,0.027493862,0.021125125,-0.004509177,1
12492000,0.027462658,0.021106187,-0.004509177,1
12496000,0.027476294,0.021099092,-0.004509177,1
12500000,0.027470717,0.021076659,-0.004509177,1
12504000,0.027465643,0.021037962,-0.004509177,1
12508000,0.027469378,0.02101167,-0.004509177,1
12512000,0.027481284,0.020973692,-0.004509177,1
12516000,0.027499773,0.020945268,-0.004509177,1
12524000,0.027484894,0.020895297,-0.004509177,1
12528000,0.027506921,0.020816322,-0.004509177,1
12531999,0.027511558,0.020775964,-0.004509177,1
12536000,0.027518198,0.020790864,-0.004509177,1
12540000,0.027504478,0.02080722,-0.004509177,1
12544000,0.027506009,0.020792468,-0.004509177,1
12548000,0.027546063,0.020725008,-0.004509177,1
12551999,0.027588991,0.020673655,-0.004509177,1
12556000,0.027616886,0.020669617,-0.004509177,1
12560000,0.027624732,0.020667909,-0.004509177,1
12568000,0.027656911,0.02063632,-0.004509177,1
12572000,0.027668074,0.020639427,-0.004509177,1
12576000,0.027643332,0.020664,-0.004509177,1
12583999,0.0276529,0.020646267,-0.004509177,1
12588000,0.027678631,0.020594614,-0.004509177,1
12592000,0.027705904,0.020533163,-0.004509177,1
12595999,0.02771802,0.020459754,-0.004509177,1
12600000,0.027715484,0.020456148,-0.004509177,1
12604000,0.027720274,0.020478357,-0.004509177,1
12612000,0.027710402,0.020437514,-0.004509177,1
12615999,0.027711498,0.020433495,-0.004509177,1
12620000,0.02772056,0.0204464,-0.004509177,1
12624000,0.0277253,0.020445328,-0.004509177,1
12627999,0.027686138,0.02042338,-0.004509177,1
12632000,0.027676035,0.020371357,-0.004509177,1
12636000,0.027715443,0.020353252,-0.004509177,1
12640000,0.027752904,0.020372292,-0.004509177,1
12644000,0.027742267,0.020337772,-0.004509177,1
12647999,0.02771649,0.020271845,-0.004509177,1
12652000,0.027765678,0.020124918,-0.004509177,1
12656000,0.027801272,0.019962687,-0.004509177,1
12659999,0.027859077,0.019828882,-0.004509177,1
12668000,0.027999334,0.019600933,-0.004509177,1
12672000,0.0280647,0.019432534,-0.004509177,1
12676000,0.028121766,0.019301264,-0.004509177,1
12684000,0.028173538,0.019088058,-0.004509177,1
12688000,0.028207142,0.018957183,-0.004509177,1
12691999,0.028263096,0.01880635,-0.004509177,1
12700000,0.02838037,0.018515604,-0.004509177,1
12704000,0.028405366,0.018415451,-0.004509177,1
12708000,0.028438516,0.018323455,-0.004509177,1
12711999,0.028501805,0.018156247,-0.004509177,1
12716000,0.028569615,0.017998729,-0.004509177,1
12720000,0.028613383,0.017880509,-0.004509177,1
12723999,0.028646672,0.017719796,-0.004509177,1
12732000,0.02871229,-0.762019,-0.004509177,1
12740000,0.028711613,-0.7623357,-0.004509177,1
12743999,0.028722197,-0.76238453,-0.004509177,1
12748000,0.028667623,-0.76232356,-0.004509177,1
12752000,0.02855578,-0.76212734,-0.004509177,1
12755999,0.028417304,-0.7322683,-0.004509177,1
12760000,0.02821509,-0.73188514,-0.004509177,1
12764000,0.02798397,-0.7314338,-0.004509177,1
12768000,0.027711667,-0.730913,-0.004509177,1
12772000,0.027358118,-0.73022985,-0.004509177,1
12775999,0.02695226,-0.72935677,-0.004509177,1
12780000,0.02647773,-0.70054096,-0.004509177,1
12784000,0.02595217,-0.69951016,-0.004509177,1
12787999,0.02539623,-0.6983907,-0.004509177,1
12792000,0.024765564,-0.697171,-0.004509177,1
12796000,0.024102451,-0.69590265,-0.004509177,1
12800000,0.02341883,-0.69463855,-0.004509177,1
12804000,0.0226847,-0.66719544,-0.004509177,1
12807999,0.021886015,-0.66585314,-0.004509177,1
12812000,0.021020764,-0.6644681,-0.004509177,1
12816000,0.020151652,-0.6630091,-0.004509177,1
12819999,0.019257491,-0.66151553,-0.004509177,1
12824000,0.01832708,-0.66002375,-0.004509177,1
12828000,0.01742674,-0.63387537,-0.004509177,1
12832000,0.016502434,-0.6323893,-0.004509177,1
12836000,0.015531123,-0.63093174,-0.004509177,1
12839999,0.014567677,-0.6294532,-0.004509177,1
12844000,0.013590244,-0.6279535,-0.004509177,1
12851999,0.011611408,-0.6015782,-0.004509177,1
12860000,0.009557867,-0.5986485,-0.004509177,1
12864000,0.008478728,-0.597182,-0.004509177,1
12868000,0.007422302,-0.5957683,-0.004509177,1
12876000,0.00533255,-0.57056266,-0.004509177,1
12880000,0.004284381,-0.5692536,-0.004509177,1
12883999,0.003228684,-0.56800616,-0.004509177,1
12888000,0.002151007,-0.5668023,-0.004509177,1
12892000,0.001101207,-0.5656918,-0.004509177,1
12900000,-0.00102196,-0.542133,-0.004509177,1
12908000,-0.003174282,-0.54018384,-0.004509177,1
12912000,-0.004288036,-0.5393042,-0.004509177,1
12920000,-0.006465566,-0.53787744,-0.004509177,1
12924000,-0.00754439,-0.5168617,-0.004509177,1
12932000,-0.009776123,-0.5159662,-0.004509177,1
12935999,-0.010855253,-0.5155944,-0.004509177,1
12940000,-0.01193617,-0.5153542,-0.004509177,1
12944000,-0.013050082,-0.5152132,-0.004509177,1
12947999,-0.014183485,-0.49548423,-0.004509177,1
12952000,-0.015332483,-0.49547717,-0.004509177,1
12956000,-0.016482322,-0.4955647,-0.004509177,1
12960000,-0.017659802,-0.49571016,-0.004509177,1
12964000,-0.018876716,-0.49591514,-0.004509177,1
12967999,-0.020070236,-0.49621984,-0.004509177,1
12972000,-0.021204319,-0.47757652,-0.004509177,1
12976000,-0.02233942,-0.47794116,-0.004509177,1
12980000,-0.023521224,-0.4783551,-0.004509177,1
12984000,-0.02472241,-0.47885084,-0.004509177,1
12988000,-0.02594009,-0.4793693,-0.004509177,1
12992000,-0.027144741,-0.47992876,-0.004509177,1
12996000,-0.028376983,-0.46225333,-0.004509177,1
12999999,-0.029663237,-0.46295506,-0.004509177,1
13004000,-0.030964738,-0.4636671,-0.004509177,1
13008000,-0.03226029,-0.46438918,-0.004509177,1
13012000,-0.03355961,-0.46512786,-0.004509177,1
13016000,-0.034885656,-0.46589157,-0.004509177,1
13019999,-0.036228504,-0.4489003,-0.004509177,1
13024000,-0.037593305,-0.4496588,-0.004509177,1
13028000,-0.03895952,-0.45045325,-0.004509177,1
13036000,-0.041788194,-0.4520453,-0.004509177,1
13040000,-0.043251432,-0.45283097,-0.004509177,1
13044000,-0.044727407,-0.43640247,-0.004509177,1
13048000,-0.04621415,-0.4372315,-0.004509177,1
13052000,-0.04772004,-0.43802434,-0.004509177,1
13056000,-0.049223974,-0.4387506,-0.004509177,1
13060000,-0.050699662,-0.43950668,-0.004509177,1
13063999,-0.05222393,-0.44025412,-0.004509177,1
13068000,-0.053760055,-0.42415708,-0.004509177,1
13072000,-0.05528488,-0.42480206,-0.004509177,1
13076000,-0.0567954,-0.42540914,-0.004509177,1
13080000,-0.05831037,-0.42602146,-0.004509177,1
13083999,-0.059827045,-0.42658466,-0.004509177,1
13088000,-0.06136333,-0.42710504,-0.004509177,1
13092000,-0.062907144,-0.4112351,-0.004509177,1
13095999,-0.06442084,-0.41166902,-0.004509177,1
13100000,-0.065960534,-0.4120608,-0.004509177,1
13104000,-0.06751713,-0.41245118,-0.004509177,1
13108000,-0.06907258,-0.41280067,-0.004509177,1
13112000,-0.070644304,-0.41303745,-0.004509177,1
13115999,-0.072231665,-0.3973228,-0.004509177,1
13120000,-0.07381618,-0.39758343,-0.004509177,1
13124000,-0.075403884,-0.3978118,-0.004509177,1
13127999,-0.07699933,-0.3979493,-0.004509177,1
13132000,-0.078583375,-0.3980389,-0.004509177,1
13136000,-0.0801759,-0.3981571,-0.004509177,1
13140000,-0.08176114,-0.38267654,-0.004509177,1
13144000,-0.083318725,-0.38272718,-0.004509177,1
13147999,-0.08490595,-0.38269317,-0.004509177,1
13152000,-0.08647269,-0.3826218,-0.004509177,1
13156000,-0.088043354,-0.38248155,-0.004509177,1
13159999,-0.08962495,-0.38227615,-0.004509177,1
13164000,-0.09119817,-0.36681822,-0.004509177,1
13168000,-0.09276662,-0.3666784,-0.004509177,1
13172000,-0.09430828,-0.3664521,-0.004509177,1
13176000,-0.0958282,-0.366178,-0.004509177,1
13179999,-0.097359836,-0.36592788,-0.004509177,1
13184000,-0.09888415,-0.3656649,-0.004509177,1
13188000,-0.10036901,-0.3503876,-0.004509177,1
13191999,-0.10182391,-0.35008404,-0.004509177,1
13196000,-0.10326269,-0.34980568,-0.004509177,1
13200000,-0.10468267,-0.34952486,-0.004509177,1
13204000,-0.10609935,-0.3492591,-0.004509177,1
13208000,-0.1075373,-0.34900525,-0.004509177,1
13211999,-0.108946905,-0.3339901,-0.004509177,1
13216000,-0.11033086,-0.3336983,-0.004509177,1
13220000,-0.111720055,-0.33349857,-0.004509177,1
13223999,-0.113075145,-0.333316,-0.004509177,1
13228000,-0.11439661,-0.33310667,-0.004509177,1
13232000,-0.11572124,-0.3328924,-0.004509177,1
13236000,-0.11707357,-0.31824183,-0.004509177,1
13240000,-0.11841414,-0.31808293,-0.004509177,1
13243999,-0.11971386,-0.31797066,-0.004509177,1
13248000,-0.120985575,-0.31788895,-0.004509177,1
13252000,-0.12224501,-0.31782377,-0.004509177,1
13255999,-0.12348719,-0.3178147,-0.004509177,1
13260000,-0.12472523,-0.30360895,-0.004509177,1
13268000,-0.1271743,-0.3038735,-0.004509177,1
13272000,-0.1283372,-0.3040449,-0.004509177,1
13275999,-0.12946092,-0.30421084,-0.004509177,1
13280000,-0.13060006,-0.3044219,-0.004509177,1
13284000,-0.13175274,-0.29057878,-0.004509177,1
13288000,-0.13290292,-0.29085144,-0.004509177,1
13292000,-0.13403879,-0.2911677,-0.004509177,1
13300000,-0.13619578,-0.29185632,-0.004509177,1
13308000,-0.1383663,-0.27878046,-0.004509177,1
13312000,-0.13940056,-0.27920657,-0.004509177,1
13320000,-0.14152525,-0.280187,-0.004509177,1
13324000,-0.14257428,-0.28074175,-0.004509177,1
13328000,-0.14363587,-0.2812897,-0.004509177,1
13332000,-0.1447001,-0.268094,-0.004509177,1
13336000,-0.1457331,-0.2686783,-0.004509177,1
13340000,-0.14677261,-0.26931816,-0.004509177,1
13344000,-0.1478221,-0.26996946,-0.004509177,1
13348000,-0.14889829,-0.27066115,-0.004509177,1
13352000,-0.14997993,-0.2714243,-0.004509177,1
13356000,-0.15105306,-0.25853094,-0.004509177,1
13360000,-0.1521277,-0.25925407,-0.004509177,1
13364000,-0.15317905,-0.26003748,-0.004509177,1
13368000,-0.15424141,-0.26083693,-0.004509177,1
13372000,-0.15532184,-0.26161468,-0.004509177,1
13376000,-0.15637907,-0.26235813,-0.004509177,1
13380000,-0.15743911,-0.24961554,-0.004509177,1
13388000,-0.1595914,-0.25118795,-0.004509177,1
13392000,-0.16067037,-0.25194943,-0.004509177,1
13400000,-0.16284281,-0.25345445,-0.004509177,1
13404000,-0.16390881,-0.24078278,-0.004509177,1
13408000,-0.16498582,-0.24147241,-0.004509177,1
13412000,-0.16605863,-0.24223854,-0.004509177,1
13416000,-0.16713044,-0.24305326,-0.004509177,1
13420000,-0.16822076,-0.2438419,-0.004509177,1
13424000,-0.16926984,-0.24462387,-0.004509177,1
13428000,-0.17031378,-0.23210683,-0.004509177,1
13432000,-0.17138438,-0.23291005,-0.004509177,1
13436000,-0.17244864,-0.23372085,-0.004509177,1
13440000,-0.17350109,-0.2345045,-0.004509177,1
13444000,-0.17453909,-0.23533116,-0.004509177,1
13448000,-0.17557539,-0.23615712,-0.004509177,1
13452000,-0.1766426,-0.22379324,-0.004509177,1
13456000,-0.17769133,-0.22465146,-0.004509177,1
13460000,-0.17871876,-0.2254715,-0.004509177,1
13468000,-0.18078095,-0.2270476,-0.004509177,1
13472000,-0.18180807,-0.22791299,-0.004509177,1
13476000,-0.1828321,-0.21568285,-0.004509177,1
13484000,-0.18482962,-0.2173978,-0.004509177,1
13488000,-0.18579462,-0.21830142,-0.004509177,1
13492000,-0.18675987,-0.21919844,-0.004509177,1
13496000,-0.1877344,-0.22010541,-0.004509177,1
13500000,-0.18874083,-0.20803863,-0.004509177,1
13504000,-0.1897399,-0.20903961,-0.004509177,1
13508000,-0.1906871,-0.21000546,-0.004509177,1
13512000,-0.19162732,-0.21096957,-0.004509177,1
13516000,-0.19252995,-0.2119389,-0.004509177,1
13520000,-0.19341499,-0.2129273,-0.004509177,1
13524000,-0.19435781,-0.20092477,-0.004509177,1
13528000,-0.19531535,-0.20193954,-0.004509177,1
13532000,-0.19624461,-0.2029828,-0.004509177,1
13536000,-0.19716609,-0.20399752,-0.004509177,1
13540000,-0.19811593,-0.20504314,-0.004509177,1
13544000,-0.19905552,-0.20612726,-0.004509177,1
13548000,-0.19997162,-0.19427322,-0.004509177,1
13552000,-0.20089674,-0.19536018,-0.004509177,1
13556000,-0.20178509,-0.19645944,-0.004509177,1
13564000,-0.2034454,-0.19863193,-0.004509177,1
13568000,-0.20431441,-0.19973391,-0.004509177,1
13572000,-0.20516042,-0.18797854,-0.004509177,1
13576000,-0.20600943,-0.18916406,-0.004509177,1
13580000,-0.20684372,-0.19033878,-0.004509177,1
13584000,-0.20769204,-0.19149232,-0.004509177,1
13588000,-0.2085511,-0.19267704,-0.004509177,1
13592000,-0.20936903,-0.19388604,-0.004509177,1
13596000,-0.21018124,-0.18228622,-0.004509177,1
13600000,-0.21098763,-0.18351988,-0.004509177,1
13604000,-0.21177487,-0.18473975,-0.004509177,1
13608000,-0.21254587,-0.18596445,-0.004509177,1
13612000,-0.21332057,-0.18713829,-0.004509177,1
13616000,-0.2140839,-0.18832205,-0.004509177,1
13620000,-0.21482618,-0.17673713,-0.004509177,1
13624000,-0.21555726,-0.17798382,-0.004509177,1
13628000,-0.21626921,-0.17920604,-0.004509177,1
13632000,-0.21697544,-0.18045574,-0.004509177,1
13636000,-0.21770431,-0.18174945,-0.004509177,1
13640000,-0.21842813,-0.18303429,-0.004509177,1
13644000,-0.21914019,-0.17154408,-0.004509177,1
13648000,-0.21984722,-0.17287648,-0.004509177,1
13652000,-0.22053075,-0.174191,-0.004509177,1
13660000,-0.2218573,-0.1768184,-0.004509177,1
13668000,-0.22315173,-0.16670641,-0.004509177,1
13676000,-0.22438349,-0.1693187,-0.004509177,1
13680000,-0.225018,-0.17057467,-0.004509177,1
13684000,-0.22559302,-0.17190358,-0.004509177,1
13688000,-0.22615549,-0.17331295,-0.004509177,1
13692000,-0.22674124,-0.1618815,-0.004509177,1
13696000,-0.22733045,-0.16314745,-0.004509177,1
13700000,-0.2278815,-0.16445191,-0.004509177,1
13704000,-0.22840965,-0.16577998,-0.004509177,1
13708000,-0.22896037,-0.16706033,-0.004509177,1
13712000,-0.22950919,-0.16830319,-0.004509177,1
13720000,-0.2305597,-0.15813544,-0.004509177,1
13724000,-0.23104146,-0.15942904,-0.004509177,1
13728000,-0.23152237,-0.16069044,-0.004509177,1
13732000,-0.23199841,-0.16193497,-0.004509177,1
13740000,-0.2329588,-0.15171723,-0.004509177,1
13744000,-0.23345271,-0.15296656,-0.004509177,1
13748000,-0.2339053,-0.15420164,-0.004509177,1
13752000,-0.23435302,-0.15545714,-0.004509177,1
13756000,-0.23481236,-0.15668039,-0.004509177,1
13760000,-0.23525196,-0.15791495,-0.004509177,1
13764000,-0.23569117,-0.14641574,-0.004509177,1
13768000,-0.23613554,-0.14761855,-0.004509177,1
13772000,-0.23657268,-0.14879067,-0.004509177,1
13776000,-0.23699477,-0.14996476,-0.004509177,1
13780000,-0.23740432,-0.15114927,-0.004509177,1
13788000,-0.23820479,-0.14079462,-0.004509177,1
13792000,-0.23862617,-0.14198214,-0.004509177,1
13796000,-0.23905765,-0.14315563,-0.004509177,1
13804000,-0.23990747,-0.14546998,-0.004509177,1
13808000,-0.24027258,-0.14657721,-0.004509177,1
13812000,-0.24064003,-0.13489309,-0.004509177,1
13816000,-0.24102283,-0.13604328,-0.004509177,1
13820000,-0.24138924,-0.1371764,-0.004509177,1
13824000,-0.24176541,-0.1383337,-0.004509177,1
13828000,-0.24213868,-0.1394771,-0.004509177,1
13832000,-0.2424926,-0.14058743,-0.004509177,1
13836000,-0.24285121,-0.12886839,-0.004509177,1
13840000,-0.24321987,-0.12993613,-0.004509177,1
13844000,-0.24359407,-0.13099504,-0.004509177,1
13848000,-0.24396922,-0.13200818,-0.004509177,1
13852000,-0.24433473,-0.13301918,-0.004509177,1
13856000,-0.24467047,-0.13399018,-0.004509177,1
13860000,-0.24496928,-0.12217145,-0.004509177,1
13864000,-0.24526651,-0.12320186,-0.004509177,1
13868000,-0.245577,-0.12414526,-0.004509177,1
13872000,-0.24587032,-0.12507676,-0.004509177,1
13876000,-0.2461759,-0.12603882,-0.004509177,1
13880000,-0.24650764,-0.12705144,-0.004509177,1
13884000,-0.24685672,-0.115192905,-0.004509177,1
13892000,-0.247515,-0.11717219,-0.004509177,1
13896000,-0.24780418,-0.11816516,-0.004509177,1
13900000,-0.24808499,-0.11907698,-0.004509177,1
13908000,-0.24873742,-0.1079877,-0.004509177,1
13912000,-0.24905166,-0.10892294,-0.004509177,1
13916000,-0.24936348,-0.10986116,-0.004509177,1
13920000,-0.24966905,-0.11083284,-0.004509177,1
13924000,-0.24995804,-0.111835845,-0.004509177,1
13928000,-0.25025275,-0.11283628,-0.004509177,1
13932000,-0.25055584,-0.10091583,-0.004509177,1
13940000,-0.25114116,-0.102877416,-0.004509177,1
13944000,-0.25143754,-0.10387297,-0.004509177,1
13948000,-0.25172257,-0.10481965,-0.004509177,1
13952000,-0.2519944,-0.10576994,-0.004509177,1
13956000,-0.2522753,-0.093808,-0.004509177,1
13960000,-0.2525657,-0.09477835,-0.004509177,1
13964000,-0.25285152,-0.095765,-0.004509177,1
13968000,-0.25312173,-0.0967132,-0.004509177,1
13972000,-0.2534231,-0.09762553,-0.004509177,1
13976000,-0.25375757,-0.0985619,-0.004509177,1
13980000,-0.25406706,-0.086551294,-0.004509177,1
13984000,-0.2543603,-0.08752852,-0.004509177,1
13988000,-0.25464782,-0.08851621,-0.004509177,1
13996000,-0.25524226,-0.09042838,-0.004509177,1
14004000,-0.2558209,-0.07923787,-0.004509177,1
14008000,-0.25607756,-0.08016162,-0.004509177,1
14012000,-0.25636655,-0.081070185,-0.004509177,1
14016000,-0.25664073,-0.08202525,-0.004509177,1
14020000,-0.25692844,-0.08301656,-0.004509177,1
14024000,-0.25726268,-0.08401006,-0.004509177,1
14028000,-0.2575566,-0.07195779,-0.004509177,1
14032000,-0.2578738,-0.07297899,-0.004509177,1
14036000,-0.25823078,-0.07398117,-0.004509177,1
14040000,-0.25856918,-0.07495929,-0.004509177,1
14044000,-0.25889808,-0.07592948,-0.004509177,1
14052000,-0.25952128,-0.064875185,-0.004509177,1
14056000,-0.25984138,-0.06589579,-0.004509177,1
14060000,-0.26016703,-0.066877715,-0.004509177,1
14064000,-0.26049978,-0.06786853,-0.004509177,1
14068000,-0.26080707,-0.06890463,-0.004509177,1
14076000,-0.26140922,-0.057954427,-0.004509177,1
14084000,-0.26199186,-0.06007579,-0.004509177,1
14088000,-0.26229632,-0.061120417,-0.004509177,1
14092000,-0.26259965,-0.06219195,-0.004509177,1
14096000,-0.26292738,-0.063276514,-0.004509177,1
14100000,-0.26325282,-0.05122173,-0.004509177,1
14104000,-0.26358855,-0.052334443,-0.004509177,1
14108000,-0.26394024,-0.05351253,-0.004509177,1
14112000,-0.26424694,-0.05470191,-0.004509177,1
14116000,-0.2645572,-0.05580463,-0.004509177,1
14120000,-0.26488256,-0.056922626,-0.004509177,1
14124000,-0.2651715,-0.04489191,-0.004509177,1
14128000,-0.26544157,-0.045994714,-0.004509177,1
14132000,-0.2657261,-0.04710315,-0.004509177,1
14136000,-0.26603314,-0.04824794,-0.004509177,1
14140000,-0.26632643,-0.04939352,-0.004509177,1
14148000,-0.2668629,-0.038423523,-0.004509177,1
14152000,-0.2671498,-0.03953085,-0.004509177,1
14156000,-0.2674255,-0.040689025,-0.004509177,1
14160000,-0.2676511,-0.041852605,-0.004509177,1
14164000,-0.26788512,-0.04303927,-0.004509177,1
14168000,-0.2681534,-0.04419272,-0.004509177,1
14172000,-0.2683977,-0.032027394,-0.004509177,1
14176000,-0.26862907,-0.03317485,-0.004509177,1
14180000,-0.26887426,-0.034383513,-0.004509177,1
14188000,-0.26942956,-0.036836635,-0.004509177,1
14192000,-0.2696549,-0.03804394,-0.004509177,1
14196000,-0.26985976,-0.025914816,-0.004509177,1
14200000,-0.2700469,-0.027083388,-0.004509177,1
14204000,-0.27023742,-0.028269544,-0.004509177,1
14208000,-0.270447,-0.029480712,-0.004509177,1
14212000,-0.27066773,-0.030699644,-0.004509177,1
14220000,-0.2710175,-0.019768605,-0.004509177,1
14224000,-0.2711955,-0.020987721,-0.004509177,1
14228000,-0.27142188,-0.022158545,-0.004509177,1
14236000,-0.27182662,-0.024593832,-0.004509177,1
14240000,-0.2719974,-0.025824292,-0.004509177,1
14244000,-0.27214658,-0.013657416,-0.004509177,1
14248000,-0.2723445,-0.014926227,-0.004509177,1
14252000,-0.2725502,-0.016155422,-0.004509177,1
14256000,-0.2727161,-0.0174028,-0.004509177,1
14260000,-0.27284324,-0.018650303,-0.004509177,1
14264000,-0.27298644,-0.019907605,-0.004509177,1
14268000,-0.27317584,-0.007751322,-0.004509177,1
14272000,-0.2733463,-0.009010701,-0.004509177,1
14276000,-0.27349228,-0.010233998,-0.004509177,1
14280000,-0.27364266,-0.011480513,-0.004509177,1
14284000,-0.27380607,-0.012772398,-0.004509177,1
14292000,-0.2741464,-0.001729031,-0.004509177,1
14296000,-0.2742947,-0.002915138,-0.004509177,1
14300000,-0.2744251,-0.004102402,-0.004509177,1
14304000,-0.27457336,-0.005317898,-0.004509177,1
14308000,-0.27471426,-0.006518363,-0.004509177,1
14312000,-0.27483642,-0.007740628,-0.004509177,1
14316000,-0.274937,0.004554926,-0.004509177,1
14320000,-0.27504382,0.003370317,-0.004509177,1
14324000,-0.27518135,0.002214757,-0.004509177,1
14328000,-0.2753273,0.001011393,-0.004509177,1
14332000,-0.27545607,-0.000203312,-0.004509177,1
14336000,-0.27555963,-0.00140606,-0.004509177,1
14340000,-0.2756794,0.010959395,-0.004509177,1
14344000,-0.2757925,0.009767649,-0.004509177,1
14348000,-0.27588198,0.008597649,-0.004509177,1
14352000,-0.27596253,0.00741893,-0.004509177,1
14356000,-0.2760656,0.006263302,-0.004509177,1
14360000,-0.27618515,0.005099348,-0.004509177,1
14364000,-0.27628413,0.01751214,-0.004509177,1
14372000,-0.2765125,0.015052702,-0.004509177,1
14376000,-0.27664354,0.013905968,-0.004509177,1
14384000,-0.27680707,0.011585248,-0.004509177,1
14388000,-0.27691093,0.02409332,-0.004509177,1
14392000,-0.2769797,0.02292655,-0.004509177,1
14396000,-0.27705118,0.021739388,-0.004509177,1
14404000,-0.2772085,0.019297715,-0.004509177,1
14408000,-0.27726635,0.0181233,-0.004509177,1
14416000,-0.27747077,0.029535694,-0.004509177,1
14420000,-0.27756146,0.028431546,-0.004509177,1
14424000,-0.2776312,0.027309831,-0.004509177,1
14428000,-0.2777042,0.026159756,-0.004509177,1
14432000,-0.2778016,0.025025997,-0.004509177,1
14436000,-0.27789876,0.037639767,-0.004509177,1
14440000,-0.2779831,0.03648918,-0.004509177,1
14444000,-0.2780848,0.03535403,-0.004509177,1
14448000,-0.27817982,0.034209523,-0.004509177,1
14452000,-0.27827397,0.03306722,-0.004509177,1
14456000,-0.27835885,0.031963408,-0.004509177,1
14460000,-0.27842534,0.044680946,-0.004509177,1
14468000,-0.2785872,0.042430975,-0.004509177,1
14472000,-0.2787257,0.04130155,-0.004509177,1
14476000,-0.27886584,0.040207345,-0.004509177,1
14484000,-0.27907988,0.05184219,-0.004509177,1
14488000,-0.2792117,0.050754204,-0.004509177,1
14492000,-0.2793535,0.049665082,-0.004509177,1
14496000,-0.27948913,0.04857556,-0.004509177,1
14500000,-0.2796519,0.047508933,-0.004509177,1
14504000,-0.2797771,0.046397775,-0.004509177,1
14508000,-0.2798885,0.059120424,-0.004509177,1
14512000,-0.28001967,0.058006633,-0.004509177,1
14520000,-0.2802675,0.0558355,-0.004509177,1
14524000,-0.28040138,0.05472688,-0.004509177,1
14532000,-0.28065136,0.06647168,-0.004509177,1
14536000,-0.28079993,0.06534563,-0.004509177,1
14540000,-0.28095934,0.06421547,-0.004509177,1
14544000,-0.28111506,0.06312246,-0.004509177,1
14548000,-0.28126776,0.062015444,-0.004509177,1
14556000,-0.2815172,0.073695034,-0.004509177,1
14560000,-0.28162444,0.072620645,-0.004509177,1
14564000,-0.28172076,0.07150302,-0.004509177,1
14568000,-0.28184015,0.07034768,-0.004509177,1
14576000,-0.2821114,0.06808559,-0.004509177,1
14584000,-0.28240216,0.079786904,-0.004509177,1
14588000,-0.28254607,0.0786332,-0.004509177,1
14592000,-0.282673,0.07748766,-0.004509177,1
14596000,-0.28278905,0.07637681,-0.004509177,1
14604000,-0.28305003,0.08809971,-0.004509177,1
14612000,-0.2832913,0.08580273,-0.004509177,1
14616000,-0.28339022,0.084726974,-0.004509177,1
14620000,-0.28346965,0.08364302,-0.004509177,1
14628000,-0.2837034,0.09538944,-0.004509177,1
14632000,-0.28380644,0.094294384,-0.004509177,1
14636000,-0.28393525,0.09315754,-0.004509177,1
14640000,-0.28405878,0.09198968,-0.004509177,1
14648000,-0.2842758,0.08961484,-0.004509177,1
14652000,-0.2843855,0.10254348,-0.004509177,1
14656000,-0.28449607,0.10138992,-0.004509177,1
14660000,-0.2846026,0.10021893,-0.004509177,1
14664000,-0.28471795,0.09906949,-0.004509177,1
14668000,-0.28482378,0.097903974,-0.004509177,1
14676000,-0.28501546,0.109676816,-0.004509177,1
14684000,-0.28522965,0.10733934,-0.004509177,1
14692000,-0.28550512,0.104983814,-0.004509177,1
14700000,-0.285743,0.116668716,-0.004509177,1
14704000,-0.28586274,0.115481056,-0.004509177,1
14708000,-0.28604028,0.11426429,-0.004509177,1
14716000,-0.28636947,0.11183567,-0.004509177,1
14720000,-0.2865236,0.11061763,-0.004509177,1
14724000,-0.2866486,0.12358093,-0.004509177,1
14728000,-0.28677893,0.12239149,-0.004509177,1
14732000,-0.28692493,0.12121993,-0.004509177,1
14736000,-0.28706506,0.12001082,-0.004509177,1
14740000,-0.28722483,0.11878529,-0.004509177,1
14744000,-0.2873794,0.11757496,-0.004509177,1
14748000,-0.28751,0.13054504,-0.004509177,1
14756000,-0.287814,0.12820037,-0.004509177,1
14760000,-0.28795654,0.12693089,-0.004509177,1
14764000,-0.28807536,0.12567295,-0.004509177,1
14768000,-0.28816935,0.12443408,-0.004509177,1
14772000,-0.2882735,0.1374281,-0.004509177,1
14776000,-0.2883754,0.13622248,-0.004509177,1
14780000,-0.28848916,0.13496044,-0.004509177,1
14788000,-0.28876296,0.1323598,-0.004509177,1
14792000,-0.28889585,0.13106172,-0.004509177,1
14796000,-0.2890113,0.14399706,-0.004509177,1
14800000,-0.28913233,0.1427081,-0.004509177,1
14804000,-0.28923133,0.14145191,-0.004509177,1
14808000,-0.28931564,0.14020835,-0.004509177,1
14812000,-0.28939226,0.13899183,-0.004509177,1
14816000,-0.28944954,0.13774283,-0.004509177,1
14820000,-0.28949255,0.150688,-0.004509177,1
14824000,-0.28953806,0.14938666,-0.004509177,1
14828000,-0.2896204,0.1480958,-0.004509177,1
14832000,-0.2897379,0.14677987,-0.004509177,1
14836000,-0.2898478,0.14550178,-0.004509177,1
14840000,-0.28994873,0.14423749,-0.004509177,1
14844000,-0.29006675,0.15724531,-0.004509177,1
14848000,-0.2901961,0.15599076,-0.004509177,1
14852000,-0.29029202,0.15472758,-0.004509177,1
14856000,-0.29037294,0.15344132,-0.004509177,1
14860000,-0.29047987,0.15214318,-0.004509177,1
14864000,-0.2905439,0.15084536,-0.004509177,1
14868000,-0.29062897,0.16386934,-0.004509177,1
14872000,-0.29072315,0.16259938,-0.004509177,1
14876000,-0.29079023,0.16133514,-0.004509177,1
14880000,-0.29088193,0.16003782,-0.004509177,1
14884000,-0.29097247,0.15873244,-0.004509177,1
14892000,-0.2911809,0.17050998,-0.004509177,1
14896000,-0.29126677,0.16925642,-0.004509177,1
14900000,-0.29138726,0.16803616,-0.004509177,1
14904000,-0.29152837,0.16677704,-0.004509177,1
14908000,-0.29166302,0.16554317,-0.004509177,1
14912000,-0.2917748,0.16428725,-0.004509177,1
14916000,-0.29184556,0.17732926,-0.004509177,1
14924000,-0.29200885,0.17468913,-0.004509177,1
14928000,-0.29212502,0.17338124,-0.004509177,1
14932000,-0.29221243,0.17210831,-0.004509177,1
14936000,-0.2922847,0.17085053,-0.004509177,1
14940000,-0.29236397,0.18397373,-0.004509177,1
14948000,-0.29255822,0.18139614,-0.004509177,1
14952000,-0.29265797,0.18008769,-0.004509177,1
14956000,-0.2927661,0.17877978,-0.004509177,1
14964000,-0.29293737,0.1905764,-0.004509177,1
14972000,-0.29308283,0.18803784,-0.004509177,1
14976000,-0.29315293,0.18677571,-0.004509177,1
14980000,-0.29322764,0.18553011,-0.004509177,1
14984000,-0.29328924,0.18427032,-0.004509177,1
14988000,-0.2933294,0.19739908,-0.004509177,1
14996000,-0.29344374,0.19480516,-0.004509177,1
15000000,-0.293518,0.19357324,-0.004509177,1
15004000,-0.2935771,0.19235568,-0.004509177,1
15008000,-0.29365286,0.19112389,-0.004509177,1
15012000,-0.2937403,0.20430753,-0.004509177,1
15020000,-0.2939709,0.20183001,-0.004509177,1
15024000,-0.29406595,0.20063075,-0.004509177,1
15028000,-0.29413566,0.19942167,-0.004509177,1
15032000,-0.2941824,0.19817594,-0.004509177,1
15036000,-0.29423243,0.21136796,-0.004509177,1
15040000,-0.2943121,0.21008588,-0.004509177,1
15044000,-0.29441226,0.20878528,-0.004509177,1
15048000,-0.29450718,0.20754851,-0.004509177,1
15052000,-0.2945572,0.2063578,-0.004509177,1
15060000,-0.2946134,0.21826263,-0.004509177,1
15068000,-0.2947332,0.21571364,-0.004509177,1
15072000,-0.29478273,0.21443169,-0.004509177,1
15076000,-0.29484743,0.2131193,-0.004509177,1
15080000,-0.29492337,0.21182133,-0.004509177,1
15084000,-0.2950018,0.22497286,-0.004509177,1
15092000,-0.29512605,0.22230536,-0.004509177,1
15096000,-0.29518178,0.22097021,-0.004509177,1
15100000,-0.2952712,0.21965699,-0.004509177,1
15104000,-0.2953709,0.21839201,-0.004509177,1
15108000,-0.2954513,0.22272661,-0.004509177,1
15116000,-0.2956511,0.22011212,-0.004509177,1
15120000,-0.29574627,0.21881431,-0.004509177,1
15124000,-0.2958093,0.21755065,-0.004509177,1
15128000,-0.29585293,0.21629912,-0.004509177,1
15132000,-0.29594362,0.21504271,-0.004509177,1
15136000,-0.296079,0.21380772,-0.004509177,1
15140000,-0.2962013,0.21252507,-0.004509177,1
15148000,-0.29633638,0.20994864,-0.004509177,1
15156000,-0.2964912,0.20741619,-0.004509177,1
15160000,-0.2965844,0.20614721,-0.004509177,1
15164000,-0.29666644,0.20494524,-0.004509177,1
15168000,-0.29676223,0.20372011,-0.004509177,1
15172000,-0.29687747,0.20247214,-0.004509177,1
15180000,-0.29705375,0.20004296,-0.004509177,1
15184000,-0.2971177,0.19883996,-0.004509177,1
15188000,-0.29718205,0.19763578,-0.004509177,1
15192000,-0.29727408,0.19645934,-0.004509177,1
15200000,-0.29738066,0.19414784,-0.004509177,1
15204000,-0.2974307,0.19300568,-0.004509177,1
15212000,-0.29756218,0.19079983,-0.004509177,1
15216000,-0.2976067,0.18969236,-0.004509177,1
15220000,-0.2976564,0.18860528,-0.004509177,1
15224000,-0.29771417,0.1875556,-0.004509177,1
15228000,-0.9443023,0.2051445,0.04320188,1
15232000,-0.9443921,0.20413943,0.043399688,1
15236000,-0.9445078,0.2031581,0.04359703,1
15240000,-0.9445084,0.20213102,0.043785583,1
15244000,-0.9442432,0.20107354,0.043939717,1
15248000,-0.9437759,0.20002168,0.044061963,1
15252000,-0.9430705,0.19895516,0.044150222,1
15256000,-0.94212663,0.19786851,0.044205047,1
15260000,-0.94096106,0.19678088,0.044225164,1
15268000,-0.9378913,0.19462608,0.04414449,1
15272000,-0.93611,0.19350897,0.044070873,1
15276000,-0.93419284,0.19235805,0.043980353,1
15284000,-0.92983323,0.19006655,0.04370974,1
15288000,-0.9275277,0.18901779,0.043783817,1
15292000,-0.9250165,0.18790269,0.04358364,1
15300000,-0.91969836,0.18569435,0.04312564,1
15308000,-0.9139547,0.18353143,0.042582814,1
15312000,-0.91098666,0.1824443,0.04229317,1
15316000,-0.90789753,0.18133366,0.041985437,1
15320000,-0.90472436,0.18021557,0.041662697,1
15324000,-0.901486,0.1791286,0.04132174,1
15332000,-0.8948098,0.17694324,0.04060109,1
15336000,-0.89138234,0.17581552,0.04022734,1
15340000,-0.8879373,0.17470534,0.039844904,1
15344000,-0.8844341,0.17362842,0.039445147,1
15348000,-0.88088936,0.17256092,0.03903427,1
15352000,-0.87731546,0.17150146,0.038614508,1
15356000,-0.8736907,0.17047828,0.03817839,1
15364000,-0.8663492,0.16842349,0.037283584,1
15372000,-0.85887736,0.16635749,0.036357112,1
15376000,-0.855081,0.16536283,0.03587442,1
15380000,-0.8513227,0.16441393,0.035389036,1
15384000,-0.8476502,0.16350707,0.03511402,1
15388000,-0.84391403,0.16256723,0.03462199,1
15392000,-0.84012413,0.16165225,0.034115374,1
15396000,-0.83631885,0.16077256,0.033599287,1
15400000,-0.83248407,0.15994476,0.033069707,1
15404000,-0.82863533,0.15910065,0.032537315,1
15408000,-0.82484484,0.15822512,0.03201551,1
15412000,-0.821054,0.15738596,0.031486984,1
15420000,-0.8134554,0.15573236,0.030417033,1
15428000,-0.8057813,0.15420385,0.029311934,1
15432000,-0.80195785,0.1534534,0.028756851,1
15436000,-0.798172,0.15273067,0.02820304,1
15444000,-0.79064304,0.15136412,0.027088795,1
15448000,-0.78685254,0.15074444,0.0265186,1
15452000,-0.78307307,0.15016463,0.025944944,1
15456000,-0.7793171,0.14958312,0.025373757,1
15460000,-0.77557945,0.1489502,0.024808347,1
15464000,-0.77188087,0.1483324,0.024246324,1
15468000,-0.7682037,0.14774288,0.023683822,1
15472000,-0.7644948,0.14715704,0.023114055,1
15476000,-0.76079315,0.14655662,0.022544933,1
15480000,-0.75713265,0.14593993,0.0219821,1
15484000,-0.75351,0.14537595,0.021492783,1
15488000,-0.7498539,0.14487669,0.02091675,1
15492000,-0.74622726,0.1444178,0.020341508,1
15496000,-0.7426433,0.14397503,0.01977111,1
15500000,-0.73907816,0.14353451,0.019202523,1
15504000,-0.7355262,0.14306548,0.018636726,1
15508000,-0.73202044,0.14258088,0.018078318,1
15512000,-0.72855246,0.14212921,0.017522944,1
15516000,-0.72509164,0.14168407,0.01696714,1
15520000,-0.721613,0.1412654,0.016405627,1
15524000,-0.71819514,0.14084765,0.015853155,1
15528000,-0.7148144,0.14042567,0.015305958,1
15532000,-0.7113803,0.13999668,0.014748914,1
15536000,-0.7079953,0.13955288,0.014199623,1
15540000,-0.70460975,0.13912804,0.013648061,1
15544000,-0.70122135,0.13872923,0.013093673,1
15548000,-0.6978802,0.13836229,0.012544768,1
15556000,-0.69123745,0.13764127,0.011450027,1
15560000,-0.6879639,0.13731466,0.010907979,1
15564000,-0.6847366,0.1369835,0.010372996,1
15572000,-0.67832845,0.13629687,0.009308817,1
15576000,-0.6751812,0.13598433,0.008783983,1
15580000,-0.6720433,0.13572527,0.008258397,1
15588000,-0.66587704,0.13515148,0.007223523,1
15592000,-0.6627901,0.13491228,0.006704002,1
15596000,-0.65973324,0.13467722,0.006188837,1
15604000,-0.65363294,0.13421957,0.005158596,1
15608000,-0.6506131,0.13395089,0.004648243,1
15612000,-0.6476207,0.1336727,0.004141876,1
15620000,-0.64174783,0.13325903,0.003144335,1
15624000,-0.6388359,0.13306719,0.002648703,1
15632000,-0.6330221,0.13260135,0.001657878,1
15636000,-0.6301539,0.1323696,0.001168008,1
15640000,-0.6273419,0.1321272,0.000687092,1
15644000,-0.62454593,0.13192554,0.000208158,1
15648000,-0.6217215,0.13175029,-0.000276264,1
15652000,-0.61893666,0.13157403,-0.000754441,1
15660000,-0.61345905,0.13110358,-0.001697293,1
15668000,-0.60806733,0.13071273,-0.002627645,1
15672000,-0.6053878,0.13049218,-0.003091189,1
15676000,-0.6026908,0.13025028,-0.003558691,1
15684000,-0.5973903,0.12978396,-0.004479621,1
15692000,-0.5921823,0.12928286,-0.005408323,1
15700000,-0.5870361,0.12879248,-0.006312443,1
15708000,-0.58202016,0.12846424,-0.007193285,1
15712000,-0.5795786,0.12831886,-0.007622499,1
15716000,-0.5771342,0.12814446,-0.008053424,1
15720000,-0.5747184,0.12792815,-0.008481069,1
15724000,-0.5723254,0.12771341,-0.008905348,1
15728000,-0.56993115,0.1275158,-0.009330031,1
15732000,-0.5675426,0.12728746,-0.009755284,1
15736000,-0.5651692,0.12706934,-0.010178292,1
15740000,-0.5628467,0.12689064,-0.010591725,1
15744000,-0.56054807,0.12669384,-0.011002169,1
15748000,-0.55825114,0.12645549,-0.011414443,1
15752000,-0.5559532,0.12625992,-0.01182602,1
15756000,-0.5536868,0.12607901,-0.012232114,1
15760000,-0.55144507,0.12583193,-0.012637062,1
15764000,-0.5492187,0.1255924,-0.013039742,1
15768000,-0.5469556,0.12542339,-0.013446664,1
15772000,-0.5446634,0.12524341,-0.013859792,1
15780000,-0.54022485,0.124804124,-0.01466565,1
15784000,-0.53803575,0.12460496,-0.015102265,1
15788000,-0.53585964,0.124365084,-0.015501181,1
15796000,-0.53152704,0.123906426,-0.016296647,1
15800000,-0.5293954,0.12366349,-0.01668994,1
15804000,-0.5272593,0.12343588,-0.01708396,1
15808000,-0.52515244,0.123224236,-0.017472573,1
15812000,-0.52308,0.122985296,-0.017857183,1
15816000,-0.52101874,0.122751735,-0.018240172,1
15820000,-0.5189487,0.12250711,-0.018626068,1
15824000,-0.5169094,0.12224828,-0.019007996,1
15828000,-0.51487976,0.121991314,-0.019388817,1
15832000,-0.5128631,0.12175972,-0.019766483,1
15836000,-0.51086843,0.12152642,-0.02014097,1
15840000,-0.5088621,0.12127859,-0.020519175,1
15844000,-0.50689316,0.12108842,-0.02088762,1
15848000,-0.5049486,0.12090601,-0.02125173,1
15852000,-0.5030109,0.12070322,-0.02161651,1
15856000,-0.5011122,0.120493636,-0.021975242,1
15860000,-0.49918994,0.12027475,-0.02233951,1
15864000,-0.49729395,0.12007629,-0.022698218,1
15868000,-0.4954089,0.119925134,-0.023052186,1
15872000,-0.49349746,0.11976153,-0.023412341,1
15880000,-0.4897611,0.11935008,-0.024124578,1
15884000,-0.4879705,0.11911528,-0.02449743,1
15888000,-0.4861821,0.11890712,-0.024840986,1
15892000,-0.48434654,0.118693255,-0.025194224,1
15896000,-0.4825143,0.11851289,-0.02554486,1
15900000,-0.48070163,0.118350446,-0.025891028,1
15904000,-0.4788884,0.11817794,-0.026238617,1
15908000,-0.47711575,0.118036166,-0.026576752,1
15916000,-0.47367612,0.11771719,-0.027237771,1
15920000,-0.47190472,0.117596276,-0.027575333,1
15924000,-0.47017026,0.11745464,-0.027908204,1
15928000,-0.46846667,0.11730102,-0.028236825,1
15932000,-0.46677372,0.11717018,-0.028561955,1
15936000,-0.46508855,0.11701779,-0.028887931,1
15940000,-0.46338314,0.116901085,-0.02921499,1
15944000,-0.4616697,0.116776355,-0.029544655,1
15948000,-0.45998433,0.116591245,-0.029874906,1
15952000,-0.45833617,0.1164423,-0.030195475,1
15956000,-0.4567271,0.11628714,-0.030509744,1
15960000,-0.4550954,0.11612077,-0.030829716,1
15964000,-0.45347762,0.11597562,-0.031145584,1
15968000,-0.45191094,0.115847275,-0.031450726,1
15972000,-0.45035443,0.11574137,-0.031752218,1
15980000,-0.44722697,0.11550478,-0.03236132,1
15984000,-0.44565797,0.11541397,-0.032744203,1
15988000,-0.4441191,0.11529334,-0.033045884,1
15992000,-0.44259635,0.115161315,-0.033346023,1
15996000,-0.4410663,0.115073815,-0.033643484,1
16000000,-0.43955347,0.11500125,-0.03393649,1
16004000,-0.43809855,0.11493091,-0.03421861,1
16008000,-0.43662468,0.11484929,-0.034505725,1
16012000,-0.43514055,0.11478026,-0.034793764,1
16020000,-1.0555412,0.09992727,-0.037188422,0.37686124
16024000,-1.0541244,0.09980649,-0.037483554,0.37686124
16028000,-1.0526841,0.09972762,-0.03777922,0.37686124
16032000,-1.0511433,0.09966276,-0.0380938,0.37686124
16036000,-1.0493805,0.099624895,-0.03845008,0.37686124
16040000,-1.0473607,0.09962725,-0.03885379,0.37686124
16044000,-1.0450611,0.08486225,-0.0412448,0.39962077
16052000,-1.0396489,0.08474447,-0.042395163,0.39962077
16056000,-1.0365845,0.084742896,-0.043040395,0.39962077
16060000,-1.033298,0.084731236,-0.043734424,0.39962077
16064000,-1.0297811,0.08468237,-0.044482496,0.39962077
16068000,-1.0260348,0.06994806,-0.04738485,0.42113012
16076000,-1.0180137,0.06980011,-0.049180284,0.42113012
16080000,-1.0137188,0.06968658,-0.050148945,0.42113012
16084000,-1.0090742,0.069609165,-0.051615443,0.42113012
16088000,-1.0043799,0.06944268,-0.05269333,0.42113012
16092000,-0.9995561,0.05462557,-0.0561567,0.44206655
16096000,-0.99458057,0.05447949,-0.057349287,0.44206655
16100000,-0.9894483,0.05426959,-0.058591172,0.44206655
16108000,-0.9788544,0.05394056,-0.061151955,0.44206655
16112000,-0.97345376,0.053727582,-0.062470205,0.44206655
16116000,-0.96790165,0.038869075,-0.066486314,0.4618128
16120000,-0.96228313,0.03862681,-0.06792462,0.4618128
16124000,-0.95662886,0.03846275,-0.06936482,0.4618128
16128000,-0.9508717,0.03835156,-0.07082725,0.4618128
16132000,-0.9450378,0.038205065,-0.07231949,0.4618128
16140000,-0.93323016,0.023359712,-0.07833129,0.48036835
16144000,-0.92725575,0.02329648,-0.07991834,0.48036835
16148000,-0.92124206,0.02325185,-0.08151771,0.48036835
16156000,-0.9090853,0.023170948,-0.08476514,0.48036835
16160000,-0.9029551,0.023159312,-0.08640557,0.48036835
16164000,-0.8968028,0.008655966,-0.09137439,0.49770594
16172000,-0.8844162,0.00882083,-0.094800346,0.49770594
16180000,-0.87196803,0.009056047,-0.0982509,0.49770594
16184000,-0.8653703,0.009522383,-0.10115336,0.49770594
16188000,-0.8591386,-0.00470501,-0.10656121,0.51469713
16192000,-0.8529143,-0.004455542,-0.10835638,0.51469713
16196000,-0.8466778,-0.004187614,-0.1101562,0.51469713
16200000,-0.8404496,-0.003873611,-0.11194851,0.51469713
16204000,-0.8342209,-0.003495367,-0.11373164,0.51469713
16208000,-0.8280367,-0.003071467,-0.11549565,0.51469713
16212000,-0.82187515,-0.01697781,-0.12126362,0.53042215
16216000,-0.815672,-0.016464675,-0.123081595,0.53042215
16220000,-0.80951303,-0.015898883,-0.12487737,0.53042215
16224000,-0.80341244,-0.015278965,-0.12664577,0.53042215
16228000,-0.7973186,-0.014640469,-0.12841086,0.53042215
16232000,-0.7912259,-0.013974708,-0.1301722,0.53042215
16236000,-0.78518087,-0.027532794,-0.1362611,0.5449018
16240000,-0.77921695,-0.02672375,-0.13801058,0.5449018
16248000,-0.76732403,-0.025008105,-0.14148036,0.5449018
16252000,-0.7613939,-0.024076868,-0.1431942,0.5449018
16260000,-0.7496188,-0.03633764,-0.15126173,0.55818695
16264000,-0.7438001,-0.035324376,-0.1529794,0.55818695
16268000,-0.73799217,-0.034255996,-0.15468003,0.55818695
16272000,-0.7321969,-0.033081453,-0.15634866,0.55818695
16280000,-0.7208029,-0.030624688,-0.15959035,0.55818695
16284000,-0.7144252,-0.04276583,-0.16831392,0.5703315
16292000,-0.7031279,-0.040032864,-0.17160407,0.5703315
16296000,-0.6975665,-0.038625132,-0.17320558,0.5703315
16300000,-0.6920538,-0.037182085,-0.17477888,0.5703315
16304000,-0.68655896,-0.035696086,-0.1763325,0.5703315
16308000,-0.6811232,-0.048237935,-0.18317284,0.58253646
16316000,-0.6704145,-0.045097835,-0.18623021,0.58253646
16320000,-0.6650922,-0.043397598,-0.18770558,0.58253646
16324000,-0.659816,-0.04169644,-0.18916163,0.58253646
16328000,-0.6545482,-0.03997069,-0.19060506,0.58253646
16332000,-0.6493427,-0.052192036,-0.19762802,0.5936515
16336000,-0.6441984,-0.05038803,-0.1990483,0.5936515
16340000,-0.63910633,-0.048542492,-0.20043294,0.5936515
16344000,-0.63404614,-0.046685353,-0.20179917,0.5936515
16348000,-0.6289871,-0.044825368,-0.20316155,0.5936515
16352000,-0.6239907,-0.042919844,-0.20448238,0.5936515
16356000,-0.61903644,-0.054870456,-0.21166827,0.60373145
16360000,-0.6141261,-0.052899092,-0.21297832,0.60373145
16364000,-0.60929704,-0.05094555,-0.21425891,0.60373145
16372000,-0.5996629,-0.046858557,-0.21674138,0.60373145
16376000,-0.5949092,-0.044765122,-0.21793544,0.60373145
16380000,-0.5901556,-0.05650156,-0.22529837,0.61281675
16384000,-0.5847815,-0.053538002,-0.22842371,0.61281675
16388000,-0.5801029,-0.051379025,-0.22961867,0.61281675
16396000,-0.57089746,-0.04711531,-0.23195429,0.61281675
16400000,-0.5663723,-0.044965535,-0.23307855,0.61281675
16404000,-0.5619478,-0.056579933,-0.24059413,0.6218001
16408000,-0.5575754,-0.05440014,-0.24168229,0.6218001
16412000,-0.5531805,-0.052174926,-0.24276017,0.6218001
16420000,-0.5444257,-0.047684327,-0.24487549,0.6218001
16424000,-0.5401512,-0.045414,-0.24587432,0.6218001
16428000,-0.5359455,-0.056796663,-0.25350994,0.6298698
16432000,-0.5317666,-0.05449021,-0.2544902,0.6298698
16436000,-0.5275627,-0.052164555,-0.25547045,0.6298698
16440000,-0.5233955,-0.049814977,-0.2564216,0.6298698
16444000,-0.51930636,-0.04746201,-0.25733304,0.6298698
16448000,-0.5152201,-0.045128018,-0.25824654,0.6298698
16452000,-0.5111599,-0.056375206,-0.26605126,0.6371044
16456000,-0.5071742,-0.053995594,-0.2669369,0.6371044
16460000,-0.5032281,-0.051610433,-0.26779845,0.6371044
16464000,-0.49928197,-0.049224116,-0.26865572,0.6371044
16468000,-0.49533206,-0.04687781,-0.26952633,0.6371044
16472000,-0.49143922,-0.044558264,-0.27037787,0.6371044
16476000,-0.48763835,-0.05551879,-0.27819586,0.64356685
16484000,-0.47978565,-0.05022517,-0.2808211,0.64356685
16488000,-0.47607583,-0.047842644,-0.28159505,0.64356685
16496000,-0.46883044,-0.04313308,-0.2830728,0.64356685
16500000,-0.46528184,-0.038305037,-0.2824196,0.649676
16508000,-0.4582515,-0.033613548,-0.28376836,0.649676
16512000,-0.4547746,-0.031294346,-0.28443047,0.649676
16516000,-0.4513327,-0.028952643,-0.2850634,0.649676
16524000,-0.4445084,-0.022110082,-0.2850639,0.6550811
16528000,-0.4411379,-0.019834012,-0.2856745,0.6550811
16532000,-0.4377865,-0.017526217,-0.2862595,0.6550811
16536000,-0.4344597,-0.01519762,-0.28682068,0.6550811
16540000,-0.43114778,-0.012921646,-0.28739405,0.6550811
16544000,-0.4278445,-0.01069627,-0.28798187,0.6550811
16548000,-0.42458853,-0.006516665,-0.28740403,0.65985477
16552000,-0.42137545,-0.004342802,-0.28796077,0.65985477
16556000,-0.4182152,-0.002187967,-0.28849834,0.65985477
16560000,-0.4151196,-3.89E-05,-0.2890054,0.65985477
16564000,-0.41200718,0.002082616,-0.28952962,0.65985477
16568000,-0.40891665,0.004143067,-0.29006797,0.65985477
16576000,-0.4029203,0.009982266,-0.29000893,0.66404366
16580000,-0.39996332,0.012033373,-0.29047725,0.66404366
16584000,-0.3964851,0.015062168,-0.29259333,0.66404366
16588000,-0.39353228,0.017034508,-0.2930988,0.66404366
16592000,-0.39060336,0.018982433,-0.29360193,0.66404366
16596000,-0.38770768,0.022442028,-0.29316482,0.668176
16600000,-0.38485232,0.02436395,-0.29363748,0.668176
16604000,-0.3819647,0.026279435,-0.29412627,0.668176
16612000,-0.3762425,0.030050397,-0.29510087,0.668176
16616000,-0.37344706,0.03188993,-0.29557568,0.668176
16620000,-0.37067783,0.03507778,-0.2951904,0.67178035
16624000,-0.36795938,0.036889605,-0.29563522,0.67178035
16628000,-0.36522877,0.038666688,-0.29610038,0.67178035
16632000,-0.36253017,0.040456958,-0.2965427,0.67178035
16636000,-0.35992178,0.042163312,-0.29698023,0.67178035
16640000,-0.357288,0.043814935,-0.29745424,0.67178035
16644000,-0.35466522,0.046695493,-0.29713506,0.6748786
16648000,-0.35208154,0.04839629,-0.29755697,0.6748786
16652000,-0.34951025,0.05003971,-0.29799902,0.6748786
16656000,-0.3469687,0.05160656,-0.2984624,0.6748786
16660000,-0.3444351,0.053161427,-0.29892686,0.6748786
16664000,-0.34191543,0.054740377,-0.29937226,0.6748786
16668000,-0.33940977,0.05738029,-0.29910666,0.67753273
16676000,-0.33442503,0.06034086,-0.30005786,0.67753273
16680000,-0.3320215,0.061782815,-0.30050862,0.67753273
16684000,-0.3298007,0.06293947,-0.3004428,0.67753273
16692000,-0.32511434,0.06682151,-0.3006058,0.679651
16696000,-0.32280827,0.06818129,-0.3010437,0.679651
16700000,-0.320515,0.069532126,-0.30147943,0.679651
16704000,-0.31823927,0.070817396,-0.30193874,0.679651
16708000,-0.31594694,0.072064154,-0.3024249,0.679651
16712000,-0.3136737,0.0733461,-0.30288425,0.679651
16716000,-0.3114344,0.07556647,-0.3026854,0.6813843
16720000,-0.30921263,0.076828115,-0.30312768,0.6813843
16724000,-0.30702412,0.078059144,-0.30356896,0.6813843
16728000,-0.30488956,0.079284094,-0.30398706,0.6813843
16732000,-0.30278438,0.08052362,-0.3043833,0.6813843
16740000,-0.2985505,0.08376782,-0.30463725,0.6827685
16744000,-0.29643774,0.085003875,-0.30503675,0.6827685
16748000,-0.29431093,0.08621256,-0.30545667,0.6827685
16752000,-0.29222295,0.087357916,-0.3058899,0.6827685
16756000,-0.29017118,0.08849632,-0.3063089,0.6827685
16764000,-0.28610453,0.091541275,-0.30658174,0.68386215
16768000,-0.28414243,0.09262584,-0.30698308,0.68386215
16772000,-0.28215295,0.09369912,-0.30740368,0.68386215
16776000,-0.28017572,0.094762295,-0.3078235,0.68386215
16784000,-0.27604806,0.09746073,-0.30931792,0.68386215
16788000,-0.27411923,0.09923093,-0.30921412,0.6848778
16792000,-0.27220452,0.10028536,-0.30960894,0.6848778
16796000,-0.27030268,0.10131666,-0.31000948,0.6848778
16800000,-0.26841342,0.10228878,-0.31043476,0.6848778
16804000,-0.26652542,0.10327956,-0.31084993,0.6848778
16808000,-0.2646611,0.104346044,-0.31121376,0.6848778
16812000,-0.26286116,0.10601832,-0.31109765,0.6856167
16816000,-0.2610741,0.10703043,-0.31145075,0.6856167
16820000,-0.2592777,0.10806439,-0.31179702,0.6856167
16824000,-0.2574736,0.10910263,-0.31214485,0.6856167
16828000,-0.25566807,0.11013175,-0.31249818,0.6856167
16832000,-0.25392365,0.111146644,-0.3128287,0.6856167
16836000,-0.25222832,0.1127223,-0.312713,0.6861309
16840000,-0.25053403,0.1137313,-0.31302068,0.6861309
16844000,-0.24880846,0.11477262,-0.31332672,0.6861309
16848000,-0.24709311,0.11578398,-0.31364363,0.6861309
16852000,-0.24537309,0.116768196,-0.31397736,0.6861309
16856000,-0.24365418,0.1177254,-0.31432506,0.6861309
16860000,-0.24199617,0.11925542,-0.31421596,0.6864517
16868000,-0.2387107,0.12119206,-0.3148216,0.6864517
16872000,-0.2371481,0.12209859,-0.31511757,0.6864517
16876000,-0.23560604,0.123032875,-0.31538817,0.6864517
16880000,-0.23405251,0.123960406,-0.3156683,0.6864517
16884000,-0.23207584,0.12640019,-0.3168719,0.6865721
16888000,-0.23051152,0.12735972,-0.3171427,0.6865721
16892000,-0.22893617,0.12831116,-0.31742334,0.6865721
16896000,-0.22741567,0.1292277,-0.31769526,0.6865721
16900000,-0.22592157,0.13016489,-0.3179426,0.6865721
16908000,-0.22300042,0.13251483,-0.31805003,0.68687344
16912000,-0.22151445,0.13342372,-0.31830797,0.68687344
16916000,-0.22000334,0.13437298,-0.3185565,0.68687344
16920000,-0.21855423,0.13530117,-0.318785,0.68687344
16924000,-0.21711913,0.13621704,-0.31901318,0.68687344
16928000,-0.21567139,0.13715239,-0.319237,0.68687344
16936000,-0.21282539,0.13937895,-0.31937245,0.6870179
16940000,-0.2113998,0.14028838,-0.31959864,0.6870179
16944000,-0.21001899,0.14124839,-0.3197738,0.6870179
16948000,-0.20867288,0.14222276,-0.3199231,0.6870179
16956000,-0.20592481,0.14452654,-0.31996512,0.6870297
16960000,-0.20458701,0.14548168,-0.3201199,0.6870297
16964000,-0.20323032,0.1464113,-0.32029843,0.6870297
16972000,-0.20051843,0.14825292,-0.32066426,0.6870297
16980000,-0.19785714,0.15051043,-0.320685,0.6869135
16984000,-0.19709444,0.15014327,-0.31924376,0.6869135
16988000,-0.19583756,0.15103684,-0.31938654,0.6869135
16992000,-0.19456396,0.15196691,-0.31951714,0.6869135
16996000,-0.19327146,0.15292525,-0.31964138,0.6869135
17000000,-0.19203426,0.15388575,-0.31973577,0.6869135
17004000,-0.19082364,0.15525927,-0.31948113,0.6863037
17008000,-0.18959671,0.15618934,-0.31958646,0.6863037
17012000,-0.18841346,0.15709776,-0.3196813,0.6863037
17016000,-0.18723387,0.15802433,-0.31976387,0.6863037
17020000,-0.18603428,0.15896602,-0.31984788,0.6863037
17024000,-0.18487632,0.15988834,-0.31992114,0.6863037
17028000,-0.18373466,0.16120115,-0.31966144,0.68561065
17032000,-0.18260324,0.16212419,-0.31971967,0.68561065
17036000,-0.18148611,0.16305898,-0.31976354,0.68561065
17040000,-0.18038422,0.163946,-0.31982663,0.68561065
17044000,-0.17929259,0.16484284,-0.3198786,0.68561065
17048000,-0.17817388,0.16575202,-0.3199373,0.68561065
17052000,-0.17704594,0.16709477,-0.31965077,0.6848233
17056000,-0.1759426,0.16803595,-0.31968218,0.6848233
17060000,-0.17480783,0.16898942,-0.3197226,0.6848233
17064000,-0.17361957,0.16996197,-0.3197796,0.6848233
17068000,-0.17248517,0.17093249,-0.31980932,0.6848233
17072000,-0.17140874,0.17189096,-0.31981567,0.6848233
17076000,-0.17032728,0.17324936,-0.31949228,0.68401414
17080000,-0.16922241,0.17418769,-0.31952405,0.68401414
17084000,-0.16746208,0.17677686,-0.3215539,0.68401414
17088000,-0.16638342,0.17775023,-0.32155523,0.68401414
17092000,-0.16531193,0.17868367,-0.32157576,0.68401414
17096000,-0.16423531,0.1795674,-0.32162762,0.68401414
17100000,-0.1631844,0.18077628,-0.32140177,0.6836569
17104000,-0.16218084,0.18167917,-0.32140338,0.6836569
17108000,-0.16114806,0.18256697,-0.3214288,0.6836569
17112000,-0.16016506,0.18343778,-0.32143787,0.6836569
17116000,-0.15922154,0.18433249,-0.32141194,0.6836569
17120000,-0.15822813,0.18523157,-0.3214095,0.6836569
17124000,-0.15721175,0.18640384,-0.32118157,0.6832261
17132000,-0.15526527,0.18815252,-0.32118255,0.6832261
17136000,-0.15432158,0.18898253,-0.32119307,0.6832261
17140000,-0.15337105,0.18981756,-0.32120413,0.6832261
17144000,-0.15244621,0.19066231,-0.32119572,0.6832261
17148000,-0.15153542,0.19180445,-0.3209285,0.6827375
17152000,-0.15061438,0.1926268,-0.3209307,0.6827375
17156000,-0.14970651,0.19344433,-0.32092834,0.6827375
17160000,-0.14883581,0.1942511,-0.3209126,0.6827375
17164000,-0.14794569,0.19505267,-0.32091,0.6827375
17172000,-0.1462136,0.19698139,-0.32060972,0.68219095
17176000,-0.14534646,0.19775811,-0.3206088,0.68219095
17180000,-0.14443767,0.19854324,-0.3206249,0.68219095
17184000,-0.14370385,0.19900344,-0.32023987,0.68219095
17188000,-0.14284545,0.19978924,-0.32022792,0.68219095
17192000,-0.14197117,0.20060882,-0.320204,0.68219095
17196000,-0.1411337,0.20168734,-0.3199258,0.6815258
17200000,-0.14029098,0.20246059,-0.31991214,0.6815258
17204000,-0.1394456,0.20323347,-0.31989995,0.6815258
17208000,-0.13855994,0.20397405,-0.31992826,0.6815258
17212000,-0.13767475,0.20470382,-0.31996277,0.6815258
17216000,-0.13683134,0.2054738,-0.3199508,0.6815258
17220000,-0.1359793,0.20656791,-0.31966764,0.6808224
17224000,-0.13513273,0.20733584,-0.31965807,0.6808224
17228000,-0.13429342,0.20812216,-0.31963333,0.6808224
17232000,-0.13347,0.2088957,-0.31960773,0.6808224
17236000,-0.13267535,0.20968042,-0.31955984,0.6808224
17240000,-0.13190028,0.2104597,-0.31950465,0.6808224
17244000,-0.13113596,0.21150804,-0.31919795,0.68011665
17248000,-0.13035716,0.21221773,-0.31918594,0.68011665
17252000,-0.12952302,0.21291548,-0.31921068,0.68011665
17256000,-0.12869798,0.21361035,-0.31923214,0.68011665
17260000,-0.12793127,0.21431346,-0.31921738,0.68011665
17264000,-0.12719044,0.21502075,-0.31918612,0.68011665
17268000,-0.12645537,0.21603477,-0.31888214,0.6793978
17276000,-0.124965146,0.21741483,-0.31884393,0.6793978
17284000,-0.12368788,0.21845375,-0.31836966,0.6793978
17288000,-0.122971386,0.21914464,-0.31833372,0.6793978
17292000,-0.12224151,0.2201463,-0.31802657,0.678583
17296000,-0.12154986,0.22078045,-0.31801134,0.678583
17300000,-0.12085724,0.2214222,-0.31799185,0.678583
17304000,-0.12014962,0.22207873,-0.31797138,0.678583
17308000,-0.11945691,0.22270192,-0.31796303,0.678583
17312000,-0.1187982,0.2233374,-0.31792888,0.678583
17316000,-0.118130885,0.22432369,-0.3175938,0.6777627
17320000,-0.11748301,0.22493075,-0.31757072,0.6777627
17324000,-0.11683163,0.22551605,-0.3175628,0.6777627
17328000,-0.1161654,0.22614476,-0.31753618,0.6777627
17332000,-0.11555453,0.22676238,-0.3174864,0.6777627
17336000,-0.11496178,0.22734965,-0.31744546,0.6777627
17340000,-0.11435188,0.22825435,-0.3171265,0.67692566
17344000,-0.11374224,0.22880545,-0.3171165,0.67692566
17348000,-0.113134496,0.22934395,-0.31711307,0.67692566
17356000,-0.111826554,0.23051187,-0.31710002,0.67692566
17360000,-0.11116861,0.23107734,-0.31710693,0.67692566
17364000,-0.110530935,0.23200227,-0.31678852,0.6760899
17372000,-0.10936836,0.23307076,-0.31675735,0.6760899
17376000,-0.1087486,0.23359497,-0.31676862,0.6760899
17380000,-0.108137496,0.23411296,-0.31677902,0.6760899
17388000,-0.107080415,0.23514973,-0.31608725,0.6751784
17392000,-0.106463894,0.2356916,-0.316085,0.6751784
17396000,-0.1058579,0.23621508,-0.31608838,0.6751784
17400000,-0.10527454,0.23670861,-0.31609815,0.6751784
17404000,-0.10469104,0.23719367,-0.31611314,0.6751784
17408000,-0.10410061,0.23771249,-0.31611094,0.6751784
17416000,-0.102980934,0.2389654,-0.31584007,0.6742843
17420000,-0.102473095,0.23939815,-0.31584626,0.6742843
17424000,-0.10190615,0.23986705,-0.31586206,0.6742843
17428000,-0.101328716,0.24034257,-0.31587937,0.6742843
17436000,-0.10022891,0.24166496,-0.31555203,0.67339224
17440000,-0.09970238,0.24213228,-0.31554657,0.67339224
17444000,-0.09919237,0.24260315,-0.31552982,0.67339224
17448000,-0.09867316,0.24306944,-0.31552097,0.67339224
17452000,-0.098136164,0.24347578,-0.3155591,0.67339224
17456000,-0.097599275,0.24388191,-0.3155974,0.67339224
17460000,-0.09708678,0.24466607,-0.31528434,0.6725195
17464000,-0.09661349,0.24512759,-0.31525323,0.6725195
17468000,-0.096124165,0.2456173,-0.31521308,0.6725195
17472000,-0.09564357,0.24605781,-0.31519893,0.6725195
17480000,-0.09453733,0.24692105,-0.3152607,0.6725195
17484000,-0.09367377,0.24862659,-0.31602764,0.67168266
17488000,-0.09314744,0.24902628,-0.31606472,0.67168266
17492000,-0.09262,0.24944314,-0.31609172,0.67168266
17496000,-0.09213199,0.24985197,-0.31610227,0.67168266
17500000,-0.091653794,0.25027296,-0.3160997,0.67168266
17504000,-0.09113161,0.2507083,-0.31611225,0.67168266
17508000,-0.09058871,0.25146234,-0.31584638,0.67109704
17516000,-0.08954047,0.25231734,-0.31588298,0.67109704
17524000,-0.088633604,0.2531854,-0.31583396,0.67109704
17532000,-0.08773146,0.25443807,-0.31544775,0.67052156
17536000,-0.08725786,0.25487703,-0.31543088,0.67052156
17540000,-0.08676474,0.25528848,-0.31544203,0.67052156
17544000,-0.08627962,0.25572813,-0.31543094,0.67052156
17548000,-0.085779116,0.25616524,-0.31542984,0.67052156
17552000,-0.08531473,0.25657243,-0.3154278,0.67052156
17556000,-0.084865324,0.2572648,-0.3151428,0.66997635
17560000,-0.084420644,0.2576362,-0.31515244,0.66997635
