timestamp,timestamp_sample,device_id,x,y,z,temperature
168000,168000,1311244,-0.17749995,0.18041359,-9.938055,11.828796
268000,268000,1311244,-0.22688442,0.15257192,-9.965203,11.828796
368000,368000,1311244,-0.22495516,0.18602447,-9.919514,11.828796
468000,468000,1311244,-0.18881159,0.18964818,-9.864183,11.828796
568000,568000,1311244,-0.27381313,0.1930071,-9.902359,11.828796
668000,668000,1311244,-0.1802545,0.10071859,-10.067381,11.828796
768000,768000,1311244,-0.090603985,0.15457042,-9.801016,11.828796
868000,868000,1311244,-0.17642465,0.13996197,-10.063122,11.828796
968000,968000,1311244,-0.19352049,0.18778288,-9.942521,11.828796
1068000,1068000,1311244,-0.27425388,0.09460054,-9.881015,11.828796
1168000,1168000,1311244,-0.17876124,0.19714054,-9.980205,11.828796
1268000,1268000,1311244,-0.18470702,0.25737545,-10.019748,11.828796
1368000,1368000,1311244,-0.16413732,0.21777628,-9.852415,11.828796
1468000,1468000,1311244,-0.2119266,0.14878535,-10.086579,11.828796
1568000,1568000,1311244,-0.19035867,0.14394157,-9.970329,11.828796
1668000,1668000,1311244,-0.26786938,0.22754575,-9.889294,11.828796
1768000,1768000,1311244,-0.2611244,0.15120478,-9.822311,11.828796
1868000,1868000,1311244,-0.101487674,0.10959395,-9.842064,11.828796
1968000,1968000,1311244,-0.12790942,0.15748937,-9.796258,11.828796
2068000,2068000,1311244,-0.25089175,0.16673295,-9.9679165,11.828796
2168000,2168000,1311244,-0.26576522,0.12616102,-9.888783,11.828796
2268000,2268000,1311244,-0.28653517,0.24079804,-9.934467,11.828796
2371999,2371999,1311244,-0.17969406,0.09840529,-9.960909,11.828796
2475999,2475999,1311244,-0.24850123,0.18295377,-9.9235115,11.828796
2576000,2576000,1311244,-0.22581345,0.10824508,-9.964525,11.828796
2676000,2676000,1311244,-0.24477725,0.17117052,-9.888833,11.828796
2776000,2776000,1311244,-0.24427202,0.047161683,-10.051353,11.828796
2876000,2876000,1311244,-0.3117033,0.18444063,-9.918677,11.828796
2976000,2976000,1311244,-0.17609204,0.2905117,-9.868208,11.828796
3076000,3076000,1311244,-0.21327913,0.2236425,-9.956404,11.828796
3176000,3176000,1311244,-0.15652893,0.23432091,-9.971455,11.828796
3276000,3276000,1311244,-0.18433154,0.35917127,-9.969938,11.828796
3376000,3376000,1311244,-0.24341597,0.16995607,-9.957021,11.828796
3476000,3476000,1311244,-0.33034384,0.19080883,-9.932432,11.828796
3576000,3576000,1311244,-0.15643443,0.17009087,-10.027403,11.828796
3676000,3676000,1311244,-0.24106538,0.1106623,-9.895386,11.828796
3776000,3776000,1311244,-0.28895497,0.23794587,-10.022336,11.828796
3876000,3876000,1311244,-0.24676038,0.2322746,-9.944424,11.828796
3976000,3976000,1311244,-0.19256201,0.09397493,-9.890725,11.828796
4076000,4076000,1311244,-0.1426612,0.23097529,-9.907446,11.828796
4176000,4176000,1311244,-0.23630904,0.17655544,-9.986571,11.828796
4276000,4276000,1311244,-0.2629585,0.23097624,-9.927649,11.828796
4376000,4376000,1311244,-0.3113523,0.1371116,-10.005585,11.828796
4476000,4476000,1311244,-0.23601988,0.13966975,-9.874882,11.828796
4576000,4576000,1311244,-0.28751397,0.28533995,-9.9838705,11.828796
4676000,4676000,1311244,-0.21142052,0.1410287,-10.012651,11.828796
4776000,4776000,1311244,-0.20286156,0.26197007,-10.011997,11.828796
4876000,4876000,1311244,-0.25335693,0.09956175,-9.958103,11.828796
4976000,4976000,1311244,-0.21303059,0.18443719,-9.895595,11.828796
5076000,5076000,1311244,-0.16863683,0.038351413,-9.949347,11.828796
5176000,5176000,1311244,-0.28611836,0.20418032,-9.896976,11.828796
5276000,5276000,1311244,-0.17226472,0.11696128,-10.003781,11.828796
5376000,5376000,1311244,-0.17721479,0.17882879,-9.899246,11.828796
5476000,5476000,1311244,-0.18624127,0.17533162,-9.887376,11.828796
5576000,5576000,1311244,-0.15555087,0.20441414,-9.884322,11.828796
5676000,5676000,1311244,-0.31104332,0.18703327,-9.877614,11.828796
5776000,5776000,1311244,-0.30669108,0.12756477,-10.0019865,11.828796
5876000,5876000,1311244,-0.28007644,0.23733024,-9.952818,11.828796
5976000,5976000,1311244,-0.20916475,0.14628035,-9.878729,11.828796
6076000,6076000,1311244,-0.27320537,0.19082218,-9.9975815,11.828796
6176000,6176000,1311244,-0.2326497,0.25280324,-9.902335,11.828796
6276000,6276000,1311244,-0.21383122,0.15869796,-10.0331335,11.828796
6376000,6376000,1311244,-0.28722474,0.17449668,-9.946789,11.828796
6476000,6476000,1311244,-0.23917955,0.19151245,-9.928678,11.828796
6575999,6575999,1311244,-0.25539568,0.17781474,-9.9637,11.828796
6680000,6680000,1311244,-0.2264831,0.15201235,-9.921915,11.828796
6780000,6780000,1311244,-0.25513133,0.20574537,-9.974305,11.828796
6880000,6880000,1311244,-0.23892324,0.09945313,-10.01628,11.828796
6980000,6980000,1311244,-0.29755726,0.07701077,-9.9572115,11.828796
7080000,7080000,1311244,-0.10529724,0.18186347,-9.954182,11.828796
7180000,7180000,1311244,-0.07346789,0.083525226,-10.042614,11.828796
7280000,7280000,1311244,-0.20328428,0.23573987,-9.954461,11.828796
7380000,7380000,1311244,-0.1737265,0.04377161,-9.864666,11.828796
7480000,7480000,1311244,-0.21950041,0.27913493,-9.960759,11.828796
7580000,7580000,1311244,-0.22970493,0.2695515,-9.932531,11.828796
7680000,7680000,1311244,-0.25235346,0.20789075,-10.023885,11.828796
7780000,7780000,1311244,-0.2153231,0.20103751,-10.022489,11.828796
7880000,7880000,1311244,-0.113373,0.19408141,-9.903111,11.828796
7980000,7980000,1311244,-0.19446681,0.11123285,-9.967985,11.828796
8080000,8080000,1311244,-0.18378536,0.21270037,-9.9734955,11.828796
8180000,8180000,1311244,-0.14084893,0.21031779,-9.868591,11.828796
8280000,8280000,1311244,-0.12437263,0.15597595,-9.929042,11.828796
8380000,8380000,1311244,-0.20448674,0.17442338,-9.8457155,11.828796
8480000,8480000,1311244,-0.24054445,0.16970427,-9.98861,11.828796
8580000,8580000,1311244,-0.17669742,0.21835323,-10.010587,11.828796
8680000,8680000,1311244,-0.18049154,0.20928276,-10.060764,11.828796
8780000,8780000,1311244,-0.18833554,0.20102145,-9.80878,11.828796
8880000,8880000,1311244,-0.1941825,0.23552354,-9.937837,11.828796
8980000,8980000,1311244,-0.25418302,0.2515851,-9.941833,11.828796
9080000,9080000,1311244,-0.26259944,0.15862982,-10.018033,11.828796
9180000,9180000,1311244,-0.25024706,0.12809229,-9.933343,11.828796
9280000,9280000,1311244,-0.30839968,0.2517225,-9.982347,11.828796
9380000,9380000,1311244,-0.2817199,0.16104825,-9.830672,11.828796
9480000,9480000,1311244,-0.18036473,0.24835135,-9.794109,11.828796
9580000,9580000,1311244,-0.18610457,0.13152865,-9.893961,11.828796
9680000,9680000,1311244,-0.2828798,0.031225849,-9.84895,11.828796
9780000,9780000,1311244,-0.113684215,0.19543716,-9.970148,11.828796
9880000,9880000,1311244,-0.19454353,0.13649015,-9.946954,11.828796
9980000,9980000,1311244,-0.16560224,0.16618998,-10.028745,11.828796
10080000,10080000,1311244,-0.4144195,0.1363822,-9.870779,11.828796
10180000,10180000,1311244,-0.22264427,0.17478399,-9.969694,11.828796
10280000,10280000,1311244,-0.12510507,0.15086101,-9.975306,11.828796
10380000,10380000,1311244,-0.19758196,0.22243884,-10.016946,11.828796
10480000,10480000,1311244,-0.24509189,0.26418474,-9.828961,11.828796
10580000,10580000,1311244,-0.20448896,0.21520717,-9.95099,11.828796
10680000,10680000,1311244,-0.30175963,0.23248583,-9.765758,11.828796
10780000,10780000,1311244,-0.21613218,0.17878087,-9.980538,11.828796
10880000,10880000,1311244,-0.21553299,0.11437261,-9.883654,11.828796
10980000,10980000,1311244,-0.24154103,0.27269903,-10.007451,11.828796
11080000,11080000,1311244,-0.19995695,0.18851365,-10.02157,11.828796
11180000,11180000,1311244,-0.112117864,0.2233052,-9.848137,11.828796
11280000,11280000,1311244,-0.18817274,0.24803792,-9.911377,11.828796
11380000,11380000,1311244,-0.21261023,0.28870985,-9.918206,11.828796
11480000,11480000,1311244,-0.22486016,0.23542133,-10.006777,11.828796
11580000,11580000,1311244,-0.20086512,0.22821385,-9.813247,11.828796
11680000,11680000,1311244,-0.17693026,0.14597465,-10.017555,11.828796
11780000,11780000,1311244,-0.22570558,0.2810743,-9.78787,11.828796
11880000,11880000,1311244,-0.1653887,0.028743895,-10.060473,11.828796
11980000,11980000,1311244,-0.17757429,0.25799358,-9.844981,11.828796
12080000,12080000,1311244,-0.24503341,0.23288938,-9.971519,11.828796
12180000,12180000,1311244,-0.2415347,0.13137868,-9.956894,11.828796
12280000,12280000,1311244,-0.049314424,0.12876238,-9.910806,11.828796
12380000,12380000,1311244,51.843098,0.17737126,-9.972733,11.828796
12480000,12480000,1311244,40.613102,0.2215621,-9.993898,11.828796
12580000,12580000,1311244,31.743893,0.17640007,-10.058335,11.828796
12680000,12680000,1311244,25.078344,0.17698115,-10.00351,11.828796
12780000,12780000,1311244,21.037773,-0.7430238,-10.424404,11.828796
12880000,12880000,1311244,17.244467,0.2215571,-10.402312,11.828766
12980000,12980000,1311244,13.8684225,0.9825743,-10.300062,11.828735
13080000,13080000,1311244,10.180212,0.40014505,-9.786267,11.828674
13180000,13180000,1311244,7.294595,-0.7251153,-9.597147,11.828613
13280000,13280000,1311244,5.9228706,-0.3640271,-10.116914,11.828583
13380000,13380000,1311244,4.300955,-0.27381736,-12.21486,11.828522
13480000,13480000,1311244,2.9957454,0.09394084,-14.303292,11.828308
13580000,13580000,1311244,2.2750945,0.010867008,-14.895847,11.82782
13680000,13680000,1311244,1.7715421,-0.23796844,-14.097834,11.827087
13780000,13780000,1311244,1.5346442,-0.3486398,-13.380158,11.82605
13880000,13880000,1311244,1.1503671,-0.32518107,-13.177528,11.824799
13980000,13980000,1311244,0.95968777,-0.32852912,-13.419417,11.823334
14080000,14080000,1311244,0.9570759,-0.27042452,-13.479803,11.821655
14180000,14180000,1311244,0.9992603,-0.3146528,-13.547603,11.819763
14280000,14280000,1311244,0.9755933,-0.4558703,-13.387181,11.817535
14384000,14384000,1311244,1.1496502,-0.61157817,-13.176496,11.815216
14484000,14484000,1311244,1.1583117,-0.6165861,-13.1755,11.812683
14588000,14588000,1311244,1.1840533,-0.5373458,-13.367482,11.809814
14688000,14688000,1311244,1.1788747,-0.675246,-13.348203,11.806854
14787999,14787999,1311244,1.2730336,-0.773927,-13.339112,11.803589
14888000,14888000,1311244,1.4908313,-0.772643,-13.240107,11.800201
14992000,14992000,1311244,1.7064453,-0.83031523,-13.253354,11.7966
15092000,15092000,1311244,1.881949,-0.8132503,-12.517667,11.792786
15192000,15192000,1311244,1.9728001,-0.75157773,-12.006668,11.788666
15292000,15292000,1311244,2.0787408,-1.001542,-11.523242,11.784546
15392000,15392000,1311244,2.324255,-0.9675736,-10.854515,11.780334
15492000,15492000,1311244,2.5015898,-0.8778931,-10.685235,11.7760315
15592000,15592000,1311244,2.445479,-1.0154389,-10.341861,11.771851
15692000,15692000,1311244,2.665474,-1.0891696,-10.177156,11.767456
15792000,15792000,1311244,2.5937772,-1.0431889,-10.037113,11.762817
15892000,15892000,1311244,-0.94516426,-0.60292065,-10.92375,11.758514
15992000,15992000,1311244,-0.29239163,-0.6191554,-10.910365,11.753845
16092000,16092000,1311244,0.49523678,-0.6315461,-9.385869,11.749542
16192000,16192000,1311244,1.2180381,-0.7063885,-7.789842,11.744904
16292000,16292000,1311244,1.7778453,-0.80434626,-6.663864,11.740753
16392000,16392000,1311244,2.1645045,-1.0169652,-6.597787,11.73645
16492000,16492000,1311244,2.1910694,-0.84021485,-7.1862717,11.732513
16592000,16592000,1311244,2.0740392,-0.7022841,-8.114675,11.72876
16692000,16692000,1311244,2.2048137,-0.8210013,-8.568721,11.72522
16792000,16792000,1311244,2.1095266,-0.58354825,-8.795766,11.721497
16892000,16892000,1311244,2.1042871,-0.7439159,-8.991711,11.718079
16992000,16992000,1311244,2.0512688,-0.61681676,-8.908883,11.714478
17092000,17092000,1311244,2.004369,-0.59636873,-9.239699,11.711029
17192000,17192000,1311244,2.042506,-0.48727453,-9.3085165,11.707794
17292000,17292000,1311244,1.8534094,-0.4427099,-9.486976,11.704285
17392000,17392000,1311244,2.0022786,-0.3864991,-9.560931,11.70108
17492000,17492000,1311244,1.7915858,-0.3912112,-9.657028,11.697754
17592000,17592000,1311244,1.7906638,-0.41557914,-9.668075,11.694458
17692000,17692000,1311244,1.9788675,-0.42634502,-9.735388,11.6910095
17792000,17792000,1311244,1.9070979,-0.261128,-9.633743,11.687836
17892000,17892000,1311244,1.8761383,-0.2787229,-9.755946,11.68457
17992000,17992000,1311244,1.7767575,-0.14220262,-9.743016,11.681152
18092000,18092000,1311244,1.9646778,-0.18218538,-9.711219,11.677887
18192000,18192000,1311244,1.8822185,-0.079708055,-9.717606,11.674744
18292000,18292000,1311244,1.8973877,-0.07921577,-9.650532,11.671478
18392000,18392000,1311244,1.7974375,-0.18104559,-9.697877,11.668213
18492000,18492000,1311244,1.9577208,-0.00917002,-9.701078,11.6649475
18592000,18592000,1311244,1.8433384,-0.10196799,-9.557373,11.661591
18692000,18692000,1311244,1.8214265,-0.086006016,-9.673814,11.658447
18792000,18792000,1311244,1.8413036,-0.019301105,-9.662613,11.655212
18892000,18892000,1311244,1.9497079,0.011404699,-9.6359625,11.651978
18992000,18992000,1311244,1.81476,-0.060257517,-9.68231,11.648621
19092000,19092000,1311244,1.7984985,0.048876055,-9.693402,11.645386
19192000,19192000,1311244,1.966013,-0.0035844287,-9.741472,11.642273
19292000,19292000,1311244,1.9594518,0.080899134,-9.698852,11.638916
19392000,19392000,1311244,1.8883994,0.036817133,-9.681089,11.635834
19492000,19492000,1311244,1.8810153,0.0931431,-9.687856,11.632599
19592000,19592000,1311244,1.9546689,0.124837205,-9.794492,11.629242
19692000,19692000,1311244,1.9345872,0.11484719,-9.663759,11.626129
19792000,19792000,1311244,1.9470571,0.1474222,-9.583691,11.622803
19892000,19892000,1311244,1.8465514,0.13323854,-9.662174,11.619568
19992000,19992000,1311244,1.7799815,0.21808077,-9.619063,11.616364
20092000,20092000,1311244,1.8988891,0.18613915,-9.54587,11.613281
20192000,20192000,1311244,1.8628092,0.21038082,-9.555014,11.610077
20292000,20292000,1311244,1.8929596,0.18292382,-9.722226,11.606873
20392000,20392000,1311244,1.7853048,0.24286127,-9.608087,11.603516
20492000,20492000,1311244,1.9587735,0.2534993,-9.709733,11.600464
20592000,20592000,1311244,1.9433368,0.37232646,-9.653972,11.5972595
20692000,20692000,1311244,1.8681338,0.19920789,-9.610817,11.593933
20792000,20792000,1311244,2.0321844,0.13639857,-9.594414,11.590851
20892000,20892000,1311244,1.8974723,0.20537369,-9.511447,11.587677
20992000,20992000,1311244,1.8553997,0.16761547,-9.637838,11.584503
21092000,21092000,1311244,1.971887,0.26417616,-9.617488,11.581329
21192000,21192000,1311244,1.9675729,0.26040116,-9.5912285,11.5781555
21292000,21292000,1311244,1.8799958,0.2842314,-9.63312,11.57486
21392000,21392000,1311244,1.8198957,0.24196513,-9.480589,11.571838
21492000,21492000,1311244,1.8421721,0.27379897,-9.641223,11.568665
21592000,21592000,1311244,1.8176304,0.25300926,-9.684345,11.565521
21692000,21692000,1311244,1.9600595,0.21210887,-9.59392,11.562256
21792000,21792000,1311244,1.9052918,0.19051518,-9.698325,11.559235
21892000,21892000,1311244,1.9400378,0.3269382,-9.564884,11.556091
21992000,21992000,1311244,1.9475584,0.23813485,-9.678684,11.5529785
22092000,22092000,1311244,1.9550582,0.27854332,-9.621025,11.549835
22192000,22192000,1311244,1.9273267,0.1966798,-9.697263,11.5466
22292000,22292000,1311244,1.977504,0.2604631,-9.595014,11.54361
22392000,22392000,1311244,1.8932713,0.169523,-9.546859,11.540466
22492000,22492000,1311244,1.9701222,0.24645302,-9.565508,11.537262
22592000,22592000,1311244,2.038807,0.262233,-9.744635,11.534149
22692000,22692000,1311244,1.9755687,0.23634547,-9.725831,11.531158
22792000,22792000,1311244,1.873742,0.2765911,-9.572794,11.527954
22892000,22892000,1311244,1.8905685,0.19677053,-9.56498,11.524994
22992000,22992000,1311244,1.8134228,0.22509904,-9.709122,11.521759
23092000,23092000,1311244,1.9397064,0.2607357,-9.654328,11.518799
23192000,23192000,1311244,1.9956009,0.29782692,-9.62779,11.5155945
23292000,23292000,1311244,1.8931923,0.23399274,-9.709717,11.512665
23392000,23392000,1311244,1.9428275,0.27558905,-9.64071,11.5095825
23492000,23492000,1311244,1.899034,0.3159517,-9.662111,11.506378
23592000,23592000,1311244,2.0223484,0.34359118,-9.759336,11.503326
23692000,23692000,1311244,1.9572968,0.27273542,-9.554296,11.500366
23792000,23792000,1311244,1.9965326,0.24544494,-9.670423,11.497192
23892000,23892000,1311244,1.2342374,0.15930384,-9.645695,11.494232
23992000,23992000,1311244,0.278112,0.20059401,-9.237606,11.491058
24092000,24092000,1311244,-0.24336514,0.27257285,-8.418904,11.488068
24192000,24192000,1311244,-0.3380736,0.21558848,-7.772223,11.485321
24292000,24292000,1311244,-0.39653125,0.21035258,-7.338915,11.482452
24392000,24392000,1311244,-0.53879297,0.15607248,-6.7862034,11.480011
24492000,24492000,1311244,-0.7213745,0.29964197,-6.3700852,11.477692
24592000,24592000,1311244,-0.6318424,0.28354135,-6.524977,11.475494
24692000,24692000,1311244,-0.6756958,0.24797404,-6.7320037,11.473724
24792000,24792000,1311244,-0.7528917,0.25147876,-7.0538006,11.472015
24892000,24892000,1311244,-0.82798624,0.26495987,-7.1372886,11.470581
24992000,24992000,1311244,-0.82660836,0.19682197,-7.2416615,11.46936
25092000,25092000,1311244,-0.7554197,0.1166739,-7.2300725,11.468262
25192000,25192000,1311244,-0.73198557,0.119282715,-7.491989,11.467346
25292000,25292000,1311244,-0.6862042,0.23014674,-7.767219,11.466644
25392000,25392000,1311244,-0.75676495,0.13035102,-7.7969756,11.466064
25492000,25492000,1311244,-0.7103397,0.24931659,-7.984972,11.465607
25592000,25592000,1311244,-0.7806971,0.41449052,-8.173963,11.465271
25692000,25692000,1311244,-0.71910304,0.24016973,-8.172309,11.465088
25792000,25792000,1311244,-0.82332563,0.29036963,-8.419188,11.464996
25892000,25892000,1311244,-0.8238129,0.3049052,-8.550653,11.464996
25992000,25992000,1311244,-0.8765439,0.3120251,-8.69801,11.465088
26092000,26092000,1311244,-0.7777777,0.3485845,-8.78937,11.4652405
26192000,26192000,1311244,-0.74058473,0.35938656,-8.956898,11.465515
26292000,26292000,1311244,-0.6900527,0.41322127,-9.045631,11.46579
26392000,26392000,1311244,-0.68280417,0.3090721,-9.06058,11.466156
26492000,26492000,1311244,-0.820306,0.36688617,-9.319042,11.466583
26592000,26592000,1311244,-0.71687967,0.31938985,-9.390289,11.4670105
26692000,26692000,1311244,-0.63936204,0.41039833,-9.329694,11.467529
26792000,26792000,1311244,-0.7806045,0.30017117,-9.485487,11.468048
26892000,26892000,1311244,-0.62606144,0.33996114,-9.524178,11.468597
26992000,26992000,1311244,-0.7389658,0.36032134,-9.637142,11.469177
27092000,27092000,1311244,-0.68151844,0.42810652,-9.738727,11.469757
27192000,27192000,1311244,-0.74416417,0.45770693,-9.576992,11.470398
27292000,27292000,1311244,-0.61321133,0.39516044,-9.702058,11.471039
27392000,27392000,1311244,-0.7129184,0.3283891,-9.726424,11.471649
27492000,27492000,1311244,-0.81619686,0.32509586,-9.693011,11.472351
27592000,27592000,1311244,-0.60518473,0.3843716,-9.781004,11.472992
27692000,27692000,1311244,-0.5907775,0.3558386,-9.843384,11.473663
27792000,27792000,1311244,-0.626109,0.40891242,-9.900633,11.474335
27892000,27892000,1311244,-0.64559346,0.4079238,-9.785924,11.475006
27992000,27992000,1311244,-0.54134923,0.44392776,-9.817178,11.475647
28092000,28092000,1311244,-0.6106662,0.44954535,-9.878241,11.476318
28192000,28192000,1311244,-0.53078294,0.34217465,-9.959306,11.47702
28292000,28292000,1311244,-0.5989536,0.3635907,-9.890675,11.477661
28392000,28392000,1311244,-0.45070648,0.3992289,-9.987706,11.478302
28492000,28492000,1311244,-0.48713815,0.34094208,-9.968225,11.478973
28592000,28592000,1311244,-0.5257217,0.35290864,-9.989658,11.479645
28692000,28692000,1311244,-0.5683321,0.32773915,-9.968858,11.480255
28792000,28792000,1311244,-0.61094546,0.40022016,-10.030267,11.480896
28892000,28892000,1311244,-0.5724539,0.39434764,-9.975394,11.481537
28992000,28992000,1311244,-0.5148769,0.30770108,-10.010759,11.482178
29092000,29092000,1311244,-0.5828104,0.3274211,-9.955758,11.482788
29192000,29192000,1311244,-0.45661914,0.29152927,-10.027402,11.483398
29292000,29292000,1311244,-0.5147853,0.30679128,-10.065818,11.483978
29392000,29392000,1311244,-0.43733913,0.32087255,-10.027193,11.484558
29492000,29492000,1311244,-0.46904317,0.29616213,-9.982618,11.485138
29592000,29592000,1311244,-0.41738325,0.36286816,-9.91231,11.485718
29692000,29692000,1311244,-0.32519555,0.41422588,-10.081,11.486237
29792000,29792000,1311244,-0.39417094,0.23923257,-10.082231,11.486816
29892000,29892000,1311244,-0.2930995,0.24174431,-10.011946,11.487335
29992000,29992000,1311244,2.3980968,0.287079,-10.175259,11.4878845
30092000,30092000,1311244,3.8048213,0.39833397,-10.953598,11.488373
30192000,30192000,1311244,4.513095,0.31837165,-12.210269,11.4888
30292000,30292000,1311244,4.718908,0.33202642,-13.463753,11.489105
30392000,30392000,1311244,4.286801,0.25271115,-14.239764,11.489166
30496000,30496000,1311244,3.8655424,0.303882,-14.760725,11.488892
30596000,30596000,1311244,3.4935884,0.35880345,-14.610635,11.488312
30700000,30700000,1311244,2.8895311,0.13121827,-14.0459795,11.487366
30800000,30800000,1311244,2.665828,0.25034103,-13.577885,11.486176
30904000,30904000,1311244,2.373561,0.367125,-13.2122135,11.484558
31008000,31008000,1311244,2.21186,0.1927684,-12.83721,11.482849
31108000,31108000,1311244,2.2044265,0.2770635,-12.490736,11.4809265
31212000,31212000,1311244,1.9846045,0.2569008,-12.266661,11.478638
31316000,31316000,1311244,2.1309772,0.34606746,-11.862575,11.476349
31416000,31416000,1311244,2.2381806,0.1921602,-11.460187,11.473816
31520000,31520000,1311244,2.1020954,0.14205094,-11.28228,11.471161
31624000,31624000,1311244,2.3063967,0.23592538,-11.211027,11.468414
31724000,31724000,1311244,2.193855,0.149204,-10.826911,11.465668
31828000,31828000,1311244,2.3621721,0.18806545,-10.788894,11.46283
31924000,31924000,1311244,2.347845,0.09602351,-10.61704,11.460022
32028000,32028000,1311244,2.355312,0.023925785,-10.458585,11.45694
32128000,32128000,1311244,2.4076428,0.08489183,-10.329842,11.453796
32228000,32228000,1311244,2.3522873,0.044615693,-10.266504,11.450867
32328000,32328000,1311244,2.3842518,0.08251786,-10.20597,11.447754
32428000,32428000,1311244,2.4288201,-0.0414886,-10.0903,11.44458
32528000,32528000,1311244,2.3680503,0.005927374,-10.099537,11.441284
32628000,32628000,1311244,2.3195624,-0.00089041103,-10.081907,11.438049
32728000,32728000,1311244,2.1883225,-0.029153772,-9.939278,11.434814
32828000,32828000,1311244,2.296802,0.039409816,-10.020839,11.431671
32928000,32928000,1311244,2.2395504,-0.002458042,-9.875224,11.428375
33028000,33028000,1311244,2.2777853,0.06924046,-9.850827,11.424927
33128000,33128000,1311244,2.3392463,0.01512527,-9.809574,11.4216
33228000,33228000,1311244,2.2492502,0.032061834,-9.84116,11.418396
33328000,33328000,1311244,2.223431,0.072115876,-9.691706,11.415039
33428000,33428000,1311244,2.282335,0.028219186,-9.742098,11.41156
33528000,33528000,1311244,2.315057,0.040680427,-9.716471,11.408173
33628000,33628000,1311244,2.2644792,-0.0008942078,-9.654584,11.404785
33728000,33728000,1311244,2.2857242,-0.03277866,-9.754135,11.401398
33828000,33828000,1311244,2.316688,0.1335357,-9.62065,11.39801
33928000,33928000,1311244,2.2921062,-0.020549469,-9.599138,11.394592
34028000,34028000,1311244,2.1875696,-0.0036672677,-9.653083,11.391327
34128000,34128000,1311244,2.2871447,0.041714646,-9.488981,11.387787
34228000,34228000,1311244,2.2600079,0.019041227,-9.618971,11.384369
34328000,34328000,1311244,2.3157375,-0.0016551564,-9.594506,11.380951
34428000,34428000,1311244,2.1913126,0.10885279,-9.444002,11.377533
34528000,34528000,1311244,2.2683902,0.06445927,-9.46323,11.374115
34628000,34628000,1311244,2.2863173,0.0974397,-9.579191,11.37085
34728000,34728000,1311244,2.2167134,0.028401872,-9.704964,11.367279
34828000,34828000,1311244,2.2526348,0.07778165,-9.631717,11.364014
34928000,34928000,1311244,2.2148328,0.1329162,-9.65325,11.360596
35028000,35028000,1311244,2.1670914,0.044927478,-9.53553,11.357178
35128000,35128000,1311244,2.2181573,0.22161308,-9.540253,11.35376
35228000,35228000,1311244,2.3983657,0.0019665041,-9.544571,11.350342
35328000,35328000,1311244,2.2782722,0.21186315,-9.611745,11.346924
35428000,35428000,1311244,2.1476574,0.10896786,-9.615795,11.343506
35528000,35528000,1311244,2.2564874,0.10157029,-9.520901,11.339935
35628000,35628000,1311244,2.2256122,0.0683062,-9.482167,11.336517
35728000,35728000,1311244,2.3716128,0.10810604,-9.567058,11.333099
35828000,35828000,1311244,2.3955755,0.30287936,-9.595846,11.329834
35928000,35928000,1311244,2.3649936,0.14417005,-9.584794,11.326294
36028000,36028000,1311244,2.3592134,0.12968135,-9.528918,11.323029
36128000,36128000,1311244,2.3135264,0.060119115,-9.498424,11.319458
36228000,36228000,1311244,2.2727726,0.21147421,-9.4320755,11.316193
36328000,36328000,1311244,2.307013,0.20248877,-9.6343,11.312805
36428000,36428000,1311244,2.233595,0.14744005,-9.583618,11.309265
36528000,36528000,1311244,2.3171957,0.20959951,-9.488802,11.306
36628000,36628000,1311244,2.3575435,0.16006958,-9.585171,11.302582
36728000,36728000,1311244,2.2258217,0.16323927,-9.484119,11.299194
36828000,36828000,1311244,2.3489938,0.10932267,-9.582674,11.295654
36928000,36928000,1311244,2.2886024,0.19363205,-9.534951,11.292267
37028000,37028000,1311244,2.2994874,0.2506844,-9.471177,11.289001
37128000,37128000,1311244,2.2395425,0.18976481,-9.536126,11.285614
37228000,37228000,1311244,2.3007169,0.19101584,-9.517521,11.282227
37328000,37328000,1311244,2.2925766,0.22581775,-9.359291,11.278839
37428000,37428000,1311244,2.2551975,0.113854595,-9.447611,11.275452
37528000,37528000,1311244,2.323782,0.20861822,-9.459473,11.271942
37628000,37628000,1311244,2.3455043,0.30908817,-9.584403,11.268677
37728000,37728000,1311244,2.3355014,0.32560048,-9.412779,11.265167
37828000,37828000,1311244,2.3281631,0.17114776,-9.468984,11.261932
37928000,37928000,1311244,2.3652086,0.1680764,-9.4095745,11.258545
38028000,38028000,1311244,2.3256876,0.20888667,-9.440765,11.255035
38128000,38128000,1311244,2.304776,0.25448748,-9.504767,11.251801
38228000,38228000,1311244,2.3540108,0.33219987,-9.449104,11.248291
38328000,38328000,1311244,2.3924387,0.2954285,-9.576164,11.245056
38428000,38428000,1311244,2.474423,0.28773507,-9.541055,11.241547
38528000,38528000,1311244,2.2983692,0.15469323,-9.51046,11.238159
38628000,38628000,1311244,2.316507,0.33073196,-9.536322,11.234802
38728000,38728000,1311244,2.3359737,0.26094124,-9.39633,11.231445
38828000,38828000,1311244,2.3704517,0.24645628,-9.533478,11.22821
38928000,38928000,1311244,2.370659,0.17870452,-9.539837,11.224701
39028000,39028000,1311244,2.303496,0.21963131,-9.446467,11.221466
39128000,39128000,1311244,2.3727784,0.16115901,-9.5829,11.218109
39228000,39228000,1311244,2.4318874,0.30728233,-9.51909,11.214752
39328000,39328000,1311244,2.441464,0.10512239,-9.531347,11.211243
39428000,39428000,1311244,2.3620517,0.18742254,-9.548436,11.208038
39528000,39528000,1311244,2.452832,0.2832065,-9.520599,11.204681
39628000,39628000,1311244,2.4364922,0.25828123,-9.557537,11.201324
39728000,39728000,1311244,2.4985337,0.24086626,-9.501641,11.197815
39828000,39828000,1311244,2.4154952,0.2757432,-9.621505,11.194489
39928000,39928000,1311244,2.1476278,0.27957883,-9.406759,11.191132
40028000,40028000,1311244,0.7185254,0.3338952,-9.1460495,11.187775
40128000,40128000,1311244,0.06352554,0.24830139,-8.447971,11.184631
40228000,40228000,1311244,-0.45013675,0.1688861,-7.8963795,11.181427
40328000,40328000,1311244,-0.25602484,0.16842435,-7.2885766,11.178375
40428000,40428000,1311244,-0.5017844,0.18408145,-6.7276216,11.175415
40528000,40528000,1311244,-0.3814794,0.15762202,-6.2574263,11.172791
40628000,40628000,1311244,-0.3639108,0.19132169,-6.062004,11.170441
40728000,40728000,1311244,-0.31421238,0.19480237,-6.287489,11.168396
40828000,40828000,1311244,-0.4019294,0.18716082,-6.5684876,11.166412
40928000,40928000,1311244,-0.4978746,0.31039554,-6.8195724,11.164764
41028000,41028000,1311244,-0.49938998,0.31574634,-7.014743,11.1633
41128000,41128000,1311244,-0.35432667,0.34511024,-7.3061113,11.162018
41228000,41228000,1311244,-0.51806676,0.15981299,-7.4249644,11.16098
41328000,41328000,1311244,-0.4132181,0.20203584,-7.4879317,11.160004
41428000,41428000,1311244,-0.44635212,0.19040476,-7.673507,11.159271
41528000,41528000,1311244,-0.320315,0.1560267,-7.941831,11.15863
41628000,41628000,1311244,-0.28131172,0.20520154,-7.995033,11.158112
41728000,41728000,1311244,-0.32265234,0.28882563,-8.195691,11.157715
41828000,41828000,1311244,-0.31715274,0.35743287,-8.316863,11.15744
41928000,41928000,1311244,-0.43165153,0.3475853,-8.507276,11.157257
42028000,42028000,1311244,-0.4852954,0.4073773,-8.685986,11.157135
42128000,42128000,1311244,-0.30962726,0.2935133,-8.84864,11.1571045
42228000,42228000,1311244,-0.48438323,0.31416142,-8.94411,11.157135
42328000,42328000,1311244,-0.34854507,0.36791867,-8.994168,11.157257
42428000,42428000,1311244,-0.43428123,0.38397035,-9.0138035,11.157379
42528000,42528000,1311244,-0.46128178,0.33199558,-9.235015,11.157593
42628000,42628000,1311244,-0.40873855,0.29286852,-9.348356,11.157837
42728000,42728000,1311244,-0.32185015,0.27589428,-9.35423,11.158081
42828000,42828000,1311244,-0.39476895,0.4403514,-9.495539,11.158386
42928000,42928000,1311244,-0.24206841,0.2695238,-9.5268345,11.158722
43028000,43028000,1311244,-0.42314726,0.45750964,-9.608579,11.159088
43128000,43128000,1311244,-0.28947416,0.3349208,-9.740223,11.159454
43228000,43228000,1311244,-0.33527762,0.37644002,-9.536425,11.159821
43328000,43328000,1311244,-0.34509867,0.21068491,-9.744569,11.160248
43428000,43428000,1311244,-0.33837548,0.29962754,-9.760444,11.160645
43528000,43528000,1311244,-0.3259435,0.3545141,-9.737831,11.161041
43628000,43628000,1311244,-0.22454025,0.30423114,-9.75509,11.1614685
43728000,43728000,1311244,-0.39155304,0.27177435,-9.873584,11.161896
43828000,43828000,1311244,-0.18322496,0.25056124,-9.863633,11.162323
43928000,43928000,1311244,-0.2237774,0.3014525,-9.832315,11.16275
44028000,44028000,1311244,-0.2721986,0.22240594,-9.914792,11.163208
44128000,44128000,1311244,-0.27810472,0.23218417,-9.932988,11.163605
44228000,44228000,1311244,-0.22968487,0.24036954,-9.997026,11.1640625
44328000,44328000,1311244,-0.13510513,0.22456624,-9.945687,11.164459
44428000,44428000,1311244,-0.22837444,0.28088474,-9.92762,11.164856
44528000,44528000,1311244,-0.1094574,0.2938562,-9.87784,11.165283
44628000,44628000,1311244,-0.11871993,0.36353925,-9.981721,11.16568
44728000,44728000,1311244,-0.24204567,0.21800962,-9.895288,11.166077
44828000,44828000,1311244,-0.20479845,0.25710365,-9.944692,11.166473
44928000,44928000,1311244,-0.13444734,0.28857288,-9.9648905,11.16687
45028000,45028000,1311244,-0.21945478,0.23741679,-9.940804,11.167236
45128000,45128000,1311244,-0.12049461,0.33877736,-9.955228,11.167603
45228000,45228000,1311244,-0.11721823,0.21646415,-9.959159,11.167969
45328000,45328000,1311244,-0.14030161,0.3233063,-9.882045,11.168335
45428000,45428000,1311244,-0.11148821,0.3014034,-10.012984,11.168671
45528000,45528000,1311244,-0.02668223,0.23998202,-9.919501,11.169006
45628000,45628000,1311244,-0.089313574,0.3699581,-9.962161,11.169312
45728000,45728000,1311244,-0.066508375,0.21212915,-9.995125,11.169617
45828000,45828000,1311244,-0.07819508,0.3338337,-9.910688,11.169922
45928000,45928000,1311244,-0.09518503,0.33342686,-9.949875,11.170227
46028000,46028000,1311244,-0.07633123,0.24906479,-10.102305,11.170532
46128000,46128000,1311244,-0.057911053,0.38343042,-9.936237,11.170807
46228000,46228000,1311244,-0.04885423,0.28889555,-9.958884,11.171082
46328000,46328000,1311244,0.050661888,0.33350155,-9.996155,11.171326
46428000,46428000,1311244,-0.014091742,0.23337652,-9.989654,11.17157
46528000,46528000,1311244,-0.023034612,0.22854337,-9.868011,11.171814
46628000,46628000,1311244,0.04546497,0.24341679,-10.010812,11.172058
46728000,46728000,1311244,0.03620711,0.39404184,-9.931737,11.172272
46828000,46828000,1311244,-0.012797919,0.18800017,-9.964207,11.172516
46928000,46928000,1311244,0.006274195,0.26836473,-9.864372,11.172699
47028000,47028000,1311244,-0.0936431,0.20709819,-10.025009,11.172913
47128000,47128000,1311244,-0.02356961,0.24324216,-9.9910345,11.173126
47228000,47228000,1311244,0.01166122,0.2940656,-9.953331,11.173309
47328000,47328000,1311244,0.1311109,0.20843409,-10.016119,11.173462
47428000,47428000,1311244,-0.20583797,0.25664642,-9.948138,11.173645
47528000,47528000,1311244,-0.051982656,0.28677395,-9.969199,11.173798
47628000,47628000,1311244,-0.010789232,0.18250062,-9.903195,11.173981
47728000,47728000,1311244,0.009170258,0.29129058,-9.791312,11.174133
47828000,47828000,1311244,-0.09783803,0.24305667,-9.86899,11.174286
47928000,47928000,1311244,-0.00926658,0.13935709,-9.8988285,11.174408
48028000,48028000,1311244,0.08892374,0.30517364,-9.917352,11.174561
48128000,48128000,1311244,0.11331778,0.34227836,-9.9957,11.174683
48228000,48228000,1311244,0.0203231,0.1625884,-9.921899,11.174805
48328000,48328000,1311244,0.026601637,0.28830463,-9.907897,11.174927
48428000,48428000,1311244,0.027646355,0.34355843,-9.932175,11.175049
48528000,48528000,1311244,0.0720485,0.2639199,-9.948509,11.17514
48628000,48628000,1311244,0.023978744,0.23572822,-9.891773,11.175262
48728000,48728000,1311244,-0.0014066175,0.2347519,-9.809583,11.175354
48828000,48828000,1311244,0.19638053,0.23812792,-9.936659,11.175446
48928000,48928000,1311244,0.045051847,0.1592778,-9.832795,11.175537
49028000,49028000,1311244,0.14249033,0.15458831,-9.826306,11.175598
49128000,49128000,1311244,0.09921319,0.22194456,-9.84915,11.17569
49228000,49228000,1311244,0.11272493,0.2140167,-9.948911,11.175781
49328000,49328000,1311244,0.086122654,0.14352067,-9.918856,11.175842
49428000,49428000,1311244,0.069282755,0.10811584,-9.979161,11.175903
49528000,49528000,1311244,0.047247816,0.15124609,-9.8509445,11.175964
49628000,49628000,1311244,0.093987994,0.23452114,-9.91677,11.176025
49728000,49728000,1311244,0.10744652,0.16484974,-9.864993,11.176056
49828000,49828000,1311244,-0.014250775,0.11664059,-9.874095,11.176117
49928000,49928000,1311244,0.099921115,0.09938432,-9.829302,11.176147
50028000,50028000,1311244,0.083479,0.22866642,-9.982489,11.1762085
50128000,50128000,1311244,0.08802839,0.19047315,-9.8675995,11.176239
50228000,50228000,1311244,0.06942956,0.2745539,-9.913457,11.17627
50328000,50328000,1311244,0.102103435,0.30674466,-9.891983,11.1763
50428000,50428000,1311244,0.054263197,0.20946744,-9.927287,11.176331
50528000,50528000,1311244,0.07754742,0.14522082,-9.8404,11.176361
50628000,50628000,1311244,0.089913055,0.16448219,-9.729952,11.176392
50728000,50728000,1311244,0.06885117,0.1856253,-9.857709,11.176422
50828000,50828000,1311244,0.2901704,0.15526389,-9.748671,11.176453
50928000,50928000,1311244,0.15172935,0.26591402,-9.862592,11.176453
51028000,51028000,1311244,0.13398856,0.20134708,-9.887005,11.176483
51128000,51128000,1311244,0.13804825,0.2104909,-9.891322,11.176483
51228000,51228000,1311244,0.1440074,0.22357926,-9.850951,11.176514
51328000,51328000,1311244,0.0022727721,0.22328675,-9.814408,11.176514
51428000,51428000,1311244,0.11714616,0.2892143,-9.816204,11.176514
51528000,51528000,1311244,0.057118103,0.21547797,-9.799292,11.176514
51628000,51628000,1311244,0.08017283,0.17060632,-9.818628,11.176514
51728000,51728000,1311244,-0.014468094,0.23108698,-9.777328,11.176514
51828000,51828000,1311244,0.05753039,0.14263219,-9.761544,11.176514
51928000,51928000,1311244,0.15602574,0.18903193,-9.711824,11.176514
52028000,52028000,1311244,0.113270134,0.19721715,-9.80361,11.176514
52128000,52128000,1311244,0.06399041,0.2080681,-9.901751,11.176514
52228000,52228000,1311244,0.17019688,0.25134537,-9.761503,11.176514
52328000,52328000,1311244,0.14337689,0.23143373,-9.879116,11.176514
52428000,52428000,1311244,0.0986791,0.19148512,-9.833694,11.176514
52528000,52528000,1311244,0.14652462,0.22655673,-9.75357,11.176483
52628000,52628000,1311244,0.09444496,0.19249883,-9.787312,11.176483
52728000,52728000,1311244,0.11162608,0.17041638,-9.856483,11.176483
52828000,52828000,1311244,0.11516993,0.06628273,-9.82881,11.176453
52928000,52928000,1311244,0.16443771,0.2494342,-9.810063,11.176453
53028000,53028000,1311244,0.06301224,0.21027136,-9.957235,11.176453
53128000,53128000,1311244,0.06205187,0.16600004,-9.828031,11.176422
53228000,53228000,1311244,0.058923442,0.19353043,-9.766105,11.176392
53328000,53328000,1311244,0.21048917,0.15683255,-9.803596,11.176392
53428000,53428000,1311244,0.10088227,0.13232748,-9.809212,11.176361
53528000,53528000,1311244,-0.06825571,0.26254812,-9.799787,11.176361
53628000,53628000,1311244,0.17521432,0.10612594,-9.789452,11.176361
53728000,53728000,1311244,0.15699507,0.19231567,-9.768816,11.176331
53828000,53828000,1311244,0.12995462,0.15506892,-9.865709,11.1763
53928000,53928000,1311244,0.22682634,0.20741528,-9.857033,11.1763
54028000,54028000,1311244,0.09311677,0.06848244,-9.835685,11.17627
54128000,54128000,1311244,0.052835546,0.14226173,-9.861655,11.17627
54228000,54228000,1311244,0.031625092,0.15236008,-9.738774,11.176239
54328000,54328000,1311244,0.06269563,0.14463542,-9.841096,11.1762085
54428000,54428000,1311244,-0.05970928,0.12159776,-9.737438,11.1762085
54528000,54528000,1311244,0.13594966,0.27181983,-9.804229,11.176178
54628000,54628000,1311244,0.118852615,0.16771029,-9.813778,11.176178
54728000,54728000,1311244,0.07147272,0.1338968,-9.819846,11.176147
54828000,54828000,1311244,-0.0066499636,0.16910489,-9.762592,11.176147
54928000,54928000,1311244,0.04540101,0.20578094,-9.820925,11.176147
55028000,55028000,1311244,0.06981693,0.17801845,-9.724371,11.176117
55128000,55128000,1311244,0.13356012,0.1285556,-9.70815,11.176117
55228000,55228000,1311244,0.06501708,0.26105323,-9.876147,11.176086
55328000,55328000,1311244,0.17693909,0.16885436,-9.97081,11.176086
55428000,55428000,1311244,0.14422879,0.107294545,-9.884887,11.176056
55528000,55528000,1311244,0.092902415,0.11367033,-9.848123,11.176056
55628000,55628000,1311244,0.17234546,0.15830947,-9.826298,11.176056
55728000,55728000,1311244,0.1869502,0.17548262,-9.867358,11.176025
55828000,55828000,1311244,0.15184161,0.093244635,-9.852272,11.176025
55928000,55928000,1311244,0.077316955,0.15456575,-9.797187,11.176025
56028000,56028000,1311244,0.13574225,0.13606346,-9.765134,11.175995
56128000,56128000,1311244,0.07851042,0.20284869,-9.801242,11.175995
56228000,56228000,1311244,0.015249161,0.10925949,-9.7560005,11.175995
56328000,56328000,1311244,0.024755964,0.13012128,-9.707727,11.175964
56428000,56428000,1311244,0.109574005,0.22432669,-9.770208,11.175964
56528000,56528000,1311244,0.24093994,0.21910568,-9.700213,11.175964
56628000,56628000,1311244,0.19212757,0.15339619,-9.8273,11.175964
56728000,56728000,1311244,0.18083099,0.2108945,-9.884853,11.175964
56828000,56828000,1311244,0.042363957,0.21312353,-9.883659,11.175964
56928000,56928000,1311244,0.12121745,0.22189097,-9.757613,11.175964
57028000,57028000,1311244,0.14294182,0.21961191,-9.8485775,11.175964
57128000,57128000,1311244,0.13940547,0.2925326,-9.760962,11.175964
57228000,57228000,1311244,0.07526761,0.06551434,-9.774126,11.175964
57328000,57328000,1311244,0.11416516,0.057287864,-9.781593,11.175964
57428000,57428000,1311244,0.17124322,0.20133626,-9.868585,11.175964
57528000,57528000,1311244,0.18165971,0.21935825,-9.798884,11.175964
57628000,57628000,1311244,0.08296067,0.12070556,-9.759015,11.175964
57728000,57728000,1311244,0.16385593,0.13416713,-9.7998,11.175964
57828000,57828000,1311244,0.082222275,0.21593238,-9.851496,11.175964
57928000,57928000,1311244,0.13075264,0.13170817,-9.8433,11.175964
58028000,58028000,1311244,0.0965318,0.03166325,-9.828605,11.175964
58128000,58128000,1311244,0.1356692,0.21505387,-9.801578,11.175964
58228000,58228000,1311244,0.12575015,0.24731068,-9.828312,11.175964
58328000,58328000,1311244,0.27070644,0.15816092,-9.810119,11.175964
58428000,58428000,1311244,0.12902236,0.2331988,-9.740103,11.175964
58528000,58528000,1311244,0.08911934,0.19761054,-9.745864,11.175964
58628000,58628000,1311244,0.12638105,0.024895655,-9.811595,11.175964
58728000,58728000,1311244,0.16493694,0.19096985,-9.77862,11.175964
58828000,58828000,1311244,0.10873462,0.1670864,-9.79623,11.175964
58928000,58928000,1311244,0.13985531,0.17059256,-9.867704,11.175964
59028000,59028000,1311244,0.08157962,0.19680668,-9.674721,11.175964
59128000,59128000,1311244,0.025716217,0.074255094,-9.76271,11.175964
59228000,59228000,1311244,0.07061071,0.068935305,-9.820219,11.175964
59328000,59328000,1311244,0.15802227,0.13662262,-9.81333,11.175964
59428000,59428000,1311244,0.037240323,0.14594814,-9.837334,11.175964
59528000,59528000,1311244,0.23362674,0.059607875,-9.717414,11.175964
59628000,59628000,1311244,0.1460604,0.14244561,-9.715539,11.175964
59728000,59728000,1311244,0.17761245,0.16185872,-9.761035,11.175964
59828000,59828000,1311244,0.15650831,0.16431245,-9.740695,11.175964
59928000,59928000,1311244,0.021412468,0.2642161,-9.759212,11.175964
60028000,60028000,1311244,0.1532826,0.05653123,-9.855984,11.175964
60128000,60128000,1311244,0.14825024,0.20612296,-9.910767,11.175964
60228000,60228000,1311244,0.17300555,0.08764155,-9.82546,11.175964
60328000,60328000,1311244,0.050164305,0.18017526,-9.814518,11.175995
60428000,60428000,1311244,0.23375238,0.07399586,-9.834106,11.175995
60528000,60528000,1311244,0.08813198,0.075155005,-9.804565,11.175995
60628000,60628000,1311244,0.0870363,0.04030231,-9.8087845,11.175995
60728000,60728000,1311244,0.11959508,0.2344497,-9.775324,11.176025
60828000,60828000,1311244,0.1389792,0.13611387,-9.778266,11.176025
60928000,60928000,1311244,0.13844348,0.13556798,-9.77031,11.176025
61028000,61028000,1311244,0.11569469,0.12637797,-9.754065,11.176025
61128000,61128000,1311244,0.15214853,0.1910925,-9.815182,11.176056
61228000,61228000,1311244,0.2317626,0.08020952,-9.760551,11.176056
61328000,61328000,1311244,0.17171027,0.22558106,-9.775358,11.176056
61428000,61428000,1311244,0.17614917,0.15194286,-9.727764,11.176056
61528000,61528000,1311244,0.09142212,0.0704465,-9.926296,11.176056
61628000,61628000,1311244,0.14352877,0.20573269,-9.83105,11.176086
61728000,61728000,1311244,0.16816157,0.048436306,-9.836287,11.176086
61828000,61828000,1311244,0.19672835,0.14063552,-9.731233,11.176086
61928000,61928000,1311244,0.06577453,0.17825241,-9.75056,11.176086
62028000,62028000,1311244,0.15762408,0.10625332,-9.710251,11.176086
62128000,62128000,1311244,0.09147673,0.0930909,-9.787142,11.176086
62228000,62228000,1311244,0.19234326,0.14675555,-9.776583,11.176086
62328000,62328000,1311244,0.16499358,0.17870088,-9.898578,11.176086
62428000,62428000,1311244,0.13825019,0.16432938,-9.728304,11.176086
62528000,62528000,1311244,0.22185738,0.1697212,-9.884118,11.176086
62628000,62628000,1311244,0.10495283,0.17188917,-9.901063,11.176086
62728000,62728000,1311244,0.13702929,0.08123532,-9.770484,11.176086
62832000,62832000,1311244,0.20021358,0.06667755,-9.84415,11.176086
62936000,62936000,1311244,0.1768236,-0.036808543,-9.700921,11.176086
63040000,63040000,1311244,0.18374494,0.042823795,-9.816765,11.176086
63140000,63140000,1311244,0.10365505,0.10175257,-9.846468,11.176086
63240000,63240000,1311244,0.17417304,0.18107851,-9.7514105,11.176086
63344000,63344000,1311244,0.18903676,0.13059808,-9.877244,11.176086
63448000,63448000,1311244,0.15441583,0.07619304,-9.749082,11.176086
63552000,63552000,1311244,0.1470875,0.12882112,-9.790544,11.176086
63656000,63656000,1311244,0.10991669,0.018163709,-9.823181,11.176086
63756000,63756000,1311244,0.12906086,0.09903694,-9.858241,11.176086
63856000,63856000,1311244,0.15559205,0.09670401,-9.91861,11.176086
63960000,63960000,1311244,0.093377605,0.28224346,-9.635826,11.176086
64064000,64064000,1311244,0.14416003,0.18377976,-9.811163,11.176086
64168000,64168000,1311244,0.076602794,0.031231392,-9.750928,11.176086
64268000,64268000,1311244,0.13627757,0.11235171,-9.914012,11.176086
64368000,64368000,1311244,0.25559616,0.18814437,-9.844212,11.176086
64472000,64472000,1311244,0.08977507,0.07863075,-9.822263,11.176086
64576000,64576000,1311244,0.11978957,0.13528433,-9.762057,11.176086
64680000,64680000,1311244,0.11955397,0.08789277,-9.804192,11.176086
64784000,64784000,1311244,0.21397448,0.19540253,-9.869032,11.176056
64884000,64884000,1311244,0.054726444,0.12675545,-9.842394,11.176056
64984000,64984000,1311244,0.15116303,0.123815484,-9.806322,11.176056
65088000,65088000,1311244,0.22178105,0.08775461,-9.8424635,11.176056
65192000,65192000,1311244,0.16292848,0.20650601,-9.801968,11.176056
65296000,65296000,1311244,0.15759155,0.1186494,-9.75657,11.176056
65400000,65400000,1311244,0.13906483,0.21645592,-9.754948,11.176056
65500000,65500000,1311244,0.2221476,0.16590045,-9.924681,11.176056
65600000,65600000,1311244,0.11713007,0.0542864,-9.849599,11.176056
65700000,65700000,1311244,0.085391,0.15519342,-9.895784,11.176056
65800000,65800000,1311244,0.10869885,-0.0055086664,-9.780062,11.176056
65900000,65900000,1311244,0.16566333,0.10378019,-9.677943,11.176056
66000000,66000000,1311244,0.05895776,0.12540196,-9.808619,11.176086
66100000,66100000,1311244,0.1461763,0.19395298,-9.729215,11.176086
66200000,66200000,1311244,0.18332939,0.21703751,-9.819951,11.176086
66300000,66300000,1311244,0.2594219,0.07505319,-9.833488,11.176086
66400000,66400000,1311244,0.29477844,0.0730035,-9.894787,11.176086
66500000,66500000,1311244,0.13843371,0.115224496,-9.783735,11.176117
66600000,66600000,1311244,0.1801985,0.13079172,-9.72374,11.176117
66700000,66700000,1311244,0.22711618,0.13314675,-9.749636,11.176117
66800000,66800000,1311244,0.16642255,0.120723814,-9.859827,11.176117
66900000,66900000,1311244,0.11685065,0.1454212,-9.855153,11.176147
67000000,67000000,1311244,0.11975785,0.2075877,-9.9119835,11.176147
67100000,67100000,1311244,0.19613157,0.13893461,-9.787759,11.176178
67200000,67200000,1311244,0.2191933,0.224007,-9.7240305,11.176178
67300000,67300000,1311244,0.20316982,0.2520055,-9.91902,11.176178
67400000,67400000,1311244,0.08134772,0.058000974,-9.930379,11.1762085
67500000,67500000,1311244,0.25039375,0.086606696,-9.724939,11.1762085
67600000,67600000,1311244,0.16829851,0.18546343,-9.787269,11.1762085
67700000,67700000,1311244,0.08768942,0.17146507,-9.833562,11.176239
67800000,67800000,1311244,0.22689308,0.18195319,-9.8055935,11.176239
67900000,67900000,1311244,0.2171405,0.15609524,-9.797002,11.176239
68000000,68000000,1311244,0.12909338,0.2022293,-9.843439,11.17627
68100000,68100000,1311244,0.05113237,0.1772976,-9.759048,11.17627
68200000,68200000,1311244,0.0978141,0.055551212,-9.811389,11.17627
68300000,68300000,1311244,0.08730247,0.11737016,-9.691142,11.1763
68400000,68400000,1311244,0.1267067,0.10420134,-9.811602,11.1763
68500000,68500000,1311244,0.21718377,0.082405,-9.943739,11.176331
68600000,68600000,1311244,0.23734947,0.18316078,-9.740795,11.176331
68700000,68700000,1311244,0.2885218,0.26016197,-9.8044615,11.176331
68800000,68800000,1311244,0.10974159,0.24891147,-9.813594,11.176361
68900000,68900000,1311244,0.12590656,0.15054387,-9.873125,11.176361
69000000,69000000,1311244,0.17875203,0.14304124,-9.850366,11.176361
69100000,69100000,1311244,0.18271184,0.08680732,-9.794734,11.176392
69200000,69200000,1311244,0.040309332,0.16120186,-9.828828,11.176392
69300000,69300000,1311244,0.21184662,0.015339744,-9.722196,11.176422
69400000,69400000,1311244,0.1297912,0.20410228,-9.903126,11.176422
69500000,69500000,1311244,0.085104376,0.017626176,-9.86343,11.176422
69600000,69600000,1311244,0.18632549,0.20420247,-9.780284,11.176453
69700000,69700000,1311244,0.07040351,0.1355733,-9.751176,11.176453
69800000,69800000,1311244,0.19520095,0.12632045,-9.718547,11.176483
69900000,69900000,1311244,0.21765192,0.04027426,-9.73382,11.176483
70000000,70000000,1311244,0.021708246,0.19986683,-9.798337,11.176514
70100000,70100000,1311244,0.14388858,0.007856149,-9.830909,11.176514
70200000,70200000,1311244,0.22462592,0.21068455,-9.766796,11.176544
70300000,70300000,1311244,0.15425788,0.0673015,-9.773695,11.176575
70400000,70400000,1311244,0.24020831,0.14778505,-9.848068,11.176575
70500000,70500000,1311244,0.18020818,0.12840436,-9.8578005,11.176605
70600000,70600000,1311244,0.21735345,0.21401466,-9.902469,11.176636
70700000,70700000,1311244,0.09355117,0.07193334,-9.846916,11.176636
70800000,70800000,1311244,0.22519396,0.13883518,-9.852901,11.176666
70900000,70900000,1311244,0.237921,0.091476195,-9.832991,11.176666
71000000,71000000,1311244,0.18333451,0.06925094,-10.04574,11.176697
71100000,71100000,1311244,0.17116159,0.1797596,-9.917643,11.176697
71200000,71200000,1311244,0.1898624,0.12877886,-9.78816,11.176697
71300000,71300000,1311244,0.29764652,0.119432725,-9.794572,11.176727
71400000,71400000,1311244,0.028009787,0.025028624,-9.736931,11.176727
71500000,71500000,1311244,0.13701354,0.20123468,-9.942212,11.176727
71600000,71600000,1311244,0.19627896,0.13353425,-9.9077215,11.176727
71700000,71700000,1311244,0.048016388,0.11084066,-9.852723,11.176727
71800000,71800000,1311244,0.21289617,0.07745886,-9.884964,11.176727
71900000,71900000,1311244,0.15344284,0.057379074,-9.936153,11.176727
72000000,72000000,1311244,0.19506522,0.22684614,-9.780664,11.176727
72100000,72100000,1311244,0.14848123,0.02257023,-9.858503,11.176727
72200000,72200000,1311244,0.119237594,0.04636579,-9.827214,11.176727
72300000,72300000,1311244,0.16388485,0.15466632,-9.79884,11.176727
72400000,72400000,1311244,0.1893802,0.13330188,-9.670837,11.176727
72500000,72500000,1311244,0.187737,0.08394716,-9.837201,11.176727
72600000,72600000,1311244,0.106747895,0.06638051,-9.835796,11.176727
72700000,72700000,1311244,0.044595946,0.20375943,-9.819394,11.176697
72800000,72800000,1311244,0.33322465,0.047397524,-9.955512,11.176697
72900000,72900000,1311244,0.20076089,0.16067044,-9.8102455,11.176697
73000000,73000000,1311244,0.16742432,0.16946688,-9.864479,11.176697
73100000,73100000,1311244,0.18359126,0.25951836,-9.820376,11.176697
73200000,73200000,1311244,0.14774106,-0.09780655,-9.71027,11.176697
73300000,73300000,1311244,0.18478708,0.250902,-9.754401,11.176697
73400000,73400000,1311244,0.19007273,0.28036213,-9.844837,11.176697
73500000,73500000,1311244,0.028808294,0.16995193,-9.744461,11.176666
73600000,73600000,1311244,0.14132869,0.07121896,-9.954682,11.176666
73700000,73700000,1311244,0.22220473,0.08369139,-9.793575,11.176666
73800000,73800000,1311244,0.20966882,0.06161964,-9.76197,11.176666
73900000,73900000,1311244,-0.02118406,0.21368079,-9.844218,11.176666
74000000,74000000,1311244,0.15175258,0.1014803,-9.943269,11.176666
74100000,74100000,1311244,0.09743766,0.1924585,-9.868746,11.176666
74200000,74200000,1311244,0.103042126,0.15083827,-9.78153,11.176666
74300000,74300000,1311244,0.23481409,0.098658085,-9.743637,11.176666
74400000,74400000,1311244,0.27230912,0.12669328,-9.783971,11.176666
74500000,74500000,1311244,0.14160658,0.23515262,-9.829431,11.176666
74600000,74600000,1311244,0.11642842,0.14453301,-9.695127,11.176666
74700000,74700000,1311244,0.23402506,0.124352366,-9.813568,11.176636
74800000,74800000,1311244,0.22397289,0.08669769,-9.778304,11.176636
74900000,74900000,1311244,0.3526514,0.24254066,-9.815815,11.176636
75000000,75000000,1311244,0.21996297,0.07987255,-9.795914,11.176636
75100000,75100000,1311244,0.12378672,0.16472201,-9.722698,11.176636
75200000,75200000,1311244,0.11144341,0.2656963,-9.859345,11.176636
75300000,75300000,1311244,0.16678414,0.094256766,-9.804204,11.176636
75400000,75400000,1311244,0.22468345,0.26075768,-9.724068,11.176636
75500000,75500000,1311244,0.19086097,0.22905321,-9.755871,11.176636
75600000,75600000,1311244,0.22493762,0.151447,-9.880627,11.176605
75700000,75700000,1311244,0.22288764,0.117943615,-9.835273,11.176605
75800000,75800000,1311244,0.0045192316,0.27935585,-9.883343,11.176605
75900000,75900000,1311244,0.2904817,0.17942183,-9.913665,11.176605
76000000,76000000,1311244,0.13484186,-0.004976501,-9.857246,11.176605
76100000,76100000,1311244,0.30680594,0.2809432,-9.736145,11.176605
76200000,76200000,1311244,0.18913843,0.2180197,-9.899841,11.176575
76300000,76300000,1311244,0.17106982,0.07542196,-9.787299,11.176575
76400000,76400000,1311244,0.15347707,0.24143066,-9.781816,11.176575
76500000,76500000,1311244,0.15477784,0.13758135,-9.809195,11.176575
76600000,76600000,1311244,0.18512917,0.21196015,-9.7549515,11.176575
76700000,76700000,1311244,0.19289154,0.07174887,-9.846725,11.176544
76800000,76800000,1311244,0.2186187,0.118045464,-9.69558,11.176544
76900000,76900000,1311244,0.16512343,0.14984904,-9.722233,11.176544
77000000,77000000,1311244,0.19746694,0.25109926,-9.85677,11.176544
77100000,77100000,1311244,0.237672,0.049816757,-9.694109,11.176544
77200000,77200000,1311244,0.2477989,0.17906074,-9.800022,11.176514
77300000,77300000,1311244,0.2244226,0.07058528,-9.852042,11.176514
77400000,77400000,1311244,0.24709824,0.2107482,-9.867151,11.176514
77500000,77500000,1311244,0.1503207,0.26641014,-9.917505,11.176514
77600000,77600000,1311244,0.28686398,0.09324581,-9.756635,11.176514
77700000,77700000,1311244,0.049122043,0.17551425,-9.858508,11.176483
77800000,77800000,1311244,0.17555022,0.098881826,-9.898377,11.176483
77900000,77900000,1311244,0.09240269,0.09256873,-9.864322,11.176483
78000000,78000000,1311244,0.23510784,0.16569503,-9.710926,11.176483
78100000,78100000,1311244,0.19826186,0.16477928,-9.711468,11.176453
78200000,78200000,1311244,0.15287033,0.15639041,-9.7555685,11.176453
78300000,78300000,1311244,0.19396503,0.16616048,-9.758955,11.176453
78400000,78400000,1311244,0.13653491,0.11876342,-9.877289,11.176453
78500000,78500000,1311244,0.21591376,0.118744835,-9.662381,11.176422
78600000,78600000,1311244,0.14325371,0.08941148,-9.743848,11.176422
78700000,78700000,1311244,0.14243881,0.16629276,-9.860073,11.176422
78800000,78800000,1311244,0.19118087,0.20039807,-9.869113,11.176422
78900000,78900000,1311244,0.10693318,0.07687743,-9.658887,11.176422
79000000,79000000,1311244,0.08098238,0.24567719,-9.824976,11.176392
79100000,79100000,1311244,0.16810195,0.23578162,-9.72644,11.176392
79200000,79200000,1311244,0.13469088,0.1920806,-9.699514,11.176392
79300000,79300000,1311244,0.20977975,0.008848309,-9.702323,11.176392
79400000,79400000,1311244,0.14593509,0.08035807,-9.81529,11.176361
79500000,79500000,1311244,0.21751282,0.1639035,-9.870936,11.176361
79600000,79600000,1311244,0.08816458,0.28189853,-9.879816,11.176361
79700000,79700000,1311244,0.11489428,0.09436323,-9.80501,11.176331
79800000,79800000,1311244,0.118718326,0.10179763,-9.782719,11.176331
79900000,79900000,1311244,0.19390985,0.10645323,-9.708005,11.176331
80000000,80000000,1311244,0.16597597,0.17829667,-9.825045,11.1763
80100000,80100000,1311244,0.1670141,0.15331721,-9.782627,11.1763
80200000,80200000,1311244,0.19640897,0.25691015,-9.710807,11.1763
80300000,80300000,1311244,0.13686192,0.16670077,-9.822605,11.17627
80400000,80400000,1311244,0.23231477,0.16265708,-9.893758,11.17627
80500000,80500000,1311244,0.20160818,0.21496452,-9.806023,11.17627
80600000,80600000,1311244,0.04051584,0.122252725,-9.842587,11.17627
80700000,80700000,1311244,0.1777316,0.16582236,-9.879213,11.17627
80800000,80800000,1311244,0.11368663,0.13999723,-9.749567,11.17627
80900000,80900000,1311244,0.018491775,0.18148336,-9.767301,11.17627
81000000,81000000,1311244,0.15492085,0.079061456,-9.789026,11.17627
81100000,81100000,1311244,0.23400667,0.16680503,-9.712156,11.17627
81200000,81200000,1311244,0.09909804,0.18649456,-9.794665,11.17627
81300000,81300000,1311244,0.1855366,0.096011825,-9.72328,11.176239
81400000,81400000,1311244,0.1905065,0.15089631,-9.758562,11.176239
81500000,81500000,1311244,0.27451694,0.1590714,-9.882018,11.176239
81600000,81600000,1311244,0.22993356,0.02021376,-9.862141,11.176239
81700000,81700000,1311244,0.14784992,0.29353577,-9.777122,11.176239
81800000,81800000,1311244,0.23588082,0.11436613,-9.784116,11.1762085
81900000,81900000,1311244,0.24388629,0.14154461,-9.683424,11.1762085
82000000,82000000,1311244,0.16217804,0.12400039,-9.859681,11.1762085
82100000,82100000,1311244,0.07191635,0.23058227,-9.84317,11.1762085
82200000,82200000,1311244,0.18071428,0.115057886,-9.694488,11.1762085
82300000,82300000,1311244,0.19102941,0.15280667,-9.933811,11.1762085
82400000,82400000,1311244,0.11606802,0.11560242,-9.729515,11.1762085
82500000,82500000,1311244,0.22458376,0.14945568,-9.70609,11.1762085
82600000,82600000,1311244,0.1282427,0.27542216,-9.907229,11.1762085
82700000,82700000,1311244,0.1770154,0.17922638,-9.953678,11.1762085
82800000,82800000,1311244,0.21800227,0.17321475,-9.736106,11.1762085
82900000,82900000,1311244,0.19523405,0.062286507,-9.8399935,11.1762085
83000000,83000000,1311244,0.19290899,0.20433244,-9.744307,11.1762085
83100000,83100000,1311244,0.063218385,0.1474972,-9.8543415,11.1762085
83200000,83200000,1311244,0.10356841,0.35392082,-9.817855,11.1762085
83300000,83300000,1311244,0.19204535,0.15569913,-9.799579,11.1762085
83400000,83400000,1311244,0.18153286,0.20499527,-9.801726,11.1762085
83500000,83500000,1311244,0.0920187,0.10295569,-9.890182,11.1762085
83600000,83600000,1311244,0.13272077,0.2415552,-9.830423,11.176239
83700000,83700000,1311244,0.2016002,0.12946875,-9.799542,11.176239
83800000,83800000,1311244,0.16296399,0.21934134,-9.765887,11.176239
83900000,83900000,1311244,0.109665364,0.23591599,-9.735024,11.176239
84000000,84000000,1311244,0.14937049,0.16683997,-9.811043,11.17627
84100000,84100000,1311244,0.1335897,0.10593838,-9.780083,11.17627
84200000,84200000,1311244,0.17873302,0.16349542,-9.799349,11.17627
84300000,84300000,1311244,0.17922993,0.14117286,-9.845088,11.1763
84400000,84400000,1311244,0.26822945,0.17304516,-9.852022,11.1763
84500000,84500000,1311244,0.26704848,0.04019233,-9.898501,11.1763
84600000,84600000,1311244,0.16200607,0.042236377,-9.826451,11.176331
84700000,84700000,1311244,0.18841377,0.09072848,-9.80993,11.176331
84800000,84800000,1311244,0.18186128,0.10337597,-9.711558,11.176361
84900000,84900000,1311244,0.24652325,0.15034331,-9.793386,11.176361
85000000,85000000,1311244,0.16747032,0.17601974,-9.899494,11.176361
85100000,85100000,1311244,0.22185944,0.110949,-9.805657,11.176392
85200000,85200000,1311244,0.20253764,0.16857994,-9.740556,11.176392
85300000,85300000,1311244,0.111678354,0.05357462,-9.831489,11.176422
85400000,85400000,1311244,0.13654917,0.20576075,-9.7368965,11.176422
85500000,85500000,1311244,0.19628324,0.120789014,-9.808924,11.176422
85600000,85600000,1311244,0.15937011,0.06393026,-9.832126,11.176453
85700000,85700000,1311244,0.24396431,0.16819234,-9.729247,11.176453
85800000,85800000,1311244,0.19569471,0.06616294,-9.726287,11.176483
85900000,85900000,1311244,0.08513634,0.082238495,-9.7648115,11.176483
86000000,86000000,1311244,0.15102296,0.16699778,-9.891807,11.176514
86100000,86100000,1311244,0.28469747,0.07456571,-9.8164625,11.176514
86200000,86200000,1311244,0.23580763,0.21773817,-9.757782,11.176544
86300000,86300000,1311244,0.24998723,0.09039346,-9.792005,11.176544
86400000,86400000,1311244,0.11646978,0.1451114,-9.829559,11.176575
86500000,86500000,1311244,0.17416185,0.00547268,-9.9024725,11.176575
86600000,86600000,1311244,0.19439967,-0.0087215835,-9.744619,11.176605
86700000,86700000,1311244,0.18721484,0.20001975,-9.762731,11.176605
86800000,86800000,1311244,0.14989465,0.056870945,-9.766126,11.176636
86900000,86900000,1311244,0.084568396,0.1044659,-9.773357,11.176666
87000000,87000000,1311244,0.05474078,0.14390685,-9.748097,11.176666
87100000,87100000,1311244,0.13815,-0.020481214,-9.692408,11.176697
87200000,87200000,1311244,0.13262478,0.056841522,-9.767357,11.176697
87300000,87300000,1311244,0.11438288,0.038314067,-9.641579,11.176727
87400000,87400000,1311244,0.28332117,-0.040106565,-9.806796,11.176758
87500000,87500000,1311244,0.25470337,-0.002783251,-9.732251,11.176758
87600000,87600000,1311244,0.12134844,-0.03547739,-9.803931,11.176788
87700000,87700000,1311244,0.2083502,-0.01653449,-9.80801,11.176819
87800000,87800000,1311244,0.107803,-0.09303715,-9.84996,11.176849
87900000,87900000,1311244,0.21177189,0.013436481,-9.651355,11.17688
88000000,88000000,1311244,0.13553526,0.05834725,-9.622003,11.176941
88100000,88100000,1311244,0.18108171,-0.11487893,-9.654012,11.177002
88200000,88200000,1311244,0.21016948,-0.13922511,-9.718412,11.1770935
88300000,88300000,1311244,0.17111574,-0.2559231,-9.924228,11.177216
88400000,88400000,1311244,0.27928457,-0.2172523,-9.891234,11.177368
88500000,88500000,1311244,0.30123532,-0.2592451,-9.827618,11.177521
88600000,88600000,1311244,0.052613057,-0.2158709,-9.735704,11.177704
