timestamp,lat,lon,alt,alt_ellipsoid,delta_alt,vel_n,vel_e,vel_d,yaw,eph,epv,terrain_alt,lat_lon_reset_counter,alt_reset_counter,terrain_alt_valid,dead_reckoning
180000,47.397742,8.545594,488.124,0.0,0.0,0.0,0.0,0.0,0.0,0.0,0.0,0.0,0,0,0,0
280000,47.3977419,8.545594,488.124,0.0,0.0,0.0,0.0,0.0,0.0,0.0,0.0,0.0,0,0,0,0
380000,47.397742,8.545594,488.124,0.0,0.0,0.0,0.0,0.0,0.0,0.0,0.0,0.0,0,0,0,0
480000,47.3977419,8.545594,488.124,0.0,0.0,0.0,0.0,0.0,0.0,0.0,0.0,0.0,0,0,0,0
580000,47.397742,8.545594,488.124,0.0,0.0,0.0,0.0,0.0,0.0,0.0,0.0,0.0,0,0,0,0
680000,47.3977419,8.545594,488.124,0.0,0.0,0.0,0.0,0.0,0.0,0.0,0.0,0.0,0,0,0,0
780000,47.397742,8.545594,488.124,0.0,0.0,0.0,0.0,0.0,0.0,0.0,0.0,0.0,0,0,0,0
880000,47.3977419,8.545594,488.124,0.0,0.0,0.0,0.0,0.0,0.0,0.0,0.0,0.0,0,0,0,0
980000,47.397742,8.545594,488.124,0.0,0.0,0.0,0.0,0.0,0.0,0.0,0.0,0.0,0,0,0,0
1080000,47.3977419,8.545594,488.124,0.0,0.0,0.0,0.0,0.0,0.0,0.0,0.0,0.0,0,0,0,0
1180000,47.397742,8.545594,488.124,0.0,0.0,0.0,0.0,0.0,0.0,0.0,0.0,0.0,0,0,0,0
1280000,47.3977419,8.545594,488.124,0.0,0.0,0.0,0.0,0.0,0.0,0.0,0.0,0.0,0,0,0,0
1380000,47.397742,8.545594,488.124,0.0,0.0,0.0,0.0,0.0,0.0,0.0,0.0,0.0,0,0,0,0
1480000,47.3977419,8.545594,488.124,0.0,0.0,0.0,0.0,0.0,0.0,0.0,0.0,0.0,0,0,0,0
1580000,47.397742,8.545594,488.124,0.0,0.0,0.0,0.0,0.0,0.0,0.0,0.0,0.0,0,0,0,0
1680000,47.3977419,8.545594,488.124,0.0,0.0,0.0,0.0,0.0,0.0,0.0,0.0,0.0,0,0,0,0
1780000,47.397742,8.545594,488.124,0.0,0.0,0.0,0.0,0.0,0.0,0.0,0.0,0.0,0,0,0,0
1880000,47.3977419,8.545594,488.124,0.0,0.0,0.0,0.0,0.0,0.0,0.0,0.0,0.0,0,0,0,0
1980000,47.397742,8.545594,488.124,0.0,0.0,0.0,0.0,0.0,0.0,0.0,0.0,0.0,0,0,0,0
2076000,47.397742,8.545594,488.124,0.0,0.0,0.0,0.0,0.0,0.0,0.0,0.0,0.0,0,0,0,0
2176000,47.3977419,8.545594,488.124,0.0,0.0,0.0,0.0,0.0,0.0,0.0,0.0,0.0,0,0,0,0
2276000,47.397742,8.545594,488.124,0.0,0.0,0.0,0.0,0.0,0.0,0.0,0.0,0.0,0,0,0,0
2384000,47.3977419,8.545594,488.124,0.0,0.0,0.0,0.0,0.0,0.0,0.0,0.0,0.0,0,0,0,0
2488000,47.3977419,8.545594,488.124,0.0,0.0,0.0,0.0,0.0,0.0,0.0,0.0,0.0,0,0,0,0
2584000,47.3977419,8.545594,488.124,0.0,0.0,0.0,0.0,0.0,0.0,0.0,0.0,0.0,0,0,0,0
2688000,47.3977419,8.545594,488.124,0.0,0.0,0.0,0.0,0.0,0.0,0.0,0.0,0.0,0,0,0,0
2784000,47.3977419,8.545594,488.124,0.0,0.0,0.0,0.0,0.0,0.0,0.0,0.0,0.0,0,0,0,0
2888000,47.3977419,8.545594,488.124,0.0,0.0,0.0,0.0,0.0,0.0,0.0,0.0,0.0,0,0,0,0
2988000,47.397742,8.545594,488.124,0.0,0.0,0.0,0.0,0.0,0.0,0.0,0.0,0.0,0,0,0,0
3088000,47.3977419,8.545594,488.124,0.0,0.0,0.0,0.0,0.0,0.0,0.0,0.0,0.0,0,0,0,0
3188000,47.397742,8.545594,488.124,0.0,0.0,0.0,0.0,0.0,0.0,0.0,0.0,0.0,0,0,0,0
3288000,47.3977419,8.545594,488.124,0.0,0.0,0.0,0.0,0.0,0.0,0.0,0.0,0.0,0,0,0,0
3388000,47.397742,8.545594,488.124,0.0,0.0,0.0,0.0,0.0,0.0,0.0,0.0,0.0,0,0,0,0
3488000,47.3977419,8.545594,488.124,0.0,0.0,0.0,0.0,0.0,0.0,0.0,0.0,0.0,0,0,0,0
3584000,47.3977419,8.545594,488.124,0.0,0.0,0.0,0.0,0.0,0.0,0.0,0.0,0.0,0,0,0,0
3688000,47.3977419,8.545594,488.124,0.0,0.0,0.0,0.0,0.0,0.0,0.0,0.0,0.0,0,0,0,0
3788000,47.397742,8.545594,488.124,0.0,0.0,0.0,0.0,0.0,0.0,0.0,0.0,0.0,0,0,0,0
3888000,47.3977419,8.545594,488.124,0.0,0.0,0.0,0.0,0.0,0.0,0.0,0.0,0.0,0,0,0,0
3988000,47.397742,8.545594,488.124,0.0,0.0,0.0,0.0,0.0,0.0,0.0,0.0,0.0,0,0,0,0
4088000,47.3977419,8.545594,488.124,0.0,0.0,0.0,0.0,0.0,0.0,0.0,0.0,0.0,0,0,0,0
4188000,47.397742,8.545594,488.124,0.0,0.0,0.0,0.0,0.0,0.0,0.0,0.0,0.0,0,0,0,0
4288000,47.3977419,8.545594,488.124,0.0,0.0,0.0,0.0,0.0,0.0,0.0,0.0,0.0,0,0,0,0
4388000,47.397742,8.545594,488.124,0.0,0.0,0.0,0.0,0.0,0.0,0.0,0.0,0.0,0,0,0,0
4488000,47.3977419,8.545594,488.124,0.0,0.0,0.0,0.0,0.0,0.0,0.0,0.0,0.0,0,0,0,0
4588000,47.397742,8.545594,488.124,0.0,0.0,0.0,0.0,0.0,0.0,0.0,0.0,0.0,0,0,0,0
4688000,47.3977419,8.545594,488.124,0.0,0.0,0.0,0.0,0.0,0.0,0.0,0.0,0.0,0,0,0,0
4788000,47.397742,8.545594,488.124,0.0,0.0,0.0,0.0,0.0,0.0,0.0,0.0,0.0,0,0,0,0
4888000,47.3977419,8.545594,488.124,0.0,0.0,0.0,0.0,0.0,0.0,0.0,0.0,0.0,0,0,0,0
4988000,47.397742,8.545594,488.124,0.0,0.0,0.0,0.0,0.0,0.0,0.0,0.0,0.0,0,0,0,0
5088000,47.3977419,8.545594,488.124,0.0,0.0,0.0,0.0,0.0,0.0,0.0,0.0,0.0,0,0,0,0
5188000,47.397742,8.545594,488.124,0.0,0.0,0.0,0.0,0.0,0.0,0.0,0.0,0.0,0,0,0,0
5288000,47.3977419,8.545594,488.124,0.0,0.0,0.0,0.0,0.0,0.0,0.0,0.0,0.0,0,0,0,0
5388000,47.397742,8.545594,488.124,0.0,0.0,0.0,0.0,0.0,0.0,0.0,0.0,0.0,0,0,0,0
5488000,47.3977419,8.545594,488.124,0.0,0.0,0.0,0.0,0.0,0.0,0.0,0.0,0.0,0,0,0,0
5588000,47.397742,8.545594,488.124,0.0,0.0,0.0,0.0,0.0,0.0,0.0,0.0,0.0,0,0,0,0
5688000,47.3977419,8.545594,488.124,0.0,0.0,0.0,0.0,0.0,0.0,0.0,0.0,0.0,0,0,0,0
5788000,47.397742,8.545594,488.124,0.0,0.0,0.0,0.0,0.0,0.0,0.0,0.0,0.0,0,0,0,0
5888000,47.3977419,8.545594,488.124,0.0,0.0,0.0,0.0,0.0,0.0,0.0,0.0,0.0,0,0,0,0
5988000,47.397742,8.545594,488.124,0.0,0.0,0.0,0.0,0.0,0.0,0.0,0.0,0.0,0,0,0,0
6088000,47.3977419,8.545594,488.124,0.0,0.0,0.0,0.0,0.0,0.0,0.0,0.0,0.0,0,0,0,0
6188000,47.397742,8.545594,488.124,0.0,0.0,0.0,0.0,0.0,0.0,0.0,0.0,0.0,0,0,0,0
6288000,47.3977419,8.545594,488.124,0.0,0.0,0.0,0.0,0.0,0.0,0.0,0.0,0.0,0,0,0,0
6388000,47.397742,8.545594,488.124,0.0,0.0,0.0,0.0,0.0,0.0,0.0,0.0,0.0,0,0,0,0
6488000,47.3977419,8.545594,488.124,0.0,0.0,0.0,0.0,0.0,0.0,0.0,0.0,0.0,0,0,0,0
6588000,47.397742,8.545594,488.124,0.0,0.0,0.0,0.0,0.0,0.0,0.0,0.0,0.0,0,0,0,0
6692000,47.397742,8.545594,488.124,0.0,0.0,0.0,0.0,0.0,0.0,0.0,0.0,0.0,0,0,0,0
6792000,47.3977419,8.545594,488.124,0.0,0.0,0.0,0.0,0.0,0.0,0.0,0.0,0.0,0,0,0,0
6892000,47.397742,8.545594,488.124,0.0,0.0,0.0,0.0,0.0,0.0,0.0,0.0,0.0,0,0,0,0
6992000,47.3977419,8.545594,488.124,0.0,0.0,0.0,0.0,0.0,0.0,0.0,0.0,0.0,0,0,0,0
7092000,47.397742,8.545594,488.124,0.0,0.0,0.0,0.0,0.0,0.0,0.0,0.0,0.0,0,0,0,0
7192000,47.3977419,8.545594,488.124,0.0,0.0,0.0,0.0,0.0,0.0,0.0,0.0,0.0,0,0,0,0
7292000,47.397742,8.545594,488.124,0.0,0.0,0.0,0.0,0.0,0.0,0.0,0.0,0.0,0,0,0,0
7392000,47.3977419,8.545594,488.124,0.0,0.0,0.0,0.0,0.0,0.0,0.0,0.0,0.0,0,0,0,0
7492000,47.397742,8.545594,488.124,0.0,0.0,0.0,0.0,0.0,0.0,0.0,0.0,0.0,0,0,0,0
7592000,47.3977419,8.545594,488.124,0.0,0.0,0.0,0.0,0.0,0.0,0.0,0.0,0.0,0,0,0,0
7692000,47.397742,8.545594,488.124,0.0,0.0,0.0,0.0,0.0,0.0,0.0,0.0,0.0,0,0,0,0
7792000,47.3977419,8.545594,488.124,0.0,0.0,0.0,0.0,0.0,0.0,0.0,0.0,0.0,0,0,0,0
7892000,47.397742,8.545594,488.124,0.0,0.0,0.0,0.0,0.0,0.0,0.0,0.0,0.0,0,0,0,0
7992000,47.3977419,8.545594,488.124,0.0,0.0,0.0,0.0,0.0,0.0,0.0,0.0,0.0,0,0,0,0
8092000,47.397742,8.545594,488.124,0.0,0.0,0.0,0.0,0.0,0.0,0.0,0.0,0.0,0,0,0,0
8192000,47.3977419,8.545594,488.124,0.0,0.0,0.0,0.0,0.0,0.0,0.0,0.0,0.0,0,0,0,0
8292000,47.397742,8.545594,488.124,0.0,0.0,0.0,0.0,0.0,0.0,0.0,0.0,0.0,0,0,0,0
8392000,47.3977419,8.545594,488.124,0.0,0.0,0.0,0.0,0.0,0.0,0.0,0.0,0.0,0,0,0,0
8492000,47.397742,8.545594,488.124,0.0,0.0,0.0,0.0,0.0,0.0,0.0,0.0,0.0,0,0,0,0
8592000,47.3977419,8.545594,488.124,0.0,0.0,0.0,0.0,0.0,0.0,0.0,0.0,0.0,0,0,0,0
8692000,47.397742,8.545594,488.124,0.0,0.0,0.0,0.0,0.0,0.0,0.0,0.0,0.0,0,0,0,0
8792000,47.3977419,8.545594,488.124,0.0,0.0,0.0,0.0,0.0,0.0,0.0,0.0,0.0,0,0,0,0
8892000,47.397742,8.545594,488.124,0.0,0.0,0.0,0.0,0.0,0.0,0.0,0.0,0.0,0,0,0,0
8992000,47.3977419,8.545594,488.124,0.0,0.0,0.0,0.0,0.0,0.0,0.0,0.0,0.0,0,0,0,0
9092000,47.397742,8.545594,488.124,0.0,0.0,0.0,0.0,0.0,0.0,0.0,0.0,0.0,0,0,0,0
9192000,47.3977419,8.545594,488.124,0.0,0.0,0.0,0.0,0.0,0.0,0.0,0.0,0.0,0,0,0,0
9292000,47.3977419,8.545594,488.124,0.0,0.0,0.0,0.0,0.0,0.0,0.0,0.0,0.0,0,0,0,0
9392000,47.3977419,8.545594,488.124,0.0,0.0,0.0,0.0,0.0,0.0,0.0,0.0,0.0,0,0,0,0
9492000,47.397742,8.545594,488.124,0.0,0.0,0.0,0.0,0.0,0.0,0.0,0.0,0.0,0,0,0,0
9592000,47.3977419,8.545594,488.124,0.0,0.0,0.0,0.0,0.0,0.0,0.0,0.0,0.0,0,0,0,0
9692000,47.397742,8.545594,488.124,0.0,0.0,0.0,0.0,0.0,0.0,0.0,0.0,0.0,0,0,0,0
9792000,47.3977419,8.545594,488.124,0.0,0.0,0.0,0.0,0.0,0.0,0.0,0.0,0.0,0,0,0,0
9892000,47.397742,8.545594,488.124,0.0,0.0,0.0,0.0,0.0,0.0,0.0,0.0,0.0,0,0,0,0
9992000,47.3977419,8.545594,488.124,0.0,0.0,0.0,0.0,0.0,0.0,0.0,0.0,0.0,0,0,0,0
10092000,47.3977419,8.545594,488.124,0.0,0.0,0.0,0.0,0.0,0.0,0.0,0.0,0.0,0,0,0,0
10192000,47.3977419,8.545594,488.124,0.0,0.0,0.0,0.0,0.0,0.0,0.0,0.0,0.0,0,0,0,0
10292000,47.397742,8.545594,488.124,0.0,0.0,0.0,0.0,0.0,0.0,0.0,0.0,0.0,0,0,0,0
10392000,47.3977419,8.545594,488.124,0.0,0.0,0.0,0.0,0.0,0.0,0.0,0.0,0.0,0,0,0,0
10492000,47.397742,8.545594,488.124,0.0,0.0,0.0,0.0,0.0,0.0,0.0,0.0,0.0,0,0,0,0
10592000,47.3977419,8.545594,488.124,0.0,0.0,0.0,0.0,0.0,0.0,0.0,0.0,0.0,0,0,0,0
10692000,47.397742,8.545594,488.124,0.0,0.0,0.0,0.0,0.0,0.0,0.0,0.0,0.0,0,0,0,0
10792000,47.397742,8.545594,488.124,0.0,0.0,0.0,0.0,0.0,0.0,0.0,0.0,0.0,0,0,0,0
10892000,47.397742,8.545594,488.124,0.0,0.0,0.0,0.0,0.0,0.0,0.0,0.0,0.0,0,0,0,0
10992000,47.3977419,8.545594,488.124,0.0,0.0,0.0,0.0,0.0,0.0,0.0,0.0,0.0,0,0,0,0
11092000,47.397742,8.545594,488.124,0.0,0.0,0.0,0.0,0.0,0.0,0.0,0.0,0.0,0,0,0,0
11192000,47.3977419,8.545594,488.124,0.0,0.0,0.0,0.0,0.0,0.0,0.0,0.0,0.0,0,0,0,0
11292000,47.397742,8.545594,488.124,0.0,0.0,0.0,0.0,0.0,0.0,0.0,0.0,0.0,0,0,0,0
11392000,47.3977419,8.545594,488.124,0.0,0.0,0.0,0.0,0.0,0.0,0.0,0.0,0.0,0,0,0,0
11492000,47.397742,8.545594,488.124,0.0,0.0,0.0,0.0,0.0,0.0,0.0,0.0,0.0,0,0,0,0
11592000,47.3977419,8.545594,488.124,0.0,0.0,0.0,0.0,0.0,0.0,0.0,0.0,0.0,0,0,0,0
11692000,47.397742,8.545594,488.124,0.0,0.0,0.0,0.0,0.0,0.0,0.0,0.0,0.0,0,0,0,0
11792000,47.3977419,8.545594,488.124,0.0,0.0,0.0,0.0,0.0,0.0,0.0,0.0,0.0,0,0,0,0
11892000,47.397742,8.545594,488.124,0.0,0.0,0.0,0.0,0.0,0.0,0.0,0.0,0.0,0,0,0,0
11992000,47.3977419,8.545594,488.124,0.0,0.0,0.0,0.0,0.0,0.0,0.0,0.0,0.0,0,0,0,0
12092000,47.397742,8.545594,488.124,0.0,0.0,0.0,0.0,0.0,0.0,0.0,0.0,0.0,0,0,0,0
12192000,47.3977419,8.545594,488.124,0.0,0.0,0.0,0.0,0.0,0.0,0.0,0.0,0.0,0,0,0,0
12292000,47.397742,8.545594,488.124,0.0,0.0,0.0,0.0,0.0,0.0,0.0,0.0,0.0,0,0,0,0
12392000,47.397742,8.5455955,488.124,0.0,0.0,0.0,3.29,0.0,0.0,0.0,0.0,0.0,0,0,0,0
12492000,47.397742,8.5456032,488.124,0.0,0.0,0.0,7.77,0.0,0.0,0.0,0.0,0.0,0,0,0,0
12592000,47.397742,8.545615999999999,488.124,0.0,0.0,0.0,11.2699995,0.0,0.0,0.0,0.0,0.0,0,0,0,0
12692000,47.397742,8.545633,488.124,0.0,0.0,0.0,14.04,0.0,0.0,0.0,0.0,0.0,0,0,0,0
12792000,47.397742,8.545653399999999,488.124,0.0,0.0,0.049999997,16.3,-0.01,0.0,0.0,0.0,0.0,0,0,0,0
12892000,47.397742,8.5456764,488.127,0.0,0.0,0.03,18.17,-0.049999997,0.0,0.0,0.0,0.0,0,0,0,0
12992000,47.397742,8.5457017,488.135,0.0,0.0,-0.12,19.689999,-0.08,0.0,0.0,0.0,0.0,0,0,0,0
13092000,47.3977418,8.5457288,488.144,0.0,0.0,-0.26999998,20.85,-0.08,0.0,0.0,0.0,0.0,0,0,0,0
13192000,47.397741499999995,8.545757199999999,488.151,0.0,0.0,-0.32999998,21.699999,-0.049999997,0.0,0.0,0.0,0.0,0,0,0,0
13292000,47.3977412,8.5457866,488.156,0.0,0.0,-0.38,22.35,-0.06,0.0,0.0,0.0,0.0,0,0,0,0
13392000,47.3977408,8.5458167,488.167,0.0,0.0,-0.51,22.85,-0.19,0.0,0.0,0.0,0.0,0,0,0,0
13492000,47.3977402,8.5458474,488.204,0.0,0.0,-0.71999997,23.18,-0.55,0.0,0.0,0.0,0.0,0,0,0,0
13592000,47.3977394,8.545878499999999,488.284,0.0,0.0,-0.97999996,23.38,-1.02,0.0,0.0,0.0,0.0,0,0,0,0
13692000,47.397738399999994,8.5459097,488.409,0.0,0.0,-1.24,23.51,-1.4499999,0.0,0.0,0.0,0.0,0,0,0,0
13792000,47.397737199999995,8.5459411,488.574,0.0,0.0,-1.4699999,23.58,-1.81,0.0,0.0,0.0,0.0,0,0,0,0
13892000,47.3977358,8.545972599999999,488.772,0.0,0.0,-1.6999999,23.6,-2.1299999,0.0,0.0,0.0,0.0,0,0,0,0
13992000,47.3977341,8.546004,489.002,0.0,0.0,-1.93,23.59,-2.46,0.0,0.0,0.0,0.0,0,0,0,0
14092000,47.3977323,8.5460354,489.266,0.0,0.0,-2.1699998,23.529999,-2.8,0.0,0.0,0.0,0.0,0,0,0,0
14192000,47.3977302,8.546066699999999,489.564,0.0,0.0,-2.4099998,23.449999,-3.1399999,0.0,0.0,0.0,0.0,0,0,0,0
14292000,47.3977279,8.5460979,489.895,0.0,0.0,-2.6399999,23.359999,-3.46,0.0,0.0,0.0,0.0,0,0,0,0
14396000,47.3977253,8.5461302,490.273,0.0,0.0,-2.87,23.24,-3.79,0.0,0.0,0.0,0.0,0,0,0,0
14496000,47.397722599999994,8.546161099999999,490.669,0.0,0.0,-3.09,23.109999,-4.1,0.0,0.0,0.0,0.0,0,0,0,0
14600000,47.397719599999995,8.546192999999999,491.113,0.0,0.0,-3.31,22.97,-4.42,0.0,0.0,0.0,0.0,0,0,0,0
14700000,47.3977165,8.5462235,491.572,0.0,0.0,-3.52,22.81,-4.74,0.0,0.0,0.0,0.0,0,0,0,0
14800000,47.3977132,8.546253799999999,492.064,0.0,0.0,-3.73,22.63,-5.0699997,0.0,0.0,0.0,0.0,0,0,0,0
14900000,47.3977098,8.5462838,492.589,0.0,0.0,-3.9299998,22.449999,-5.4,0.0,0.0,0.0,0.0,0,0,0,0
15004000,47.397706,8.5463148,493.17,0.0,0.0,-4.14,22.25,-5.74,0.0,0.0,0.0,0.0,0,0,0,0
15104000,47.3977022,8.5463443,493.759,0.0,0.0,-4.3199997,22.07,-6.02,0.0,0.0,0.0,0.0,0,0,0,0
15204000,47.3976982,8.546373599999999,494.374,0.0,0.0,-4.46,21.92,-6.25,0.0,0.0,0.0,0.0,0,0,0,0
15304000,47.397694099999995,8.5464027,495.008,0.0,0.0,-4.5499997,21.8,-6.42,0.0,0.0,0.0,0.0,0,0,0,0
15404000,47.39769,8.5464317,495.659,0.0,0.0,-4.5899997,21.71,-6.56,0.0,0.0,0.0,0.0,0,0,0,0
15504000,47.3976858,8.5464606,496.32,0.0,0.0,-4.61,21.64,-6.66,0.0,0.0,0.0,0.0,0,0,0,0
15604000,47.3976817,8.5464894,496.991,0.0,0.0,-4.6,21.59,-6.75,0.0,0.0,0.0,0.0,0,0,0,0
15704000,47.3976775,8.5465182,497.67,0.0,0.0,-4.56,21.55,-6.8199997,0.0,0.0,0.0,0.0,0,0,0,0
15804000,47.397673399999995,8.5465469,498.356,0.0,0.0,-4.5099998,21.51,-6.8799996,0.0,0.0,0.0,0.0,0,0,0,0
15904000,47.3976694,8.546575299999999,499.044,0.0,0.0,-4.41,21.14,-6.8799996,0.0,0.0,0.0,0.0,0,0,0,0
16004000,47.397665499999995,8.5466032,499.735,0.0,0.0,-4.29,20.779999,-6.93,0.0,0.0,0.0,0.0,0,0,0,0
16104000,47.397661799999995,8.5466296,500.401,0.0,0.0,-4.16,20.529999,-6.91,0.0,0.0,0.0,0.0,0,0,0,0
16204000,47.397658,8.546657999999999,501.112,0.0,0.0,-4.0299997,20.41,-6.74,0.0,0.0,0.0,0.0,0,0,0,0
16304000,47.3976544,8.5466851,501.773,0.0,0.0,-3.8999999,20.41,-6.47,0.0,0.0,0.0,0.0,0,0,0,0
16404000,47.397650899999995,8.546712399999999,502.404,0.0,0.0,-3.76,20.48,-6.15,0.0,0.0,0.0,0.0,0,0,0,0
16504000,47.3976476,8.5467397,503.005,0.0,0.0,-3.62,20.55,-5.8799996,0.0,0.0,0.0,0.0,0,0,0,0
16604000,47.3976444,8.5467672,503.583,0.0,0.0,-3.46,20.609999,-5.7,0.0,0.0,0.0,0.0,0,0,0,0
16704000,47.3976414,8.5467947,504.146,0.0,0.0,-3.29,20.65,-5.5699997,0.0,0.0,0.0,0.0,0,0,0,0
16804000,47.3976385,8.5468222,504.698,0.0,0.0,-3.1299999,20.689999,-5.47,0.0,0.0,0.0,0.0,0,0,0,0
16904000,47.397635699999995,8.5468498,505.241,0.0,0.0,-2.96,20.73,-5.38,0.0,0.0,0.0,0.0,0,0,0,0
17004000,47.3976332,8.5468764,505.754,0.0,0.0,-2.8,20.76,-5.2999997,0.0,0.0,0.0,0.0,0,0,0,0
17104000,47.3976307,8.5469051,506.302,0.0,0.0,-2.6299999,20.779999,-5.23,0.0,0.0,0.0,0.0,0,0,0,0
17204000,47.397628399999995,8.5469328,506.823,0.0,0.0,-2.46,20.8,-5.18,0.0,0.0,0.0,0.0,0,0,0,0
17304000,47.3976262,8.5469606,507.34,0.0,0.0,-2.29,20.8,-5.15,0.0,0.0,0.0,0.0,0,0,0,0
17404000,47.397624199999996,8.546988299999999,507.854,0.0,0.0,-2.1299999,20.8,-5.12,0.0,0.0,0.0,0.0,0,0,0,0
17504000,47.397622399999996,8.547016,508.365,0.0,0.0,-1.9799999,20.8,-5.1,0.0,0.0,0.0,0.0,0,0,0,0
17604000,47.3976207,8.5470437,508.874,0.0,0.0,-1.8199999,20.789999,-5.08,0.0,0.0,0.0,0.0,0,0,0,0
17704000,47.3976191,8.5470714,509.382,0.0,0.0,-1.68,20.779999,-5.06,0.0,0.0,0.0,0.0,0,0,0,0
17804000,47.3976176,8.547099099999999,509.888,0.0,0.0,-1.54,20.77,-5.0499997,0.0,0.0,0.0,0.0,0,0,0,0
17904000,47.397616299999996,8.5471268,510.393,0.0,0.0,-1.4,20.76,-5.04,0.0,0.0,0.0,0.0,0,0,0,0
18004000,47.397615099999996,8.5471544,510.897,0.0,0.0,-1.28,20.74,-5.0299997,0.0,0.0,0.0,0.0,0,0,0,0
18104000,47.397614,8.547182,511.4,0.0,0.0,-1.15,20.72,-5.0299997,0.0,0.0,0.0,0.0,0,0,0,0
18204000,47.397613,8.5472096,511.903,0.0,0.0,-1.04,20.699999,-5.02,0.0,0.0,0.0,0.0,0,0,0,0
18304000,47.397612099999996,8.5472372,512.406,0.0,0.0,-0.93,20.68,-5.02,0.0,0.0,0.0,0.0,0,0,0,0
18404000,47.3976113,8.547264799999999,512.907,0.0,0.0,-0.83,20.66,-5.0099998,0.0,0.0,0.0,0.0,0,0,0,0
18504000,47.3976106,8.547292299999999,513.408,0.0,0.0,-0.72999996,20.65,-5.0,0.0,0.0,0.0,0.0,0,0,0,0
18604000,47.39761,8.5473198,513.909,0.0,0.0,-0.64,20.63,-5.0,0.0,0.0,0.0,0.0,0,0,0,0
18704000,47.3976094,8.5473473,514.408,0.0,0.0,-0.56,20.609999,-4.99,0.0,0.0,0.0,0.0,0,0,0,0
18804000,47.397608999999996,8.547374699999999,514.907,0.0,0.0,-0.48,20.59,-4.98,0.0,0.0,0.0,0.0,0,0,0,0
18904000,47.3976086,8.5474021,515.406,0.0,0.0,-0.41,20.57,-4.97,0.0,0.0,0.0,0.0,0,0,0,0
19004000,47.3976082,8.5474295,515.903,0.0,0.0,-0.34,20.55,-4.97,0.0,0.0,0.0,0.0,0,0,0,0
19104000,47.3976079,8.5474569,516.401,0.0,0.0,-0.28,20.529999,-4.97,0.0,0.0,0.0,0.0,0,0,0,0
19204000,47.397607699999995,8.547484299999999,516.898,0.0,0.0,-0.22999999,20.51,-4.96,0.0,0.0,0.0,0.0,0,0,0,0
19304000,47.3976075,8.5475116,517.394,0.0,0.0,-0.17,20.49,-4.96,0.0,0.0,0.0,0.0,0,0,0,0
19404000,47.3976074,8.5475389,517.891,0.0,0.0,-0.12,20.47,-4.96,0.0,0.0,0.0,0.0,0,0,0,0
19504000,47.3976073,8.5475661,518.387,0.0,0.0,-0.08,20.439999,-4.96,0.0,0.0,0.0,0.0,0,0,0,0
19604000,47.397607199999996,8.5475934,518.884,0.0,0.0,-0.04,20.42,-4.96,0.0,0.0,0.0,0.0,0,0,0,0
19704000,47.397607199999996,8.5476206,519.38,0.0,0.0,0.0,20.4,-4.95,0.0,0.0,0.0,0.0,0,0,0,0
19804000,47.397607199999996,8.547647699999999,519.875,0.0,0.0,0.02,20.369999,-4.95,0.0,0.0,0.0,0.0,0,0,0,0
19904000,47.397607199999996,8.547674899999999,520.371,0.0,0.0,0.049999997,20.35,-4.94,0.0,0.0,0.0,0.0,0,0,0,0
20004000,47.3976073,8.547702,520.865,0.0,0.0,0.08,20.32,-4.94,0.0,0.0,0.0,0.0,0,0,0,0
20104000,47.3976074,8.547729,521.359,0.0,0.0,0.099999994,20.3,-4.93,0.0,0.0,0.0,0.0,0,0,0,0
20204000,47.3976075,8.547756099999999,521.853,0.0,0.0,0.13,20.279999,-4.93,0.0,0.0,0.0,0.0,0,0,0,0
20304000,47.3976076,8.5477831,522.346,0.0,0.0,0.14999999,20.25,-4.93,0.0,0.0,0.0,0.0,0,0,0,0
20404000,47.397607799999996,8.54781,522.839,0.0,0.0,0.17,20.23,-4.92,0.0,0.0,0.0,0.0,0,0,0,0
20504000,47.3976079,8.547837,523.332,0.0,0.0,0.19,20.199999,-4.92,0.0,0.0,0.0,0.0,0,0,0,0
20604000,47.3976081,8.5478639,523.824,0.0,0.0,0.19999999,20.18,-4.91,0.0,0.0,0.0,0.0,0,0,0,0
20704000,47.397608299999995,8.5478908,524.316,0.0,0.0,0.22,20.16,-4.9,0.0,0.0,0.0,0.0,0,0,0,0
20804000,47.3976085,8.5479176,524.806,0.0,0.0,0.22999999,20.14,-4.9,0.0,0.0,0.0,0.0,0,0,0,0
20904000,47.3976087,8.5479445,525.296,0.0,0.0,0.24,20.119999,-4.89,0.0,0.0,0.0,0.0,0,0,0,0
21004000,47.397608999999996,8.5479713,525.784,0.0,0.0,0.25,20.1,-4.88,0.0,0.0,0.0,0.0,0,0,0,0
21104000,47.3976092,8.547998,526.272,0.0,0.0,0.26,20.08,-4.87,0.0,0.0,0.0,0.0,0,0,0,0
21204000,47.3976094,8.5480248,526.76,0.0,0.0,0.26999998,20.06,-4.87,0.0,0.0,0.0,0.0,0,0,0,0
21304000,47.3976097,8.5480515,527.247,0.0,0.0,0.28,20.029999,-4.8599997,0.0,0.0,0.0,0.0,0,0,0,0
21404000,47.3976099,8.548078199999999,527.733,0.0,0.0,0.28,20.01,-4.85,0.0,0.0,0.0,0.0,0,0,0,0
21504000,47.397610199999995,8.548104799999999,528.219,0.0,0.0,0.29,19.99,-4.8399997,0.0,0.0,0.0,0.0,0,0,0,0
21604000,47.3976105,8.5481315,528.703,0.0,0.0,0.29999998,19.97,-4.8399997,0.0,0.0,0.0,0.0,0,0,0,0
21704000,47.3976107,8.5481581,529.187,0.0,0.0,0.29999998,19.949999,-4.83,0.0,0.0,0.0,0.0,0,0,0,0
21804000,47.397611,8.548184599999999,529.671,0.0,0.0,0.31,19.93,-4.83,0.0,0.0,0.0,0.0,0,0,0,0
21904000,47.3976113,8.548211199999999,530.153,0.0,0.0,0.31,19.91,-4.8199997,0.0,0.0,0.0,0.0,0,0,0,0
22004000,47.3976116,8.5482377,530.635,0.0,0.0,0.32,19.89,-4.81,0.0,0.0,0.0,0.0,0,0,0,0
22104000,47.3976119,8.5482642,531.116,0.0,0.0,0.32,19.869999,-4.7999997,0.0,0.0,0.0,0.0,0,0,0,0
22204000,47.3976122,8.548290699999999,531.597,0.0,0.0,0.32999998,19.84,-4.7999997,0.0,0.0,0.0,0.0,0,0,0,0
22304000,47.3976125,8.5483171,532.077,0.0,0.0,0.32999998,19.82,-4.79,0.0,0.0,0.0,0.0,0,0,0,0
22404000,47.3976128,8.5483435,532.556,0.0,0.0,0.32999998,19.8,-4.7799997,0.0,0.0,0.0,0.0,0,0,0,0
22504000,47.3976131,8.548369899999999,533.034,0.0,0.0,0.34,19.779999,-4.77,0.0,0.0,0.0,0.0,0,0,0,0
22604000,47.3976134,8.5483962,533.511,0.0,0.0,0.34,19.77,-4.77,0.0,0.0,0.0,0.0,0,0,0,0
22704000,47.3976137,8.5484225,533.988,0.0,0.0,0.35,19.75,-4.7599998,0.0,0.0,0.0,0.0,0,0,0,0
22804000,47.397614,8.5484489,534.464,0.0,0.0,0.35,19.73,-4.75,0.0,0.0,0.0,0.0,0,0,0,0
22904000,47.397614399999995,8.5484751,534.94,0.0,0.0,0.35,19.71,-4.75,0.0,0.0,0.0,0.0,0,0,0,0
23004000,47.3976147,8.5485014,535.414,0.0,0.0,0.35999998,19.689999,-4.74,0.0,0.0,0.0,0.0,0,0,0,0
23104000,47.397614999999995,8.5485276,535.889,0.0,0.0,0.35999998,19.67,-4.74,0.0,0.0,0.0,0.0,0,0,0,0
23204000,47.3976153,8.5485528,536.344,0.0,0.0,0.37,19.66,-4.73,0.0,0.0,0.0,0.0,0,0,0,0
23304000,47.397615699999996,8.54858,536.836,0.0,0.0,0.37,19.64,-4.73,0.0,0.0,0.0,0.0,0,0,0,0
23404000,47.397616,8.5486062,537.309,0.0,0.0,0.37,19.619999,-4.72,0.0,0.0,0.0,0.0,0,0,0,0
23504000,47.397616299999996,8.5486323,537.781,0.0,0.0,0.37,19.59,-4.72,0.0,0.0,0.0,0.0,0,0,0,0
23604000,47.3976167,8.548658399999999,538.254,0.0,0.0,0.38,19.58,-4.72,0.0,0.0,0.0,0.0,0,0,0,0
23704000,47.397617,8.5486834,538.707,0.0,0.0,0.38,19.56,-4.71,0.0,0.0,0.0,0.0,0,0,0,0
23804000,47.397617399999994,8.5487105,539.197,0.0,0.0,0.38,19.539999,-4.71,0.0,0.0,0.0,0.0,0,0,0,0
23904000,47.3976177,8.5487365,539.669,0.0,0.0,0.38,19.49,-4.7,0.0,0.0,0.0,0.0,0,0,0,0
24004000,47.397618099999995,8.5487624,540.137,0.0,0.0,0.39,19.34,-4.64,0.0,0.0,0.0,0.0,0,0,0,0
24104000,47.3976184,8.548788,540.595,0.0,0.0,0.39,19.15,-4.5099998,0.0,0.0,0.0,0.0,0,0,0,0
24204000,47.3976188,8.5488134,541.036,0.0,0.0,0.39999998,18.96,-4.2999997,0.0,0.0,0.0,0.0,0,0,0,0
24304000,47.3976192,8.5488386,541.454,0.0,0.0,0.42,18.779999,-4.04,0.0,0.0,0.0,0.0,0,0,0,0
24404000,47.3976196,8.5488635,541.841,0.0,0.0,0.42999998,18.619999,-3.72,0.0,0.0,0.0,0.0,0,0,0,0
24504000,47.397619999999996,8.5488882,542.195,0.0,0.0,0.45,18.46,-3.36,0.0,0.0,0.0,0.0,0,0,0,0
24604000,47.3976204,8.548912699999999,542.512,0.0,0.0,0.47,18.31,-2.99,0.0,0.0,0.0,0.0,0,0,0,0
24704000,47.3976208,8.548937,542.794,0.0,0.0,0.5,18.17,-2.6499999,0.0,0.0,0.0,0.0,0,0,0,0
24804000,47.3976213,8.5489611,543.042,0.0,0.0,0.53,18.02,-2.33,0.0,0.0,0.0,0.0,0,0,0,0
24904000,47.397621799999996,8.548985,543.26,0.0,0.0,0.56,17.88,-2.03,0.0,0.0,0.0,0.0,0,0,0,0
25004000,47.397622299999995,8.5490078,543.442,0.0,0.0,0.59999996,17.75,-1.75,0.0,0.0,0.0,0.0,0,0,0,0
25104000,47.397622899999995,8.5490323,543.61,0.0,0.0,0.63,17.619999,-1.48,0.0,0.0,0.0,0.0,0,0,0,0
25204000,47.397623499999995,8.5490557,543.745,0.0,0.0,0.66999996,17.51,-1.22,0.0,0.0,0.0,0.0,0,0,0,0
25304000,47.397624099999994,8.549078999999999,543.855,0.0,0.0,0.71,17.41,-0.97999996,0.0,0.0,0.0,0.0,0,0,0,0
25404000,47.397624799999996,8.549102099999999,543.942,0.0,0.0,0.75,17.31,-0.76,0.0,0.0,0.0,0.0,0,0,0,0
25504000,47.3976255,8.5491251,544.007,0.0,0.0,0.78999996,17.22,-0.56,0.0,0.0,0.0,0.0,0,0,0,0
25604000,47.3976262,8.549147999999999,544.054,0.0,0.0,0.83,17.13,-0.37,0.0,0.0,0.0,0.0,0,0,0,0
25704000,47.397627,8.549170799999999,544.082,0.0,0.0,0.87,17.06,-0.19999999,0.0,0.0,0.0,0.0,0,0,0,0
25800000,47.3976277,8.5491926,544.094,0.0,0.0,0.90999997,16.99,-0.049999997,0.0,0.0,0.0,0.0,0,0,0,0
25904000,47.3976286,8.549216099999999,544.092,0.0,0.0,0.95,16.92,0.089999996,0.0,0.0,0.0,0.0,0,0,0,0
26004000,47.3976295,8.549238599999999,544.076,0.0,0.0,0.97999996,16.859999,0.21,0.0,0.0,0.0,0.0,0,0,0,0
26104000,47.3976304,8.5492601,544.049,0.0,0.0,1.02,16.81,0.32999998,0.0,0.0,0.0,0.0,0,0,0,0
26204000,47.3976313,8.5492834,544.009,0.0,0.0,1.05,16.76,0.42999998,0.0,0.0,0.0,0.0,0,0,0,0
26304000,47.3976323,8.5493057,543.961,0.0,0.0,1.0799999,16.71,0.52,0.0,0.0,0.0,0.0,0,0,0,0
26404000,47.397633299999995,8.5493279,543.905,0.0,0.0,1.11,16.67,0.59999996,0.0,0.0,0.0,0.0,0,0,0,0
26504000,47.3976343,8.5493492,543.843,0.0,0.0,1.14,16.63,0.66999996,0.0,0.0,0.0,0.0,0,0,0,0
26604000,47.3976354,8.549372199999999,543.77,0.0,0.0,1.17,16.6,0.72999996,0.0,0.0,0.0,0.0,0,0,0,0
26704000,47.397636399999996,8.5493943,543.693,0.0,0.0,1.1899999,16.57,0.78999996,0.0,0.0,0.0,0.0,0,0,0,0
26804000,47.397637499999995,8.5494164,543.612,0.0,0.0,1.2099999,16.539999,0.83,0.0,0.0,0.0,0.0,0,0,0,0
26904000,47.3976386,8.5494384,543.526,0.0,0.0,1.23,16.52,0.87,0.0,0.0,0.0,0.0,0,0,0,0
27004000,47.3976397,8.5494604,543.436,0.0,0.0,1.25,16.49,0.90999997,0.0,0.0,0.0,0.0,0,0,0,0
27104000,47.3976409,8.5494824,543.343,0.0,0.0,1.26,16.47,0.94,0.0,0.0,0.0,0.0,0,0,0,0
27204000,47.397642,8.549504299999999,543.248,0.0,0.0,1.27,16.46,0.96,0.0,0.0,0.0,0.0,0,0,0,0
27304000,47.3976432,8.5495263,543.15,0.0,0.0,1.28,16.44,0.97999996,0.0,0.0,0.0,0.0,0,0,0,0
27404000,47.397644299999996,8.5495482,543.051,0.0,0.0,1.28,16.43,1.0,0.0,0.0,0.0,0.0,0,0,0,0
27504000,47.397645499999996,8.54957,542.95,0.0,0.0,1.29,16.42,1.01,0.0,0.0,0.0,0.0,0,0,0,0
27604000,47.397646699999996,8.5495919,542.849,0.0,0.0,1.29,16.41,1.02,0.0,0.0,0.0,0.0,0,0,0,0
27704000,47.397647799999994,8.5496138,542.746,0.0,0.0,1.29,16.4,1.02,0.0,0.0,0.0,0.0,0,0,0,0
27804000,47.397649,8.5496356,542.643,0.0,0.0,1.28,16.4,1.03,0.0,0.0,0.0,0.0,0,0,0,0
27904000,47.3976502,8.5496575,542.54,0.0,0.0,1.28,16.39,1.03,0.0,0.0,0.0,0.0,0,0,0,0
28004000,47.3976513,8.5496793,542.437,0.0,0.0,1.27,16.39,1.03,0.0,0.0,0.0,0.0,0,0,0,0
28104000,47.3976525,8.5497012,542.333,0.0,0.0,1.26,16.39,1.02,0.0,0.0,0.0,0.0,0,0,0,0
28204000,47.3976536,8.549723,542.231,0.0,0.0,1.25,16.38,1.02,0.0,0.0,0.0,0.0,0,0,0,0
28304000,47.3976547,8.5497448,542.129,0.0,0.0,1.23,16.38,1.01,0.0,0.0,0.0,0.0,0,0,0,0
28404000,47.397655799999995,8.5497667,542.027,0.0,0.0,1.22,16.39,1.01,0.0,0.0,0.0,0.0,0,0,0,0
28504000,47.3976569,8.5497885,541.926,0.0,0.0,1.1999999,16.39,1.0,0.0,0.0,0.0,0.0,0,0,0,0
28604000,47.397658,8.5498104,541.826,0.0,0.0,1.18,16.39,0.98999995,0.0,0.0,0.0,0.0,0,0,0,0
28704000,47.397659,8.549832199999999,541.727,0.0,0.0,1.16,16.39,0.97999996,0.0,0.0,0.0,0.0,0,0,0,0
28804000,47.397659999999995,8.5498532,541.634,0.0,0.0,1.14,16.39,0.96999997,0.0,0.0,0.0,0.0,0,0,0,0
28904000,47.3976611,8.5498759,541.533,0.0,0.0,1.12,16.4,0.95,0.0,0.0,0.0,0.0,0,0,0,0
29004000,47.3976621,8.5498978,541.438,0.0,0.0,1.1,16.4,0.94,0.0,0.0,0.0,0.0,0,0,0,0
29104000,47.397663099999995,8.549919599999999,541.344,0.0,0.0,1.0699999,16.41,0.93,0.0,0.0,0.0,0.0,0,0,0,0
29204000,47.397664,8.5499406,541.254,0.0,0.0,1.05,16.41,0.91999996,0.0,0.0,0.0,0.0,0,0,0,0
29304000,47.397664999999996,8.5499634,541.16,0.0,0.0,1.02,16.42,0.9,0.0,0.0,0.0,0.0,0,0,0,0
29404000,47.3976659,8.5499853,541.07,0.0,0.0,0.98999995,16.42,0.89,0.0,0.0,0.0,0.0,0,0,0,0
29504000,47.397666799999996,8.5500071,540.981,0.0,0.0,0.96999997,16.43,0.87,0.0,0.0,0.0,0.0,0,0,0,0
29604000,47.3976676,8.550029,540.894,0.0,0.0,0.94,16.43,0.85999995,0.0,0.0,0.0,0.0,0,0,0,0
29704000,47.397668499999995,8.5500509,540.809,0.0,0.0,0.90999997,16.44,0.84,0.0,0.0,0.0,0.0,0,0,0,0
29804000,47.3976693,8.5500729,540.725,0.0,0.0,0.89,16.44,0.83,0.0,0.0,0.0,0.0,0,0,0,0
29904000,47.3976701,8.5500948,540.642,0.0,0.0,0.85999995,16.449999,0.81,0.0,0.0,0.0,0.0,0,0,0,0
30004000,47.3976709,8.5501168,540.561,0.0,0.0,0.84,16.65,0.79999995,0.0,0.0,0.0,0.0,0,0,0,0
30104000,47.397671599999995,8.5501392,540.484,0.0,0.0,0.82,17.02,0.72999996,0.0,0.0,0.0,0.0,0,0,0,0
30204000,47.397672299999996,8.550162199999999,540.419,0.0,0.0,0.78999996,17.48,0.55,0.0,0.0,0.0,0.0,0,0,0,0
30304000,47.397673,8.550185899999999,540.379,0.0,0.0,0.74,17.949999,0.22999999,0.0,0.0,0.0,0.0,0,0,0,0
30404000,47.3976737,8.5502101,540.378,0.0,0.0,0.68,18.359999,-0.19,0.0,0.0,0.0,0.0,0,0,0,0
30508000,47.3976743,8.5502358,540.426,0.0,0.0,0.59999996,18.71,-0.7,0.0,0.0,0.0,0.0,0,0,0,0
30608000,47.3976748,8.5502609,540.523,0.0,0.0,0.51,18.96,-1.2099999,0.0,0.0,0.0,0.0,0,0,0,0
30712000,47.397675199999995,8.550287299999999,540.676,0.0,0.0,0.41,19.14,-1.6999999,0.0,0.0,0.0,0.0,0,0,0,0
30812000,47.3976755,8.5503129,540.869,0.0,0.0,0.31,19.26,-2.12,0.0,0.0,0.0,0.0,0,0,0,0
30916000,47.397675799999995,8.5503397,541.111,0.0,0.0,0.19999999,19.34,-2.5,0.0,0.0,0.0,0.0,0,0,0,0
31020000,47.397675899999996,8.550366499999999,541.39,0.0,0.0,0.099999994,19.39,-2.85,0.0,0.0,0.0,0.0,0,0,0,0
31120000,47.397676,8.5503924,541.692,0.0,0.0,0.0,19.41,-3.1499999,0.0,0.0,0.0,0.0,0,0,0,0
31224000,47.397675899999996,8.5504193,542.035,0.0,0.0,-0.08,19.42,-3.4199998,0.0,0.0,0.0,0.0,0,0,0,0
31328000,47.397675799999995,8.5504462,542.404,0.0,0.0,-0.16,19.42,-3.6499999,0.0,0.0,0.0,0.0,0,0,0,0
31428000,47.3976756,8.5504721,542.78,0.0,0.0,-0.22999999,19.42,-3.85,0.0,0.0,0.0,0.0,0,0,0,0
31532000,47.3976754,8.550499,543.19,0.0,0.0,-0.29999998,19.41,-4.02,0.0,0.0,0.0,0.0,0,0,0,0
31636000,47.397675,8.5505249,543.6,0.0,0.0,-0.35999998,19.41,-4.18,0.0,0.0,0.0,0.0,0,0,0,0
31736000,47.397674699999996,8.5505517,544.042,0.0,0.0,-0.42,19.4,-4.31,0.0,0.0,0.0,0.0,0,0,0,0
31840000,47.3976743,8.5505786,544.498,0.0,0.0,-0.47,19.4,-4.43,0.0,0.0,0.0,0.0,0,0,0,0
31936000,47.3976738,8.5506035,544.928,0.0,0.0,-0.5,19.4,-4.5299997,0.0,0.0,0.0,0.0,0,0,0,0
32040000,47.3976733,8.5506303,545.404,0.0,0.0,-0.53999996,19.4,-4.62,0.0,0.0,0.0,0.0,0,0,0,0
32140000,47.397672799999995,8.550656199999999,545.871,0.0,0.0,-0.57,19.4,-4.69,0.0,0.0,0.0,0.0,0,0,0,0
32240000,47.397672299999996,8.550682,546.344,0.0,0.0,-0.59,19.4,-4.7599998,0.0,0.0,0.0,0.0,0,0,0,0
32340000,47.3976717,8.550707899999999,546.824,0.0,0.0,-0.62,19.39,-4.83,0.0,0.0,0.0,0.0,0,0,0,0
32440000,47.3976712,8.5507337,547.31,0.0,0.0,-0.63,19.39,-4.88,0.0,0.0,0.0,0.0,0,0,0,0
32540000,47.3976706,8.5507596,547.801,0.0,0.0,-0.65,19.39,-4.93,0.0,0.0,0.0,0.0,0,0,0,0
32640000,47.39767,8.550785399999999,548.297,0.0,0.0,-0.65999997,19.38,-4.97,0.0,0.0,0.0,0.0,0,0,0,0
32740000,47.3976694,8.5508112,548.797,0.0,0.0,-0.65999997,19.369999,-5.0099998,0.0,0.0,0.0,0.0,0,0,0,0
32840000,47.3976688,8.550837099999999,549.3,0.0,0.0,-0.65999997,19.369999,-5.0499997,0.0,0.0,0.0,0.0,0,0,0,0
32940000,47.3976682,8.5508629,549.807,0.0,0.0,-0.65999997,19.35,-5.08,0.0,0.0,0.0,0.0,0,0,0,0
33040000,47.3976676,8.5508886,550.317,0.0,0.0,-0.65999997,19.34,-5.1099997,0.0,0.0,0.0,0.0,0,0,0,0
33140000,47.397667,8.5509144,550.829,0.0,0.0,-0.65999997,19.33,-5.13,0.0,0.0,0.0,0.0,0,0,0,0
33240000,47.3976664,8.5509401,551.344,0.0,0.0,-0.65,19.31,-5.15,0.0,0.0,0.0,0.0,0,0,0,0
33340000,47.3976658,8.5509659,551.86,0.0,0.0,-0.64,19.3,-5.17,0.0,0.0,0.0,0.0,0,0,0,0
33440000,47.3976652,8.5509916,552.378,0.0,0.0,-0.62,19.279999,-5.18,0.0,0.0,0.0,0.0,0,0,0,0
33540000,47.3976647,8.5510162,552.876,0.0,0.0,-0.61,19.27,-5.19,0.0,0.0,0.0,0.0,0,0,0,0
33640000,47.3976641,8.5510419,553.396,0.0,0.0,-0.59,19.25,-5.2,0.0,0.0,0.0,0.0,0,0,0,0
33740000,47.3976636,8.551068599999999,553.938,0.0,0.0,-0.58,19.23,-5.21,0.0,0.0,0.0,0.0,0,0,0,0
33840000,47.397663099999995,8.5510942,554.461,0.0,0.0,-0.56,19.21,-5.23,0.0,0.0,0.0,0.0,0,0,0,0
33940000,47.3976626,8.5511198,554.984,0.0,0.0,-0.53999996,19.189999,-5.24,0.0,0.0,0.0,0.0,0,0,0,0
34040000,47.3976621,8.5511453,555.509,0.0,0.0,-0.52,19.18,-5.24,0.0,0.0,0.0,0.0,0,0,0,0
34140000,47.3976616,8.551170899999999,556.034,0.0,0.0,-0.5,19.16,-5.25,0.0,0.0,0.0,0.0,0,0,0,0
34240000,47.397661199999995,8.5511964,556.559,0.0,0.0,-0.48,19.14,-5.25,0.0,0.0,0.0,0.0,0,0,0,0
34340000,47.3976608,8.5512219,557.085,0.0,0.0,-0.45,19.119999,-5.25,0.0,0.0,0.0,0.0,0,0,0,0
34440000,47.3976603,8.5512474,557.611,0.0,0.0,-0.42999998,19.1,-5.25,0.0,0.0,0.0,0.0,0,0,0,0
34540000,47.397659999999995,8.5512728,558.137,0.0,0.0,-0.41,19.08,-5.25,0.0,0.0,0.0,0.0,0,0,0,0
34640000,47.3976596,8.5512982,558.662,0.0,0.0,-0.39,19.07,-5.25,0.0,0.0,0.0,0.0,0,0,0,0
34740000,47.3976593,8.551322599999999,559.167,0.0,0.0,-0.37,19.05,-5.25,0.0,0.0,0.0,0.0,0,0,0,0
34840000,47.397658899999996,8.551349,559.714,0.0,0.0,-0.34,19.029999,-5.2599998,0.0,0.0,0.0,0.0,0,0,0,0
34940000,47.3976586,8.551374299999999,560.24,0.0,0.0,-0.32,19.02,-5.2599998,0.0,0.0,0.0,0.0,0,0,0,0
35040000,47.397658299999996,8.5513997,560.766,0.0,0.0,-0.29999998,19.0,-5.25,0.0,0.0,0.0,0.0,0,0,0,0
35140000,47.3976581,8.551423999999999,561.271,0.0,0.0,-0.28,18.98,-5.25,0.0,0.0,0.0,0.0,0,0,0,0
35240000,47.3976578,8.551450299999999,561.817,0.0,0.0,-0.26,18.97,-5.25,0.0,0.0,0.0,0.0,0,0,0,0
35340000,47.397657599999995,8.5514755,562.343,0.0,0.0,-0.24,18.949999,-5.25,0.0,0.0,0.0,0.0,0,0,0,0
35440000,47.3976574,8.5515008,562.869,0.0,0.0,-0.22,18.93,-5.25,0.0,0.0,0.0,0.0,0,0,0,0
35540000,47.3976572,8.551525,563.374,0.0,0.0,-0.19999999,18.91,-5.25,0.0,0.0,0.0,0.0,0,0,0,0
35640000,47.397656999999995,8.5515512,563.92,0.0,0.0,-0.17999999,18.89,-5.25,0.0,0.0,0.0,0.0,0,0,0,0
35740000,47.3976569,8.551576299999999,564.446,0.0,0.0,-0.16,18.88,-5.24,0.0,0.0,0.0,0.0,0,0,0,0
35840000,47.3976567,8.5516005,564.949,0.0,0.0,-0.14,18.859999,-5.24,0.0,0.0,0.0,0.0,0,0,0,0
35940000,47.3976566,8.551626599999999,565.495,0.0,0.0,-0.12,18.84,-5.24,0.0,0.0,0.0,0.0,0,0,0,0
36040000,47.3976565,8.551651699999999,566.02,0.0,0.0,-0.099999994,18.82,-5.24,0.0,0.0,0.0,0.0,0,0,0,0
36140000,47.397656399999995,8.5516758,566.523,0.0,0.0,-0.08,18.81,-5.24,0.0,0.0,0.0,0.0,0,0,0,0
36240000,47.3976563,8.5517018,567.068,0.0,0.0,-0.07,18.789999,-5.23,0.0,0.0,0.0,0.0,0,0,0,0
36336000,47.3976563,8.5517259,567.571,0.0,0.0,-0.049999997,18.77,-5.23,0.0,0.0,0.0,0.0,0,0,0,0
36440000,47.3976562,8.5517519,568.115,0.0,0.0,-0.03,18.75,-5.23,0.0,0.0,0.0,0.0,0,0,0,0
36540000,47.3976562,8.551776799999999,568.639,0.0,0.0,-0.01,18.73,-5.23,0.0,0.0,0.0,0.0,0,0,0,0
36640000,47.3976562,8.551800799999999,569.141,0.0,0.0,0.0,18.71,-5.22,0.0,0.0,0.0,0.0,0,0,0,0
36740000,47.3976562,8.5518267,569.685,0.0,0.0,0.01,18.69,-5.22,0.0,0.0,0.0,0.0,0,0,0,0
36840000,47.3976562,8.551851599999999,570.207,0.0,0.0,0.02,18.67,-5.22,0.0,0.0,0.0,0.0,0,0,0,0
36940000,47.3976562,8.551876499999999,570.729,0.0,0.0,0.04,18.66,-5.22,0.0,0.0,0.0,0.0,0,0,0,0
37040000,47.3976563,8.551901299999999,571.251,0.0,0.0,0.049999997,18.64,-5.21,0.0,0.0,0.0,0.0,0,0,0,0
37140000,47.397656399999995,8.5519261,571.773,0.0,0.0,0.07,18.619999,-5.21,0.0,0.0,0.0,0.0,0,0,0,0
37240000,47.397656399999995,8.551950999999999,572.294,0.0,0.0,0.08,18.609999,-5.2,0.0,0.0,0.0,0.0,0,0,0,0
37340000,47.3976565,8.5519757,572.815,0.0,0.0,0.089999996,18.59,-5.2,0.0,0.0,0.0,0.0,0,0,0,0
37440000,47.3976566,8.5520005,573.335,0.0,0.0,0.11,18.58,-5.2,0.0,0.0,0.0,0.0,0,0,0,0
37540000,47.3976567,8.5520253,573.856,0.0,0.0,0.12,18.56,-5.2,0.0,0.0,0.0,0.0,0,0,0,0
37640000,47.3976568,8.55205,574.376,0.0,0.0,0.13,18.539999,-5.2,0.0,0.0,0.0,0.0,0,0,0,0
37740000,47.3976569,8.5520747,574.897,0.0,0.0,0.14,18.52,-5.2,0.0,0.0,0.0,0.0,0,0,0,0
37840000,47.397657099999996,8.5520993,575.417,0.0,0.0,0.14999999,18.51,-5.2,0.0,0.0,0.0,0.0,0,0,0,0
37940000,47.3976572,8.552124,575.937,0.0,0.0,0.16,18.49,-5.19,0.0,0.0,0.0,0.0,0,0,0,0
38040000,47.3976574,8.552148599999999,576.456,0.0,0.0,0.17,18.47,-5.19,0.0,0.0,0.0,0.0,0,0,0,0
38140000,47.3976575,8.5521732,576.976,0.0,0.0,0.17,18.449999,-5.19,0.0,0.0,0.0,0.0,0,0,0,0
38240000,47.397657699999996,8.5521978,577.495,0.0,0.0,0.17999999,18.43,-5.19,0.0,0.0,0.0,0.0,0,0,0,0
38340000,47.3976579,8.5522224,578.014,0.0,0.0,0.19,18.42,-5.18,0.0,0.0,0.0,0.0,0,0,0,0
38440000,47.397658,8.5522469,578.532,0.0,0.0,0.19999999,18.4,-5.18,0.0,0.0,0.0,0.0,0,0,0,0
38540000,47.397658199999995,8.5522714,579.051,0.0,0.0,0.19999999,18.38,-5.18,0.0,0.0,0.0,0.0,0,0,0,0
38640000,47.3976584,8.552295899999999,579.569,0.0,0.0,0.21,18.369999,-5.18,0.0,0.0,0.0,0.0,0,0,0,0
38740000,47.3976586,8.5523204,580.087,0.0,0.0,0.21,18.35,-5.18,0.0,0.0,0.0,0.0,0,0,0,0
38840000,47.397658799999995,8.5523448,580.605,0.0,0.0,0.22,18.34,-5.17,0.0,0.0,0.0,0.0,0,0,0,0
38940000,47.397659,8.5523692,581.123,0.0,0.0,0.22,18.32,-5.17,0.0,0.0,0.0,0.0,0,0,0,0
39040000,47.3976592,8.5523937,581.641,0.0,0.0,0.22999999,18.31,-5.17,0.0,0.0,0.0,0.0,0,0,0,0
39140000,47.397659399999995,8.552418,582.158,0.0,0.0,0.22999999,18.289999,-5.17,0.0,0.0,0.0,0.0,0,0,0,0
39240000,47.3976596,8.5524424,582.675,0.0,0.0,0.22999999,18.27,-5.16,0.0,0.0,0.0,0.0,0,0,0,0
39336000,47.3976598,8.5524658,583.171,0.0,0.0,0.24,18.26,-5.16,0.0,0.0,0.0,0.0,0,0,0,0
39440000,47.397659999999995,8.5524911,583.708,0.0,0.0,0.24,18.24,-5.16,0.0,0.0,0.0,0.0,0,0,0,0
39540000,47.3976603,8.552515399999999,584.225,0.0,0.0,0.25,18.23,-5.16,0.0,0.0,0.0,0.0,0,0,0,0
39640000,47.3976605,8.5525396,584.741,0.0,0.0,0.25,18.21,-5.15,0.0,0.0,0.0,0.0,0,0,0,0
39740000,47.397660699999996,8.552563899999999,585.257,0.0,0.0,0.25,18.19,-5.15,0.0,0.0,0.0,0.0,0,0,0,0
39840000,47.397661,8.5525881,585.773,0.0,0.0,0.26,18.18,-5.15,0.0,0.0,0.0,0.0,0,0,0,0
39940000,47.397661199999995,8.5526114,586.268,0.0,0.0,0.26,18.15,-5.15,0.0,0.0,0.0,0.0,0,0,0,0
40040000,47.3976614,8.5526365,586.802,0.0,0.0,0.26999998,18.02,-5.1,0.0,0.0,0.0,0.0,0,0,0,0
40140000,47.3976617,8.5526603,587.306,0.0,0.0,0.26999998,17.82,-4.97,0.0,0.0,0.0,0.0,0,0,0,0
40240000,47.397661899999996,8.5526839,587.794,0.0,0.0,0.28,17.6,-4.77,0.0,0.0,0.0,0.0,0,0,0,0
40340000,47.3976622,8.5527072,588.258,0.0,0.0,0.29,17.39,-4.5,0.0,0.0,0.0,0.0,0,0,0,0
40440000,47.397662499999996,8.5527303,588.692,0.0,0.0,0.29999998,17.21,-4.18,0.0,0.0,0.0,0.0,0,0,0,0
40540000,47.3976628,8.5527531,589.091,0.0,0.0,0.32,17.05,-3.81,0.0,0.0,0.0,0.0,0,0,0,0
40640000,47.397663099999995,8.5527758,589.452,0.0,0.0,0.34,16.92,-3.4099998,0.0,0.0,0.0,0.0,0,0,0,0
40740000,47.3976634,8.5527982,589.774,0.0,0.0,0.35999998,16.789999,-3.03,0.0,0.0,0.0,0.0,0,0,0,0
40840000,47.397663699999995,8.5528205,590.059,0.0,0.0,0.38,16.67,-2.6799998,0.0,0.0,0.0,0.0,0,0,0,0
40940000,47.3976641,8.5528418,590.302,0.0,0.0,0.41,16.55,-2.36,0.0,0.0,0.0,0.0,0,0,0,0
41040000,47.3976645,8.5528646,590.532,0.0,0.0,0.44,16.43,-2.06,0.0,0.0,0.0,0.0,0,0,0,0
41140000,47.397664899999995,8.5528864,590.724,0.0,0.0,0.47,16.33,-1.78,0.0,0.0,0.0,0.0,0,0,0,0
41240000,47.3976653,8.5529081,590.889,0.0,0.0,0.5,16.23,-1.52,0.0,0.0,0.0,0.0,0,0,0,0
41340000,47.3976658,8.5529297,591.028,0.0,0.0,0.53,16.14,-1.27,0.0,0.0,0.0,0.0,0,0,0,0
41440000,47.3976663,8.552951199999999,591.144,0.0,0.0,0.57,16.06,-1.05,0.0,0.0,0.0,0.0,0,0,0,0
41540000,47.397666799999996,8.5529725,591.238,0.0,0.0,0.59999996,15.98,-0.84,0.0,0.0,0.0,0.0,0,0,0,0
41640000,47.397667399999996,8.5529938,591.314,0.0,0.0,0.63,15.91,-0.65999997,0.0,0.0,0.0,0.0,0,0,0,0
41740000,47.397667999999996,8.553014899999999,591.371,0.0,0.0,0.65999997,15.849999,-0.48999998,0.0,0.0,0.0,0.0,0,0,0,0
41840000,47.397668599999996,8.553035999999999,591.413,0.0,0.0,0.69,15.79,-0.34,0.0,0.0,0.0,0.0,0,0,0,0
41940000,47.397669199999996,8.5530562,591.44,0.0,0.0,0.72999996,15.74,-0.21,0.0,0.0,0.0,0.0,0,0,0,0
42040000,47.3976699,8.5530779,591.456,0.0,0.0,0.76,15.69,-0.089999996,0.0,0.0,0.0,0.0,0,0,0,0
42140000,47.3976706,8.553098799999999,591.459,0.0,0.0,0.78999996,15.65,0.01,0.0,0.0,0.0,0.0,0,0,0,0
42240000,47.3976713,8.5531197,591.452,0.0,0.0,0.81,15.61,0.11,0.0,0.0,0.0,0.0,0,0,0,0
42340000,47.3976721,8.5531404,591.436,0.0,0.0,0.84,15.58,0.19999999,0.0,0.0,0.0,0.0,0,0,0,0
42440000,47.397672799999995,8.5531612,591.412,0.0,0.0,0.85999995,15.549999,0.26999998,0.0,0.0,0.0,0.0,0,0,0,0
42540000,47.3976736,8.5531819,591.38,0.0,0.0,0.89,15.5199995,0.34,0.0,0.0,0.0,0.0,0,0,0,0
42640000,47.3976744,8.553202599999999,591.343,0.0,0.0,0.90999997,15.5,0.39,0.0,0.0,0.0,0.0,0,0,0,0
42740000,47.397675299999996,8.5532232,591.301,0.0,0.0,0.93,15.469999,0.44,0.0,0.0,0.0,0.0,0,0,0,0
42840000,47.3976761,8.553243799999999,591.254,0.0,0.0,0.95,15.46,0.48,0.0,0.0,0.0,0.0,0,0,0,0
42940000,47.397676999999995,8.5532644,591.203,0.0,0.0,0.96,15.44,0.52,0.0,0.0,0.0,0.0,0,0,0,0
43040000,47.3976779,8.553284999999999,591.149,0.0,0.0,0.97999996,15.429999,0.55,0.0,0.0,0.0,0.0,0,0,0,0
43140000,47.3976788,8.5533055,591.092,0.0,0.0,0.98999995,15.41,0.58,0.0,0.0,0.0,0.0,0,0,0,0
43240000,47.3976797,8.553326,591.032,0.0,0.0,1.0,15.4,0.59999996,0.0,0.0,0.0,0.0,0,0,0,0
43340000,47.3976806,8.5533466,590.971,0.0,0.0,1.01,15.4,0.62,0.0,0.0,0.0,0.0,0,0,0,0
43440000,47.3976815,8.5533671,590.908,0.0,0.0,1.01,15.389999,0.63,0.0,0.0,0.0,0.0,0,0,0,0
43540000,47.3976824,8.553387599999999,590.844,0.0,0.0,1.02,15.389999,0.64,0.0,0.0,0.0,0.0,0,0,0,0
43640000,47.3976833,8.5534081,590.779,0.0,0.0,1.02,15.38,0.65,0.0,0.0,0.0,0.0,0,0,0,0
43740000,47.3976842,8.5534286,590.714,0.0,0.0,1.02,15.38,0.65,0.0,0.0,0.0,0.0,0,0,0,0
43840000,47.3976852,8.5534491,590.648,0.0,0.0,1.02,15.38,0.65999997,0.0,0.0,0.0,0.0,0,0,0,0
43940000,47.3976861,8.5534696,590.582,0.0,0.0,1.02,15.389999,0.65999997,0.0,0.0,0.0,0.0,0,0,0,0
44040000,47.397687,8.5534901,590.515,0.0,0.0,1.02,15.389999,0.65999997,0.0,0.0,0.0,0.0,0,0,0,0
44140000,47.3976879,8.5535106,590.45,0.0,0.0,1.01,15.389999,0.65,0.0,0.0,0.0,0.0,0,0,0,0
44240000,47.3976889,8.5535312,590.384,0.0,0.0,1.01,15.4,0.65,0.0,0.0,0.0,0.0,0,0,0,0
44340000,47.397689799999995,8.5535517,590.319,0.0,0.0,1.0,15.41,0.64,0.0,0.0,0.0,0.0,0,0,0,0
44440000,47.3976907,8.5535722,590.255,0.0,0.0,0.98999995,15.41,0.63,0.0,0.0,0.0,0.0,0,0,0,0
44540000,47.3976915,8.553592799999999,590.192,0.0,0.0,0.97999996,15.42,0.62,0.0,0.0,0.0,0.0,0,0,0,0
44640000,47.3976924,8.5536133,590.13,0.0,0.0,0.96999997,15.429999,0.61,0.0,0.0,0.0,0.0,0,0,0,0
44740000,47.3976933,8.5536339,590.069,0.0,0.0,0.95,15.44,0.59999996,0.0,0.0,0.0,0.0,0,0,0,0
44840000,47.3976942,8.5536545,590.009,0.0,0.0,0.94,15.45,0.59,0.0,0.0,0.0,0.0,0,0,0,0
44940000,47.397695,8.5536751,589.95,0.0,0.0,0.91999996,15.45,0.58,0.0,0.0,0.0,0.0,0,0,0,0
45040000,47.3976958,8.5536957,589.893,0.0,0.0,0.90999997,15.46,0.56,0.0,0.0,0.0,0.0,0,0,0,0
45140000,47.397696599999996,8.5537155,589.839,0.0,0.0,0.89,15.469999,0.55,0.0,0.0,0.0,0.0,0,0,0,0
45240000,47.3976974,8.553736899999999,589.782,0.0,0.0,0.88,15.48,0.53999996,0.0,0.0,0.0,0.0,0,0,0,0
45340000,47.3976982,8.5537575,589.728,0.0,0.0,0.85999995,15.49,0.52,0.0,0.0,0.0,0.0,0,0,0,0
45440000,47.397698999999996,8.5537782,589.676,0.0,0.0,0.84,15.5,0.51,0.0,0.0,0.0,0.0,0,0,0,0
45540000,47.3976997,8.5537989,589.625,0.0,0.0,0.82,15.509999,0.5,0.0,0.0,0.0,0.0,0,0,0,0
45640000,47.3977005,8.5538195,589.575,0.0,0.0,0.79999995,15.5199995,0.48999998,0.0,0.0,0.0,0.0,0,0,0,0
45740000,47.3977012,8.5538402,589.526,0.0,0.0,0.78999996,15.5199995,0.47,0.0,0.0,0.0,0.0,0,0,0,0
45840000,47.3977019,8.5538609,589.479,0.0,0.0,0.77,15.53,0.45999998,0.0,0.0,0.0,0.0,0,0,0,0
45940000,47.397702599999995,8.5538816,589.434,0.0,0.0,0.75,15.54,0.44,0.0,0.0,0.0,0.0,0,0,0,0
46040000,47.397703299999996,8.553902299999999,589.39,0.0,0.0,0.72999996,15.549999,0.42999998,0.0,0.0,0.0,0.0,0,0,0,0
46140000,47.397703899999996,8.5539231,589.347,0.0,0.0,0.71,15.559999,0.41,0.0,0.0,0.0,0.0,0,0,0,0
46240000,47.397704499999996,8.553943799999999,589.306,0.0,0.0,0.69,15.57,0.39999998,0.0,0.0,0.0,0.0,0,0,0,0
46340000,47.3977052,8.5539646,589.266,0.0,0.0,0.66999996,15.57,0.39,0.0,0.0,0.0,0.0,0,0,0,0
46440000,47.3977058,8.553985299999999,589.228,0.0,0.0,0.65,15.58,0.37,0.0,0.0,0.0,0.0,0,0,0,0
46540000,47.397706299999996,8.5540061,589.191,0.0,0.0,0.63,15.58,0.35999998,0.0,0.0,0.0,0.0,0,0,0,0
46640000,47.397706899999996,8.5540269,589.155,0.0,0.0,0.61,15.589999,0.35,0.0,0.0,0.0,0.0,0,0,0,0
46740000,47.397707399999994,8.554047599999999,589.12,0.0,0.0,0.59,15.599999,0.32999998,0.0,0.0,0.0,0.0,0,0,0,0
46840000,47.397707999999994,8.5540684,589.087,0.0,0.0,0.58,15.599999,0.32,0.0,0.0,0.0,0.0,0,0,0,0
46940000,47.3977085,8.5540892,589.055,0.0,0.0,0.56,15.61,0.31,0.0,0.0,0.0,0.0,0,0,0,0
47040000,47.397709,8.55411,589.024,0.0,0.0,0.53999996,15.61,0.29999998,0.0,0.0,0.0,0.0,0,0,0,0
47140000,47.3977095,8.5541308,588.994,0.0,0.0,0.52,15.62,0.29,0.0,0.0,0.0,0.0,0,0,0,0
47240000,47.397709899999995,8.5541517,588.965,0.0,0.0,0.51,15.62,0.28,0.0,0.0,0.0,0.0,0,0,0,0
47340000,47.3977104,8.5541717,588.939,0.0,0.0,0.48999998,15.63,0.26999998,0.0,0.0,0.0,0.0,0,0,0,0
47440000,47.3977108,8.5541933,588.911,0.0,0.0,0.47,15.63,0.25,0.0,0.0,0.0,0.0,0,0,0,0
47540000,47.397711199999996,8.554214199999999,588.886,0.0,0.0,0.45,15.639999,0.24,0.0,0.0,0.0,0.0,0,0,0,0
47640000,47.3977116,8.554235,588.861,0.0,0.0,0.42,15.65,0.22999999,0.0,0.0,0.0,0.0,0,0,0,0
47740000,47.397712,8.5542559,588.838,0.0,0.0,0.39999998,15.65,0.22999999,0.0,0.0,0.0,0.0,0,0,0,0
47840000,47.397712399999996,8.554276699999999,588.815,0.0,0.0,0.38,15.66,0.22,0.0,0.0,0.0,0.0,0,0,0,0
47940000,47.3977127,8.5542976,588.794,0.0,0.0,0.35999998,15.66,0.21,0.0,0.0,0.0,0.0,0,0,0,0
48040000,47.397712999999996,8.554318499999999,588.773,0.0,0.0,0.34,15.67,0.19999999,0.0,0.0,0.0,0.0,0,0,0,0
48140000,47.3977133,8.5543385,588.754,0.0,0.0,0.32,15.67,0.19,0.0,0.0,0.0,0.0,0,0,0,0
48240000,47.397713599999996,8.554360299999999,588.734,0.0,0.0,0.31,15.679999,0.17999999,0.0,0.0,0.0,0.0,0,0,0,0
48340000,47.3977139,8.5543812,588.716,0.0,0.0,0.29,15.679999,0.17,0.0,0.0,0.0,0.0,0,0,0,0
48440000,47.397714099999995,8.554402099999999,588.699,0.0,0.0,0.26999998,15.679999,0.16,0.0,0.0,0.0,0.0,0,0,0,0
48540000,47.3977144,8.554423,588.682,0.0,0.0,0.26,15.69,0.16,0.0,0.0,0.0,0.0,0,0,0,0
48640000,47.3977146,8.554443899999999,588.666,0.0,0.0,0.24,15.69,0.14999999,0.0,0.0,0.0,0.0,0,0,0,0
48740000,47.397714799999996,8.5544639,588.652,0.0,0.0,0.22999999,15.69,0.14,0.0,0.0,0.0,0.0,0,0,0,0
48840000,47.397715,8.554485699999999,588.637,0.0,0.0,0.21,15.69,0.13,0.0,0.0,0.0,0.0,0,0,0,0
48940000,47.3977152,8.5545066,588.624,0.0,0.0,0.19999999,15.69,0.13,0.0,0.0,0.0,0.0,0,0,0,0
49040000,47.397715399999996,8.554527499999999,588.611,0.0,0.0,0.19,15.69,0.12,0.0,0.0,0.0,0.0,0,0,0,0
49140000,47.3977156,8.5545484,588.599,0.0,0.0,0.17999999,15.69,0.11,0.0,0.0,0.0,0.0,0,0,0,0
49240000,47.3977157,8.5545694,588.587,0.0,0.0,0.17,15.69,0.11,0.0,0.0,0.0,0.0,0,0,0,0
49340000,47.397715899999994,8.5545903,588.577,0.0,0.0,0.16,15.69,0.099999994,0.0,0.0,0.0,0.0,0,0,0,0
49440000,47.397715999999996,8.5546112,588.567,0.0,0.0,0.14999999,15.69,0.089999996,0.0,0.0,0.0,0.0,0,0,0,0
49540000,47.3977162,8.5546321,588.558,0.0,0.0,0.14,15.69,0.08,0.0,0.0,0.0,0.0,0,0,0,0
49640000,47.3977163,8.554653,588.55,0.0,0.0,0.14,15.69,0.08,0.0,0.0,0.0,0.0,0,0,0,0
49740000,47.3977164,8.5546739,588.542,0.0,0.0,0.13,15.69,0.07,0.0,0.0,0.0,0.0,0,0,0,0
49840000,47.3977165,8.5546949,588.534,0.0,0.0,0.12,15.69,0.06,0.0,0.0,0.0,0.0,0,0,0,0
49940000,47.397716599999995,8.5547158,588.528,0.0,0.0,0.12,15.69,0.06,0.0,0.0,0.0,0.0,0,0,0,0
50040000,47.3977167,8.5547367,588.522,0.0,0.0,0.11,15.69,0.049999997,0.0,0.0,0.0,0.0,0,0,0,0
50140000,47.3977168,8.5547576,588.516,0.0,0.0,0.11,15.69,0.049999997,0.0,0.0,0.0,0.0,0,0,0,0
50240000,47.3977169,8.5547785,588.51,0.0,0.0,0.099999994,15.69,0.049999997,0.0,0.0,0.0,0.0,0,0,0,0
50340000,47.397717,8.5547994,588.505,0.0,0.0,0.099999994,15.69,0.04,0.0,0.0,0.0,0.0,0,0,0,0
50440000,47.3977171,8.5548203,588.501,0.0,0.0,0.089999996,15.69,0.04,0.0,0.0,0.0,0.0,0,0,0,0
50540000,47.397717199999995,8.5548412,588.496,0.0,0.0,0.089999996,15.69,0.04,0.0,0.0,0.0,0.0,0,0,0,0
50640000,47.3977173,8.5548621,588.492,0.0,0.0,0.089999996,15.69,0.04,0.0,0.0,0.0,0.0,0,0,0,0
50740000,47.3977174,8.554883,588.488,0.0,0.0,0.08,15.69,0.03,0.0,0.0,0.0,0.0,0,0,0,0
50840000,47.3977174,8.5549039,588.485,0.0,0.0,0.08,15.69,0.03,0.0,0.0,0.0,0.0,0,0,0,0
50940000,47.3977175,8.5549248,588.482,0.0,0.0,0.08,15.69,0.02,0.0,0.0,0.0,0.0,0,0,0,0
51040000,47.3977176,8.554944899999999,588.479,0.0,0.0,0.07,15.69,0.02,0.0,0.0,0.0,0.0,0,0,0,0
51140000,47.3977176,8.5549667,588.476,0.0,0.0,0.07,15.69,0.02,0.0,0.0,0.0,0.0,0,0,0,0
51240000,47.3977177,8.5549876,588.475,0.0,0.0,0.07,15.69,0.01,0.0,0.0,0.0,0.0,0,0,0,0
51340000,47.397717799999995,8.5550085,588.473,0.0,0.0,0.07,15.679999,0.01,0.0,0.0,0.0,0.0,0,0,0,0
51440000,47.397717799999995,8.5550294,588.472,0.0,0.0,0.06,15.679999,0.0,0.0,0.0,0.0,0.0,0,0,0,0
51540000,47.397717899999996,8.5550503,588.472,0.0,0.0,0.06,15.679999,0.0,0.0,0.0,0.0,0.0,0,0,0,0
51640000,47.397717899999996,8.5550712,588.472,0.0,0.0,0.06,15.679999,0.0,0.0,0.0,0.0,0.0,0,0,0,0
51740000,47.397718,8.555092,588.472,0.0,0.0,0.06,15.67,0.0,0.0,0.0,0.0,0.0,0,0,0,0
51840000,47.3977181,8.555112099999999,588.472,0.0,0.0,0.06,15.67,0.0,0.0,0.0,0.0,0.0,0,0,0,0
51940000,47.3977181,8.5551338,588.473,0.0,0.0,0.049999997,15.67,0.0,0.0,0.0,0.0,0.0,0,0,0,0
52040000,47.3977182,8.5551547,588.473,0.0,0.0,0.049999997,15.67,0.0,0.0,0.0,0.0,0.0,0,0,0,0
52140000,47.3977182,8.5551756,588.474,0.0,0.0,0.049999997,15.66,0.0,0.0,0.0,0.0,0.0,0,0,0,0
52240000,47.3977183,8.5551964,588.475,0.0,0.0,0.049999997,15.66,0.0,0.0,0.0,0.0,0.0,0,0,0,0
52340000,47.3977183,8.555217299999999,588.476,0.0,0.0,0.049999997,15.66,0.0,0.0,0.0,0.0,0.0,0,0,0,0
52440000,47.3977183,8.5552382,588.477,0.0,0.0,0.049999997,15.66,0.0,0.0,0.0,0.0,0.0,0,0,0,0
52540000,47.397718399999995,8.555259099999999,588.478,0.0,0.0,0.049999997,15.66,0.0,0.0,0.0,0.0,0.0,0,0,0,0
52640000,47.397718399999995,8.5552799,588.479,0.0,0.0,0.04,15.65,-0.01,0.0,0.0,0.0,0.0,0,0,0,0
52740000,47.397718499999996,8.5553008,588.48,0.0,0.0,0.04,15.65,-0.01,0.0,0.0,0.0,0.0,0,0,0,0
52840000,47.397718499999996,8.5553216,588.482,0.0,0.0,0.04,15.65,-0.01,0.0,0.0,0.0,0.0,0,0,0,0
52940000,47.3977186,8.5553425,588.484,0.0,0.0,0.04,15.639999,-0.02,0.0,0.0,0.0,0.0,0,0,0,0
53040000,47.3977186,8.5553633,588.486,0.0,0.0,0.04,15.639999,-0.02,0.0,0.0,0.0,0.0,0,0,0,0
53140000,47.3977186,8.555384199999999,588.489,0.0,0.0,0.04,15.639999,-0.02,0.0,0.0,0.0,0.0,0,0,0,0
53240000,47.3977187,8.555405,588.491,0.0,0.0,0.04,15.63,-0.02,0.0,0.0,0.0,0.0,0,0,0,0
53340000,47.3977187,8.5554258,588.493,0.0,0.0,0.04,15.63,-0.02,0.0,0.0,0.0,0.0,0,0,0,0
53440000,47.3977187,8.5554467,588.496,0.0,0.0,0.03,15.63,-0.02,0.0,0.0,0.0,0.0,0,0,0,0
53540000,47.3977188,8.555467499999999,588.498,0.0,0.0,0.03,15.62,-0.02,0.0,0.0,0.0,0.0,0,0,0,0
53640000,47.3977188,8.5554875,588.5,0.0,0.0,0.03,15.62,-0.02,0.0,0.0,0.0,0.0,0,0,0,0
53740000,47.3977188,8.5555091,588.503,0.0,0.0,0.03,15.61,-0.02,0.0,0.0,0.0,0.0,0,0,0,0
53840000,47.3977189,8.5555299,588.505,0.0,0.0,0.03,15.61,-0.02,0.0,0.0,0.0,0.0,0,0,0,0
53940000,47.3977189,8.5555507,588.508,0.0,0.0,0.03,15.61,-0.02,0.0,0.0,0.0,0.0,0,0,0,0
54040000,47.3977189,8.5555715,588.511,0.0,0.0,0.03,15.599999,-0.02,0.0,0.0,0.0,0.0,0,0,0,0
54140000,47.397718999999995,8.555592299999999,588.514,0.0,0.0,0.03,15.599999,-0.02,0.0,0.0,0.0,0.0,0,0,0,0
54240000,47.397718999999995,8.5556131,588.516,0.0,0.0,0.03,15.589999,-0.02,0.0,0.0,0.0,0.0,0,0,0,0
54340000,47.397718999999995,8.5556339,588.519,0.0,0.0,0.03,15.589999,-0.02,0.0,0.0,0.0,0.0,0,0,0,0
54440000,47.397718999999995,8.5556547,588.522,0.0,0.0,0.03,15.58,-0.02,0.0,0.0,0.0,0.0,0,0,0,0
54540000,47.397719099999996,8.5556754,588.524,0.0,0.0,0.03,15.58,-0.02,0.0,0.0,0.0,0.0,0,0,0,0
54640000,47.397719099999996,8.5556962,588.526,0.0,0.0,0.03,15.58,-0.02,0.0,0.0,0.0,0.0,0,0,0,0
54740000,47.397719099999996,8.5557169,588.529,0.0,0.0,0.02,15.57,-0.02,0.0,0.0,0.0,0.0,0,0,0,0
54840000,47.397719099999996,8.5557377,588.531,0.0,0.0,0.02,15.57,-0.02,0.0,0.0,0.0,0.0,0,0,0,0
54940000,47.3977192,8.5557584,588.533,0.0,0.0,0.02,15.559999,-0.02,0.0,0.0,0.0,0.0,0,0,0,0
55040000,47.3977192,8.5557792,588.535,0.0,0.0,0.02,15.559999,-0.02,0.0,0.0,0.0,0.0,0,0,0,0
55140000,47.3977192,8.5557999,588.537,0.0,0.0,0.02,15.559999,-0.02,0.0,0.0,0.0,0.0,0,0,0,0
55240000,47.3977192,8.555820599999999,588.539,0.0,0.0,0.02,15.549999,-0.02,0.0,0.0,0.0,0.0,0,0,0,0
55340000,47.3977193,8.5558414,588.541,0.0,0.0,0.02,15.549999,-0.01,0.0,0.0,0.0,0.0,0,0,0,0
55440000,47.3977193,8.555862099999999,588.543,0.0,0.0,0.02,15.54,-0.01,0.0,0.0,0.0,0.0,0,0,0,0
55540000,47.3977193,8.5558828,588.545,0.0,0.0,0.02,15.54,-0.01,0.0,0.0,0.0,0.0,0,0,0,0
55640000,47.3977193,8.5559035,588.546,0.0,0.0,0.02,15.53,-0.01,0.0,0.0,0.0,0.0,0,0,0,0
55740000,47.3977193,8.5559234,588.548,0.0,0.0,0.02,15.53,-0.01,0.0,0.0,0.0,0.0,0,0,0,0
55840000,47.3977193,8.5559449,588.55,0.0,0.0,0.02,15.5199995,-0.01,0.0,0.0,0.0,0.0,0,0,0,0
55940000,47.3977194,8.5559656,588.552,0.0,0.0,0.02,15.5199995,-0.01,0.0,0.0,0.0,0.0,0,0,0,0
56040000,47.3977194,8.555986299999999,588.553,0.0,0.0,0.01,15.509999,-0.01,0.0,0.0,0.0,0.0,0,0,0,0
56140000,47.3977194,8.5560069,588.555,0.0,0.0,0.01,15.509999,-0.01,0.0,0.0,0.0,0.0,0,0,0,0
56240000,47.3977194,8.5560276,588.556,0.0,0.0,0.01,15.509999,-0.01,0.0,0.0,0.0,0.0,0,0,0,0
56340000,47.3977194,8.5560483,588.557,0.0,0.0,0.01,15.5,0.0,0.0,0.0,0.0,0.0,0,0,0,0
56440000,47.3977194,8.5560689,588.558,0.0,0.0,0.01,15.5,0.0,0.0,0.0,0.0,0.0,0,0,0,0
56540000,47.3977195,8.5560896,588.559,0.0,0.0,0.01,15.5,0.0,0.0,0.0,0.0,0.0,0,0,0,0
56640000,47.3977195,8.556110199999999,588.559,0.0,0.0,0.01,15.49,0.0,0.0,0.0,0.0,0.0,0,0,0,0
56740000,47.3977195,8.5561309,588.559,0.0,0.0,0.01,15.49,0.0,0.0,0.0,0.0,0.0,0,0,0,0
56840000,47.3977195,8.5561515,588.559,0.0,0.0,0.01,15.49,0.0,0.0,0.0,0.0,0.0,0,0,0,0
56940000,47.3977195,8.556172199999999,588.559,0.0,0.0,0.01,15.49,0.0,0.0,0.0,0.0,0.0,0,0,0,0
57040000,47.3977195,8.5561928,588.559,0.0,0.0,0.01,15.49,0.0,0.0,0.0,0.0,0.0,0,0,0,0
57140000,47.3977195,8.5562135,588.559,0.0,0.0,0.01,15.49,0.0,0.0,0.0,0.0,0.0,0,0,0,0
57240000,47.397719599999995,8.5562341,588.559,0.0,0.0,0.01,15.49,0.0,0.0,0.0,0.0,0.0,0,0,0,0
57340000,47.397719599999995,8.5562547,588.559,0.0,0.0,0.01,15.48,0.0,0.0,0.0,0.0,0.0,0,0,0,0
57440000,47.397719599999995,8.556275399999999,588.558,0.0,0.0,0.01,15.48,0.0,0.0,0.0,0.0,0.0,0,0,0,0
57540000,47.397719599999995,8.556296,588.558,0.0,0.0,0.01,15.48,0.0,0.0,0.0,0.0,0.0,0,0,0,0
57640000,47.397719599999995,8.556316599999999,588.558,0.0,0.0,0.01,15.48,0.0,0.0,0.0,0.0,0.0,0,0,0,0
57740000,47.397719599999995,8.5563373,588.558,0.0,0.0,0.01,15.469999,0.0,0.0,0.0,0.0,0.0,0,0,0,0
57840000,47.397719599999995,8.5563579,588.558,0.0,0.0,0.01,15.469999,0.0,0.0,0.0,0.0,0.0,0,0,0,0
57940000,47.397719599999995,8.5563785,588.558,0.0,0.0,0.01,15.469999,0.0,0.0,0.0,0.0,0.0,0,0,0,0
58040000,47.397719599999995,8.5563991,588.558,0.0,0.0,0.01,15.469999,0.0,0.0,0.0,0.0,0.0,0,0,0,0
58136000,47.397719599999995,8.556418899999999,588.558,0.0,0.0,0.01,15.46,0.0,0.0,0.0,0.0,0.0,0,0,0,0
58240000,47.397719699999996,8.5564403,588.559,0.0,0.0,0.01,15.46,0.0,0.0,0.0,0.0,0.0,0,0,0,0
58340000,47.397719699999996,8.5564609,588.559,0.0,0.0,0.0,15.46,0.0,0.0,0.0,0.0,0.0,0,0,0,0
58440000,47.397719699999996,8.5564815,588.559,0.0,0.0,0.0,15.45,0.0,0.0,0.0,0.0,0.0,0,0,0,0
58540000,47.397719699999996,8.5565021,588.56,0.0,0.0,0.0,15.45,0.0,0.0,0.0,0.0,0.0,0,0,0,0
58640000,47.397719699999996,8.5565227,588.56,0.0,0.0,0.0,15.45,0.0,0.0,0.0,0.0,0.0,0,0,0,0
58740000,47.397719699999996,8.5565433,588.56,0.0,0.0,0.0,15.44,0.0,0.0,0.0,0.0,0.0,0,0,0,0
58840000,47.397719699999996,8.5565639,588.56,0.0,0.0,0.0,15.44,0.0,0.0,0.0,0.0,0.0,0,0,0,0
58940000,47.397719699999996,8.5565845,588.56,0.0,0.0,0.0,15.44,0.0,0.0,0.0,0.0,0.0,0,0,0,0
59040000,47.397719699999996,8.556605,588.56,0.0,0.0,0.0,15.429999,0.0,0.0,0.0,0.0,0.0,0,0,0,0
59140000,47.397719699999996,8.5566256,588.56,0.0,0.0,0.0,15.429999,0.0,0.0,0.0,0.0,0.0,0,0,0,0
59240000,47.397719699999996,8.5566462,588.56,0.0,0.0,0.0,15.429999,0.0,0.0,0.0,0.0,0.0,0,0,0,0
59340000,47.397719699999996,8.5566667,588.56,0.0,0.0,0.0,15.42,0.0,0.0,0.0,0.0,0.0,0,0,0,0
59440000,47.397719699999996,8.5566873,588.56,0.0,0.0,0.0,15.42,0.0,0.0,0.0,0.0,0.0,0,0,0,0
59540000,47.397719699999996,8.5567078,588.561,0.0,0.0,0.0,15.41,0.0,0.0,0.0,0.0,0.0,0,0,0,0
59640000,47.397719599999995,8.556728399999999,588.561,0.0,0.0,-0.01,15.41,0.0,0.0,0.0,0.0,0.0,0,0,0,0
59740000,47.397719599999995,8.556748899999999,588.56,0.0,0.0,-0.01,15.41,0.0,0.0,0.0,0.0,0.0,0,0,0,0
59840000,47.397719599999995,8.5567694,588.56,0.0,0.0,-0.01,15.41,0.0,0.0,0.0,0.0,0.0,0,0,0,0
59940000,47.397719599999995,8.5567891,588.56,0.0,0.0,-0.01,15.4,0.0,0.0,0.0,0.0,0.0,0,0,0,0
60040000,47.397719599999995,8.5568105,588.559,0.0,0.0,-0.02,15.4,0.0,0.0,0.0,0.0,0.0,0,0,0,0
60140000,47.397719599999995,8.556830999999999,588.558,0.0,0.0,-0.02,15.4,0.01,0.0,0.0,0.0,0.0,0,0,0,0
60240000,47.3977195,8.5568515,588.557,0.0,0.0,-0.02,15.4,0.01,0.0,0.0,0.0,0.0,0,0,0,0
60340000,47.3977195,8.556872,588.556,0.0,0.0,-0.02,15.4,0.01,0.0,0.0,0.0,0.0,0,0,0,0
60440000,47.3977195,8.5568926,588.554,0.0,0.0,-0.03,15.4,0.01,0.0,0.0,0.0,0.0,0,0,0,0
60540000,47.3977194,8.5569131,588.553,0.0,0.0,-0.03,15.4,0.01,0.0,0.0,0.0,0.0,0,0,0,0
60640000,47.3977194,8.556933599999999,588.552,0.0,0.0,-0.03,15.4,0.01,0.0,0.0,0.0,0.0,0,0,0,0
60740000,47.3977194,8.5569541,588.551,0.0,0.0,-0.04,15.4,0.01,0.0,0.0,0.0,0.0,0,0,0,0
60840000,47.3977193,8.5569747,588.55,0.0,0.0,-0.04,15.4,0.01,0.0,0.0,0.0,0.0,0,0,0,0
60940000,47.3977193,8.5569952,588.548,0.0,0.0,-0.04,15.4,0.01,0.0,0.0,0.0,0.0,0,0,0,0
61040000,47.3977192,8.5570157,588.547,0.0,0.0,-0.04,15.4,0.01,0.0,0.0,0.0,0.0,0,0,0,0
61140000,47.3977192,8.557036199999999,588.546,0.0,0.0,-0.049999997,15.4,0.01,0.0,0.0,0.0,0.0,0,0,0,0
61240000,47.397719099999996,8.5570568,588.545,0.0,0.0,-0.049999997,15.4,0.0,0.0,0.0,0.0,0.0,0,0,0,0
61340000,47.397719099999996,8.5570773,588.544,0.0,0.0,-0.049999997,15.4,0.0,0.0,0.0,0.0,0.0,0,0,0,0
61440000,47.397718999999995,8.557096999999999,588.544,0.0,0.0,-0.06,15.4,0.0,0.0,0.0,0.0,0.0,0,0,0,0
61540000,47.397718999999995,8.557118299999999,588.543,0.0,0.0,-0.06,15.4,0.0,0.0,0.0,0.0,0.0,0,0,0,0
61640000,47.3977189,8.5571389,588.542,0.0,0.0,-0.06,15.4,0.0,0.0,0.0,0.0,0.0,0,0,0,0
61740000,47.3977189,8.5571594,588.541,0.0,0.0,-0.06,15.4,0.0,0.0,0.0,0.0,0.0,0,0,0,0
61840000,47.3977188,8.5571799,588.541,0.0,0.0,-0.06,15.4,0.0,0.0,0.0,0.0,0.0,0,0,0,0
61940000,47.3977187,8.5572004,588.54,0.0,0.0,-0.07,15.389999,0.0,0.0,0.0,0.0,0.0,0,0,0,0
62040000,47.3977187,8.557220899999999,588.54,0.0,0.0,-0.07,15.389999,0.0,0.0,0.0,0.0,0.0,0,0,0,0
62140000,47.3977186,8.557241399999999,588.539,0.0,0.0,-0.07,15.389999,0.0,0.0,0.0,0.0,0.0,0,0,0,0
62240000,47.397718499999996,8.5572619,588.539,0.0,0.0,-0.07,15.389999,0.0,0.0,0.0,0.0,0.0,0,0,0,0
62340000,47.397718399999995,8.5572825,588.539,0.0,0.0,-0.07,15.38,0.0,0.0,0.0,0.0,0.0,0,0,0,0
62440000,47.397718399999995,8.557303,588.539,0.0,0.0,-0.08,15.38,0.0,0.0,0.0,0.0,0.0,0,0,0,0
62540000,47.3977183,8.5573226,588.538,0.0,0.0,-0.08,15.38,0.0,0.0,0.0,0.0,0.0,0,0,0,0
62640000,47.3977182,8.557343999999999,588.538,0.0,0.0,-0.08,15.38,0.0,0.0,0.0,0.0,0.0,0,0,0,0
62740000,47.3977181,8.5573645,588.538,0.0,0.0,-0.08,15.38,0.0,0.0,0.0,0.0,0.0,0,0,0,0
62844000,47.3977181,8.5573858,588.538,0.0,0.0,-0.08,15.38,0.0,0.0,0.0,0.0,0.0,0,0,0,0
62948000,47.397718,8.557407099999999,588.538,0.0,0.0,-0.08,15.38,0.0,0.0,0.0,0.0,0.0,0,0,0,0
63052000,47.397717899999996,8.5574284,588.538,0.0,0.0,-0.08,15.37,0.0,0.0,0.0,0.0,0.0,0,0,0,0
63152000,47.397717799999995,8.557448899999999,588.539,0.0,0.0,-0.08,15.37,0.0,0.0,0.0,0.0,0.0,0,0,0,0
63252000,47.3977177,8.5574694,588.539,0.0,0.0,-0.08,15.37,0.0,0.0,0.0,0.0,0.0,0,0,0,0
63356000,47.3977176,8.557490699999999,588.539,0.0,0.0,-0.08,15.37,0.0,0.0,0.0,0.0,0.0,0,0,0,0
63460000,47.3977176,8.557512,588.539,0.0,0.0,-0.08,15.36,0.0,0.0,0.0,0.0,0.0,0,0,0,0
63564000,47.3977175,8.5575333,588.54,0.0,0.0,-0.08,15.36,0.0,0.0,0.0,0.0,0.0,0,0,0,0
63668000,47.3977174,8.5575546,588.54,0.0,0.0,-0.08,15.36,0.0,0.0,0.0,0.0,0.0,0,0,0,0
63768000,47.3977173,8.557575,588.54,0.0,0.0,-0.08,15.349999,0.0,0.0,0.0,0.0,0.0,0,0,0,0
63868000,47.397717199999995,8.5575955,588.54,0.0,0.0,-0.08,15.349999,0.0,0.0,0.0,0.0,0.0,0,0,0,0
63972000,47.3977171,8.5576159,588.54,0.0,0.0,-0.08,15.349999,0.0,0.0,0.0,0.0,0.0,0,0,0,0
64076000,47.3977171,8.557637999999999,588.54,0.0,0.0,-0.08,15.339999,0.0,0.0,0.0,0.0,0.0,0,0,0,0
64180000,47.397717,8.5576593,588.54,0.0,0.0,-0.08,15.339999,0.0,0.0,0.0,0.0,0.0,0,0,0,0
64280000,47.3977169,8.5576797,588.541,0.0,0.0,-0.08,15.339999,0.0,0.0,0.0,0.0,0.0,0,0,0,0
64380000,47.3977168,8.5577002,588.541,0.0,0.0,-0.08,15.339999,0.0,0.0,0.0,0.0,0.0,0,0,0,0
64484000,47.3977167,8.5577214,588.541,0.0,0.0,-0.08,15.339999,0.0,0.0,0.0,0.0,0.0,0,0,0,0
64588000,47.3977167,8.5577427,588.542,0.0,0.0,-0.08,15.33,0.0,0.0,0.0,0.0,0.0,0,0,0,0
64692000,47.397716599999995,8.5577639,588.542,0.0,0.0,-0.08,15.33,0.0,0.0,0.0,0.0,0.0,0,0,0,0
64796000,47.3977165,8.5577852,588.543,0.0,0.0,-0.07,15.33,0.0,0.0,0.0,0.0,0.0,0,0,0,0
64896000,47.3977164,8.5578056,588.543,0.0,0.0,-0.07,15.33,0.0,0.0,0.0,0.0,0.0,0,0,0,0
64996000,47.3977164,8.557826,588.543,0.0,0.0,-0.07,15.33,0.0,0.0,0.0,0.0,0.0,0,0,0,0
65100000,47.3977163,8.557847299999999,588.543,0.0,0.0,-0.07,15.33,0.0,0.0,0.0,0.0,0.0,0,0,0,0
65204000,47.3977162,8.5578677,588.544,0.0,0.0,-0.07,15.32,0.0,0.0,0.0,0.0,0.0,0,0,0,0
65308000,47.3977161,8.557889,588.544,0.0,0.0,-0.07,15.32,0.0,0.0,0.0,0.0,0.0,0,0,0,0
65412000,47.3977161,8.557910999999999,588.544,0.0,0.0,-0.07,15.32,0.0,0.0,0.0,0.0,0.0,0,0,0,0
65512000,47.397715999999996,8.5579314,588.544,0.0,0.0,-0.07,15.32,0.0,0.0,0.0,0.0,0.0,0,0,0,0
65612000,47.397715899999994,8.557951899999999,588.543,0.0,0.0,-0.07,15.32,0.0,0.0,0.0,0.0,0.0,0,0,0,0
65712000,47.397715899999994,8.5579723,588.543,0.0,0.0,-0.07,15.32,0.0,0.0,0.0,0.0,0.0,0,0,0,0
