timestamp,gps_hvel[0],gps_hvel[1],gps_vvel,gps_hpos[0],gps_hpos[1],gps_vpos,ev_hvel[0],ev_hvel[1],ev_vvel,ev_hpos[0],ev_hpos[1],ev_vpos,fake_hvel[0],fake_hvel[1],fake_vvel,fake_hpos[0],fake_hpos[1],fake_vpos,rng_vpos,baro_vpos,aux_hvel[0],aux_hvel[1],aux_vvel,flow[0],flow[1],heading,mag_field[0],mag_field[1],mag_field[2],drag[0],drag[1],airspeed,beta,hagl
1684000,0.0,0.0,0.0,0.003525806,0.0040132506,0.0,0.0,0.0,0.0,0.0,0.0,0.0,nan,nan,nan,nan,nan,nan,0.0,0.026397705,0.0,0.0,nan,0.0,0.0,0.003906727,0.0,0.0,0.0,0.0,0.0,0.0,0.0,0.0
1884000,0.0,0.0,0.0,0.004792906,0.006150409,0.0,0.0,0.0,0.0,0.0,0.0,0.0,nan,nan,nan,nan,nan,nan,0.0,-0.040649414,0.0,0.0,nan,0.0,0.0,-0.019049168,0.0,0.0,0.0,0.0,0.0,0.0,0.0,0.0
2084000,0.0,0.0,0.0,0.0059854756,0.008300733,0.0,0.0,0.0,0.0,0.0,0.0,0.0,nan,nan,nan,nan,nan,nan,0.0,-0.024169922,0.0,0.0,nan,0.0,0.0,0.007744074,0.0,0.0,0.0,0.0,0.0,0.0,0.0,0.0
2284000,0.0,0.0,0.0,0.0070019555,0.0103374785,0.0,0.0,0.0,0.0,0.0,0.0,0.0,nan,nan,nan,nan,nan,nan,0.0,-0.05517578,0.0,0.0,nan,0.0,0.0,0.0029058456,0.0,0.0,0.0,0.0,0.0,0.0,0.0,0.0
2488000,0.0,0.0,0.0,0.0073607056,0.011529473,0.0,0.0,0.0,0.0,0.0,0.0,0.0,nan,nan,nan,nan,nan,nan,0.0,0.0152282715,0.0,0.0,nan,0.0,0.0,-0.01341331,0.0,0.0,0.0,0.0,0.0,0.0,0.0,0.0
2688000,0.0,0.0,0.0,0.0071296454,0.012437086,0.0,0.0,0.0,0.0,0.0,0.0,0.0,nan,nan,nan,nan,nan,nan,0.0,-0.057159424,0.0,0.0,nan,0.0,0.0,0.0025132895,0.0,0.0,0.0,0.0,0.0,0.0,0.0,0.0
2888000,0.0,0.0,0.0,0.0067309286,0.012997774,0.0,0.0,0.0,0.0,0.0,0.0,0.0,nan,nan,nan,nan,nan,nan,0.0,-0.035614014,0.0,0.0,nan,0.0,0.0,-0.01175499,0.0,0.0,0.0,0.0,0.0,0.0,0.0,0.0
3088000,0.0,0.0,0.0,0.006591279,0.013292718,0.0,0.0,0.0,0.0,0.0,0.0,0.0,nan,nan,nan,nan,nan,nan,0.0,-0.060424805,0.0,0.0,nan,0.0,0.0,-0.011161566,0.0,0.0,0.0,0.0,0.0,0.0,0.0,0.0
3288000,0.0,0.0,0.0,0.0060538887,0.013370886,0.0,0.0,0.0,0.0,0.0,0.0,0.0,nan,nan,nan,nan,nan,nan,0.0,-0.0044555664,0.0,0.0,nan,0.0,0.0,-0.0150437355,0.0,0.0,0.0,0.0,0.0,0.0,0.0,0.0
3488000,0.0,0.0,0.0,0.005407751,0.013846274,0.0,0.0,0.0,0.0,0.0,0.0,0.0,nan,nan,nan,nan,nan,nan,0.0,-0.08105469,0.0,0.0,nan,0.0,0.0,0.0050013065,0.0,0.0,0.0,0.0,0.0,0.0,0.0,0.0
3688000,0.0,0.0,0.0,0.004305338,0.014136092,0.0,0.0,0.0,0.0,0.0,0.0,0.0,nan,nan,nan,nan,nan,nan,0.0,-0.0975647,0.0,0.0,nan,0.0,0.0,0.0039025545,0.0,0.0,0.0,0.0,0.0,0.0,0.0,0.0
3888000,0.0,0.0,0.0,0.003318569,0.014468375,0.0,0.0,0.0,0.0,0.0,0.0,0.0,nan,nan,nan,nan,nan,nan,0.0,0.006652832,0.0,0.0,nan,0.0,0.0,-0.010485172,0.0,0.0,0.0,0.0,0.0,0.0,0.0,0.0
4088000,0.0,0.0,0.0,0.0027239544,0.014911704,0.0,0.0,0.0,0.0,0.0,0.0,0.0,nan,nan,nan,nan,nan,nan,0.0,0.009887695,0.0,0.0,nan,0.0,0.0,0.0005322695,0.0,0.0,0.0,0.0,0.0,0.0,0.0,0.0
4288000,0.0,0.0,0.0,0.0024010763,0.015364783,0.0,0.0,0.0,0.0,0.0,0.0,0.0,nan,nan,nan,nan,nan,nan,0.0,-0.12310791,0.0,0.0,nan,0.0,0.0,-0.0019868612,0.0,0.0,0.0,0.0,0.0,0.0,0.0,0.0
4488000,0.0,0.0,0.0,0.0021069413,0.0154887745,0.0,0.0,0.0,0.0,0.0,0.0,0.0,nan,nan,nan,nan,nan,nan,0.0,-0.059783936,0.0,0.0,nan,0.0,0.0,0.024135351,0.0,0.0,0.0,0.0,0.0,0.0,0.0,0.0
4688000,0.0,0.0,0.0,0.0017933547,0.014648739,0.0,0.0,0.0,0.0,0.0,0.0,0.0,nan,nan,nan,nan,nan,nan,0.0,-0.08319092,0.0,0.0,nan,0.0,0.0,0.015535116,0.0,0.0,0.0,0.0,0.0,0.0,0.0,0.0
4888000,0.0,0.0,0.0,0.0014769525,0.013618268,0.0,0.0,0.0,0.0,0.0,0.0,0.0,nan,nan,nan,nan,nan,nan,0.0,-0.05206299,0.0,0.0,nan,0.0,0.0,-0.0018211603,0.0,0.0,0.0,0.0,0.0,0.0,0.0,0.0
5088000,0.0,0.0,0.0,0.0007518869,0.012596201,0.0,0.0,0.0,0.0,0.0,0.0,0.0,nan,nan,nan,nan,nan,nan,0.0,-0.10168457,0.0,0.0,nan,0.0,0.0,0.010334969,0.0,0.0,0.0,0.0,0.0,0.0,0.0,0.0
5288000,0.0,0.0,0.0,-0.00036387896,0.011682995,0.0,0.0,0.0,0.0,0.0,0.0,0.0,nan,nan,nan,nan,nan,nan,0.0,-0.09234619,0.0,0.0,nan,0.0,0.0,0.011249661,0.0,0.0,0.0,0.0,0.0,0.0,0.0,0.0
5488000,0.0,0.0,0.0,0.0,0.0,0.0,0.0,0.0,0.0,0.0,0.0,0.0,nan,nan,nan,nan,nan,nan,0.0,-0.1104126,0.0,0.0,nan,0.0,0.0,0.006906271,0.0,0.0,0.0,0.0,0.0,0.0,0.0,0.0
5696000,-0.015095476,-0.0024344802,-0.023153065,0.0013427772,0.0061516785,0.0,0.0,0.0,0.0,0.0,0.0,0.0,nan,nan,nan,nan,nan,nan,0.0,-0.040985107,0.0,0.0,nan,0.0,0.0,0.0064120293,0.0,0.0,0.0,0.0,0.0,0.0,0.0,0.0
5888000,0.004207614,0.0073638945,-0.009493854,0.0024271496,0.004679824,0.0,0.0,0.0,0.0,0.0,0.0,0.0,nan,nan,nan,nan,nan,nan,0.0,-0.07284546,0.0,0.0,nan,0.0,0.0,-3.4570694e-05,0.0,0.0,0.0,0.0,0.0,0.0,0.0,0.0
6088000,0.022210147,0.014653099,-0.0064478256,0.01330125,0.0051397677,0.0,0.0,0.0,0.0,0.0,0.0,0.0,nan,nan,nan,nan,nan,nan,0.0,0.0061035156,0.0,0.0,nan,0.0,0.0,-0.0033563375,0.0,0.0,0.0,0.0,0.0,0.0,0.0,0.0
6288000,0.014267227,0.019660763,-0.065615326,0.008528565,0.0065568145,0.0,0.0,0.0,0.0,0.0,0.0,0.0,nan,nan,nan,nan,nan,nan,0.0,0.0079956055,0.0,0.0,nan,0.0,0.0,-0.008355379,0.0,0.0,0.0,0.0,0.0,0.0,0.0,0.0
6495999,-0.009268256,0.024175672,-0.06111695,0.0043628877,0.008301177,0.0,0.0,0.0,0.0,0.0,0.0,0.0,nan,nan,nan,nan,nan,nan,0.0,-0.052825928,0.0,0.0,nan,0.0,0.0,-0.013024092,0.0,0.0,0.0,0.0,0.0,0.0,0.0,0.0
6696000,-0.013666124,0.027945919,-0.011994556,0.0020788691,0.0025920132,0.0,0.0,0.0,0.0,0.0,0.0,0.0,nan,nan,nan,nan,nan,nan,0.0,0.116882324,0.0,0.0,nan,0.0,0.0,-0.00095021725,0.0,0.0,0.0,0.0,0.0,0.0,0.0,0.0
6896000,-0.004021181,0.03298007,-0.020696789,-0.010683866,0.013101189,0.0,0.0,0.0,0.0,0.0,0.0,0.0,nan,nan,nan,nan,nan,nan,0.0,0.028778076,0.0,0.0,nan,0.0,0.0,0.005069256,0.0,0.0,0.0,0.0,0.0,0.0,0.0,0.0
7096000,-0.02012652,0.037158966,-0.022545852,-0.001384888,0.015116826,0.0,0.0,0.0,0.0,0.0,0.0,0.0,nan,nan,nan,nan,nan,nan,0.0,-0.0708313,0.0,0.0,nan,0.0,0.0,0.0095152855,0.0,0.0,0.0,0.0,0.0,0.0,0.0,0.0
7296000,-0.02402817,0.0313282,-0.02081341,-0.0031085073,0.016672079,0.0,0.0,0.0,0.0,0.0,0.0,0.0,nan,nan,nan,nan,nan,nan,0.0,-0.017150879,0.0,0.0,nan,0.0,0.0,0.014253378,0.0,0.0,0.0,0.0,0.0,0.0,0.0,0.0
7496000,-0.02362903,0.06623088,-0.027134243,-0.0045688706,0.019758463,0.0,0.0,0.0,0.0,0.0,0.0,0.0,nan,nan,nan,nan,nan,nan,0.0,0.019348145,0.0,0.0,nan,0.0,0.0,0.0078190565,0.0,0.0,0.0,0.0,0.0,0.0,0.0,0.0
7696000,-0.025233367,0.041288342,-0.031062493,-0.0058072745,0.009392585,0.0,0.0,0.0,0.0,0.0,0.0,0.0,nan,nan,nan,nan,nan,nan,0.0,-0.0132751465,0.0,0.0,nan,0.0,0.0,0.008617282,0.0,0.0,0.0,0.0,0.0,0.0,0.0,0.0
7896000,-0.026762376,0.060672022,-0.011565972,-0.01801703,0.018146869,0.0,0.0,0.0,0.0,0.0,0.0,0.0,nan,nan,nan,nan,nan,nan,0.0,0.082977295,0.0,0.0,nan,0.0,0.0,0.010221243,0.0,0.0,0.0,0.0,0.0,0.0,0.0,0.0
8096000,-0.027367758,0.026909573,0.04820463,-0.017256184,0.014480137,0.0,0.0,0.0,0.0,0.0,0.0,0.0,nan,nan,nan,nan,nan,nan,0.0,-0.0061950684,0.0,0.0,nan,0.0,0.0,0.009753346,0.0,0.0,0.0,0.0,0.0,0.0,0.0,0.0
8296000,-0.02531504,0.006408548,-0.019820064,-0.01647272,0.016414408,0.0,0.0,0.0,0.0,0.0,0.0,0.0,nan,nan,nan,nan,nan,nan,0.0,0.020935059,0.0,0.0,nan,0.0,0.0,0.012973428,0.0,0.0,0.0,0.0,0.0,0.0,0.0,0.0
8496000,-0.015374627,0.039904103,-0.006385075,-0.015551008,0.01374689,0.0,0.0,0.0,0.0,0.0,0.0,0.0,nan,nan,nan,nan,nan,nan,0.0,0.06951904,0.0,0.0,nan,0.0,0.0,0.009967685,0.0,0.0,0.0,0.0,0.0,0.0,0.0,0.0
8696000,-0.023122726,0.026241718,-0.039638344,-0.016304845,0.020765757,0.0,0.0,0.0,0.0,0.0,0.0,0.0,nan,nan,nan,nan,nan,nan,0.0,-0.0152282715,0.0,0.0,nan,0.0,0.0,0.015140057,0.0,0.0,0.0,0.0,0.0,0.0,0.0,0.0
8896000,-0.021839982,0.033927258,-0.03594111,-0.015034809,0.021139516,0.0,0.0,0.0,0.0,0.0,0.0,0.0,nan,nan,nan,nan,nan,nan,0.0,-0.06954956,0.0,0.0,nan,0.0,0.0,0.01201725,0.0,0.0,0.0,0.0,0.0,0.0,0.0,0.0
9096000,-0.0284815,0.043890707,-0.015886698,-0.013949592,0.019942919,0.0,0.0,0.0,0.0,0.0,0.0,0.0,nan,nan,nan,nan,nan,nan,0.0,0.033355713,0.0,0.0,nan,0.0,0.0,0.009412169,0.0,0.0,0.0,0.0,0.0,0.0,0.0,0.0
9296000,-0.012482476,0.029084178,-0.0039927037,0.000659848,0.016450519,0.0,0.0,0.0,0.0,0.0,0.0,0.0,nan,nan,nan,nan,nan,nan,0.0,0.0029907227,0.0,0.0,nan,0.0,0.0,0.020655394,0.0,0.0,0.0,0.0,0.0,0.0,0.0,0.0
9496000,-0.009976023,0.03502976,-0.012971955,0.0006158587,0.015010229,0.0,0.0,0.0,0.0,0.0,0.0,0.0,nan,nan,nan,nan,nan,nan,0.0,-0.043426514,0.0,0.0,nan,0.0,0.0,0.005891919,0.0,0.0,0.0,0.0,0.0,0.0,0.0,0.0
9696000,0.0041066157,0.01987178,0.031604197,-0.010390903,0.011689967,0.0,0.0,0.0,0.0,0.0,0.0,0.0,nan,nan,nan,nan,nan,nan,0.0,0.022094727,0.0,0.0,nan,0.0,0.0,0.0020067692,0.0,0.0,0.0,0.0,0.0,0.0,0.0,0.0
9896000,-0.014063595,0.019113736,-0.004188723,-4.7078447e-05,0.010948473,0.0,0.0,0.0,0.0,0.0,0.0,0.0,nan,nan,nan,nan,nan,nan,0.0,-0.05117798,0.0,0.0,nan,0.0,0.0,-0.0006709099,0.0,0.0,0.0,0.0,0.0,0.0,0.0,0.0
10096000,0.009045651,0.013582698,-0.025630664,0.0021142408,0.009693873,0.0,0.0,0.0,0.0,0.0,0.0,0.0,nan,nan,nan,nan,nan,nan,0.0,0.02029419,0.0,0.0,nan,0.0,0.0,0.018435597,0.0,0.0,0.0,0.0,0.0,0.0,0.0,0.0
10296000,-0.004552368,0.021027546,-0.006598346,-0.00021771116,0.008833721,0.0,0.0,0.0,0.0,0.0,0.0,0.0,nan,nan,nan,nan,nan,nan,0.0,-0.067840576,0.0,0.0,nan,0.0,0.0,0.011045337,0.0,0.0,0.0,0.0,0.0,0.0,0.0,0.0
10496000,-0.00010666333,0.0076878658,-0.023392532,9.364556e-05,-0.0014781482,0.0,0.0,0.0,0.0,0.0,0.0,0.0,nan,nan,nan,nan,nan,nan,0.0,-0.033355713,0.0,0.0,nan,0.0,0.0,0.00288558,0.0,0.0,0.0,0.0,0.0,0.0,0.0,0.0
10696000,-0.0066187824,0.007916817,-0.03138739,0.00037828172,-0.0010573687,0.0,0.0,0.0,0.0,0.0,0.0,0.0,nan,nan,nan,nan,nan,nan,0.0,0.014953613,0.0,0.0,nan,0.0,0.0,0.019181013,0.0,0.0,0.0,0.0,0.0,0.0,0.0,0.0
10896000,0.00042400276,0.010260975,-0.009258719,0.001878864,-0.00058001047,0.0,0.0,0.0,0.0,0.0,0.0,0.0,nan,nan,nan,nan,nan,nan,0.0,-0.026367188,0.0,0.0,nan,0.0,0.0,-0.010704637,0.0,0.0,0.0,0.0,0.0,0.0,0.0,0.0
11096000,-0.004160185,0.010448942,0.03389586,0.0011268753,0.007502547,0.0,0.0,0.0,0.0,0.0,0.0,0.0,nan,nan,nan,nan,nan,nan,0.0,-0.017852783,0.0,0.0,nan,0.0,0.0,0.0004146099,0.0,0.0,0.0,0.0,0.0,0.0,0.0,0.0
11296000,-0.004222352,0.018168543,-0.0074482504,-0.0101326415,0.006904814,0.0,0.0,0.0,0.0,0.0,0.0,0.0,nan,nan,nan,nan,nan,nan,0.0,-0.0602417,0.0,0.0,nan,0.0,0.0,-0.004741788,0.0,0.0,0.0,0.0,0.0,0.0,0.0,0.0
11496000,-0.011724231,-0.0018048016,0.015442508,0.0021324565,0.0047334176,0.0,0.0,0.0,0.0,0.0,0.0,0.0,nan,nan,nan,nan,nan,nan,0.0,-0.14089966,0.0,0.0,nan,0.0,0.0,0.015884995,0.0,0.0,0.0,0.0,0.0,0.0,0.0,0.0
11696000,-0.0023432719,-0.000997236,-0.0038755704,0.0033378887,-0.0012285393,0.0,0.0,0.0,0.0,0.0,0.0,0.0,nan,nan,nan,nan,nan,nan,0.0,0.047607422,0.0,0.0,nan,0.0,0.0,-0.009515405,0.0,0.0,0.0,0.0,0.0,0.0,0.0,0.0
11896000,-0.0035582355,0.013431306,0.004449427,0.002694671,0.0014447924,0.0,0.0,0.0,0.0,0.0,0.0,0.0,nan,nan,nan,nan,nan,nan,0.0,0.006500244,0.0,0.0,nan,0.0,0.0,-0.00096940994,0.0,0.0,0.0,0.0,0.0,0.0,0.0,0.0
12096000,-0.011495159,0.022996005,-0.016335867,0.0026042645,0.009380994,0.0,0.0,0.0,0.0,0.0,0.0,0.0,nan,nan,nan,nan,nan,nan,0.0,0.033416748,0.0,0.0,nan,0.0,0.0,0.0005315542,0.0,0.0,0.0,0.0,0.0,0.0,0.0,0.0
12296000,-0.017150765,0.02968399,-0.013699812,-0.0067328736,0.006955591,0.0,0.0,0.0,0.0,0.0,0.0,0.0,nan,nan,nan,nan,nan,nan,0.0,0.071380615,0.0,0.0,nan,0.0,0.0,-0.0031855106,0.0,0.0,0.0,0.0,0.0,0.0,0.0,0.0
12496000,0.007323819,0.009096714,-0.003452206,-0.002283479,0.0033230046,0.0,0.0,0.0,0.0,0.0,0.0,0.0,nan,nan,nan,nan,nan,nan,0.0,0.016174316,0.0,0.0,nan,0.0,0.0,0.006595969,0.0,0.0,0.0,0.0,0.0,0.0,0.0,0.0
12696000,-0.3460753,0.09344578,0.1758842,-0.03590841,0.0055094957,0.0,0.0,0.0,0.0,0.0,0.0,0.0,nan,nan,nan,nan,nan,nan,0.0,0.04788208,0.0,0.0,nan,0.0,0.0,0.008558631,0.0,0.0,0.0,0.0,0.0,0.8255224,0.0,0.0
12896000,-0.4921897,0.029517174,0.29160425,-0.04964568,-0.029657364,0.0,0.0,0.0,0.0,0.0,0.0,0.0,nan,nan,nan,nan,nan,nan,0.0,0.017028809,0.0,0.0,nan,0.0,0.0,-0.0016815662,0.0,0.0,0.0,0.0,0.0,1.1039162,0.0,0.0
13096000,-0.48706692,0.0030651093,0.32940122,-0.073447466,-0.053408146,0.0,0.0,0.0,0.0,0.0,0.0,0.0,nan,nan,nan,nan,nan,nan,0.0,0.15631104,0.0,0.0,nan,0.0,0.0,-0.012756944,0.0,0.0,0.0,0.0,0.0,1.3030415,0.0,0.0
13296000,-0.39376885,-0.049131393,0.33759803,-0.057743944,-0.0806036,0.0,0.0,0.0,0.0,0.0,0.0,0.0,nan,nan,nan,nan,nan,nan,0.0,0.17166138,0.0,0.0,nan,0.0,0.0,-0.012534499,0.0,0.0,0.0,0.0,0.0,1.5508842,-0.012507588,0.0
13496000,-0.25746116,-0.052352905,0.27395147,-0.03775195,-0.110131264,0.0,0.0,0.0,0.0,0.0,0.0,0.0,nan,nan,nan,nan,nan,nan,0.0,0.16543579,0.0,0.0,nan,0.0,0.0,-0.0135554075,0.0,0.0,0.0,0.0,0.0,1.4878769,0.020442998,0.0
13696000,-0.18672067,-0.086761475,0.28246424,-0.024234533,-0.13082695,0.0,0.0,0.0,0.0,0.0,0.0,0.0,nan,nan,nan,nan,nan,nan,0.0,0.11065674,0.0,0.0,nan,0.0,0.0,0.00020885468,0.0,0.0,0.0,0.0,0.0,1.5178928,0.012108212,0.0
13896000,-0.18672067,-0.086761475,0.28246424,-0.024234533,-0.13082695,0.0,0.0,0.0,0.0,0.0,0.0,0.0,nan,nan,nan,nan,nan,nan,0.0,0.19406128,0.0,0.0,nan,0.0,0.0,-0.028012872,0.0,0.0,0.0,0.0,0.0,1.3861313,-0.007982151,0.0
14096000,-0.099241376,-0.09763718,0.23250425,-0.0148356855,-0.16075706,0.0,0.0,0.0,0.0,0.0,0.0,0.0,nan,nan,nan,nan,nan,nan,0.0,0.19934082,0.0,0.0,nan,0.0,0.0,-0.0038996935,0.0,0.0,0.0,0.0,0.0,1.2215347,-0.0133069735,0.0
14296000,-0.008919835,-0.11439896,0.16585326,0.005007267,-0.17801285,0.0,0.0,0.0,0.0,0.0,0.0,0.0,nan,nan,nan,nan,nan,nan,0.0,0.16983032,0.0,0.0,nan,0.0,0.0,-0.018191695,0.0,0.0,0.0,0.0,0.0,1.1122494,-0.025071746,0.0
14496000,0.029464245,-0.17790794,0.13495827,0.00789988,-0.19631577,0.0,0.0,0.0,0.0,0.0,0.0,0.0,nan,nan,nan,nan,nan,nan,0.0,0.10568237,0.0,0.0,nan,0.0,0.0,-0.01589775,0.0018971562,-0.0026301742,-0.001845032,0.0,0.0,0.9869232,-0.043101,0.0
14696000,0.07507253,-0.12218094,0.18384099,0.022988796,-0.20521927,0.0,0.0,0.0,0.0,0.0,0.0,0.0,nan,nan,nan,nan,nan,nan,0.0,0.1637268,0.0,0.0,nan,0.0,0.0,-0.01589775,-0.0022089109,-0.0003613457,-0.00028848648,0.0,0.0,0.8128605,-0.05162682,0.0
14903999,0.13165426,-0.14252853,0.11322594,0.013626337,-0.13613892,0.0,0.0,0.0,0.0,0.0,0.0,0.0,nan,nan,nan,nan,nan,nan,0.0,0.15316772,0.0,0.0,nan,0.0,0.0,-0.01589775,0.00040271878,-0.0013298616,0.0005300641,0.0,0.0,0.73431015,-0.06019809,0.0
15104000,0.1675551,-0.1277237,0.13697672,0.060687304,-0.33226776,0.0,0.0,0.0,0.0,0.0,0.0,0.0,nan,nan,nan,nan,nan,nan,0.0,0.21035767,0.0,0.0,nan,0.0,0.0,-0.01589775,0.0018330514,-0.00055487454,0.0016853809,0.0,0.0,0.5893059,-0.07492726,0.0
15304000,0.16243625,-0.107213974,0.12108183,0.056280136,-0.23969269,0.0,0.0,0.0,0.0,0.0,0.0,0.0,nan,nan,nan,nan,nan,nan,0.0,0.26571655,0.0,0.0,nan,0.0,0.0,-0.01589775,0.003668353,-0.0022195056,0.00048157573,0.0,0.0,0.45876884,-0.082014285,0.0
15504000,0.20146847,-0.13845825,0.11826086,0.06371498,-0.25287628,0.0,0.0,0.0,0.0,0.0,0.0,0.0,nan,nan,nan,nan,nan,nan,0.0,0.17730713,0.0,0.0,nan,0.0,0.0,-0.01589775,0.0002927184,-0.0031101406,-0.00068345666,0.0,0.0,0.46530914,-0.08712683,0.0
15704000,0.22496891,-0.13272476,0.1481185,0.05574894,-0.16892242,0.0,0.0,0.0,0.0,0.0,0.0,0.0,nan,nan,nan,nan,nan,nan,0.0,0.1855774,0.0,0.0,nan,0.0,0.0,-0.01589775,0.0031492263,0.0010177046,0.0037599504,0.0,0.0,0.34366417,-0.093758665,0.0
15904000,0.2201724,-0.12285805,0.113975525,0.09248304,-0.35443115,0.0,0.0,0.0,0.0,0.0,0.0,0.0,nan,nan,nan,nan,nan,nan,0.0,0.08483887,0.0,0.0,nan,0.0,0.0,-0.01589775,0.0023305714,0.00089642406,-0.0008817315,0.0,0.0,0.41809654,-0.094897896,0.0
16104000,0.17455912,-0.12341118,0.10564232,0.08382416,-0.25826263,0.0,0.0,0.0,0.0,0.0,0.0,0.0,nan,nan,nan,nan,nan,nan,0.0,0.111450195,0.0,0.0,nan,0.0,0.0,-0.01589775,-0.0010315627,1.7032027e-05,-0.00037238002,0.0,0.0,0.6659069,-0.09571991,0.0
16304000,0.18043041,-0.12670326,0.09582949,0.08771324,-0.25382996,0.0,0.0,0.0,0.0,0.0,0.0,0.0,nan,nan,nan,nan,nan,nan,0.0,0.1355896,0.0,0.0,nan,0.0,0.0,-0.01589775,-0.0005555004,0.00074626505,-0.00089368224,0.0,0.0,0.5098095,-0.10691949,0.0
16504000,0.16563106,-0.12336159,0.12241411,0.07077694,-0.16565704,0.0,0.0,0.0,0.0,0.0,0.0,0.0,nan,nan,nan,nan,nan,nan,0.0,0.12738037,0.0,0.0,nan,0.0,0.0,-0.01589775,-5.4374337e-05,-0.002187416,-0.0008674562,0.0,0.0,0.3695984,-0.097322024,0.0
16704000,0.121632814,-0.106889725,0.06913376,0.10673237,-0.33112335,0.0,0.0,0.0,0.0,0.0,0.0,0.0,nan,nan,nan,nan,nan,nan,0.0,0.023590088,0.0,0.0,nan,0.0,0.0,-0.01589775,-0.00065918267,-0.0024389774,-0.0007099509,0.0,0.0,0.34818268,-0.08935099,0.0
16904000,0.12059879,-0.07141113,0.10253763,0.09453297,-0.23553467,0.0,0.0,0.0,0.0,0.0,0.0,0.0,nan,nan,nan,nan,nan,nan,0.0,0.14492798,0.0,0.0,nan,0.0,0.0,-0.01589775,0.0018833056,-0.00042754412,0.0025098324,0.0,0.0,0.37859344,-0.08699832,0.0
17104000,0.10183382,-0.11150932,0.094590664,0.0967617,-0.24130249,0.0,0.0,0.0,0.0,0.0,0.0,0.0,nan,nan,nan,nan,nan,nan,0.0,0.07269287,0.0,0.0,nan,0.0,0.0,-0.01589775,0.0012616068,-0.0036160648,-0.0014611185,0.0,0.0,0.43559074,-0.07863341,0.0
17304000,0.16038084,-0.098745346,0.07812929,0.090159416,-0.14925385,0.0,0.0,0.0,0.0,0.0,0.0,0.0,nan,nan,nan,nan,nan,nan,0.0,0.14025879,0.0,0.0,nan,0.0,0.0,-0.01589775,0.004093744,-0.0004967451,-0.0015667379,0.0,0.0,0.42546844,-0.06988758,0.0
17504000,0.09068823,-0.11029053,0.058864594,0.11044407,-0.31961823,0.0,0.0,0.0,0.0,0.0,0.0,0.0,nan,nan,nan,nan,nan,nan,0.0,0.177948,0.0,0.0,nan,0.0,0.0,-0.01589775,0.0016805753,0.0004476905,-0.0037590563,0.0,0.0,0.43068314,-0.06297407,0.0
17704000,0.12011552,-0.120038986,0.03918314,0.10055065,-0.22529602,0.0,0.0,0.0,0.0,0.0,0.0,0.0,nan,nan,nan,nan,nan,nan,0.0,0.23654175,0.0,0.0,nan,0.0,0.0,-0.01589775,0.0014787316,-0.00041553378,-0.0025188029,0.0,0.0,0.4327774,-0.049802158,0.0
17904000,0.10847592,-0.069869995,0.04858637,0.10268021,-0.21175385,0.0,0.0,0.0,0.0,0.0,0.0,0.0,nan,nan,nan,nan,nan,nan,0.0,0.15975952,0.0,0.0,nan,0.0,0.0,-0.01589775,0.0032373369,-0.0013930798,-0.002115041,0.0,0.0,0.45300484,-0.042155854,0.0
18104000,0.0966692,-0.06631088,0.042685032,0.087875366,-0.12580109,0.0,0.0,0.0,0.0,0.0,0.0,0.0,nan,nan,nan,nan,nan,nan,0.0,0.0736084,0.0,0.0,nan,0.0,0.0,-0.01589775,0.0032697842,0.0009638369,-0.0022563636,0.0,0.0,0.43637276,-0.03506171,0.0
18304000,0.120589375,-0.052179337,0.058737278,0.111364365,-0.29333496,0.0,0.0,0.0,0.0,0.0,0.0,0.0,nan,nan,nan,nan,nan,nan,0.0,0.019592285,0.0,0.0,nan,0.0,0.0,-0.01589775,0.0015831441,8.970499e-05,-0.001481533,0.0,0.0,0.41731262,-0.022297768,0.0
18504000,0.105434835,-0.050540924,0.07956791,0.094177246,-0.20521545,0.0,0.0,0.0,0.0,0.0,0.0,0.0,nan,nan,nan,nan,nan,nan,0.0,0.12976074,0.0,0.0,nan,0.0,0.0,-0.01589775,-0.0009801462,-0.0013968498,0.0012913644,0.0,0.0,0.44462776,-0.01603309,0.0
18704000,0.12429881,-0.051187515,0.054584026,0.10073948,-0.19141388,0.0,0.0,0.0,0.0,0.0,0.0,0.0,nan,nan,nan,nan,nan,nan,0.0,0.033081055,0.0,0.0,nan,0.0,0.0,-0.01589775,0.0013286546,-0.001568377,0.0007378757,0.0,0.0,0.40001297,-0.010210983,0.0
18904000,0.124316275,-0.032165527,0.0018401146,0.09501171,-0.11090088,0.0,0.0,0.0,0.0,0.0,0.0,0.0,nan,nan,nan,nan,nan,nan,0.0,0.061401367,0.0,0.0,nan,0.0,0.0,-0.01589775,0.0018205419,-0.002835229,-0.00071901083,0.0,0.0,0.38226128,0.00068866776,0.0
19104000,0.12112394,-0.04614067,0.019679546,0.095923424,-0.27975464,0.0,0.0,0.0,0.0,0.0,0.0,0.0,nan,nan,nan,nan,nan,nan,0.0,0.049438477,0.0,0.0,nan,0.0,0.0,-0.01589775,0.0018990785,-0.0014453977,-0.0008867681,0.0,0.0,0.4304371,0.005973328,0.0
19304000,0.1117007,-0.0060596466,0.023509026,0.10307121,-0.18313599,0.0,0.0,0.0,0.0,0.0,0.0,0.0,nan,nan,nan,nan,nan,nan,0.0,0.11254883,0.0,0.0,nan,0.0,0.0,-0.01589775,0.0039385483,0.0006227493,-0.0019607544,0.0,0.0,0.44000244,0.010446165,0.0
19504000,0.108177185,-0.013484955,0.016257286,0.105134964,-0.18933105,0.0,0.0,0.0,0.0,0.0,0.0,0.0,nan,nan,nan,nan,nan,nan,0.0,0.06628418,0.0,0.0,nan,0.0,0.0,-0.01589775,0.0011181682,-0.002424106,-0.00029322505,0.0,0.0,0.36867905,0.018852817,0.0
19704000,0.10778598,-0.024654388,0.039961815,0.107084274,-0.098358154,0.0,0.0,0.0,0.0,0.0,0.0,0.0,nan,nan,nan,nan,nan,nan,0.0,-0.060638428,0.0,0.0,nan,0.0,0.0,-0.01589775,0.0014518872,-0.0019126236,-0.000605762,0.0,0.0,0.3337803,0.022526048,0.0
19904000,0.12131022,-0.01537323,-0.01295948,0.10512352,-0.26908875,0.0,0.0,0.0,0.0,0.0,0.0,0.0,nan,nan,nan,nan,nan,nan,0.0,-0.010131836,0.0,0.0,nan,0.0,0.0,-0.01589775,0.0027556494,0.00028765202,0.00030457973,0.0,0.0,0.41744995,0.0255476,0.0
20104000,0.13287848,0.0049419403,0.02017641,0.10809517,-0.17286682,0.0,0.0,0.0,0.0,0.0,0.0,0.0,nan,nan,nan,nan,nan,nan,0.0,0.057617188,0.0,0.0,nan,0.0,0.0,-0.01589775,0.003216125,-0.00062565506,-0.0030872226,0.0,0.0,0.40006638,0.032203037,0.0
20304000,0.13584474,-0.00033950806,0.008818626,0.108982086,-0.16973877,0.0,0.0,0.0,0.0,0.0,0.0,0.0,nan,nan,nan,nan,nan,nan,0.0,0.030059814,0.0,0.0,nan,0.0,0.0,-0.01589775,0.0033994615,1.6748905e-05,-0.0021898746,0.0,0.0,0.40864563,0.03497495,0.0
20504000,0.14464578,0.013605118,-0.016748905,0.09941578,-0.080703735,0.0,0.0,0.0,0.0,0.0,0.0,0.0,nan,nan,nan,nan,nan,nan,0.0,0.076812744,0.0,0.0,nan,0.0,0.0,-0.01589775,0.0011349171,-0.0027177185,0.00015932322,0.0,0.0,0.3684559,0.036942434,0.0
20704000,0.12973304,0.025468826,-0.035721302,0.09571743,-0.24835205,0.0,0.0,0.0,0.0,0.0,0.0,0.0,nan,nan,nan,nan,nan,nan,0.0,0.061706543,0.0,0.0,nan,0.0,0.0,-0.01589775,0.004750952,0.0005632937,-0.0023393035,0.0,0.0,0.31316185,0.039575018,0.0
20904000,0.12224418,0.008829117,0.005125046,0.093411446,-0.15899658,0.0,0.0,0.0,0.0,0.0,0.0,0.0,nan,nan,nan,nan,nan,nan,0.0,0.015289307,0.0,0.0,nan,0.0,0.0,-0.01589775,-0.00011072308,-0.0005006343,-0.00052174926,0.0,0.0,0.32336235,0.04397888,0.0
21104000,0.118736714,0.026748657,-0.06599569,0.09574509,-0.1539917,0.0,0.0,0.0,0.0,0.0,0.0,0.0,nan,nan,nan,nan,nan,nan,0.0,0.022979736,0.0,0.0,nan,0.0,0.0,-0.01589775,0.0057540387,0.0009136945,0.0008505285,0.0,0.0,0.32763672,0.045194753,0.0
21304000,0.10152957,0.0378685,-0.051025867,0.106365204,-0.072631836,0.0,0.0,0.0,0.0,0.0,0.0,0.0,nan,nan,nan,nan,nan,nan,0.0,0.07397461,0.0,0.0,nan,0.0,0.0,-0.01589775,0.0022301003,-0.0029110461,-0.00041270256,0.0,0.0,0.3210354,0.046855476,0.0
21504000,0.13869345,0.037706375,-0.013168335,0.10787392,-0.2367096,0.0,0.0,0.0,0.0,0.0,0.0,0.0,nan,nan,nan,nan,nan,nan,0.0,0.005432129,0.0,0.0,nan,0.0,0.0,-0.01589775,0.0016091242,6.225705e-05,-0.0021449327,0.0,0.0,0.33353806,0.050168492,0.0
21704000,0.12927362,0.030952454,-0.045132637,0.11042881,-0.13552856,0.0,0.0,0.0,0.0,0.0,0.0,0.0,nan,nan,nan,nan,nan,nan,0.0,0.07913208,0.0,0.0,nan,0.0,0.0,-0.01589775,0.002388522,-0.0015019774,-0.00038459897,0.0,0.0,0.28562164,0.051092148,0.0
21904000,0.14092553,0.06001091,0.0005607605,0.10173416,-0.13537598,0.0,0.0,0.0,0.0,0.0,0.0,0.0,nan,nan,nan,nan,nan,nan,0.0,-0.016998291,0.0,0.0,nan,0.0,0.0,-0.01589775,0.0010931194,-0.0030146241,-0.0030024648,0.0,0.0,0.3881626,0.052622154,0.0
22104000,0.09631404,0.05167198,-0.033665657,0.10865593,-0.047286987,0.0,0.0,0.0,0.0,0.0,0.0,0.0,nan,nan,nan,nan,nan,nan,0.0,0.009002686,0.0,0.0,nan,0.0,0.0,-0.01589775,0.0024290383,-0.0010526925,0.0015271008,0.0,0.0,0.33159828,0.0551599,0.0
22304000,0.1368368,0.048526764,-0.018269539,0.09690189,-0.22421265,0.0,0.0,0.0,0.0,0.0,0.0,0.0,nan,nan,nan,nan,nan,nan,0.0,-0.07467651,0.0,0.0,nan,0.0,0.0,-0.01589775,0.00013373047,-0.0010065585,0.0014960468,0.0,0.0,0.25374413,0.055699375,0.0
22504000,0.14640602,0.053611755,-0.009777069,0.10943508,-0.12919617,0.0,0.0,0.0,0.0,0.0,0.0,0.0,nan,nan,nan,nan,nan,nan,0.0,-0.011810303,0.0,0.0,nan,0.0,0.0,-0.01589775,0.00408493,0.00025849044,-0.00022682548,0.0,0.0,0.26457024,0.056865156,0.0
22704000,0.14190197,0.072618484,0.0076465607,0.09518337,-0.12857056,0.0,0.0,0.0,0.0,0.0,0.0,0.0,nan,nan,nan,nan,nan,nan,0.0,0.15475464,0.0,0.0,nan,0.0,0.0,-0.01589775,-0.00025878102,0.0004683286,0.0013142228,0.0,0.0,0.2902832,0.05883196,0.0
22904000,0.12170616,0.03315735,-0.041199684,0.09903145,-0.047302246,0.0,0.0,0.0,0.0,0.0,0.0,0.0,nan,nan,nan,nan,nan,nan,0.0,0.020812988,0.0,0.0,nan,0.0,0.0,-0.01589775,0.0018028393,-0.0031391531,0.0013501644,0.0,0.0,0.27101898,0.059291296,0.0
23104000,0.14729562,0.088256836,-0.065573215,0.09168434,-0.20977783,0.0,0.0,0.0,0.0,0.0,0.0,0.0,nan,nan,nan,nan,nan,nan,0.0,-0.04135132,0.0,0.0,nan,0.0,0.0,-0.01589775,0.0011041313,-0.00044192374,0.003253311,0.0,0.0,0.22257996,0.059969578,0.0
23304000,0.11455551,0.0465374,-0.08408642,0.09897137,-0.12400818,0.0,0.0,0.0,0.0,0.0,0.0,0.0,nan,nan,nan,nan,nan,nan,0.0,-0.0038146973,0.0,0.0,nan,0.0,0.0,-0.01589775,0.0018552244,0.00027440488,-0.0011180937,0.0,0.0,0.2624073,0.061185233,0.0
23504000,0.108587146,0.04784584,-0.047944546,0.095321655,-0.13111877,0.0,0.0,0.0,0.0,0.0,0.0,0.0,nan,nan,nan,nan,nan,nan,0.0,-0.007171631,0.0,0.0,nan,0.0,0.0,-0.01589775,-0.001242429,-0.00040361285,-0.0020047128,0.0,0.0,0.2707901,0.061565284,0.0
23704000,0.10159087,0.083013535,-0.054109097,0.0976572,-0.04899597,0.0,0.0,0.0,0.0,0.0,0.0,0.0,nan,nan,nan,nan,nan,nan,0.0,-0.048095703,0.0,0.0,nan,0.0,0.0,-0.01589775,0.0023713186,-0.002239585,0.0004914105,0.0,0.0,0.30743217,0.062019322,0.0
23904000,0.11426574,0.049173355,-0.03222704,0.09630203,-0.21252441,0.0,0.0,0.0,0.0,0.0,0.0,0.0,nan,nan,nan,nan,nan,nan,0.0,-0.07962036,0.0,0.0,nan,0.0,0.0,-0.01589775,0.004906863,-0.00057694316,0.00054866076,0.0,0.0,0.25380898,0.06324284,0.0
24104000,0.10191283,0.015256882,-0.012514114,0.09818745,-0.12145996,0.0,0.0,0.0,0.0,0.0,0.0,0.0,nan,nan,nan,nan,nan,nan,0.0,-0.07217407,0.0,0.0,nan,0.0,0.0,-0.01589775,0.0023361742,-0.00075766444,-0.0010360777,0.0,0.0,0.34615898,0.06379639,0.0
24304000,0.09599173,0.02468872,-0.07228136,0.09560013,-0.12634277,0.0,0.0,0.0,0.0,0.0,0.0,0.0,nan,nan,nan,nan,nan,nan,0.0,-0.051971436,0.0,0.0,nan,0.0,0.0,-0.01589775,-0.00056450814,-0.0009826571,0.0009558797,0.0,0.0,0.4717102,0.065931596,0.0
24504000,0.09599173,0.02468872,-0.07228136,0.09560013,-0.12634277,0.0,0.0,0.0,0.0,0.0,0.0,0.0,nan,nan,nan,nan,nan,nan,0.0,-0.023345947,0.0,0.0,nan,0.0,0.0,-0.01589775,0.0025624037,0.001106143,0.001612097,0.0,0.0,0.44660187,0.06915837,0.0
24704000,0.05291167,0.0071105957,-0.026089668,0.08458805,-0.050354004,0.0,0.0,0.0,0.0,0.0,0.0,0.0,nan,nan,nan,nan,nan,nan,0.0,-0.033233643,0.0,0.0,nan,0.0,0.0,-0.01589775,0.00075335056,-0.00028513372,6.702542e-05,0.0,0.0,0.29728127,0.07283575,0.0
24904000,0.006342888,0.036211014,0.009054184,0.07751942,-0.1980133,0.0,0.0,0.0,0.0,0.0,0.0,0.0,nan,nan,nan,nan,nan,nan,0.0,-0.08728027,0.0,0.0,nan,0.0,0.0,-0.01589775,0.0029010363,-0.0021269023,-0.0006149113,0.0,0.0,0.375288,0.07409557,0.0
25104000,-0.0076337457,-0.0067100525,0.02028203,0.061584473,-0.1242218,0.0,0.0,0.0,0.0,0.0,0.0,0.0,nan,nan,nan,nan,nan,nan,0.0,-0.10827637,0.0,0.0,nan,0.0,0.0,-0.01589775,0.004033949,-0.0035039186,-0.00021001697,0.0,0.0,0.28983307,0.075726524,0.0
25304000,-0.03549993,0.030363083,-0.030324817,0.051858902,-0.122787476,0.0,0.0,0.0,0.0,0.0,0.0,0.0,nan,nan,nan,nan,nan,nan,0.0,0.03149414,0.0,0.0,nan,0.0,0.0,-0.01589775,0.006070737,-0.00064599514,-0.0032236278,0.0,0.0,0.38124275,0.07772149,0.0
25504000,-0.047916293,-0.0021038055,0.014817357,0.049981117,-0.046051025,0.0,0.0,0.0,0.0,0.0,0.0,0.0,nan,nan,nan,nan,nan,nan,0.0,-0.047058105,0.0,0.0,nan,0.0,0.0,-0.01589775,0.0013034348,-0.00029969215,0.0005261004,0.0,0.0,0.22616577,0.07808288,0.0
25704000,-0.03170556,0.0059051514,-0.0075446963,0.035585403,-0.19125366,0.0,0.0,0.0,0.0,0.0,0.0,0.0,nan,nan,nan,nan,nan,nan,0.0,-0.034820557,0.0,0.0,nan,0.0,0.0,-0.01589775,0.0026238014,-0.0010195374,-0.00067418814,0.0,0.0,0.2510128,0.07908199,0.0
25904000,-0.082422495,0.027622223,-0.021956265,0.02789402,-0.10675049,0.0,0.0,0.0,0.0,0.0,0.0,0.0,nan,nan,nan,nan,nan,nan,0.0,-0.077545166,0.0,0.0,nan,0.0,0.0,-0.01589775,0.00096290465,0.00021208823,-0.00053814054,0.0,0.0,0.188303,0.08031571,0.0
26104000,-0.03993404,0.009353638,-0.034506887,0.012735367,-0.113586426,0.0,0.0,0.0,0.0,0.0,0.0,0.0,nan,nan,nan,nan,nan,nan,0.0,-0.08596802,0.0,0.0,nan,0.0,0.0,-0.01589775,0.0009211637,0.00027391315,-0.0005734563,0.0,0.0,0.12601471,0.080766685,0.0
26304000,-0.086529434,0.010620117,0.027067333,0.0052108765,-0.049713135,0.0,0.0,0.0,0.0,0.0,0.0,0.0,nan,nan,nan,nan,nan,nan,0.0,0.07235718,0.0,0.0,nan,0.0,0.0,-0.01589775,0.0007854346,0.0020466745,0.0028735995,0.0,0.0,0.14836502,0.08078675,0.0
26504000,-0.084168136,0.01742363,0.009124607,-0.011217117,-0.18984985,0.0,0.0,0.0,0.0,0.0,0.0,0.0,nan,nan,nan,nan,nan,nan,0.0,0.049926758,0.0,0.0,nan,0.0,0.0,-0.01589775,-0.0005127918,0.002001822,-0.00079768896,0.0,0.0,0.20781898,0.08102586,0.0
26704000,-0.07572389,0.0063056946,0.015314698,-0.0044317245,-0.114868164,0.0,0.0,0.0,0.0,0.0,0.0,0.0,nan,nan,nan,nan,nan,nan,0.0,-0.01864624,0.0,0.0,nan,0.0,0.0,-0.01589775,-0.0026723742,0.0007568002,-0.0034445226,0.0,0.0,0.14631462,0.08102276,0.0
26904000,-0.057196736,-0.011419296,-0.016596138,-0.017496109,-0.120666504,0.0,0.0,0.0,0.0,0.0,0.0,0.0,nan,nan,nan,nan,nan,nan,0.0,0.033477783,0.0,0.0,nan,0.0,0.0,-0.01589775,0.001131136,-0.0003771782,-0.0024788976,0.0,0.0,0.023706436,0.081172615,0.0
27104000,-0.08725953,-0.03369713,0.0028452277,-0.022172928,-0.05810547,0.0,0.0,0.0,0.0,0.0,0.0,0.0,nan,nan,nan,nan,nan,nan,0.0,0.03463745,0.0,0.0,nan,0.0,0.0,-0.01589775,0.00010718405,-0.0002850145,0.00028675795,0.0,0.0,0.09830284,0.081256896,0.0
27304000,-0.061607838,-0.0027256012,0.022771895,-0.03373909,-0.19470215,0.0,0.0,0.0,0.0,0.0,0.0,0.0,nan,nan,nan,nan,nan,nan,0.0,0.00033569336,0.0,0.0,nan,0.0,0.0,-0.01589775,0.0035283007,-0.001917839,-0.0024010837,0.0,0.0,0.062164307,0.081428386,0.0
27504000,-0.051307082,-0.0073928833,-0.03862667,-0.02989006,-0.12475586,0.0,0.0,0.0,0.0,0.0,0.0,0.0,nan,nan,nan,nan,nan,nan,0.0,0.06329346,0.0,0.0,nan,0.0,0.0,-0.01589775,-0.0004466176,0.0017521977,-0.00069242716,0.0,0.0,0.07488823,0.08147616,0.0
27704000,-0.034592032,-0.006210327,0.037161052,-0.03143215,-0.12246704,0.0,0.0,0.0,0.0,0.0,0.0,0.0,nan,nan,nan,nan,nan,nan,0.0,0.022918701,0.0,0.0,nan,0.0,0.0,-0.01589775,0.0007898919,1.53929e-05,-0.0024588406,0.0,0.0,0.093761444,0.08141686,0.0
27904000,-0.012564063,-0.0025901794,0.03187418,-0.030796051,-0.061462402,0.0,0.0,0.0,0.0,0.0,0.0,0.0,nan,nan,nan,nan,nan,nan,0.0,-0.044677734,0.0,0.0,nan,0.0,0.0,-0.01589775,-0.0017659329,0.0013154,-0.00151366,0.0,0.0,0.0481987,0.081520095,0.0
28104000,-0.026487827,-0.018701553,-0.0078469515,-0.05336094,-0.19345093,0.0,0.0,0.0,0.0,0.0,0.0,0.0,nan,nan,nan,nan,nan,nan,0.0,0.044891357,0.0,0.0,nan,0.0,0.0,-0.01589775,-0.0007545836,-2.6226044e-06,0.0011361241,0.0,0.0,0.10994148,0.08142753,0.0
28304000,-0.0023144484,0.023708344,0.0020577908,-0.039167404,-0.115448,0.0,0.0,0.0,0.0,0.0,0.0,0.0,nan,nan,nan,nan,nan,nan,0.0,-0.00036621094,0.0,0.0,nan,0.0,0.0,-0.01589775,-0.00031735003,-0.00055485964,-0.0023450553,0.0,0.0,0.022787094,0.081423804,0.0
28504000,-0.006082654,-0.029884338,0.043392062,-0.031298637,-0.12188721,0.0,0.0,0.0,0.0,0.0,0.0,0.0,nan,nan,nan,nan,nan,nan,0.0,0.09030151,0.0,0.0,nan,0.0,0.0,-0.01589775,0.0018293038,0.001195848,-0.0017742813,0.0,0.0,0.082027435,0.08138718,0.0
28704000,0.005010247,0.0054130554,0.04034096,-0.038591385,-0.058044434,0.0,0.0,0.0,0.0,0.0,0.0,0.0,nan,nan,nan,nan,nan,nan,0.0,0.031433105,0.0,0.0,nan,0.0,0.0,-0.01589775,-0.0010876544,0.0008150786,0.00072416663,0.0,0.0,0.116176605,0.08114287,0.0
28904000,0.010120034,0.0059928894,0.06327766,-0.0386734,-0.19421387,0.0,0.0,0.0,0.0,0.0,0.0,0.0,nan,nan,nan,nan,nan,nan,0.0,0.029449463,0.0,0.0,nan,0.0,0.0,-0.01589775,-9.242445e-05,-0.0005261898,-0.00084736943,0.0,0.0,0.1008873,0.08075878,0.0
29104000,0.02610135,-0.0078105927,0.008944631,-0.036553383,-0.12667847,0.0,0.0,0.0,0.0,0.0,0.0,0.0,nan,nan,nan,nan,nan,nan,0.0,0.02645874,0.0,0.0,nan,0.0,0.0,-0.01589775,0.00029569864,-0.002887413,-0.0036082864,0.0,0.0,0.03376007,0.08086887,0.0
29304000,0.043587446,0.013990402,-0.044511497,-0.031591415,-0.124938965,0.0,0.0,0.0,0.0,0.0,0.0,0.0,nan,nan,nan,nan,nan,nan,0.0,0.11679077,0.0,0.0,nan,0.0,0.0,-0.01589775,-2.6971102e-05,-0.0019059628,-0.001990974,0.0,0.0,0.0858593,0.08078614,0.0
29504000,0.037602782,-0.005130768,0.02884698,-0.017466545,-0.05999756,0.0,0.0,0.0,0.0,0.0,0.0,0.0,nan,nan,nan,nan,nan,nan,0.0,0.051086426,0.0,0.0,nan,0.0,0.0,-0.01589775,0.0010840073,-0.001067102,-0.004119605,0.0,0.0,0.093263626,0.08073191,0.0
29704000,0.05254692,0.018844604,0.05460322,-0.022058487,-0.20361328,0.0,0.0,0.0,0.0,0.0,0.0,0.0,nan,nan,nan,nan,nan,nan,0.0,0.031158447,0.0,0.0,nan,0.0,0.0,-0.01589775,0.0016108416,-0.0007558465,-0.0019126236,0.0,0.0,0.048267365,0.080781445,0.0
29904000,0.06268865,-0.021327972,0.022078693,-0.017689705,-0.12982178,0.0,0.0,0.0,0.0,0.0,0.0,0.0,nan,nan,nan,nan,nan,nan,0.0,0.011962891,0.0,0.0,nan,0.0,0.0,-0.01589775,0.0053898897,-0.00048097968,-0.0012250841,0.0,0.0,0.069509506,0.08075821,0.0
30104000,0.04155433,-0.00198555,0.04120934,-0.022062302,-0.1953125,0.0,0.0,0.0,0.0,0.0,0.0,0.0,nan,nan,nan,nan,nan,nan,0.0,0.021697998,0.0,0.0,nan,0.0,0.0,-0.01589775,0.0002646651,-0.0018190145,-0.0024660528,0.0,0.0,-0.15029526,0.08047477,0.0
30304000,0.076449096,0.025592804,0.026435256,-0.0034666061,-0.05557251,0.0,0.0,0.0,0.0,0.0,0.0,0.0,nan,nan,nan,nan,nan,nan,0.0,0.045562744,0.0,0.0,nan,0.0,0.0,-0.01589775,0.00083755516,-0.0020857155,-0.00040629506,0.0,0.0,-0.52786064,0.07532274,0.0
30503999,0.14362037,-0.02602005,0.019580603,0.0008997917,-0.13534546,0.0,0.0,0.0,0.0,0.0,0.0,0.0,nan,nan,nan,nan,nan,nan,0.0,0.021850586,0.0,0.0,nan,0.0,0.0,-0.01589775,0.0010098009,0.00055092573,-0.0006020069,0.0,0.0,-0.37438965,0.071360536,0.0
30704000,0.17495698,0.017429352,-0.00405854,0.018630981,-0.13900757,0.0,0.0,0.0,0.0,0.0,0.0,0.0,nan,nan,nan,nan,nan,nan,0.0,0.0065612793,0.0,0.0,nan,0.0,0.0,-0.01589775,0.004131485,0.0005388558,0.0021406114,0.0,0.0,-0.13200188,0.06963021,0.0
30911999,0.23362613,0.005662918,-0.030358195,0.046977997,-0.14282227,0.0,0.0,0.0,0.0,0.0,0.0,0.0,nan,nan,nan,nan,nan,nan,0.0,0.11331177,0.0,0.0,nan,0.0,0.0,-0.01589775,0.000813704,-0.0015362054,0.0014270246,0.0,0.0,-0.07975769,0.06570117,0.0
31112000,0.24559493,0.009044647,0.0074551105,0.045376778,-0.067596436,0.0,0.0,0.0,0.0,0.0,0.0,0.0,nan,nan,nan,nan,nan,nan,0.0,0.0076293945,0.0,0.0,nan,0.0,0.0,-0.01589775,-0.0001244843,0.002454266,0.002302587,0.0,0.0,0.04652977,0.0633773,0.0
31312000,0.24012984,-0.0046901703,0.025137663,0.06302738,-0.23428345,0.0,0.0,0.0,0.0,0.0,0.0,0.0,nan,nan,nan,nan,nan,nan,0.0,0.08157349,0.0,0.0,nan,0.0,0.0,-0.01589775,0.0031029806,-0.0026397258,0.0012564361,0.0,0.0,0.10208893,0.06267014,0.0
31512000,0.21095608,-0.030441284,0.005521059,0.06330061,-0.07720947,0.0,0.0,0.0,0.0,0.0,0.0,0.0,nan,nan,nan,nan,nan,nan,0.0,0.11001587,0.0,0.0,nan,0.0,0.0,-0.01589775,0.0022806972,-0.00063443184,-0.00061130524,0.0,0.0,0.11334801,0.06265542,0.0
31719999,0.21878731,-0.0056266785,0.022340298,0.07688999,-0.22857666,0.0,0.0,0.0,0.0,0.0,0.0,0.0,nan,nan,nan,nan,nan,nan,0.0,-0.0014648438,0.0,0.0,nan,0.0,0.0,-0.01589775,0.0053927153,0.00014595687,-0.0012308955,0.0,0.0,0.081920624,0.06218664,0.0
31920000,0.2097047,-0.036834717,0.028377056,0.08022261,-0.14962769,0.0,0.0,0.0,0.0,0.0,0.0,0.0,nan,nan,nan,nan,nan,nan,0.0,0.013214111,0.0,0.0,nan,0.0,0.0,-0.01589775,0.0045128763,0.0008172542,0.0010276437,0.0,0.0,0.11368942,0.060854804,0.0
32120000,0.19561577,-0.0064468384,0.07409716,0.08350849,-0.14788818,0.0,0.0,0.0,0.0,0.0,0.0,0.0,nan,nan,nan,nan,nan,nan,0.0,-0.061920166,0.0,0.0,nan,0.0,0.0,-0.01589775,0.003966339,-0.00011309981,0.002074927,0.0,0.0,0.029973984,0.060327753,0.0
32320000,0.18033996,-0.04393959,0.09302521,0.0890007,-0.15481567,0.0,0.0,0.0,0.0,0.0,0.0,0.0,nan,nan,nan,nan,nan,nan,0.0,-0.11740112,0.0,0.0,nan,0.0,0.0,-0.01589775,0.0040715784,0.0013530254,0.0012079477,0.0,0.0,0.096443176,0.059373386,0.0
32520000,0.16162759,-0.034496307,0.056555748,0.09680414,-0.15478516,0.0,0.0,0.0,0.0,0.0,0.0,0.0,nan,nan,nan,nan,nan,nan,0.0,0.09640503,0.0,0.0,nan,0.0,0.0,-0.01589775,0.0022793189,-0.00074347854,0.0029031038,0.0,0.0,0.09225273,0.058423925,0.0
32720000,0.16668493,-0.016963959,0.039544106,0.10300684,-0.08630371,0.0,0.0,0.0,0.0,0.0,0.0,0.0,nan,nan,nan,nan,nan,nan,0.0,0.03845215,0.0,0.0,nan,0.0,0.0,-0.01589775,0.0030330569,0.002365157,0.0001437664,0.0,0.0,0.010601044,0.05732746,0.0
32920000,0.14497185,-0.06985474,0.08605957,0.09353924,-0.24404907,0.0,0.0,0.0,0.0,0.0,0.0,0.0,nan,nan,nan,nan,nan,nan,0.0,0.098724365,0.0,0.0,nan,0.0,0.0,-0.01589775,0.0049404576,0.00026273727,-0.0006645918,0.0,0.0,0.013492584,0.056848668,0.0
33120000,0.12760758,-0.04424286,0.037935734,0.09978771,-0.08135986,0.0,0.0,0.0,0.0,0.0,0.0,0.0,nan,nan,nan,nan,nan,nan,0.0,0.037078857,0.0,0.0,nan,0.0,0.0,-0.01589775,0.001716882,0.0015522838,0.0022425354,0.0,0.0,0.06779671,0.056113154,0.0
33320000,0.11946809,-0.061109543,0.062158108,0.09909248,-0.25442505,0.0,0.0,0.0,0.0,0.0,0.0,0.0,nan,nan,nan,nan,nan,nan,0.0,0.06616211,0.0,0.0,nan,0.0,0.0,-0.01589775,-0.00026290864,-0.002483964,0.0010349154,0.0,0.0,0.030475616,0.056033127,0.0
33520000,0.08827913,-0.0857048,0.064321995,0.09558487,-0.17248535,0.0,0.0,0.0,0.0,0.0,0.0,0.0,nan,nan,nan,nan,nan,nan,0.0,0.09890747,0.0,0.0,nan,0.0,0.0,-0.01589775,0.0018137321,0.0018594563,-0.00019913912,0.0,0.0,0.041791916,0.055195164,0.0
33720000,0.103349626,-0.08262825,0.1003952,0.10405922,-0.1737976,0.0,0.0,0.0,0.0,0.0,0.0,0.0,nan,nan,nan,nan,nan,nan,0.0,0.0068359375,0.0,0.0,nan,0.0,0.0,-0.01589775,0.002148062,-0.0026969016,-0.0005502403,0.0,0.0,0.08108902,0.05485089,0.0
33920000,0.078440845,-0.094244,0.016989708,0.0986433,-0.18078613,0.0,0.0,0.0,0.0,0.0,0.0,0.0,nan,nan,nan,nan,nan,nan,0.0,-0.03768921,0.0,0.0,nan,0.0,0.0,-0.01589775,0.0019567981,0.003055036,0.0043298304,0.0,0.0,0.101867676,0.054233853,0.0
34120000,0.08833453,-0.08470726,0.0454278,0.095905304,-0.17346191,0.0,0.0,0.0,0.0,0.0,0.0,0.0,nan,nan,nan,nan,nan,nan,0.0,0.07015991,0.0,0.0,nan,0.0,0.0,-0.01589775,0.0018361136,-0.0021499693,0.0011976957,0.0,0.0,0.0123176575,0.05276264,0.0
34320000,0.07412237,-0.06759071,0.041083813,0.09519291,-0.10626221,0.0,0.0,0.0,0.0,0.0,0.0,0.0,nan,nan,nan,nan,nan,nan,0.0,0.02935791,0.0,0.0,nan,0.0,0.0,-0.01589775,0.0010631979,-0.00076156855,0.0035856366,0.0,0.0,0.07591629,0.05229315,0.0
34520000,0.07246119,-0.064907074,0.05609417,0.095864296,-0.2687683,0.0,0.0,0.0,0.0,0.0,0.0,0.0,nan,nan,nan,nan,nan,nan,0.0,0.031097412,0.0,0.0,nan,0.0,0.0,-0.01589775,0.001114279,-0.0027446449,-9.307265e-05,0.0,0.0,0.021837234,0.051667817,0.0
34720000,0.06783575,-0.095430374,0.106603146,0.089767456,-0.11694336,0.0,0.0,0.0,0.0,0.0,0.0,0.0,nan,nan,nan,nan,nan,nan,0.0,0.06930542,0.0,0.0,nan,0.0,0.0,-0.01589775,8.935481e-05,-0.0002618283,0.0019352734,0.0,0.0,0.045833588,0.051216908,0.0
34920000,0.06426597,-0.13613701,0.034275055,0.084321976,-0.285614,0.0,0.0,0.0,0.0,0.0,0.0,0.0,nan,nan,nan,nan,nan,nan,0.0,0.1736145,0.0,0.0,nan,0.0,0.0,-0.01589775,0.0023377165,-0.00034227967,0.005072266,0.0,0.0,-0.042150497,0.05065701,0.0
35120000,0.062137306,-0.114133835,0.04234743,0.096027374,-0.20071411,0.0,0.0,0.0,0.0,0.0,0.0,0.0,nan,nan,nan,nan,nan,nan,0.0,0.03866577,0.0,0.0,nan,0.0,0.0,-0.01589775,0.002276875,0.0004080236,0.0019065142,0.0,0.0,-0.05430031,0.0496675,0.0
35320000,0.027275547,-0.10866356,0.009252071,0.08304691,-0.20877075,0.0,0.0,0.0,0.0,0.0,0.0,0.0,nan,nan,nan,nan,nan,nan,0.0,0.07598877,0.0,0.0,nan,0.0,0.0,-0.01589775,0.003416188,-0.0001257509,-0.00028774142,0.0,0.0,-0.014877319,0.04872714,0.0
35520000,0.027275547,-0.10866356,0.009252071,0.08304691,-0.20877075,0.0,0.0,0.0,0.0,0.0,0.0,0.0,nan,nan,nan,nan,nan,nan,0.0,0.10507202,0.0,0.0,nan,0.0,0.0,-0.01589775,0.0029050782,0.0018437505,0.0024160445,0.0,0.0,-0.078445435,0.047588654,0.0
35720000,0.027649134,-0.10705185,-0.015042782,0.07058811,-0.21688843,0.0,0.0,0.0,0.0,0.0,0.0,0.0,nan,nan,nan,nan,nan,nan,0.0,0.09310913,0.0,0.0,nan,0.0,0.0,-0.01589775,4.8682094e-05,-0.00023292005,-0.0019060671,0.0,0.0,-0.0365963,0.046814904,0.0
35920000,0.0217105,-0.1318779,0.07455349,0.06844044,-0.21627808,0.0,0.0,0.0,0.0,0.0,0.0,0.0,nan,nan,nan,nan,nan,nan,0.0,0.061645508,0.0,0.0,nan,0.0,0.0,-0.01589775,-0.00019903481,-0.0015798956,-0.000734061,0.0,0.0,-0.072366714,0.045757473,0.0
36120000,0.01788862,-0.093307495,0.086615086,0.07213688,-0.14468384,0.0,0.0,0.0,0.0,0.0,0.0,0.0,nan,nan,nan,nan,nan,nan,0.0,0.14971924,0.0,0.0,nan,0.0,0.0,-0.01589775,0.0026687384,0.00048179924,0.0028749108,0.0,0.0,-0.04184532,0.044730786,0.0
36320000,0.023243435,-0.13934517,0.1077981,0.06351471,-0.30108643,0.0,0.0,0.0,0.0,0.0,0.0,0.0,nan,nan,nan,nan,nan,nan,0.0,0.07458496,0.0,0.0,nan,0.0,0.0,-0.01589775,0.0009051785,-0.00055368245,0.00262326,0.0,0.0,-0.031578064,0.043456,0.0
36520000,0.004654348,-0.091070175,0.10291386,0.059991837,-0.14535522,0.0,0.0,0.0,0.0,0.0,0.0,0.0,nan,nan,nan,nan,nan,nan,0.0,0.080596924,0.0,0.0,nan,0.0,0.0,-0.01589775,7.677078e-05,0.0018850863,-0.001562804,0.0,0.0,-0.085300446,0.042510003,0.0
36720000,-0.0048271436,-0.09053421,0.015498638,0.05504322,-0.3078003,0.0,0.0,0.0,0.0,0.0,0.0,0.0,nan,nan,nan,nan,nan,nan,0.0,0.072753906,0.0,0.0,nan,0.0,0.0,-0.01589775,-0.000333108,-0.00039446354,0.0006712377,0.0,0.0,-0.032863617,0.041509878,0.0
36920000,-0.0001965299,-0.08677101,0.08339453,0.05780983,-0.2243042,0.0,0.0,0.0,0.0,0.0,0.0,0.0,nan,nan,nan,nan,nan,nan,0.0,0.025054932,0.0,0.0,nan,0.0,0.0,-0.01589775,0.003994718,0.00052306056,-0.00029444695,0.0,0.0,-0.005411148,0.04057266,0.0
37120000,0.022883585,-0.09268379,0.02080059,0.05579853,-0.2300415,0.0,0.0,0.0,0.0,0.0,0.0,0.0,nan,nan,nan,nan,nan,nan,0.0,0.023132324,0.0,0.0,nan,0.0,0.0,-0.01589775,0.0018093884,0.001087442,0.00037625432,0.0,0.0,-0.03491211,0.039411597,0.0
37320000,0.003581155,-0.075941086,-0.03203821,0.04737854,-0.22836304,0.0,0.0,0.0,0.0,0.0,0.0,0.0,nan,nan,nan,nan,nan,nan,0.0,0.023223877,0.0,0.0,nan,0.0,0.0,-0.01589775,0.0006541386,-0.0013258606,0.000116199255,0.0,0.0,-0.027318954,0.03835171,0.0
37520000,0.019810528,-0.095653534,0.06504297,0.04652214,-0.2326355,0.0,0.0,0.0,0.0,0.0,0.0,0.0,nan,nan,nan,nan,nan,nan,0.0,0.044952393,0.0,0.0,nan,0.0,0.0,-0.01589775,-0.00025036186,0.0003644824,9.6708536e-05,0.0,0.0,-0.058229446,0.037508957,0.0
37720000,0.015578479,-0.094278336,0.0992322,0.039697647,-0.16027832,0.0,0.0,0.0,0.0,0.0,0.0,0.0,nan,nan,nan,nan,nan,nan,0.0,-0.02859497,0.0,0.0,nan,0.0,0.0,-0.01589775,0.0006680861,0.0011261851,-0.00085416436,0.0,0.0,-0.026851654,0.036680274,0.0
37920000,0.0067414194,-0.109012604,0.022201538,0.03761959,-0.3086853,0.0,0.0,0.0,0.0,0.0,0.0,0.0,nan,nan,nan,nan,nan,nan,0.0,0.11691284,0.0,0.0,nan,0.0,0.0,-0.01589775,0.0026998818,0.0003132522,0.0015867949,0.0,0.0,0.025213242,0.035896845,0.0
38120000,0.014516443,-0.06587219,0.076770306,0.041855812,-0.15060425,0.0,0.0,0.0,0.0,0.0,0.0,0.0,nan,nan,nan,nan,nan,nan,0.0,0.12756348,0.0,0.0,nan,0.0,0.0,-0.01589775,0.00048626214,-0.0003284514,0.0012549162,0.0,0.0,-0.046842575,0.035433643,0.0
38320000,-0.019631281,-0.058502197,0.07003498,0.03549385,-0.30767822,0.0,0.0,0.0,0.0,0.0,0.0,0.0,nan,nan,nan,nan,nan,nan,0.0,0.12155151,0.0,0.0,nan,0.0,0.0,-0.01589775,0.0031352341,-0.00074727833,-0.00039619207,0.0,0.0,0.051527023,0.034635905,0.0
38520000,0.0071953535,-0.0818634,0.065336704,0.037549973,-0.22146606,0.0,0.0,0.0,0.0,0.0,0.0,0.0,nan,nan,nan,nan,nan,nan,0.0,-0.021209717,0.0,0.0,nan,0.0,0.0,-0.01589775,0.00053664297,0.004040718,-0.00069755316,0.0,0.0,-0.074588776,0.03327824,0.0
38720000,-0.0021051913,-0.08222771,0.023172855,0.02812481,-0.21783447,0.0,0.0,0.0,0.0,0.0,0.0,0.0,nan,nan,nan,nan,nan,nan,0.0,0.02243042,0.0,0.0,nan,0.0,0.0,-0.01589775,0.0026952252,-0.0013545007,-0.0024401546,0.0,0.0,-0.06295776,0.03227612,0.0
38920000,-0.021808818,-0.069784164,0.12682152,0.022283554,-0.21679688,0.0,0.0,0.0,0.0,0.0,0.0,0.0,nan,nan,nan,nan,nan,nan,0.0,0.020965576,0.0,0.0,nan,0.0,0.0,-0.01589775,0.00078970194,0.001109615,-0.00024873018,0.0,0.0,0.05311203,0.031537946,0.0
39120000,-0.014231101,-0.0727005,0.0770731,0.03204155,-0.21105957,0.0,0.0,0.0,0.0,0.0,0.0,0.0,nan,nan,nan,nan,nan,nan,0.0,0.05480957,0.0,0.0,nan,0.0,0.0,-0.01589775,0.0012568235,-0.0021211505,0.00014179945,0.0,0.0,0.00985527,0.031006157,0.0
39320000,-0.016773164,-0.069293976,0.079530716,0.03119564,-0.14031982,0.0,0.0,0.0,0.0,0.0,0.0,0.0,nan,nan,nan,nan,nan,nan,0.0,0.030426025,0.0,0.0,nan,0.0,0.0,-0.01589775,-0.002302505,0.0031996816,0.0022977889,0.0,0.0,-0.028263092,0.03066655,0.0
39520000,0.0030022562,-0.058660507,0.0771656,0.0217247,-0.2888794,0.0,0.0,0.0,0.0,0.0,0.0,0.0,nan,nan,nan,nan,nan,nan,0.0,0.1222229,0.0,0.0,nan,0.0,0.0,-0.01589775,0.0034169108,-0.002321139,0.0026081204,0.0,0.0,-0.00434494,0.030254915,0.0
39720000,-0.022034124,-0.06886482,0.10504246,0.024319649,-0.12835693,0.0,0.0,0.0,0.0,0.0,0.0,0.0,nan,nan,nan,nan,nan,nan,0.0,0.05215454,0.0,0.0,nan,0.0,0.0,-0.01589775,0.00090221316,-0.0010446906,0.0009922981,0.0,0.0,-0.041740417,0.029373921,0.0
39920000,0.0054961443,-0.04597664,0.10112953,0.017827988,-0.27490234,0.0,0.0,0.0,0.0,0.0,0.0,0.0,nan,nan,nan,nan,nan,nan,0.0,0.09152222,0.0,0.0,nan,0.0,0.0,-0.01589775,0.001971215,0.00056809187,0.00296247,0.0,0.0,0.071294785,0.029145231,0.0
40120000,-0.0024356842,-0.06676483,0.07376385,0.011875153,-0.19683838,0.0,0.0,0.0,0.0,0.0,0.0,0.0,nan,nan,nan,nan,nan,nan,0.0,0.08328247,0.0,0.0,nan,0.0,0.0,-0.01589775,0.0012648478,-0.00018520653,0.0009459555,0.0,0.0,0.09441948,0.028664902,0.0
40320000,-0.01774913,-0.051267624,0.0806098,0.0058135986,-0.1906128,0.0,0.0,0.0,0.0,0.0,0.0,0.0,nan,nan,nan,nan,nan,nan,0.0,0.122039795,0.0,0.0,nan,0.0,0.0,-0.01589775,-0.0012652054,-0.00031259656,0.0027039945,0.0,0.0,0.35512352,0.029067587,0.0
40520000,-0.0026982725,-0.045951843,0.11778259,0.0049209595,-0.18572998,0.0,0.0,0.0,0.0,0.0,0.0,0.0,nan,nan,nan,nan,nan,nan,0.0,0.08154297,0.0,0.0,nan,0.0,0.0,-0.01589775,0.0027223453,0.0003644228,0.00038084388,0.0,0.0,0.18651581,0.030041486,0.0
40720000,-0.056925923,-0.028640747,0.04734087,0.0025539398,-0.19018555,0.0,0.0,0.0,0.0,0.0,0.0,0.0,nan,nan,nan,nan,nan,nan,0.0,0.13046265,0.0,0.0,nan,0.0,0.0,-0.01589775,0.0012229457,-0.00068312883,-0.00019571185,0.0,0.0,0.18437195,0.029745566,0.0
40920000,-0.0453417,-0.0413208,0.08981323,0.00057697296,-0.120910645,0.0,0.0,0.0,0.0,0.0,0.0,0.0,nan,nan,nan,nan,nan,nan,0.0,0.029571533,0.0,0.0,nan,0.0,0.0,-0.01589775,0.0024462305,-0.0004298836,0.0003900528,0.0,0.0,0.030879974,0.029835833,0.0
41120000,-0.07323885,-0.030164719,0.06332421,-0.010714531,-0.25372314,0.0,0.0,0.0,0.0,0.0,0.0,0.0,nan,nan,nan,nan,nan,nan,0.0,0.094696045,0.0,0.0,nan,0.0,0.0,-0.01589775,0.0027378425,0.0003478825,0.0012076795,0.0,0.0,0.10826874,0.028393118,0.0
41320000,-0.07544476,-0.051794052,0.101834536,-0.017461777,-0.113220215,0.0,0.0,0.0,0.0,0.0,0.0,0.0,nan,nan,nan,nan,nan,nan,0.0,0.058807373,0.0,0.0,nan,0.0,0.0,-0.01589775,0.00077307597,0.00044625998,0.0013602078,0.0,0.0,0.07610321,0.02862522,0.0
41520000,-0.09092075,-0.039230347,0.11421299,-0.028272629,-0.2555542,0.0,0.0,0.0,0.0,0.0,0.0,0.0,nan,nan,nan,nan,nan,nan,0.0,0.11935425,0.0,0.0,nan,0.0,0.0,-0.01589775,-5.4042786e-05,0.00031863153,0.00084105134,0.0,0.0,-0.02158165,0.028233571,0.0
41720000,-0.086747944,-0.039366722,0.04027325,-0.030788422,-0.18237305,0.0,0.0,0.0,0.0,0.0,0.0,0.0,nan,nan,nan,nan,nan,nan,0.0,0.020355225,0.0,0.0,nan,0.0,0.0,-0.01589775,-0.00062191486,0.0013616979,0.0016761124,0.0,0.0,0.03715515,0.025999116,0.0
41920000,-0.095057964,-0.044402122,0.09159142,-0.035596848,-0.17669678,0.0,0.0,0.0,0.0,0.0,0.0,0.0,nan,nan,nan,nan,nan,nan,0.0,0.0640564,0.0,0.0,nan,0.0,0.0,-0.01589775,0.0010767248,-0.0009704679,-0.00069487095,0.0,0.0,0.032380104,0.025844475,0.0
42120000,-0.07122785,-0.024719238,0.062264442,-0.034025192,-0.175354,0.0,0.0,0.0,0.0,0.0,0.0,0.0,nan,nan,nan,nan,nan,nan,0.0,0.07684326,0.0,0.0,nan,0.0,0.0,-0.01589775,0.0021260371,-0.00021022558,-0.00084990263,0.0,0.0,0.045882225,0.024856351,0.0
42320000,-0.10808611,-0.045643806,0.030958973,-0.0498147,-0.17364502,0.0,0.0,0.0,0.0,0.0,0.0,0.0,nan,nan,nan,nan,nan,nan,0.0,0.00076293945,0.0,0.0,nan,0.0,0.0,-0.01589775,0.0017243,0.00056266785,0.0020800233,0.0,0.0,0.014491081,0.023340136,0.0
42520000,-0.09054053,-0.020557404,0.04095976,-0.054184914,-0.09918213,0.0,0.0,0.0,0.0,0.0,0.0,0.0,nan,nan,nan,nan,nan,nan,0.0,0.015533447,0.0,0.0,nan,0.0,0.0,-0.01589775,-0.0002540592,0.0007703155,-0.0032872558,0.0,0.0,0.0037050247,0.02349118,0.0
42720000,-0.08124143,-0.016454697,0.078854024,-0.06679869,-0.22399902,0.0,0.0,0.0,0.0,0.0,0.0,0.0,nan,nan,nan,nan,nan,nan,0.0,0.11898804,0.0,0.0,nan,0.0,0.0,-0.01589775,-0.0005916804,0.0034932494,-0.002072662,0.0,0.0,-0.0890789,0.022641083,0.0
42920000,-0.0944885,-0.011405945,0.019296378,-0.06293392,-0.09674072,0.0,0.0,0.0,0.0,0.0,0.0,0.0,nan,nan,nan,nan,nan,nan,0.0,0.09591675,0.0,0.0,nan,0.0,0.0,-0.01589775,0.001043668,-0.0010517538,0.00016263127,0.0,0.0,0.06546497,0.021162394,0.0
43120000,-0.09672654,0.0040979385,0.03487283,-0.079200745,-0.22583008,0.0,0.0,0.0,0.0,0.0,0.0,0.0,nan,nan,nan,nan,nan,nan,0.0,0.15310669,0.0,0.0,nan,0.0,0.0,-0.01589775,8.895993e-05,0.00059491396,-0.0016258955,0.0,0.0,0.10962582,0.020921217,0.0
43320000,-0.10691553,0.0009355545,0.0029774904,-0.07944155,-0.1531372,0.0,0.0,0.0,0.0,0.0,0.0,0.0,nan,nan,nan,nan,nan,nan,0.0,0.094818115,0.0,0.0,nan,0.0,0.0,-0.01589775,-2.7492642e-05,0.0022639632,0.00090774894,0.0,0.0,0.025836945,0.020164093,0.0
43520000,-0.09078455,-0.021230698,0.080381215,-0.079209805,-0.1529541,0.0,0.0,0.0,0.0,0.0,0.0,0.0,nan,nan,nan,nan,nan,nan,0.0,-0.021087646,0.0,0.0,nan,0.0,0.0,-0.01589775,-0.0024727918,-7.022917e-05,0.0022993088,0.0,0.0,-0.09987831,0.018505882,0.0
43720000,-0.085893095,-0.016127586,0.02598393,-0.081932545,-0.14880371,0.0,0.0,0.0,0.0,0.0,0.0,0.0,nan,nan,nan,nan,nan,nan,0.0,0.049438477,0.0,0.0,nan,0.0,0.0,-0.01589775,0.0013312567,0.0009991527,-0.00037154555,0.0,0.0,0.06432533,0.018499017,0.0
43920000,-0.08623952,0.0032043457,-0.031910658,-0.08940315,-0.14141846,0.0,0.0,0.0,0.0,0.0,0.0,0.0,nan,nan,nan,nan,nan,nan,0.0,-0.099487305,0.0,0.0,nan,0.0,0.0,-0.01589775,-0.0003185384,0.001191169,-0.0015659928,0.0,0.0,-0.033737183,0.017991124,0.0
44120000,-0.0839653,0.019818306,0.011604488,-0.07659006,-0.073791504,0.0,0.0,0.0,0.0,0.0,0.0,0.0,nan,nan,nan,nan,nan,nan,0.0,0.008148193,0.0,0.0,nan,0.0,0.0,-0.01589775,-0.001536835,0.0026266277,0.0018320382,0.0,0.0,-0.04043579,0.016790224,0.0
44320000,-0.04342252,0.030555725,-0.025826097,-0.083173275,-0.20202637,0.0,0.0,0.0,0.0,0.0,0.0,0.0,nan,nan,nan,nan,nan,nan,0.0,0.04537964,0.0,0.0,nan,0.0,0.0,-0.01589775,0.0008869413,0.0025859326,0.001993239,0.0,0.0,-0.021860123,0.01677839,0.0
44520000,-0.10560745,0.026024818,-0.040128767,-0.07626724,-0.0670166,0.0,0.0,0.0,0.0,0.0,0.0,0.0,nan,nan,nan,nan,nan,nan,0.0,-0.021850586,0.0,0.0,nan,0.0,0.0,-0.01589775,-0.00055114366,0.00014343858,-0.001272291,0.0,0.0,-0.11153889,0.016348265,0.0
44720000,-0.076883435,0.0033493042,0.017448187,-0.08451748,-0.19897461,0.0,0.0,0.0,0.0,0.0,0.0,0.0,nan,nan,nan,nan,nan,nan,0.0,0.010345459,0.0,0.0,nan,0.0,0.0,-0.01589775,-0.0013678242,0.0007427484,0.0019112825,0.0,0.0,0.05061245,0.01602114,0.0
44920000,-0.052744687,0.022574425,0.014877617,-0.079518795,-0.12213135,0.0,0.0,0.0,0.0,0.0,0.0,0.0,nan,nan,nan,nan,nan,nan,0.0,0.07064819,0.0,0.0,nan,0.0,0.0,-0.01589775,-0.00012924708,0.0016583353,0.0015690923,0.0,0.0,0.02090931,0.015357066,0.0
45120000,-0.041438878,0.03180504,-0.012919307,-0.07645607,-0.120910645,0.0,0.0,0.0,0.0,0.0,0.0,0.0,nan,nan,nan,nan,nan,nan,0.0,0.043426514,0.0,0.0,nan,0.0,0.0,-0.01589775,0.00268423,0.0001579225,0.0010970235,0.0,0.0,0.1335392,0.014775751,0.0
45320000,-0.039577246,0.036520958,-0.041335046,-0.07249975,-0.11383057,0.0,0.0,0.0,0.0,0.0,0.0,0.0,nan,nan,nan,nan,nan,nan,0.0,-0.023071289,0.0,0.0,nan,0.0,0.0,-0.01589775,0.0010101851,-0.0023234636,-0.001188457,0.0,0.0,0.009308815,0.0145320045,0.0
45520000,-0.028835297,0.016377449,-0.008464396,-0.07190657,-0.115722656,0.0,0.0,0.0,0.0,0.0,0.0,0.0,nan,nan,nan,nan,nan,nan,0.0,0.057495117,0.0,0.0,nan,0.0,0.0,-0.01589775,0.0013101287,0.0008481592,-0.0012944937,0.0,0.0,0.0605011,0.01451324,0.0
45720000,-0.028835297,0.016377449,-0.008464396,-0.07190657,-0.115722656,0.0,0.0,0.0,0.0,0.0,0.0,0.0,nan,nan,nan,nan,nan,nan,0.0,0.03878784,0.0,0.0,nan,0.0,0.0,-0.01589775,-0.0010000672,-0.0019152015,0.0008736253,0.0,0.0,0.04893017,0.014299365,0.0
45920000,-0.025286496,0.04956913,0.0045668483,-0.060726643,-0.04724121,0.0,0.0,0.0,0.0,0.0,0.0,0.0,nan,nan,nan,nan,nan,nan,0.0,0.047332764,0.0,0.0,nan,0.0,0.0,-0.01589775,0.00022182055,0.0029249936,-0.00018268824,0.0,0.0,-0.005033493,0.014570524,0.0
46120000,-0.01074028,0.01318264,-0.07135767,-0.075977325,-0.17626953,0.0,0.0,0.0,0.0,0.0,0.0,0.0,nan,nan,nan,nan,nan,nan,0.0,-0.029632568,0.0,0.0,nan,0.0,0.0,-0.01589775,0.0023106402,-0.00025825202,0.0033902526,0.0,0.0,0.08340168,0.014657227,0.0
46320000,-0.029184401,0.013637543,0.0060822964,-0.05886841,-0.049560547,0.0,0.0,0.0,0.0,0.0,0.0,0.0,nan,nan,nan,nan,nan,nan,0.0,0.0012207031,0.0,0.0,nan,0.0,0.0,-0.01589775,-0.0007027816,-0.0009262711,0.0011546314,0.0,0.0,-0.015376091,0.014189428,0.0
46520000,-0.0030525327,0.035793304,0.051436424,-0.06631994,-0.17541504,0.0,0.0,0.0,0.0,0.0,0.0,0.0,nan,nan,nan,nan,nan,nan,0.0,0.03036499,0.0,0.0,nan,0.0,0.0,-0.01589775,-0.00070675835,0.0005402416,0.00013655424,0.0,0.0,0.023723602,0.0141223185,0.0
46720000,-0.020110726,0.042440414,0.084006816,-0.05466938,-0.10498047,0.0,0.0,0.0,0.0,0.0,0.0,0.0,nan,nan,nan,nan,nan,nan,0.0,-0.0077209473,0.0,0.0,nan,0.0,0.0,-0.01589775,7.730536e-05,0.0014192164,-0.00020462275,0.0,0.0,0.0536108,0.014202718,0.0
46920000,0.0060693026,0.03997898,0.017265052,-0.05415559,-0.11010742,0.0,0.0,0.0,0.0,0.0,0.0,0.0,nan,nan,nan,nan,nan,nan,0.0,0.035125732,0.0,0.0,nan,0.0,0.0,-0.01589775,0.0010661613,0.0011366904,0.00024059415,0.0,0.0,0.02339077,0.014232688,0.0
47120000,0.020077467,0.0389719,-0.0073127747,-0.05952692,-0.10925293,0.0,0.0,0.0,0.0,0.0,0.0,0.0,nan,nan,nan,nan,nan,nan,0.0,-0.009521484,0.0,0.0,nan,0.0,0.0,-0.01589775,0.0021914244,0.0029030293,0.00069770217,0.0,0.0,-0.029248238,0.014003706,0.0
47320000,-0.015251577,0.016803741,0.037142485,-0.054980993,-0.110839844,0.0,0.0,0.0,0.0,0.0,0.0,0.0,nan,nan,nan,nan,nan,nan,0.0,-0.036102295,0.0,0.0,nan,0.0,0.0,-0.01589775,-0.002579594,7.95573e-05,-0.0006850064,0.0,0.0,-0.033926964,0.013933055,0.0
47520000,-0.011308134,0.029320717,0.05772978,-0.050763607,-0.04272461,0.0,0.0,0.0,0.0,0.0,0.0,0.0,nan,nan,nan,nan,nan,nan,0.0,0.07223511,0.0,0.0,nan,0.0,0.0,-0.01589775,0.004889261,4.670024e-05,-0.001005441,0.0,0.0,0.077157974,0.014051887,0.0
47720000,-0.007697612,0.016518593,0.050040886,-0.047674656,-0.18060303,0.0,0.0,0.0,0.0,0.0,0.0,0.0,nan,nan,nan,nan,nan,nan,0.0,0.048980713,0.0,0.0,nan,0.0,0.0,-0.01589775,0.002754841,0.0013376176,0.0006573796,0.0,0.0,0.036273003,0.013853751,0.0
47920000,-0.00857383,0.027994156,0.0025264323,-0.037433386,-0.04272461,0.0,0.0,0.0,0.0,0.0,0.0,0.0,nan,nan,nan,nan,nan,nan,0.0,-0.018035889,0.0,0.0,nan,0.0,0.0,-0.01589775,0.0003915392,0.0015352666,2.4169683e-05,0.0,0.0,-0.09685135,0.014452969,0.0
48120000,0.010861397,0.013487816,-0.007934898,-0.039081812,-0.18389893,0.0,0.0,0.0,0.0,0.0,0.0,0.0,nan,nan,nan,nan,nan,nan,0.0,0.014862061,0.0,0.0,nan,0.0,0.0,-0.01589775,-0.0013820697,0.0015199482,0.0041089654,0.0,0.0,0.0050001144,0.014728125,0.0
48320000,-0.017190456,0.0268507,0.025018916,-0.039687395,-0.10900879,0.0,0.0,0.0,0.0,0.0,0.0,0.0,nan,nan,nan,nan,nan,nan,0.0,-0.00289917,0.0,0.0,nan,0.0,0.0,-0.01589775,-0.00033843657,0.0007599592,0.0028981268,0.0,0.0,-0.009747505,0.015300915,0.0
48520000,-0.0068672,0.03664112,0.0709274,-0.036925316,-0.105163574,0.0,0.0,0.0,0.0,0.0,0.0,0.0,nan,nan,nan,nan,nan,nan,0.0,0.07601929,0.0,0.0,nan,0.0,0.0,-0.01589775,0.0015254947,0.0031844527,0.00071299076,0.0,0.0,0.054470062,0.015629832,0.0
48720000,-0.02221778,0.012058258,0.08309972,-0.039277315,-0.11071777,0.0,0.0,0.0,0.0,0.0,0.0,0.0,nan,nan,nan,nan,nan,nan,0.0,0.017669678,0.0,0.0,nan,0.0,0.0,-0.01589775,0.0015378476,0.00037240982,0.0014910102,0.0,0.0,0.0013771057,0.016102668,0.0
48920000,0.0028143078,-0.0045700073,0.03878042,-0.028410435,-0.11035156,0.0,0.0,0.0,0.0,0.0,0.0,0.0,nan,nan,nan,nan,nan,nan,0.0,0.12069702,0.0,0.0,nan,0.0,0.0,-0.01589775,0.00061912055,0.002425909,0.0048128963,0.0,0.0,0.048277855,0.016396148,0.0
49120000,0.00374344,-0.023410797,0.045672446,-0.024930954,-0.048950195,0.0,0.0,0.0,0.0,0.0,0.0,0.0,nan,nan,nan,nan,nan,nan,0.0,0.069244385,0.0,0.0,nan,0.0,0.0,-0.01589775,-0.0018542467,-3.7819147e-05,0.0003669262,0.0,0.0,-0.021731377,0.016532842,0.0
49320000,-0.021800369,-0.011247635,0.08585619,-0.040454626,-0.17608643,0.0,0.0,0.0,0.0,0.0,0.0,0.0,nan,nan,nan,nan,nan,nan,0.0,0.06274414,0.0,0.0,nan,0.0,0.0,-0.01589775,0.0018667121,-0.00045111775,0.0032857656,0.0,0.0,0.0019750595,0.016587468,0.0
49520000,-0.002955556,0.02070713,0.033684224,-0.032056093,-0.04840088,0.0,0.0,0.0,0.0,0.0,0.0,0.0,nan,nan,nan,nan,nan,nan,0.0,0.111694336,0.0,0.0,nan,0.0,0.0,-0.01589775,0.00085761107,0.0017268956,0.0015356541,0.0,0.0,0.032399178,0.016440118,0.0
49720000,0.023745574,0.017642975,0.026193313,-0.03226781,-0.18029785,0.0,0.0,0.0,0.0,0.0,0.0,0.0,nan,nan,nan,nan,nan,nan,0.0,0.038726807,0.0,0.0,nan,0.0,0.0,-0.01589775,-0.00200085,0.0022660196,0.00084140897,0.0,0.0,0.03695011,0.016172655,0.0
49920000,-0.025694147,0.019846916,0.07432133,-0.037629366,-0.107055664,0.0,0.0,0.0,0.0,0.0,0.0,0.0,nan,nan,nan,nan,nan,nan,0.0,0.06506348,0.0,0.0,nan,0.0,0.0,-0.01589775,0.0016362558,0.0030994713,0.0043093264,0.0,0.0,-0.07583237,0.016030526,0.0
50120000,-0.015478656,0.0047979355,0.06367876,-0.029143095,-0.10760498,0.0,0.0,0.0,0.0,0.0,0.0,0.0,nan,nan,nan,nan,nan,nan,0.0,0.17858887,0.0,0.0,nan,0.0,0.0,-0.01589775,-0.0013342521,-0.00062446296,0.0015419722,0.0,0.0,0.00365448,0.016036691,0.0
50320000,0.002256684,0.012921333,0.034585156,-0.036050797,-0.11621094,0.0,0.0,0.0,0.0,0.0,0.0,0.0,nan,nan,nan,nan,nan,nan,0.0,0.09854126,0.0,0.0,nan,0.0,0.0,-0.01589775,0.0011438485,0.0009010434,0.002535075,0.0,0.0,0.055520058,0.016206441,0.0
50520000,0.003320098,-0.010355949,0.08025716,-0.024277925,-0.11608887,0.0,0.0,0.0,0.0,0.0,0.0,0.0,nan,nan,nan,nan,nan,nan,0.0,0.040649414,0.0,0.0,nan,0.0,0.0,-0.01589775,0.0016429732,0.0019240826,-0.00138852,0.0,0.0,-0.052824974,0.015717534,0.0
50720000,-0.022801012,0.010623932,0.07041322,-0.025567293,-0.055847168,0.0,0.0,0.0,0.0,0.0,0.0,0.0,nan,nan,nan,nan,nan,nan,0.0,-0.023956299,0.0,0.0,nan,0.0,0.0,-0.01589775,0.0008792968,0.00020812452,0.0014013052,0.0,0.0,-0.04732418,0.015126908,0.0
50920000,0.023593474,-0.009884834,0.0568835,-0.025947094,-0.17352295,0.0,0.0,0.0,0.0,0.0,0.0,0.0,nan,nan,nan,nan,nan,nan,0.0,-0.00869751,0.0,0.0,nan,0.0,0.0,-0.01589775,-0.0014282609,0.00072698295,0.0006451607,0.0,0.0,-0.085819244,0.014751992,0.0
51120000,0.00651893,0.0028018951,0.081198715,-0.020401716,-0.047790527,0.0,0.0,0.0,0.0,0.0,0.0,0.0,nan,nan,nan,nan,nan,nan,0.0,-0.037261963,0.0,0.0,nan,0.0,0.0,-0.01589775,0.002405927,0.0009773225,-0.0020406246,0.0,0.0,0.07038975,0.014470747,0.0
51320000,0.00032426417,0.014976501,0.053484187,-0.02654457,-0.17993164,0.0,0.0,0.0,0.0,0.0,0.0,0.0,nan,nan,nan,nan,nan,nan,0.0,0.069885254,0.0,0.0,nan,0.0,0.0,-0.01589775,0.0034419242,0.0015128851,0.0026579797,0.0,0.0,0.050600052,0.014066819,0.0
51520000,0.015071094,-0.00582695,0.04284463,-0.020448685,-0.10852051,0.0,0.0,0.0,0.0,0.0,0.0,0.0,nan,nan,nan,nan,nan,nan,0.0,0.05065918,0.0,0.0,nan,0.0,0.0,-0.01589775,0.002864833,0.00073492527,0.0013237596,0.0,0.0,0.051745415,0.013718471,0.0
51720000,0.021541085,0.0029392242,0.015682295,-0.018782139,-0.107055664,0.0,0.0,0.0,0.0,0.0,0.0,0.0,nan,nan,nan,nan,nan,nan,0.0,0.056121826,0.0,0.0,nan,0.0,0.0,-0.01589775,0.0018835105,-0.00052927434,-0.0013921559,0.0,0.0,0.0011501312,0.01330332,0.0
51920000,-0.021745842,0.016226768,0.120136455,-0.028501272,-0.10876465,0.0,0.0,0.0,0.0,0.0,0.0,0.0,nan,nan,nan,nan,nan,nan,0.0,0.053894043,0.0,0.0,nan,0.0,0.0,-0.01589775,0.0014665979,0.004325062,5.6415796e-05,0.0,0.0,0.080010414,0.012933957,0.0
52120000,-0.011347618,0.01071167,0.05777403,-0.022456408,-0.10345459,0.0,0.0,0.0,0.0,0.0,0.0,0.0,nan,nan,nan,nan,nan,nan,0.0,0.055511475,0.0,0.0,nan,0.0,0.0,-0.01589775,0.0007131486,0.0014695823,0.0039503872,0.0,0.0,-0.0068979263,0.012878741,0.0
52320000,-0.0153389275,0.0083732605,0.033168115,-0.017531157,-0.041503906,0.0,0.0,0.0,0.0,0.0,0.0,0.0,nan,nan,nan,nan,nan,nan,0.0,-0.0073547363,0.0,0.0,nan,0.0,0.0,-0.01589775,0.001080675,-0.0026173592,-0.00019845366,0.0,0.0,-0.0032644272,0.01314626,0.0
52520000,0.012984678,0.024339676,0.07233049,-0.015164375,-0.17041016,0.0,0.0,0.0,0.0,0.0,0.0,0.0,nan,nan,nan,nan,nan,nan,0.0,0.11126709,0.0,0.0,nan,0.0,0.0,-0.01589775,0.0003066687,0.002422914,0.0009822547,0.0,0.0,0.04349518,0.012559525,0.0
52720000,0.009897694,0.0010490417,0.060056202,-0.014283657,-0.037475586,0.0,0.0,0.0,0.0,0.0,0.0,0.0,nan,nan,nan,nan,nan,nan,0.0,0.08621216,0.0,0.0,nan,0.0,0.0,-0.01589775,-0.0014527705,-0.0010857135,0.00015106797,0.0,0.0,-0.027041435,0.012422034,0.0
