timestamp,lat,lon,alt,alt_ellipsoid,delta_alt,vel_n,vel_e,vel_d,yaw,eph,epv,terrain_alt,lat_lon_reset_counter,alt_reset_counter,terrain_alt_valid,dead_reckoning
5336000,47.39774193625893,8.545594186451243,488.19617,0.0,-0.0,0.00015854614,-0.000967756,-0.03938131,1.6329007,1.4142135,1.0262468,488.0768,2,0,1,0
5536000,47.39774195065783,8.545594046136648,488.17465,-0.0211792,-0.0,-0.002889569,-0.0014154981,-0.028034948,1.6324105,1.2915689,1.0206622,488.0645,2,0,1,0
5736000,47.39774196748402,8.54559395792912,488.1574,-0.037719727,-0.0,-0.003045017,0.0019355316,-0.021512942,1.6314403,1.2946254,1.0188287,488.05966,2,0,1,0
5936000,47.397741974218604,8.545593935471626,488.14584,-0.048339844,-0.0,-0.0063599413,0.007333775,-0.018478632,1.6312051,1.2307523,1.0183406,488.05447,2,0,1,0
6136000,47.39774195009923,8.545593954315807,488.13904,-0.05404663,-0.0,-0.009060751,0.01371615,-0.016491737,1.6310453,1.1917828,1.0184044,488.0535,2,0,1,0
6336000,47.39774191297548,8.545593994194638,488.13327,-0.05859375,-0.0,-0.016303064,0.017758684,-0.017264947,1.6306379,1.1659671,1.0185821,488.04837,2,0,1,0
6536000,47.39774187627784,8.545594046859613,488.13013,-0.06048584,-0.0,-0.018564405,0.02629329,-0.011730258,1.6303663,1.1480751,1.0186816,488.04703,2,0,1,0
6736000,47.39774184563763,8.54559411481322,488.12912,-0.0602417,-0.0,-0.023678796,0.03321679,-0.010693309,1.630449,1.1352849,1.0186387,488.04886,2,0,1,0
6936000,47.397741816988585,8.545594178962986,488.1289,-0.0592041,-0.0,-0.028703198,0.039903734,-0.009940706,1.6303885,1.1260529,1.0184584,488.0483,2,0,1,0
7136000,47.39774178866068,8.545594239439945,488.13022,-0.05670166,-0.0,-0.033013508,0.04526341,-0.009681142,1.6302928,1.1192851,1.0181718,488.0462,2,0,1,0
7336000,47.397741766605954,8.545594299134253,488.1313,-0.054504395,-0.0,-0.03584402,0.048887774,-0.013431675,1.6298167,1.1143568,1.0178205,488.04547,2,0,1,0
7536000,47.39774174951403,8.54559431774942,488.13013,-0.054534912,-0.0,-0.037526526,0.047828835,-0.012328761,1.6293597,1.1106831,1.017442,488.04453,2,0,1,0
7736000,47.39774173868489,8.545594327204691,488.13303,-0.050567627,-0.0,-0.037007004,0.047304317,-0.012588031,1.6288319,1.1079854,1.0170699,488.0472,2,0,1,0
7936000,47.39774173682141,8.54559430800122,488.13455,-0.048034668,-0.0,-0.03750441,0.04563076,-0.012368312,1.6281853,1.1058993,1.0167292,488.0469,2,0,1,0
8136000,47.39774174721772,8.545594288316105,488.13583,-0.045806885,-0.0,-0.03580001,0.03831746,-0.013713617,1.6276964,1.1043316,1.016439,488.04373,2,0,1,0
8336000,47.39774176163097,8.545594299447496,488.1349,-0.04675293,-0.0,-0.03236072,0.03739289,-0.01229339,1.6267601,1.1030421,1.0162098,488.0416,2,0,1,0
8536000,47.39774177654972,8.545594305161686,488.13397,-0.046722412,-0.0,-0.02953161,0.036133382,-0.01357393,1.6257656,1.1020417,1.0160481,488.04245,2,0,1,0
8736000,47.39774179273048,8.545594304855074,488.13336,-0.04638672,-0.0,-0.028045591,0.033878967,-0.011748185,1.6249379,1.1011549,1.0159521,488.03946,2,0,1,0
8936000,47.397741814826325,8.545594298278314,488.13425,-0.044555664,-0.0,-0.022210594,0.034771834,-0.009732005,1.623842,1.1004437,1.0159173,488.0439,2,0,1,0
9136000,47.397741848449364,8.545594270908108,488.1347,-0.043182373,-0.0,-0.016374972,0.02968391,-0.008111358,1.6224453,1.0997663,1.015933,488.04306,2,0,1,0
9336000,47.397741879595884,8.545594228746497,488.1357,-0.041290283,-0.0,-0.010764394,0.023342825,-0.006446423,1.6213111,1.099207,1.0159883,488.04218,2,0,1,0
9536000,47.39774190448467,8.545594178104164,488.13522,-0.040924072,-0.0,-0.0056891744,0.020313356,-0.003996494,1.6205891,1.0986438,1.0160681,488.03946,2,0,1,0
9736000,47.39774192220064,8.545594133544238,488.13263,-0.042663574,-0.0,-0.000675605,0.015171972,-0.00089906546,1.6200478,1.0981681,1.0161601,488.03842,2,0,1,0
9936000,47.397741938794134,8.54559409316944,488.13013,-0.044281006,-0.0,6.3833155e-05,0.010172511,0.00016237781,1.6194166,1.097669,1.0162506,488.03467,2,0,1,0
10136000,47.39774194275866,8.545594057049868,488.13055,-0.042938232,-0.0,0.00026684234,0.0053821877,-0.0012231192,1.6189284,1.0972396,1.0163304,488.03638,2,0,1,0
10336000,47.39774194286438,8.545594023134967,488.1295,-0.043121338,-0.0,0.0042586816,0.003450363,-0.0011407096,1.6184133,1.0967764,1.0163903,488.0321,2,0,1,0
10536000,47.39774194750391,8.54559400004347,488.12744,-0.044281006,-0.0,0.0055073635,0.0033003867,-7.902437e-05,1.61773,1.0963719,1.0164263,488.03134,2,0,1,0
10736000,47.39774194923702,8.545593997262976,488.12476,-0.046051025,-0.0,0.00014033163,0.005200733,0.00259162,1.6168928,1.0959295,1.0164341,488.0291,2,0,1,0
10936000,47.39774194359477,8.545594006812886,488.12164,-0.048217773,-0.0,-0.0009773138,0.0045428546,0.0054251896,1.6158499,1.0955371,1.016414,488.02585,2,0,1,0
11136000,47.397741936379774,8.545594011533504,488.11728,-0.051574707,-0.0,-0.0010815341,0.0027726481,0.0070693498,1.6153446,1.0951049,1.0163656,488.0215,2,0,1,0
11336000,47.39774193595944,8.545594007056653,488.1151,-0.05267334,-0.0,-0.0011176685,0.0043841084,0.009785635,1.6150919,1.094718,1.016292,488.02094,2,0,1,0
11536000,47.397741938290956,8.545594007137089,488.11368,-0.053009033,-0.0,-0.0021481852,0.0051810476,0.008940722,1.6145483,1.0942913,1.0161945,488.0191,2,0,1,0
11736000,47.39774193930748,8.545594030278568,488.112,-0.053588867,-0.0,-0.0021076517,0.008349916,0.0098287,1.613985,1.0939062,1.0160769,488.01852,2,0,1,0
11936000,47.397741940474,8.545594060836603,488.11148,-0.053009033,-0.0,-0.00011758413,0.007531006,0.0075066257,1.6132857,1.0934819,1.0159417,488.02032,2,0,1,0
12136000,47.3977419481684,8.545594069499113,488.1121,-0.051330566,-0.0,0.0028742047,0.007943718,0.010866125,1.6130308,1.0930967,1.0157927,488.0202,2,0,1,0
12336000,47.39774196918003,8.545594087112491,488.1124,-0.049987793,-0.0,-0.007753865,0.37805265,0.017639821,1.6129869,1.0926746,1.015632,488.0202,2,0,1,0
12536000,47.397741609199436,8.545607700872191,488.0902,-0.07104492,-0.0,-0.38339996,9.348591,0.20852394,1.6126649,1.0922894,1.015462,488.0176,2,0,1,0
12736000,47.3977408154717,8.545640575059428,488.03824,-0.121154785,-0.0,-0.5983361,15.019228,0.3228074,1.6116041,1.0918043,1.015306,487.99533,2,0,1,0
12936000,47.397740173839736,8.545685748185445,487.9834,-0.17294312,-0.0,-0.6820888,18.834078,0.31111324,1.6534663,1.0912975,1.0154587,487.95966,2,0,1,0
13136000,47.39773952154836,8.545739089085858,487.94577,-0.20663452,-0.0,-0.8954969,21.193985,0.32045013,1.6206894,1.0907459,1.0160182,487.93158,2,0,1,0
13336000,47.39773903234896,8.545797210286013,487.9176,-0.23022461,-0.0,-0.8753321,22.522251,0.2869493,1.595689,1.0902635,1.0167626,487.91974,2,0,1,0
13536000,47.39773839189996,8.545858041791197,487.96613,-0.17712402,-0.0,-1.1163312,23.204466,-0.4053948,1.6227984,1.089762,1.0173975,487.90903,2,0,1,0
13736000,47.39773699860675,8.54592009289664,488.20047,0.058624268,-0.0,-1.4812567,23.447168,-1.3126731,1.6306068,1.0892962,1.0177504,487.90903,2,0,1,0
13936000,47.39773474668016,8.54598255101361,488.59515,0.44796753,-0.0,-1.824532,23.486748,-2.0115561,1.6433384,1.08886,1.017781,487.90903,2,0,1,0
14136000,47.39773158367749,8.546044981876275,489.12842,0.96588135,-0.0,-2.2125041,23.370216,-2.7233276,1.6641605,1.0885103,1.0175662,487.90903,2,0,1,0
14336000,47.39772745748125,8.546107067836184,489.79257,1.6096497,-0.0,-2.607098,23.165424,-3.4066062,1.6788437,1.0881599,1.0171888,487.90903,2,0,1,0
14536000,47.39772245299305,8.546168658621061,490.585,2.3816833,-0.0,-2.9814904,22.907764,-4.0475235,1.6955928,1.0878894,1.0167288,487.90903,2,0,1,0
14736000,47.39771662442562,8.546229504826268,491.50186,3.2781677,-0.0,-3.360218,22.591175,-4.7017093,1.7135806,1.087618,1.0162419,487.90903,2,0,1,0
14935999,47.397709982257226,8.546289476806752,492.5448,4.30072,-0.0,-3.7312884,22.224852,-5.3715253,1.7297895,1.0874039,1.0157682,487.90903,2,0,1,0
15136000,47.39770257496642,8.546348561890454,493.7148,5.450348,-0.0,-4.0716114,21.866022,-5.958488,1.7442237,1.0871814,1.0153284,487.90903,2,0,1,0
15336000,47.39769461130427,8.54640681881792,494.9823,6.6974487,-0.0,-4.2621374,21.6135,-6.341357,1.7495272,1.0870185,1.0149393,487.90903,2,0,1,0
15536000,47.39768638805843,8.546464580973554,496.3086,8.003357,-0.0,-4.311245,21.468939,-6.561241,1.7492489,1.0868436,1.0146103,487.90903,2,0,1,0
15736000,47.3976781111094,8.546522038516216,497.67056,9.34494,-0.0,-4.2673864,21.38827,-6.7145123,1.7452462,1.0867056,1.0143433,487.90903,2,0,1,0
15936000,47.3976699720903,8.546579024911061,499.0519,10.705902,-0.0,-4.1187677,20.87738,-6.776029,1.7443085,1.1005398,1.0143076,487.90903,2,0,1,0
16136000,47.39766222344796,8.54663431438867,500.44073,12.074341,-0.0,-3.8848927,20.340431,-6.753772,1.7423302,1.1002355,1.0141151,487.90903,2,0,1,0
16336000,47.397654917008445,8.54668885864321,501.7749,13.388123,-0.0,-3.6535983,20.296867,-6.254734,1.7229059,1.0999571,1.0139437,487.90903,2,0,1,0
16536000,47.39764809490495,8.546743559396633,502.99582,14.588654,-0.0,-3.392867,20.442553,-5.7074943,1.7072052,1.0995692,1.0138083,487.90903,2,0,1,0
16736000,47.397641839461386,8.546798664584529,504.13562,15.708069,-0.0,-3.0850835,20.547659,-5.4294395,1.6961036,1.0991822,1.0137087,487.90903,2,0,1,0
16936000,47.397636202542564,8.546853933170178,505.2324,16.784454,-0.0,-2.7630143,20.624907,-5.2517962,1.6795186,1.0987537,1.0136327,487.90903,2,0,1,0
17136000,47.39763120264776,8.54690938056301,506.29724,17.828918,-0.0,-2.4284117,20.674583,-5.1204925,1.6623969,1.0983522,1.0135726,487.90903,2,0,1,0
17336000,47.39762679025724,8.546964854922976,507.34122,18.852509,-0.0,-2.1053522,20.698578,-5.049569,1.648631,1.0979055,1.0135229,487.90903,2,0,1,0
17536000,47.397622981039255,8.547020450316554,508.37335,19.864258,-0.0,-1.7923716,20.705568,-5.0137324,1.6341707,1.0974883,1.0134805,0.0,2,0,0,0
17736000,47.39761973220666,8.54707603669661,509.3976,20.868134,-0.0,-1.4994268,20.698536,-4.992882,1.6201184,1.0970308,1.0134429,0.0,2,0,0,0
17936000,47.397616999393726,8.54713153743375,510.41827,21.868408,-0.0,-1.229909,20.684135,-4.9760704,1.6082264,1.0966026,1.0134087,0.0,2,0,0,0
18136000,47.397614758132605,8.547186876811253,511.43738,22.867126,-0.0,-0.9833558,20.657522,-4.9779105,1.5974863,1.0961357,1.0133762,0.0,2,0,0,0
18336000,47.3976129248258,8.54724216663066,512.4549,23.864258,-0.0,-0.7653714,20.629364,-4.976533,1.5870453,1.0956981,1.0133448,0.0,2,0,0,0
18536000,47.39761147365875,8.547297346075066,513.47,24.879333,-0.0,-0.570931,20.601164,-4.9709163,1.5778989,1.0952243,1.0133129,0.0,2,0,0,0
18736000,47.397610341490626,8.547352416765369,514.48206,25.871033,-0.0,-0.40184173,20.571806,-4.9638395,1.5701092,1.0947782,1.0132804,0.0,2,0,0,0
18936000,47.39760949373315,8.547407317377218,515.4898,26.858398,-0.0,-0.25633952,20.540087,-4.9589005,1.5626376,1.0942982,1.0132463,0.0,2,0,0,0
19136000,47.39760888521145,8.547462180897194,516.49664,27.844849,-0.0,-0.13291422,20.509567,-4.959002,1.5563165,1.0938462,1.0132105,0.0,2,0,0,0
19336000,47.3976084932849,8.547516915085563,517.5012,28.82904,-0.0,-0.026915947,20.472218,-4.9606166,1.5507596,1.0933632,1.0131726,0.0,2,0,0,0
19536000,47.397608279024624,8.547571514062529,518.5052,29.812622,-0.0,0.062059995,20.43423,-4.9669447,1.5457835,1.092905,1.0131329,0.0,2,0,0,0
19736000,47.397608224737716,8.54762595147378,519.50714,30.79419,-0.0,0.14060496,20.392986,-4.97002,1.5414106,1.0924186,1.0130916,0.0,2,0,0,0
19936000,47.39760829235989,8.547680315706193,520.50555,31.772217,-0.0,0.20174482,20.350405,-4.964663,1.5379114,1.0919605,1.013049,0.0,2,0,0,0
20136000,47.397608456085294,8.547734550198955,521.5006,32.746887,-0.0,0.25241697,20.30715,-4.9563227,1.5349187,1.0914781,1.0130055,0.0,2,0,0,0
20336000,47.39760869285192,8.547788640760688,522.49396,33.71985,-0.0,0.29545477,20.263449,-4.9545093,1.5320526,1.0910251,1.0129617,0.0,2,0,0,0
20536000,47.397608994941784,8.547842548265447,523.4864,34.691895,-0.0,0.32811674,20.22082,-4.9474745,1.5297256,1.0905501,1.0129182,0.0,2,0,0,0
20736000,47.397609351675506,8.547896362317207,524.48,35.6651,-0.0,0.35683164,20.184233,-4.9357123,1.5275143,1.0901061,1.0128753,0.0,2,0,0,0
20936000,47.39760977329331,8.547950098729105,525.46783,36.63257,-0.0,0.38064876,20.153954,-4.919244,1.5257087,1.0896429,1.0128336,0.0,2,0,0,0
21136000,47.397610243131716,8.548003725470098,526.4491,37.593445,-0.0,0.40146166,20.115303,-4.9109845,1.5241284,1.0892117,1.0127934,0.0,2,0,0,0
21336000,47.39761075905627,8.548057193480894,527.42676,38.55072,-0.0,0.4163151,20.076307,-4.8972783,1.5227941,1.0887642,1.0127549,0.0,2,0,0,0
21536000,47.39761128913517,8.548110566618332,528.40063,39.50421,-0.0,0.42785934,20.038635,-4.8800945,1.521543,1.0883505,1.0127184,0.0,2,0,0,0
21736000,47.397611830924,8.548163854613112,529.3739,40.457092,-0.0,0.43857613,19.999546,-4.8739176,1.5202559,1.087923,1.0126841,0.0,2,0,0,0
21936000,47.397612377202364,8.54821701347368,530.3446,41.40741,-0.0,0.44594327,19.963724,-4.857903,1.5190319,1.0875304,1.0126522,0.0,2,0,0,0
22136000,47.39761294654796,8.548270017657698,531.309,42.35144,-0.0,0.45300618,19.920223,-4.846705,1.5178397,1.087127,1.0126224,0.0,2,0,0,0
22336000,47.397613538840076,8.54832290345292,532.2711,43.29315,-0.0,0.46105126,19.873304,-4.8353353,1.5170355,1.0867574,1.012595,0.0,2,0,0,0
22536000,47.39761413978072,8.54837570978177,533.23004,44.23169,-0.0,0.4702711,19.834064,-4.814681,1.5162416,1.0863794,1.0125699,0.0,2,0,0,0
22736000,47.39761474605198,8.548428391639234,534.18976,45.17102,-0.0,0.47835624,19.797182,-4.804075,1.5155256,1.0860354,1.012547,0.0,2,0,0,0
22936000,47.397615370064315,8.548480951053259,535.14795,46.108826,-0.0,0.48344272,19.762533,-4.7889094,1.5149316,1.085683,1.0125262,0.0,2,0,0,0
23136000,47.397616008301064,8.548533404849831,536.10114,47.041626,-0.0,0.4898451,19.72098,-4.781636,1.5142331,1.0853652,1.0125073,0.0,2,0,0,0
23336000,47.39761666181658,8.548585779991416,537.0487,47.96881,-0.0,0.49255976,19.680592,-4.7677217,1.5137805,1.0850368,1.0124903,0.0,2,0,0,0
23536000,47.39761732960826,8.548638048907458,537.99194,48.891663,-0.0,0.4941896,19.63615,-4.762474,1.5136772,1.0847433,1.012475,0.0,2,0,0,0
23736000,47.3976180172088,8.548690186663201,538.93427,49.81317,-0.0,0.4970578,19.596418,-4.7486897,1.5128295,1.0844386,1.0124613,0.0,2,0,0,0
23936000,47.397618707680664,8.548742154740017,539.8756,50.734528,-0.0,0.49462536,19.489937,-4.727499,1.5124109,1.0841677,1.0124491,0.0,2,0,0,0
24136000,47.397619384397004,8.548793538362439,540.7962,51.634735,-0.0,0.4781304,19.12641,-4.4863048,1.511187,1.0838865,1.0124383,0.0,2,0,0,0
24336000,47.39762004221537,8.548843938162689,541.6416,52.459747,-0.0,0.4735142,18.761477,-3.977068,1.5097619,1.0836333,1.0124302,0.0,2,0,0,0
24536000,47.39762072275658,8.548893449423828,542.3623,53.160065,-0.0,0.4825375,18.44987,-3.2747822,1.508449,1.0833534,1.0124258,0.0,2,0,0,0
24736000,47.39762146713605,8.54894213742581,542.9402,53.71756,-0.0,0.5025579,18.148123,-2.5753753,1.5059824,1.0830692,1.0124257,0.0,2,0,0,0
24936000,47.39762231515629,8.548990088532015,543.3887,54.14566,-0.0,0.5410349,17.861086,-1.9700683,1.5026746,1.0827382,1.0124303,0.0,2,0,0,0
25136000,47.39762328603751,8.549037332949908,543.7215,54.4581,-0.0,0.5918606,17.607344,-1.4212477,1.498742,1.0824064,1.0124407,0.0,2,0,0,0
25336000,47.39762440421362,8.549083924403414,543.9499,54.666107,-0.0,0.656475,17.391811,-0.93363494,1.4947509,1.0820459,1.0124567,0.0,2,0,0,0
25536000,47.39762566937384,8.549129956348896,544.0893,54.785126,-0.0,0.72197014,17.201439,-0.5166793,1.4903364,1.0817039,1.0124784,0.0,2,0,0,0
25736000,47.397627072182466,8.549175589343943,544.15063,54.82608,-0.0,0.7932222,17.042631,-0.15962757,1.4856732,1.0813471,1.012505,0.0,2,0,0,0
25936000,47.39762863695549,8.54922079663091,544.1467,54.80179,-0.0,0.8655864,16.904577,0.13354236,1.4814684,1.0810205,1.0125362,0.0,2,0,0,0
26136000,47.39763032888675,8.549265666595677,544.09235,54.72702,-0.0,0.9355652,16.78827,0.3660194,1.4771172,1.0904531,1.0126748,0.0,2,0,0,0
26336000,47.39763217620161,8.549310218296641,543.9953,54.60959,-0.0,1.0031176,16.69543,0.55337006,1.4732853,1.090083,1.0127139,0.0,2,0,0,0
26536000,47.397634160841605,8.549354607425387,543.8642,54.4581,-0.0,1.0663371,16.614717,0.70294976,1.4695128,1.0897588,1.0127543,0.0,2,0,0,0
26736000,47.39763624683806,8.54939879221837,543.70984,54.283356,-0.0,1.1191522,16.551092,0.81723773,1.4666106,1.0894412,1.0127947,0.0,2,0,0,0
26936000,47.39763841278184,8.54944283714069,543.53754,54.090668,-0.0,1.16261,16.495033,0.9047546,1.4642328,1.0891706,1.0128343,0.0,2,0,0,0
27136000,47.3976406655686,8.549486745842085,543.35126,53.884003,-0.0,1.2009817,16.457348,0.96948045,1.462405,1.0888995,1.0128717,0.0,2,0,0,0
27336000,47.39764296953333,8.549530624142363,543.15466,53.667023,-0.0,1.2273954,16.42821,1.0092278,1.4608604,1.0886749,1.0129062,0.0,2,0,0,0
27536000,47.39764530871675,8.54957442338652,542.9512,53.443146,-0.0,1.2470769,16.408545,1.0390757,1.4600774,1.088447,1.012937,0.0,2,0,0,0
27736000,47.39764765659902,8.54961817357586,542.74493,53.216522,-0.0,1.256284,16.394566,1.0523078,1.4598889,1.0882623,1.0129635,0.0,2,0,0,0
27936000,47.397649993875405,8.549661842678407,542.53784,52.989044,-0.0,1.2568365,16.381441,1.0547459,1.4601402,1.0880706,1.0129853,0.0,2,0,0,0
28136000,47.397652322823,8.549705553545468,542.3292,52.76004,-0.0,1.2456522,16.37688,1.0512735,1.4611552,1.0879192,1.0130029,0.0,2,0,0,0
28336000,47.39765461141092,8.549749229139113,542.1237,52.53415,-0.0,1.232847,16.37945,1.0387901,1.4622551,1.0877566,1.0130157,0.0,2,0,0,0
28536000,47.3976568542601,8.549792913652796,541.92065,52.3107,-0.0,1.2105582,16.38338,1.0234238,1.4638299,1.087631,1.0130244,0.0,2,0,0,0
28736000,47.39765904166319,8.549836568567926,541.7214,52.11142,-0.0,1.1834943,16.387098,1.006269,1.4660083,1.0874896,1.0130287,0.0,2,0,0,0
28936000,47.39766115976601,8.549880275378575,541.5277,51.89737,-0.0,1.1459496,16.396599,0.98010737,1.4680804,1.0873815,1.0130298,0.0,2,0,0,0
29136000,47.397663187436386,8.549924017459409,541.3406,51.68985,-0.0,1.1060997,16.4078,0.95414627,1.4707057,1.087257,1.0130274,0.0,2,0,0,0
29336000,47.39766511790814,8.549967774131726,541.1565,51.485382,-0.0,1.0609645,16.416704,0.92799366,1.4732461,1.0871552,1.0130225,0.0,2,0,0,0
29536000,47.39766695095955,8.550011510932059,540.9773,51.285797,-0.0,1.0157795,16.42368,0.9014652,1.4758534,1.0870367,1.0130154,0.0,2,0,0,0
29736000,47.39766868394612,8.550055303273544,540.80194,51.090057,-0.0,0.96631134,16.432812,0.87019926,1.4783514,1.0869371,1.0130067,0.0,2,0,0,0
29936000,47.39767031601492,8.550099139803283,540.63513,50.902863,-0.0,0.91937685,16.474472,0.84175825,1.4813038,1.0868176,1.0129968,0.0,2,0,0,0
30136000,47.39767189971545,8.55014386791509,540.47784,50.72519,-0.0,0.91259074,17.146486,0.7259773,1.4864231,1.0867143,1.0129857,0.0,2,0,0,0
30336000,47.39767344505089,8.550190785048349,540.3867,50.613678,-0.0,0.88671714,18.065659,0.14417185,1.4918925,1.0866028,1.012963,0.0,2,0,0,0
30536000,47.397674851482165,8.550239928090193,540.4536,50.660187,-0.0,0.7994694,18.770395,-0.80514413,1.4976583,1.0865657,1.0129228,0.0,2,0,0,0
30736000,47.397675980603076,8.55029052545755,540.717,50.903168,-0.0,0.6459039,19.167301,-1.762843,1.5079772,1.0865775,1.0128754,0.0,2,0,0,0
30936000,47.39767671172548,8.550341864358487,541.15295,51.318756,-0.0,0.45710626,19.352182,-2.5290534,1.5202975,1.0866868,1.0128341,0.0,2,0,0,0
31143999,47.39767703621334,8.550395549965952,541.7512,51.896637,-0.0,0.26044044,19.409855,-3.169811,1.5306363,1.0872372,1.0128067,0.0,2,0,0,0
31344000,47.39767694985881,8.550447263834947,542.4379,52.562958,-0.0,0.08495789,19.409168,-3.6405983,1.5394531,1.0873581,1.0127873,0.0,2,0,0,0
31544000,47.39767655474489,8.550498977269578,543.20905,53.31369,-0.0,-0.063193046,19.402094,-3.995955,1.5478367,1.0874254,1.012776,0.0,2,0,0,0
31744000,47.39767590229677,8.550550693517376,544.04803,54.132294,-0.0,-0.19276711,19.389275,-4.27691,1.554956,1.0874645,1.0127707,0.0,2,0,0,0
31944000,47.39767504674491,8.550602397986555,544.93567,54.999542,-0.0,-0.29512835,19.382113,-4.487255,1.5600985,1.0874345,1.0127691,0.0,2,0,0,0
32144000,47.39767403575843,8.5506540817612,545.858,55.90146,-0.0,-0.3753529,19.374685,-4.6492796,1.5645477,1.0873786,1.0127705,0.0,2,0,0,0
32352000,47.3976728785988,8.550707799660042,546.8458,56.868927,-0.0,-0.43838227,19.360851,-4.784556,1.568507,1.0876818,1.0127786,0.0,2,0,0,0
32544000,47.39767174483436,8.550757370620984,547.7809,57.7836,-0.0,-0.47954807,19.34758,-4.883045,1.5711577,1.0870926,1.0127794,0.0,2,0,0,0
32744000,47.39767052411166,8.550808931922909,548.77545,58.757782,-0.0,-0.50998867,19.323744,-4.964619,1.5729927,1.0868726,1.0127858,0.0,2,0,0,0
32944000,47.39766927791207,8.550860459162141,549.7815,59.74344,-0.0,-0.5276767,19.295355,-5.0291615,1.5740176,1.0866479,1.0127934,0.0,2,0,0,0
33144000,47.397668033934764,8.55091193004168,550.79877,60.740326,-0.0,-0.53605336,19.259779,-5.0813956,1.574654,1.0863642,1.0128015,0.0,2,0,0,0
33344000,47.3976668088668,8.550963319019923,551.8256,61.746796,-0.0,-0.5295533,19.22242,-5.1144114,1.5744078,1.0860838,1.0128102,0.0,2,0,0,0
33544000,47.39766562950827,8.551014666239181,552.8591,62.759857,-0.0,-0.5165829,19.185038,-5.135766,1.5735201,1.0857555,1.0128188,0.0,2,0,0,0
33744000,47.397664511461954,8.551065931967166,553.9006,63.780975,-0.0,-0.4928528,19.144173,-5.158832,1.5727385,1.0854381,1.0128273,0.0,2,0,0,0
33944000,47.39766345665053,8.551117086606451,554.9457,64.805695,-0.0,-0.46404484,19.103344,-5.180972,1.5718052,1.0850831,1.0128351,0.0,2,0,0,0
34144000,47.397662480184735,8.551168158945739,555.994,65.83365,-0.0,-0.42988443,19.062313,-5.1923847,1.5706518,1.0847467,1.0128424,0.0,2,0,0,0
34344000,47.39766158463206,8.551219087762664,557.0456,66.86484,-0.0,-0.39157918,19.0171,-5.1987963,1.5687889,1.0843822,1.0128487,0.0,2,0,0,0
34544000,47.397660760420564,8.551269886436275,558.0963,67.89517,-0.0,-0.35731024,18.977293,-5.197692,1.5670196,1.0840418,1.012854,0.0,2,0,0,0
34744000,47.39766000397116,8.551320611323863,559.1476,68.926056,-0.0,-0.3215433,18.937477,-5.199201,1.565338,1.0836792,1.0128579,0.0,2,0,0,0
34944000,47.39765932244672,8.551371236477653,560.2012,69.95926,-0.0,-0.28602538,18.895607,-5.2032,1.5635715,1.0833439,1.0128604,0.0,2,0,0,0
35144000,47.39765871628916,8.551421844609592,561.25195,70.989655,-0.0,-0.24964553,18.861204,-5.1963253,1.562549,1.082992,1.0128615,0.0,2,0,0,0
35344000,47.39765817971281,8.551472366792854,562.3021,72.01944,-0.0,-0.21358803,18.826271,-5.199876,1.561316,1.0826703,1.012861,0.0,2,0,0,0
35544000,47.39765773222255,8.55152277302658,563.35455,73.05148,-0.0,-0.17948298,18.79047,-5.20117,1.5601809,1.0823373,1.0128589,0.0,2,0,0,0
35744000,47.39765736737519,8.551573107504279,564.4053,74.08182,-0.0,-0.14438824,18.758923,-5.1885376,1.5592549,1.08203,1.0128554,0.0,2,0,0,0
35944000,47.39765707672344,8.551623359278093,565.45496,75.111115,-0.0,-0.10869078,18.72645,-5.1853814,1.5583701,1.0817161,1.0128503,0.0,2,0,0,0
36144000,47.397656852688435,8.551673476449835,566.5051,76.1409,-0.0,-0.07845292,18.692163,-5.180398,1.5573826,1.0814297,1.0128438,0.0,2,0,0,0
36344000,47.397656687373164,8.551723585518994,567.55634,77.17172,-0.0,-0.04727363,18.657711,-5.1751924,1.5565587,1.0811318,1.0128357,0.0,2,0,0,0
36544000,47.397656590066234,8.551773523901614,568.60803,78.20303,-0.0,-0.01609658,18.62075,-5.171954,1.555813,1.0808636,1.0128267,0.0,2,0,0,0
36744000,47.397656567630825,8.551823418909816,569.6566,79.23123,-0.0,0.018041415,18.587084,-5.1634407,1.5547801,1.0904043,1.0129235,0.0,2,0,0,0
36944000,47.39765660613375,8.55187320242665,570.7046,80.25882,-0.0,0.04925046,18.55591,-5.1592093,1.554001,1.0900826,1.0129116,0.0,2,0,0,0
37144000,47.39765668571015,8.551922903236811,571.7479,81.28177,-0.0,0.0775032,18.527208,-5.14377,1.5532528,1.0897943,1.0128989,0.0,2,0,0,0
37344000,47.39765682372044,8.5519724990428,572.7884,82.30185,-0.0,0.10484894,18.496923,-5.1365166,1.5527966,1.0894887,1.0128853,0.0,2,0,0,0
37544000,47.39765699881526,8.552022031198014,573.8289,83.32199,-0.0,0.12610437,18.467283,-5.1324477,1.5523998,1.0892184,1.0128713,0.0,2,0,0,0
37744000,47.39765721114456,8.552071427532582,574.86896,84.341644,-0.0,0.14393342,18.435019,-5.1291523,1.5520891,1.0889345,1.0128566,0.0,2,0,0,0
37944000,47.397657460966016,8.552120835630229,575.9072,85.35953,-0.0,0.16147606,18.407701,-5.119406,1.5518166,1.0886793,1.0128416,0.0,2,0,0,0
38144000,47.397657737303035,8.552170079930088,576.94385,86.37576,-0.0,0.17543939,18.376348,-5.1112466,1.5515639,1.088405,1.0128262,0.0,2,0,0,0
38344000,47.39765805320272,8.552219276392407,577.97815,87.38968,-0.0,0.18861203,18.345055,-5.1049614,1.5519246,1.0881611,1.0128107,0.0,2,0,0,0
38544000,47.39765838699465,8.552268380820564,579.0118,88.40292,-0.0,0.20167036,18.318153,-5.1009283,1.5524802,1.0878977,1.012795,0.0,2,0,0,0
38744000,47.39765874516184,8.55231741024431,580.046,89.41678,-0.0,0.20995435,18.292488,-5.0898004,1.5526102,1.0876637,1.0127795,0.0,2,0,0,0
38944000,47.39765912572384,8.552366353716325,581.07837,90.42874,-0.0,0.21683589,18.264307,-5.085025,1.5526416,1.0874088,1.0127637,0.0,2,0,0,0
39144000,47.397659523235085,8.552415203532421,582.1115,91.4415,-0.0,0.22499952,18.233593,-5.07908,1.5530779,1.0871818,1.0127484,0.0,2,0,0,0
39344000,47.397659935810765,8.552463927256445,583.1442,92.47421,-0.0,0.2302637,18.203571,-5.0690994,1.5531255,1.086934,1.012733,0.0,2,0,0,0
39544000,47.39766036061509,8.552512619357783,584.1754,93.485016,-0.0,0.23612253,18.17745,-5.0643435,1.553248,1.086713,1.0127181,0.0,2,0,0,0
39744000,47.39766080171014,8.552561192259924,585.2064,94.495636,-0.0,0.24086379,18.147223,-5.0584507,1.5534737,1.0864706,1.0127032,0.0,2,0,0,0
39944000,47.397661247591216,8.552609705157002,586.23737,95.506195,-0.0,0.2462906,18.106953,-5.0550256,1.5535953,1.0862546,1.0126888,0.0,2,0,0,0
40144000,47.39766170401998,8.552657770440112,587.2544,96.50284,-0.0,0.2500468,17.775066,-4.878981,1.5536172,1.0860176,1.0126746,0.0,2,0,0,0
40344000,47.39766217369502,8.552704752364887,588.2058,97.43387,-0.0,0.25930557,17.358221,-4.40589,1.5530193,1.0858002,1.0126611,0.0,2,0,0,0
40544000,47.3976626730396,8.55275068742401,589.0403,98.247955,-0.0,0.27655756,17.016773,-3.7179582,1.5525739,1.085539,1.0126488,0.0,2,0,0,0
40744000,47.397663224888255,8.552795811592246,589.7271,98.9144,-0.0,0.2985618,16.75278,-2.9532886,1.5520693,1.0852685,1.0126383,0.0,2,0,0,0
40944000,47.39766384547136,8.552840221368909,590.26965,99.436554,-0.0,0.3347424,16.506626,-2.2894464,1.550542,1.0849475,1.0126297,0.0,2,0,0,0
41144000,47.39766456121561,8.552884030283659,590.68604,99.83255,-0.0,0.38235927,16.286768,-1.7109317,1.5479715,1.0846252,1.012624,0.0,2,0,0,0
41344000,47.39766539443498,8.55292728618285,590.99457,100.1207,-0.0,0.44265524,16.099913,-1.2066011,1.5454292,1.0842791,1.0126213,0.0,2,0,0,0
41544000,47.397666354015584,8.552970120433631,591.21124,100.316986,-0.0,0.50342035,15.94619,-0.78719044,1.5429348,1.0839546,1.0126224,0.0,2,0,0,0
41744000,47.39766743925078,8.553012592231811,591.3496,100.43497,-0.0,0.5645045,15.816228,-0.44068077,1.539811,1.083622,1.0126268,0.0,2,0,0,0
41944000,47.39766865022428,8.553054739689937,591.4252,100.49014,-0.0,0.6252808,15.708704,-0.1632937,1.5369643,1.0833174,1.012635,0.0,2,0,0,0
42144000,47.39766995750262,8.553096612268941,591.4488,100.49338,-0.0,0.67905223,15.623868,0.06359032,1.5341021,1.0830151,1.0126466,0.0,2,0,0,0
42344000,47.397671368534475,8.553138281329216,591.43207,100.45627,-0.0,0.7320829,15.556504,0.24242777,1.531612,1.0827467,1.0126612,0.0,2,0,0,0
42544000,47.39767288322084,8.553179755790866,591.3822,100.38602,-0.0,0.7813181,15.50425,0.38092437,1.5294818,1.0824727,1.0126784,0.0,2,0,0,0
42744000,47.39767448641538,8.553221104578354,591.3077,100.29111,-0.0,0.82613164,15.462488,0.47890615,1.5275456,1.0822351,1.0126978,0.0,2,0,0,0
42944000,47.39767616150887,8.553262339042044,591.2153,100.178314,-0.0,0.8622057,15.431126,0.550899,1.5260587,1.0819937,1.0127186,0.0,2,0,0,0
43144000,47.39767790099031,8.553303494049663,591.11285,100.05551,-0.0,0.89018816,15.409608,0.60179883,1.525169,1.0817792,1.0127401,0.0,2,0,0,0
43344000,47.39767969419616,8.553344612577439,591.00146,99.92374,-0.0,0.9145671,15.400898,0.6360774,1.5246159,1.0815623,1.0127618,0.0,2,0,0,0
43544000,47.39768153092839,8.55338570192208,590.8822,99.78409,-0.0,0.92952865,15.3947,0.6583036,1.5244185,1.0813695,1.0127833,0.0,2,0,0,0
43744000,47.39768337908685,8.553426795325784,590.758,99.639496,-0.0,0.93898416,15.394233,0.6680394,1.5247614,1.0811716,1.0128034,0.0,2,0,0,0
43944000,47.397685233453544,8.55346787981341,590.6307,99.49179,-0.0,0.9419308,15.403351,0.6690974,1.525378,1.0809963,1.0128223,0.0,2,0,0,0
44144000,47.3976870845037,8.55350896268163,590.50226,99.34299,-0.0,0.941062,15.416096,0.6616662,1.5263427,1.0808148,1.0128391,0.0,2,0,0,0
44344000,47.397688917313616,8.553550049604482,590.37634,99.196686,-0.0,0.9316994,15.430016,0.6458785,1.527363,1.0806544,1.0128537,0.0,2,0,0,0
44544000,47.39769071622378,8.553591182746313,590.2516,99.051544,-0.0,0.91821396,15.449971,0.6338934,1.5286548,1.0804873,1.0128658,0.0,2,0,0,0
44744000,47.3976925023082,8.55363234264868,590.12854,98.90811,-0.0,0.9040267,15.465232,0.6125215,1.5302763,1.08034,1.0128753,0.0,2,0,0,0
44944000,47.39769425132924,8.55367359255799,590.012,98.77121,-0.0,0.8861719,15.485383,0.58278036,1.5323046,1.0801847,1.0128822,0.0,2,0,0,0
45144000,47.39769594715102,8.553714856247131,589.89954,98.638336,-0.0,0.86006546,15.500055,0.55524206,1.5345659,1.0800526,1.0128868,0.0,2,0,0,0
45344000,47.39769757809585,8.553756142634068,589.7911,98.50949,-0.0,0.8320218,15.519902,0.5269749,1.5368104,1.0799052,1.012889,0.0,2,0,0,0
45544000,47.39769914023384,8.55379747685592,589.6873,98.385345,-0.0,0.79878986,15.542154,0.5038275,1.5386999,1.0797827,1.0128893,0.0,2,0,0,0
45744000,47.39770062821747,8.553838858100795,589.5891,98.266754,-0.0,0.76408696,15.55898,0.47959295,1.5409312,1.0796429,1.0128872,0.0,2,0,0,0
45944000,47.3977020359695,8.553880236091791,589.49915,98.1564,-0.0,0.726903,15.574271,0.44877172,1.5434561,1.0795268,1.0128838,0.0,2,0,0,0
46144000,47.39770337547277,8.553921711382165,589.41486,98.05173,-0.0,0.6919093,15.587736,0.4242272,1.5460485,1.0793952,1.0128788,0.0,2,0,0,0
46344000,47.39770465230384,8.553963198828184,589.3359,97.95236,-0.0,0.6575395,15.602623,0.3996315,1.5484968,1.0792825,1.0128727,0.0,2,0,0,0
46544000,47.39770585457091,8.55400476167798,589.2639,97.860016,-0.0,0.6219331,15.612676,0.3710624,1.5507607,1.0791534,1.0128655,0.0,2,0,0,0
46744000,47.397706995424166,8.554046309923628,589.197,97.772736,-0.0,0.58815366,15.6209135,0.34737843,1.5529519,1.079042,1.0128579,0.0,2,0,0,0
46944000,47.39770806675983,8.55408788654136,589.13367,97.688995,-0.0,0.55640024,15.627687,0.32982785,1.5552595,1.0882386,1.0129582,0.0,2,0,0,0
47144000,47.39770905820548,8.554129478554938,589.0728,97.60776,-0.0,0.519384,15.637545,0.30789068,1.5576628,1.0881001,1.0129495,0.0,2,0,0,0
47344000,47.397709996606,8.554171111917329,589.01324,97.5278,-0.0,0.48362392,15.648383,0.29004425,1.5599576,1.0879738,1.0129408,0.0,2,0,0,0
47544000,47.39771087000688,8.554212741216077,588.9565,97.45065,-0.0,0.44440305,15.656113,0.2741118,1.5621451,1.0878284,1.0129318,0.0,2,0,0,0
47744000,47.39771166625758,8.554254446728095,588.9038,97.377594,-0.0,0.40145344,15.662854,0.26327652,1.564536,1.0876939,1.0129232,0.0,2,0,0,0
47944000,47.39771238747714,8.554296134389192,588.85364,97.30704,-0.0,0.35880402,15.670529,0.24785176,1.5668666,1.087539,1.0129145,0.0,2,0,0,0
48144000,47.397713018820106,8.554337908802786,588.8054,97.238434,-0.0,0.31714574,15.68466,0.23422565,1.5688007,1.0873942,1.0129064,0.0,2,0,0,0
48344000,47.39771358170602,8.554379691314967,588.76044,97.173065,-0.0,0.2795075,15.691273,0.22032684,1.5707278,1.0872295,1.0128984,0.0,2,0,0,0
48544000,47.397714081656495,8.554421476250198,588.7204,97.11264,-0.0,0.24313036,15.695206,0.20621766,1.572437,1.0870805,1.0128909,0.0,2,0,0,0
48744000,47.3977145328337,8.554463290370405,588.68604,97.05789,-0.0,0.21208806,15.697268,0.19373229,1.5739701,1.0869011,1.0128837,0.0,2,0,0,0
48944000,47.39771492521516,8.554505115023085,588.6544,97.00589,-0.0,0.18824849,15.695674,0.18144412,1.5753138,1.0867431,1.012877,0.0,2,0,0,0
49144000,47.39771526694146,8.554546932369684,588.6251,96.95621,-0.0,0.16433027,15.69603,0.1741145,1.5765685,1.0865555,1.0128707,0.0,2,0,0,0
49344000,47.39771558495323,8.554588804853962,588.60046,96.91116,-0.0,0.14903218,15.698649,0.15489677,1.5779554,1.0863893,1.0128648,0.0,2,0,0,0
49544000,47.397715878320156,8.55463061976064,588.57684,96.88754,-0.0,0.13534687,15.697026,0.14417297,1.5787044,1.0862002,1.0128593,0.0,2,0,0,0
49744000,47.39771612738403,8.554672467096145,588.55676,96.84708,-0.0,0.12112672,15.696795,0.13330218,1.5796659,1.0860229,1.0128543,0.0,2,0,0,0
49944000,47.397716362436384,8.554714305509723,588.5397,96.8096,-0.0,0.10997569,15.694067,0.12273426,1.5801771,1.0858281,1.0128495,0.0,2,0,0,0
50144000,47.39771658347799,8.554756098510854,588.5245,96.77402,-0.0,0.09852576,15.690114,0.11568026,1.5807121,1.0856457,1.012845,0.0,2,0,0,0
50344000,47.39771678171928,8.554797881777558,588.5115,96.74063,-0.0,0.08897159,15.689193,0.11029717,1.5814846,1.0854461,1.0128407,0.0,2,0,0,0
50544000,47.39771696435119,8.554839689368835,588.4997,96.708466,-0.0,0.08373907,15.690455,0.1030462,1.5821475,1.0852593,1.0128369,0.0,2,0,0,0
50744000,47.39771714322429,8.554881469389148,588.48926,96.67764,-0.0,0.081505105,15.691935,0.09958476,1.5827875,1.0850567,1.0128331,0.0,2,0,0,0
50944000,47.39771730596115,8.55492329238458,588.48065,96.64865,-0.0,0.073589414,15.693345,0.09400189,1.5836163,1.0848671,1.0128295,0.0,2,0,0,0
51144000,47.39771744731905,8.554965134838064,588.4758,96.62344,-0.0,0.0698546,15.69591,0.084606774,1.5842634,1.0846622,1.0128261,0.0,2,0,0,0
51344000,47.39771758127399,8.555006965126957,588.4719,96.59915,-0.0,0.06477688,15.693453,0.075527556,1.5849191,1.0844715,1.0128227,0.0,2,0,0,0
51544000,47.3977177053543,8.555048776763597,588.47003,96.57687,-0.0,0.061781544,15.689337,0.06595564,1.5853364,1.0842662,1.0128195,0.0,2,0,0,0
51744000,47.39771781490399,8.55509058272152,588.4668,96.55325,-0.0,0.058461063,15.682459,0.06095472,1.5859799,1.0840755,1.0128165,0.0,2,0,0,0
51944000,47.397717930835064,8.555132381382677,588.4632,96.52927,-0.0,0.055204,15.678992,0.061138775,1.5859411,1.0838708,1.0128136,0.0,2,0,0,0
52144000,47.39771805509808,8.555174154907643,588.46246,96.50815,-0.0,0.052225612,15.677596,0.059971068,1.5861895,1.0836806,1.0128107,0.0,2,0,0,0
52344000,47.397718183742825,8.555215860318027,588.4646,96.4899,-0.0,0.050943743,15.674901,0.057155926,1.5866543,1.0834763,1.0128078,0.0,2,0,0,0
52544000,47.39771829815471,8.555257590052998,588.4677,96.472626,-0.0,0.04730382,15.670645,0.056858458,1.5869416,1.0832869,1.0128051,0.0,2,0,0,0
52744000,47.397718394163086,8.555299321406565,588.47253,96.45706,-0.0,0.043404732,15.667452,0.048847143,1.5873657,1.0830839,1.0128024,0.0,2,0,0,0
52944000,47.397718488011456,8.555341035730992,588.47864,96.44278,-0.0,0.04245481,15.659938,0.042177167,1.5875103,1.0828958,1.0127997,0.0,2,0,0,0
53144000,47.39771857741087,8.555382746811144,588.4839,96.42764,-0.0,0.037155304,15.656194,0.038555007,1.5879167,1.082695,1.0127971,0.0,2,0,0,0
53344000,47.39771864667992,8.555424444102387,588.4906,96.41397,-0.0,0.033020277,15.646758,0.03634289,1.5881861,1.0825138,1.0127945,0.0,2,0,0,0
53544000,47.39771869980573,8.555466089493132,588.49646,96.399445,-0.0,0.030036883,15.640808,0.037442815,1.5887562,1.0823107,1.0127919,0.0,2,0,0,0
53744000,47.39771874841489,8.555507746235712,588.5016,96.384186,-0.0,0.029145122,15.633454,0.033752825,1.589155,1.0821313,1.0127895,0.0,2,0,0,0
53944000,47.39771879963748,8.555549355946676,588.50507,96.36728,-0.0,0.026919622,15.628826,0.03314788,1.5894625,1.0819347,1.012787,0.0,2,0,0,0
54144000,47.39771884352853,8.555590948627437,588.5099,96.351715,-0.0,0.024330018,15.616247,0.03134229,1.5893165,1.0817534,1.0127846,0.0,2,0,0,0
54344000,47.3977188932897,8.555632522658692,588.51556,96.337006,-0.0,0.022823516,15.607773,0.032171424,1.5893803,1.0815593,1.0127821,0.0,2,0,0,0
54544000,47.39771894762965,8.555674060200417,588.52057,96.321625,-0.0,0.022511339,15.599066,0.03560593,1.5894547,1.0813845,1.0127798,0.0,2,0,0,0
54744000,47.39771900218524,8.555715608283966,588.5261,96.30679,-0.0,0.021467118,15.591453,0.035664227,1.5898098,1.0811884,1.0127774,0.0,2,0,0,0
54944000,47.397719057859156,8.555757142582525,588.5325,96.292755,-0.0,0.018718684,15.584605,0.033833373,1.5902398,1.0810152,1.0127752,0.0,2,0,0,0
55144000,47.39771910229341,8.555798629035907,588.54004,96.27994,-0.0,0.017194131,15.576694,0.032047898,1.5907114,1.0808213,1.0127729,0.0,2,0,0,0
55344000,47.39771914807809,8.555840096028032,588.54645,96.26596,-0.0,0.016145995,15.569508,0.031369682,1.591021,1.0806501,1.0127708,0.0,2,0,0,0
55544000,47.39771917798791,8.555881511119544,588.5504,96.24954,-0.0,0.015491848,15.561243,0.032883994,1.5913831,1.0804582,1.0127686,0.0,2,0,0,0
55744000,47.39771922081295,8.555922892155845,588.5539,96.232635,-0.0,0.0128026875,15.551841,0.032000605,1.5915532,1.0802889,1.0127666,0.0,2,0,0,0
55952000,47.397719256192396,8.555965950942449,588.558,96.21634,-0.0,0.011847658,15.542067,0.032175638,1.5919807,1.0804482,1.0127686,0.0,2,0,0,0
56144000,47.3977192753281,8.556005631517312,588.56067,96.19864,-0.0,0.007869218,15.536396,0.031580787,1.5919994,1.0799313,1.0127624,0.0,2,0,0,0
56344000,47.39771929560377,8.556047009305727,588.5662,96.18381,-0.0,0.0076681245,15.529716,0.03611466,1.592283,1.079743,1.0127604,0.0,2,0,0,0
56544000,47.39771931674203,8.556088310869766,588.57007,96.16727,-0.0,0.0062848837,15.523958,0.037901368,1.5925889,1.0795768,1.0127584,0.0,2,0,0,0
56744000,47.397719349424136,8.556129593785455,588.57166,96.14847,-0.0,0.0048575234,15.5220585,0.03822711,1.5929743,1.079394,1.0127563,0.0,2,0,0,0
56944000,47.39771938134806,8.556170892919042,588.57324,96.12967,-0.0,0.0027727953,15.518285,0.038639005,1.593309,1.0792288,1.0127546,0.0,2,0,0,0
57144000,47.397719406705264,8.556212208269354,588.57324,96.10928,-0.0,-0.00072297757,15.514572,0.033716187,1.5933741,1.0883579,1.0128579,0.0,2,0,0,0
57344000,47.397719432134224,8.556253514699826,588.57556,96.09122,-0.0,0.00097494764,15.50985,0.030636422,1.5937201,1.0881503,1.012856,0.0,2,0,0,0
57544000,47.397719460200584,8.556294821941776,588.57935,96.074615,-0.0,0.00016956366,15.5099945,0.029482912,1.5937376,1.0879582,1.0128542,0.0,2,0,0,0
57744000,47.39771948656975,8.55633607485314,588.5842,96.05911,-0.0,0.0025347471,15.506446,0.02604508,1.5938174,1.087752,1.0128524,0.0,2,0,0,0
57944000,47.39771950548844,8.556377370740714,588.59045,96.04495,-0.0,-0.00045993718,15.503229,0.022568244,1.5939729,1.087567,1.0128506,0.0,2,0,0,0
58144000,47.397719527972804,8.556418600946168,588.5956,96.02969,-0.0,0.0038595314,15.499645,0.014772795,1.5941169,1.0873566,1.0128487,0.0,2,0,0,0
58344000,47.39771956597986,8.55645979790797,588.6,96.0137,-0.0,0.005278485,15.493626,0.010803302,1.5943431,1.0871731,1.0128471,0.0,2,0,0,0
58544000,47.39771959404126,8.556500964053582,588.6044,95.99771,-0.0,0.008473617,15.484472,0.011061509,1.5944902,1.0869648,1.0128452,0.0,2,0,0,0
58744000,47.39771963185252,8.556542151284662,588.60864,95.9816,-0.0,0.013542528,15.481028,0.013781689,1.5945415,1.0867826,1.0128434,0.0,2,0,0,0
58944000,47.39771966943807,8.55658332473046,588.6094,95.961945,-0.0,0.011856182,15.4789505,0.018093636,1.5946865,1.0865752,1.0128415,0.0,2,0,0,0
59144000,47.397719693011666,8.55662452250038,588.60876,95.94095,-0.0,0.009830217,15.476546,0.019913007,1.5954146,1.0863929,1.0128398,0.0,2,0,0,0
59344000,47.397719717747876,8.556665673238395,588.60846,95.92026,-0.0,0.012833654,15.467667,0.019894864,1.5958493,1.0861856,1.0128379,0.0,2,0,0,0
59544000,47.39771974577072,8.556706808570052,588.60815,95.89957,-0.0,0.016605344,15.459131,0.023701765,1.5961008,1.086004,1.0128361,0.0,2,0,0,0
59752000,47.39771976047459,8.556749533262568,588.6081,95.87912,-0.0,0.015312458,15.450368,0.027878223,1.5964261,1.0861773,1.0128382,0.0,2,0,0,0
59944000,47.397719747578535,8.556788950288906,588.6054,95.876434,-0.0,0.015498076,15.447224,0.034328595,1.5967958,1.0856168,1.0128324,0.0,2,0,0,0
60144000,47.39771972604661,8.556830020738106,588.60364,95.85385,-0.0,0.01419255,15.444077,0.038921434,1.5972114,1.085411,1.0128305,0.0,2,0,0,0
60344000,47.39771971376442,8.556871096054655,588.60016,95.83038,-0.0,0.014403536,15.442929,0.039700318,1.5975538,1.08523,1.0128287,0.0,2,0,0,0
60544000,47.397719704968935,8.556912171371936,588.5969,95.80676,-0.0,0.014972192,15.444565,0.038225792,1.598164,1.0850251,1.0128267,0.0,2,0,0,0
60744000,47.39771968290403,8.556953286420438,588.59534,95.78479,-0.0,0.01128936,15.446339,0.03865373,1.5986819,1.0848453,1.0128249,0.0,2,0,0,0
60944000,47.397719645026136,8.556994360109595,588.59296,95.762024,-0.0,0.012077703,15.450871,0.04450887,1.5989652,1.0846468,1.012823,0.0,2,0,0,0
61144000,47.39771960554082,8.557035451638143,588.58887,95.73755,-0.0,0.008955362,15.451857,0.042569228,1.5991669,1.0844624,1.0128212,0.0,2,0,0,0
61344000,47.39771954695116,8.557076503428378,588.5862,95.71448,-0.0,0.008201851,15.450025,0.040986124,1.5995687,1.0842646,1.0128192,0.0,2,0,0,0
61544000,47.39771946778597,8.557117539806931,588.5841,95.69202,-0.0,0.0026127421,15.446575,0.040684387,1.599966,1.0840815,1.0128173,0.0,2,0,0,0
61744000,47.39771936785473,8.55715855834101,588.5806,95.66815,-0.0,-0.0014310514,15.44338,0.042838003,1.6001705,1.0838851,1.0128154,0.0,2,0,0,0
61944000,47.39771926323756,8.5571995898483,588.5772,95.64435,-0.0,-0.0055451775,15.438425,0.041489474,1.6000857,1.083703,1.0128136,0.0,2,0,0,0
62144000,47.397719151100496,8.557240607568472,588.5736,95.62036,-0.0,-0.008330731,15.431935,0.042966194,1.6005664,1.0835079,1.0128117,0.0,2,0,0,0
62351999,47.397719024318604,8.55728325600473,588.5701,95.5965,-0.0,-0.012147317,15.427026,0.038394652,1.6008054,1.0836929,1.0128139,0.0,2,0,0,0
62552000,47.39771889519429,8.55732424615017,588.5686,95.574585,-0.0,-0.012933553,15.425076,0.03677239,1.6011858,1.0834934,1.012812,0.0,2,0,0,0
62752000,47.39771875504661,8.557365263863542,588.56805,95.55365,-0.0,-0.014099828,15.422156,0.03767146,1.6012341,1.0833181,1.0128101,0.0,2,0,0,0
62952000,47.39771861352057,8.557406261303894,588.567,95.53223,-0.0,-0.01615555,15.419432,0.03434124,1.6010766,1.0831201,1.0128082,0.0,2,0,0,0
63152000,47.39771846606004,8.557447215765007,588.5663,95.51111,-0.0,-0.019428873,15.408288,0.03372687,1.600861,1.0829462,1.0128064,0.0,2,0,0,0
63351999,47.39771831639081,8.557488176712594,588.5661,95.49054,-0.0,-0.019037593,15.401486,0.03155828,1.6009135,1.0827497,1.0128044,0.0,2,0,0,0
63559999,47.397718162690296,8.55753075540412,588.567,95.47107,-0.0,-0.019395405,15.394451,0.029666223,1.6007962,1.0829391,1.0128068,0.0,2,0,0,0
63760000,47.39771801461142,8.557571662832215,588.56665,95.45032,-0.0,-0.017880209,15.387767,0.028968643,1.6008109,1.0827432,1.0128049,0.0,2,0,0,0
63960000,47.397717878924354,8.557612546746816,588.5688,95.43207,-0.0,-0.013100947,15.378099,0.024851859,1.6007333,1.082571,1.012803,0.0,2,0,0,0
64160000,47.39771775679023,8.557653416879017,588.5701,95.413025,-0.0,-0.009370142,15.370826,0.023716535,1.6007546,1.0823767,1.012801,0.0,2,0,0,0
64360000,47.397717639392134,8.557694254576125,588.5711,95.393616,-0.0,-0.0064771767,15.365929,0.021474311,1.6002605,1.0822064,1.0127993,0.0,2,0,0,0
64559999,47.39771752269003,8.557735105247614,588.5744,95.376526,-0.0,-0.003971606,15.366469,0.015160393,1.6000692,1.0820137,1.0127974,0.0,2,0,0,0
64760000,47.397717399755564,8.557775954295684,588.5791,95.36084,-0.0,-0.0029465868,15.362334,0.013297244,1.6000986,1.0818448,1.0127956,0.0,2,0,0,0
64967999,47.3977172691758,8.55781841459965,588.58325,95.344604,-0.0,-0.0021882453,15.359813,0.0069830217,1.6000881,1.0820105,1.0127978,0.0,2,0,0,0
65168000,47.39771714482919,8.55785925959251,588.5863,95.32727,-0.0,-0.004787955,15.3571,0.0060912897,1.6000154,1.0818418,1.012796,0.0,2,0,0,0
65368000,47.397717015477475,8.557900135398201,588.5901,95.31067,-0.0,-0.005971777,15.355633,0.007317308,1.6000005,1.0816506,1.012794,0.0,2,0,0,0
65568000,47.39771687493019,8.557941004713873,588.59314,95.293335,-0.0,-0.007759107,15.357385,0.0041780644,1.5998123,1.0814825,1.0127922,0.0,2,0,0,0
65768000,47.397716728939,8.557981897544144,588.5966,95.27643,-0.0,-0.008595172,15.359158,0.0015719043,1.5996057,1.0812919,1.0127903,0.0,2,0,0,0
65968000,47.39771658270844,8.55802280740303,588.6015,95.260925,-0.0,-0.005568815,15.360608,0.0005783834,1.5996664,1.0811245,1.0127885,0.0,2,0,0,0
66168000,47.39771644124058,8.55806371645192,588.6061,95.24512,-0.0,-0.0076085236,15.361391,0.0013601751,1.5994505,1.0809352,1.0127865,0.0,2,0,0,0
66368000,47.39771629964382,8.55810457279208,588.60925,95.227905,-0.0,-0.006305789,15.365574,0.0018220296,1.5994922,1.0807688,1.0127847,0.0,2,0,0,0
66568000,47.397716159136785,8.558145429132281,588.61206,95.21033,-0.0,-0.0077142385,15.365022,0.0004919213,1.5996064,1.0805804,1.0127828,0.0,2,0,0,0
66768000,47.39771602404547,8.558186274120967,588.6147,95.192566,-0.0,-0.0049721566,15.366458,-0.0020913573,1.5993711,1.0804144,1.0127809,0.0,2,0,0,0
66968000,47.39771591117912,8.558227096409583,588.6177,95.17517,-0.0,-0.0033551713,15.365529,-0.005660261,1.5993272,1.080227,1.012779,0.0,2,0,0,0
67168000,47.397715804499505,8.558267895994321,588.62024,95.15735,-0.0,0.0009017616,15.361178,-0.00955096,1.5991188,1.0800623,1.0127771,0.0,2,0,0,0
67368000,47.39771570774901,8.55830870450119,588.6235,95.1402,-0.0,0.0033539655,15.357498,-0.015240657,1.5989448,1.0798763,1.0127752,0.0,2,0,0,0
67568000,47.39771560871386,8.55834945056808,588.6251,95.12146,-0.0,0.0046278285,15.356235,-0.019735727,1.5989476,1.079713,1.0127734,0.0,2,0,0,0
67768000,47.397715517963114,8.558390207178528,588.6262,95.10217,-0.0,0.006717602,15.352921,-0.025076509,1.5987698,1.0795286,1.0127714,0.0,2,0,0,0
67968000,47.39771542761289,8.558430972708836,588.62756,95.08313,-0.0,0.0073553016,15.349006,-0.026418542,1.598658,1.0793663,1.0127696,0.0,2,0,0,0
68168000,47.39771533771113,8.558471759322508,588.62964,95.06482,-0.0,0.005286717,15.345494,-0.024750246,1.5984154,1.0791837,1.0127677,0.0,2,0,0,0
68368000,47.397715245289525,8.55851251674304,588.6282,95.04297,-0.0,0.005874252,15.347158,-0.027484436,1.5979673,1.0790224,1.0127658,0.0,2,0,0,0
68568000,47.39771515519999,8.558553304978192,588.6266,95.020996,-0.0,0.005836248,15.343316,-0.03318464,1.5977383,1.0880829,1.0128697,0.0,2,0,0,0
68768000,47.397715052642525,8.558594057530545,588.6238,94.9978,-0.0,0.0018173795,15.341069,-0.032455046,1.5976738,1.0878805,1.0128678,0.0,2,0,0,0
68968000,47.39771495225882,8.558634799541583,588.62134,94.974976,-0.0,0.004355039,15.339955,-0.0362696,1.5976754,1.0876982,1.0128661,0.0,2,0,0,0
69168000,47.397714881858775,8.558675566697808,588.6196,94.95288,-0.0,0.008024146,15.334584,-0.03528774,1.5975473,1.0874968,1.0128644,0.0,2,0,0,0
69368000,47.39771481052278,8.558716348449886,588.6179,94.930786,-0.0,0.010391358,15.327421,-0.032419685,1.597014,1.0873097,1.0128627,0.0,2,0,0,0
69568000,47.39771474383346,8.558757019920657,588.61755,94.910034,-0.0,0.009987582,15.318228,-0.03105515,1.5966284,1.0871089,1.0128608,0.0,2,0,0,0
69768000,47.39771467115355,8.558797751396407,588.61414,94.88623,-0.0,0.010802715,15.314861,-0.026738064,1.5962437,1.0869281,1.0128591,0.0,2,0,0,0
69968000,47.39771459872584,8.55883845773422,588.6088,94.860535,-0.0,0.01180658,15.314837,-0.016763527,1.5961674,1.0867217,1.0128572,0.0,2,0,0,0
70168000,47.397714551824656,8.558879147049465,588.60077,94.83209,-0.0,0.014146583,15.312561,-0.008202875,1.595901,1.0865408,1.0128555,0.0,2,0,0,0
70368000,47.39771450815834,8.558919791765975,588.58936,94.80029,-0.0,0.017294696,15.311441,-0.0039356113,1.5956082,1.0863343,1.0128537,0.0,2,0,0,0
70568000,47.39771446867534,8.558960515140756,588.57794,94.76849,-0.0,0.020528711,15.314704,-0.003238989,1.5953126,1.0861539,1.012852,0.0,2,0,0,0
70768000,47.397714434147474,8.559001188240957,588.5692,94.73938,-0.0,0.022811076,15.317384,-0.005859288,1.5947739,1.0859548,1.01285,0.0,2,0,0,0
70968000,47.39771440234646,8.559041871072603,588.5619,94.71167,-0.0,0.025083274,15.320369,-0.008106212,1.5941477,1.0857701,1.0128484,0.0,2,0,0,0
71168000,47.39771437890978,8.559082577422435,588.5571,94.70691,-0.0,0.030447988,15.322327,-0.012587496,1.5936875,1.0855727,1.0128465,0.0,2,0,0,0
71368000,47.39771437159398,8.559123315401465,588.5528,94.68219,-0.0,0.03487697,15.3220215,-0.014746775,1.5932398,1.0853957,1.0128447,0.0,2,0,0,0
71568000,47.397714383816854,8.559164012029632,588.548,94.65698,-0.0,0.03937793,15.319562,-0.017174492,1.5928051,1.0852001,1.0128429,0.0,2,0,0,0
71768000,47.39771439896148,8.559204737850967,588.54395,94.63257,-0.0,0.043607015,15.314127,-0.020587608,1.592342,1.0850188,1.0128411,0.0,2,0,0,0
71968000,47.39771442860109,8.559245482326778,588.54083,94.60907,-0.0,0.048166525,15.313954,-0.02491461,1.5916567,1.0848247,1.0128392,0.0,2,0,0,0
72168000,47.39771447432234,8.559286191127232,588.53827,94.58612,-0.0,0.052231163,15.310381,-0.023033377,1.5913163,1.0846448,1.0128374,0.0,2,0,0,0
72368000,47.397714525861474,8.559326898307473,588.5374,94.56488,-0.0,0.055132706,15.308017,-0.025945373,1.5907817,1.0844519,1.0128355,0.0,2,0,0,0
72568000,47.39771457753609,8.559367607109634,588.53906,94.54614,-0.0,0.062422693,15.305944,-0.027526466,1.5901524,1.0842729,1.0128338,0.0,2,0,0,0
72768000,47.39771464630836,8.55940822996099,588.5412,94.52789,-0.0,0.067034185,15.300807,-0.028276503,1.5899642,1.084081,1.0128318,0.0,2,0,0,0
72968000,47.397714728515155,8.559448864168584,588.54407,94.510376,-0.0,0.075621165,15.297607,-0.026045661,1.5897114,1.0839031,1.0128301,0.0,2,0,0,0
73168000,47.397714815448694,8.559489530813545,588.54565,94.49158,-0.0,0.07629319,15.297596,-0.022051595,1.5897541,1.0837122,1.0128281,0.0,2,0,0,0
73368000,47.39771489884928,8.559530197457708,588.547,94.472534,-0.0,0.078970335,15.290425,-0.023658276,1.589577,1.0835401,1.0128263,0.0,2,0,0,0
73568000,47.39771499408469,8.559570841399951,588.54895,94.4541,-0.0,0.07961547,15.286331,-0.018834958,1.5894411,1.0833441,1.0128244,0.0,2,0,0,0
73768000,47.3977150874161,8.55961150804703,588.55096,94.43573,-0.0,0.076869085,15.285745,-0.018594813,1.5891645,1.0831722,1.0128226,0.0,2,0,0,0
73968000,47.39771518042676,8.55965215523258,588.5502,94.41455,-0.0,0.077671796,15.28678,-0.011864994,1.5890769,1.0829767,1.0128207,0.0,2,0,0,0
74168000,47.39771527441973,8.559692787822344,588.5477,94.39172,-0.0,0.07865551,15.282864,-0.011328622,1.5891533,1.0828049,1.0128189,0.0,2,0,0,0
74368000,47.39771536955164,8.559733439874156,588.545,94.36859,-0.0,0.07777306,15.284108,-0.006559297,1.5891703,1.0826099,1.0128169,0.0,2,0,0,0
74568000,47.397715452662275,8.559774106519079,588.544,94.34723,-0.0,0.074757144,15.285312,-0.0062263566,1.5892062,1.0824387,1.0128151,0.0,2,0,0,0
74768000,47.39771552815954,8.559814756944084,588.5445,94.32733,-0.0,0.07396672,15.28291,-0.004689062,1.5889432,1.0822496,1.0128131,0.0,2,0,0,0
74968000,47.397715615597726,8.559855428455835,588.5443,94.30676,-0.0,0.07433541,15.281508,-0.0022973737,1.5889113,1.0820739,1.0128113,0.0,2,0,0,0
75168000,47.3977157146053,8.559896125919657,588.5417,94.28375,-0.0,0.07300636,15.27954,0.0002896624,1.588916,1.0818858,1.0128093,0.0,2,0,0,0
75368000,47.397715818196,8.559936802301491,588.53894,94.26062,-0.0,0.07304499,15.279933,0.0015817353,1.588598,1.0817109,1.0128074,0.0,2,0,0,0
75568000,47.3977159354525,8.559977457603825,588.53723,94.238525,-0.0,0.07389525,15.2811575,0.0034902128,1.5883728,1.0815238,1.0128053,0.0,2,0,0,0
75768000,47.3977160488334,8.560018109661684,588.5341,94.21503,-0.0,0.07257625,15.279544,0.0044396757,1.5880517,1.0813501,1.0128033,0.0,2,0,0,0
75968000,47.397716161153184,8.56005876496303,588.5308,94.191345,-0.0,0.073286965,15.278397,0.004212268,1.5877297,1.0811642,1.0128013,0.0,2,0,0,0
76168000,47.39771628455652,8.560099387831613,588.5307,94.17084,-0.0,0.07521061,15.273526,0.003826568,1.5872957,1.0809916,1.0127994,0.0,2,0,0,0
76368000,47.397716408815356,8.560139965290238,588.5312,94.15094,-0.0,0.07659208,15.2718115,0.0072372486,1.5866499,1.0808072,1.0127974,0.0,2,0,0,0
76568000,47.397716532796586,8.560180589781172,588.5304,94.12976,-0.0,0.08079457,15.275508,0.008569611,1.5863749,1.0806409,1.0127953,0.0,2,0,0,0
76768000,47.39771667089424,8.560221292122595,588.5282,94.10718,-0.0,0.082107954,15.280371,0.012623688,1.5861185,1.0804528,1.0127933,0.0,2,0,0,0
76968000,47.39771682605763,8.560261962032996,588.52515,94.08374,-0.0,0.087258406,15.279204,0.0155509,1.5857698,1.0802875,1.0127913,0.0,2,0,0,0
77168000,47.39771698789666,8.5603026465417,588.525,94.06323,-0.0,0.08826166,15.283359,0.016806405,1.5852956,1.0801005,1.0127891,0.0,2,0,0,0
77368000,47.397717165665405,8.56034327915753,588.52515,94.04297,-0.0,0.09272372,15.284666,0.016067155,1.5848451,1.0799364,1.0127872,0.0,2,0,0,0
77568000,47.39771735868276,8.560383921508718,588.52527,94.022705,-0.0,0.09761371,15.288051,0.0123745045,1.584649,1.0797507,1.0127851,0.0,2,0,0,0
77768000,47.39771755663168,8.560424568726994,588.5282,94.00525,-0.0,0.10108809,15.289085,0.0071423166,1.584414,1.0795877,1.0127832,0.0,2,0,0,0
77968000,47.39771777079468,8.560465220815555,588.5329,93.98956,-0.0,0.10677569,15.286403,0.0024583202,1.5841175,1.0794039,1.012781,0.0,2,0,0,0
78168000,47.39771800092401,8.560505853447372,588.5344,93.9707,-0.0,0.1149803,15.283692,0.004260888,1.5838652,1.079243,1.012779,0.0,2,0,0,0
78368000,47.397718243375664,8.560546525006236,588.536,93.951904,-0.0,0.12195493,15.286937,0.0059971577,1.5833455,1.0790608,1.0127769,0.0,2,0,0,0
78568000,47.39771850523741,8.560587191705602,588.53784,93.93335,-0.0,0.1327755,15.288778,0.007118374,1.5829581,1.0789008,1.0127748,0.0,2,0,0,0
78768000,47.397718780116925,8.560627858409093,588.5416,93.91675,-0.0,0.14269975,15.290647,0.0063566295,1.5826744,1.0879269,1.012879,0.0,2,0,0,0
78968000,47.39771907534158,8.560668486195642,588.5454,93.90015,-0.0,0.15343484,15.292021,0.009254198,1.5820817,1.0877266,1.012877,0.0,2,0,0,0
79168000,47.39771939185405,8.560709178860739,588.5482,93.88214,-0.0,0.16095033,15.292299,0.008252671,1.5819147,1.0875467,1.0128751,0.0,2,0,0,0
79368000,47.39771970368642,8.560749806653002,588.5494,93.86331,-0.0,0.16845264,15.286913,0.008379402,1.5815226,1.0873411,1.0128729,0.0,2,0,0,0
79568000,47.3977200480983,8.560790462025736,588.5509,93.84445,-0.0,0.18056886,15.280062,0.0081103975,1.5812451,1.0871625,1.0128711,0.0,2,0,0,0
79768000,47.39772039963134,8.56083110280487,588.5546,93.82779,-0.0,0.18860534,15.274458,0.0047624297,1.5813438,1.0869585,1.012869,0.0,2,0,0,0
79968000,47.39772074480465,8.560871668979923,588.5585,93.81125,-0.0,0.19444776,15.272214,0.0077508395,1.581171,1.0867814,1.0128672,0.0,2,0,0,0
80168000,47.397721087287145,8.560912223802127,588.5611,93.79349,-0.0,0.19650137,15.277055,0.014092637,1.5812874,1.0865784,1.0128651,0.0,2,0,0,0
80368000,47.39772142539826,8.560952875931575,588.56226,93.77426,-0.0,0.1993089,15.281529,0.019125247,1.5813128,1.0864011,1.0128633,0.0,2,0,0,0
80568000,47.39772176536205,8.560993468055496,588.56177,93.75339,-0.0,0.20208827,15.285591,0.02095768,1.5813017,1.0861982,1.0128611,0.0,2,0,0,0
80768000,47.39772210379819,8.561034040717905,588.56085,93.732086,-0.0,0.20459579,15.286568,0.02150095,1.5809942,1.0860213,1.0128592,0.0,2,0,0,0
80968000,47.39772244072341,8.561074613380393,588.5609,93.71176,-0.0,0.207572,15.2873,0.017718127,1.5809364,1.0858194,1.0128573,0.0,2,0,0,0
81168000,47.397722789318074,8.561115231457237,588.5634,93.69388,-0.0,0.21280837,15.28888,0.016376773,1.5807538,1.0856436,1.0128553,0.0,2,0,0,0
81368000,47.39772315335245,8.561155825212184,588.5653,93.69577,-0.0,0.21703818,15.2848215,0.013869516,1.5802734,1.0854495,1.0128534,0.0,2,0,0,0
81568000,47.39772351621001,8.561196453025145,588.567,93.67709,-0.0,0.22101443,15.284103,0.0069116424,1.5799028,1.0852691,1.0128515,0.0,2,0,0,0
81768000,47.397723878322324,8.561237071107648,588.5705,93.66019,-0.0,0.22474876,15.2815695,0.0069222525,1.5798348,1.0850765,1.0128493,0.0,2,0,0,0
81968000,47.39772423098295,8.561277656751905,588.57355,93.64285,-0.0,0.22657384,15.282983,0.013071229,1.5797777,1.0848976,1.0128475,0.0,2,0,0,0
82168000,47.39772459738075,8.561318242400809,588.57654,93.62546,-0.0,0.22830889,15.282567,0.014983938,1.5796471,1.0847056,1.0128455,0.0,2,0,0,0
82368000,47.397724960868885,8.561358849132807,588.5769,93.60544,-0.0,0.23244545,15.282793,0.017875493,1.5792565,1.0845269,1.0128436,0.0,2,0,0,0
82568000,47.39772533797559,8.561399421811661,588.57666,93.58481,-0.0,0.24025834,15.2794075,0.019749556,1.5789813,1.0843353,1.0128416,0.0,2,0,0,0
82768000,47.397725725759095,8.561439960436514,588.57745,93.565216,-0.0,0.24562356,15.273944,0.016188882,1.5785993,1.0841631,1.0128397,0.0,2,0,0,0
82968000,47.39772612728348,8.561480426085119,588.577,93.5444,-0.0,0.25547853,15.270412,0.0219721,1.5781822,1.0839673,1.0128376,0.0,2,0,0,0
83168000,47.39772655403839,8.561520925799766,588.57684,93.523834,-0.0,0.2633474,15.261547,0.0227105,1.577503,1.0837965,1.0128357,0.0,2,0,0,0
83368000,47.39772699409655,8.561561432006307,588.5765,93.50308,-0.0,0.26242656,15.258413,0.024646662,1.5771827,1.0836017,1.0128337,0.0,2,0,0,0
83568000,47.39772742739741,8.56160198200007,588.5742,93.48044,-0.0,0.2571449,15.254165,0.027449809,1.5773379,1.0834318,1.0128318,0.0,2,0,0,0
83768000,47.39772784476509,8.561642514149854,588.5702,93.456024,-0.0,0.24136671,15.253792,0.032635354,1.5782274,1.0832378,1.0128298,0.0,2,0,0,0
83968000,47.39772822334802,8.561683038179442,588.56506,93.43051,-0.0,0.22292532,15.252466,0.03885728,1.5794744,1.0830673,1.0128279,0.0,2,0,0,0
84168000,47.397728550817774,8.561723581655569,588.55896,93.40402,-0.0,0.20251375,15.252129,0.045370433,1.5810694,1.0828724,1.0128258,0.0,2,0,0,0
84368000,47.397728835064434,8.56176413971514,588.5522,93.37686,-0.0,0.18058516,15.253728,0.048407447,1.5824792,1.0827008,1.0128239,0.0,2,0,0,0
84568000,47.39772907620265,8.561804666947689,588.5457,93.350006,-0.0,0.15690522,15.254793,0.048147045,1.584033,1.0825055,1.0128219,0.0,2,0,0,0
84768000,47.397729268677196,8.561845207140005,588.5398,93.3237,-0.0,0.13046989,15.255129,0.048427124,1.5856277,1.0823337,1.0128201,0.0,2,0,0,0
84968000,47.39772942103834,8.561885779756217,588.53394,93.297455,-0.0,0.10244138,15.254215,0.04939277,1.5874844,1.082144,1.0128181,0.0,2,0,0,0
85168000,47.397729529887336,8.561926341006581,588.529,93.272125,-0.0,0.07452397,15.254705,0.050869156,1.5893089,1.0819672,1.0128162,0.0,2,0,0,0
85368000,47.39772958395293,8.561966902240096,588.52344,93.246185,-0.0,0.046608843,15.251872,0.05364615,1.5910919,1.0817779,1.0128142,0.0,2,0,0,0
85568000,47.39772958984792,8.56200748454209,588.5172,93.219574,-0.0,0.016260171,15.252416,0.056574512,1.5929389,1.0816014,1.0128123,0.0,2,0,0,0
85768000,47.39772953362825,8.562048061959302,588.5107,93.19266,-0.0,-0.016458396,15.2564335,0.061176684,1.5947974,1.0814128,1.0128103,0.0,2,0,0,0
85968000,47.397729415169536,8.562088619895347,588.50574,93.16733,-0.0,-0.046496246,15.256207,0.060103197,1.5963665,1.0812367,1.0128084,0.0,2,0,0,0
86168000,47.3977292438803,8.562129181058236,588.50055,93.141754,-0.0,-0.077275135,15.257127,0.05891244,1.5983045,1.0810487,1.0128065,0.0,2,0,0,0
86368000,47.39772900907629,8.562169774636883,588.497,93.11783,-0.0,-0.10770633,15.259964,0.059106994,1.6003908,1.0808738,1.0128046,0.0,2,0,0,0
86568000,47.397728717123975,8.56221036008815,588.4945,93.09494,-0.0,-0.13964234,15.264719,0.05898284,1.6023613,1.0806876,1.0128027,0.0,2,0,0,0
86768000,47.397728357366624,8.562250961735538,588.49365,93.0737,-0.0,-0.17405227,15.266987,0.056269795,1.6048199,1.0805142,1.0128008,0.0,2,0,0,0
86968000,47.39772793140186,8.562291592553793,588.49164,93.0513,-0.0,-0.21685207,15.269213,0.055162575,1.6071724,1.0803294,1.0127988,0.0,2,0,0,0
87168000,47.39772742170056,8.562332190908796,588.48914,93.02841,-0.0,-0.26591444,15.265082,0.055815227,1.6103889,1.0801628,1.012797,0.0,2,0,0,0
87368000,47.39772680003139,8.56237281841976,588.4844,93.003265,-0.0,-0.326947,15.265545,0.05769667,1.6140989,1.0799744,1.012795,0.0,2,0,0,0
87568000,47.39772604695332,8.56241347508022,588.4759,92.974396,-0.0,-0.40859365,15.267611,0.063777655,1.6194196,1.0798088,1.0127932,0.0,2,0,0,0
87768000,47.397725113045574,8.562454147899658,588.4653,92.94339,-0.0,-0.5354745,15.269814,0.07803068,1.6282705,1.0796214,1.0127912,0.0,2,0,0,0
87968000,47.39772385963524,8.562494778448382,588.4516,92.90933,-0.0,-0.7736816,15.266616,0.10747425,1.6439712,1.0794561,1.0127892,0.0,2,0,0,0
