timestamp,timestamp_sample,xyz[0],xyz[1],xyz[2]
180000,180000,-0.0030948091,-0.0043000313,-0.001149962
184000,184000,-0.0029513268,-0.0041195373,-0.0012564647
188000,188000,-0.002825866,-0.0039576767,-0.0012087538
192000,192000,-0.002756352,-0.0038294257,-0.0010836723
200000,200000,-0.0021681248,-0.00379463,-0.0008199771
204000,204000,-0.0015445163,-0.0039033853,-0.00054082356
208000,208000,-0.00094263034,-0.004029778,-0.00028367725
212000,212000,-0.00038295123,-0.0041583152,-8.783656e-05
220000,220000,0.00064975984,-0.00438613,0.00038621205
224000,224000,0.0009367908,-0.004685153,0.00055875874
228000,228000,0.0010113518,-0.0049064728,0.0005722442
236000,236000,0.00054673373,-0.0048152506,0.00039010163
240000,240000,0.0002092,-0.0047630076,0.00033663513
244000,244000,-4.8338065e-05,-0.004859429,0.00029755186
248000,248000,-0.00032823643,-0.004991983,0.00020533966
252000,252000,-0.0008481282,-0.00507662,9.3403e-06
260000,260000,-0.0024767113,-0.0052102124,-0.0006266063
264000,264000,-0.0031009489,-0.0052572354,-0.0009628716
272000,272000,-0.0034393,-0.005650497,-0.0013065947
276000,276000,-0.0034607907,-0.0059021777,-0.0014833964
280000,280000,-0.003443585,-0.006172566,-0.0016615016
284000,284000,-0.003378909,-0.006456779,-0.0017790913
288000,288000,-0.0032243584,-0.0067714513,-0.0019408071
292000,292000,-0.0029722473,-0.006993373,-0.0021291056
296000,296000,-0.0026585464,-0.007071561,-0.0020369648
304000,304000,-0.001972864,-0.0072187576,-0.0010086914
308000,308000,-0.0016343545,-0.0073409504,-0.00039026598
312000,312000,-0.0013420888,-0.007693973,0.00028890095
316000,316000,-0.0011437751,-0.008220351,0.00083885517
320000,320000,-0.0010449425,-0.008719477,0.0012399531
324000,324000,-0.001012894,-0.008983432,0.001594424
328000,328000,-0.0011249917,-0.009025597,0.0018386949
332000,332000,-0.0013750016,-0.008987841,0.0020112384
336000,336000,-0.0016307579,-0.008847809,0.0022296035
340000,340000,-0.0018052211,-0.008538684,0.0024449013
344000,344000,-0.0018719338,-0.008060748,0.0024975461
348000,348000,-0.001827759,-0.0074480064,0.0023694325
352000,352000,-0.0016101426,-0.0067825625,0.002204947
356000,356000,-0.00124018,-0.00623732,0.0020785613
360000,360000,-0.0008350598,-0.0058589885,0.0019798607
364000,364000,-0.00047118333,-0.005552159,0.0018568306
368000,368000,-0.00013889238,-0.0052980017,0.0016453072
372000,372000,0.0002651367,-0.0050883093,0.0013654202
376000,376000,0.00074021955,-0.0048729004,0.0011117021
380000,380000,0.0010925265,-0.0045751478,0.000882516
384000,384000,0.0011913895,-0.004161839,0.0006575023
388000,388000,0.0010902113,-0.0037323297,0.00048108253
392000,392000,0.0009112188,-0.0034801664,0.00041067976
396000,396000,0.0007095396,-0.003485239,0.00042582897
400000,400000,0.00043257367,-0.0036310041,0.00036684505
404000,404000,0.000101502796,-0.0038086628,0.00026890638
408000,408000,-0.00015928633,-0.003935688,0.00032199998
412000,412000,-0.00039967737,-0.003956821,0.00045550952
416000,416000,-0.0007695716,-0.0040092655,0.000499586
420000,420000,-0.0011660623,-0.0042222263,0.00045306192
424000,424000,-0.0013781007,-0.0044731186,0.00038438485
428000,428000,-0.0014503559,-0.0046925074,0.0003012229
432000,432000,-0.001515327,-0.0049762228,0.0002661125
436000,436000,-0.0016005766,-0.0052764793,0.00033051101
440000,440000,-0.0017140288,-0.005497652,0.0004936807
444000,444000,-0.0017940217,-0.005684575,0.0008326221
448000,448000,-0.0018241268,-0.0058486,0.0012764856
452000,452000,-0.0018319415,-0.005984597,0.0016305415
456000,456000,-0.001857474,-0.0062124934,0.0018366538
460000,460000,-0.0020081718,-0.006505259,0.0019662203
464000,464000,-0.0022185324,-0.0066329245,0.0019869606
468000,468000,-0.0022444013,-0.0066518933,0.0017726822
472000,472000,-0.0020485546,-0.006727103,0.0014162157
476000,476000,-0.0018576053,-0.0068117175,0.0010550676
480000,480000,-0.0018164098,-0.00694956,0.0006789506
484000,484000,-0.0018829148,-0.0071697826,0.00035590344
488000,488000,-0.0019156083,-0.0074114827,0.0002321148
492000,492000,-0.0018867347,-0.0076543614,0.00022356711
496000,496000,-0.0019496956,-0.0078009567,0.00012057992
500000,500000,-0.0021983143,-0.007793112,3.0682742e-05
504000,504000,-0.0024681035,-0.0077179605,0.000118768454
508000,508000,-0.002572096,-0.007649498,0.0002586422
512000,512000,-0.002596432,-0.0075879414,0.00035173754
516000,516000,-0.0026276251,-0.007545019,0.00044691475
520000,520000,-0.002545636,-0.007522852,0.00059769326
524000,524000,-0.0022957015,-0.0074700615,0.0007686835
528000,528000,-0.0020971247,-0.007393819,0.0008186738
532000,532000,-0.0021200003,-0.0072364756,0.0007008331
536000,536000,-0.0022568465,-0.0067999675,0.00045911616
540000,540000,-0.0022893334,-0.0060895374,0.0001555774
544000,544000,-0.002085804,-0.0053384556,-0.00016422068
548000,548000,-0.0017033517,-0.0047091544,-0.0004888729
552000,552000,-0.0013504138,-0.004259329,-0.00082722225
556000,556000,-0.0011685188,-0.0039942544,-0.001182857
560000,560000,-0.0010518428,-0.0038600513,-0.0014352606
564000,564000,-0.0009033524,-0.0038118786,-0.001577598
568000,568000,-0.0007318406,-0.0038019528,-0.0016982248
572000,572000,-0.0006051027,-0.0037472749,-0.0017581547
576000,576000,-0.00060893846,-0.0036275797,-0.0017666051
580000,580000,-0.0007616134,-0.0035351883,-0.0018210688
584000,584000,-0.001021783,-0.0035074307,-0.0019299394
588000,588000,-0.0011832062,-0.003442494,-0.002006025
592000,592000,-0.0011622786,-0.0033650245,-0.0019953095
596000,596000,-0.0011054511,-0.0034638057,-0.0018295588
600000,600000,-0.0010706167,-0.003647154,-0.001535036
604000,604000,-0.0010344259,-0.0037339036,-0.0012265742
608000,608000,-0.00095584855,-0.0038629645,-0.000980261
612000,612000,-0.0008714847,-0.0041450784,-0.0007962095
616000,616000,-0.0008646329,-0.0045771827,-0.0006162659
620000,620000,-0.00096574106,-0.0050914115,-0.00045779033
624000,624000,-0.0011466035,-0.005623675,-0.00036646513
628000,628000,-0.0012572887,-0.0062409835,-0.0003702556
632000,632000,-0.0011671546,-0.0068208072,-0.00039339167
636000,636000,-0.00090881635,-0.007141851,-0.00028821605
640000,640000,-0.00058557355,-0.0072679827,-8.251192e-05
644000,644000,-0.00029890775,-0.007290069,3.751252e-05
648000,648000,-0.00011218968,-0.0071945866,2.3013636e-05
652000,652000,3.3575983e-05,-0.007066627,-3.5828583e-05
656000,656000,0.0002270764,-0.006912791,-0.00015786958
664000,664000,0.0005792333,-0.006424313,-0.00060705515
668000,668000,0.0006512477,-0.0062583596,-0.00062246586
676000,676000,0.0009899286,-0.006021168,-0.00046310935
684000,684000,0.00077571,-0.0061415294,-0.00026456546
688000,688000,0.00060231675,-0.006202528,-3.4055713e-05
692000,692000,0.00025723694,-0.006192432,0.0002159567
696000,696000,-0.0002724119,-0.0062199016,0.00041151984
704000,704000,-0.0014316831,-0.006019997,0.000589375
708000,708000,-0.0020250576,-0.005646279,0.0003429436
716000,716000,-0.0029998894,-0.0049911863,-0.000621369
724000,724000,-0.0035793309,-0.004416822,-0.0012831126
728000,728000,-0.003786228,-0.0040443363,-0.0012236335
732000,732000,-0.004002518,-0.0036646335,-0.001116785
736000,736000,-0.004284689,-0.0032902358,-0.0010166606
744000,744000,-0.0047936854,-0.0032186904,-0.0005947379
748000,748000,-0.004687626,-0.0034404972,-0.00047772581
752000,752000,-0.004339474,-0.003582789,-0.00060337107
756000,756000,-0.0038968092,-0.003713743,-0.00076306897
760000,760000,-0.003335272,-0.0038240878,-0.00089410844
768000,768000,-0.0020718353,-0.0039283154,-0.0012045795
776000,776000,-0.0011948067,-0.004104461,-0.0013425155
780000,780000,-0.0007309779,-0.0043153847,-0.0013656259
784000,784000,-0.00024358675,-0.004376888,-0.0013495607
792000,792000,0.0008506359,-0.0041559148,-0.0014256553
796000,796000,0.0012764656,-0.0042275726,-0.0014862738
800000,800000,0.001489662,-0.0043143667,-0.0014744019
808000,808000,0.0011957597,-0.0045032217,-0.0016420993
812000,812000,0.00063393055,-0.0047141407,-0.0018451638
816000,816000,2.3631976e-05,-0.005196515,-0.002081249
820000,820000,-0.0005289638,-0.00584236,-0.002227216
824000,824000,-0.00096788973,-0.006411457,-0.002154998
832000,832000,-0.0014683735,-0.0067849844,-0.0017843924
836000,836000,-0.001687539,-0.006740827,-0.0015515914
840000,840000,-0.0018673661,-0.006740471,-0.0013654022
844000,844000,-0.0019720118,-0.0066681644,-0.0013373296
848000,848000,-0.0020192638,-0.0065679234,-0.0014488539
856000,856000,-0.002059848,-0.0069645927,-0.0017401525
860000,860000,-0.001836302,-0.0072100656,-0.0016736222
864000,864000,-0.001551646,-0.007366999,-0.0014412202
868000,868000,-0.0013060393,-0.007521459,-0.0011598617
872000,872000,-0.0010422571,-0.007646041,-0.00090021855
876000,876000,-0.00066657027,-0.007636857,-0.0007844915
880000,880000,-0.00021537676,-0.007452674,-0.000891323
884000,884000,0.0001947642,-0.0071660164,-0.0010387007
888000,888000,0.00052151957,-0.00688354,-0.0010321185
896000,896000,0.00094136654,-0.0062177614,-0.0008828592
900000,900000,0.0010995553,-0.0058301357,-0.00083165
904000,904000,0.0012678176,-0.0055005043,-0.0007354219
908000,908000,0.0014571256,-0.0052947067,-0.0006014595
912000,912000,0.0016385647,-0.0052168444,-0.0005034409
916000,916000,0.0017346989,-0.0052659228,-0.0004952699
920000,920000,0.0017261583,-0.005355819,-0.0005509689
928000,928000,0.001528047,-0.005465974,-0.0005992303
932000,932000,0.0012959973,-0.005530817,-0.00050213
936000,936000,0.0010140416,-0.0056136865,-0.00042391277
940000,940000,0.00075222226,-0.0057638003,-0.00033517566
944000,944000,0.0005086427,-0.0059491484,-0.00022897999
948000,948000,0.00026723975,-0.0060568624,-0.00013691763
952000,952000,-4.0209372e-05,-0.006083458,-8.165822e-05
956000,956000,-0.00043597052,-0.0059791226,-2.4857727e-06
964000,964000,-0.000850995,-0.005310416,0.00021956509
968000,968000,-0.00083895103,-0.005027357,0.00030401186
972000,972000,-0.00083487935,-0.00482044,0.00040431833
976000,976000,-0.00080385525,-0.004632757,0.00045326535
980000,980000,-0.00072193553,-0.0043752957,0.0004289333
988000,988000,-0.00045821656,-0.0038023782,0.00035439894
992000,992000,-0.00032637667,-0.0036107658,0.0002074645
996000,996000,-0.00018473985,-0.0035187486,1.1220251e-05
1004000,1004000,-4.3387525e-05,-0.0036249408,-0.0004292066
1012000,1012000,-0.0003455865,-0.004010653,-0.000852606
1016000,1016000,-0.0005044902,-0.0041180854,-0.0011791626
1024000,1024000,-0.00046896213,-0.00434333,-0.0018258118
1028000,1028000,-0.0005019852,-0.0046107653,-0.0021688207
1032000,1032000,-0.00048815977,-0.0049141617,-0.0024259805
1036000,1036000,-0.00040579002,-0.005068998,-0.0024390148
1040000,1040000,-0.00044535537,-0.0050579845,-0.0021438778
1048000,1048000,-0.0005285004,-0.004812189,-0.0010947827
1052000,1052000,-0.00057373743,-0.004594887,-0.00070062914
1056000,1056000,-0.0006512631,-0.004440765,-0.0003632647
1060000,1060000,-0.0007439281,-0.0044210968,8.6554326e-05
1064000,1064000,-0.00087563397,-0.0044353018,0.00068941433
1068000,1068000,-0.0009894979,-0.004249833,0.0013110385
1076000,1076000,-0.0013068033,-0.0032848893,0.0019406357
1080000,1080000,-0.0015682095,-0.0027443883,0.0018872765
1084000,1084000,-0.001810554,-0.002282107,0.00174033
1092000,1092000,-0.0020833681,-0.0019031847,0.0011823543
1096000,1096000,-0.0019391549,-0.0018906246,0.00083551963
1104000,1104000,-0.0013897391,-0.0019334113,0.00018716084
1108000,1108000,-0.001106668,-0.0019182181,-0.00016124023
1112000,1112000,-0.0007853523,-0.0019072987,-0.0005135356
1116000,1116000,-0.0005185483,-0.0019726832,-0.00085864373
1120000,1120000,-0.0002733902,-0.002254555,-0.0012253807
1128000,1128000,0.00051657757,-0.0029974682,-0.0016088547
1132000,1132000,0.00093183416,-0.0033683237,-0.0016632434
1136000,1136000,0.0011798909,-0.0037419912,-0.0017264806
1140000,1140000,0.0013444654,-0.004098215,-0.0016802236
1144000,1144000,0.0014711462,-0.0045391247,-0.0014665242
1148000,1148000,0.0014616613,-0.0050248173,-0.0010981512
1152000,1152000,0.0012972276,-0.005440001,-0.0005879869
1156000,1156000,0.0010064876,-0.0058035334,-0.00010315922
1160000,1160000,0.00061549584,-0.006127908,0.00020642375
1164000,1164000,0.00014656966,-0.0064114896,0.00039039642
1168000,1168000,-0.0003097595,-0.0065874965,0.00052760006
1172000,1172000,-0.0005194701,-0.0066255718,0.00052334345
1176000,1176000,-0.00046388945,-0.00669168,0.000285785
1180000,1180000,-0.00039045565,-0.006850899,-3.5586432e-05
1188000,1188000,-0.00066351047,-0.006850267,-0.00024570097
1192000,1192000,-0.00089520356,-0.006586166,-4.334657e-05
1196000,1196000,-0.0011151426,-0.0063538044,8.924886e-05
1200000,1200000,-0.0014046109,-0.006253111,3.8122926e-06
1204000,1204000,-0.001750535,-0.006272644,-0.00018379209
1212000,1212000,-0.0021614903,-0.006326706,-0.0005342129
1216000,1216000,-0.002263916,-0.0060781324,-0.00073948095
1224000,1224000,-0.0024926667,-0.0055813678,-0.0005276607
1228000,1228000,-0.0026148546,-0.0056654434,-0.00019888245
1232000,1232000,-0.0027811818,-0.005852145,5.1324732e-05
1236000,1236000,-0.0029851208,-0.005986323,0.00017679339
1240000,1240000,-0.0031795546,-0.005986146,0.00024258764
1244000,1244000,-0.003302769,-0.005872365,0.0002855386
1252000,1252000,-0.003305964,-0.00567491,0.00064812665
1256000,1256000,-0.0032997583,-0.0055109574,0.0010089305
1260000,1260000,-0.0032578472,-0.0054896553,0.0013534888
1264000,1264000,-0.003103588,-0.0055830097,0.0016249816
1268000,1268000,-0.0029648843,-0.0056849937,0.0018192466
1272000,1272000,-0.0029272127,-0.005796034,0.0018282202
1276000,1276000,-0.0029184008,-0.005918444,0.0016682378
1280000,1280000,-0.00291366,-0.0059746094,0.0015217456
1284000,1284000,-0.0029105078,-0.0058851317,0.0014751437
1292000,1292000,-0.002689909,-0.005457365,0.0016080253
1296000,1296000,-0.0025248758,-0.005239644,0.0016902473
1300000,1300000,-0.002416211,-0.004980778,0.0017607452
1304000,1304000,-0.002301767,-0.0047434564,0.0016775087
1308000,1308000,-0.0021435707,-0.0046870396,0.001356682
1312000,1312000,-0.0020365324,-0.0047846166,0.0009094984
1316000,1316000,-0.001982595,-0.004896394,0.00049539626
1320000,1320000,-0.0019227399,-0.0049349787,0.00020618405
1328000,1328000,-0.0020609512,-0.0049510594,-0.00019504168
1332000,1332000,-0.0022032165,-0.0050784415,-0.00025517057
1336000,1336000,-0.0023722535,-0.005245246,-0.00018461508
1340000,1340000,-0.0025290484,-0.0053979675,-0.00015826605
1344000,1344000,-0.00258839,-0.005543412,-0.00020535038
1352000,1352000,-0.0025773798,-0.0055031343,-0.00046442146
1360000,1360000,-0.0025598237,-0.005256622,-0.0011386329
1364000,1364000,-0.0026876,-0.0052045034,-0.0014922902
1368000,1368000,-0.002928918,-0.0051825186,-0.0018238972
1372000,1372000,-0.003111715,-0.005124376,-0.0019978206
1380000,1380000,-0.0035237097,-0.0050954786,-0.0018310326
1384000,1384000,-0.003799156,-0.005158005,-0.0016577241
1388000,1388000,-0.0040009804,-0.005108971,-0.0015331397
1392000,1392000,-0.0040927264,-0.0049793483,-0.0014327394
1396000,1396000,-0.004180806,-0.0048777647,-0.0012859055
1400000,1400000,-0.004360777,-0.0047940887,-0.0010707037
1404000,1404000,-0.0045457436,-0.0047753435,-0.00078555907
1408000,1408000,-0.004666116,-0.004819691,-0.00054109574
1412000,1412000,-0.0046798624,-0.004798066,-0.00045165446
1416000,1416000,-0.0044458034,-0.0046957573,-0.00052603724
1420000,1420000,-0.0040679392,-0.0045553693,-0.0007163865
1424000,1424000,-0.0038304825,-0.004492607,-0.0008799465
1428000,1428000,-0.003768011,-0.00465104,-0.0008990159
1432000,1432000,-0.0036808602,-0.0049547898,-0.00080480316
1436000,1436000,-0.0034145606,-0.005205364,-0.00072439376
1444000,1444000,-0.002376088,-0.005672064,-0.0005212721
1448000,1448000,-0.0017705376,-0.0061713294,-0.0004066279
1452000,1452000,-0.0013367744,-0.006711598,-0.00020179163
1456000,1456000,-0.0010857821,-0.006960375,2.1164858e-05
1460000,1460000,-0.0008506902,-0.0069300444,0.00015927877
1464000,1464000,-0.00054136873,-0.0069237184,0.00032582987
1468000,1468000,-0.00020289705,-0.007038063,0.0005312969
1472000,1472000,3.538427e-05,-0.007117052,0.000692692
1476000,1476000,2.7655195e-05,-0.0070185866,0.0008941813
1480000,1480000,-0.00010028874,-0.0067819767,0.001083404
1484000,1484000,-0.00016005464,-0.006577178,0.0010905406
1488000,1488000,-0.00018638163,-0.0064729406,0.0010374653
1492000,1492000,-0.00028559772,-0.006416546,0.0010534943
1496000,1496000,-0.00043822714,-0.0063529112,0.0010212376
1500000,1500000,-0.0005441724,-0.006195564,0.0008199462
1504000,1504000,-0.00056968385,-0.0059029674,0.0005843837
1508000,1508000,-0.0005285325,-0.005678044,0.00043195914
1512000,1512000,-0.00053543935,-0.0056788237,0.00020555485
1516000,1516000,-0.000724132,-0.00576068,-7.231681e-05
1520000,1520000,-0.00094834587,-0.0058489884,-0.00022528578
1524000,1524000,-0.001027865,-0.0059731537,-0.0002455133
1528000,1528000,-0.0010068199,-0.006034769,-0.00024029413
1532000,1532000,-0.0008876678,-0.0059438776,-0.00028503354
1536000,1536000,-0.00071754446,-0.00581147,-0.00035682812
1544000,1544000,-0.00047956643,-0.005967312,-0.00053577905
1548000,1548000,-0.0004062559,-0.005992919,-0.0005800654
1556000,1556000,-0.000496799,-0.0056598894,-0.00091474754
1564000,1564000,-0.0008485111,-0.00569248,-0.0010375377
1572000,1572000,-0.0011640957,-0.0058765784,-0.0008531774
1576000,1576000,-0.0012130864,-0.0056434944,-0.00056251895
1584000,1584000,-0.0012704559,-0.0049516577,-0.00011726332
1588000,1588000,-0.0012653859,-0.0046358607,-3.279392e-05
1592000,1592000,-0.0012144139,-0.004330853,0.00012323828
1596000,1596000,-0.0011489488,-0.0040893443,0.00037446583
1600000,1600000,-0.0011942621,-0.0041079717,0.00065769255
1604000,1604000,-0.0013812642,-0.004427,0.0009025196
1608000,1608000,-0.0016931396,-0.004853177,0.0010164747
1612000,1612000,-0.0020633999,-0.005317508,0.0010216353
1616000,1616000,-0.0023963233,-0.0057797306,0.00097151636
1620000,1620000,-0.0027297114,-0.0061886967,0.00085818366
1624000,1624000,-0.0031234166,-0.0066110464,0.000810951
1628000,1628000,-0.0035072076,-0.0070085363,0.00089706946
1632000,1632000,-0.0038376532,-0.0072355736,0.00095103023
1636000,1636000,-0.0041045845,-0.0073348563,0.0008536491
1640000,1640000,-0.0042372122,-0.0074129994,0.0006788773
1644000,1644000,-0.004217731,-0.007360028,0.0005988283
1648000,1648000,-0.0041645938,-0.007095244,0.00066693855
1652000,1652000,-0.0042134672,-0.006845329,0.0008533654
1656000,1656000,-0.0042804186,-0.00671248,0.0011556773
1664000,1664000,-0.0041009765,-0.006513353,0.001383636
1672000,1672000,-0.0035699522,-0.006118289,0.0008999796
1676000,1676000,-0.0031402498,-0.005794433,0.0006392306
1684000,1684000,-0.0025879312,-0.0052708457,0.00030936114
1688000,1688000,-0.002467943,-0.0050312267,0.00042257743
1692000,1692000,-0.0024131245,-0.0047294167,0.00059788313
1696000,1696000,-0.002326054,-0.0044060578,0.00078569993
1700000,1700000,-0.0021926633,-0.0041837255,0.0010119497
1704000,1704000,-0.0020204545,-0.0040823547,0.0011744342
1708000,1708000,-0.0018617432,-0.004010234,0.0012431922
1712000,1712000,-0.0018245457,-0.003952066,0.0013207408
1716000,1716000,-0.001880589,-0.004072804,0.0014249765
1724000,1724000,-0.0019264037,-0.0051024323,0.0013081144
1728000,1728000,-0.001918856,-0.005774717,0.0010307606
1732000,1732000,-0.0019264703,-0.006398095,0.0006951635
1736000,1736000,-0.0020224946,-0.006895591,0.00037455437
1740000,1740000,-0.0022712052,-0.007181996,8.001256e-05
1744000,1744000,-0.0025575017,-0.007354942,-0.00014427747
1748000,1748000,-0.002756245,-0.0074294405,-0.00025931996
1752000,1752000,-0.0029303252,-0.007366468,-0.0003949039
1760000,1760000,-0.0029436243,-0.0072470256,-0.00076652603
1764000,1764000,-0.0026979446,-0.0072815157,-0.0009473461
1768000,1768000,-0.002488688,-0.0073309895,-0.0011420846
1772000,1772000,-0.00219842,-0.007414,-0.0012777498
1780000,1780000,-0.001592871,-0.007757955,-0.0012586494
1784000,1784000,-0.0015082151,-0.008078527,-0.001218112
1788000,1788000,-0.001428853,-0.008371149,-0.0011139746
1796000,1796000,-0.0012608368,-0.008761634,-0.00060657394
1804000,1804000,-0.00054590043,-0.009014459,-0.00019887634
1808000,1808000,-0.00017701108,-0.009221067,-0.000108895314
1812000,1812000,0.00014063898,-0.009410694,-0.00016115194
1816000,1816000,0.00038986784,-0.0095038945,-0.00038491306
1820000,1820000,0.0006064379,-0.009487143,-0.0006248591
1824000,1824000,0.0008078391,-0.009453698,-0.00072567293
1832000,1832000,0.0010092058,-0.009206083,-0.00069116463
1836000,1836000,0.00095348794,-0.009080489,-0.00073800277
1840000,1840000,0.00082704495,-0.008955721,-0.0008406548
1844000,1844000,0.00058489305,-0.008844372,-0.00092916563
1848000,1848000,0.0003199391,-0.00881419,-0.00088369666
1856000,1856000,-2.9243824e-05,-0.008956336,-0.0004193054
1860000,1860000,-0.00021818785,-0.009052206,-0.00017175834
1868000,1868000,-0.000667718,-0.008715765,0.00035888853
1876000,1876000,-0.0010605329,-0.0076860334,0.00070588174
1880000,1880000,-0.0011709805,-0.007221149,0.00074136537
1884000,1884000,-0.0012106271,-0.006837392,0.0007008773
1888000,1888000,-0.0013120822,-0.006459779,0.00062428653
1892000,1892000,-0.0015428595,-0.006106836,0.00047287482
1900000,1900000,-0.0019014435,-0.005569878,-0.00012869072
1904000,1904000,-0.0020369072,-0.0053903507,-0.0004379074
1908000,1908000,-0.0020894622,-0.0051837517,-0.00070852507
1912000,1912000,-0.002102926,-0.0049472563,-0.00084724603
1916000,1916000,-0.0022355483,-0.0047886036,-0.00085932686
1924000,1924000,-0.0026284424,-0.0046626218,-0.0010741254
1928000,1928000,-0.002659216,-0.004844174,-0.0011352414
1936000,1936000,-0.0029554395,-0.0055590943,-0.00079723285
1940000,1940000,-0.0031104046,-0.005808563,-0.0006146328
1944000,1944000,-0.0031019258,-0.0060272533,-0.0005765866
1952000,1952000,-0.002728344,-0.0067628073,-0.00097055256
1956000,1956000,-0.002772226,-0.0070086536,-0.0013132833
1964000,1964000,-0.0030867474,-0.0066492893,-0.0019103868
1968000,1968000,-0.002927372,-0.006426824,-0.0019832887
1972000,1972000,-0.0026840712,-0.0063614,-0.0018843785
1976000,1976000,-0.0025829854,-0.0064040516,-0.0017564495
1980000,1980000,-0.0025947264,-0.006410362,-0.0016514098
1984000,1984000,-0.002550661,-0.00640981,-0.0015671181
1988000,1988000,-0.0024349687,-0.006429072,-0.0014112937
1992000,1992000,-0.0023836396,-0.006395134,-0.0010566689
1996000,1996000,-0.002426853,-0.006286375,-0.0005810504
2000000,2000000,-0.0024912714,-0.006129398,-0.00016791518
2004000,2004000,-0.0025390035,-0.0059777303,9.4917144e-05
2008000,2008000,-0.0025402112,-0.0059633227,0.00025729675
2012000,2012000,-0.0024356332,-0.006157979,0.00039459736
2020000,2020000,-0.0019477862,-0.0067805927,0.0007786086
2024000,2024000,-0.0017492522,-0.0068272497,0.0011680127
2028000,2028000,-0.0016727406,-0.0067783417,0.0015136942
2032000,2032000,-0.0016725429,-0.006742945,0.0017126625
2036000,2036000,-0.0016530632,-0.006666514,0.0018353086
2040000,2040000,-0.0015775983,-0.00652386,0.0018999982
2044000,2044000,-0.0014865992,-0.0063015516,0.0018055463
2048000,2048000,-0.0013211924,-0.006139962,0.0015761575
2052000,2052000,-0.0010683433,-0.0061210264,0.0013963551
2056000,2056000,-0.0007911798,-0.0061348756,0.0013298672
2060000,2060000,-0.0005359782,-0.0061755907,0.0013912844
2068000,2068000,-5.0854607e-05,-0.006718309,0.0016233916
2072000,2072000,0.00033911495,-0.00704873,0.0017419483
2076000,2076000,0.00084572815,-0.007345273,0.0018626251
2084000,2084000,0.0016425789,-0.007527928,0.0019954094
2088000,2088000,0.0017969669,-0.007237638,0.0020260015
2092000,2092000,0.0017652076,-0.0069332393,0.0018362137
2096000,2096000,0.0016159833,-0.006744758,0.0014737244
2104000,2104000,0.0010578487,-0.0067770616,0.0009928157
2108000,2108000,0.00082902063,-0.0068871537,0.0011120044
2112000,2112000,0.00053962757,-0.0069076763,0.0012256713
2120000,2120000,-2.6692353e-05,-0.006776558,0.0011871168
2124000,2124000,-0.00017092963,-0.00670921,0.0011486837
2128000,2128000,-0.00023446375,-0.006638471,0.0010433445
2136000,2136000,-0.0006609671,-0.006637851,0.00067525194
2144000,2144000,-0.0013018379,-0.0067231916,0.00038250722
2148000,2148000,-0.0015006473,-0.0067911306,0.00024521718
2152000,2152000,-0.001621487,-0.0068353713,0.00019232433
2156000,2156000,-0.0017762561,-0.0067637675,0.00019005532
2160000,2160000,-0.0020260033,-0.006552922,0.00024551433
2164000,2164000,-0.0022593809,-0.00629581,0.00045421632
2168000,2168000,-0.0023918343,-0.0060654134,0.00071988686
2172000,2172000,-0.0025046426,-0.0058777626,0.00086562627
2176000,2176000,-0.0025040344,-0.005835866,0.00089436746
2180000,2180000,-0.0022300638,-0.0058895964,0.00084558915
2184000,2184000,-0.0018378531,-0.005771485,0.0006972104
2188000,2188000,-0.001595687,-0.00556691,0.00041690323
2192000,2192000,-0.0015146965,-0.0055569033,7.414455e-05
2196000,2196000,-0.0014722568,-0.005645768,-0.00019147311
2200000,2200000,-0.0013979683,-0.005753347,-0.00040642117
2204000,2204000,-0.0012276807,-0.0059800446,-0.0006584165
2208000,2208000,-0.001018382,-0.006286183,-0.0009134883
2212000,2212000,-0.0009199983,-0.006568075,-0.0012461249
2216000,2216000,-0.0010482926,-0.0067024045,-0.0016785003
2220000,2220000,-0.0014218964,-0.00667034,-0.0020624828
2224000,2224000,-0.0019426006,-0.006521024,-0.0024161
2228000,2228000,-0.0025188029,-0.006294378,-0.0027395803
2232000,2232000,-0.0031127639,-0.0060523143,-0.0029378268
2236000,2236000,-0.0036981073,-0.0056908242,-0.0030484716
2240000,2240000,-0.004148014,-0.0052277884,-0.0030516102
2248000,2248000,-0.0043475227,-0.0048855213,-0.0024774657
2252000,2252000,-0.004418733,-0.0049276548,-0.0021168962
2256000,2256000,-0.004582002,-0.004924474,-0.0019257746
2260000,2260000,-0.004747441,-0.0048501412,-0.0019379195
2264000,2264000,-0.0048302114,-0.0047512194,-0.0019339523
2268000,2268000,-0.0047218176,-0.0046294867,-0.0017241249
2272000,2272000,-0.004390176,-0.004548079,-0.0013436413
2276000,2276000,-0.003962239,-0.0045091966,-0.0008664634
2280000,2280000,-0.0035791157,-0.004442108,-0.00035321846
2284000,2284000,-0.003219522,-0.004454326,0.00014391799
2288000,2288000,-0.00276102,-0.004673615,0.0006215693
2292000,2292000,-0.002223514,-0.00511508,0.0011013097
2296000,2296000,-0.0018185324,-0.005660345,0.0015202767
2300000,2300000,-0.0016811308,-0.006010839,0.0017546149
2308000,2308000,-0.0015022266,-0.005980906,0.0017325429
2312000,2312000,-0.001272029,-0.0059509994,0.001725252
2316000,2316000,-0.0009820999,-0.0058382372,0.0018280951
2320000,2320000,-0.00077193027,-0.0056085377,0.0019653973
2324000,2324000,-0.00069914205,-0.005415619,0.0021206024
2328000,2328000,-0.0008020933,-0.005445169,0.0023202384
2336000,2336000,-0.001518965,-0.00574479,0.0025776455
2340000,2340000,-0.0017628609,-0.005696373,0.0024585007
2344000,2344000,-0.0018663567,-0.0056093545,0.0024002986
2347999,2347999,-0.0018732669,-0.0055288617,0.0024781148
2352000,2352000,-0.0019146876,-0.005451823,0.0025862448
2355999,2355999,-0.002078198,-0.005357727,0.0026732471
2360000,2360000,-0.0021882425,-0.005262912,0.0027005186
2363999,2363999,-0.002098422,-0.005240903,0.0026377428
2368000,2368000,-0.0018915916,-0.005304884,0.0025032638
2371999,2371999,-0.001642848,-0.0053893384,0.002375186
2376000,2376000,-0.0013551302,-0.0054739336,0.0022341658
2384000,2384000,-0.000684132,-0.0055790506,0.0015343236
2387999,2387999,-0.00037233165,-0.005646049,0.0010566675
2392000,2392000,-0.00023048675,-0.0056038825,0.0006411852
2400000,2400000,-0.00017822564,-0.005319558,-9.438151e-05
2408000,2408000,-0.0004900345,-0.005425254,-0.000495725
2411999,2411999,-0.0007076141,-0.0055973283,-0.0006231802
2416000,2416000,-0.0007738287,-0.0057367906,-0.00068672607
2419999,2419999,-0.0006920265,-0.0058919797,-0.0006890736
2424000,2424000,-0.0005395561,-0.006084662,-0.0005806731
2427999,2427999,-0.00026483714,-0.0062556164,-0.00033538273
2432000,2432000,0.0001822194,-0.0063952333,-0.0002006574
2435999,2435999,0.00060173933,-0.0064876825,-0.00029004648
2440000,2440000,0.0008639632,-0.006512151,-0.00042615779
2443999,2443999,0.0009902555,-0.0065182447,-0.0005603559
2448000,2448000,0.0010194882,-0.006547819,-0.0006825931
2451999,2451999,0.001035789,-0.0066518653,-0.0007007372
2456000,2456000,0.0010555233,-0.006780794,-0.0006189686
2459999,2459999,0.0010508657,-0.006811268,-0.0004813157
2464000,2464000,0.0010020427,-0.0067280508,-0.00026385777
2467999,2467999,0.0010014519,-0.0065903384,-1.9848747e-05
2472000,2472000,0.0011305818,-0.0064663165,0.00012817573
2480000,2480000,0.0013843371,-0.006491731,0.000261823
2483999,2483999,0.0015438197,-0.0066262875,0.00046416782
2488000,2488000,0.0016253854,-0.0066828234,0.0006811212
2491999,2491999,0.0015701052,-0.0066999644,0.00073387614
2499999,2499999,0.0010778231,-0.0068689706,0.0003500934
2504000,2504000,0.0009710399,-0.006926138,0.00012480856
2507999,2507999,0.0010193163,-0.006830469,-1.5707077e-05
2512000,2512000,0.001016615,-0.006659832,-0.000116684336
2515999,2515999,0.0009318247,-0.0064281034,-0.00024048495
2520000,2520000,0.00071777514,-0.0060893022,-0.0003781306
2523999,2523999,0.0002618787,-0.005744159,-0.0005315598
2528000,2528000,-0.00037097145,-0.0054969485,-0.0006952695
2531999,2531999,-0.001024308,-0.005310114,-0.00087112625
2536000,2536000,-0.0016470233,-0.0050619496,-0.0010646369
2544000,2544000,-0.0028259833,-0.0045830514,-0.0013453773
2548000,2548000,-0.0032720258,-0.0044384906,-0.001358738
2552000,2552000,-0.00354225,-0.004354,-0.0012393644
2560000,2560000,-0.003737711,-0.0045695854,-0.0005808341
2564000,2564000,-0.0036612402,-0.0048495606,-0.0001466292
2568000,2568000,-0.0035914588,-0.005193898,0.00032180708
2576000,2576000,-0.0030069826,-0.005893823,0.0010807867
2584000,2584000,-0.0022574046,-0.0060795415,0.0018491091
2588000,2588000,-0.0020983333,-0.0060658255,0.002024526
2592000,2592000,-0.0020385415,-0.006143273,0.0020512913
2600000,2600000,-0.0022344394,-0.006265781,0.0021052358
2604000,2604000,-0.002231654,-0.006124992,0.0019954639
2608000,2608000,-0.0020772319,-0.005845282,0.0017060934
2612000,2612000,-0.0018768219,-0.0055629136,0.0013190281
2616000,2616000,-0.0016113465,-0.005330789,0.0009353137
2620000,2620000,-0.0013515672,-0.0051344074,0.0005721664
2624000,2624000,-0.0012453347,-0.0049593966,0.0002539566
2628000,2628000,-0.0012225396,-0.0048001497,7.4484284e-05
2632000,2632000,-0.0011672917,-0.004712116,8.307187e-05
2636000,2636000,-0.0010728597,-0.00461784,0.00015289849
2640000,2640000,-0.0008797301,-0.004419486,0.00022177928
2644000,2644000,-0.00060793664,-0.0042310776,0.00035832237
2648000,2648000,-0.0004027331,-0.0040879003,0.00048449263
2652000,2652000,-0.00026093447,-0.0038575963,0.000508495
2656000,2656000,-7.305255e-05,-0.0035749935,0.00051402044
2664000,2664000,0.00026424616,-0.0033916289,0.0007305154
2668000,2668000,0.0002432189,-0.0035032104,0.00094184704
2672000,2672000,7.190103e-05,-0.0037298896,0.0012475457
2676000,2676000,-9.588834e-05,-0.0041020424,0.0015856135
2684000,2684000,-0.0003263938,-0.004947014,0.002349801
2688000,2688000,-0.00038096742,-0.0052019274,0.0028908788
2696000,2696000,-0.00039451907,-0.0053251632,0.003751071
2700000,2700000,-0.00053459726,-0.005434192,0.004029583
2704000,2704000,-0.00063710526,-0.0056170416,0.004366598
2708000,2708000,-0.0006968976,-0.0058711134,0.004670909
2712000,2712000,-0.0007698105,-0.006113796,0.0048238807
2716000,2716000,-0.00088260206,-0.0062536537,0.004866874
2720000,2720000,-0.0009929982,-0.0062716682,0.004856863
2724000,2724000,-0.0010665791,-0.0062037944,0.0049709785
2732000,2732000,-0.001067031,-0.006392275,0.0053941747
2736000,2736000,-0.0010857536,-0.0064448817,0.0053061815
2740000,2740000,-0.0011305456,-0.0063024713,0.0051518804
2744000,2744000,-0.0011844325,-0.006099632,0.0050037806
2748000,2748000,-0.0012046208,-0.005933998,0.004759538
2752000,2752000,-0.0011932021,-0.0058294893,0.0044179717
2756000,2756000,-0.0011738018,-0.0057784803,0.0040786415
2760000,2760000,-0.0012271719,-0.0057069166,0.0038322457
2764000,2764000,-0.0013210126,-0.0055776723,0.003800294
2768000,2768000,-0.0012821687,-0.0054343734,0.0039579873
2776000,2776000,-0.0009260718,-0.0054478683,0.0045771
2780000,2780000,-0.0006204855,-0.0057330746,0.0048256787
2784000,2784000,-0.00038274666,-0.006091438,0.0047734147
2792000,2792000,-0.00013856575,-0.006818122,0.004081856
2796000,2796000,-0.00018425345,-0.007042599,0.00376158
2800000,2800000,-0.00039509125,-0.0071774377,0.0036664284
2804000,2804000,-0.0007001437,-0.0071733044,0.0035986495
2808000,2808000,-0.001028413,-0.0070495894,0.0034323363
2812000,2812000,-0.0013509205,-0.006894163,0.0033078103
2816000,2816000,-0.0016737026,-0.0066142045,0.0032803165
2824000,2824000,-0.0021616747,-0.005740374,0.0027777718
2828000,2828000,-0.0021593415,-0.0053671557,0.0020882953
2832000,2832000,-0.0020928443,-0.00501274,0.0014079688
2836000,2836000,-0.0019998758,-0.004728734,0.0009328919
2844000,2844000,-0.0018179772,-0.004200317,0.0005143604
2848000,2848000,-0.0017443362,-0.0038079706,0.0004890985
2852000,2852000,-0.0017041969,-0.0034523387,0.000511509
2856000,2856000,-0.0018026484,-0.0031782258,0.0006204912
2860000,2860000,-0.0019481495,-0.0030552673,0.00087355496
2868000,2868000,-0.00188782,-0.0031916678,0.0015584392
2872000,2872000,-0.0017641691,-0.003100354,0.0020436523
2876000,2876000,-0.001696695,-0.0029878272,0.0025948496
2884000,2884000,-0.0015520063,-0.0028239544,0.003586083
2888000,2888000,-0.0014370783,-0.0025741106,0.003951868
2896000,2896000,-0.0010642834,-0.0017706987,0.0043463903
2900000,2900000,-0.00087215414,-0.0012851647,0.004559691
2904000,2904000,-0.0006895361,-0.0009941116,0.004550112
2908000,2908000,-0.00057185814,-0.0009257098,0.004136346
2912000,2912000,-0.00046835875,-0.0010473976,0.0035629983
2916000,2916000,-0.0002874295,-0.0013660715,0.0030590114
2920000,2920000,-3.4208155e-05,-0.0017614362,0.0025556777
2924000,2924000,0.00013078189,-0.002092083,0.0019852105
2928000,2928000,0.00013517847,-0.0022776406,0.0014589878
2932000,2932000,0.00024185983,-0.002343418,0.0010249865
2936000,2936000,0.00055485155,-0.0023820838,0.0006173018
2940000,2940000,0.0010237169,-0.0024235866,0.00028525112
2944000,2944000,0.0016746136,-0.0025455698,0.000111522924
2948000,2948000,0.0023738123,-0.002816334,3.6470563e-05
2952000,2952000,0.002943721,-0.003209719,-6.883621e-05
2956000,2956000,0.0034203157,-0.00373602,-0.00032715552
2960000,2960000,0.00385854,-0.0043248297,-0.0007557187
2964000,2964000,0.004129001,-0.0047684927,-0.0011461623
2968000,2968000,0.00420779,-0.0049357666,-0.0013205883
2972000,2972000,0.0041130637,-0.0049176044,-0.0013912105
2980000,2980000,0.003653619,-0.0047934493,-0.0014190188
2984000,2984000,0.0035600672,-0.004539151,-0.0012721312
2988000,2988000,0.0036271457,-0.004156184,-0.0010461205
2992000,2992000,0.003724027,-0.0038354378,-0.00088721735
2996000,2996000,0.003738428,-0.0036427414,-0.00082159153
3000000,3000000,0.0036950586,-0.0035003552,-0.0006550771
3004000,3004000,0.0035924395,-0.0034171224,-0.00030170914
3008000,3008000,0.0034544952,-0.003403466,3.3047378e-05
3012000,3012000,0.0033500707,-0.0033848998,0.00017246851
3016000,3016000,0.0033771968,-0.0033533617,0.00021269273
3020000,3020000,0.003468614,-0.003350455,0.00028951286
3024000,3024000,0.0034455983,-0.0033431696,0.0004564103
3028000,3028000,0.0032350244,-0.003359266,0.0006671828
3036000,3036000,0.0023664278,-0.0035585563,0.0011011314
3040000,3040000,0.0018500362,-0.0036713413,0.0013458398
3044000,3044000,0.0014982602,-0.0037354988,0.001619972
3052000,3052000,0.0010236392,-0.0039039992,0.0019928976
3056000,3056000,0.0010357223,-0.0040792692,0.0020549796
3060000,3060000,0.0012111296,-0.0042131213,0.0020754463
3064000,3064000,0.00134057,-0.0043032495,0.0020595512
3068000,3068000,0.0014920487,-0.004379798,0.0020530506
3072000,3072000,0.0017345555,-0.004492216,0.0020494477
3076000,3076000,0.0018999173,-0.004588357,0.00191169
3084000,3084000,0.0014973828,-0.0042996528,0.0014035974
3088000,3088000,0.0009975242,-0.0038325577,0.0011669862
3092000,3092000,0.00049882353,-0.0033287485,0.00085474935
3096000,3096000,0.00015289852,-0.0029445617,0.00045650452
3100000,3100000,-7.293266e-05,-0.002652313,7.026731e-05
3104000,3104000,-0.00019772406,-0.0023441168,-0.00010836951
3108000,3108000,-0.00016171396,-0.0021561584,-2.9865405e-06
3112000,3112000,-1.8766086e-05,-0.0021211128,0.00030171254
3116000,3116000,9.145256e-05,-0.0020601319,0.00074178056
3124000,3124000,4.7425965e-05,-0.0021784066,0.0015530041
3128000,3128000,-3.1312527e-05,-0.0022902077,0.0016956178
3132000,3132000,-0.00020652552,-0.002329088,0.0018153065
3136000,3136000,-0.00036556978,-0.0023175376,0.001992972
3140000,3140000,-0.0004100242,-0.002254897,0.002207433
3148000,3148000,-0.00025294695,-0.0018397816,0.0021988808
3152000,3152000,-0.00017800742,-0.0017536103,0.0016994707
3156000,3156000,-0.00017928882,-0.0018551697,0.0011142062
3160000,3160000,-0.00020329826,-0.0019555448,0.00075977726
3164000,3164000,-0.00017007004,-0.001917907,0.00069653953
3168000,3168000,1.3733257e-05,-0.0017481876,0.000712816
3176000,3176000,0.0008429142,-0.0015560992,0.00051929936
3180000,3180000,0.0012981462,-0.001483936,0.00036475592
3184000,3184000,0.0016087305,-0.001290223,0.00034484014
3188000,3188000,0.0017369874,-0.0010781478,0.0004795915
3192000,3192000,0.0017624227,-0.0008547986,0.00063927646
3200000,3200000,0.0017647049,-0.00046548626,0.0007790817
3204000,3204000,0.0017744205,-0.00042809584,0.0007814878
3212000,3212000,0.0014306031,-0.0005391219,0.00056473305
3220000,3220000,0.0012967379,-0.000828216,0.000101505386
3224000,3224000,0.0014281761,-0.0010781286,-9.0581234e-05
3228000,3228000,0.0014294925,-0.0014212606,-0.00024570903
3232000,3232000,0.0014181169,-0.0018467113,-0.00036989627
3236000,3236000,0.0014927639,-0.002307777,-0.00040311745
3240000,3240000,0.0014853904,-0.0027582215,-0.0003673448
3248000,3248000,0.0010537836,-0.0033159354,-0.00034197752
3252000,3252000,0.0009363403,-0.0033284891,-0.00029926636
3256000,3256000,0.0008908258,-0.0032700612,-0.00024389908
3260000,3260000,0.000843998,-0.0031507816,-6.301372e-05
3264000,3264000,0.0007394051,-0.0029758953,0.0001719183
3272000,3272000,0.00018671119,-0.0026227087,0.00039609536
3276000,3276000,-0.00019838738,-0.0025789533,0.0005681366
3280000,3280000,-0.0005555402,-0.0025677066,0.00077231915
3284000,3284000,-0.000712267,-0.0024211179,0.00091050647
3288000,3288000,-0.00067331723,-0.0021805302,0.0009362955
3296000,3296000,-0.0007891271,-0.0020506182,0.00066082185
3300000,3300000,-0.00087196793,-0.0020206529,0.0004260749
3308000,3308000,-0.0010855073,-0.0021149334,0.00015566539
3316000,3316000,-0.0014144914,-0.002259493,0.00033335495
3320000,3320000,-0.001392907,-0.0024381403,0.0005388144
3324000,3324000,-0.0012446699,-0.0027317796,0.0008756143
3328000,3328000,-0.0010054942,-0.0031213455,0.0013189202
3332000,3332000,-0.00073548476,-0.0035347224,0.0017607661
3336000,3336000,-0.00058385724,-0.0039065266,0.0020641093
3340000,3340000,-0.0005437103,-0.004165558,0.0021248013
3344000,3344000,-0.00047633093,-0.0043343618,0.0020485332
3348000,3348000,-0.0003955837,-0.004454358,0.0019388049
3352000,3352000,-0.00036417355,-0.0045000585,0.0017215188
3356000,3356000,-0.00035485928,-0.0044941953,0.0014219091
3364000,3364000,-0.0001006351,-0.0046568327,0.000998447
3368000,3368000,0.00014060088,-0.004712622,0.00079177634
3376000,3376000,0.00055082084,-0.0045910412,0.00036590773
3380000,3380000,0.0005112561,-0.0044032056,0.0002939972
3384000,3384000,0.00040332292,-0.004313236,0.0006048296
3392000,3392000,-9.028995e-05,-0.0043404116,0.0018455447
3400000,3400000,-0.00062237296,-0.0036440091,0.0031180324
3404000,3404000,-0.00067047356,-0.0033077972,0.0038021435
3408000,3408000,-0.0004883554,-0.0031267605,0.004401469
3412000,3412000,-0.000101332735,-0.0030761636,0.0047953175
3416000,3416000,0.00034804552,-0.0030788677,0.005038405
3424000,3424000,0.0012283025,-0.0033509883,0.004670076
3428000,3428000,0.0015293844,-0.0035153495,0.0040049134
3436000,3436000,0.0017056158,-0.003501411,0.002556252
3440000,3440000,0.0016139018,-0.0034290492,0.0019857534
3448000,3448000,0.00149322,-0.0033170492,0.0012485931
3456000,3456000,0.0018418995,-0.003171042,0.0005922731
3464000,3464000,0.0022437784,-0.0029175358,-0.00027626147
3468000,3468000,0.0023129403,-0.0028590576,-0.00040311614
3472000,3472000,0.0023776283,-0.002816638,-0.00022077654
3476000,3476000,0.0024988004,-0.0026620196,0.00013563246
3484000,3484000,0.0026200803,-0.0018913944,0.0011252486
3488000,3488000,0.0025098852,-0.0016512806,0.0019176729
3496000,3496000,0.0017487137,-0.0021089262,0.003642388
3500000,3500000,0.0012164362,-0.0025626202,0.0043507563
3504000,3504000,0.0007020064,-0.002920881,0.0049648206
3508000,3508000,0.0003939097,-0.0031638814,0.005438051
3512000,3512000,0.00022523475,-0.003355037,0.00573984
3520000,3520000,0.00022514227,-0.0036059832,0.005904096
3524000,3524000,0.0005618462,-0.0035775604,0.005679873
3528000,3528000,0.00086632965,-0.0036372207,0.0053147967
3536000,3536000,0.00119053,-0.0039015608,0.004450694
3540000,3540000,0.0012453677,-0.0038613174,0.0041385926
3544000,3544000,0.0012293616,-0.0038524382,0.0040081665
3548000,3548000,0.0012280836,-0.0038978385,0.0040670224
3556000,3556000,0.0014692438,-0.0037042275,0.004487136
3560000,3560000,0.0016921493,-0.0035295584,0.0045233383
3568000,3568000,0.0018419106,-0.0032246802,0.0043189717
3572000,3572000,0.0018919879,-0.0030311658,0.004200862
3580000,3580000,0.0021480282,-0.0026578938,0.0038838042
3584000,3584000,0.0021627923,-0.0025737912,0.003722373
3592000,3592000,0.0019596561,-0.0024040611,0.0035258345
3596000,3596000,0.0016558965,-0.0023011076,0.0036290141
3600000,3600000,0.0012352082,-0.0021756,0.003847959
3604000,3604000,0.0007966565,-0.0021137954,0.0040501873
3608000,3608000,0.00036876375,-0.0021465202,0.004201545
3616000,3616000,-0.00052659854,-0.002363018,0.0043369997
3624000,3624000,-0.0011291343,-0.002381043,0.003966481
3632000,3632000,-0.0012448954,-0.0023247916,0.003387721
3640000,3640000,-0.0012832695,-0.0021227638,0.0030483676
3644000,3644000,-0.0011694191,-0.0019319579,0.0028692367
3648000,3648000,-0.0010179671,-0.0016217988,0.002691557
3656000,3656000,-0.00090873323,-0.0009850308,0.0028011783
3664000,3664000,-0.00078851054,-0.00059075083,0.0029939425
3668000,3668000,-0.00048736177,-0.00037264018,0.002959999
3676000,3676000,5.5213502e-05,-0.00018956461,0.0028861766
3680000,3680000,0.0004125658,-0.00018937976,0.0028584793
3684000,3684000,0.00080004334,-0.00016959367,0.0029415898
3688000,3688000,0.0012250608,-0.00015486052,0.0031623559
3692000,3692000,0.0016950568,-0.00020321483,0.003428446
3700000,3700000,0.002615141,-0.00048010104,0.0037426257
3704000,3704000,0.0028623263,-0.0005496299,0.0037775568
3708000,3708000,0.0029441894,-0.0004901348,0.0037540197
3716000,3716000,0.0029034533,0.000105842366,0.0035944537
3720000,3720000,0.0026663567,0.00022647603,0.0035973582
3724000,3724000,0.0024308152,0.00016084441,0.0036622332
3728000,3728000,0.0022384021,-4.0713367e-05,0.0036712182
3732000,3732000,0.0019478048,-0.00037015873,0.0035945983
3736000,3736000,0.0015808534,-0.0006959505,0.0035154307
3740000,3740000,0.0012400313,-0.00094165787,0.0035178442
3744000,3744000,0.0009623653,-0.0011884379,0.0035773916
3748000,3748000,0.00075729325,-0.001432974,0.0036029823
3752000,3752000,0.00066890963,-0.0016349105,0.003492667
3756000,3756000,0.0006486452,-0.0018391748,0.003119806
3760000,3760000,0.00054210227,-0.0020172282,0.002565022
3764000,3764000,0.00028079824,-0.0020407834,0.002008955
3768000,3768000,-8.031878e-05,-0.0019817883,0.0015049041
3772000,3772000,-0.0003889322,-0.0018811435,0.0010587473
3776000,3776000,-0.0005611096,-0.0016989454,0.00073584914
3780000,3780000,-0.00069882674,-0.0015315898,0.00059912447
3784000,3784000,-0.00092469074,-0.0013632358,0.00054895785
3788000,3788000,-0.0011608868,-0.001227473,0.00050033105
3792000,3792000,-0.0012553347,-0.0011984876,0.00049568206
3796000,3796000,-0.0011569033,-0.0011640871,0.00056832354
3800000,3800000,-0.0010211029,-0.0010926997,0.00069548463
3804000,3804000,-0.001017808,-0.001057208,0.00078410155
3808000,3808000,-0.0011056256,-0.0010043606,0.0008605231
3812000,3812000,-0.0012425995,-0.0008734446,0.0010333734
3820000,3820000,-0.0014741712,-0.00044661446,0.0015858079
3824000,3824000,-0.0015824552,-0.00022137782,0.0017675932
3828000,3828000,-0.0016715595,1.7360755e-05,0.0018574253
3832000,3832000,-0.001606112,0.0003903585,0.0019332385
3836000,3836000,-0.0014405099,0.0008465041,0.0020090132
3840000,3840000,-0.0012773678,0.0012598512,0.0021528786
3844000,3844000,-0.0010932194,0.0016114675,0.002271256
3848000,3848000,-0.0008989054,0.0018549245,0.0022250998
3852000,3852000,-0.0007175029,0.0019215158,0.0020603128
3856000,3856000,-0.00066486665,0.0017812902,0.0018445425
3860000,3860000,-0.00080725836,0.0014755863,0.001730173
3864000,3864000,-0.0010068713,0.0010614701,0.0017469554
3868000,3868000,-0.0010609429,0.0006190512,0.001735515
3872000,3872000,-0.00093243155,0.00019826708,0.0016960627
3876000,3876000,-0.00077625463,-0.00021080181,0.0016728311
3880000,3880000,-0.0006451581,-0.000541569,0.001652413
3884000,3884000,-0.0005238494,-0.00081944786,0.0015691734
3888000,3888000,-0.00044895522,-0.0011395789,0.0013968246
3892000,3892000,-0.0003834658,-0.0013900881,0.0012071065
3896000,3896000,-0.00030351258,-0.0014582595,0.0011279138
3904000,3904000,-4.7716385e-05,-0.0013991094,0.0015972498
3908000,3908000,0.00012239919,-0.0013907886,0.001860317
3912000,3912000,0.00021341257,-0.0014332312,0.0019882107
3916000,3916000,0.00022649407,-0.0014599415,0.0020560252
3920000,3920000,0.00019711968,-0.0014603202,0.0021433106
3924000,3924000,0.00019847958,-0.0015212053,0.0023319211
3932000,3932000,0.0003056364,-0.001859092,0.003110532
3936000,3936000,0.00019220251,-0.001987168,0.003314166
3940000,3940000,-2.7402995e-05,-0.002054267,0.003392885
3944000,3944000,-0.0002258941,-0.0020562594,0.0033866928
3948000,3948000,-0.0003605357,-0.0018427968,0.0032345871
3952000,3952000,-0.00050446857,-0.0013806778,0.0029595955
3956000,3956000,-0.00069226197,-0.00095951045,0.0027238647
3960000,3960000,-0.00088411936,-0.0006879501,0.0026122087
3964000,3964000,-0.000934254,-0.0005112417,0.002511635
3968000,3968000,-0.000747873,-0.0005730232,0.002361278
3972000,3972000,-0.00038548914,-0.0009562362,0.0021891885
3980000,3980000,0.00047528424,-0.001903953,0.0016957675
3984000,3984000,0.001009375,-0.0023070963,0.0014338384
3988000,3988000,0.0015811032,-0.0026626766,0.0012907686
3992000,3992000,0.0020885507,-0.0030062809,0.0012310375
4000000,4000000,0.0027512705,-0.0036672396,0.0010591511
4004000,4004000,0.0030373314,-0.0039604427,0.00083341677
4008000,4008000,0.0031685762,-0.00415203,0.00063946104
4016000,4016000,0.0032670437,-0.004118187,0.0009375991
4020000,4020000,0.0034344434,-0.003955305,0.0012238234
4024000,4024000,0.003502158,-0.0038081575,0.0014428077
4028000,4028000,0.003404859,-0.0035914336,0.0016392312
4032000,4032000,0.0032281044,-0.003143726,0.0018593804
4036000,4036000,0.003034994,-0.0025586379,0.0020526843
4040000,4040000,0.002863416,-0.0019262596,0.002167012
4044000,4044000,0.0027699661,-0.0012463126,0.0021208336
4048000,4048000,0.0027840165,-0.0006905259,0.0019572978
4052000,4052000,0.0027824198,-0.00032965234,0.001927104
4056000,4056000,0.0026452043,3.9243263e-05,0.002085604
4060000,4060000,0.0024520368,0.00043093966,0.0022558353
4064000,4064000,0.0022693078,0.00066190236,0.0024282432
4068000,4068000,0.0021071504,0.0007885369,0.0026430695
4072000,4072000,0.0020571968,0.00093272986,0.002819977
4076000,4076000,0.0021105164,0.000991218,0.002879139
4080000,4080000,0.0020949538,0.0008806888,0.0028427849
4084000,4084000,0.0018989197,0.0007708188,0.0028174813
4088000,4088000,0.0015442288,0.0007358127,0.0028409453
4092000,4092000,0.0010851457,0.000650989,0.0028994095
4096000,4096000,0.000574645,0.000535137,0.0030469978
4100000,4100000,-1.315886e-06,0.00041356668,0.0032817908
4104000,4104000,-0.0006614597,0.0002257689,0.0034910217
4108000,4108000,-0.0012913605,2.3950595e-05,0.0036926814
4112000,4112000,-0.0017678458,-0.00017512002,0.0039684614
4120000,4120000,-0.0021168625,-0.00049515156,0.0045269607
4124000,4124000,-0.002133226,-0.00052362226,0.0047596702
4128000,4128000,-0.0020670365,-0.00046877013,0.0049252613
4132000,4132000,-0.0018270618,-0.00036915854,0.0049911537
4136000,4136000,-0.0014487231,-0.00024900498,0.0049705994
4140000,4140000,-0.0010450829,-0.00012369364,0.0049295407
4144000,4144000,-0.00069736596,-0.00012406077,0.0048598214
4148000,4148000,-0.00036988704,-0.00032772022,0.0048111486
4152000,4152000,0.00010564997,-0.00063527306,0.0048677735
4156000,4156000,0.0006048766,-0.0009011117,0.0048857885
4160000,4160000,0.00085154024,-0.0010421926,0.004720173
4168000,4168000,0.001159625,-0.0011594226,0.0044108974
4172000,4172000,0.0013283974,-0.0014576751,0.0044014244
4176000,4176000,0.0013646744,-0.0017726353,0.0044600284
4180000,4180000,0.0013187388,-0.0019024869,0.004586586
4184000,4184000,0.0013589066,-0.0017615627,0.004809982
4188000,4188000,0.0015162132,-0.001471879,0.005159166
4192000,4192000,0.0017605834,-0.0012140394,0.005539296
4196000,4196000,0.002027704,-0.00096515846,0.005881252
4200000,4200000,0.0022314638,-0.0006668946,0.0061230194
4204000,4204000,0.0023028653,-0.0003870416,0.0061836215
4208000,4208000,0.0022549652,-0.00021081395,0.006100767
4212000,4212000,0.0021984726,-0.0001311154,0.0059381262
4216000,4216000,0.0021194664,-0.00014594628,0.0056715203
4220000,4220000,0.0019259241,-0.0002067881,0.0052974327
4224000,4224000,0.0016233035,-0.00024042775,0.004854448
4228000,4228000,0.0013179304,-0.0003703041,0.0043074116
4232000,4232000,0.0010490558,-0.0006764863,0.0036757358
4236000,4236000,0.0008877554,-0.0010017888,0.0030686068
4240000,4240000,0.0009767925,-0.0011742548,0.0025841426
4244000,4244000,0.0012194521,-0.0011533045,0.0022231673
4248000,4248000,0.0014502751,-0.0010163669,0.001906154
4252000,4252000,0.0016532608,-0.000904754,0.0016049319
4256000,4256000,0.0018007619,-0.000916697,0.001380903
4260000,4260000,0.00182641,-0.00089535397,0.0013186468
4264000,4264000,0.0017900661,-0.0006024714,0.0013996139
4268000,4268000,0.0018492946,-0.00017544965,0.0014946095
4272000,4272000,0.0020276972,7.584642e-05,0.0016151993
4276000,4276000,0.002085738,0.00012468541,0.0018366737
4280000,4280000,0.0018743627,0.00015346995,0.0020506326
4284000,4284000,0.0015019744,0.0002878396,0.0021704033
4288000,4288000,0.001091223,0.0005819386,0.0021567098
4292000,4292000,0.0007631924,0.0009823465,0.00197308
4296000,4296000,0.00061851676,0.0013076265,0.0016507442
4300000,4300000,0.000677072,0.0014538005,0.0012775183
4304000,4304000,0.0008304821,0.001403876,0.0010220641
4308000,4308000,0.0008790082,0.0012159171,0.00095532625
4312000,4312000,0.00083775935,0.0010223334,0.0009837903
4316000,4316000,0.00086263614,0.00092521746,0.0011208161
4320000,4320000,0.0009135874,0.00096260617,0.0014164423
4324000,4324000,0.0010280543,0.001012696,0.0016432952
4328000,4328000,0.0012814604,0.0009393644,0.0015126909
4336000,4336000,0.0019563392,0.0006356804,0.0005964675
4340000,4340000,0.0022952752,0.00035672332,0.0001865504
4344000,4344000,0.002594956,-3.3390264e-05,-7.3240735e-05
4352000,4352000,0.0028791362,-0.0008482964,0.00015709204
4356000,4356000,0.0029676743,-0.0012719854,0.0007445359
4360000,4360000,0.0030187597,-0.0015591006,0.0014320023
4364000,4364000,0.0030105086,-0.0016539965,0.0020174282
4368000,4368000,0.0029721577,-0.0016492556,0.0023891493
4372000,4372000,0.0030041963,-0.0015395852,0.0025494015
4376000,4376000,0.003210063,-0.0013180301,0.0026825923
4380000,4380000,0.003465746,-0.0010841085,0.0028548609
4384000,4384000,0.003603606,-0.00083452015,0.0030144537
4388000,4388000,0.0036874907,-0.0005420329,0.0032036763
4392000,4392000,0.0038529865,-0.0002721235,0.0033916796
4396000,4396000,0.004039636,-0.00013786182,0.0035800831
4400000,4400000,0.0041623455,-0.00027958755,0.0038238668
4404000,4404000,0.004220443,-0.0006912072,0.003976382
4408000,4408000,0.0041419175,-0.0012080905,0.004054209
4412000,4412000,0.00403896,-0.0016465983,0.004342034
4416000,4416000,0.004121884,-0.0019344043,0.0048271953
4420000,4420000,0.0043418976,-0.0020953172,0.005221026
4424000,4424000,0.0045136916,-0.0020800189,0.0053913193
4428000,4428000,0.0045406893,-0.0018757326,0.0054027424
4432000,4432000,0.0044558337,-0.0016160869,0.0053282953
4436000,4436000,0.004295366,-0.0014007179,0.005192929
4440000,4440000,0.004111272,-0.001210133,0.0050979056
4444000,4444000,0.0038993715,-0.0010680826,0.0050876522
4452000,4452000,0.0031159585,-0.0010293148,0.005161901
4456000,4456000,0.0028053913,-0.0010664555,0.0052383807
4460000,4460000,0.0026059372,-0.0011763208,0.0052310326
4464000,4464000,0.002334976,-0.0014644769,0.0051487125
4468000,4468000,0.0019693687,-0.0017292835,0.004976726
4472000,4472000,0.0016751246,-0.0018350362,0.004735986
4476000,4476000,0.0015343238,-0.0018372991,0.004522769
4480000,4480000,0.0015431935,-0.0017789972,0.0043539554
4488000,4488000,0.0015987126,-0.0015363017,0.00408178
4492000,4492000,0.001538447,-0.0011775227,0.004065682
4496000,4496000,0.0015008679,-0.00072460715,0.004101646
4500000,4500000,0.0015201219,-0.0002382618,0.004053565
4508000,4508000,0.0019022068,0.00029664836,0.0040361383
4512000,4512000,0.0020953955,0.00040835628,0.004279398
4520000,4520000,0.0022103533,0.00082074205,0.0046475204
4528000,4528000,0.0024571228,0.0013285927,0.0044913674
4536000,4536000,0.0025083374,0.0012317118,0.003807246
4540000,4540000,0.002490793,0.00089952035,0.0035141075
4544000,4544000,0.002456476,0.0004951931,0.0033424727
4548000,4548000,0.002386713,1.6267011e-05,0.0031891093
4552000,4552000,0.0023517334,-0.00042930726,0.0029743323
4556000,4556000,0.002361225,-0.0006135283,0.0027994104
4560000,4560000,0.0023683424,-0.0005861722,0.0027150621
4564000,4564000,0.00244509,-0.0005594774,0.0026564389
4568000,4568000,0.0026066166,-0.0005766995,0.002526091
4572000,4572000,0.0028251042,-0.00049251085,0.0022829664
4576000,4576000,0.0030506656,-0.00028892217,0.0020148288
4580000,4580000,0.0031766412,-5.7420628e-05,0.0017531558
4584000,4584000,0.0031717385,0.00018306503,0.0014599451
4588000,4588000,0.0030639144,0.00038275187,0.00117357
4592000,4592000,0.0029173836,0.00061847066,0.0009949468
4596000,4596000,0.0027852114,0.000991379,0.0009964681
4600000,4600000,0.0026126702,0.0014018681,0.0012709453
4604000,4604000,0.0023527485,0.0017529752,0.0018119136
4608000,4608000,0.0021297568,0.0021256115,0.0024222732
4612000,4612000,0.0020370884,0.002526862,0.0029313446
4616000,4616000,0.0019759648,0.002762686,0.0032122266
4620000,4620000,0.0018884169,0.0028697292,0.0032357248
4624000,4624000,0.0018500625,0.00297404,0.0031362842
4628000,4628000,0.0018776116,0.0029707677,0.0029939422
4632000,4632000,0.0018884279,0.0028512976,0.0027429587
4636000,4636000,0.001834962,0.0026901935,0.0024258527
4640000,4640000,0.0017935269,0.002485484,0.0021492178
4644000,4644000,0.0018070209,0.0023173883,0.0018911337
4648000,4648000,0.0018956417,0.0021722412,0.0016240107
4652000,4652000,0.002130526,0.0019066131,0.0013844168
4656000,4656000,0.002473041,0.0015766807,0.0012071729
4660000,4660000,0.0028340078,0.0013124215,0.0010911966
4664000,4664000,0.0031325174,0.0011256564,0.0010073499
4668000,4668000,0.003319328,0.0010369914,0.0009175835
4672000,4672000,0.003461769,0.0010184225,0.000837528
4676000,4676000,0.0036002877,0.0010198295,0.00081340654
4680000,4680000,0.0036355546,0.0010691897,0.00086030114
4684000,4684000,0.003511661,0.0012039954,0.00097244966
4688000,4688000,0.0033422455,0.0013930753,0.0011933772
4692000,4692000,0.0033271569,0.0015454935,0.0015891824
4696000,4696000,0.0035345159,0.0017015225,0.0021689811
4700000,4700000,0.003905162,0.0019220532,0.0028208345
4704000,4704000,0.0043708105,0.0021127542,0.0033671185
4708000,4708000,0.004815095,0.002158444,0.003642791
4712000,4712000,0.005156397,0.0021661036,0.0036372133
4716000,4716000,0.005360362,0.0023811273,0.003704327
4720000,4720000,0.00544573,0.002632811,0.00400543
4724000,4724000,0.0055291774,0.0026294624,0.0042553516
4728000,4728000,0.005617512,0.0025732948,0.004323134
4732000,4732000,0.0055794213,0.0026986974,0.004309576
4736000,4736000,0.0053350944,0.002905095,0.0043476783
4740000,4740000,0.0049486626,0.0029966407,0.0043455185
4744000,4744000,0.0046128784,0.002991661,0.0041114395
4748000,4748000,0.0043618036,0.0030088031,0.0037398133
4752000,4752000,0.0040638642,0.0029712114,0.0034022792
4756000,4756000,0.0038370145,0.0028169025,0.0032327813
4760000,4760000,0.0038519492,0.002556063,0.003240265
4764000,4764000,0.0039550355,0.0022030354,0.0033771514
4768000,4768000,0.003998643,0.0017957465,0.0037068375
4772000,4772000,0.0039553624,0.001390116,0.0041572424
4776000,4776000,0.003833849,0.0010893471,0.004573254
4780000,4780000,0.003661117,0.00086539006,0.004823004
4784000,4784000,0.0034423533,0.0006903797,0.0048229597
4788000,4788000,0.0032411816,0.0006408371,0.0047018547
4792000,4792000,0.003138429,0.0005871261,0.0046030483
4796000,4796000,0.003218508,0.00043211321,0.0045154733
4800000,4800000,0.0034439545,0.0003248101,0.004359461
4804000,4804000,0.003709807,0.00029997213,0.004076748
4808000,4808000,0.003999015,0.000349927,0.0037738173
4812000,4812000,0.004183761,0.0005849399,0.003597347
4816000,4816000,0.0041971025,0.0009620855,0.0035553745
4820000,4820000,0.004150724,0.0012565503,0.003624288
4824000,4824000,0.004041285,0.0013690809,0.0037352536
4828000,4828000,0.003828482,0.0014247841,0.0038037782
4832000,4832000,0.0035523386,0.0015599057,0.0038210165
4836000,4836000,0.003286061,0.0017105339,0.003734162
4840000,4840000,0.003059648,0.0017187016,0.0034858165
4844000,4844000,0.0028438834,0.0015780204,0.0031682015
4848000,4848000,0.0026029532,0.0014567941,0.0029682324
4852000,4852000,0.0023204293,0.0014268649,0.0028645347
4856000,4856000,0.0020662341,0.001415512,0.0026590747
4860000,4860000,0.0020153187,0.0013816954,0.002420762
4864000,4864000,0.0022256572,0.0013530641,0.0023003486
4868000,4868000,0.002602374,0.0014580346,0.002178554
4872000,4872000,0.0030861888,0.001737274,0.0020261526
4876000,4876000,0.0034932496,0.0020571433,0.0020321503
4880000,4880000,0.0037255744,0.0023003381,0.0021865885
4884000,4884000,0.0039707273,0.00243516,0.002266257
4892000,4892000,0.004524541,0.0024386859,0.0019200222
4896000,4896000,0.004545109,0.0025200297,0.00160129
4900000,4900000,0.004320604,0.0026833212,0.0012992945
4904000,4904000,0.0040101386,0.0028650041,0.0011935711
4908000,4908000,0.0037777787,0.0029672855,0.0013655801
4912000,4912000,0.0036669162,0.003032614,0.0016949448
4916000,4916000,0.0035873533,0.0031906865,0.002050049
4920000,4920000,0.003449141,0.0033476478,0.0023674602
4924000,4924000,0.0033176986,0.0034244584,0.002648115
4928000,4928000,0.0032241484,0.003451543,0.0029678755
4932000,4932000,0.0031239751,0.0034709985,0.0033317476
4936000,4936000,0.0031046357,0.0035076712,0.003621354
4940000,4940000,0.003173357,0.0034643854,0.003740264
4944000,4944000,0.0032300919,0.0032941166,0.0036586903
4948000,4948000,0.0032246762,0.003092193,0.003329251
4952000,4952000,0.0031158985,0.0029772015,0.0028172012
4956000,4956000,0.003009037,0.0029733954,0.0023088777
4960000,4960000,0.002946744,0.0029031786,0.0018701777
4964000,4964000,0.0028274753,0.0027171965,0.0015668885
4968000,4968000,0.002688,0.002610806,0.0014393276
4972000,4972000,0.002562512,0.0025597939,0.0014175327
4976000,4976000,0.0025066193,0.002421624,0.0013518101
4980000,4980000,0.002613136,0.0022415712,0.0011307071
4984000,4984000,0.0028353736,0.0021572465,0.00090695254
4988000,4988000,0.00307283,0.0022142897,0.0008090095
4992000,4992000,0.0032771996,0.0023311193,0.0007890331
4996000,4996000,0.0034313975,0.0024277458,0.00078196917
5000000,5000000,0.0034668725,0.0025439586,0.00084704295
5004000,5004000,0.0033637113,0.0027752721,0.0010928181
5008000,5008000,0.0032215333,0.0030633179,0.0014481386
5012000,5012000,0.0031253705,0.0032659122,0.0018347654
5016000,5016000,0.0031901547,0.0033915048,0.002218713
5024000,5024000,0.0037255953,0.0034734071,0.0030856212
5028000,5028000,0.0038388302,0.0031977189,0.0035495465
5032000,5032000,0.003773836,0.0027911435,0.0038193967
5036000,5036000,0.0035379506,0.0024908446,0.003915505
5040000,5040000,0.0031363398,0.002429761,0.0040093763
5044000,5044000,0.002553362,0.002440737,0.0041706115
5048000,5048000,0.0019172579,0.0023570014,0.0043295133
5052000,5052000,0.0013646355,0.002145263,0.004398724
5056000,5056000,0.0010032114,0.0017936928,0.0043314486
5060000,5060000,0.00087181147,0.0012858119,0.00421585
