timestamp,roll,pitch,yaw,thrust_body[0],thrust_body[1],thrust_body[2]
12036000,0.036688343,0.043841496,-0.0018416881,0.15,0.0,0.0
12040000,0.036705155,0.04386146,-0.0018407144,0.15,0.0,0.0
12044000,0.0366891,0.043854,-0.0018413782,0.15,0.0,0.0
12052000,0.03675528,0.04384814,-0.001839483,0.15,0.0,0.0
12056000,0.036796805,0.04384318,-0.001838324,0.15,0.0,0.0
12060000,0.037249733,0.043893177,-0.0021421737,0.15,0.0,0.0
12068000,0.037236203,0.043925054,-0.0021418552,0.15,0.0,0.0
12072000,0.037211668,0.04391231,-0.002142902,0.15,0.0,0.0
12076000,0.03718368,0.043875255,-0.0021446133,0.15,0.0,0.0
12084000,0.03705846,0.043875653,-0.0020975056,0.15,0.0,0.0
12092000,0.037023313,0.043913998,-0.002097705,0.15,0.0,0.0
12096000,0.0370235,0.043887496,-0.0020983065,0.15,0.0,0.0
12100000,0.037037153,0.04390595,-0.0020974642,0.15,0.0,0.0
12108000,0.037421502,0.043911755,-0.002339975,0.15,0.0,0.0
12116000,0.037442766,0.04385543,-0.0023406167,0.15,0.0,0.0
12124000,0.03739945,0.043835353,-0.0023424055,0.15,0.0,0.0
12128000,0.037398256,0.043820832,-0.002342775,0.15,0.0,0.0
12132000,0.03715966,0.04381134,-0.0021444708,0.15,0.0,0.0
12136000,0.037202954,0.043737814,-0.0021448354,0.15,0.0,0.0
12140000,0.037198763,0.04366025,-0.0021467474,0.15,0.0,0.0
12148000,0.037170757,0.04378809,-0.002144665,0.15,0.0,0.0
12156000,0.037380386,0.04377683,-0.0023478176,0.15,0.0,0.0
12160000,0.037366107,0.043772824,-0.0023483462,0.15,0.0,0.0
12164000,0.037362393,0.04376837,-0.0023485618,0.15,0.0,0.0
12168000,0.037354868,0.04377348,-0.0023486754,0.15,0.0,0.0
12172000,0.03733567,0.043748472,-0.0023498354,0.15,0.0,0.0
12180000,0.037378196,0.043737393,-0.0023962893,0.15,0.0,0.0
12188000,0.037454844,0.04375116,-0.0023936299,0.15,0.0,0.0
12196000,0.0375445,0.04375251,-0.0023908564,0.15,0.0,0.0
12204000,0.037737127,0.04371443,-0.002538861,0.15,0.0,0.0
12212000,0.037729524,0.043587722,-0.0025420066,0.15,0.0,0.0
12216000,0.037709974,0.043543115,-0.0025436273,0.15,0.0,0.0
12220000,0.037678998,0.043548986,-0.0025444354,0.15,0.0,0.0
12228000,0.037991602,0.04359412,-0.0027235122,0.15,0.0,0.0
12236000,0.037975684,0.04357207,-0.002724504,0.15,0.0,0.0
12244000,0.037997343,0.043515045,-0.002725156,0.15,0.0,0.0
12252000,0.032581214,0.043468375,-0.0027261004,0.0,0.0,0.0
12260000,0.032545056,0.043485444,-0.0027261004,0.0,0.0,0.0
12268000,0.03253532,0.04351928,-0.0027261004,0.0,0.0,0.0
12272000,0.032549683,0.043482874,-0.0027261004,0.0,0.0,0.0
12276000,0.032562092,0.04345727,-0.0027261004,1.0,0.0,0.0
12284000,0.032638866,0.043436132,-0.0027261004,1.0,0.0,0.0
12292000,0.03258639,0.04339364,-0.0027261004,1.0,0.0,0.0
12296000,0.032579344,0.043371644,-0.0027261004,1.0,0.0,0.0
12300000,0.03257063,0.043363154,-0.0027261004,1.0,0.0,0.0
12304000,0.032559507,0.043376334,-0.0027261004,1.0,0.0,0.0
12308000,0.032551818,0.043372445,-0.0027261004,1.0,0.0,0.0
12312000,0.032564573,0.04333707,-0.0027261004,1.0,0.0,0.0
12316000,0.03256292,0.04331132,-0.0027261004,1.0,0.0,0.0
12320000,0.03258653,0.04332088,-0.0027261004,1.0,0.0,0.0
12324000,0.032599274,0.043336786,-0.0027261004,1.0,0.0,0.0
12332000,0.032553993,0.04338838,-0.0027261004,1.0,0.0,0.0
12340000,0.032489903,0.04343303,-0.0027261004,1.0,0.0,0.0
12344000,0.032459788,0.04339701,-0.0027261004,1.0,0.0,0.0
12348000,0.032456245,0.04333906,-0.0027261004,1.0,0.0,0.0
12356000,0.032441888,0.04336642,-0.0027261004,1.0,0.0,0.0
12364000,0.032461975,0.043300346,-0.0027261004,1.0,0.0,0.0
12372000,0.032528114,0.04332594,-0.0027261004,1.0,0.0,0.0
12380000,0.03262248,0.04332561,-0.0027261004,1.0,0.0,0.0
12384000,0.032666326,0.0433064,-0.0027261004,1.0,0.0,0.0
12388000,0.03266764,0.043275174,-0.0027261004,1.0,0.0,0.0
12392000,0.0326342,0.04326239,-0.0027261004,1.0,0.0,0.0
12396000,0.032629143,0.043206178,-0.0027261004,1.0,0.0,0.0
12400000,0.032650582,0.04311328,-0.0027261004,1.0,0.0,0.0
12404000,0.032645904,0.043079574,-0.0027261004,1.0,0.0,0.0
12408000,0.03266939,0.043081425,-0.0027261004,1.0,0.0,0.0
12412000,0.032722007,0.043079406,-0.0027261004,1.0,0.0,0.0
12416000,0.032747433,0.043029305,-0.0027261004,1.0,0.0,0.0
12420000,0.032759912,0.04299426,-0.0027261004,1.0,0.0,0.0
12424000,0.032760862,0.04296813,-0.0027261004,1.0,0.0,0.0
12428000,0.032764606,0.04289375,-0.0027261004,1.0,0.0,0.0
12432000,0.032776743,0.042868212,-0.0027261004,1.0,0.0,0.0
12436000,0.032753076,0.042839568,-0.0027261004,1.0,0.0,0.0
12440000,0.03270586,0.042792432,-0.0027261004,1.0,0.0,0.0
12444000,0.032679193,0.0427561,-0.0027261004,1.0,0.0,0.0
12452000,0.032690946,0.042740203,-0.0027261004,1.0,0.0,0.0
12460000,0.032716036,0.042730108,-0.0027261004,1.0,0.0,0.0
12464000,0.03274404,0.04271661,-0.0027261004,1.0,0.0,0.0
12468000,0.032775577,0.042694047,-0.0027261004,1.0,0.0,0.0
12476000,0.032820556,0.042629424,-0.0027261004,1.0,0.0,0.0
12480000,0.032833867,0.042621687,-0.0027261004,1.0,0.0,0.0
12484000,0.032828655,0.042614337,-0.0027261004,1.0,0.0,0.0
12492000,0.032859344,0.042629924,-0.0027261004,1.0,0.0,0.0
12496000,0.032826725,0.042657208,-0.0027261004,1.0,0.0,0.0
12500000,0.032816984,0.04265926,-0.0027261004,1.0,0.0,0.0
12504000,0.032801963,0.042679045,-0.0027261004,1.0,0.0,0.0
12508000,0.032789942,0.04267644,-0.0027261004,1.0,0.0,0.0
12516000,0.032740407,0.042562716,-0.0027261004,1.0,0.0,0.0
12524000,0.032715287,0.042553846,-0.0027261004,1.0,0.0,0.0
12532000,0.032720245,0.04247397,-0.0027261004,1.0,0.0,0.0
12540000,0.032697722,0.042488664,-0.0027261004,1.0,0.0,0.0
12548000,0.032733537,0.042460874,-0.0027261004,1.0,0.0,0.0
12552000,0.032735232,0.042471435,-0.0027261004,1.0,0.0,0.0
12556000,0.032725997,0.04252383,-0.0027261004,1.0,0.0,0.0
12564000,0.032730523,0.042596485,-0.0027261004,1.0,0.0,0.0
12572000,0.03278082,0.042595115,-0.0027261004,1.0,0.0,0.0
12576000,0.03281049,0.042572774,-0.0027261004,1.0,0.0,0.0
12580000,0.032817494,0.042539183,-0.0027261004,1.0,0.0,0.0
12588000,0.0328596,0.042528868,-0.0027261004,1.0,0.0,0.0
12596000,0.032825794,0.04255864,-0.0027261004,1.0,0.0,0.0
12600000,0.032799378,0.042559255,-0.0027261004,1.0,0.0,0.0
12604000,0.03277243,0.042501852,-0.0027261004,1.0,0.0,0.0
12608000,0.03273917,0.04238906,-0.0027261004,1.0,0.0,0.0
12612000,0.032749467,0.042345483,-0.0027261004,1.0,0.0,0.0
12616000,0.032768134,0.042339485,-0.0027261004,1.0,0.0,0.0
12620000,0.03278583,0.0423004,-0.0027261004,1.0,0.0,0.0
12624000,0.03282632,0.042317096,-0.0027261004,1.0,0.0,0.0
12628000,0.03284985,0.042324483,-0.0027261004,1.0,0.0,0.0
12632000,0.032857075,0.042316686,-0.0027261004,1.0,0.0,0.0
12636000,0.032858405,0.042361643,-0.0027261004,1.0,0.0,0.0
12644000,0.032808132,0.042439934,-0.0027261004,1.0,0.0,0.0
12648000,0.032789167,0.042449232,-0.0027261004,1.0,0.0,0.0
12652000,0.03275646,0.04242034,-0.0027261004,1.0,0.0,0.0
12660000,0.032772623,0.042349637,-0.0027261004,1.0,0.0,0.0
12668000,0.032781478,0.042293772,-0.0027261004,1.0,0.0,0.0
12672000,0.032752708,0.042315997,-0.0027261004,1.0,0.0,0.0
12676000,0.032725714,0.042312004,-0.0027261004,1.0,0.0,0.0
12680000,0.03271157,0.04226683,-0.0027261004,1.0,0.0,0.0
12684000,0.03275607,0.0421593,-0.0027261004,1.0,0.0,0.0
12688000,0.032806765,0.042057924,-0.0027261004,1.0,0.0,0.0
12692000,0.032828256,0.042004682,-0.0027261004,1.0,0.0,0.0
12700000,0.032890894,0.041901678,-0.0027261004,1.0,0.0,0.0
12704000,0.032937106,0.041877035,-0.0027261004,1.0,0.0,0.0
12708000,0.03294558,0.041845746,-0.0027261004,1.0,0.0,0.0
12716000,0.032964084,0.041794147,-0.0027261004,1.0,0.0,0.0
12720000,0.033026688,0.041762393,-0.0027261004,1.0,0.0,0.0
12724000,0.033074245,0.041702125,-0.0027261004,1.0,0.0,0.0
12732000,0.03310969,-0.5859821,-0.0027261004,1.0,0.0,0.0
12740000,0.03312254,-0.5860168,-0.0027261004,1.0,0.0,0.0
12744000,0.03314897,-0.58604586,-0.0027261004,1.0,0.0,0.0
12748000,0.03311797,-0.5860823,-0.0027261004,1.0,0.0,0.0
12752000,0.033098903,-0.5861143,-0.0027261004,1.0,0.0,0.0
12756000,0.033096634,-0.55758363,-0.0027261004,1.0,0.0,0.0
12760000,0.03306286,-0.55758095,-0.0027261004,1.0,0.0,0.0
12764000,0.03302027,-0.55760795,-0.0027261004,1.0,0.0,0.0
12768000,0.032975126,-0.5576236,-0.0027261004,1.0,0.0,0.0
12772000,0.032861557,-0.5576131,-0.0027261004,1.0,0.0,0.0
12776000,0.032741185,-0.557582,-0.0027261004,1.0,0.0,0.0
12780000,0.032621942,-0.5306099,-0.0027261004,1.0,0.0,0.0
12784000,0.032450013,-0.5305824,-0.0027261004,1.0,0.0,0.0
12788000,0.032260004,-0.5305605,-0.0027261004,1.0,0.0,0.0
12792000,0.032032695,-0.5305138,-0.0027261004,1.0,0.0,0.0
12796000,0.031748913,-0.53044236,-0.0027261004,1.0,0.0,0.0
12800000,0.031435158,-0.53039616,-0.0027261004,1.0,0.0,0.0
12804000,0.031105246,-0.5050911,-0.0027261004,1.0,0.0,0.0
12808000,0.030730346,-0.5051334,-0.0027261004,1.0,0.0,0.0
12812000,0.030329797,-0.5052071,-0.0027261004,1.0,0.0,0.0
12816000,0.02990856,-0.5052772,-0.0027261004,1.0,0.0,0.0
12820000,0.029441286,-0.50534797,-0.0027261004,1.0,0.0,0.0
12824000,0.028929442,-0.5054158,-0.0027261004,1.0,0.0,0.0
12828000,0.028393455,-0.4815966,-0.0027261004,1.0,0.0,0.0
12832000,0.027815172,-0.48172188,-0.0027261004,1.0,0.0,0.0
12836000,0.027174484,-0.48189038,-0.0027261004,1.0,0.0,0.0
12840000,0.026484478,-0.48206025,-0.0027261004,1.0,0.0,0.0
12844000,0.025751825,-0.48214328,-0.0027261004,1.0,0.0,0.0
12848000,0.025020445,-0.48220396,-0.0027261004,1.0,0.0,0.0
12852000,0.02424769,-0.45957288,-0.0027261004,1.0,0.0,0.0
12856000,0.02339312,-0.45965704,-0.0027261004,1.0,0.0,0.0
12860000,0.022450337,-0.45971712,-0.0027261004,1.0,0.0,0.0
12864000,0.021457851,-0.4597953,-0.0027261004,1.0,0.0,0.0
12868000,0.02044834,-0.4598945,-0.0027261004,1.0,0.0,0.0
12872000,0.01941996,-0.4600099,-0.0027261004,1.0,0.0,0.0
12876000,0.018383756,-0.4383848,-0.0027261004,1.0,0.0,0.0
12880000,0.017321652,-0.43847945,-0.0027261004,1.0,0.0,0.0
12884000,0.016208995,-0.4385907,-0.0027261004,1.0,0.0,0.0
12888000,0.01502666,-0.43871552,-0.0027261004,1.0,0.0,0.0
12892000,0.013825971,-0.4387979,-0.0027261004,1.0,0.0,0.0
12896000,0.012559641,-0.43891189,-0.0027261004,1.0,0.0,0.0
12900000,0.011259768,-0.418345,-0.0027261004,1.0,0.0,0.0
12904000,0.009933794,-0.41849658,-0.0027261004,1.0,0.0,0.0
12908000,0.008536559,-0.418652,-0.0027261004,1.0,0.0,0.0
12912000,0.0070947967,-0.4188069,-0.0027261004,1.0,0.0,0.0
12916000,0.00559971,-0.41891697,-0.0027261004,1.0,0.0,0.0
12920000,0.004055749,-0.41897458,-0.0027261004,1.0,0.0,0.0
12924000,0.0024745394,-0.3991616,-0.0027261004,1.0,0.0,0.0
12928000,0.00087101065,-0.3991931,-0.0027261004,1.0,0.0,0.0
12932000,-0.0007399071,-0.399252,-0.0027261004,1.0,0.0,0.0
12936000,-0.0023961142,-0.39932165,-0.0027261004,1.0,0.0,0.0
12940000,-0.0040950035,-0.39939702,-0.0027261004,1.0,0.0,0.0
12944000,-0.005816356,-0.39945173,-0.0027261004,1.0,0.0,0.0
12948000,-0.0075782198,-0.3803873,-0.0027261004,1.0,0.0,0.0
12952000,-0.009387147,-0.38043636,-0.0027261004,1.0,0.0,0.0
12956000,-0.0112437075,-0.38042378,-0.0027261004,1.0,0.0,0.0
12960000,-0.013110884,-0.38043407,-0.0027261004,1.0,0.0,0.0
12964000,-0.01499871,-0.38045672,-0.0027261004,1.0,0.0,0.0
12968000,-0.016929587,-0.3804537,-0.0027261004,1.0,0.0,0.0
12972000,-0.01887519,-0.36196333,-0.0027261004,1.0,0.0,0.0
12976000,-0.0208711,-0.361927,-0.0027261004,1.0,0.0,0.0
12980000,-0.022840295,-0.36185685,-0.0027261004,1.0,0.0,0.0
12988000,-0.026796782,-0.3616133,-0.0027261004,1.0,0.0,0.0
12992000,-0.02882868,-0.3614589,-0.0027261004,1.0,0.0,0.0
12996000,-0.030874642,-0.34350154,-0.0027261004,1.0,0.0,0.0
13000000,-0.03290028,-0.3433365,-0.0027261004,1.0,0.0,0.0
13004000,-0.03489763,-0.34311682,-0.0027261004,1.0,0.0,0.0
13008000,-0.0369162,-0.3428725,-0.0027261004,1.0,0.0,0.0
13012000,-0.038952027,-0.34263554,-0.0027261004,1.0,0.0,0.0
13016000,-0.040978123,-0.3423644,-0.0027261004,1.0,0.0,0.0
13020000,-0.04301807,-0.3248229,-0.0027261004,1.0,0.0,0.0
13024000,-0.045049958,-0.32451442,-0.0027261004,1.0,0.0,0.0
13028000,-0.047102235,-0.32425043,-0.0027261004,1.0,0.0,0.0
13032000,-0.049137708,-0.32401347,-0.0027261004,1.0,0.0,0.0
13036000,-0.051159523,-0.3237427,-0.0027261004,1.0,0.0,0.0
13040000,-0.0532089,-0.32344753,-0.0027261004,1.0,0.0,0.0
13044000,-0.055262357,-0.3064314,-0.0027261004,1.0,0.0,0.0
13048000,-0.057297323,-0.3061448,-0.0027261004,1.0,0.0,0.0
13052000,-0.05933853,-0.30583373,-0.0027261004,1.0,0.0,0.0
13056000,-0.06141924,-0.30555806,-0.0027261004,1.0,0.0,0.0
13060000,-0.063488044,-0.3052799,-0.0027261004,1.0,0.0,0.0
13064000,-0.065533526,-0.304965,-0.0027261004,1.0,0.0,0.0
13068000,-0.0675629,-0.2883008,-0.0027261004,1.0,0.0,0.0
13072000,-0.069583684,-0.28796092,-0.0027261004,1.0,0.0,0.0
13076000,-0.07156598,-0.28766105,-0.0027261004,1.0,0.0,0.0
13080000,-0.07353066,-0.2873622,-0.0027261004,1.0,0.0,0.0
13084000,-0.07549946,-0.2870235,-0.0027261004,1.0,0.0,0.0
13088000,-0.07746908,-0.28663832,-0.0027261004,1.0,0.0,0.0
13092000,-0.07938851,-0.2704202,-0.0027261004,1.0,0.0,0.0
13096000,-0.081272885,-0.2701105,-0.0027261004,1.0,0.0,0.0
13100000,-0.083169706,-0.2698658,-0.0027261004,1.0,0.0,0.0
13104000,-0.08505389,-0.26961157,-0.0027261004,1.0,0.0,0.0
13108000,-0.08690525,-0.26933348,-0.0027261004,1.0,0.0,0.0
13116000,-0.090498656,-0.2532915,-0.0027261004,1.0,0.0,0.0
13120000,-0.09226968,-0.25304794,-0.0027261004,1.0,0.0,0.0
13124000,-0.09407014,-0.252786,-0.0027261004,1.0,0.0,0.0
13128000,-0.09588743,-0.25255898,-0.0027261004,1.0,0.0,0.0
13132000,-0.09768029,-0.25241062,-0.0027261004,1.0,0.0,0.0
13140000,-0.10118968,-0.23698646,-0.0027261004,1.0,0.0,0.0
13144000,-0.10291126,-0.23688607,-0.0027261004,1.0,0.0,0.0
13148000,-0.104624204,-0.23677573,-0.0027261004,1.0,0.0,0.0
13152000,-0.10633133,-0.23672144,-0.0027261004,1.0,0.0,0.0
13156000,-0.108039565,-0.23665284,-0.0027261004,1.0,0.0,0.0
13160000,-0.10969785,-0.23661904,-0.0027261004,1.0,0.0,0.0
13164000,-0.11132923,-0.22181535,-0.0027261004,1.0,0.0,0.0
13172000,-0.11459996,-0.22188003,-0.0027261004,1.0,0.0,0.0
13176000,-0.11622012,-0.22199379,-0.0027261004,1.0,0.0,0.0
13180000,-0.117806636,-0.2221412,-0.0027261004,1.0,0.0,0.0
13184000,-0.11936816,-0.22232386,-0.0027261004,1.0,0.0,0.0
13188000,-0.120920785,-0.2080252,-0.0027261004,1.0,0.0,0.0
13196000,-0.12406429,-0.20850044,-0.0027261004,1.0,0.0,0.0
13200000,-0.12561446,-0.20871593,-0.0027261004,1.0,0.0,0.0
13204000,-0.12713462,-0.20902768,-0.0027261004,1.0,0.0,0.0
13212000,-0.13017017,-0.1955096,-0.0027261004,1.0,0.0,0.0
13216000,-0.13165861,-0.19592552,-0.0027261004,1.0,0.0,0.0
13220000,-0.13310336,-0.19635089,-0.0027261004,1.0,0.0,0.0
13224000,-0.13454434,-0.19685824,-0.0027261004,1.0,0.0,0.0
13228000,-0.1360278,-0.19740577,-0.0027261004,1.0,0.0,0.0
13232000,-0.13747175,-0.1979706,-0.0027261004,1.0,0.0,0.0
13236000,-0.13890065,-0.18443379,-0.0027261004,1.0,0.0,0.0
13240000,-0.14033864,-0.1850014,-0.0027261004,1.0,0.0,0.0
13244000,-0.14173652,-0.18557754,-0.0027261004,1.0,0.0,0.0
13248000,-0.14312692,-0.18614422,-0.0027261004,1.0,0.0,0.0
13252000,-0.14452825,-0.18676072,-0.0027261004,1.0,0.0,0.0
13256000,-0.14591873,-0.18736579,-0.0027261004,1.0,0.0,0.0
13260000,-0.14732276,-0.17409778,-0.0027261004,1.0,0.0,0.0
13264000,-0.1487156,-0.17479074,-0.0027261004,1.0,0.0,0.0
13268000,-0.15005505,-0.175257,-0.0027261004,1.0,0.0,0.0
13276000,-0.15263076,-0.17570591,-0.0027261004,1.0,0.0,0.0
13284000,-0.15521097,-0.16258731,-0.0027261004,1.0,0.0,0.0
13288000,-0.1565143,-0.1629425,-0.0027261004,1.0,0.0,0.0
13292000,-0.15776385,-0.16335197,-0.0027261004,1.0,0.0,0.0
13296000,-0.15903245,-0.16379744,-0.0027261004,1.0,0.0,0.0
13300000,-0.16032463,-0.16429591,-0.0027261004,1.0,0.0,0.0
13304000,-0.16158293,-0.16485116,-0.0027261004,1.0,0.0,0.0
13308000,-0.16283466,-0.15189213,-0.0027261004,1.0,0.0,0.0
13316000,-0.16534302,-0.15313986,-0.0027261004,1.0,0.0,0.0
13320000,-0.1665661,-0.15383747,-0.0027261004,1.0,0.0,0.0
13324000,-0.16777082,-0.1545894,-0.0027261004,1.0,0.0,0.0
13328000,-0.16900481,-0.15538737,-0.0027261004,1.0,0.0,0.0
13332000,-0.17022705,-0.14283426,-0.0027261004,1.0,0.0,0.0
13340000,-0.17253922,-0.1446398,-0.0027261004,1.0,0.0,0.0
13348000,-0.17482388,-0.14654784,-0.0027261004,1.0,0.0,0.0
13356000,-0.17709228,-0.13530868,-0.0027261004,1.0,0.0,0.0
13364000,-0.17930588,-0.13749124,-0.0027261004,1.0,0.0,0.0
13372000,-0.18153119,-0.13977692,-0.0027261004,1.0,0.0,0.0
13376000,-0.18264307,-0.14098528,-0.0027261004,1.0,0.0,0.0
13380000,-0.1837622,-0.1290967,-0.0027261004,1.0,0.0,0.0
13384000,-0.18485944,-0.13041617,-0.0027261004,1.0,0.0,0.0
13388000,-0.18593273,-0.1317605,-0.0027261004,1.0,0.0,0.0
13392000,-0.18701415,-0.1331693,-0.0027261004,1.0,0.0,0.0
13396000,-0.18806233,-0.13460098,-0.0027261004,1.0,0.0,0.0
13400000,-0.18910296,-0.13604034,-0.0027261004,1.0,0.0,0.0
13404000,-0.1901477,-0.12442637,-0.0027261004,1.0,0.0,0.0
13412000,-0.19214356,-0.12740949,-0.0027261004,1.0,0.0,0.0
13420000,-0.19413446,-0.13050617,-0.0027261004,1.0,0.0,0.0
13424000,-0.19511093,-0.13202895,-0.0027261004,1.0,0.0,0.0
13428000,-0.19608875,-0.120598346,-0.0027261004,1.0,0.0,0.0
13432000,-0.19709326,-0.12217912,-0.0027261004,1.0,0.0,0.0
13436000,-0.19804193,-0.123817205,-0.0027261004,1.0,0.0,0.0
13440000,-0.19896571,-0.12546724,-0.0027261004,1.0,0.0,0.0
13444000,-0.19990522,-0.12712085,-0.0027261004,1.0,0.0,0.0
13448000,-0.20085344,-0.12883642,-0.0027261004,1.0,0.0,0.0
13452000,-0.2017847,-0.11761652,-0.0027261004,1.0,0.0,0.0
13456000,-0.20272388,-0.11927369,-0.0027261004,1.0,0.0,0.0
13460000,-0.20367111,-0.12098274,-0.0027261004,1.0,0.0,0.0
13464000,-0.20461498,-0.122687146,-0.0027261004,1.0,0.0,0.0
13468000,-0.20556699,-0.12442904,-0.0027261004,1.0,0.0,0.0
13472000,-0.20645805,-0.12616894,-0.0027261004,1.0,0.0,0.0
13476000,-0.20736843,-0.11504906,-0.0027261004,1.0,0.0,0.0
13480000,-0.20830058,-0.1167681,-0.0027261004,1.0,0.0,0.0
13484000,-0.20917682,-0.11849066,-0.0027261004,1.0,0.0,0.0
13488000,-0.21005216,-0.120205075,-0.0027261004,1.0,0.0,0.0
13492000,-0.21092291,-0.12194986,-0.0027261004,1.0,0.0,0.0
13496000,-0.21178567,-0.12371726,-0.0027261004,1.0,0.0,0.0
13500000,-0.21263167,-0.11269285,-0.0027261004,1.0,0.0,0.0
13504000,-0.21344163,-0.11444507,-0.0027261004,1.0,0.0,0.0
13508000,-0.21421954,-0.11617236,-0.0027261004,1.0,0.0,0.0
13512000,-0.21497636,-0.11790531,-0.0027261004,1.0,0.0,0.0
13516000,-0.21573487,-0.11968159,-0.0027261004,1.0,0.0,0.0
13520000,-0.21648373,-0.121405154,-0.0027261004,1.0,0.0,0.0
13524000,-0.21723507,-0.11038622,-0.0027261004,1.0,0.0,0.0
13532000,-0.21875623,-0.113842174,-0.0027261004,1.0,0.0,0.0
13536000,-0.21950363,-0.11555265,-0.0027261004,1.0,0.0,0.0
13540000,-0.2202171,-0.117290206,-0.0027261004,1.0,0.0,0.0
13544000,-0.22093038,-0.11899424,-0.0027261004,1.0,0.0,0.0
13548000,-0.22164243,-0.10798973,-0.0027261004,1.0,0.0,0.0
13552000,-0.22234538,-0.10968058,-0.0027261004,1.0,0.0,0.0
13556000,-0.22305596,-0.1113186,-0.0027261004,1.0,0.0,0.0
13560000,-0.2237668,-0.1129405,-0.0027261004,1.0,0.0,0.0
13564000,-0.2244625,-0.11457463,-0.0027261004,1.0,0.0,0.0
13568000,-0.22512926,-0.11615942,-0.0027261004,1.0,0.0,0.0
13572000,-0.2257819,-0.10510213,-0.0027261004,1.0,0.0,0.0
13576000,-0.2264453,-0.1067035,-0.0027261004,1.0,0.0,0.0
13580000,-0.22710894,-0.10827702,-0.0027261004,1.0,0.0,0.0
13584000,-0.22772415,-0.1098745,-0.0027261004,1.0,0.0,0.0
13588000,-0.22833,-0.11142964,-0.0027261004,1.0,0.0,0.0
13592000,-0.22893988,-0.11295137,-0.0027261004,1.0,0.0,0.0
13596000,-0.22953215,-0.101880446,-0.0027261004,1.0,0.0,0.0
13600000,-0.23009682,-0.10340263,-0.0027261004,1.0,0.0,0.0
13604000,-0.2306623,-0.10490433,-0.0027261004,1.0,0.0,0.0
13608000,-0.2312618,-0.10643885,-0.0027261004,1.0,0.0,0.0
13612000,-0.23184556,-0.107960925,-0.0027261004,1.0,0.0,0.0
13616000,-0.23243904,-0.10945662,-0.0027261004,1.0,0.0,0.0
13620000,-0.23303114,-0.0983161,-0.0027261004,1.0,0.0,0.0
13624000,-0.23356657,-0.09976303,-0.0027261004,1.0,0.0,0.0
13628000,-0.23411125,-0.101220384,-0.0027261004,1.0,0.0,0.0
13632000,-0.23466446,-0.10266339,-0.0027261004,1.0,0.0,0.0
13636000,-0.23520687,-0.10408302,-0.0027261004,1.0,0.0,0.0
13640000,-0.23576729,-0.105477825,-0.0027261004,1.0,0.0,0.0
13644000,-0.23629393,-0.09425702,-0.0027261004,1.0,0.0,0.0
13648000,-0.23678131,-0.09557673,-0.0027261004,1.0,0.0,0.0
13652000,-0.2372759,-0.09692286,-0.0027261004,1.0,0.0,0.0
13656000,-0.23778918,-0.09830543,-0.0027261004,1.0,0.0,0.0
13660000,-0.23830111,-0.09968585,-0.0027261004,1.0,0.0,0.0
13664000,-0.23877129,-0.10103283,-0.0027261004,1.0,0.0,0.0
13668000,-0.23924226,-0.08972192,-0.0027261004,1.0,0.0,0.0
13672000,-0.23975685,-0.091013476,-0.0027261004,1.0,0.0,0.0
13676000,-0.24026598,-0.092334524,-0.0027261004,1.0,0.0,0.0
13680000,-0.24075072,-0.09364289,-0.0027261004,1.0,0.0,0.0
13684000,-0.24122544,-0.09490953,-0.0027261004,1.0,0.0,0.0
13688000,-0.24167548,-0.09616952,-0.0027261004,1.0,0.0,0.0
13692000,-0.24210088,-0.084899716,-0.0027261004,1.0,0.0,0.0
13696000,-0.24253616,-0.08618779,-0.0027261004,1.0,0.0,0.0
13700000,-0.24295771,-0.08740797,-0.0027261004,1.0,0.0,0.0
13704000,-0.24337046,-0.088649765,-0.0027261004,1.0,0.0,0.0
13708000,-0.24378398,-0.089895,-0.0027261004,1.0,0.0,0.0
13712000,-0.24417047,-0.09109781,-0.0027261004,1.0,0.0,0.0
13716000,-0.24454816,-0.07969536,-0.0027261004,1.0,0.0,0.0
13720000,-0.2449493,-0.080919765,-0.0027261004,1.0,0.0,0.0
13724000,-0.24537879,-0.082155935,-0.0027261004,1.0,0.0,0.0
13728000,-0.24579242,-0.08337707,-0.0027261004,1.0,0.0,0.0
13732000,-0.24618521,-0.08454446,-0.0027261004,1.0,0.0,0.0
13736000,-0.24656989,-0.08569014,-0.0027261004,1.0,0.0,0.0
13740000,-0.24697065,-0.07423436,-0.0027261004,1.0,0.0,0.0
13744000,-0.2473917,-0.07537685,-0.0027261004,1.0,0.0,0.0
13748000,-0.24779479,-0.07649245,-0.0027261004,1.0,0.0,0.0
13756000,-0.24858275,-0.07877117,-0.0027261004,1.0,0.0,0.0
13760000,-0.2489221,-0.07994252,-0.0027261004,1.0,0.0,0.0
13764000,-0.2492737,-0.06852166,-0.0027261004,1.0,0.0,0.0
13772000,-0.25001016,-0.070921525,-0.0027261004,1.0,0.0,0.0
13780000,-0.2507018,-0.073303714,-0.0027261004,1.0,0.0,0.0
13788000,-0.2513888,-0.06293203,-0.0027261004,1.0,0.0,0.0
13792000,-0.25172713,-0.06414063,-0.0027261004,1.0,0.0,0.0
13796000,-0.25209755,-0.06531921,-0.0027261004,1.0,0.0,0.0
13804000,-0.2528308,-0.06769113,-0.0027261004,1.0,0.0,0.0
13812000,-0.25346425,-0.05732295,-0.0027261004,1.0,0.0,0.0
13820000,-0.2541566,-0.059537858,-0.0027261004,1.0,0.0,0.0
13828000,-0.25488847,-0.06186929,-0.0027261004,1.0,0.0,0.0
13832000,-0.25524783,-0.06300415,-0.0027261004,1.0,0.0,0.0
13836000,-0.2556139,-0.051426053,-0.0027261004,1.0,0.0,0.0
13844000,-0.25631166,-0.05371779,-0.0027261004,1.0,0.0,0.0
13848000,-0.25662866,-0.054846983,-0.0027261004,1.0,0.0,0.0
13852000,-0.2569699,-0.05601556,-0.0027261004,1.0,0.0,0.0
13860000,-0.25763205,-0.045529913,-0.0027261004,1.0,0.0,0.0
13868000,-0.25823304,-0.04779367,-0.0027261004,1.0,0.0,0.0
13872000,-0.25853607,-0.04895994,-0.0027261004,1.0,0.0,0.0
13876000,-0.25883105,-0.05014845,-0.0027261004,1.0,0.0,0.0
13880000,-0.2591671,-0.051272284,-0.0027261004,1.0,0.0,0.0
13884000,-0.25947708,-0.039626546,-0.0027261004,1.0,0.0,0.0
13892000,-0.260078,-0.04199979,-0.0027261004,1.0,0.0,0.0
13896000,-0.26036432,-0.043188334,-0.0027261004,1.0,0.0,0.0
13900000,-0.26067135,-0.044358645,-0.0027261004,1.0,0.0,0.0
13904000,-0.261023,-0.045521993,-0.0027261004,1.0,0.0,0.0
13908000,-0.2613533,-0.033920623,-0.0027261004,1.0,0.0,0.0
13912000,-0.2616657,-0.03509952,-0.0027261004,1.0,0.0,0.0
13916000,-0.2619611,-0.03624561,-0.0027261004,1.0,0.0,0.0
13920000,-0.26224446,-0.037435237,-0.0027261004,1.0,0.0,0.0
13924000,-0.26253825,-0.038633674,-0.0027261004,1.0,0.0,0.0
13928000,-0.26282632,-0.039808232,-0.0027261004,1.0,0.0,0.0
13932000,-0.26312616,-0.028157834,-0.0027261004,1.0,0.0,0.0
13936000,-0.26343748,-0.029353913,-0.0027261004,1.0,0.0,0.0
13940000,-0.26372486,-0.030564051,-0.0027261004,1.0,0.0,0.0
13944000,-0.26399082,-0.03175087,-0.0027261004,1.0,0.0,0.0
13948000,-0.264277,-0.032928858,-0.0027261004,1.0,0.0,0.0
13952000,-0.26458016,-0.03415002,-0.0027261004,1.0,0.0,0.0
13956000,-0.26484463,-0.022476306,-0.0027261004,1.0,0.0,0.0
13964000,-0.26541978,-0.024900548,-0.0027261004,1.0,0.0,0.0
13972000,-0.2659606,-0.02734642,-0.0027261004,1.0,0.0,0.0
13980000,-0.2665215,-0.016844302,-0.0027261004,1.0,0.0,0.0
13984000,-0.26678553,-0.018085433,-0.0027261004,1.0,0.0,0.0
13988000,-0.2670356,-0.019371275,-0.0027261004,1.0,0.0,0.0
13992000,-0.26730192,-0.020614013,-0.0027261004,1.0,0.0,0.0
13996000,-0.26756373,-0.021801628,-0.0027261004,1.0,0.0,0.0
14004000,-0.26810917,-0.01123759,-0.0027261004,1.0,0.0,0.0
14008000,-0.2683297,-0.012512895,-0.0027261004,1.0,0.0,0.0
14012000,-0.26854417,-0.0137690315,-0.0027261004,1.0,0.0,0.0
14020000,-0.26901728,-0.01618156,-0.0027261004,1.0,0.0,0.0
14024000,-0.26926017,-0.017408004,-0.0027261004,1.0,0.0,0.0
14028000,-0.26947957,-0.0056594764,-0.0027261004,1.0,0.0,0.0
14036000,-0.2699886,-0.008083283,-0.0027261004,1.0,0.0,0.0
14040000,-0.27024242,-0.009297492,-0.0027261004,1.0,0.0,0.0
14044000,-0.2704651,-0.01056726,-0.0027261004,1.0,0.0,0.0
14048000,-0.27068084,-0.011854275,-0.0027261004,1.0,0.0,0.0
14052000,-0.27089038,-0.000106272564,-0.0027261004,1.0,0.0,0.0
14056000,-0.27111408,-0.0014150274,-0.0027261004,1.0,0.0,0.0
14060000,-0.27134803,-0.002657397,-0.0027261004,1.0,0.0,0.0
14068000,-0.27180237,-0.0051368913,-0.0027261004,1.0,0.0,0.0
14072000,-0.27202597,-0.0064131436,-0.0027261004,1.0,0.0,0.0
14076000,-0.27224186,0.0054258644,-0.0027261004,1.0,0.0,0.0
14080000,-0.27244246,0.004177312,-0.0027261004,1.0,0.0,0.0
14084000,-0.27264875,0.0029230465,-0.0027261004,1.0,0.0,0.0
14092000,-0.27311432,0.00034606492,-0.0027261004,1.0,0.0,0.0
14096000,-0.27328122,-0.00092120963,-0.0027261004,1.0,0.0,0.0
14100000,-0.27344656,0.0109893,-0.0027261004,1.0,0.0,0.0
14104000,-0.27365565,0.009705724,-0.0027261004,1.0,0.0,0.0
14108000,-0.27387577,0.008395511,-0.0027261004,1.0,0.0,0.0
14116000,-0.2742626,0.0057847677,-0.0027261004,1.0,0.0,0.0
14124000,-0.274586,0.016445365,-0.0027261004,1.0,0.0,0.0
14128000,-0.2747467,0.015163554,-0.0027261004,1.0,0.0,0.0
14132000,-0.27490592,0.013854349,-0.0027261004,1.0,0.0,0.0
14140000,-0.2752584,0.011351393,-0.0027261004,1.0,0.0,0.0
14148000,-0.27565023,0.022097118,-0.0027261004,1.0,0.0,0.0
14152000,-0.27581754,0.020824373,-0.0027261004,1.0,0.0,0.0
14156000,-0.27597657,0.019558681,-0.0027261004,1.0,0.0,0.0
14164000,-0.2763317,0.017095875,-0.0027261004,1.0,0.0,0.0
14172000,-0.2766556,0.027868731,-0.0027261004,1.0,0.0,0.0
14180000,-0.27696306,0.025356755,-0.0027261004,1.0,0.0,0.0
14184000,-0.27712172,0.024074437,-0.0027261004,1.0,0.0,0.0
14188000,-0.2772696,0.022786388,-0.0027261004,1.0,0.0,0.0
14196000,-0.27757293,0.033551175,-0.0027261004,1.0,0.0,0.0
14204000,-0.27782056,0.031073444,-0.0027261004,1.0,0.0,0.0
14208000,-0.2779343,0.029841773,-0.0027261004,1.0,0.0,0.0
14212000,-0.2780603,0.028636059,-0.0027261004,1.0,0.0,0.0
14220000,-0.27828103,0.03957498,-0.0027261004,1.0,0.0,0.0
14224000,-0.2783863,0.03829532,-0.0027261004,1.0,0.0,0.0
14228000,-0.27848256,0.03698253,-0.0027261004,1.0,0.0,0.0
14236000,-0.2787312,0.03455334,-0.0027261004,1.0,0.0,0.0
14240000,-0.27887207,0.03336167,-0.0027261004,1.0,0.0,0.0
14244000,-0.27902222,0.045601483,-0.0027261004,1.0,0.0,0.0
14248000,-0.27915233,0.04439056,-0.0027261004,1.0,0.0,0.0
14252000,-0.27931225,0.04320298,-0.0027261004,1.0,0.0,0.0
14256000,-0.27946243,0.042007584,-0.0027261004,1.0,0.0,0.0
14260000,-0.2795842,0.040767085,-0.0027261004,1.0,0.0,0.0
14264000,-0.27971458,0.039547015,-0.0027261004,1.0,0.0,0.0
14268000,-0.27986917,0.051800583,-0.0027261004,1.0,0.0,0.0
14272000,-0.2800501,0.050589155,-0.0027261004,1.0,0.0,0.0
14276000,-0.28019816,0.049434107,-0.0027261004,1.0,0.0,0.0
14280000,-0.2803333,0.04828416,-0.0027261004,1.0,0.0,0.0
14284000,-0.28047442,0.047110837,-0.0027261004,1.0,0.0,0.0
14288000,-0.28056175,0.045919985,-0.0027261004,1.0,0.0,0.0
14292000,-0.280641,0.058262575,-0.0027261004,1.0,0.0,0.0
14296000,-0.28073883,0.057019476,-0.0027261004,1.0,0.0,0.0
14300000,-0.2808111,0.055802032,-0.0027261004,1.0,0.0,0.0
14304000,-0.28087336,0.054597523,-0.0027261004,1.0,0.0,0.0
14308000,-0.2809555,0.05335349,-0.0027261004,1.0,0.0,0.0
14312000,-0.28103083,0.05216889,-0.0027261004,1.0,0.0,0.0
14316000,-0.2811214,0.0646026,-0.0027261004,1.0,0.0,0.0
14320000,-0.28126025,0.063438274,-0.0027261004,1.0,0.0,0.0
14324000,-0.28140837,0.06229367,-0.0027261004,1.0,0.0,0.0
14328000,-0.28152642,0.061124444,-0.0027261004,1.0,0.0,0.0
14332000,-0.2816107,0.0599572,-0.0027261004,1.0,0.0,0.0
14336000,-0.28169468,0.058808547,-0.0027261004,1.0,0.0,0.0
14340000,-0.2817819,0.07124724,-0.0027261004,1.0,0.0,0.0
14344000,-0.28187868,0.07003009,-0.0027261004,1.0,0.0,0.0
14348000,-0.2819891,0.06880533,-0.0027261004,1.0,0.0,0.0
14352000,-0.2820767,0.06752846,-0.0027261004,1.0,0.0,0.0
14356000,-0.28216362,0.06629001,-0.0027261004,1.0,0.0,0.0
14359999,-0.28226897,0.06514898,-0.0027261004,1.0,0.0,0.0
14364000,-0.2823667,0.07767561,-0.0027261004,1.0,0.0,0.0
14368000,-0.28248703,0.07651541,-0.0027261004,1.0,0.0,0.0
14371999,-0.28262708,0.075372875,-0.0027261004,1.0,0.0,0.0
14376000,-0.28274378,0.07418371,-0.0027261004,1.0,0.0,0.0
14380000,-0.28284517,0.07301307,-0.0027261004,1.0,0.0,0.0
14384000,-0.28294164,0.07184203,-0.0027261004,1.0,0.0,0.0
14388000,-0.28306162,0.08437954,-0.0027261004,1.0,0.0,0.0
14391999,-0.28318307,0.08322343,-0.0027261004,1.0,0.0,0.0
14396000,-0.28326058,0.0820982,-0.0027261004,1.0,0.0,0.0
14400000,-0.28333083,0.08092581,-0.0027261004,1.0,0.0,0.0
14403999,-0.28342313,0.07974146,-0.0027261004,1.0,0.0,0.0
14408000,-0.28353024,0.07856333,-0.0027261004,1.0,0.0,0.0
14412000,-0.2836504,0.09118871,-0.0027261004,1.0,0.0,0.0
14416000,-0.28376263,0.090010695,-0.0027261004,1.0,0.0,0.0
14420000,-0.28389534,0.08884353,-0.0027261004,1.0,0.0,0.0
14423999,-0.28406796,0.08768957,-0.0027261004,1.0,0.0,0.0
14428000,-0.2842129,0.08649916,-0.0027261004,1.0,0.0,0.0
14432000,-0.28428558,0.08532021,-0.0027261004,1.0,0.0,0.0
14435999,-0.28435227,0.09800708,-0.0027261004,1.0,0.0,0.0
14440000,-0.28445488,0.0968513,-0.0027261004,1.0,0.0,0.0
14444000,-0.2845644,0.09565817,-0.0027261004,1.0,0.0,0.0
14448000,-0.28468004,0.09447858,-0.0027261004,1.0,0.0,0.0
14452000,-0.2847757,0.09329173,-0.0027261004,1.0,0.0,0.0
14455999,-0.28487957,0.09204655,-0.0027261004,1.0,0.0,0.0
14460000,-0.28501862,0.10466249,-0.0027261004,1.0,0.0,0.0
14464000,-0.28516155,0.103428505,-0.0027261004,1.0,0.0,0.0
14467999,-0.28528988,0.10222919,-0.0027261004,1.0,0.0,0.0
14472000,-0.28539833,0.10103946,-0.0027261004,1.0,0.0,0.0
14476000,-0.28550854,0.09983415,-0.0027261004,1.0,0.0,0.0
14480000,-0.28561857,0.098650455,-0.0027261004,1.0,0.0,0.0
14484000,-0.285733,0.11140024,-0.0027261004,1.0,0.0,0.0
14487999,-0.28583163,0.110200346,-0.0027261004,1.0,0.0,0.0
14492000,-0.2859263,0.108987026,-0.0027261004,1.0,0.0,0.0
14496000,-0.2860505,0.107783556,-0.0027261004,1.0,0.0,0.0
14499999,-0.28618744,0.106586926,-0.0027261004,1.0,0.0,0.0
14504000,-0.28632125,0.10534955,-0.0027261004,1.0,0.0,0.0
14508000,-0.28645507,0.1180563,-0.0027261004,1.0,0.0,0.0
14512000,-0.28658813,0.11681039,-0.0027261004,1.0,0.0,0.0
14516000,-0.28670338,0.11561492,-0.0027261004,1.0,0.0,0.0
14519999,-0.2868197,0.11442039,-0.0027261004,1.0,0.0,0.0
14524000,-0.2869676,0.1131979,-0.0027261004,1.0,0.0,0.0
14528000,-0.2871156,0.11198054,-0.0027261004,1.0,0.0,0.0
14531999,-0.28724545,0.124807246,-0.0027261004,1.0,0.0,0.0
14536000,-0.28734523,0.123622954,-0.0027261004,1.0,0.0,0.0
14540000,-0.2874511,0.12240562,-0.0027261004,1.0,0.0,0.0
14544000,-0.28755358,0.12119887,-0.0027261004,1.0,0.0,0.0
14548000,-0.2876582,0.119988896,-0.0027261004,1.0,0.0,0.0
14556000,-0.28783733,0.13162985,-0.0027261004,1.0,0.0,0.0
14560000,-0.2879296,0.13043743,-0.0027261004,1.0,0.0,0.0
14563999,-0.28803176,0.12920761,-0.0027261004,1.0,0.0,0.0
14568000,-0.28811893,0.12798266,-0.0027261004,1.0,0.0,0.0
14572000,-0.28821793,0.1268351,-0.0027261004,1.0,0.0,0.0
14580000,-0.28842318,0.13847512,-0.0027261004,1.0,0.0,0.0
14583999,-0.28852695,0.13719729,-0.0027261004,1.0,0.0,0.0
14588000,-0.28863353,0.13596854,-0.0027261004,1.0,0.0,0.0
14592000,-0.28873104,0.13474512,-0.0027261004,1.0,0.0,0.0
14595999,-0.2888447,0.13345468,-0.0027261004,1.0,0.0,0.0
14604000,-0.2890416,0.14493585,-0.0027261004,1.0,0.0,0.0
14608000,-0.28916195,0.14366952,-0.0027261004,1.0,0.0,0.0
14612000,-0.289274,0.14240603,-0.0027261004,1.0,0.0,0.0
14615999,-0.28939155,0.14117081,-0.0027261004,1.0,0.0,0.0
14620000,-0.28952903,0.13996796,-0.0027261004,1.0,0.0,0.0
14624000,-0.28966707,0.13871215,-0.0027261004,1.0,0.0,0.0
14627999,-0.28979662,0.15155353,-0.0027261004,1.0,0.0,0.0
14632000,-0.28989983,0.15028226,-0.0027261004,1.0,0.0,0.0
14636000,-0.29000065,0.14904746,-0.0027261004,1.0,0.0,0.0
14640000,-0.29012698,0.14777966,-0.0027261004,1.0,0.0,0.0
14644000,-0.2902564,0.14651379,-0.0027261004,1.0,0.0,0.0
14647999,-0.29035133,0.14527838,-0.0027261004,1.0,0.0,0.0
14652000,-0.29042953,0.15822425,-0.0027261004,1.0,0.0,0.0
14656000,-0.2905105,0.15694508,-0.0027261004,1.0,0.0,0.0
14659999,-0.29058924,0.15567698,-0.0027261004,1.0,0.0,0.0
14668000,-0.2907927,0.15309753,-0.0027261004,1.0,0.0,0.0
14672000,-0.29089224,0.15186566,-0.0027261004,1.0,0.0,0.0
14676000,-0.29098022,0.16485545,-0.0027261004,1.0,0.0,0.0
14684000,-0.29117057,0.16221797,-0.0027261004,1.0,0.0,0.0
14691999,-0.29131022,0.1596859,-0.0027261004,1.0,0.0,0.0
14700000,-0.29154626,0.17146102,-0.0027261004,1.0,0.0,0.0
14704000,-0.2916332,0.17019255,-0.0027261004,1.0,0.0,0.0
14708000,-0.2917087,0.16892295,-0.0027261004,1.0,0.0,0.0
14716000,-0.29184735,0.16640347,-0.0027261004,1.0,0.0,0.0
14720000,-0.2919482,0.1651129,-0.0027261004,1.0,0.0,0.0
14723999,-0.29207838,0.17808896,-0.0027261004,1.0,0.0,0.0
14732000,-0.29224718,0.17545542,-0.0027261004,1.0,0.0,0.0
14736000,-0.29228544,0.17418538,-0.0027261004,1.0,0.0,0.0
14740000,-0.29235375,0.17290293,-0.0027261004,1.0,0.0,0.0
14748000,-0.29254684,0.18464299,-0.0027261004,1.0,0.0,0.0
14752000,-0.29264095,0.18333632,-0.0027261004,1.0,0.0,0.0
14755999,-0.29269695,0.1820541,-0.0027261004,1.0,0.0,0.0
14760000,-0.29272845,0.18074402,-0.0027261004,1.0,0.0,0.0
14764000,-0.29280257,0.17942478,-0.0027261004,1.0,0.0,0.0
14768000,-0.29287186,0.17812935,-0.0027261004,1.0,0.0,0.0
14772000,-0.2928951,0.19121718,-0.0027261004,1.0,0.0,0.0
14775999,-0.29294738,0.18994372,-0.0027261004,1.0,0.0,0.0
14780000,-0.29301938,0.18862766,-0.0027261004,1.0,0.0,0.0
14784000,-0.29306915,0.18731281,-0.0027261004,1.0,0.0,0.0
14787999,-0.29313734,0.18603389,-0.0027261004,1.0,0.0,0.0
14792000,-0.29320285,0.18477026,-0.0027261004,1.0,0.0,0.0
14796000,-0.2932377,0.1978839,-0.0027261004,1.0,0.0,0.0
14800000,-0.29328173,0.19657905,-0.0027261004,1.0,0.0,0.0
14804000,-0.2933395,0.19529065,-0.0027261004,1.0,0.0,0.0
14807999,-0.29342195,0.19397935,-0.0027261004,1.0,0.0,0.0
14812000,-0.2935107,0.19261454,-0.0027261004,1.0,0.0,0.0
14816000,-0.29359317,0.19130212,-0.0027261004,1.0,0.0,0.0
14820000,-0.29367888,0.2044137,-0.0027261004,1.0,0.0,0.0
14824000,-0.293726,0.20306242,-0.0027261004,1.0,0.0,0.0
14828000,-0.2937777,0.20169786,-0.0027261004,1.0,0.0,0.0
14832000,-0.29385304,0.20036058,-0.0027261004,1.0,0.0,0.0
14836000,-0.29390472,0.19906758,-0.0027261004,1.0,0.0,0.0
14839999,-0.29395923,0.19776475,-0.0027261004,1.0,0.0,0.0
14844000,-0.2940296,0.21085538,-0.0027261004,1.0,0.0,0.0
14848000,-0.29410022,0.20954886,-0.0027261004,1.0,0.0,0.0
14852000,-0.29417437,0.2082535,-0.0027261004,1.0,0.0,0.0
14856000,-0.294249,0.2069578,-0.0027261004,1.0,0.0,0.0
14859999,-0.29431772,0.20568818,-0.0027261004,1.0,0.0,0.0
14864000,-0.29437152,0.20444897,-0.0027261004,1.0,0.0,0.0
14868000,-0.29443175,0.21767674,-0.0027261004,1.0,0.0,0.0
14871999,-0.29449004,0.21637326,-0.0027261004,1.0,0.0,0.0
14876000,-0.29454735,0.2150249,-0.0027261004,1.0,0.0,0.0
14884000,-0.2946821,0.21240424,-0.0027261004,1.0,0.0,0.0
14892000,-0.29480073,0.21094356,-0.0027261004,1.0,0.0,0.0
14900000,-0.2949375,0.20828454,-0.0027261004,1.0,0.0,0.0
14908000,-0.29504907,0.20559476,-0.0027261004,1.0,0.0,0.0
14916000,-0.29522365,0.20288627,-0.0027261004,1.0,0.0,0.0
14923999,-0.2953608,0.20032807,-0.0027261004,1.0,0.0,0.0
14932000,-0.2955631,0.1977966,-0.0027261004,1.0,0.0,0.0
14940000,-0.29577452,0.1952579,-0.0027261004,1.0,0.0,0.0
14948000,-0.29591116,0.19281605,-0.0027261004,1.0,0.0,0.0
14955999,-0.29607078,0.19042504,-0.0027261004,1.0,0.0,0.0
14964000,-0.29629758,0.18795879,-0.0027261004,1.0,0.0,0.0
14972000,-0.29641387,0.18564376,-0.0027261004,1.0,0.0,0.0
14980000,-0.29645893,0.18342288,-0.0027261004,1.0,0.0,0.0
14987999,-0.29663277,0.18127161,-0.0027261004,1.0,0.0,0.0
14996000,-0.296783,0.179171,-0.0027261004,1.0,0.0,0.0
15004000,-0.29700425,0.17711101,-0.0027261004,1.0,0.0,0.0
15012000,-0.5756026,0.19031651,0.035040922,1.0,0.0,0.0
15019999,-0.5757573,0.18838906,0.03539741,1.0,0.0,0.0
15028000,-0.5757243,0.1865636,0.0357577,1.0,0.0,0.0
15036000,-0.5846857,0.18516392,0.038651116,1.0,0.0,0.0
15044000,-0.5839408,0.18328497,0.03910705,1.0,0.0,0.0
15048000,-0.5834664,0.18235268,0.039345227,1.0,0.0,0.0
15051999,-0.58288205,0.18140459,0.039599106,1.0,0.0,0.0
15056000,-0.58223075,0.1804211,0.039866984,1.0,0.0,0.0
15060000,-0.584402,0.17963016,0.040896628,1.0,0.0,0.0
15068000,-0.58274865,0.17780219,0.04144229,1.0,0.0,0.0
15076000,-0.5808618,0.17610979,0.04198524,1.0,0.0,0.0
15080000,-0.579831,0.17522617,0.04227212,1.0,0.0,0.0
15083999,-0.5815916,0.17452899,0.04343331,1.0,0.0,0.0
15088000,-0.5804515,0.17369379,0.04372095,1.0,0.0,0.0
15092000,-0.5792719,0.17284274,0.044014636,1.0,0.0,0.0
15100000,-0.57687646,0.17111643,0.044606067,1.0,0.0,0.0
15104000,-0.57562417,0.17025791,0.0449048,1.0,0.0,0.0
15108000,-0.57700115,0.16952856,0.04591202,1.0,0.0,0.0
15112000,-0.5756682,0.16868387,0.04621396,1.0,0.0,0.0
15115999,-0.57430667,0.16785812,0.046514064,1.0,0.0,0.0
15120000,-0.5729228,0.16703576,0.046814367,1.0,0.0,0.0
15124000,-0.5714642,0.16619378,0.046883404,1.0,0.0,0.0
15128000,-0.5699381,0.1652747,0.046776418,1.0,0.0,0.0
15132000,-0.5763942,0.16438425,0.04665621,1.0,0.0,0.0
15140000,-0.57327574,0.16280738,0.046381745,1.0,0.0,0.0
15148000,-0.57002133,0.16104303,0.046109475,1.0,0.0,0.0
15152000,-0.568403,0.16019951,0.045966655,1.0,0.0,0.0
15156000,-0.5690097,0.15943071,0.04580959,1.0,0.0,0.0
15160000,-0.5673357,0.15861899,0.045649685,1.0,0.0,0.0
15164000,-0.56563216,0.15778434,0.045487035,1.0,0.0,0.0
15168000,-0.56394404,0.1570043,0.045317225,1.0,0.0,0.0
15172000,-0.562249,0.15626603,0.045138597,1.0,0.0,0.0
15176000,-0.56055063,0.15549643,0.04496306,1.0,0.0,0.0
15180000,-0.5608475,0.1546726,0.04479007,1.0,0.0,0.0
15184000,-0.5591613,0.15391245,0.04482758,1.0,0.0,0.0
15188000,-0.55741113,0.15314566,0.04463744,1.0,0.0,0.0
15192000,-0.55565315,0.15239951,0.04444169,1.0,0.0,0.0
15196000,-0.55389357,0.15164182,0.044246204,1.0,0.0,0.0
15200000,-0.552164,0.15084907,0.044059925,1.0,0.0,0.0
15204000,-0.55239123,0.1500977,0.043867845,1.0,0.0,0.0
15208000,-0.5506217,0.1493572,0.043664493,1.0,0.0,0.0
15212000,-0.54885304,0.14859985,0.04346254,1.0,0.0,0.0
15216000,-0.5471106,0.14787851,0.04325887,1.0,0.0,0.0
15220000,-0.54536355,0.14714783,0.04305458,1.0,0.0,0.0
15224000,-0.5436155,0.14638445,0.0428536,1.0,0.0,0.0
15228000,-0.54930305,0.14568812,0.042642407,1.0,0.0,0.0
15232000,-0.5475548,0.14502463,0.042425133,1.0,0.0,0.0
15236000,-0.5458037,0.1443623,0.04220616,1.0,0.0,0.0
15240000,-0.5440428,0.14369489,0.041985154,1.0,0.0,0.0
15244000,-0.5422617,0.14299893,0.04176338,1.0,0.0,0.0
15248000,-0.5405043,0.14231808,0.041542716,1.0,0.0,0.0
15252000,-0.5402518,0.14165969,0.041323535,1.0,0.0,0.0
15256000,-0.5385341,0.14101605,0.0411029,1.0,0.0,0.0
15260000,-0.5368246,0.14038606,0.04088097,1.0,0.0,0.0
15264000,-0.5351043,0.13976386,0.040655125,1.0,0.0,0.0
15268000,-0.5333366,0.13918883,0.040413745,1.0,0.0,0.0
15272000,-0.53157294,0.13862185,0.040171184,1.0,0.0,0.0
15276000,-0.5310727,0.1380082,0.03993873,1.0,0.0,0.0
15280000,-0.5293359,0.13740923,0.039703324,1.0,0.0,0.0
15284000,-0.5276425,0.13679832,0.039550617,1.0,0.0,0.0
15288000,-0.5259277,0.13619451,0.039317384,1.0,0.0,0.0
15292000,-0.5241972,0.13562392,0.03907627,1.0,0.0,0.0
15296000,-0.52247417,0.1350786,0.038832553,1.0,0.0,0.0
15300000,-0.5217625,0.1345453,0.038589433,1.0,0.0,0.0
15304000,-0.5200662,0.1340131,0.038347397,1.0,0.0,0.0
15308000,-0.51838386,0.13352269,0.03810209,1.0,0.0,0.0
15312000,-0.5167098,0.13303068,0.037857786,1.0,0.0,0.0
15316000,-0.5150087,0.13257498,0.037603598,1.0,0.0,0.0
15320000,-0.51327586,0.13207456,0.037348278,1.0,0.0,0.0
15324000,-0.5181746,0.13153873,0.037100893,1.0,0.0,0.0
15328000,-0.5164868,0.13108665,0.03684672,1.0,0.0,0.0
15332000,-0.51480484,0.13065486,0.036590643,1.0,0.0,0.0
15336000,-0.5131445,0.13019471,0.03634114,1.0,0.0,0.0
15340000,-0.5115144,0.12968048,0.0361026,1.0,0.0,0.0
15344000,-0.5099104,0.12918481,0.035866,1.0,0.0,0.0
15348000,-0.50926083,0.1286984,0.03562712,1.0,0.0,0.0
15352000,-0.5076381,0.12819344,0.035386764,1.0,0.0,0.0
15356000,-0.50599414,0.12769507,0.03514111,1.0,0.0,0.0
15360000,-0.5043452,0.12728128,0.03488469,1.0,0.0,0.0
15364000,-0.5027427,0.12692137,0.034630448,1.0,0.0,0.0
15368000,-0.5011739,0.126502,0.034388244,1.0,0.0,0.0
15372000,-0.50036544,0.12607399,0.034143247,1.0,0.0,0.0
15376000,-0.49877414,0.12564886,0.033896405,1.0,0.0,0.0
15380000,-0.4971915,0.12519121,0.033653952,1.0,0.0,0.0
15384000,-0.49562353,0.124721125,0.033507213,1.0,0.0,0.0
15388000,-0.49403352,0.124248736,0.03326281,1.0,0.0,0.0
15392000,-0.49246544,0.12379894,0.033019524,1.0,0.0,0.0
15396000,-0.49158847,0.12336844,0.032775283,1.0,0.0,0.0
15400000,-0.4900366,0.12291366,0.032534286,1.0,0.0,0.0
15404000,-0.48849443,0.122465864,0.03229376,1.0,0.0,0.0
15408000,-0.4869497,0.12207463,0.032046676,1.0,0.0,0.0
15412000,-0.4853995,0.121686384,0.03179778,1.0,0.0,0.0
15416000,-0.48386696,0.12128396,0.031552993,1.0,0.0,0.0
15420000,-0.48855785,0.120887406,0.0313109,1.0,0.0,0.0
15424000,-0.48704663,0.12047861,0.031069618,1.0,0.0,0.0
15428000,-0.48552534,0.12011289,0.03082193,1.0,0.0,0.0
15432000,-0.4840447,0.11979327,0.030577064,1.0,0.0,0.0
15436000,-0.48260224,0.11945671,0.030340442,1.0,0.0,0.0
15440000,-0.4811331,0.119102575,0.030100062,1.0,0.0,0.0
15444000,-0.480031,0.11872854,0.029858422,1.0,0.0,0.0
15448000,-0.47854692,0.11834198,0.029617246,1.0,0.0,0.0
15452000,-0.4770686,0.11796959,0.029375406,1.0,0.0,0.0
15456000,-0.47561553,0.11764302,0.029133786,1.0,0.0,0.0
15460000,-0.47417107,0.11736721,0.028888986,1.0,0.0,0.0
15464000,-0.47269243,0.11705645,0.02864049,1.0,0.0,0.0
15468000,-0.47141394,0.11673932,0.02839051,1.0,0.0,0.0
15472000,-0.4699696,0.11643763,0.028146895,1.0,0.0,0.0
15476000,-0.46851885,0.11609173,0.027905408,1.0,0.0,0.0
15480000,-0.4670948,0.11571824,0.027670737,1.0,0.0,0.0
15484000,-0.46575686,0.11536135,0.02756732,1.0,0.0,0.0
15488000,-0.46433282,0.11500876,0.027328903,1.0,0.0,0.0
15492000,-0.46309766,0.11462067,0.027100522,1.0,0.0,0.0
15500000,-0.460436,0.11392971,0.02665535,1.0,0.0,0.0
15504000,-0.45909932,0.11361735,0.026428487,1.0,0.0,0.0
15508000,-0.4577408,0.11329712,0.026197754,1.0,0.0,0.0
15512000,-0.45641345,0.11294201,0.025975158,1.0,0.0,0.0
15516000,-0.46082318,0.11260318,0.025754493,1.0,0.0,0.0
15520000,-0.45952028,0.11231896,0.025530368,1.0,0.0,0.0
15524000,-0.4582304,0.11203554,0.025308317,1.0,0.0,0.0
15528000,-0.45692712,0.111718476,0.025085906,1.0,0.0,0.0
15532000,-0.455607,0.11138854,0.024860874,1.0,0.0,0.0
15540000,-0.45302185,0.11071391,0.02442154,1.0,0.0,0.0
15544000,-0.45173714,0.11045007,0.024197353,1.0,0.0,0.0
15548000,-0.45047593,0.11018837,0.023977188,1.0,0.0,0.0
15552000,-0.44922128,0.10991167,0.023759026,1.0,0.0,0.0
15556000,-0.44800425,0.10962991,0.023548005,1.0,0.0,0.0
15560000,-0.44679493,0.109345615,0.023338336,1.0,0.0,0.0
15564000,-0.4456715,0.10905134,0.023131274,1.0,0.0,0.0
15568000,-0.4444963,0.10870087,0.022931859,1.0,0.0,0.0
15572000,-0.44327646,0.10834869,0.022723697,1.0,0.0,0.0
15576000,-0.44206026,0.108100876,0.022508994,1.0,0.0,0.0
15580000,-0.44088024,0.10784048,0.02230173,1.0,0.0,0.0
15584000,-0.43966568,0.107542016,0.022068847,1.0,0.0,0.0
15588000,-0.43831852,0.10731233,0.02185025,1.0,0.0,0.0
15596000,-0.43596563,0.10680495,0.021434724,1.0,0.0,0.0
15604000,-0.4336168,0.10628967,0.021019394,1.0,0.0,0.0
15608000,-0.43243924,0.10606877,0.020808514,1.0,0.0,0.0
15612000,-0.43674228,0.10585181,0.020604208,1.0,0.0,0.0
15620000,-0.43440697,0.10531518,0.020190608,1.0,0.0,0.0
15628000,-0.43212003,0.10478263,0.019784853,1.0,0.0,0.0
15636000,-0.42948243,0.10434169,0.019374117,1.0,0.0,0.0
15644000,-0.42727366,0.10373819,0.018985035,1.0,0.0,0.0
15652000,-0.42506638,0.1031812,0.0185925,1.0,0.0,0.0
15656000,-0.4239367,0.10293553,0.018389072,1.0,0.0,0.0
15660000,-0.42235738,0.10271415,0.018182065,1.0,0.0,0.0
15664000,-0.4212311,0.10247983,0.017978212,1.0,0.0,0.0
15668000,-0.42013714,0.10222202,0.017781507,1.0,0.0,0.0
15672000,-0.41906345,0.101969264,0.017588181,1.0,0.0,0.0
15676000,-0.41796494,0.10174303,0.017388511,1.0,0.0,0.0
15680000,-0.41684115,0.1014995,0.017184602,1.0,0.0,0.0
15684000,-0.41532338,0.101273894,0.017059078,1.0,0.0,0.0
15692000,-0.41322532,0.1009318,0.016670277,1.0,0.0,0.0
15696000,-0.41216603,0.100695014,0.016476715,1.0,0.0,0.0
15700000,-0.41109112,0.10048919,0.016278483,1.0,0.0,0.0
15708000,-0.41404638,0.100040354,0.015894268,1.0,0.0,0.0
15716000,-0.41202694,0.099623635,0.01552178,1.0,0.0,0.0
15724000,-0.4099271,0.099194095,0.015133471,1.0,0.0,0.0
15728000,-0.4089428,0.098955356,0.014952738,1.0,0.0,0.0
15732000,-0.4072335,0.09874099,0.014767906,1.0,0.0,0.0
15740000,-0.405234,0.098352306,0.014395723,1.0,0.0,0.0
15748000,-0.40329447,0.09789717,0.0140370615,1.0,0.0,0.0
15756000,-0.40078944,0.09754896,0.013681522,1.0,0.0,0.0
15760000,-0.3998128,0.09737725,0.013498059,1.0,0.0,0.0
15764000,-0.39885616,0.09718172,0.01331923,1.0,0.0,0.0
15768000,-0.39790192,0.097002655,0.013140062,1.0,0.0,0.0
15772000,-0.39693514,0.09679453,0.012959353,1.0,0.0,0.0
15776000,-0.3959538,0.09656672,0.012776304,1.0,0.0,0.0
15780000,-0.40007102,0.08142852,0.013219081,0.38562572,0.0,0.0
15784000,-0.39913076,0.081274904,0.012983799,0.38562572,0.0,0.0
15788000,-0.39823076,0.081070185,0.012807237,0.38562572,0.0,0.0
15796000,-0.39638507,0.080652274,0.012444533,0.38562572,0.0,0.0
15800000,-0.39542815,0.08045155,0.012255669,0.38562572,0.0,0.0
15804000,-0.39373615,0.06530632,0.012627531,0.4080104,0.0,0.0
15812000,-0.3915326,0.064868055,0.012169454,0.4080104,0.0,0.0
15816000,-0.39036736,0.06462984,0.011927048,0.4080104,0.0,0.0
15820000,-0.38915336,0.064361304,0.011674805,0.4080104,0.0,0.0
15824000,-0.3878563,0.06401519,0.011406651,0.4080104,0.0,0.0
15828000,-0.38534522,0.04867264,0.011625344,0.42910272,0.0,0.0
15832000,-0.3839598,0.048233688,0.011326406,0.42910272,0.0,0.0
15836000,-0.38252604,0.047837246,0.011014853,0.42910272,0.0,0.0
15840000,-0.38097027,0.047420207,0.010675806,0.42910272,0.0,0.0
15844000,-0.3793708,0.046939224,0.010327847,0.42910272,0.0,0.0
15848000,-0.37773558,0.04645227,0.0099711735,0.42910272,0.0,0.0
15852000,-0.37478346,0.03098457,0.010004657,0.4489077,0.0,0.0
15856000,-0.37302372,0.030397613,0.009603392,0.4489077,0.0,0.0
15860000,-0.37125033,0.029743806,0.009199255,0.4489077,0.0,0.0
15864000,-0.36941049,0.029058965,0.008778828,0.4489077,0.0,0.0
15868000,-0.36752775,0.028406577,0.008346339,0.4489077,0.0,0.0
15872000,-0.36565644,0.027748972,0.007915365,0.4489077,0.0,0.0
15876000,-0.3679874,0.012161418,0.0077821766,0.46744692,0.0,0.0
15880000,-0.3660579,0.011511829,0.007316126,0.46744692,0.0,0.0
15884000,-0.3641082,0.010828503,0.006925574,0.46744692,0.0,0.0
15888000,-0.36211044,0.010106523,0.0064350357,0.46744692,0.0,0.0
15892000,-0.36011767,0.009398205,0.005944082,0.46744692,0.0,0.0
15896000,-0.35810542,0.00867935,0.0054468764,0.46744692,0.0,0.0
15900000,-0.3545486,-0.007013889,0.005128965,0.48567325,0.0,0.0
15904000,-0.35250315,-0.007744415,0.00460077,0.48567325,0.0,0.0
15908000,-0.35043582,-0.008484699,0.0040653613,0.48567325,0.0,0.0
15912000,-0.34836936,-0.009231551,0.0035286206,0.48567325,0.0,0.0
15916000,-0.34627888,-0.009927604,0.0029836402,0.48567325,0.0,0.0
15920000,-0.34415498,-0.010573018,0.0024280844,0.48567325,0.0,0.0
15924000,-0.34044752,-0.026217546,0.0019449757,0.5025574,0.0,0.0
15928000,-0.33834517,-0.026942443,0.0013722031,0.5025574,0.0,0.0
15932000,-0.33630446,-0.027640149,0.0008146683,0.5025574,0.0,0.0
15936000,-0.33425814,-0.028273853,0.00025406733,0.5025574,0.0,0.0
15940000,-0.33215943,-0.028875055,-0.0003222781,0.5025574,0.0,0.0
15948000,-0.32635263,-0.045028746,-0.0015210551,0.5180992,0.0,0.0
15952000,-0.32429197,-0.04556426,-0.0021104407,0.5180992,0.0,0.0
15956000,-0.3222262,-0.046076402,-0.0027023517,0.5180992,0.0,0.0
15960000,-0.32020003,-0.046541084,-0.0032837915,0.5180992,0.0,0.0
15964000,-0.31813747,-0.047024544,-0.0038767713,0.5180992,0.0,0.0
15968000,-0.31606624,-0.0475141,-0.0044733714,0.5180992,0.0,0.0
15972000,-0.31805745,-0.06292045,-0.005233177,0.5323966,0.0,0.0
15980000,-0.31397066,-0.063619934,-0.0064518065,0.5323966,0.0,0.0
15988000,-0.30987293,-0.06419569,-0.007791663,0.5323966,0.0,0.0
15992000,-0.30786157,-0.064429484,-0.0084014265,0.5323966,0.0,0.0
15996000,-0.30414513,-0.07969201,-0.009290994,0.5468029,0.0,0.0
16004000,-0.30022427,-0.08005732,-0.01051842,0.5468029,0.0,0.0
16012000,-0.2963019,-0.080281556,-0.011745258,0.5468029,0.0,0.0
16020000,-0.29052886,-0.09532895,-0.013379123,0.55988705,0.0,0.0
16028000,-0.28662658,-0.09528315,-0.014632834,0.55988705,0.0,0.0
16036000,-0.2828327,-0.09505389,-0.015847098,0.55988705,0.0,0.0
16040000,-0.2809775,-0.0949101,-0.016439814,0.55988705,0.0,0.0
16044000,-0.27728024,-0.10978656,-0.017542947,0.5717839,0.0,0.0
16048000,-0.27544075,-0.109583385,-0.01814626,0.5717839,0.0,0.0
16052000,-0.27359307,-0.10933002,-0.018750507,0.5717839,0.0,0.0
16056000,-0.27174604,-0.10899208,-0.019351553,0.5717839,0.0,0.0
16060000,-0.26992902,-0.108596295,-0.019940313,0.5717839,0.0,0.0
16064000,-0.26810503,-0.1082386,-0.020531949,0.5717839,0.0,0.0
16068000,-0.2699878,-0.12295288,-0.02173661,0.5825359,0.0,0.0
16072000,-0.2682026,-0.122464575,-0.022327106,0.5825359,0.0,0.0
16076000,-0.2664122,-0.12190303,-0.022916,0.5825359,0.0,0.0
16080000,-0.26461563,-0.12131538,-0.023505092,0.5825359,0.0,0.0
16084000,-0.26276684,-0.12074986,-0.024357656,0.5825359,0.0,0.0
16088000,-0.26105434,-0.12015846,-0.024922175,0.5825359,0.0,0.0
16092000,-0.2574127,-0.13461266,-0.026213476,0.593331,0.0,0.0
16096000,-0.25571278,-0.13392258,-0.02678438,0.593331,0.0,0.0
16100000,-0.25401485,-0.13323206,-0.02735345,0.593331,0.0,0.0
16104000,-0.2523033,-0.13252397,-0.02792546,0.593331,0.0,0.0
16108000,-0.25063044,-0.13179213,-0.028481757,0.593331,0.0,0.0
16112000,-0.24896528,-0.13098185,-0.029030852,0.593331,0.0,0.0
16116000,-0.24535634,-0.14533585,-0.03039748,0.6029499,0.0,0.0
16120000,-0.24371299,-0.14449586,-0.030951116,0.6029499,0.0,0.0
16124000,-0.24209455,-0.1436102,-0.031492427,0.6029499,0.0,0.0
16128000,-0.24048243,-0.14271356,-0.03202957,0.6029499,0.0,0.0
16132000,-0.23886509,-0.1417704,-0.03256501,0.6029499,0.0,0.0
16136000,-0.23726931,-0.14079838,-0.033089884,0.6029499,0.0,0.0
16140000,-0.23380464,-0.15502077,-0.034530647,0.61147094,0.0,0.0
16144000,-0.23226458,-0.15401402,-0.03504607,0.61147094,0.0,0.0
16148000,-0.23077501,-0.15299346,-0.03554081,0.61147094,0.0,0.0
16152000,-0.22926216,-0.15195543,-0.0360417,0.61147094,0.0,0.0
16156000,-0.22774965,-0.15094367,-0.036542274,0.61147094,0.0,0.0
16160000,-0.22623926,-0.14989983,-0.0370389,0.61147094,0.0,0.0
16164000,-0.22300203,-0.16404729,-0.03853587,0.6191381,0.0,0.0
16168000,-0.22159508,-0.16297229,-0.03900403,0.6191381,0.0,0.0
16172000,-0.2201975,-0.16187751,-0.03946613,0.6191381,0.0,0.0
16176000,-0.21879171,-0.1607527,-0.03992813,0.6191381,0.0,0.0
16180000,-0.21739712,-0.15959235,-0.040382393,0.6191381,0.0,0.0
16184000,-0.21591173,-0.15837905,-0.041086815,0.6191381,0.0,0.0
16188000,-0.21846181,-0.1724555,-0.042633235,0.6263871,0.0,0.0
16192000,-0.21711524,-0.17121923,-0.043076742,0.6263871,0.0,0.0
16196000,-0.21577545,-0.17000686,-0.043517403,0.6263871,0.0,0.0
16200000,-0.21447204,-0.1687922,-0.043942478,0.6263871,0.0,0.0
16204000,-0.21317638,-0.16754653,-0.04436117,0.6263871,0.0,0.0
16208000,-0.21186422,-0.16628064,-0.044783294,0.6263871,0.0,0.0
16212000,-0.2088087,-0.18025197,-0.046365954,0.6329138,0.0,0.0
16216000,-0.20755474,-0.17893532,-0.04677212,0.6329138,0.0,0.0
16220000,-0.20629682,-0.1776884,-0.047182545,0.6329138,0.0,0.0
16224000,-0.20503193,-0.17641719,-0.047592584,0.6329138,0.0,0.0
16228000,-0.2037555,-0.17510177,-0.04800264,0.6329138,0.0,0.0
16232000,-0.20250599,-0.17374401,-0.048397887,0.6329138,0.0,0.0
16236000,-0.19948784,-0.1852102,-0.049838632,0.6386136,0.0,0.0
16240000,-0.19827947,-0.18386824,-0.050225884,0.6386136,0.0,0.0
16244000,-0.19710602,-0.18255919,-0.050600007,0.6386136,0.0,0.0
16248000,-0.19595328,-0.18123165,-0.05096321,0.6386136,0.0,0.0
16252000,-0.19481018,-0.17989671,-0.051320624,0.6386136,0.0,0.0
16256000,-0.19365983,-0.1785463,-0.05167827,0.6386136,0.0,0.0
16260000,-0.1907826,-0.17427532,-0.05177205,0.64356846,0.0,0.0
16264000,-0.18965507,-0.17288026,-0.05211241,0.64356846,0.0,0.0
16268000,-0.18852787,-0.17145753,-0.052449085,0.64356846,0.0,0.0
16272000,-0.18741193,-0.16999792,-0.052777164,0.64356846,0.0,0.0
16276000,-0.18629178,-0.16858594,-0.053108636,0.64356846,0.0,0.0
16280000,-0.18516566,-0.16723587,-0.053445254,0.64356846,0.0,0.0
16284000,-0.18781923,-0.1633022,-0.053584017,0.6477882,0.0,0.0
16288000,-0.18676576,-0.16191375,-0.053885415,0.6477882,0.0,0.0
16292000,-0.18576144,-0.16054441,-0.054167986,0.6477882,0.0,0.0
16296000,-0.18476947,-0.15914866,-0.054442458,0.6477882,0.0,0.0
16300000,-0.18378408,-0.15774792,-0.054712616,0.6477882,0.0,0.0
16304000,-0.18282878,-0.15635827,-0.054970782,0.6477882,0.0,0.0
16308000,-0.1800359,-0.15261135,-0.054993264,0.6515527,0.0,0.0
16312000,-0.17908774,-0.15124066,-0.05524596,0.6515527,0.0,0.0
16316000,-0.17813554,-0.1499025,-0.05550134,0.6515527,0.0,0.0
16320000,-0.17722456,-0.14857551,-0.055740803,0.6515527,0.0,0.0
16324000,-0.17628166,-0.1472588,-0.05599178,0.6515527,0.0,0.0
16328000,-0.17538027,-0.14595592,-0.056227036,0.6515527,0.0,0.0
16332000,-0.1726064,-0.14247403,-0.056237184,0.6547722,0.0,0.0
16336000,-0.1717127,-0.1411779,-0.05646637,0.6547722,0.0,0.0
16340000,-0.17085752,-0.13994044,-0.05668478,0.6547722,0.0,0.0
16344000,-0.17001592,-0.13871641,-0.056898154,0.6547722,0.0,0.0
16348000,-0.16920023,-0.13746758,-0.057098836,0.6547722,0.0,0.0
16352000,-0.16837935,-0.1362747,-0.057304956,0.6547722,0.0,0.0
16356000,-0.16563486,-0.13315119,-0.057312436,0.6573944,0.0,0.0
16360000,-0.16487156,-0.13190922,-0.05749026,0.6573944,0.0,0.0
16364000,-0.16414079,-0.13072766,-0.05766019,0.6573944,0.0,0.0
16368000,-0.16341956,-0.12953967,-0.057825174,0.6573944,0.0,0.0
16372000,-0.16268437,-0.12837929,-0.057996675,0.6573944,0.0,0.0
16376000,-0.16191483,-0.12728624,-0.0581855,0.6573944,0.0,0.0
16380000,-0.16498545,-0.12449068,-0.058190525,0.6595162,0.0,0.0
16384000,-0.16419391,-0.12342277,-0.05861199,0.6595162,0.0,0.0
16388000,-0.16350882,-0.12238716,-0.05877278,0.6595162,0.0,0.0
16392000,-0.16280894,-0.12133774,-0.058937006,0.6595162,0.0,0.0
16396000,-0.16210361,-0.12029118,-0.05910269,0.6595162,0.0,0.0
16400000,-0.16141717,-0.119260676,-0.05926214,0.6595162,0.0,0.0
16404000,-0.15883085,-0.11676209,-0.05925451,0.66162854,0.0,0.0
16408000,-0.15818435,-0.115804955,-0.05940385,0.66162854,0.0,0.0
16412000,-0.15754323,-0.11488741,-0.059554093,0.66162854,0.0,0.0
16416000,-0.15692382,-0.113997795,-0.059698384,0.66162854,0.0,0.0
16420000,-0.15630357,-0.11309725,-0.059841417,0.66162854,0.0,0.0
16424000,-0.15566543,-0.11222535,-0.05999284,0.66162854,0.0,0.0
16428000,-0.15311854,-0.10991927,-0.059984162,0.6633308,0.0,0.0
16432000,-0.15250795,-0.10904912,-0.060124137,0.6633308,0.0,0.0
16436000,-0.15189648,-0.108207,-0.06026639,0.6633308,0.0,0.0
16440000,-0.15129997,-0.107351504,-0.060401574,0.6633308,0.0,0.0
16444000,-0.15069826,-0.10653202,-0.06054134,0.6633308,0.0,0.0
16452000,-0.14749973,-0.10372289,-0.06068644,0.66466546,0.0,0.0
16456000,-0.14692865,-0.10298859,-0.060821176,0.66466546,0.0,0.0
16460000,-0.14638335,-0.102231614,-0.060944274,0.66466546,0.0,0.0
16464000,-0.14583355,-0.10147297,-0.061068363,0.66466546,0.0,0.0
16468000,-0.14531069,-0.10075039,-0.061185874,0.66466546,0.0,0.0
16472000,-0.14480917,-0.100063115,-0.06129875,0.66466546,0.0,0.0
16476000,-0.14225456,-0.098290235,-0.06127706,0.66558135,0.0,0.0
16480000,-0.14181636,-0.097626545,-0.061368845,0.66558135,0.0,0.0
16484000,-0.14134231,-0.09692994,-0.06150242,0.66558135,0.0,0.0
16488000,-0.1408586,-0.0962472,-0.061607823,0.66558135,0.0,0.0
16492000,-0.14035498,-0.09562466,-0.06172554,0.66558135,0.0,0.0
16496000,-0.1398647,-0.09502047,-0.061839998,0.66558135,0.0,0.0
16500000,-0.14293839,-0.093380466,-0.061818462,0.66630584,0.0,0.0
16504000,-0.14251812,-0.092838846,-0.061913524,0.66630584,0.0,0.0
16508000,-0.1421046,-0.09225638,-0.06200209,0.66630584,0.0,0.0
16512000,-0.14165454,-0.09165297,-0.062101126,0.66630584,0.0,0.0
16516000,-0.14117546,-0.09109118,-0.062213972,0.66630584,0.0,0.0
16520000,-0.14071152,-0.09058098,-0.06232626,0.66630584,0.0,0.0
16524000,-0.13802646,-0.08910328,-0.06231112,0.66670954,0.0,0.0
16528000,-0.13760652,-0.088565595,-0.062404707,0.66670954,0.0,0.0
16532000,-0.1371797,-0.08805092,-0.062502675,0.66670954,0.0,0.0
16536000,-0.13677469,-0.08757338,-0.06259647,0.66670954,0.0,0.0
16540000,-0.13638777,-0.087099805,-0.06268421,0.66670954,0.0,0.0
16548000,-0.13331424,-0.08533251,-0.06275517,0.6668883,0.0,0.0
16552000,-0.13291536,-0.08492249,-0.06285249,0.6668883,0.0,0.0
16556000,-0.1325316,-0.08452625,-0.06294579,0.6668883,0.0,0.0
16564000,-0.13181745,-0.083643824,-0.063104644,0.6668883,0.0,0.0
16568000,-0.13145609,-0.08320941,-0.063185975,0.6668883,0.0,0.0
16572000,-0.12885667,-0.081850685,-0.063146606,0.6669401,0.0,0.0
16576000,-0.12853225,-0.081463665,-0.06321944,0.6669401,0.0,0.0
16580000,-0.12820241,-0.081063375,-0.06329266,0.6669401,0.0,0.0
16588000,-0.1274326,-0.08020953,-0.0636162,0.6669401,0.0,0.0
16592000,-0.12711982,-0.07978181,-0.063680686,0.6669401,0.0,0.0
16596000,-0.124594614,-0.07859208,-0.0636319,0.66690874,0.0,0.0
16604000,-0.12399479,-0.077886865,-0.06376621,0.66690874,0.0,0.0
16612000,-0.12336223,-0.0771677,-0.06390984,0.66690874,0.0,0.0
16616000,-0.12307942,-0.07682115,-0.063971385,0.66690874,0.0,0.0
16620000,-0.12612948,-0.07584409,-0.06395035,0.6665733,0.0,0.0
16628000,-0.12560654,-0.07508785,-0.0640517,0.6665733,0.0,0.0
16636000,-0.12514365,-0.074445486,-0.064143814,0.6665733,0.0,0.0
16644000,-0.12221616,-0.073123455,-0.06417526,0.66614145,0.0,0.0
16652000,-0.121717066,-0.07248209,-0.0642789,0.66614145,0.0,0.0
16656000,-0.121464826,-0.07215428,-0.06433078,0.66614145,0.0,0.0
16660000,-0.12118301,-0.0718371,-0.064393684,0.66614145,0.0,0.0
16668000,-0.118207976,-0.07052746,-0.06441019,0.6655429,0.0,0.0
16672000,-0.117966995,-0.070161164,-0.06445381,0.6655429,0.0,0.0
16676000,-0.11771254,-0.06984248,-0.06450683,0.6655429,0.0,0.0
16684000,-0.11726408,-0.06919148,-0.064508714,0.6655429,0.0,0.0
16692000,-0.114328906,-0.06780601,-0.064505056,0.6647589,0.0,0.0
16700000,-0.11392911,-0.067127876,-0.06456872,0.6647589,0.0,0.0
16704000,-0.11371635,-0.066817075,-0.064607725,0.6647589,0.0,0.0
16708000,-0.11354539,-0.06649984,-0.06463194,0.6647589,0.0,0.0
16716000,-0.110730834,-0.06523643,-0.064604014,0.66382027,0.0,0.0
16724000,-0.11031486,-0.064587496,-0.06467516,0.66382027,0.0,0.0
16732000,-0.10985142,-0.063918106,-0.064759724,0.66382027,0.0,0.0
16740000,-0.11262122,-0.06274955,-0.06475206,0.6627377,0.0,0.0
16748000,-0.112244956,-0.06210061,-0.06480891,0.6627377,0.0,0.0
16756000,-0.111891225,-0.061455812,-0.064858444,0.6627377,0.0,0.0
16764000,-0.10900862,-0.060151763,-0.06483373,0.6616167,0.0,0.0
16768000,-0.10884714,-0.05980565,-0.064850554,0.6616167,0.0,0.0
16772000,-0.10870238,-0.059480216,-0.06486395,0.6616167,0.0,0.0
16780000,-0.10832742,-0.0588699,-0.064923294,0.6616167,0.0,0.0
16784000,-0.10815045,-0.05855398,-0.064926796,0.6616167,0.0,0.0
16788000,-0.10558878,-0.057681907,-0.06487776,0.66033304,0.0,0.0
16792000,-0.10538313,-0.05737591,-0.06491305,0.66033304,0.0,0.0
16796000,-0.10518446,-0.05709423,-0.06494856,0.66033304,0.0,0.0
16804000,-0.10485148,-0.056511596,-0.06499605,0.66033304,0.0,0.0
16808000,-0.1046851,-0.056203447,-0.06501787,0.66033304,0.0,0.0
