timestamp,magnetometer_ga[0],magnetometer_ga[1],magnetometer_ga[2]
180000,0.009276204,-0.21503624,0.4295505
188000,0.009276198,-0.21503624,0.4295505
192000,0.009276195,-0.21503624,0.4295505
200000,0.00927619,-0.21503624,0.4295505
208000,0.009276184,-0.21503624,0.4295505
212000,0.009276182,-0.21503624,0.4295505
216000,0.009899388,-0.21620725,0.4293514
220000,0.009899385,-0.21620725,0.4293514
224000,0.0098993825,-0.21620725,0.4293514
228000,0.00989938,-0.21620725,0.4293514
232000,0.009899377,-0.21620725,0.4293514
236000,0.009899375,-0.21620725,0.4293514
240000,0.009899372,-0.21620725,0.4293514
244000,0.009899369,-0.21620725,0.4293514
252000,0.009899364,-0.21620725,0.4293514
260000,0.009899358,-0.21620725,0.4293514
264000,0.0098993555,-0.21620725,0.4293514
272000,0.008383628,-0.21707645,0.4261337
276000,0.008383626,-0.21707647,0.4261337
280000,0.008383623,-0.21707645,0.4261337
284000,0.0083836205,-0.21707647,0.4261337
288000,0.008383618,-0.21707645,0.4261337
292000,0.008383615,-0.21707647,0.4261337
296000,0.008383612,-0.21707645,0.4261337
300000,0.008383609,-0.21707647,0.4261337
304000,0.008383607,-0.21707645,0.4261337
308000,0.008383604,-0.21707647,0.4261337
312000,0.008383601,-0.21707645,0.4261337
316000,0.008383599,-0.21707647,0.4261337
320000,0.01081858,-0.2179527,0.42881334
324000,0.010818577,-0.21795271,0.42881334
328000,0.010818575,-0.2179527,0.42881334
336000,0.010818569,-0.2179527,0.42881334
340000,0.010818567,-0.21795271,0.42881334
344000,0.010818564,-0.2179527,0.42881334
348000,0.010818562,-0.21795271,0.42881334
352000,0.010818559,-0.2179527,0.42881334
356000,0.010818556,-0.21795271,0.42881334
360000,0.010818553,-0.2179527,0.42881334
364000,0.01081855,-0.21795271,0.42881334
368000,0.010818548,-0.2179527,0.42881334
372000,0.0071925377,-0.21504134,0.43055397
376000,0.007192535,-0.21504134,0.43055397
380000,0.007192532,-0.21504134,0.43055397
384000,0.0071925293,-0.21504134,0.43055397
388000,0.0071925265,-0.21504134,0.43055397
392000,0.0071925237,-0.21504134,0.43055397
396000,0.0071925214,-0.21504134,0.43055397
400000,0.0071925186,-0.21504134,0.43055397
404000,0.007192516,-0.21504134,0.43055397
408000,0.007192513,-0.21504134,0.43055397
412000,0.00719251,-0.21504134,0.43055397
416000,0.0071925074,-0.21504134,0.43055397
420000,0.0071925046,-0.21504134,0.43055397
424000,0.007192502,-0.21504134,0.43055397
428000,0.010769894,-0.21221854,0.43128312
432000,0.010769892,-0.21221852,0.43128312
436000,0.01076989,-0.21221854,0.43128312
440000,0.010769887,-0.21221852,0.43128312
444000,0.010769884,-0.21221854,0.43128312
448000,0.010769881,-0.21221852,0.43128315
452000,0.0107698785,-0.21221854,0.43128312
456000,0.010769876,-0.21221852,0.43128315
460000,0.010769873,-0.21221854,0.43128312
464000,0.01076987,-0.21221852,0.43128315
468000,0.010769867,-0.21221854,0.43128312
472000,0.010769865,-0.21221852,0.43128315
476000,0.0072640623,-0.21620384,0.42947328
480000,0.0072640595,-0.21620382,0.42947328
484000,0.0072640567,-0.21620384,0.42947328
488000,0.007264054,-0.21620382,0.42947328
492000,0.0072640516,-0.21620384,0.42947328
496000,0.007264049,-0.21620382,0.42947328
500000,0.007264046,-0.21620384,0.42947328
504000,0.007264043,-0.21620382,0.42947328
508000,0.0072640404,-0.21620384,0.42947328
512000,0.0072640376,-0.21620382,0.42947328
516000,0.0072640353,-0.21620384,0.42947328
520000,0.0072640325,-0.21620382,0.42947328
524000,0.0072640297,-0.21620384,0.42947328
528000,0.007264027,-0.21620382,0.42947328
532000,0.007337708,-0.21523413,0.4265457
536000,0.007337705,-0.21523412,0.4265457
540000,0.0073377024,-0.21523413,0.4265457
544000,0.0073377,-0.21523412,0.4265457
548000,0.0073376973,-0.21523413,0.4265457
552000,0.0073376945,-0.21523412,0.4265457
556000,0.0073376917,-0.21523413,0.4265457
560000,0.007337689,-0.21523412,0.4265457
564000,0.0073376866,-0.21523413,0.4265457
568000,0.007337684,-0.21523412,0.4265457
572000,0.007337681,-0.21523413,0.4265457
576000,0.007337678,-0.21523412,0.4265457
580000,0.0062887557,-0.21539682,0.42913514
584000,0.006288753,-0.2153968,0.42913514
588000,0.0062887506,-0.21539682,0.42913514
592000,0.006288748,-0.2153968,0.42913514
596000,0.006288745,-0.21539682,0.42913514
600000,0.006288742,-0.2153968,0.42913514
604000,0.0062887394,-0.21539682,0.42913514
608000,0.0062887366,-0.2153968,0.42913514
612000,0.006288734,-0.21539682,0.42913514
616000,0.006288731,-0.2153968,0.42913514
620000,0.0062887287,-0.21539682,0.42913514
624000,0.006288726,-0.2153968,0.42913514
628000,0.006288723,-0.21539682,0.42913514
632000,0.01206458,-0.2164764,0.42880532
636000,0.012064577,-0.21647641,0.4288053
640000,0.012064574,-0.2164764,0.42880532
648000,0.012064569,-0.2164764,0.42880532
652000,0.012064566,-0.21647641,0.4288053
660000,0.012064561,-0.21647641,0.4288053
664000,0.012064558,-0.2164764,0.42880532
668000,0.012064556,-0.21647641,0.4288053
672000,0.012064553,-0.2164764,0.42880532
676000,0.01206455,-0.21647641,0.4288053
680000,0.012064547,-0.2164764,0.42880532
684000,0.007894234,-0.21799262,0.42843118
688000,0.007894231,-0.2179926,0.4284312
696000,0.007894225,-0.2179926,0.4284312
700000,0.007894223,-0.21799262,0.42843118
704000,0.00789422,-0.2179926,0.4284312
708000,0.007894217,-0.21799262,0.42843118
712000,0.007894214,-0.2179926,0.4284312
716000,0.007894211,-0.21799262,0.42843118
724000,0.007894207,-0.21799262,0.42843118
728000,0.007894204,-0.2179926,0.4284312
732000,0.007894201,-0.21799262,0.42843118
736000,0.009941716,-0.21626417,0.43061984
740000,0.009941713,-0.21626419,0.43061984
744000,0.00994171,-0.21626417,0.43061984
752000,0.009941705,-0.21626417,0.43061984
756000,0.009941702,-0.21626419,0.43061984
760000,0.009941699,-0.21626417,0.43061984
764000,0.009941696,-0.21626419,0.43061984
768000,0.009941693,-0.21626417,0.43061984
776000,0.009941689,-0.21626417,0.43061984
784000,0.009941683,-0.21626417,0.43061984
788000,0.0099336095,-0.21817376,0.43365243
792000,0.009933607,-0.21817374,0.43365243
796000,0.009933604,-0.21817376,0.43365243
804000,0.009933598,-0.21817376,0.43365243
808000,0.009933596,-0.21817374,0.43365243
812000,0.009933593,-0.21817376,0.43365243
816000,0.00993359,-0.21817374,0.43365243
820000,0.009933587,-0.21817376,0.43365243
824000,0.009933584,-0.21817374,0.43365243
832000,0.00993358,-0.21817374,0.43365243
836000,0.009933577,-0.21817376,0.43365243
844000,0.013046836,-0.2196035,0.42415783
848000,0.013046833,-0.21960348,0.42415786
856000,0.013046828,-0.21960348,0.42415786
864000,0.0130468225,-0.21960348,0.42415786
868000,0.01304682,-0.2196035,0.42415783
872000,0.013046817,-0.21960348,0.42415786
876000,0.013046814,-0.2196035,0.42415783
880000,0.013046811,-0.21960348,0.42415786
884000,0.013046809,-0.2196035,0.42415783
888000,0.013046807,-0.21960348,0.42415786
892000,0.011571062,-0.21525496,0.43201947
896000,0.011571059,-0.21525495,0.43201947
900000,0.011571056,-0.21525496,0.43201947
904000,0.011571053,-0.21525495,0.43201947
908000,0.011571051,-0.21525496,0.43201947
916000,0.011571046,-0.21525496,0.43201947
924000,0.01157104,-0.21525496,0.43201947
928000,0.011571038,-0.21525495,0.43201947
936000,0.011571032,-0.21525495,0.43201947
940000,0.011571029,-0.21525496,0.43201947
944000,0.011490565,-0.2195176,0.4261575
948000,0.011490563,-0.2195176,0.4261575
952000,0.01149056,-0.2195176,0.4261575
956000,0.011490557,-0.2195176,0.4261575
960000,0.011490555,-0.2195176,0.4261575
964000,0.011490552,-0.2195176,0.4261575
968000,0.011490549,-0.2195176,0.4261575
972000,0.011490546,-0.2195176,0.4261575
976000,0.011490543,-0.2195176,0.4261575
980000,0.011490541,-0.2195176,0.4261575
984000,0.011490538,-0.2195176,0.4261575
988000,0.011490535,-0.2195176,0.4261575
992000,0.011490532,-0.2195176,0.4261575
996000,0.01149053,-0.2195176,0.4261575
1000000,0.009435654,-0.21365272,0.429616
1004000,0.009435651,-0.21365273,0.429616
1012000,0.009435645,-0.21365273,0.429616
1016000,0.0094356425,-0.21365272,0.429616
1020000,0.00943564,-0.21365273,0.429616
1028000,0.009435634,-0.21365273,0.429616
1032000,0.009435631,-0.21365272,0.429616
1036000,0.009435629,-0.21365273,0.429616
1040000,0.009435626,-0.21365272,0.429616
1044000,0.009435623,-0.21365273,0.429616
1048000,0.008520239,-0.21492566,0.4260753
1052000,0.008520236,-0.21492568,0.4260753
1056000,0.008520233,-0.21492566,0.4260753
1060000,0.008520232,-0.21492568,0.4260753
1064000,0.008520229,-0.21492566,0.4260753
1068000,0.008520226,-0.21492568,0.4260753
1072000,0.008520223,-0.21492566,0.4260753
1076000,0.00852022,-0.21492568,0.4260753
1080000,0.008520218,-0.21492566,0.4260753
1084000,0.008520215,-0.21492568,0.4260753
1088000,0.008520212,-0.21492566,0.4260753
1092000,0.008520209,-0.21492568,0.4260753
1096000,0.008520206,-0.21492566,0.4260753
1100000,0.009443409,-0.21608074,0.4259623
1104000,0.009443406,-0.21608073,0.4259623
1108000,0.009443403,-0.21608074,0.4259623
1112000,0.0094434,-0.21608073,0.4259623
1116000,0.009443399,-0.21608074,0.4259623
1120000,0.009443396,-0.21608073,0.4259623
1124000,0.009443393,-0.21608074,0.4259623
1128000,0.00944339,-0.21608073,0.4259623
1132000,0.009443387,-0.21608074,0.4259623
1136000,0.009443385,-0.21608073,0.4259623
1140000,0.009443382,-0.21608074,0.4259623
1144000,0.009443379,-0.21608073,0.4259623
1152000,0.010121815,-0.21645269,0.4299116
1156000,0.010121812,-0.2164527,0.4299116
1160000,0.010121809,-0.21645269,0.4299116
1164000,0.0101218065,-0.2164527,0.4299116
1172000,0.010121802,-0.2164527,0.4299116
1176000,0.010121799,-0.21645269,0.4299116
1180000,0.010121796,-0.2164527,0.4299116
1184000,0.0101217935,-0.21645269,0.4299116
1188000,0.010121791,-0.2164527,0.4299116
1192000,0.010121788,-0.21645269,0.4299116
1196000,0.010121785,-0.2164527,0.4299116
1200000,0.010121782,-0.21645269,0.4299116
1204000,0.0101697035,-0.21730089,0.4296142
1208000,0.010169701,-0.21730088,0.4296142
1212000,0.010169698,-0.21730089,0.4296142
1216000,0.010169695,-0.21730088,0.4296142
1224000,0.01016969,-0.21730088,0.4296142
1228000,0.010169687,-0.21730089,0.4296142
1232000,0.010169684,-0.21730088,0.4296142
1236000,0.010169681,-0.21730089,0.4296142
1240000,0.010169678,-0.21730088,0.4296142
1244000,0.0101696765,-0.21730089,0.4296142
1248000,0.010169674,-0.21730088,0.4296142
1252000,0.010169671,-0.21730089,0.4296142
1256000,0.010973477,-0.21467885,0.43097657
1260000,0.010973474,-0.21467887,0.43097654
1264000,0.010973471,-0.21467885,0.43097657
1268000,0.010973468,-0.21467887,0.43097654
1272000,0.010973466,-0.21467885,0.43097657
1276000,0.010973463,-0.21467887,0.43097654
1280000,0.01097346,-0.21467885,0.43097657
1284000,0.010973457,-0.21467887,0.43097654
1288000,0.010973454,-0.21467885,0.43097657
1292000,0.010973452,-0.21467887,0.43097654
1296000,0.010973449,-0.21467885,0.43097657
1300000,0.010973446,-0.21467887,0.43097654
1304000,0.010973443,-0.21467885,0.43097657
1308000,0.008385871,-0.21443205,0.43176863
1312000,0.008385868,-0.21443205,0.43176863
1316000,0.008385865,-0.21443205,0.43176863
1320000,0.008385862,-0.21443205,0.43176863
1324000,0.008385859,-0.21443205,0.43176863
1328000,0.008385857,-0.21443205,0.43176863
1332000,0.008385855,-0.21443205,0.43176863
1336000,0.008385852,-0.21443205,0.43176863
1340000,0.008385849,-0.21443205,0.43176863
1344000,0.008385846,-0.21443205,0.43176863
1348000,0.008385844,-0.21443205,0.43176863
1352000,0.008385841,-0.21443205,0.43176863
1356000,0.008385838,-0.21443205,0.43176863
1360000,0.008474173,-0.20965125,0.42695996
1364000,0.00847417,-0.20965126,0.42695996
1368000,0.008474167,-0.20965125,0.42696
1372000,0.008474165,-0.20965126,0.42695996
1376000,0.008474162,-0.20965125,0.42696
1380000,0.008474159,-0.20965126,0.42695996
1384000,0.008474156,-0.20965125,0.42696
1388000,0.008474154,-0.20965126,0.42695996
1392000,0.008474152,-0.20965125,0.42696
1396000,0.008474149,-0.20965126,0.42695996
1400000,0.008474146,-0.20965125,0.42696
1404000,0.008474143,-0.20965126,0.42695996
1408000,0.00847414,-0.20965125,0.42696
1412000,0.0103478525,-0.21820495,0.4312899
1416000,0.01034785,-0.21820493,0.4312899
1420000,0.010347847,-0.21820495,0.4312899
1424000,0.010347844,-0.21820493,0.4312899
1428000,0.010347841,-0.21820495,0.4312899
1432000,0.0103478385,-0.21820493,0.4312899
1436000,0.010347836,-0.21820495,0.4312899
1440000,0.010347833,-0.21820493,0.4312899
1444000,0.01034783,-0.21820495,0.4312899
1452000,0.0103478255,-0.21820495,0.4312899
1456000,0.010347823,-0.21820493,0.4312899
1460000,0.01034782,-0.21820495,0.4312899
1464000,0.011840316,-0.21562189,0.42855474
1468000,0.011840313,-0.2156219,0.42855474
1472000,0.01184031,-0.21562189,0.42855474
1476000,0.011840308,-0.2156219,0.42855474
1480000,0.011840305,-0.21562189,0.42855474
1484000,0.0118403025,-0.2156219,0.42855474
1488000,0.0118403,-0.21562189,0.42855474
1492000,0.011840297,-0.2156219,0.42855474
1496000,0.011840294,-0.21562189,0.42855474
1500000,0.011840291,-0.2156219,0.42855474
1504000,0.0118402885,-0.21562189,0.42855474
1508000,0.011840286,-0.2156219,0.42855474
1512000,0.011840283,-0.21562189,0.42855474
1516000,0.010122441,-0.21810766,0.42949727
1520000,0.010122438,-0.21810764,0.42949727
1524000,0.010122435,-0.21810766,0.42949727
1532000,0.01012243,-0.21810766,0.42949727
1536000,0.010122427,-0.21810764,0.42949727
1544000,0.010122422,-0.21810764,0.42949727
1548000,0.010122419,-0.21810766,0.42949727
1556000,0.010122414,-0.21810766,0.42949727
1560000,0.010122411,-0.21810764,0.42949727
1564000,0.010122408,-0.21810766,0.42949727
1568000,0.009549961,-0.21801656,0.43036196
1572000,0.009549959,-0.21801658,0.43036196
1576000,0.009549956,-0.21801656,0.43036196
1580000,0.009549953,-0.21801658,0.43036196
1584000,0.00954995,-0.21801656,0.43036196
1588000,0.009549948,-0.21801658,0.43036196
1592000,0.009549946,-0.21801656,0.43036196
1596000,0.009549943,-0.21801658,0.43036196
1604000,0.009549937,-0.21801658,0.43036196
1608000,0.009549934,-0.21801656,0.43036196
1612000,0.009549932,-0.21801658,0.43036196
1620000,0.011150847,-0.2140946,0.4289428
1624000,0.011150844,-0.21409458,0.4289428
1628000,0.0111508425,-0.2140946,0.4289428
1632000,0.01115084,-0.21409458,0.4289428
1636000,0.011150837,-0.2140946,0.4289428
1640000,0.011150834,-0.21409458,0.4289428
1644000,0.011150831,-0.2140946,0.4289428
1648000,0.011150829,-0.21409458,0.4289428
1652000,0.011150826,-0.2140946,0.4289428
1656000,0.011150823,-0.21409458,0.4289428
1660000,0.01115082,-0.2140946,0.4289428
1664000,0.011150817,-0.21409458,0.4289428
1668000,0.011150815,-0.2140946,0.4289428
1672000,0.007407795,-0.21902059,0.43344042
1676000,0.007407793,-0.21902059,0.43344042
1680000,0.00740779,-0.21902059,0.43344042
1684000,0.0074077873,-0.21902059,0.43344042
1688000,0.0074077845,-0.21902059,0.43344042
1692000,0.0074077817,-0.21902059,0.43344042
1700000,0.007407776,-0.21902059,0.43344042
1704000,0.0074077733,-0.21902059,0.43344042
1708000,0.0074077705,-0.21902059,0.43344042
1712000,0.0074077677,-0.21902059,0.43344042
1716000,0.0074077654,-0.21902059,0.43344042
1724000,0.0073543703,-0.21662319,0.430179
1728000,0.0073543675,-0.21662317,0.430179
1736000,0.0073543624,-0.21662317,0.430179
1740000,0.0073543596,-0.21662319,0.430179
1744000,0.007354357,-0.21662317,0.430179
1748000,0.007354354,-0.21662319,0.430179
1752000,0.007354351,-0.21662317,0.430179
1756000,0.0073543484,-0.21662319,0.430179
1760000,0.0073543456,-0.21662317,0.430179
1764000,0.0073543433,-0.21662319,0.430179
1768000,0.0073543405,-0.21662317,0.430179
1772000,0.0073543377,-0.21662319,0.430179
1776000,0.010487929,-0.21855445,0.42851174
1780000,0.010487926,-0.21855447,0.42851174
1784000,0.010487923,-0.21855445,0.42851174
1788000,0.010487922,-0.21855447,0.42851174
1796000,0.010487916,-0.21855447,0.42851174
1800000,0.010487913,-0.21855445,0.42851174
1804000,0.01048791,-0.21855447,0.42851174
1808000,0.010487908,-0.21855445,0.42851174
1812000,0.010487905,-0.21855447,0.42851174
1816000,0.010487902,-0.21855445,0.42851174
1820000,0.010487899,-0.21855447,0.42851174
1824000,0.010487896,-0.21855445,0.42851174
1828000,0.010779312,-0.21259627,0.428544
1832000,0.010779309,-0.21259625,0.42854404
1836000,0.010779306,-0.21259627,0.428544
1840000,0.0107793035,-0.21259625,0.42854404
1844000,0.010779301,-0.21259627,0.428544
1848000,0.010779298,-0.21259625,0.42854404
1852000,0.010779295,-0.21259627,0.428544
1856000,0.010779292,-0.21259625,0.42854404
1860000,0.0107792895,-0.21259627,0.428544
1864000,0.010779287,-0.21259625,0.42854404
1868000,0.010779285,-0.21259627,0.428544
1872000,0.010779282,-0.21259625,0.42854404
1876000,0.010779279,-0.21259627,0.428544
1880000,0.013214444,-0.21805094,0.42958915
1884000,0.013214441,-0.21805096,0.42958915
1888000,0.013214438,-0.21805094,0.42958915
1896000,0.013214433,-0.21805094,0.42958915
1900000,0.01321443,-0.21805096,0.42958915
1904000,0.013214427,-0.21805094,0.42958915
1912000,0.013214422,-0.21805094,0.42958915
1916000,0.01321442,-0.21805096,0.42958915
1920000,0.013214417,-0.21805094,0.42958915
1928000,0.013214411,-0.21805094,0.42958915
1932000,0.011336125,-0.2151741,0.43241307
1940000,0.01133612,-0.2151741,0.43241307
1944000,0.011336117,-0.21517408,0.43241307
1948000,0.011336114,-0.2151741,0.43241307
1952000,0.011336111,-0.21517408,0.43241307
1956000,0.011336109,-0.2151741,0.43241307
1960000,0.011336106,-0.21517408,0.43241307
1964000,0.011336103,-0.2151741,0.43241307
1968000,0.0113361,-0.21517408,0.43241307
1972000,0.011336098,-0.2151741,0.43241307
1976000,0.011336096,-0.21517408,0.43241307
1980000,0.011336093,-0.2151741,0.43241307
1984000,0.008361202,-0.2156156,0.4292359
1988000,0.008361199,-0.21561562,0.4292359
1992000,0.008361196,-0.2156156,0.4292359
1996000,0.008361193,-0.21561562,0.4292359
2000000,0.008361191,-0.2156156,0.4292359
2004000,0.008361188,-0.21561562,0.4292359
2008000,0.008361185,-0.2156156,0.4292359
2012000,0.008361182,-0.21561562,0.4292359
2016000,0.008361179,-0.2156156,0.4292359
2020000,0.0083611775,-0.21561562,0.4292359
2024000,0.008361175,-0.2156156,0.4292359
2032000,0.008361169,-0.2156156,0.4292359
2036000,0.01071763,-0.21497488,0.42736775
2040000,0.010717628,-0.21497487,0.42736775
2044000,0.010717625,-0.21497488,0.42736775
2048000,0.010717622,-0.21497487,0.42736775
2052000,0.010717619,-0.21497488,0.42736775
2056000,0.010717617,-0.21497487,0.42736775
2060000,0.010717615,-0.21497488,0.42736775
2064000,0.010717612,-0.21497487,0.42736775
2068000,0.010717609,-0.21497488,0.42736775
2072000,0.010717606,-0.21497487,0.42736775
2076000,0.010717603,-0.21497488,0.42736775
2080000,0.010717601,-0.21497487,0.42736775
2084000,0.010717598,-0.21497488,0.42736775
2088000,0.012558906,-0.21617247,0.4300078
2092000,0.012558904,-0.21617249,0.4300078
2096000,0.012558901,-0.21617247,0.4300078
2100000,0.012558898,-0.21617249,0.4300078
2104000,0.012558895,-0.21617247,0.4300078
2108000,0.012558892,-0.21617249,0.4300078
2112000,0.01255889,-0.21617247,0.4300078
2116000,0.012558887,-0.21617249,0.4300078
2120000,0.012558884,-0.21617247,0.4300078
2124000,0.012558881,-0.21617249,0.4300078
2128000,0.012558878,-0.21617247,0.4300078
2132000,0.012558876,-0.21617249,0.4300078
2136000,0.012558873,-0.21617247,0.4300078
2140000,0.0126663055,-0.21474963,0.42873082
2144000,0.012666303,-0.21474962,0.42873082
2148000,0.0126663,-0.21474963,0.42873082
2152000,0.012666297,-0.21474962,0.42873082
2156000,0.012666294,-0.21474963,0.42873082
2160000,0.012666292,-0.21474962,0.42873082
2164000,0.012666289,-0.21474963,0.42873082
2168000,0.012666286,-0.21474962,0.42873082
2172000,0.012666283,-0.21474963,0.42873082
2176000,0.01266628,-0.21474962,0.42873082
2180000,0.012666278,-0.21474963,0.42873082
2184000,0.012666276,-0.21474962,0.42873082
2188000,0.012666273,-0.21474963,0.42873082
2192000,0.008009348,-0.2167313,0.43086788
2196000,0.008009346,-0.21673131,0.43086788
2200000,0.008009343,-0.2167313,0.43086788
2204000,0.008009341,-0.21673131,0.43086788
2208000,0.008009338,-0.2167313,0.43086788
2216000,0.008009332,-0.2167313,0.43086788
2220000,0.008009329,-0.21673131,0.43086788
2224000,0.008009327,-0.2167313,0.43086788
2228000,0.008009324,-0.21673131,0.43086788
2232000,0.008009321,-0.2167313,0.43086788
2236000,0.008009318,-0.21673131,0.43086788
2240000,0.0080093155,-0.2167313,0.43086788
2244000,0.012385584,-0.21703324,0.4297473
2248000,0.012385582,-0.21703322,0.4297473
2252000,0.012385579,-0.21703324,0.4297473
2256000,0.012385576,-0.21703322,0.4297473
2260000,0.012385573,-0.21703324,0.4297473
2264000,0.01238557,-0.21703322,0.4297473
2268000,0.012385568,-0.21703324,0.4297473
2272000,0.012385565,-0.21703322,0.4297473
2276000,0.012385563,-0.21703324,0.4297473
2280000,0.01238556,-0.21703322,0.4297473
2284000,0.012385557,-0.21703324,0.4297473
2288000,0.012385555,-0.21703322,0.4297473
2292000,0.012385552,-0.21703324,0.4297473
2296000,0.009477214,-0.21726938,0.4314863
2300000,0.009477212,-0.21726938,0.4314863
2304000,0.009477209,-0.21726938,0.4314863
2308000,0.0094772065,-0.21726938,0.4314863
2316000,0.009477201,-0.21726938,0.4314863
2324000,0.009477195,-0.21726938,0.4314863
2328000,0.009477193,-0.21726938,0.4314863
2332000,0.00947719,-0.21726938,0.4314863
2336000,0.009477187,-0.21726938,0.4314863
2340000,0.009477184,-0.21726938,0.4314863
2344000,0.009477181,-0.21726938,0.4314863
2347999,0.01251185,-0.21508996,0.42884135
2352000,0.012511848,-0.21508995,0.42884135
2355999,0.012511845,-0.21508996,0.42884135
2363999,0.012511839,-0.21508996,0.42884135
2368000,0.012511836,-0.21508995,0.42884135
2371999,0.012511834,-0.21508996,0.42884135
2376000,0.012511832,-0.21508995,0.42884135
2379999,0.012511829,-0.21508996,0.42884135
2384000,0.012511826,-0.21508995,0.42884135
2387999,0.012511823,-0.21508996,0.42884135
2392000,0.0125118205,-0.21508995,0.42884135
2400000,0.006471108,-0.21550408,0.4299463
2403999,0.0064711054,-0.2155041,0.42994627
2411999,0.0064711,-0.2155041,0.42994627
2416000,0.006471097,-0.21550408,0.4299463
2424000,0.0064710914,-0.21550408,0.4299463
2432000,0.0064710863,-0.21550408,0.4299463
2435999,0.0064710835,-0.2155041,0.42994627
2443999,0.006471078,-0.2155041,0.42994627
2448000,0.006471075,-0.21550408,0.4299463
2451999,0.010322982,-0.21468852,0.43162116
2456000,0.01032298,-0.21468851,0.43162116
2459999,0.010322977,-0.21468852,0.43162116
2464000,0.010322974,-0.21468851,0.43162116
2467999,0.010322971,-0.21468852,0.43162116
2475999,0.010322966,-0.21468852,0.43162116
2480000,0.010322963,-0.21468851,0.43162116
2488000,0.010322957,-0.21468851,0.43162116
2491999,0.0103229545,-0.21468852,0.43162116
2496000,0.010322952,-0.21468851,0.43162116
2499999,0.010322949,-0.21468852,0.43162116
2504000,0.012647493,-0.21548411,0.42737797
2507999,0.01264749,-0.21548413,0.42737797
2512000,0.012647487,-0.21548411,0.42737797
2515999,0.012647484,-0.21548413,0.42737797
2520000,0.012647482,-0.21548411,0.42737797
2523999,0.012647479,-0.21548413,0.42737797
2528000,0.012647476,-0.21548411,0.42737797
2531999,0.012647473,-0.21548413,0.42737797
2536000,0.01264747,-0.21548411,0.42737797
2540000,0.012647468,-0.21548413,0.42737797
2544000,0.012647465,-0.21548411,0.42737797
2552000,0.01264746,-0.21548411,0.42737797
2556000,0.010024082,-0.2152437,0.4267336
2560000,0.010024079,-0.2152437,0.4267336
2564000,0.010024076,-0.2152437,0.4267336
2568000,0.0100240735,-0.2152437,0.4267336
2572000,0.010024072,-0.2152437,0.4267336
2576000,0.010024069,-0.2152437,0.4267336
2584000,0.010024063,-0.2152437,0.4267336
2588000,0.0100240605,-0.2152437,0.4267336
2592000,0.010024058,-0.2152437,0.4267336
2596000,0.010024055,-0.2152437,0.4267336
2600000,0.010024052,-0.2152437,0.4267336
2604000,0.010024049,-0.2152437,0.4267336
2608000,0.011125153,-0.21349837,0.43107972
2612000,0.01112515,-0.21349838,0.43107972
2616000,0.011125147,-0.21349837,0.43107972
2620000,0.0111251455,-0.21349838,0.43107972
2624000,0.011125143,-0.21349837,0.43107972
2628000,0.01112514,-0.21349838,0.43107972
2636000,0.011125134,-0.21349838,0.43107972
2644000,0.011125129,-0.21349838,0.43107972
2648000,0.011125126,-0.21349837,0.43107972
2652000,0.011125123,-0.21349838,0.43107972
2656000,0.01112512,-0.21349837,0.43107972
2660000,0.010077907,-0.21839319,0.42733037
2664000,0.010077904,-0.21839318,0.42733037
2672000,0.010077898,-0.21839318,0.42733037
2676000,0.010077896,-0.21839319,0.42733037
2680000,0.010077893,-0.21839318,0.42733037
2684000,0.010077891,-0.21839319,0.42733037
2688000,0.010077888,-0.21839318,0.42733037
2692000,0.010077885,-0.21839319,0.42733037
2700000,0.01007788,-0.21839319,0.42733037
2704000,0.010077877,-0.21839318,0.42733037
2708000,0.010077874,-0.21839319,0.42733037
2712000,0.009348542,-0.21761635,0.42843264
2720000,0.009348537,-0.21761635,0.42843264
2724000,0.009348534,-0.21761636,0.42843264
2728000,0.009348531,-0.21761635,0.42843264
2732000,0.009348528,-0.21761636,0.42843264
2736000,0.009348526,-0.21761635,0.42843264
2740000,0.009348523,-0.21761636,0.42843264
2744000,0.00934852,-0.21761635,0.42843264
2748000,0.009348518,-0.21761636,0.42843264
2752000,0.009348515,-0.21761635,0.42843264
2756000,0.009348513,-0.21761636,0.42843264
2760000,0.00934851,-0.21761635,0.42843264
2764000,0.004816537,-0.21478973,0.4322378
2768000,0.004816534,-0.21478972,0.43223783
2772000,0.004816531,-0.21478973,0.4322378
2780000,0.0048165256,-0.21478973,0.4322378
2784000,0.004816523,-0.21478972,0.43223783
2788000,0.00481652,-0.21478973,0.4322378
2792000,0.0048165172,-0.21478972,0.43223783
2796000,0.004816515,-0.21478973,0.4322378
2800000,0.004816512,-0.21478972,0.43223783
2804000,0.0048165093,-0.21478973,0.4322378
2808000,0.0048165065,-0.21478972,0.43223783
2812000,0.0048165037,-0.21478973,0.4322378
2816000,0.012241352,-0.21338047,0.4291334
2824000,0.012241347,-0.21338047,0.4291334
2828000,0.012241345,-0.21338049,0.4291334
2836000,0.012241339,-0.21338049,0.4291334
2840000,0.0122413365,-0.21338047,0.4291334
2844000,0.012241334,-0.21338049,0.4291334
2848000,0.012241331,-0.21338047,0.4291334
2856000,0.012241325,-0.21338047,0.4291334
2860000,0.012241323,-0.21338049,0.4291334
2864000,0.01224132,-0.21338047,0.4291334
2868000,0.008811744,-0.21438101,0.42963827
2876000,0.008811739,-0.21438101,0.42963827
2880000,0.0088117365,-0.214381,0.42963827
2884000,0.008811734,-0.21438101,0.42963827
2888000,0.008811731,-0.214381,0.42963827
2892000,0.008811728,-0.21438101,0.42963827
2896000,0.008811725,-0.214381,0.42963827
2900000,0.0088117225,-0.21438101,0.42963827
2904000,0.00881172,-0.214381,0.42963827
2912000,0.008811714,-0.214381,0.42963827
2920000,0.010429616,-0.21669237,0.43080738
2924000,0.010429613,-0.21669239,0.43080738
2928000,0.0104296105,-0.21669237,0.43080738
2932000,0.010429608,-0.21669239,0.43080738
2936000,0.010429605,-0.21669237,0.43080738
2940000,0.010429602,-0.21669239,0.43080738
2948000,0.0104295965,-0.21669239,0.43080738
2952000,0.010429594,-0.21669237,0.43080738
2960000,0.010429589,-0.21669237,0.43080738
2968000,0.0104295835,-0.21669237,0.43080738
2972000,0.008359337,-0.21695878,0.42556116
2980000,0.008359332,-0.21695878,0.42556116
2984000,0.008359329,-0.21695876,0.42556116
2992000,0.008359323,-0.21695876,0.42556116
2996000,0.00835932,-0.21695878,0.42556116
3004000,0.008359315,-0.21695878,0.42556116
3008000,0.008359312,-0.21695876,0.42556116
3016000,0.008359307,-0.21695876,0.42556116
3020000,0.008359305,-0.21695878,0.42556116
3028000,0.009242773,-0.21879221,0.42714465
3036000,0.0092427675,-0.21879221,0.42714465
3040000,0.009242765,-0.2187922,0.42714468
3044000,0.009242762,-0.21879221,0.42714465
3048000,0.009242759,-0.2187922,0.42714468
3056000,0.0092427535,-0.2187922,0.42714468
3064000,0.009242748,-0.2187922,0.42714468
3068000,0.009242746,-0.21879221,0.42714465
3072000,0.009242743,-0.2187922,0.42714468
3076000,0.008374507,-0.21855,0.42601484
3080000,0.008374504,-0.21854998,0.42601484
3084000,0.008374501,-0.21855,0.42601484
3088000,0.008374498,-0.21854998,0.42601484
3092000,0.008374495,-0.21855,0.42601484
3096000,0.008374493,-0.21854998,0.42601484
3104000,0.008374487,-0.21854998,0.42601484
3108000,0.008374484,-0.21855,0.42601484
3112000,0.008374481,-0.21854998,0.42601484
3116000,0.00837448,-0.21855,0.42601484
3120000,0.008374477,-0.21854998,0.42601484
3128000,0.008090836,-0.2162363,0.42958733
3132000,0.008090833,-0.21623631,0.4295873
3136000,0.00809083,-0.2162363,0.42958733
3140000,0.008090829,-0.21623631,0.42958733
3148000,0.008090823,-0.21623631,0.42958733
3156000,0.008090817,-0.21623631,0.42958733
3160000,0.008090815,-0.2162363,0.42958733
3168000,0.008090809,-0.2162363,0.42958733
3172000,0.008090806,-0.21623631,0.42958733
3176000,0.008090803,-0.2162363,0.42958733
3180000,0.010051965,-0.21477665,0.42940265
3188000,0.010051959,-0.21477665,0.42940265
3196000,0.010051954,-0.21477665,0.42940265
3200000,0.010051951,-0.21477664,0.42940265
3204000,0.010051948,-0.21477665,0.42940265
3208000,0.010051945,-0.21477664,0.42940265
3212000,0.010051942,-0.21477665,0.42940265
3216000,0.01005194,-0.21477664,0.42940265
3224000,0.010051935,-0.21477664,0.42940265
3228000,0.010051932,-0.21477665,0.42940265
3232000,0.01180724,-0.2155996,0.4301839
3236000,0.011807237,-0.21559961,0.4301839
3240000,0.011807234,-0.2155996,0.4301839
3244000,0.011807231,-0.21559961,0.4301839
3248000,0.011807228,-0.2155996,0.4301839
3252000,0.011807226,-0.21559961,0.4301839
3256000,0.011807223,-0.2155996,0.4301839
3260000,0.011807221,-0.21559961,0.4301839
3264000,0.011807218,-0.2155996,0.4301839
3268000,0.011807215,-0.21559961,0.4301839
3272000,0.011807213,-0.2155996,0.4301839
3276000,0.01180721,-0.21559961,0.4301839
3280000,0.011807207,-0.2155996,0.4301839
3284000,0.012436942,-0.21438661,0.42774075
3288000,0.012436939,-0.21438661,0.42774075
3292000,0.012436937,-0.21438661,0.42774075
3296000,0.012436934,-0.21438661,0.42774075
3304000,0.012436929,-0.21438661,0.42774075
3308000,0.012436926,-0.21438661,0.42774075
3312000,0.012436924,-0.21438661,0.42774075
3316000,0.012436921,-0.21438661,0.42774075
3320000,0.012436918,-0.21438661,0.42774075
3324000,0.012436915,-0.21438661,0.42774075
3328000,0.012436912,-0.21438661,0.42774075
3332000,0.01243691,-0.21438661,0.42774075
3340000,0.008118328,-0.21671793,0.43103284
3344000,0.008118325,-0.21671791,0.43103284
3352000,0.008118319,-0.21671791,0.43103284
3356000,0.0081183165,-0.21671793,0.43103284
3360000,0.008118314,-0.21671791,0.43103284
3364000,0.008118312,-0.21671793,0.43103284
3368000,0.008118309,-0.21671791,0.43103284
3372000,0.008118306,-0.21671793,0.43103284
3376000,0.0081183035,-0.21671791,0.43103284
3380000,0.008118301,-0.21671793,0.43103284
3388000,0.010337325,-0.21610852,0.42731073
3392000,0.010337322,-0.2161085,0.42731073
3396000,0.01033732,-0.21610852,0.42731073
3400000,0.010337317,-0.2161085,0.42731073
3404000,0.010337315,-0.21610852,0.42731073
3408000,0.010337312,-0.2161085,0.42731073
3412000,0.010337309,-0.21610852,0.42731073
3420000,0.010337303,-0.21610852,0.42731073
3424000,0.010337301,-0.2161085,0.42731073
3428000,0.010337298,-0.21610852,0.42731073
3432000,0.010337295,-0.2161085,0.42731073
3436000,0.010337292,-0.21610852,0.42731073
3440000,0.01122219,-0.21696079,0.42938855
3444000,0.011222187,-0.2169608,0.42938855
3448000,0.011222185,-0.21696079,0.42938855
3452000,0.011222182,-0.2169608,0.42938855
3456000,0.011222179,-0.21696079,0.42938855
3460000,0.011222176,-0.2169608,0.42938855
3464000,0.011222173,-0.21696079,0.42938855
3468000,0.011222171,-0.2169608,0.42938855
3472000,0.011222168,-0.21696079,0.42938855
3480000,0.011222162,-0.21696079,0.42938855
3488000,0.011222157,-0.21696079,0.42938855
3492000,0.012015999,-0.2179368,0.4271983
3496000,0.0120159965,-0.21793678,0.4271983
3500000,0.012015994,-0.2179368,0.4271983
3504000,0.012015991,-0.21793678,0.4271983
3508000,0.012015988,-0.2179368,0.4271983
3512000,0.012015985,-0.21793678,0.4271983
3516000,0.012015983,-0.2179368,0.4271983
3520000,0.012015981,-0.21793678,0.4271983
3524000,0.012015978,-0.2179368,0.4271983
3528000,0.012015975,-0.21793678,0.4271983
3532000,0.012015972,-0.2179368,0.4271983
3536000,0.0120159695,-0.21793678,0.4271983
3540000,0.012015967,-0.2179368,0.4271983
3544000,0.007412132,-0.21411857,0.42685103
3548000,0.007412129,-0.21411858,0.42685103
3552000,0.0074121268,-0.21411857,0.42685103
3560000,0.007412121,-0.21411857,0.42685103
3564000,0.0074121184,-0.21411858,0.42685103
3568000,0.0074121156,-0.21411857,0.42685103
3572000,0.0074121132,-0.21411858,0.42685103
3576000,0.0074121105,-0.21411857,0.42685103
3584000,0.007412105,-0.21411857,0.42685103
3588000,0.007412102,-0.21411858,0.42685103
3592000,0.0074120993,-0.21411857,0.42685103
3600000,0.008379795,-0.21603681,0.4295761
3604000,0.008379792,-0.21603683,0.4295761
3608000,0.008379789,-0.21603681,0.4295761
3612000,0.008379787,-0.21603683,0.4295761
3616000,0.008379784,-0.21603681,0.4295761
3620000,0.008379782,-0.21603683,0.4295761
3624000,0.008379779,-0.21603681,0.4295761
3628000,0.008379776,-0.21603683,0.4295761
3632000,0.008379773,-0.21603681,0.4295761
3636000,0.00837977,-0.21603683,0.4295761
3640000,0.008379768,-0.21603681,0.4295761
3644000,0.008379765,-0.21603683,0.4295761
3648000,0.008379762,-0.21603681,0.4295761
3652000,0.008569629,-0.2163707,0.43149424
3656000,0.008569626,-0.21637069,0.43149424
3660000,0.008569623,-0.2163707,0.43149424
3664000,0.008569621,-0.21637069,0.43149424
3668000,0.008569618,-0.2163707,0.43149424
3676000,0.008569612,-0.2163707,0.43149424
3680000,0.008569609,-0.21637069,0.43149424
3688000,0.008569604,-0.21637069,0.43149424
3692000,0.008569602,-0.2163707,0.43149424
3700000,0.008597368,-0.21679892,0.4286803
3704000,0.008597366,-0.2167989,0.4286803
3708000,0.008597364,-0.21679892,0.4286803
3716000,0.008597358,-0.21679892,0.4286803
3724000,0.008597353,-0.21679892,0.4286803
3728000,0.00859735,-0.2167989,0.4286803
3732000,0.008597347,-0.21679892,0.4286803
3740000,0.008597341,-0.21679892,0.4286803
3748000,0.008597336,-0.21679892,0.4286803
3752000,0.0102684945,-0.21392336,0.42990997
3760000,0.010268489,-0.21392336,0.42990997
3764000,0.010268487,-0.21392338,0.42990994
3768000,0.010268484,-0.21392336,0.42990997
3772000,0.010268481,-0.21392338,0.42990994
3776000,0.010268479,-0.21392336,0.42990997
3784000,0.010268473,-0.21392336,0.42990997
3788000,0.01026847,-0.21392338,0.42990994
3792000,0.0102684675,-0.21392336,0.42990997
3796000,0.010268465,-0.21392338,0.42990994
3804000,0.011712354,-0.21650752,0.427863
3808000,0.011712351,-0.21650751,0.427863
3812000,0.011712348,-0.21650752,0.427863
3820000,0.0117123425,-0.21650752,0.427863
3824000,0.01171234,-0.21650751,0.427863
3828000,0.011712337,-0.21650752,0.427863
3832000,0.011712334,-0.21650751,0.427863
3836000,0.011712331,-0.21650752,0.427863
3840000,0.0117123285,-0.21650751,0.427863
3844000,0.011712327,-0.21650752,0.427863
3848000,0.011712324,-0.21650751,0.427863
3852000,0.011712321,-0.21650752,0.427863
3856000,0.011396774,-0.21753706,0.42791876
3860000,0.011396771,-0.21753708,0.42791876
3864000,0.0113967685,-0.21753706,0.42791876
3868000,0.011396767,-0.21753708,0.42791876
3872000,0.011396764,-0.21753706,0.42791876
3876000,0.011396761,-0.21753708,0.42791876
3880000,0.011396758,-0.21753706,0.42791876
3884000,0.011396755,-0.21753708,0.42791876
3892000,0.01139675,-0.21753708,0.42791876
3896000,0.011396747,-0.21753706,0.42791876
3904000,0.0113967415,-0.21753706,0.42791876
3908000,0.010734819,-0.21264976,0.429782
3912000,0.010734816,-0.21264975,0.42978203
3916000,0.010734813,-0.21264976,0.429782
3920000,0.0107348105,-0.21264975,0.42978203
3924000,0.010734808,-0.21264976,0.429782
3928000,0.010734805,-0.21264975,0.42978203
3932000,0.010734802,-0.21264976,0.429782
3936000,0.010734799,-0.21264975,0.42978203
3940000,0.0107347965,-0.21264976,0.429782
3944000,0.010734794,-0.21264975,0.42978203
3948000,0.010734791,-0.21264976,0.429782
3952000,0.010734788,-0.21264975,0.42978203
3960000,0.012031862,-0.21869405,0.42741036
3964000,0.012031859,-0.21869406,0.42741036
3968000,0.012031856,-0.21869405,0.42741036
3972000,0.012031853,-0.21869406,0.42741036
3976000,0.01203185,-0.21869405,0.42741036
3980000,0.012031848,-0.21869406,0.42741036
3984000,0.012031845,-0.21869405,0.42741036
3988000,0.012031842,-0.21869406,0.42741036
3992000,0.012031839,-0.21869405,0.42741036
3996000,0.012031837,-0.21869406,0.42741036
4000000,0.012031835,-0.21869405,0.42741036
4004000,0.012031832,-0.21869406,0.42741036
4008000,0.012031829,-0.21869405,0.42741036
4016000,0.012073758,-0.21678856,0.42655164
4020000,0.012073756,-0.21678858,0.42655164
4024000,0.012073753,-0.21678856,0.42655164
4028000,0.012073751,-0.21678858,0.42655164
4036000,0.012073745,-0.21678858,0.42655164
4040000,0.012073742,-0.21678856,0.42655167
4048000,0.012073737,-0.21678856,0.42655167
4052000,0.012073734,-0.21678858,0.42655164
4056000,0.012073731,-0.21678856,0.42655167
4064000,0.010622158,-0.21708101,0.42851985
4068000,0.010622156,-0.21708103,0.42851985
4072000,0.010622153,-0.21708101,0.42851985
4076000,0.01062215,-0.21708103,0.42851985
4080000,0.0106221475,-0.21708101,0.42851985
4084000,0.010622145,-0.21708103,0.42851985
4092000,0.010622139,-0.21708103,0.42851985
4096000,0.010622136,-0.21708101,0.42851985
4100000,0.0106221335,-0.21708103,0.42851985
4108000,0.010622128,-0.21708103,0.42851985
4112000,0.010622125,-0.21708101,0.42851985
4116000,0.008638894,-0.2141973,0.42922574
4120000,0.008638891,-0.21419728,0.42922574
4128000,0.008638886,-0.21419728,0.42922574
4132000,0.008638884,-0.2141973,0.42922574
4136000,0.008638881,-0.21419728,0.42922574
4140000,0.008638878,-0.2141973,0.42922574
4144000,0.008638876,-0.21419728,0.42922574
4148000,0.008638873,-0.2141973,0.42922574
4152000,0.00863887,-0.21419728,0.42922574
4156000,0.008638867,-0.2141973,0.42922574
4160000,0.008638864,-0.21419728,0.42922574
4164000,0.008638862,-0.2141973,0.42922574
4168000,0.009729117,-0.21562843,0.42970014
4172000,0.009729114,-0.21562845,0.42970014
4180000,0.00972911,-0.21562845,0.42970014
4188000,0.009729104,-0.21562845,0.42970014
4192000,0.009729101,-0.21562843,0.42970014
4200000,0.009729096,-0.21562843,0.42970014
4204000,0.009729093,-0.21562845,0.42970014
4208000,0.00972909,-0.21562843,0.42970014
4212000,0.009729087,-0.21562845,0.42970014
4216000,0.009729085,-0.21562843,0.42970014
4220000,0.007847907,-0.21614479,0.42812762
4224000,0.007847904,-0.21614477,0.42812762
4228000,0.007847901,-0.21614479,0.42812762
4232000,0.007847899,-0.21614477,0.42812762
4236000,0.007847896,-0.21614479,0.42812762
4240000,0.007847893,-0.21614477,0.42812762
4244000,0.00784789,-0.21614479,0.42812762
4248000,0.007847887,-0.21614477,0.42812762
4252000,0.007847886,-0.21614479,0.42812762
4256000,0.007847883,-0.21614477,0.42812762
4264000,0.007847877,-0.21614477,0.42812762
4268000,0.007847874,-0.21614479,0.42812762
4276000,0.014846124,-0.21751851,0.42616695
4280000,0.014846121,-0.2175185,0.42616695
4284000,0.014846118,-0.21751851,0.42616695
4288000,0.014846115,-0.2175185,0.42616695
4292000,0.014846113,-0.21751851,0.42616695
4296000,0.01484611,-0.2175185,0.42616695
4300000,0.014846107,-0.21751851,0.42616695
4304000,0.014846104,-0.2175185,0.42616695
4308000,0.014846101,-0.21751851,0.42616695
4312000,0.014846099,-0.2175185,0.42616695
4316000,0.014846096,-0.21751851,0.42616695
4320000,0.014846093,-0.2175185,0.42616695
4324000,0.00908737,-0.21757689,0.4308434
4328000,0.009087367,-0.21757688,0.43084344
4336000,0.009087361,-0.21757688,0.43084344
4340000,0.009087359,-0.21757689,0.4308434
4344000,0.009087356,-0.21757688,0.43084344
4348000,0.009087353,-0.21757689,0.4308434
4352000,0.00908735,-0.21757688,0.43084344
4356000,0.009087348,-0.21757689,0.4308434
4360000,0.009087346,-0.21757688,0.43084344
4364000,0.009087343,-0.21757689,0.4308434
4368000,0.00908734,-0.21757688,0.43084344
4372000,0.009087337,-0.21757689,0.4308434
4376000,0.009034286,-0.21516164,0.42882955
4380000,0.009034284,-0.21516165,0.42882955
4388000,0.009034279,-0.21516165,0.42882955
4392000,0.009034276,-0.21516164,0.42882955
4396000,0.009034273,-0.21516165,0.42882955
4400000,0.00903427,-0.21516164,0.42882955
4404000,0.009034268,-0.21516165,0.42882955
4408000,0.009034265,-0.21516164,0.42882955
4412000,0.009034262,-0.21516165,0.42882955
4420000,0.009034256,-0.21516165,0.42882955
4424000,0.009034254,-0.21516164,0.42882955
4428000,0.009896119,-0.21555932,0.4293436
4432000,0.009896116,-0.2155593,0.4293436
4436000,0.009896114,-0.21555932,0.4293436
4444000,0.009896109,-0.21555932,0.4293436
4448000,0.009896106,-0.2155593,0.4293436
4452000,0.009896103,-0.21555932,0.4293436
4456000,0.0098961005,-0.2155593,0.4293436
4460000,0.009896098,-0.21555932,0.4293436
4464000,0.009896095,-0.2155593,0.4293436
4468000,0.009896092,-0.21555932,0.4293436
4472000,0.009896089,-0.2155593,0.4293436
4476000,0.0098960865,-0.21555932,0.4293436
4480000,0.012681028,-0.21779168,0.42475298
4484000,0.012681025,-0.21779169,0.42475298
4488000,0.012681022,-0.21779168,0.42475298
4492000,0.01268102,-0.21779169,0.42475298
4500000,0.012681015,-0.21779169,0.42475298
4508000,0.012681009,-0.21779169,0.42475298
4512000,0.012681006,-0.21779168,0.42475298
4520000,0.012681001,-0.21779168,0.42475298
4524000,0.012680998,-0.21779169,0.42475298
4528000,0.012680995,-0.21779168,0.42475298
4536000,0.008153375,-0.21772066,0.42846057
4540000,0.008153372,-0.21772066,0.42846057
4544000,0.00815337,-0.21772066,0.42846057
4548000,0.008153367,-0.21772066,0.42846057
4552000,0.008153364,-0.21772066,0.42846057
4556000,0.008153361,-0.21772066,0.42846057
4560000,0.0081533585,-0.21772066,0.42846057
4564000,0.008153357,-0.21772066,0.42846057
4568000,0.008153354,-0.21772066,0.42846057
4572000,0.008153351,-0.21772066,0.42846057
4576000,0.008153348,-0.21772066,0.42846057
4580000,0.008153345,-0.21772066,0.42846057
4584000,0.011375123,-0.21738675,0.4278735
4588000,0.01137512,-0.21738677,0.42787346
4592000,0.011375117,-0.21738675,0.4278735
4596000,0.011375114,-0.21738677,0.42787346
4600000,0.0113751115,-0.21738675,0.4278735
4604000,0.011375109,-0.21738677,0.4278735
4608000,0.011375106,-0.21738675,0.4278735
4612000,0.011375103,-0.21738677,0.4278735
4616000,0.0113751,-0.21738675,0.4278735
4620000,0.0113750985,-0.21738677,0.4278735
4624000,0.011375096,-0.21738675,0.4278735
4628000,0.011375093,-0.21738677,0.4278735
4632000,0.01137509,-0.21738675,0.4278735
4640000,0.010204843,-0.2191366,0.43274117
4648000,0.010204838,-0.2191366,0.43274117
4652000,0.010204835,-0.21913661,0.43274117
4656000,0.010204832,-0.2191366,0.43274117
4660000,0.010204829,-0.21913661,0.43274117
4664000,0.0102048265,-0.2191366,0.43274117
4668000,0.010204825,-0.21913661,0.43274117
4672000,0.010204822,-0.2191366,0.43274117
4676000,0.010204819,-0.21913661,0.43274117
4680000,0.010204816,-0.2191366,0.43274117
4684000,0.010204813,-0.21913661,0.43274117
4688000,0.0088741565,-0.21619122,0.42804745
4692000,0.008874154,-0.21619123,0.42804742
4696000,0.008874151,-0.21619122,0.42804745
4700000,0.008874148,-0.21619123,0.42804742
4704000,0.008874145,-0.21619122,0.42804745
4708000,0.008874143,-0.21619123,0.42804742
4712000,0.00887414,-0.21619122,0.42804745
4716000,0.008874137,-0.21619123,0.42804742
4720000,0.008874134,-0.21619122,0.42804745
4724000,0.008874132,-0.21619123,0.42804742
4728000,0.0088741295,-0.21619122,0.42804745
4732000,0.008874127,-0.21619123,0.42804742
4736000,0.008874124,-0.21619122,0.42804745
4740000,0.008788361,-0.21777968,0.4285591
4748000,0.008788356,-0.21777968,0.4285591
4752000,0.008788353,-0.21777967,0.4285591
4756000,0.00878835,-0.21777968,0.4285591
4760000,0.008788347,-0.21777967,0.4285591
4764000,0.008788344,-0.21777968,0.4285591
4768000,0.008788342,-0.21777967,0.4285591
4772000,0.008788339,-0.21777968,0.4285591
4776000,0.008788336,-0.21777967,0.4285591
4780000,0.008788334,-0.21777968,0.4285591
4784000,0.008788331,-0.21777967,0.4285591
4788000,0.008788329,-0.21777968,0.4285591
4792000,0.01246704,-0.21547902,0.4271905
4800000,0.012467035,-0.21547902,0.4271905
4804000,0.012467032,-0.21547902,0.4271905
4808000,0.0124670295,-0.21547902,0.4271905
4812000,0.012467027,-0.21547902,0.4271905
4816000,0.012467024,-0.21547902,0.4271905
4820000,0.012467021,-0.21547902,0.4271905
4824000,0.012467018,-0.21547902,0.4271905
4828000,0.012467016,-0.21547902,0.4271905
4832000,0.012467013,-0.21547902,0.4271905
4836000,0.01246701,-0.21547902,0.4271905
4840000,0.012467007,-0.21547902,0.4271905
4848000,0.010611405,-0.21529186,0.43209434
4852000,0.010611402,-0.21529187,0.43209434
4856000,0.010611399,-0.21529186,0.43209434
4860000,0.010611396,-0.21529187,0.43209434
4864000,0.0106113935,-0.21529186,0.43209434
4868000,0.010611391,-0.21529187,0.43209434
4872000,0.010611388,-0.21529186,0.43209434
4876000,0.010611385,-0.21529187,0.43209434
4880000,0.010611382,-0.21529186,0.43209434
4884000,0.0106113795,-0.21529187,0.43209434
4892000,0.010611374,-0.21529187,0.43209434
4900000,0.011121756,-0.21619219,0.43004876
4904000,0.011121754,-0.21619217,0.43004876
4912000,0.011121748,-0.21619217,0.43004876
4916000,0.011121745,-0.21619219,0.43004876
4920000,0.011121742,-0.21619217,0.43004876
4924000,0.01112174,-0.21619219,0.43004876
4928000,0.011121737,-0.21619217,0.43004876
4932000,0.011121734,-0.21619219,0.43004876
4936000,0.011121731,-0.21619217,0.43004876
4940000,0.011121728,-0.21619219,0.43004876
4944000,0.011121726,-0.21619217,0.43004876
4948000,0.008333252,-0.21643747,0.42849955
4952000,0.008333249,-0.21643746,0.42849955
4956000,0.008333246,-0.21643747,0.42849955
4960000,0.008333243,-0.21643746,0.42849955
4964000,0.008333241,-0.21643747,0.42849955
4968000,0.008333238,-0.21643746,0.42849955
4972000,0.008333235,-0.21643747,0.42849955
4980000,0.00833323,-0.21643747,0.42849955
4984000,0.008333228,-0.21643746,0.42849955
4992000,0.008333222,-0.21643746,0.42849955
4996000,0.008333219,-0.21643747,0.42849955
5000000,0.011707335,-0.21460815,0.4287162
5004000,0.011707333,-0.21460816,0.4287162
5012000,0.011707327,-0.21460816,0.4287162
5016000,0.011707325,-0.21460815,0.4287162
5020000,0.011707322,-0.21460816,0.4287162
5024000,0.011707319,-0.21460815,0.4287162
5032000,0.011707313,-0.21460815,0.4287162
5040000,0.011707308,-0.21460815,0.4287162
5044000,0.011707305,-0.21460816,0.4287162
5048000,0.011707302,-0.21460815,0.4287162
5052000,0.009122946,-0.21580563,0.4330471
5060000,0.009122941,-0.21580563,0.4330471
5064000,0.009122938,-0.21580562,0.4330471
5068000,0.009122935,-0.21580563,0.4330471
5072000,0.009122932,-0.21580562,0.4330471
5076000,0.00912293,-0.21580563,0.4330471
5080000,0.009122927,-0.21580562,0.4330471
5084000,0.009122924,-0.21580563,0.4330471
5088000,0.009122921,-0.21580562,0.4330471
5092000,0.009122919,-0.21580563,0.4330471
5096000,0.0091229165,-0.21580562,0.4330471
5100000,0.009122914,-0.21580563,0.4330471
5104000,0.011060879,-0.21547428,0.42998278
5108000,0.011060876,-0.2154743,0.42998278
5112000,0.011060873,-0.21547428,0.42998278
5116000,0.011060871,-0.2154743,0.42998278
5120000,0.011060868,-0.21547428,0.42998278
5124000,0.011060866,-0.2154743,0.42998278
5128000,0.011060863,-0.21547428,0.42998278
5132000,0.01106086,-0.2154743,0.42998278
5136000,0.011060857,-0.21547428,0.42998278
5140000,0.011060854,-0.2154743,0.42998278
5144000,0.011060852,-0.21547428,0.42998278
5148000,0.011060849,-0.2154743,0.42998278
5152000,0.011060846,-0.21547428,0.42998278
5156000,0.011166516,-0.21380652,0.42833838
5160000,0.011166513,-0.21380652,0.42833838
5164000,0.011166511,-0.21380652,0.42833838
5168000,0.011166508,-0.21380652,0.42833838
5172000,0.0111665055,-0.21380652,0.42833838
5176000,0.011166503,-0.21380652,0.42833838
5180000,0.0111665,-0.21380652,0.42833838
5184000,0.011166497,-0.21380652,0.42833838
5188000,0.011166494,-0.21380652,0.42833838
5192000,0.011166492,-0.21380652,0.42833838
5196000,0.011166489,-0.21380652,0.42833838
5200000,0.011166486,-0.21380652,0.42833838
5204000,0.011166483,-0.21380652,0.42833838
5208000,0.00823367,-0.21580994,0.4298738
5212000,0.008233668,-0.21580996,0.4298738
5216000,0.0082336655,-0.21580994,0.4298738
5220000,0.008233663,-0.21580996,0.4298738
5224000,0.00823366,-0.21580994,0.4298738
5228000,0.008233657,-0.21580996,0.4298738
5236000,0.0082336515,-0.21580996,0.4298738
5240000,0.008233649,-0.21580994,0.4298738
5244000,0.008233646,-0.21580996,0.4298738
5252000,0.00823364,-0.21580996,0.4298738
5256000,0.008233638,-0.21580994,0.4298738
5260000,0.008306639,-0.2137296,0.42911676
5264000,0.0083066365,-0.21372959,0.4291168
5268000,0.008306634,-0.2137296,0.42911676
5272000,0.008306631,-0.21372959,0.4291168
5276000,0.008306629,-0.2137296,0.42911676
5280000,0.008306626,-0.21372959,0.4291168
5284000,0.008306623,-0.2137296,0.42911676
5288000,0.008306621,-0.21372959,0.4291168
5292000,0.008306618,-0.2137296,0.42911676
5296000,0.008306615,-0.21372959,0.4291168
5300000,0.008306612,-0.2137296,0.42911676
5304000,0.0083066095,-0.21372959,0.4291168
5308000,0.008306607,-0.2137296,0.42911676
5312000,0.010895678,-0.21697089,0.42902797
5316000,0.010895675,-0.2169709,0.42902794
5320000,0.010895672,-0.21697089,0.42902797
5324000,0.01089567,-0.2169709,0.42902794
5328000,0.010895668,-0.21697089,0.42902797
5332000,0.010895665,-0.2169709,0.42902794
5336000,0.010895662,-0.21697089,0.42902797
5344000,0.010895656,-0.21697089,0.42902797
5352000,0.010895651,-0.21697089,0.42902797
5356000,0.010895648,-0.2169709,0.42902794
5360000,0.010895645,-0.21697089,0.42902797
5364000,0.012895562,-0.21901423,0.42798424
5368000,0.012895559,-0.21901421,0.42798424
5372000,0.012895556,-0.21901423,0.42798424
5376000,0.012895553,-0.21901421,0.42798424
5380000,0.012895551,-0.21901423,0.42798424
5388000,0.012895545,-0.21901423,0.42798424
5392000,0.012895542,-0.21901421,0.42798424
5396000,0.012895539,-0.21901423,0.42798424
5400000,0.012895538,-0.21901421,0.42798424
5404000,0.012895535,-0.21901423,0.42798424
5412000,0.012895529,-0.21901423,0.42798424
5416000,0.009248949,-0.21838681,0.42845318
5420000,0.009248946,-0.21838681,0.42845318
5424000,0.009248943,-0.21838681,0.42845318
5428000,0.00924894,-0.21838681,0.42845318
5432000,0.0092489375,-0.21838681,0.42845318
5436000,0.009248935,-0.21838681,0.42845318
5440000,0.009248932,-0.21838681,0.42845318
5444000,0.009248929,-0.21838681,0.42845318
5448000,0.009248926,-0.21838681,0.42845318
5452000,0.0092489235,-0.21838681,0.42845318
5456000,0.009248921,-0.21838681,0.42845318
5460000,0.009248919,-0.21838681,0.42845318
5468000,0.010816766,-0.21598177,0.4318149
5476000,0.01081676,-0.21598177,0.4318149
5480000,0.010816758,-0.21598175,0.4318149
5484000,0.010816755,-0.21598177,0.4318149
5488000,0.010816752,-0.21598175,0.4318149
5492000,0.010816749,-0.21598177,0.4318149
5496000,0.010816746,-0.21598175,0.4318149
5500000,0.010816744,-0.21598177,0.4318149
5504000,0.010816741,-0.21598175,0.4318149
5508000,0.010816739,-0.21598177,0.4318149
5516000,0.010816733,-0.21598177,0.4318149
5520000,0.010316822,-0.21574901,0.43005443
5524000,0.010316819,-0.21574903,0.43005443
5528000,0.010316816,-0.21574901,0.43005443
5532000,0.010316813,-0.21574903,0.43005443
5536000,0.010316811,-0.21574901,0.43005443
5540000,0.010316808,-0.21574903,0.43005443
5544000,0.010316805,-0.21574901,0.43005443
5548000,0.010316803,-0.21574903,0.43005443
5552000,0.0103168,-0.21574901,0.43005443
5556000,0.0103167975,-0.21574903,0.43005443
5560000,0.010316795,-0.21574901,0.43005443
5564000,0.010316792,-0.21574903,0.43005443
5568000,0.010316789,-0.21574901,0.43005443
5572000,0.009022711,-0.21796875,0.42743137
5580000,0.009022705,-0.21796875,0.42743137
5584000,0.009022702,-0.21796873,0.42743137
5592000,0.009022698,-0.21796873,0.42743137
5596000,0.009022695,-0.21796875,0.42743137
5600000,0.009022692,-0.21796873,0.42743137
5608000,0.009022687,-0.21796873,0.42743137
5612000,0.009022684,-0.21796875,0.42743137
5616000,0.009022681,-0.21796873,0.42743137
5624000,0.0070333295,-0.21606864,0.4272491
5628000,0.0070333267,-0.21606866,0.4272491
5632000,0.007033324,-0.21606864,0.4272491
5640000,0.0070333183,-0.21606864,0.4272491
5648000,0.007033313,-0.21606864,0.4272491
5652000,0.0070333104,-0.21606866,0.4272491
5660000,0.007033305,-0.21606866,0.4272491
5664000,0.007033302,-0.21606864,0.4272491
5668000,0.0070332997,-0.21606866,0.4272491
5676000,0.009294721,-0.21678159,0.43037754
5680000,0.0092947185,-0.21678157,0.43037754
5688000,0.009294713,-0.21678157,0.43037754
5692000,0.00929471,-0.21678159,0.43037754
5696000,0.009294707,-0.21678157,0.43037754
5700000,0.0092947045,-0.21678159,0.43037754
5704000,0.009294702,-0.21678157,0.43037754
5708000,0.009294699,-0.21678159,0.43037754
5712000,0.009294696,-0.21678157,0.43037757
5716000,0.009294694,-0.21678159,0.43037754
5720000,0.0092946915,-0.21678157,0.43037757
5724000,0.009294689,-0.21678159,0.43037754
5728000,0.0077386014,-0.2160016,0.43067235
5732000,0.007738599,-0.21600161,0.43067235
5736000,0.0077385963,-0.2160016,0.43067235
5740000,0.0077385935,-0.21600161,0.43067235
5744000,0.0077385907,-0.2160016,0.43067235
5748000,0.007738588,-0.21600161,0.43067235
5752000,0.007738585,-0.2160016,0.43067235
5756000,0.0077385823,-0.21600161,0.43067235
5760000,0.0077385795,-0.2160016,0.43067235
5764000,0.007738577,-0.21600161,0.43067235
5768000,0.0077385744,-0.2160016,0.43067235
5772000,0.0077385716,-0.21600161,0.43067235
5776000,0.007738569,-0.2160016,0.43067235
5780000,0.010291028,-0.21477014,0.42844802
5784000,0.010291025,-0.21477014,0.42844805
5788000,0.010291022,-0.21477014,0.42844802
5792000,0.010291019,-0.21477014,0.42844805
5796000,0.010291017,-0.21477014,0.42844802
5800000,0.010291014,-0.21477014,0.42844805
5804000,0.010291011,-0.21477014,0.42844802
5808000,0.010291008,-0.21477014,0.42844805
5812000,0.0102910055,-0.21477014,0.42844802
5816000,0.010291003,-0.21477014,0.42844805
5820000,0.010291,-0.21477014,0.42844802
5824000,0.010290997,-0.21477014,0.42844805
5828000,0.010290995,-0.21477014,0.42844802
5836000,0.011431376,-0.21645932,0.4284533
5840000,0.011431374,-0.2164593,0.4284533
5844000,0.011431371,-0.21645932,0.4284533
5848000,0.011431368,-0.2164593,0.4284533
5852000,0.011431365,-0.21645932,0.4284533
5856000,0.0114313625,-0.2164593,0.4284533
5860000,0.011431361,-0.21645932,0.4284533
5864000,0.011431358,-0.2164593,0.4284533
5868000,0.011431355,-0.21645932,0.4284533
5872000,0.011431352,-0.2164593,0.4284533
5876000,0.011431349,-0.21645932,0.4284533
5880000,0.011431347,-0.2164593,0.4284533
5884000,0.008582828,-0.21646634,0.42739156
5888000,0.008582825,-0.21646634,0.4273916
5892000,0.008582822,-0.21646634,0.42739156
5896000,0.008582819,-0.21646634,0.4273916
5900000,0.008582816,-0.21646634,0.42739156
5904000,0.008582814,-0.21646634,0.4273916
5908000,0.008582811,-0.21646634,0.42739156
5912000,0.008582808,-0.21646634,0.4273916
5916000,0.008582805,-0.21646634,0.42739156
5920000,0.0085828025,-0.21646634,0.4273916
5924000,0.008582801,-0.21646634,0.42739156
5928000,0.008582798,-0.21646634,0.4273916
5932000,0.008582795,-0.21646634,0.42739156
5936000,0.011835189,-0.21650532,0.42798814
5940000,0.011835186,-0.21650533,0.4279881
5944000,0.011835183,-0.21650532,0.42798814
5948000,0.01183518,-0.21650533,0.4279881
5952000,0.011835177,-0.21650532,0.42798814
5956000,0.011835175,-0.21650533,0.4279881
5960000,0.011835172,-0.21650532,0.42798814
5964000,0.011835169,-0.21650533,0.4279881
5968000,0.011835166,-0.21650532,0.42798814
5972000,0.011835163,-0.21650533,0.4279881
5976000,0.011835161,-0.21650532,0.42798814
5980000,0.011835159,-0.21650533,0.4279881
5984000,0.011835156,-0.21650532,0.42798814
5988000,0.010320454,-0.21536238,0.42834458
5992000,0.010320451,-0.21536237,0.42834458
5996000,0.010320448,-0.21536238,0.42834458
6000000,0.0103204455,-0.21536237,0.42834458
6004000,0.010320443,-0.21536238,0.42834458
6008000,0.01032044,-0.21536237,0.42834458
6012000,0.010320437,-0.21536238,0.42834458
6016000,0.010320434,-0.21536237,0.42834458
6020000,0.010320432,-0.21536238,0.42834458
6024000,0.010320429,-0.21536237,0.42834458
6028000,0.010320426,-0.21536238,0.42834458
6032000,0.010320423,-0.21536237,0.42834458
6036000,0.010320421,-0.21536238,0.42834458
6040000,0.010769861,-0.21645857,0.42749295
6044000,0.010769858,-0.21645859,0.42749295
6048000,0.010769855,-0.21645857,0.42749295
6052000,0.010769852,-0.21645859,0.42749295
6056000,0.01076985,-0.21645857,0.42749295
6064000,0.010769845,-0.21645857,0.42749295
6072000,0.010769839,-0.21645857,0.42749295
6076000,0.010769837,-0.21645859,0.42749295
6084000,0.010769831,-0.21645859,0.42749295
6092000,0.007732421,-0.21772026,0.42964497
6096000,0.0077324184,-0.21772024,0.42964497
6100000,0.0077324156,-0.21772026,0.42964497
6108000,0.00773241,-0.21772026,0.42964497
6112000,0.007732407,-0.21772024,0.42964497
6116000,0.007732405,-0.21772026,0.42964497
6120000,0.007732402,-0.21772024,0.42964497
6124000,0.0077323993,-0.21772026,0.42964497
6132000,0.0077323937,-0.21772026,0.42964497
6136000,0.007732391,-0.21772024,0.42964497
6144000,0.009490961,-0.2178735,0.42684537
6148000,0.009490958,-0.2178735,0.42684537
6152000,0.009490956,-0.2178735,0.42684537
6156000,0.009490953,-0.2178735,0.42684537
6160000,0.00949095,-0.2178735,0.42684537
6164000,0.009490948,-0.2178735,0.42684537
6168000,0.009490945,-0.2178735,0.42684537
6172000,0.009490943,-0.2178735,0.42684537
6180000,0.009490937,-0.2178735,0.42684537
6184000,0.009490934,-0.2178735,0.42684537
6188000,0.009490931,-0.2178735,0.42684537
6192000,0.009490929,-0.2178735,0.42684537
6196000,0.009012342,-0.21764086,0.43051523
6200000,0.00901234,-0.21764085,0.43051523
6204000,0.009012337,-0.21764086,0.43051523
6208000,0.009012334,-0.21764085,0.43051523
6216000,0.009012329,-0.21764085,0.43051523
6220000,0.009012327,-0.21764086,0.43051523
6224000,0.009012324,-0.21764085,0.43051523
6228000,0.009012321,-0.21764086,0.43051523
6232000,0.009012318,-0.21764085,0.43051523
6236000,0.009012315,-0.21764086,0.43051523
6240000,0.009012313,-0.21764085,0.43051523
6244000,0.00901231,-0.21764086,0.43051523
6248000,0.011981293,-0.21515672,0.4314606
6252000,0.01198129,-0.21515672,0.4314606
6256000,0.011981287,-0.21515672,0.4314606
6260000,0.011981284,-0.21515672,0.4314606
6264000,0.011981281,-0.21515672,0.4314606
6268000,0.011981279,-0.21515672,0.4314606
6272000,0.011981276,-0.21515672,0.4314606
6276000,0.011981273,-0.21515672,0.4314606
6280000,0.01198127,-0.21515672,0.4314606
6284000,0.011981268,-0.21515672,0.4314606
6288000,0.011981266,-0.21515672,0.4314606
6292000,0.011981263,-0.21515672,0.4314606
6296000,0.01198126,-0.21515672,0.4314606
6300000,0.011981257,-0.21515672,0.4314606
6304000,0.006806722,-0.21618518,0.43003312
6308000,0.006806719,-0.2161852,0.43003312
6312000,0.0068067163,-0.21618518,0.43003312
6316000,0.0068067135,-0.2161852,0.43003312
6320000,0.0068067107,-0.21618518,0.43003312
6324000,0.0068067084,-0.2161852,0.43003312
6328000,0.0068067056,-0.21618518,0.43003312
6332000,0.006806703,-0.2161852,0.43003312
6336000,0.0068067,-0.21618518,0.43003312
6344000,0.0068066944,-0.21618518,0.43003312
6348000,0.0068066916,-0.2161852,0.43003312
6351999,0.0094528375,-0.21833731,0.42872676
6356000,0.009452835,-0.21833733,0.42872673
6360000,0.009452832,-0.21833731,0.42872676
6367999,0.009452826,-0.21833731,0.42872676
6372000,0.009452824,-0.21833733,0.42872673
6376000,0.009452821,-0.21833731,0.42872676
6380000,0.009452818,-0.21833733,0.42872673
6383999,0.009452815,-0.21833731,0.42872676
6392000,0.0094528105,-0.21833731,0.42872676
6396000,0.009452808,-0.21833733,0.42872673
6399999,0.009452805,-0.21833731,0.42872676
6404000,0.008722666,-0.21905209,0.42769822
6408000,0.008722663,-0.21905208,0.42769825
6412000,0.00872266,-0.21905209,0.42769822
6415999,0.008722657,-0.21905208,0.42769825
6420000,0.008722655,-0.21905209,0.42769822
6424000,0.008722652,-0.21905208,0.42769825
6428000,0.008722649,-0.21905209,0.42769822
6431999,0.008722646,-0.21905208,0.42769825
6436000,0.008722643,-0.21905209,0.42769822
6440000,0.008722641,-0.21905208,0.42769825
6444000,0.008722639,-0.21905209,0.42769822
6447999,0.008722636,-0.21905208,0.42769825
6452000,0.008722633,-0.21905209,0.42769822
6456000,0.009718312,-0.21846093,0.42746192
6460000,0.00971831,-0.21846095,0.4274619
6468000,0.0097183045,-0.21846095,0.4274619
6472000,0.009718302,-0.21846093,0.42746192
6476000,0.009718299,-0.21846095,0.4274619
6479999,0.009718296,-0.21846093,0.42746192
6484000,0.009718293,-0.21846095,0.4274619
6488000,0.0097182905,-0.21846093,0.42746192
6492000,0.009718288,-0.21846095,0.4274619
6495999,0.009718285,-0.21846093,0.42746192
6500000,0.009718282,-0.21846095,0.4274619
6504000,0.009718279,-0.21846093,0.42746192
6508000,0.009161928,-0.2133458,0.42967388
6516000,0.009161922,-0.2133458,0.42967388
6520000,0.009161919,-0.21334578,0.42967388
6524000,0.009161917,-0.2133458,0.42967388
6527999,0.009161914,-0.21334578,0.42967388
6532000,0.009161911,-0.2133458,0.42967388
6536000,0.009161908,-0.21334578,0.42967388
6540000,0.009161906,-0.2133458,0.42967388
6543999,0.0091619035,-0.21334578,0.42967388
