timestamp,time_utc_usec,lat,lon,alt,alt_ellipsoid,s_variance_m_s,c_variance_rad,eph,epv,hdop,vdop,noise_per_ms,jamming_indicator,vel_m_s,vel_n_m_s,vel_e_m_s,vel_d_m_s,cog_rad,timestamp_time_relative,heading,heading_offset,fix_type,vel_ned_valid,satellites_used
380000,1924000,473977419,85455940,488127,0,0.25,0.0,1.0,1.0,0.0,0.0,0,0,0.0,0.0,-0.01,0.01,4.5373325,0,0.0,0.0,3,0,10
584000,2124000,473977420,85455940,488125,0,0.25,0.0,1.0,1.0,0.0,0.0,0,0,0.0,0.0,0.0,0.0,1.0093238,0,0.0,0.0,3,0,10
788000,2328000,473977419,85455940,488121,0,0.25,0.0,1.0,1.0,0.0,0.0,0,0,0.0,0.01,0.0,0.01,5.717349,0,0.0,0.0,3,0,10
992000,2532000,473977420,85455940,488128,0,0.25,0.0,1.0,1.0,0.0,0.0,0,0,0.0,-0.01,0.02,0.0,2.1636846,0,0.0,0.0,3,0,10
1196000,2736000,473977420,85455940,488124,0,0.25,0.0,1.0,1.0,0.0,0.0,0,0,0.0,0.0,0.0,-0.01,1.1506956,0,0.0,0.0,3,0,10
1400000,2940000,473977420,85455940,488121,0,0.25,0.0,1.0,1.0,0.0,0.0,0,0,0.0,0.02,0.0,0.0,5.964313,0,0.0,0.0,3,0,10
1604000,3144000,473977419,85455940,488121,0,0.25,0.0,1.0,1.0,0.0,0.0,0,0,0.0,0.0,0.0,0.02,3.9266417,0,0.0,0.0,3,0,10
1808000,3348000,473977419,85455940,488121,0,0.25,0.0,1.0,1.0,0.0,0.0,0,0,0.0,0.0,0.01,0.01,1.8125244,0,0.0,0.0,3,0,10
2012000,3552000,473977419,85455940,488131,0,0.25,0.0,1.0,1.0,0.0,0.0,0,0,0.0,0.0,-0.01,0.01,4.8253117,0,0.0,0.0,3,0,10
2216000,3756000,473977419,85455940,488120,0,0.25,0.0,1.0,1.0,0.0,0.0,0,0,0.0,0.0,-0.01,0.03,4.2427206,0,0.0,0.0,3,0,10
2419999,3960000,473977419,85455940,488126,0,0.25,0.0,1.0,1.0,0.0,0.0,0,0,0.0,0.01,0.0,0.04,5.705481,0,0.0,0.0,3,0,10
2624000,4168000,473977419,85455941,488131,0,0.25,0.0,1.0,1.0,0.0,0.0,0,0,0.0,0.0,0.0,-0.02,6.1100483,0,0.0,0.0,3,0,10
2828000,4368000,473977420,85455941,488125,0,0.25,0.0,1.0,1.0,0.0,0.0,0,0,0.0,0.0,0.0,0.03,4.789358,0,0.0,0.0,3,0,10
3032000,4572000,473977420,85455940,488121,0,0.25,0.0,1.0,1.0,0.0,0.0,0,0,0.0,-0.01,0.0,-0.04,3.4190998,0,0.0,0.0,3,0,10
3236000,4776000,473977420,85455940,488130,0,0.25,0.0,1.0,1.0,0.0,0.0,0,0,0.0,0.0,0.0,-0.06,5.3988266,0,0.0,0.0,3,0,10
3440000,4980000,473977419,85455940,488120,0,0.25,0.0,1.0,1.0,0.0,0.0,0,0,0.0,0.0,0.02,-0.03,1.2559389,0,0.0,0.0,3,0,10
3644000,5184000,473977419,85455941,488119,0,0.25,0.0,1.0,1.0,0.0,0.0,0,0,0.0,0.01,0.0,0.0,0.26581365,0,0.0,0.0,3,0,10
3848000,5388000,473977420,85455941,488114,0,0.25,0.0,1.0,1.0,0.0,0.0,0,0,0.0,0.01,0.0,-0.01,5.7374206,0,0.0,0.0,3,0,10
4052000,5592000,473977419,85455941,488119,0,0.25,0.0,1.0,1.0,0.0,0.0,0,0,0.0,0.0,0.01,-0.01,1.5063937,0,0.0,0.0,3,0,10
4256000,5796000,473977419,85455940,488115,0,0.25,0.0,1.0,1.0,0.0,0.0,0,0,0.0,0.0,0.0,-0.02,0.6555456,0,0.0,0.0,3,0,10
4460000,6004000,473977420,85455940,488119,0,0.25,0.0,1.0,1.0,0.0,0.0,0,0,0.0,-0.01,0.0,0.01,3.1817353,0,0.0,0.0,3,0,10
4664000,6208000,473977420,85455940,488122,0,0.25,0.0,1.0,1.0,0.0,0.0,0,0,0.0,0.0,0.0,0.01,3.8947022,0,0.0,0.0,3,0,10
4868000,6412000,473977419,85455940,488129,0,0.25,0.0,1.0,1.0,0.0,0.0,0,0,0.0,0.03,-0.01,0.0,5.8213706,0,0.0,0.0,3,0,10
5072000,6616000,473977420,85455941,488127,0,0.25,0.0,1.0,1.0,0.0,0.0,0,0,0.0,0.0,0.01,0.01,0.9932669,0,0.0,0.0,3,0,10
5276000,6820000,473977420,85455941,488125,0,0.25,0.0,1.0,1.0,0.0,0.0,0,0,0.0,0.01,-0.01,-0.03,5.3944635,0,0.0,0.0,3,0,10
5480000,7024000,473977420,85455940,488126,0,0.25,0.0,1.0,1.0,0.0,0.0,0,0,0.0,0.02,0.0,-0.01,6.04966,0,0.0,0.0,3,0,10
5684000,7228000,473977420,85455940,488126,0,0.25,0.0,1.0,1.0,0.0,0.0,0,0,0.0,0.0,0.0,-0.02,6.2048197,0,0.0,0.0,3,0,10
5888000,7432000,473977419,85455940,488124,0,0.25,0.0,1.0,1.0,0.0,0.0,0,0,0.0,-0.02,0.0,-0.02,3.0305896,0,0.0,0.0,3,0,10
6092000,7636000,473977419,85455940,488122,0,0.25,0.0,1.0,1.0,0.0,0.0,0,0,0.0,-0.02,0.0,0.04,2.8852038,0,0.0,0.0,3,0,10
6296000,7840000,473977419,85455940,488129,0,0.25,0.0,1.0,1.0,0.0,0.0,0,0,0.0,0.0,0.0,0.04,5.792399,0,0.0,0.0,3,0,10
6500000,8044000,473977419,85455941,488124,0,0.25,0.0,1.0,1.0,0.0,0.0,0,0,0.0,0.0,0.0,-0.01,2.8907886,0,0.0,0.0,3,0,10
6703999,8244000,473977420,85455940,488120,0,0.25,0.0,1.0,1.0,0.0,0.0,0,0,0.0,-0.01,0.0,0.0,2.7255063,0,0.0,0.0,3,0,10
6908000,8452000,473977419,85455940,488123,0,0.25,0.0,1.0,1.0,0.0,0.0,0,0,0.0,0.0,0.0,0.0,0.6928957,0,0.0,0.0,3,0,10
7112000,8652000,473977419,85455940,488128,0,0.25,0.0,1.0,1.0,0.0,0.0,0,0,0.0,0.0,0.01,0.0,1.9860102,0,0.0,0.0,3,0,10
7316000,8860000,473977419,85455940,488129,0,0.25,0.0,1.0,1.0,0.0,0.0,0,0,0.0,0.0,-0.02,0.01,4.3465676,0,0.0,0.0,3,0,10
7520000,9060000,473977419,85455941,488120,0,0.25,0.0,1.0,1.0,0.0,0.0,0,0,0.0,0.0,0.0,0.01,3.3306117,0,0.0,0.0,3,0,10
7724000,9268000,473977420,85455940,488128,0,0.25,0.0,1.0,1.0,0.0,0.0,0,0,0.0,0.0,-0.02,-0.01,4.8492227,0,0.0,0.0,3,0,10
7928000,9468000,473977420,85455940,488112,0,0.25,0.0,1.0,1.0,0.0,0.0,0,0,0.0,0.0,0.01,-0.07,1.6989034,0,0.0,0.0,3,0,10
8132000,9676000,473977420,85455940,488115,0,0.25,0.0,1.0,1.0,0.0,0.0,0,0,0.0,0.0,0.03,0.0,1.4952235,0,0.0,0.0,3,0,10
8336000,9876000,473977420,85455941,488114,0,0.25,0.0,1.0,1.0,0.0,0.0,0,0,0.0,-0.01,0.0,-0.01,3.610388,0,0.0,0.0,3,0,10
8540000,10084000,473977420,85455940,488104,0,0.25,0.0,1.0,1.0,0.0,0.0,0,0,0.0,0.0,0.01,0.02,1.2665855,0,0.0,0.0,3,0,10
8744000,10284000,473977420,85455940,488117,0,0.25,0.0,1.0,1.0,0.0,0.0,0,0,0.0,0.0,0.0,0.02,0.47123888,0,0.0,0.0,3,0,10
8948000,10492000,473977420,85455940,488123,0,0.25,0.0,1.0,1.0,0.0,0.0,0,0,0.0,0.01,-0.01,0.0,5.521349,0,0.0,0.0,3,0,10
9152000,10692000,473977419,85455940,488117,0,0.25,0.0,1.0,1.0,0.0,0.0,0,0,0.0,0.0,0.0,-0.01,1.386664,0,0.0,0.0,3,0,10
9356000,10900000,473977419,85455940,488123,0,0.25,0.0,1.0,1.0,0.0,0.0,0,0,0.0,0.0,-0.01,0.0,5.0522046,0,0.0,0.0,3,0,10
9560000,11100000,473977420,85455940,488134,0,0.25,0.0,1.0,1.0,0.0,0.0,0,0,0.0,-0.01,0.0,-0.04,3.4686673,0,0.0,0.0,3,0,10
9764000,11308000,473977419,85455940,488132,0,0.25,0.0,1.0,1.0,0.0,0.0,0,0,0.0,0.01,0.0,0.0,5.920331,0,0.0,0.0,3,0,10
9968000,11508000,473977419,85455940,488129,0,0.25,0.0,1.0,1.0,0.0,0.0,0,0,0.0,-0.01,0.0,0.02,2.5408504,0,0.0,0.0,3,0,10
10172000,11716000,473977419,85455940,488136,0,0.25,0.0,1.0,1.0,0.0,0.0,0,0,0.0,0.0,-0.01,0.0,4.830024,0,0.0,0.0,3,0,10
10376000,11916000,473977419,85455941,488120,0,0.25,0.0,1.0,1.0,0.0,0.0,0,0,0.0,0.0,0.0,0.02,4.072202,0,0.0,0.0,3,0,10
10580000,12124000,473977419,85455941,488119,0,0.25,0.0,1.0,1.0,0.0,0.0,0,0,0.0,0.01,0.0,0.03,0.60999256,0,0.0,0.0,3,0,10
10784000,12324000,473977419,85455941,488123,0,0.25,0.0,1.0,1.0,0.0,0.0,0,0,0.0,0.0,0.0,0.01,1.786519,0,0.0,0.0,3,0,10
10988000,12532000,473977419,85455940,488127,0,0.25,0.0,1.0,1.0,0.0,0.0,0,0,0.0,0.0,0.0,-0.03,2.780135,0,0.0,0.0,3,0,10
11192000,12732000,473977420,85455940,488123,0,0.25,0.0,1.0,1.0,0.0,0.0,0,0,0.0,0.0,-0.01,0.01,4.896172,0,0.0,0.0,3,0,10
11396000,12940000,473977419,85455940,488121,0,0.25,0.0,1.0,1.0,0.0,0.0,0,0,0.0,0.01,0.01,-0.01,0.84561205,0,0.0,0.0,3,0,10
11600000,13140000,473977419,85455941,488125,0,0.25,0.0,1.0,1.0,0.0,0.0,0,0,0.0,0.0,0.01,0.01,1.1400491,0,0.0,0.0,3,0,10
11804000,13348000,473977419,85455941,488124,0,0.25,0.0,1.0,1.0,0.0,0.0,0,0,0.0,0.0,0.0,0.0,0.89465576,0,0.0,0.0,3,0,10
12008000,13548000,473977419,85455940,488126,0,0.25,0.0,1.0,1.0,0.0,0.0,0,0,0.0,0.01,-0.01,0.02,5.5566044,0,0.0,0.0,3,0,10
12212000,13756000,473977420,85455940,488120,0,0.25,0.0,1.0,1.0,0.0,0.0,0,0,0.0,0.02,-0.02,0.02,5.416455,0,0.0,0.0,3,0,10
12416000,13956000,473977420,85455940,488127,0,0.25,0.0,1.0,1.0,0.0,0.0,0,0,0.0,0.0,0.0,0.01,2.4848251,0,0.0,0.0,3,0,10
12620000,14164000,473977420,85456048,488124,0,0.25,0.0,1.0,1.0,0.0,0.0,0,0,8.389999,0.0,8.38,0.01,1.5702727,0,0.0,0.0,3,0,10
12824000,14364000,473977419,85456361,488123,0,0.25,0.0,1.0,1.0,0.0,0.0,0,0,14.42,0.0,14.429999,0.0,1.5706217,0,0.0,0.0,3,0,10
13028000,14572000,473977421,85456823,488126,0,0.25,0.0,1.0,1.0,0.0,0.0,0,0,18.57,0.03,18.57,-0.06,1.569051,0,0.0,0.0,3,0,10
13232000,14772000,473977418,85457355,488147,0,0.25,0.0,1.0,1.0,0.0,0.0,0,0,21.08,-0.26,21.09,-0.089999996,1.5831882,0,0.0,0.0,3,0,10
13436000,14980000,473977411,85457962,488163,0,0.25,0.0,1.0,1.0,0.0,0.0,0,0,22.539999,-0.42,22.519999,-0.049999997,1.5894713,0,0.0,0.0,3,0,10
13640000,15180000,473977400,85458573,488233,0,0.25,0.0,1.0,1.0,0.0,0.0,0,0,23.269999,-0.78999996,23.26,-0.71999997,1.6048301,0,0.0,0.0,3,0,10
13844000,15388000,473977380,85459223,488471,0,0.25,0.0,1.0,1.0,0.0,0.0,0,0,23.58,-1.3199999,23.529999,-1.61,1.6269959,0,0.0,0.0,3,0,10
14048000,15588000,473977351,85459851,488859,0,0.25,0.0,1.0,1.0,0.0,0.0,0,0,23.67,-1.8,23.59,-2.23,1.6472417,0,0.0,0.0,3,0,10
14252000,15796000,473977313,85460504,489401,0,0.25,0.0,1.0,1.0,0.0,0.0,0,0,23.609999,-2.28,23.539999,-2.9199998,1.6674876,0,0.0,0.0,3,0,10
14455999,15996000,473977267,85461128,490065,0,0.25,0.0,1.0,1.0,0.0,0.0,0,0,23.47,-2.74,23.289999,-3.6399999,1.6879079,0,0.0,0.0,3,0,10
14659999,16200000,473977213,85461759,490865,0,0.25,0.0,1.0,1.0,0.0,0.0,0,0,23.269999,-3.1999998,23.039999,-4.23,1.7086773,0,0.0,0.0,3,0,10
14864000,16408000,473977148,85462393,491827,0,0.25,0.0,1.0,1.0,0.0,0.0,0,0,23.01,-3.6299999,22.71,-4.9,1.7294466,0,0.0,0.0,3,0,10
15068000,16611999,473977077,85463005,492903,0,0.25,0.0,1.0,1.0,0.0,0.0,0,0,22.71,-4.02,22.31,-5.58,1.7489945,0,0.0,0.0,3,0,10
15272000,16812000,473977001,85463596,494077,0,0.25,0.0,1.0,1.0,0.0,0.0,0,0,22.43,-4.39,21.99,-6.14,1.768193,0,0.0,0.0,3,0,10
15476000,17016000,473976918,85464190,495375,0,0.25,0.0,1.0,1.0,0.0,0.0,0,0,22.22,-4.5899997,21.74,-6.54,1.778665,0,0.0,0.0,3,0,10
15680000,17224000,473976832,85464791,496749,0,0.25,0.0,1.0,1.0,0.0,0.0,0,0,22.09,-4.62,21.6,-6.71,1.7814575,0,0.0,0.0,3,0,10
15884000,17428000,473976747,85465377,498137,0,0.25,0.0,1.0,1.0,0.0,0.0,0,0,22.0,-4.5099998,21.529999,-6.85,1.7772686,0,0.0,0.0,3,0,10
16088000,17628000,473976667,85465943,499505,0,0.25,0.0,1.0,1.0,0.0,0.0,0,0,21.33,-4.33,20.89,-6.8999996,1.7753489,0,0.0,0.0,3,0,10
16292000,17832000,473976590,85466503,500919,0,0.25,0.0,1.0,1.0,0.0,0.0,0,0,20.84,-4.06,20.439999,-6.7999997,1.7669712,0,0.0,0.0,3,0,10
16496000,18040000,473976516,85467069,502273,0,0.25,0.0,1.0,1.0,0.0,0.0,0,0,20.81,-3.77,20.46,-6.18,1.7531831,0,0.0,0.0,3,0,10
16700000,18244000,473976449,85467627,503484,0,0.25,0.0,1.0,1.0,0.0,0.0,0,0,20.89,-3.47,20.57,-5.72,1.7379987,0,0.0,0.0,3,0,10
16904000,18444000,473976389,85468178,504605,0,0.25,0.0,1.0,1.0,0.0,0.0,0,0,20.93,-3.1299999,20.699999,-5.48,1.7210692,0,0.0,0.0,3,0,10
17108000,18648000,473976334,85468741,505710,0,0.25,0.0,1.0,1.0,0.0,0.0,0,0,20.949999,-2.84,20.76,-5.29,1.706932,0,0.0,0.0,3,0,10
17312000,18856000,473976284,85469317,506809,0,0.25,0.0,1.0,1.0,0.0,0.0,0,0,20.939999,-2.44,20.81,-5.16,1.6879079,0,0.0,0.0,3,0,10
17516000,19060000,473976242,85469883,507856,0,0.25,0.0,1.0,1.0,0.0,0.0,0,0,20.91,-2.1299999,20.84,-5.08,1.6727235,0,0.0,0.0,3,0,10
17720000,19260000,473976206,85470437,508879,0,0.25,0.0,1.0,1.0,0.0,0.0,0,0,20.869999,-1.81,20.789999,-5.06,1.6578882,0,0.0,0.0,3,0,10
17924000,19464000,473976176,85471002,509904,0,0.25,0.0,1.0,1.0,0.0,0.0,0,0,20.83,-1.5,20.77,-5.0299997,1.6432275,0,0.0,0.0,3,0,10
18128000,19672000,473976149,85471577,510960,0,0.25,0.0,1.0,1.0,0.0,0.0,0,0,20.77,-1.26,20.73,-5.04,1.6315337,0,0.0,0.0,3,0,10
18332000,19876000,473976129,85472141,511990,0,0.25,0.0,1.0,1.0,0.0,0.0,0,0,20.72,-1.0,20.699999,-5.06,1.6193165,0,0.0,0.0,3,0,10
18536000,20076000,473976112,85472691,512996,0,0.25,0.0,1.0,1.0,0.0,0.0,0,0,20.68,-0.81,20.67,-5.0299997,1.6100662,0,0.0,0.0,3,0,10
18740000,20280000,473976099,85473253,514004,0,0.25,0.0,1.0,1.0,0.0,0.0,0,0,20.63,-0.62,20.619999,-4.97,1.600816,0,0.0,0.0,3,0,10
18944000,20488000,473976089,85473824,515048,0,0.25,0.0,1.0,1.0,0.0,0.0,0,0,20.59,-0.45999998,20.6,-4.98,1.5931365,0,0.0,0.0,3,0,10
19148000,20692000,473976081,85474383,516066,0,0.25,0.0,1.0,1.0,0.0,0.0,0,0,20.55,-0.31,20.529999,-4.98,1.5858061,0,0.0,0.0,3,0,10
19352000,20892000,473976076,85474931,517061,0,0.25,0.0,1.0,1.0,0.0,0.0,0,0,20.51,-0.19,20.5,-4.97,1.5803956,0,0.0,0.0,3,0,10
19556000,21096000,473976073,85475487,518079,0,0.25,0.0,1.0,1.0,0.0,0.0,0,0,20.46,-0.089999996,20.47,-5.0,1.5753341,0,0.0,0.0,3,0,10
19760000,21304000,473976072,85476054,519113,0,0.25,0.0,1.0,1.0,0.0,0.0,0,0,20.41,-0.02,20.42,-4.95,1.5718435,0,0.0,0.0,3,0,10
19964000,21508000,473976072,85476608,520113,0,0.25,0.0,1.0,1.0,0.0,0.0,0,0,20.359999,0.04,20.359999,-4.98,1.5683528,0,0.0,0.0,3,0,10
20168000,21708000,473976073,85477150,521102,0,0.25,0.0,1.0,1.0,0.0,0.0,0,0,20.31,0.089999996,20.32,-4.96,1.5662584,0,0.0,0.0,3,0,10
20372000,21912000,473976076,85477701,522105,0,0.25,0.0,1.0,1.0,0.0,0.0,0,0,20.26,0.13,20.26,-4.93,1.563815,0,0.0,0.0,3,0,10
20576000,22120000,473976079,85478262,523133,0,0.25,0.0,1.0,1.0,0.0,0.0,0,0,20.21,0.17999999,20.199999,-4.91,1.5617205,0,0.0,0.0,3,0,10
20780000,22324000,473976083,85478811,524132,0,0.25,0.0,1.0,1.0,0.0,0.0,0,0,20.17,0.22,20.18,-4.94,1.5596262,0,0.0,0.0,3,0,10
20984000,22524000,473976087,85479348,525125,0,0.25,0.0,1.0,1.0,0.0,0.0,0,0,20.13,0.25,20.13,-4.85,1.5578808,0,0.0,0.0,3,0,10
21188000,22728000,473976091,85479895,526123,0,0.25,0.0,1.0,1.0,0.0,0.0,0,0,20.09,0.29,20.08,-4.85,1.5557865,0,0.0,0.0,3,0,10
21392000,22936000,473976096,85480451,527129,0,0.25,0.0,1.0,1.0,0.0,0.0,0,0,20.039999,0.26999998,20.039999,-4.88,1.5570081,0,0.0,0.0,3,0,10
21596000,23140000,473976101,85480994,528121,0,0.25,0.0,1.0,1.0,0.0,0.0,0,0,20.0,0.29,20.01,-4.83,1.5557865,0,0.0,0.0,3,0,10
21800000,23340000,473976107,85481527,529093,0,0.25,0.0,1.0,1.0,0.0,0.0,0,0,19.96,0.29,19.939999,-4.87,1.5557865,0,0.0,0.0,3,0,10
22004000,23544000,473976112,85482068,530080,0,0.25,0.0,1.0,1.0,0.0,0.0,0,0,19.91,0.34,19.91,-4.8199997,1.553343,0,0.0,0.0,3,0,10
22208000,23752000,473976119,85482621,531083,0,0.25,0.0,1.0,1.0,0.0,0.0,0,0,19.869999,0.31,19.869999,-4.8199997,1.5547392,0,0.0,0.0,3,0,10
22412000,23956000,473976124,85483160,532059,0,0.25,0.0,1.0,1.0,0.0,0.0,0,0,19.83,0.31,19.82,-4.8199997,1.5547392,0,0.0,0.0,3,0,10
22616000,24156000,473976131,85483688,533011,0,0.25,0.0,1.0,1.0,0.0,0.0,0,0,19.789999,0.32,19.76,-4.8199997,1.5540411,0,0.0,0.0,3,0,10
22820000,24360000,473976137,85484225,533980,0,0.25,0.0,1.0,1.0,0.0,0.0,0,0,19.75,0.35,19.76,-4.7599998,1.5528195,0,0.0,0.0,3,0,10
23024000,24568000,473976144,85484772,534971,0,0.25,0.0,1.0,1.0,0.0,0.0,0,0,19.71,0.32999998,19.67,-4.72,1.5535175,0,0.0,0.0,3,0,10
23228000,24772000,473976150,85485307,535933,0,0.25,0.0,1.0,1.0,0.0,0.0,0,0,19.68,0.37,19.67,-4.69,1.5514232,0,0.0,0.0,3,0,10
23432000,24972000,473976157,85485832,536894,0,0.25,0.0,1.0,1.0,0.0,0.0,0,0,19.64,0.38,19.63,-4.71,1.5508996,0,0.0,0.0,3,0,10
23640000,25176000,473976164,85486365,537853,0,0.25,0.0,1.0,1.0,0.0,0.0,0,0,19.6,0.39,19.55,-4.7,1.5503758,0,0.0,0.0,3,0,10
23840000,25384000,473976171,85486907,538838,0,0.25,0.0,1.0,1.0,0.0,0.0,0,0,19.56,0.38,19.539999,-4.71,1.550725,0,0.0,0.0,3,0,10
24044000,25588000,473976178,85487437,539798,0,0.25,0.0,1.0,1.0,0.0,0.0,0,0,19.46,0.39,19.47,-4.71,1.5503758,0,0.0,0.0,3,0,10
24248000,25788000,473976185,85487952,540714,0,0.25,0.0,1.0,1.0,0.0,0.0,0,0,19.1,0.38,19.1,-4.41,1.5505505,0,0.0,0.0,3,0,10
24452000,25992000,473976193,85488466,541571,0,0.25,0.0,1.0,1.0,0.0,0.0,0,0,18.73,0.42,18.74,-3.9199998,1.5482816,0,0.0,0.0,3,0,10
24656000,26200000,473976201,85488980,542328,0,0.25,0.0,1.0,1.0,0.0,0.0,0,0,18.41,0.48,18.4,-3.25,1.5444418,0,0.0,0.0,3,0,10
24860000,26404000,473976211,85489477,542909,0,0.25,0.0,1.0,1.0,0.0,0.0,0,0,18.109999,0.52,18.13,-2.54,1.5418237,0,0.0,0.0,3,0,10
25064000,26604000,473976221,85489956,543346,0,0.25,0.0,1.0,1.0,0.0,0.0,0,0,17.83,0.59,17.81,-1.89,1.5374604,0,0.0,0.0,3,0,10
25268000,26808000,473976232,85490436,543681,0,0.25,0.0,1.0,1.0,0.0,0.0,0,0,17.58,0.65999997,17.58,-1.37,1.5327481,0,0.0,0.0,3,0,10
25472000,27016000,473976245,85490920,543900,0,0.25,0.0,1.0,1.0,0.0,0.0,0,0,17.369999,0.71,17.359999,-0.87,1.5294319,0,0.0,0.0,3,0,10
25676000,27220000,473976259,85491388,544029,0,0.25,0.0,1.0,1.0,0.0,0.0,0,0,17.19,0.83,17.15,-0.42999998,1.5222762,0,0.0,0.0,3,0,10
25880000,27420000,473976275,85491844,544082,0,0.25,0.0,1.0,1.0,0.0,0.0,0,0,17.039999,0.85999995,17.01,-0.07,1.5196582,0,0.0,0.0,3,0,10
26084000,27624000,473976292,85492305,544085,0,0.25,0.0,1.0,1.0,0.0,0.0,0,0,16.91,0.97999996,16.869999,0.16,1.5123278,0,0.0,0.0,3,0,10
26288000,27832000,473976311,85492771,544025,0,0.25,0.0,1.0,1.0,0.0,0.0,0,0,16.8,1.05,16.75,0.39999998,1.5079645,0,0.0,0.0,3,0,10
26492000,28036000,473976330,85493225,543926,0,0.25,0.0,1.0,1.0,0.0,0.0,0,0,16.71,1.11,16.67,0.58,1.5041248,0,0.0,0.0,3,0,10
26696000,28236000,473976351,85493669,543784,0,0.25,0.0,1.0,1.0,0.0,0.0,0,0,16.65,1.15,16.609999,0.75,1.5015067,0,0.0,0.0,3,0,10
26900000,28440000,473976373,85494120,543626,0,0.25,0.0,1.0,1.0,0.0,0.0,0,0,16.59,1.23,16.57,0.84,1.4962707,0,0.0,0.0,3,0,10
27104000,28648000,473976396,85494578,543446,0,0.25,0.0,1.0,1.0,0.0,0.0,0,0,16.539999,1.25,16.49,0.9,1.4948745,0,0.0,0.0,3,0,10
27308000,28852000,473976419,85495026,543250,0,0.25,0.0,1.0,1.0,0.0,0.0,0,0,16.51,1.27,16.46,1.02,1.4936528,0,0.0,0.0,3,0,10
27512000,29052000,473976442,85495464,543064,0,0.25,0.0,1.0,1.0,0.0,0.0,0,0,16.48,1.28,16.43,0.97999996,1.4929546,0,0.0,0.0,3,0,10
27716000,29256000,473976466,85495911,542854,0,0.25,0.0,1.0,1.0,0.0,0.0,0,0,16.46,1.27,16.41,1.01,1.4933037,0,0.0,0.0,3,0,10
27920000,29464000,473976491,85496365,542635,0,0.25,0.0,1.0,1.0,0.0,0.0,0,0,16.449999,1.29,16.41,1.06,1.4919074,0,0.0,0.0,3,0,10
28124000,29668000,473976514,85496810,542426,0,0.25,0.0,1.0,1.0,0.0,0.0,0,0,16.44,1.26,16.359999,1.05,1.4936528,0,0.0,0.0,3,0,10
28328000,29868000,473976536,85497247,542220,0,0.25,0.0,1.0,1.0,0.0,0.0,0,0,16.43,1.25,16.41,1.0,1.4943508,0,0.0,0.0,3,0,10
28532000,30072000,473976560,85497693,542019,0,0.25,0.0,1.0,1.0,0.0,0.0,0,0,16.43,1.22,16.38,0.98999995,1.4960963,0,0.0,0.0,3,0,10
28736000,30280000,473976582,85498147,541796,0,0.25,0.0,1.0,1.0,0.0,0.0,0,0,16.43,1.1899999,16.38,0.95,1.497667,0,0.0,0.0,3,0,10
28940000,30484000,473976604,85498593,541603,0,0.25,0.0,1.0,1.0,0.0,0.0,0,0,16.44,1.14,16.4,0.97999996,1.5011576,0,0.0,0.0,3,0,10
29144000,30684000,473976624,85499030,541420,0,0.25,0.0,1.0,1.0,0.0,0.0,0,0,16.44,1.0799999,16.39,1.01,1.5044738,0,0.0,0.0,3,0,10
29348000,30888000,473976643,85499476,541227,0,0.25,0.0,1.0,1.0,0.0,0.0,0,0,16.449999,1.04,16.42,0.90999997,1.5074408,0,0.0,0.0,3,0,10
29552000,31096000,473976662,85499932,541036,0,0.25,0.0,1.0,1.0,0.0,0.0,0,0,16.449999,0.97999996,16.4,0.85999995,1.5109315,0,0.0,0.0,3,0,10
29756000,31300000,473976680,85500378,540857,0,0.25,0.0,1.0,1.0,0.0,0.0,0,0,16.46,0.91999996,16.449999,0.85999995,1.5144222,0,0.0,0.0,3,0,10
29960000,31504000,473976697,85500825,540688,0,0.25,0.0,1.0,1.0,0.0,0.0,0,0,16.47,0.89,16.44,0.81,1.5161674,0,0.0,0.0,3,0,10
30164000,31704000,473976712,85501266,540533,0,0.25,0.0,1.0,1.0,0.0,0.0,0,0,16.82,0.83,16.789999,0.78,1.5207053,0,0.0,0.0,3,0,10
30368000,31908000,473976727,85501735,540397,0,0.25,0.0,1.0,1.0,0.0,0.0,0,0,17.72,0.75,17.73,0.42,1.5280356,0,0.0,0.0,3,0,10
30572000,32116000,473976740,85502239,540405,0,0.25,0.0,1.0,1.0,0.0,0.0,0,0,18.57,0.65,18.539999,-0.44,1.5353662,0,0.0,0.0,3,0,10
30776000,32316000,473976749,85502741,540591,0,0.25,0.0,1.0,1.0,0.0,0.0,0,0,19.06,0.45,19.05,-1.41,1.5470598,0,0.0,0.0,3,0,10
30980000,32520000,473976757,85503263,540972,0,0.25,0.0,1.0,1.0,0.0,0.0,0,0,19.31,0.24,19.3,-2.31,1.5582299,0,0.0,0.0,3,0,10
31184000,32728000,473976759,85503800,541532,0,0.25,0.0,1.0,1.0,0.0,0.0,0,0,19.4,0.049999997,19.4,-2.99,1.5676547,0,0.0,0.0,3,0,10
31387999,32927999,473976759,85504318,542195,0,0.25,0.0,1.0,1.0,0.0,0.0,0,0,19.42,-0.11,19.439999,-3.51,1.5763813,0,0.0,0.0,3,0,10
31591999,33136000,473976755,85504855,542973,0,0.25,0.0,1.0,1.0,0.0,0.0,0,0,19.42,-0.26999998,19.41,-3.9199998,1.5847589,0,0.0,0.0,3,0,10
31796000,33340000,473976749,85505383,543813,0,0.25,0.0,1.0,1.0,0.0,0.0,0,0,19.41,-0.39999998,19.43,-4.24,1.5917403,0,0.0,0.0,3,0,10
32000000,33540000,473976741,85505900,544680,0,0.25,0.0,1.0,1.0,0.0,0.0,0,0,19.41,-0.48999998,19.39,-4.5099998,1.5962781,0,0.0,0.0,3,0,10
32204000,33748000,473976731,85506438,545633,0,0.25,0.0,1.0,1.0,0.0,0.0,0,0,19.41,-0.56,19.42,-4.71,1.5995942,0,0.0,0.0,3,0,10
32408000,33948000,473976720,85506955,546603,0,0.25,0.0,1.0,1.0,0.0,0.0,0,0,19.4,-0.59999996,19.4,-4.81,1.6018631,0,0.0,0.0,3,0,10
32612000,34152000,473976708,85507483,547595,0,0.25,0.0,1.0,1.0,0.0,0.0,0,0,19.4,-0.65,19.369999,-4.91,1.6043066,0,0.0,0.0,3,0,10
32816000,34360000,473976697,85508019,548617,0,0.25,0.0,1.0,1.0,0.0,0.0,0,0,19.39,-0.65999997,19.4,-5.04,1.6051793,0,0.0,0.0,3,0,10
33020000,34560000,473976684,85508535,549610,0,0.25,0.0,1.0,1.0,0.0,0.0,0,0,19.369999,-0.65999997,19.35,-5.06,1.6051793,0,0.0,0.0,3,0,10
33224000,34768000,473976672,85509072,550675,0,0.25,0.0,1.0,1.0,0.0,0.0,0,0,19.34,-0.65999997,19.33,-5.14,1.6050048,0,0.0,0.0,3,0,10
33428000,34972000,473976660,85509597,551735,0,0.25,0.0,1.0,1.0,0.0,0.0,0,0,19.31,-0.62,19.32,-5.18,1.6032594,0,0.0,0.0,3,0,10
33632000,35172000,473976648,85510111,552768,0,0.25,0.0,1.0,1.0,0.0,0.0,0,0,19.279999,-0.62,19.279999,-5.24,1.6029103,0,0.0,0.0,3,0,10
33836000,35380000,473976637,85510645,553849,0,0.25,0.0,1.0,1.0,0.0,0.0,0,0,19.24,-0.57,19.25,-5.18,1.6006414,0,0.0,0.0,3,0,10
34040000,35580000,473976627,85511156,554901,0,0.25,0.0,1.0,1.0,0.0,0.0,0,0,19.199999,-0.55,19.199999,-5.23,1.5995942,0,0.0,0.0,3,0,10
34244000,35784000,473976617,85511678,555978,0,0.25,0.0,1.0,1.0,0.0,0.0,0,0,19.17,-0.5,19.14,-5.24,1.5971507,0,0.0,0.0,3,0,10
34448000,35992000,473976608,85512208,557073,0,0.25,0.0,1.0,1.0,0.0,0.0,0,0,19.119999,-0.45999998,19.09,-5.2599998,1.5950564,0,0.0,0.0,3,0,10
34652000,36192000,473976600,85512717,558114,0,0.25,0.0,1.0,1.0,0.0,0.0,0,0,19.09,-0.42,19.08,-5.31,1.5931365,0,0.0,0.0,3,0,10
34856000,36400000,473976593,85513246,559204,0,0.25,0.0,1.0,1.0,0.0,0.0,0,0,19.05,-0.38,19.08,-5.24,1.591042,0,0.0,0.0,3,0,10
35060000,36604000,473976585,85513763,560280,0,0.25,0.0,1.0,1.0,0.0,0.0,0,0,19.02,-0.34,19.02,-5.25,1.5885986,0,0.0,0.0,3,0,10
35264000,36804000,473976580,85514270,561331,0,0.25,0.0,1.0,1.0,0.0,0.0,0,0,18.98,-0.26999998,18.98,-5.21,1.585457,0,0.0,0.0,3,0,10
35468000,37012000,473976576,85514796,562423,0,0.25,0.0,1.0,1.0,0.0,0.0,0,0,18.949999,-0.22999999,18.939999,-5.19,1.5833627,0,0.0,0.0,3,0,10
35672000,37212000,473976572,85515300,563474,0,0.25,0.0,1.0,1.0,0.0,0.0,0,0,18.91,-0.19,18.93,-5.2799997,1.5810937,0,0.0,0.0,3,0,10
35876000,37416000,473976568,85515814,564549,0,0.25,0.0,1.0,1.0,0.0,0.0,0,0,18.869999,-0.14999999,18.859999,-5.2799997,1.5791738,0,0.0,0.0,3,0,10
36080000,37624000,473976566,85516336,565641,0,0.25,0.0,1.0,1.0,0.0,0.0,0,0,18.84,-0.12,18.869999,-5.2999997,1.5776031,0,0.0,0.0,3,0,10
36284000,37824000,473976564,85516838,566696,0,0.25,0.0,1.0,1.0,0.0,0.0,0,0,18.8,-0.07,18.789999,-5.29,1.5746361,0,0.0,0.0,3,0,10
36488000,38032000,473976563,85517359,567785,0,0.25,0.0,1.0,1.0,0.0,0.0,0,0,18.76,-0.03,18.75,-5.2,1.5727162,0,0.0,0.0,3,0,10
36692000,38236000,473976562,85517868,568845,0,0.25,0.0,1.0,1.0,0.0,0.0,0,0,18.72,0.0,18.71,-5.2599998,1.5709708,0,0.0,0.0,3,0,10
36896000,38436000,473976562,85518367,569898,0,0.25,0.0,1.0,1.0,0.0,0.0,0,0,18.68,0.01,18.68,-5.19,1.5699236,0,0.0,0.0,3,0,10
37100000,38644000,473976563,85518884,570991,0,0.25,0.0,1.0,1.0,0.0,0.0,0,0,18.65,0.06,18.63,-5.13,1.5671312,0,0.0,0.0,3,0,10
37304000,38844000,473976564,85519381,572027,0,0.25,0.0,1.0,1.0,0.0,0.0,0,0,18.619999,0.07,18.619999,-5.21,1.566782,0,0.0,0.0,3,0,10
37508000,39048000,473976566,85519887,573088,0,0.25,0.0,1.0,1.0,0.0,0.0,0,0,18.58,0.099999994,18.59,-5.24,1.5652113,0,0.0,0.0,3,0,10
37712000,39256000,473976568,85520401,574168,0,0.25,0.0,1.0,1.0,0.0,0.0,0,0,18.55,0.13,18.57,-5.16,1.5632914,0,0.0,0.0,3,0,10
37916000,39456000,473976570,85520895,575212,0,0.25,0.0,1.0,1.0,0.0,0.0,0,0,18.51,0.14,18.5,-5.21,1.5629423,0,0.0,0.0,3,0,10
38120000,39664000,473976573,85521408,576291,0,0.25,0.0,1.0,1.0,0.0,0.0,0,0,18.48,0.19,18.46,-5.19,1.5601498,0,0.0,0.0,3,0,10
38324000,39868000,473976576,85521909,577354,0,0.25,0.0,1.0,1.0,0.0,0.0,0,0,18.44,0.17999999,18.449999,-5.18,1.5606734,0,0.0,0.0,3,0,10
38528000,40068000,473976580,85522400,578385,0,0.25,0.0,1.0,1.0,0.0,0.0,0,0,18.41,0.19999999,18.42,-5.13,1.5594517,0,0.0,0.0,3,0,10
38732000,40276000,473976584,85522910,579465,0,0.25,0.0,1.0,1.0,0.0,0.0,0,0,18.369999,0.22999999,18.38,-5.23,1.5578808,0,0.0,0.0,3,0,10
38936000,40476000,473976587,85523399,580495,0,0.25,0.0,1.0,1.0,0.0,0.0,0,0,18.34,0.22999999,18.359999,-5.17,1.5578808,0,0.0,0.0,3,0,10
39140000,40680000,473976591,85523898,581550,0,0.25,0.0,1.0,1.0,0.0,0.0,0,0,18.31,0.24,18.32,-5.17,1.5573572,0,0.0,0.0,3,0,10
39344000,40888000,473976596,85524405,582625,0,0.25,0.0,1.0,1.0,0.0,0.0,0,0,18.279999,0.22999999,18.279999,-5.16,1.5577064,0,0.0,0.0,3,0,10
39548000,41088000,473976600,85524891,583662,0,0.25,0.0,1.0,1.0,0.0,0.0,0,0,18.24,0.26,18.26,-5.18,1.5561355,0,0.0,0.0,3,0,10
39752000,41296000,473976605,85525396,584735,0,0.25,0.0,1.0,1.0,0.0,0.0,0,0,18.21,0.24,18.21,-5.17,1.5571828,0,0.0,0.0,3,0,10
39956000,41500000,473976610,85525891,585803,0,0.25,0.0,1.0,1.0,0.0,0.0,0,0,18.18,0.25,18.199999,-5.14,1.5570081,0,0.0,0.0,3,0,10
40160000,41700000,473976615,85526374,586827,0,0.25,0.0,1.0,1.0,0.0,0.0,0,0,18.01,0.26999998,18.02,-5.0899997,1.5554373,0,0.0,0.0,3,0,10
40364000,41908000,473976620,85526867,587853,0,0.25,0.0,1.0,1.0,0.0,0.0,0,0,17.58,0.26,17.58,-4.77,1.5554373,0,0.0,0.0,3,0,10
40568000,42108000,473976625,85527331,588740,0,0.25,0.0,1.0,1.0,0.0,0.0,0,0,17.19,0.32999998,17.18,-4.1,1.551074,0,0.0,0.0,3,0,10
40772000,42312000,473976631,85527794,589495,0,0.25,0.0,1.0,1.0,0.0,0.0,0,0,16.9,0.34,16.89,-3.35,1.5503758,0,0.0,0.0,3,0,10
40976000,42520000,473976638,85528258,590125,0,0.25,0.0,1.0,1.0,0.0,0.0,0,0,16.65,0.39999998,16.63,-2.61,1.5463617,0,0.0,0.0,3,0,10
41180000,42720000,473976646,85528698,590586,0,0.25,0.0,1.0,1.0,0.0,0.0,0,0,16.41,0.45,16.41,-2.02,1.5430455,0,0.0,0.0,3,0,10
41384000,42928000,473976655,85529151,590940,0,0.25,0.0,1.0,1.0,0.0,0.0,0,0,16.21,0.52,16.199999,-1.5,1.5383332,0,0.0,0.0,3,0,10
41588000,43132000,473976665,85529589,591172,0,0.25,0.0,1.0,1.0,0.0,0.0,0,0,16.039999,0.58,16.029999,-0.96,1.5344934,0,0.0,0.0,3,0,10
41792000,43332000,473976676,85530014,591328,0,0.25,0.0,1.0,1.0,0.0,0.0,0,0,15.9,0.65,15.9,-0.64,1.5294319,0,0.0,0.0,3,0,10
41996000,43540000,473976688,85530453,591422,0,0.25,0.0,1.0,1.0,0.0,0.0,0,0,15.78,0.69,15.759999,-0.29999998,1.5266395,0,0.0,0.0,3,0,10
42200000,43740000,473976702,85530872,591452,0,0.25,0.0,1.0,1.0,0.0,0.0,0,0,15.69,0.78,15.69,-0.03,1.5205307,0,0.0,0.0,3,0,10
42404000,43944000,473976717,85531296,591443,0,0.25,0.0,1.0,1.0,0.0,0.0,0,0,15.62,0.82,15.589999,0.16,1.5177383,0,0.0,0.0,3,0,10
42608000,44152000,473976733,85531727,591394,0,0.25,0.0,1.0,1.0,0.0,0.0,0,0,15.559999,0.85999995,15.53,0.26999998,1.5151203,0,0.0,0.0,3,0,10
42812000,44352000,473976749,85532141,591321,0,0.25,0.0,1.0,1.0,0.0,0.0,0,0,15.509999,0.91999996,15.48,0.44,1.511455,0,0.0,0.0,3,0,10
43016000,44560000,473976767,85532570,591222,0,0.25,0.0,1.0,1.0,0.0,0.0,0,0,15.48,0.96,15.429999,0.5,1.5081389,0,0.0,0.0,3,0,10
43220000,44764000,473976785,85532989,591103,0,0.25,0.0,1.0,1.0,0.0,0.0,0,0,15.45,1.0,15.41,0.59,1.5058701,0,0.0,0.0,3,0,10
43424000,44964000,473976803,85533400,590984,0,0.25,0.0,1.0,1.0,0.0,0.0,0,0,15.429999,1.01,15.42,0.55,1.5051719,0,0.0,0.0,3,0,10
43628000,45172000,473976822,85533827,590863,0,0.25,0.0,1.0,1.0,0.0,0.0,0,0,15.42,1.02,15.41,0.63,1.5042992,0,0.0,0.0,3,0,10
43832000,45372000,473976841,85534237,590728,0,0.25,0.0,1.0,1.0,0.0,0.0,0,0,15.42,1.03,15.389999,0.7,1.5037756,0,0.0,0.0,3,0,10
44036000,45576000,473976859,85534655,590595,0,0.25,0.0,1.0,1.0,0.0,0.0,0,0,15.42,1.03,15.38,0.65999997,1.5036012,0,0.0,0.0,3,0,10
44240000,45784000,473976878,85535082,590458,0,0.25,0.0,1.0,1.0,0.0,0.0,0,0,15.429999,0.98999995,15.38,0.69,1.5060446,0,0.0,0.0,3,0,10
44444000,45984000,473976896,85535492,590329,0,0.25,0.0,1.0,1.0,0.0,0.0,0,0,15.44,1.04,15.4,0.69,1.503252,0,0.0,0.0,3,0,10
44648000,46192000,473976915,85535920,590194,0,0.25,0.0,1.0,1.0,0.0,0.0,0,0,15.45,1.0,15.44,0.62,1.5058701,0,0.0,0.0,3,0,10
44852000,46396000,473976933,85536339,590071,0,0.25,0.0,1.0,1.0,0.0,0.0,0,0,15.469999,0.96,15.44,0.59999996,1.5081389,0,0.0,0.0,3,0,10
45056000,46596000,473976950,85536751,589951,0,0.25,0.0,1.0,1.0,0.0,0.0,0,0,15.48,0.93,15.45,0.59999996,1.5104079,0,0.0,0.0,3,0,10
45260000,46804000,473976967,85537179,589833,0,0.25,0.0,1.0,1.0,0.0,0.0,0,0,15.5,0.9,15.46,0.59999996,1.5121533,0,0.0,0.0,3,0,10
45464000,47004000,473976983,85537592,589722,0,0.25,0.0,1.0,1.0,0.0,0.0,0,0,15.509999,0.85999995,15.5,0.53999996,1.5145967,0,0.0,0.0,3,0,10
45668000,47208000,473976998,85538013,589623,0,0.25,0.0,1.0,1.0,0.0,0.0,0,0,15.53,0.82,15.49,0.5,1.5177383,0,0.0,0.0,3,0,10
45872000,47416000,473977014,85538443,589523,0,0.25,0.0,1.0,1.0,0.0,0.0,0,0,15.549999,0.77,15.54,0.55,1.5212289,0,0.0,0.0,3,0,10
46076000,47616000,473977027,85538858,589432,0,0.25,0.0,1.0,1.0,0.0,0.0,0,0,15.559999,0.75,15.559999,0.44,1.5222762,0,0.0,0.0,3,0,10
46280000,47824000,473977041,85539289,589340,0,0.25,0.0,1.0,1.0,0.0,0.0,0,0,15.58,0.69,15.549999,0.37,1.5261158,0,0.0,0.0,3,0,10
46484000,48028000,473977053,85539712,589253,0,0.25,0.0,1.0,1.0,0.0,0.0,0,0,15.589999,0.66999996,15.559999,0.31,1.5273376,0,0.0,0.0,3,0,10
46688000,48228000,473977065,85540128,589170,0,0.25,0.0,1.0,1.0,0.0,0.0,0,0,15.599999,0.61,15.57,0.35,1.5315264,0,0.0,0.0,3,0,10
46892000,48436000,473977077,85540560,589098,0,0.25,0.0,1.0,1.0,0.0,0.0,0,0,15.61,0.56,15.58,0.35,1.5344934,0,0.0,0.0,3,0,10
47096000,48636000,473977087,85540976,589034,0,0.25,0.0,1.0,1.0,0.0,0.0,0,0,15.62,0.56,15.61,0.29,1.5343188,0,0.0,0.0,3,0,10
47300000,48840000,473977097,85541400,588979,0,0.25,0.0,1.0,1.0,0.0,0.0,0,0,15.63,0.52,15.61,0.25,1.5369369,0,0.0,0.0,3,0,10
47504000,49048000,473977106,85541834,588927,0,0.25,0.0,1.0,1.0,0.0,0.0,0,0,15.639999,0.48,15.63,0.24,1.539555,0,0.0,0.0,3,0,10
47708000,49248000,473977114,85542250,588875,0,0.25,0.0,1.0,1.0,0.0,0.0,0,0,15.65,0.44,15.63,0.26999998,1.5423473,0,0.0,0.0,3,0,10
47912000,49456000,473977122,85542685,588823,0,0.25,0.0,1.0,1.0,0.0,0.0,0,0,15.66,0.38,15.65,0.26999998,1.5463617,0,0.0,0.0,3,0,10
48116000,49660000,473977129,85543110,588790,0,0.25,0.0,1.0,1.0,0.0,0.0,0,0,15.67,0.35999998,15.65,0.22,1.547758,0,0.0,0.0,3,0,10
48320000,49860000,473977135,85543527,588742,0,0.25,0.0,1.0,1.0,0.0,0.0,0,0,15.679999,0.31,15.65,0.16,1.5508996,0,0.0,0.0,3,0,10
48524000,50068000,473977141,85543962,588712,0,0.25,0.0,1.0,1.0,0.0,0.0,0,0,15.69,0.29,15.679999,0.13,1.5521213,0,0.0,0.0,3,0,10
48728000,50268000,473977145,85544380,588678,0,0.25,0.0,1.0,1.0,0.0,0.0,0,0,15.69,0.22999999,15.7,0.16,1.5556118,0,0.0,0.0,3,0,10
48932000,50472000,473977149,85544807,588644,0,0.25,0.0,1.0,1.0,0.0,0.0,0,0,15.69,0.19999999,15.719999,0.14,1.5573572,0,0.0,0.0,3,0,10
49136000,50680000,473977154,85545242,588613,0,0.25,0.0,1.0,1.0,0.0,0.0,0,0,15.7,0.19999999,15.71,0.089999996,1.5578808,0,0.0,0.0,3,0,10
49340000,50880000,473977157,85545661,588594,0,0.25,0.0,1.0,1.0,0.0,0.0,0,0,15.7,0.16,15.679999,0.13,1.5603243,0,0.0,0.0,3,0,10
49544000,51088000,473977160,85546096,588572,0,0.25,0.0,1.0,1.0,0.0,0.0,0,0,15.7,0.12,15.679999,0.12,1.5624187,0,0.0,0.0,3,0,10
49748000,51292000,473977163,85546522,588556,0,0.25,0.0,1.0,1.0,0.0,0.0,0,0,15.69,0.14999999,15.679999,0.06,1.5604988,0,0.0,0.0,3,0,10
49952000,51492000,473977165,85546940,588543,0,0.25,0.0,1.0,1.0,0.0,0.0,0,0,15.69,0.13,15.69,0.06,1.562244,0,0.0,0.0,3,0,10
50156000,51700000,473977168,85547376,588535,0,0.25,0.0,1.0,1.0,0.0,0.0,0,0,15.69,0.099999994,15.679999,0.08,1.563815,0,0.0,0.0,3,0,10
50360000,51900000,473977169,85547794,588517,0,0.25,0.0,1.0,1.0,0.0,0.0,0,0,15.69,0.089999996,15.7,0.03,1.5645131,0,0.0,0.0,3,0,10
50564000,52104000,473977171,85548221,588509,0,0.25,0.0,1.0,1.0,0.0,0.0,0,0,15.69,0.11,15.679999,0.03,1.5634658,0,0.0,0.0,3,0,10
50768000,52312000,473977173,85548654,588505,0,0.25,0.0,1.0,1.0,0.0,0.0,0,0,15.69,0.06,15.7,0.04,1.5662584,0,0.0,0.0,3,0,10
50972000,52512000,473977174,85549073,588489,0,0.25,0.0,1.0,1.0,0.0,0.0,0,0,15.69,0.07,15.69,0.01,1.5657349,0,0.0,0.0,3,0,10
51176000,52720000,473977176,85549508,588482,0,0.25,0.0,1.0,1.0,0.0,0.0,0,0,15.69,0.07,15.679999,0.03,1.5660839,0,0.0,0.0,3,0,10
51380000,52924000,473977177,85549934,588491,0,0.25,0.0,1.0,1.0,0.0,0.0,0,0,15.679999,0.049999997,15.7,0.03,1.5673056,0,0.0,0.0,3,0,10
51584000,53124000,473977178,85550352,588482,0,0.25,0.0,1.0,1.0,0.0,0.0,0,0,15.679999,0.04,15.69,0.049999997,1.5680038,0,0.0,0.0,3,0,10
51788000,53332000,473977180,85550787,588474,0,0.25,0.0,1.0,1.0,0.0,0.0,0,0,15.67,0.08,15.67,-0.06,1.5653857,0,0.0,0.0,3,0,10
51992000,53532000,473977181,85551204,588475,0,0.25,0.0,1.0,1.0,0.0,0.0,0,0,15.67,0.07,15.67,0.0,1.5660839,0,0.0,0.0,3,0,10
52196000,53736000,473977182,85551630,588477,0,0.25,0.0,1.0,1.0,0.0,0.0,0,0,15.66,0.07,15.67,0.02,1.5660839,0,0.0,0.0,3,0,10
52400000,53944000,473977183,85552064,588479,0,0.25,0.0,1.0,1.0,0.0,0.0,0,0,15.66,0.04,15.65,-0.02,1.5680038,0,0.0,0.0,3,0,10
52604000,54144000,473977184,85552481,588483,0,0.25,0.0,1.0,1.0,0.0,0.0,0,0,15.66,0.04,15.67,-0.01,1.5678291,0,0.0,0.0,3,0,10
52808000,54352000,473977185,85552917,588480,0,0.25,0.0,1.0,1.0,0.0,0.0,0,0,15.65,0.06,15.639999,0.0,1.566782,0,0.0,0.0,3,0,10
53012000,54556000,473977185,85553342,588476,0,0.25,0.0,1.0,1.0,0.0,0.0,0,0,15.639999,0.04,15.639999,-0.02,1.5676547,0,0.0,0.0,3,0,10
53216000,54756000,473977186,85553759,588484,0,0.25,0.0,1.0,1.0,0.0,0.0,0,0,15.639999,0.02,15.63,-0.049999997,1.5694001,0,0.0,0.0,3,0,10
53420000,54964000,473977187,85554191,588492,0,0.25,0.0,1.0,1.0,0.0,0.0,0,0,15.63,0.02,15.63,0.0,1.5688764,0,0.0,0.0,3,0,10
53624000,55164000,473977188,85554608,588501,0,0.25,0.0,1.0,1.0,0.0,0.0,0,0,15.62,0.03,15.65,-0.03,1.5681783,0,0.0,0.0,3,0,10
53828000,55368000,473977188,85555033,588515,0,0.25,0.0,1.0,1.0,0.0,0.0,0,0,15.62,0.02,15.61,0.0,1.569051,0,0.0,0.0,3,0,10
54032000,55576000,473977189,85555466,588514,0,0.25,0.0,1.0,1.0,0.0,0.0,0,0,15.61,0.03,15.61,0.0,1.5685273,0,0.0,0.0,3,0,10
54236000,55776000,473977190,85555882,588515,0,0.25,0.0,1.0,1.0,0.0,0.0,0,0,15.599999,0.02,15.599999,-0.04,1.5694001,0,0.0,0.0,3,0,10
54440000,55984000,473977190,85556314,588523,0,0.25,0.0,1.0,1.0,0.0,0.0,0,0,15.589999,0.02,15.589999,0.0,1.5694001,0,0.0,0.0,3,0,10
54644000,56188000,473977191,85556737,588522,0,0.25,0.0,1.0,1.0,0.0,0.0,0,0,15.58,0.03,15.599999,-0.02,1.5683528,0,0.0,0.0,3,0,10
54848000,56388000,473977191,85557152,588535,0,0.25,0.0,1.0,1.0,0.0,0.0,0,0,15.57,0.02,15.58,-0.02,1.5688764,0,0.0,0.0,3,0,10
55052000,56596000,473977192,85557584,588536,0,0.25,0.0,1.0,1.0,0.0,0.0,0,0,15.559999,0.03,15.57,-0.03,1.5683528,0,0.0,0.0,3,0,10
55256000,56796000,473977192,85557999,588533,0,0.25,0.0,1.0,1.0,0.0,0.0,0,0,15.559999,0.0,15.549999,-0.03,1.5706217,0,0.0,0.0,3,0,10
55460000,57000000,473977193,85558422,588536,0,0.25,0.0,1.0,1.0,0.0,0.0,0,0,15.549999,0.04,15.549999,-0.02,1.5678291,0,0.0,0.0,3,0,10
55664000,57208000,473977193,85558852,588531,0,0.25,0.0,1.0,1.0,0.0,0.0,0,0,15.54,0.01,15.549999,-0.03,1.569749,0,0.0,0.0,3,0,10
55868000,57408000,473977193,85559267,588542,0,0.25,0.0,1.0,1.0,0.0,0.0,0,0,15.53,0.0,15.53,-0.03,1.5704472,0,0.0,0.0,3,0,10
56072000,57616000,473977194,85559697,588556,0,0.25,0.0,1.0,1.0,0.0,0.0,0,0,15.5199995,0.01,15.53,0.0,1.5694001,0,0.0,0.0,3,0,10
56276000,57816000,473977194,85560111,588551,0,0.25,0.0,1.0,1.0,0.0,0.0,0,0,15.509999,0.0,15.5,-0.01,1.5700982,0,0.0,0.0,3,0,10
56480000,58020000,473977194,85560532,588558,0,0.25,0.0,1.0,1.0,0.0,0.0,0,0,15.5,0.04,15.5,0.0,1.5676547,0,0.0,0.0,3,0,10
56684000,58228000,473977194,85560962,588559,0,0.25,0.0,1.0,1.0,0.0,0.0,0,0,15.49,0.03,15.5,-0.01,1.5687019,0,0.0,0.0,3,0,10
56888000,58428000,473977195,85561375,588563,0,0.25,0.0,1.0,1.0,0.0,0.0,0,0,15.49,0.01,15.509999,0.01,1.5700982,0,0.0,0.0,3,0,10
57092000,58636000,473977196,85561805,588564,0,0.25,0.0,1.0,1.0,0.0,0.0,0,0,15.49,0.01,15.49,0.0,1.5699236,0,0.0,0.0,3,0,10
57296000,58840000,473977196,85562225,588561,0,0.25,0.0,1.0,1.0,0.0,0.0,0,0,15.49,0.0,15.5,-0.04,1.5709708,0,0.0,0.0,3,0,10
57500000,59040000,473977196,85562638,588557,0,0.25,0.0,1.0,1.0,0.0,0.0,0,0,15.48,0.01,15.5,0.0,1.5695746,0,0.0,0.0,3,0,10
57704000,59248000,473977196,85563068,588561,0,0.25,0.0,1.0,1.0,0.0,0.0,0,0,15.48,0.0,15.469999,0.0,1.5704472,0,0.0,0.0,3,0,10
57908000,59448000,473977196,85563480,588560,0,0.25,0.0,1.0,1.0,0.0,0.0,0,0,15.469999,0.01,15.469999,0.01,1.569749,0,0.0,0.0,3,0,10
58112000,59652000,473977196,85563900,588554,0,0.25,0.0,1.0,1.0,0.0,0.0,0,0,15.469999,0.02,15.45,0.01,1.569051,0,0.0,0.0,3,0,10
58316000,59860000,473977196,85564329,588570,0,0.25,0.0,1.0,1.0,0.0,0.0,0,0,15.46,0.0,15.45,0.02,1.5700982,0,0.0,0.0,3,0,10
58520000,60060000,473977197,85564741,588567,0,0.25,0.0,1.0,1.0,0.0,0.0,0,0,15.45,0.01,15.46,0.02,1.5695746,0,0.0,0.0,3,0,10
58724000,60268000,473977197,85565169,588567,0,0.25,0.0,1.0,1.0,0.0,0.0,0,0,15.45,0.02,15.46,0.02,1.569051,0,0.0,0.0,3,0,10
58928000,60472000,473977197,85565590,588567,0,0.25,0.0,1.0,1.0,0.0,0.0,0,0,15.44,0.0,15.45,0.0,1.5704472,0,0.0,0.0,3,0,10
59132000,60672000,473977197,85566002,588563,0,0.25,0.0,1.0,1.0,0.0,0.0,0,0,15.44,0.01,15.44,-0.01,1.569749,0,0.0,0.0,3,0,10
59336000,60880000,473977197,85566429,588565,0,0.25,0.0,1.0,1.0,0.0,0.0,0,0,15.429999,0.0,15.42,0.0,1.5711453,0,0.0,0.0,3,0,10
59540000,61080000,473977197,85566840,588562,0,0.25,0.0,1.0,1.0,0.0,0.0,0,0,15.42,-0.01,15.42,0.0,1.5714945,0,0.0,0.0,3,0,10
59744000,61284000,473977196,85567259,588553,0,0.25,0.0,1.0,1.0,0.0,0.0,0,0,15.41,-0.03,15.429999,-0.01,1.5727162,0,0.0,0.0,3,0,10
59952000,61492000,473977196,85567686,588557,0,0.25,0.0,1.0,1.0,0.0,0.0,0,0,15.41,-0.02,15.429999,-0.02,1.5721924,0,0.0,0.0,3,0,10
60152000,61692000,473977196,85568097,588547,0,0.25,0.0,1.0,1.0,0.0,0.0,0,0,15.4,0.0,15.4,0.0,1.5702727,0,0.0,0.0,3,0,10
60356000,61900000,473977196,85568524,588551,0,0.25,0.0,1.0,1.0,0.0,0.0,0,0,15.4,-0.01,15.42,0.01,1.5716689,0,0.0,0.0,3,0,10
60560000,62104000,473977195,85568942,588550,0,0.25,0.0,1.0,1.0,0.0,0.0,0,0,15.4,-0.03,15.429999,-0.01,1.5730652,0,0.0,0.0,3,0,10
60764000,62304000,473977194,85569353,588547,0,0.25,0.0,1.0,1.0,0.0,0.0,0,0,15.4,-0.03,15.37,0.01,1.5730652,0,0.0,0.0,3,0,10
60968000,62512000,473977194,85569780,588543,0,0.25,0.0,1.0,1.0,0.0,0.0,0,0,15.4,-0.02,15.389999,0.0,1.5727162,0,0.0,0.0,3,0,10
61172000,62712000,473977192,85570190,588545,0,0.25,0.0,1.0,1.0,0.0,0.0,0,0,15.4,-0.06,15.42,0.02,1.5746361,0,0.0,0.0,3,0,10
61376000,62916000,473977191,85570609,588545,0,0.25,0.0,1.0,1.0,0.0,0.0,0,0,15.4,-0.049999997,15.41,0.04,1.5744615,0,0.0,0.0,3,0,10
61580000,63124000,473977190,85571035,588549,0,0.25,0.0,1.0,1.0,0.0,0.0,0,0,15.4,-0.08,15.389999,0.01,1.5763813,0,0.0,0.0,3,0,10
61784000,63324000,473977189,85571446,588557,0,0.25,0.0,1.0,1.0,0.0,0.0,0,0,15.4,-0.06,15.4,-0.04,1.5751597,0,0.0,0.0,3,0,10
61988000,63532000,473977188,85571873,588548,0,0.25,0.0,1.0,1.0,0.0,0.0,0,0,15.389999,-0.07,15.389999,0.04,1.5756832,0,0.0,0.0,3,0,10
62192000,63736000,473977186,85572291,588546,0,0.25,0.0,1.0,1.0,0.0,0.0,0,0,15.389999,-0.06,15.38,0.0,1.5748105,0,0.0,0.0,3,0,10
62396000,63936000,473977185,85572702,588548,0,0.25,0.0,1.0,1.0,0.0,0.0,0,0,15.389999,-0.08,15.389999,-0.03,1.5760323,0,0.0,0.0,3,0,10
62600000,64144000,473977183,85573128,588543,0,0.25,0.0,1.0,1.0,0.0,0.0,0,0,15.38,-0.07,15.4,0.0,1.5756832,0,0.0,0.0,3,0,10
62803999,64343999,473977181,85573538,588544,0,0.25,0.0,1.0,1.0,0.0,0.0,0,0,15.38,-0.07,15.36,-0.02,1.5758578,0,0.0,0.0,3,0,10
63008000,64552000,473977180,85573964,588535,0,0.25,0.0,1.0,1.0,0.0,0.0,0,0,15.38,-0.089999996,15.37,-0.01,1.5769049,0,0.0,0.0,3,0,10
63211999,64756000,473977179,85574382,588545,0,0.25,0.0,1.0,1.0,0.0,0.0,0,0,15.37,-0.08,15.38,0.01,1.5762068,0,0.0,0.0,3,0,10
63416000,64956000,473977177,85574792,588541,0,0.25,0.0,1.0,1.0,0.0,0.0,0,0,15.37,-0.089999996,15.38,0.0,1.5769049,0,0.0,0.0,3,0,10
63619999,65160000,473977176,85575210,588534,0,0.25,0.0,1.0,1.0,0.0,0.0,0,0,15.36,-0.08,15.349999,0.04,1.5762068,0,0.0,0.0,3,0,10
63824000,65367999,473977174,85575636,588534,0,0.25,0.0,1.0,1.0,0.0,0.0,0,0,15.349999,-0.08,15.339999,0.0,1.5760323,0,0.0,0.0,3,0,10
64028000,65568000,473977172,85576045,588534,0,0.25,0.0,1.0,1.0,0.0,0.0,0,0,15.349999,-0.06,15.339999,0.0,1.5748105,0,0.0,0.0,3,0,10
64232000,65772000,473977170,85576462,588539,0,0.25,0.0,1.0,1.0,0.0,0.0,0,0,15.339999,-0.07,15.339999,0.0,1.5755086,0,0.0,0.0,3,0,10
64436000,65980000,473977169,85576887,588534,0,0.25,0.0,1.0,1.0,0.0,0.0,0,0,15.339999,-0.08,15.33,-0.03,1.5760323,0,0.0,0.0,3,0,10
64640000,66180000,473977167,85577296,588542,0,0.25,0.0,1.0,1.0,0.0,0.0,0,0,15.339999,-0.07,15.309999,-0.02,1.5756832,0,0.0,0.0,3,0,10
64844000,66384000,473977166,85577713,588544,0,0.25,0.0,1.0,1.0,0.0,0.0,0,0,15.33,-0.06,15.349999,0.0,1.5748105,0,0.0,0.0,3,0,10
65047999,66592000,473977164,85578138,588546,0,0.25,0.0,1.0,1.0,0.0,0.0,0,0,15.33,-0.06,15.339999,0.01,1.574985,0,0.0,0.0,3,0,10
65252000,66796000,473977162,85578555,588538,0,0.25,0.0,1.0,1.0,0.0,0.0,0,0,15.33,-0.06,15.339999,-0.01,1.5751597,0,0.0,0.0,3,0,10
65456000,66995999,473977161,85578964,588542,0,0.25,0.0,1.0,1.0,0.0,0.0,0,0,15.32,-0.08,15.339999,0.0,1.5760323,0,0.0,0.0,3,0,10
65660000,67204000,473977160,85579389,588541,0,0.25,0.0,1.0,1.0,0.0,0.0,0,0,15.32,-0.08,15.33,-0.01,1.5760323,0,0.0,0.0,3,0,10
65864000,67408000,473977158,85579805,588534,0,0.25,0.0,1.0,1.0,0.0,0.0,0,0,15.32,-0.07,15.349999,0.01,1.5756832,0,0.0,0.0,3,0,10
66068000,67608000,473977157,85580213,588542,0,0.25,0.0,1.0,1.0,0.0,0.0,0,0,15.32,-0.07,15.339999,-0.03,1.5755086,0,0.0,0.0,3,0,10
66272000,67816000,473977155,85580638,588549,0,0.25,0.0,1.0,1.0,0.0,0.0,0,0,15.32,-0.06,15.29,0.0,1.5753341,0,0.0,0.0,3,0,10
66476000,68020000,473977154,85581054,588550,0,0.25,0.0,1.0,1.0,0.0,0.0,0,0,15.32,-0.08,15.33,0.0,1.5762068,0,0.0,0.0,3,0,10
66680000,68220000,473977153,85581462,588537,0,0.25,0.0,1.0,1.0,0.0,0.0,0,0,15.309999,-0.04,15.299999,0.01,1.5737634,0,0.0,0.0,3,0,10
66884000,68424000,473977152,85581878,588533,0,0.25,0.0,1.0,1.0,0.0,0.0,0,0,15.309999,-0.049999997,15.33,0.04,1.5739379,0,0.0,0.0,3,0,10
67088000,68632000,473977150,85582302,588526,0,0.25,0.0,1.0,1.0,0.0,0.0,0,0,15.309999,-0.04,15.29,0.01,1.5734143,0,0.0,0.0,3,0,10
67292000,68832000,473977149,85582711,588530,0,0.25,0.0,1.0,1.0,0.0,0.0,0,0,15.309999,-0.049999997,15.32,0.07,1.5746361,0,0.0,0.0,3,0,10
67496000,69036000,473977149,85583127,588524,0,0.25,0.0,1.0,1.0,0.0,0.0,0,0,15.299999,-0.04,15.29,0.049999997,1.5739379,0,0.0,0.0,3,0,10
67700000,69244000,473977148,85583551,588522,0,0.25,0.0,1.0,1.0,0.0,0.0,0,0,15.299999,-0.04,15.29,0.01,1.5737634,0,0.0,0.0,3,0,10
67904000,69444000,473977147,85583959,588516,0,0.25,0.0,1.0,1.0,0.0,0.0,0,0,15.299999,-0.04,15.309999,0.01,1.5737634,0,0.0,0.0,3,0,10
68108000,69648000,473977146,85584375,588518,0,0.25,0.0,1.0,1.0,0.0,0.0,0,0,15.299999,-0.03,15.309999,0.03,1.5732398,0,0.0,0.0,3,0,10
68312000,69856000,473977145,85584799,588514,0,0.25,0.0,1.0,1.0,0.0,0.0,0,0,15.299999,-0.04,15.28,0.0,1.5735887,0,0.0,0.0,3,0,10
68516000,70060000,473977144,85585215,588512,0,0.25,0.0,1.0,1.0,0.0,0.0,0,0,15.299999,-0.049999997,15.28,0.04,1.5742869,0,0.0,0.0,3,0,10
68720000,70260000,473977143,85585622,588498,0,0.25,0.0,1.0,1.0,0.0,0.0,0,0,15.29,-0.04,15.309999,-0.02,1.5737634,0,0.0,0.0,3,0,10
68924000,70468000,473977142,85586047,588498,0,0.25,0.0,1.0,1.0,0.0,0.0,0,0,15.29,0.0,15.309999,-0.01,1.5711453,0,0.0,0.0,3,0,10
69128000,70672000,473977141,85586462,588503,0,0.25,0.0,1.0,1.0,0.0,0.0,0,0,15.29,-0.03,15.259999,0.0,1.5730652,0,0.0,0.0,3,0,10
69332000,70872000,473977140,85586870,588502,0,0.25,0.0,1.0,1.0,0.0,0.0,0,0,15.28,-0.01,15.2699995,-0.04,1.5718435,0,0.0,0.0,3,0,10
69536000,71080000,473977140,85587293,588491,0,0.25,0.0,1.0,1.0,0.0,0.0,0,0,15.2699995,-0.03,15.29,0.01,1.5732398,0,0.0,0.0,3,0,10
69740000,71284000,473977139,85587708,588487,0,0.25,0.0,1.0,1.0,0.0,0.0,0,0,15.2699995,-0.02,15.259999,0.02,1.5725416,0,0.0,0.0,3,0,10
69944000,71484000,473977140,85588115,588489,0,0.25,0.0,1.0,1.0,0.0,0.0,0,0,15.259999,0.0,15.25,0.03,1.5704472,0,0.0,0.0,3,0,10
70148000,71688000,473977139,85588531,588473,0,0.25,0.0,1.0,1.0,0.0,0.0,0,0,15.2699995,-0.01,15.28,0.06,1.5718435,0,0.0,0.0,3,0,10
70352000,71896000,473977138,85588953,588466,0,0.25,0.0,1.0,1.0,0.0,0.0,0,0,15.2699995,-0.01,15.29,0.01,1.5713199,0,0.0,0.0,3,0,10
70556000,72096000,473977138,85589360,588457,0,0.25,0.0,1.0,1.0,0.0,0.0,0,0,15.2699995,-0.01,15.24,0.02,1.5714945,0,0.0,0.0,3,0,10
70760000,72300000,473977138,85589776,588452,0,0.25,0.0,1.0,1.0,0.0,0.0,0,0,15.2699995,-0.02,15.28,-0.02,1.572018,0,0.0,0.0,3,0,10
70964000,72508000,473977139,85590199,588449,0,0.25,0.0,1.0,1.0,0.0,0.0,0,0,15.2699995,-0.01,15.28,0.01,1.5713199,0,0.0,0.0,3,0,10
71168000,72708000,473977138,85590607,588455,0,0.25,0.0,1.0,1.0,0.0,0.0,0,0,15.28,0.01,15.299999,0.02,1.5695746,0,0.0,0.0,3,0,10
71372000,72912000,473977139,85591021,588450,0,0.25,0.0,1.0,1.0,0.0,0.0,0,0,15.28,0.01,15.259999,0.03,1.5699236,0,0.0,0.0,3,0,10
71576000,73120000,473977139,85591445,588440,0,0.25,0.0,1.0,1.0,0.0,0.0,0,0,15.28,0.0,15.2699995,-0.01,1.5707964,0,0.0,0.0,3,0,10
71780000,73324000,473977140,85591861,588442,0,0.25,0.0,1.0,1.0,0.0,0.0,0,0,15.2699995,0.03,15.29,0.0,1.5687019,0,0.0,0.0,3,0,10
71984000,73524000,473977140,85592268,588447,0,0.25,0.0,1.0,1.0,0.0,0.0,0,0,15.2699995,0.03,15.25,0.0,1.5687019,0,0.0,0.0,3,0,10
72188000,73732000,473977141,85592692,588440,0,0.25,0.0,1.0,1.0,0.0,0.0,0,0,15.2699995,0.02,15.25,-0.04,1.5688764,0,0.0,0.0,3,0,10
72392000,73936000,473977142,85593107,588438,0,0.25,0.0,1.0,1.0,0.0,0.0,0,0,15.2699995,0.01,15.259999,0.0,1.5695746,0,0.0,0.0,3,0,10
72596000,74136000,473977143,85593513,588434,0,0.25,0.0,1.0,1.0,0.0,0.0,0,0,15.2699995,0.04,15.2699995,0.0,1.5674801,0,0.0,0.0,3,0,10
72800000,74344000,473977143,85593936,588439,0,0.25,0.0,1.0,1.0,0.0,0.0,0,0,15.259999,0.04,15.2699995,0.01,1.5676547,0,0.0,0.0,3,0,10
73004000,74548000,473977144,85594352,588451,0,0.25,0.0,1.0,1.0,0.0,0.0,0,0,15.259999,0.03,15.24,-0.01,1.5685273,0,0.0,0.0,3,0,10
73208000,74748000,473977145,85594758,588449,0,0.25,0.0,1.0,1.0,0.0,0.0,0,0,15.259999,0.04,15.259999,0.0,1.5680038,0,0.0,0.0,3,0,10
73412000,74952000,473977146,85595173,588450,0,0.25,0.0,1.0,1.0,0.0,0.0,0,0,15.259999,0.049999997,15.28,-0.01,1.5669565,0,0.0,0.0,3,0,10
73616000,75160000,473977147,85595596,588448,0,0.25,0.0,1.0,1.0,0.0,0.0,0,0,15.259999,0.06,15.25,0.0,1.566433,0,0.0,0.0,3,0,10
73820000,75360000,473977148,85596003,588455,0,0.25,0.0,1.0,1.0,0.0,0.0,0,0,15.259999,0.03,15.25,0.02,1.5681783,0,0.0,0.0,3,0,10
74024000,75564000,473977148,85596418,588445,0,0.25,0.0,1.0,1.0,0.0,0.0,0,0,15.259999,0.06,15.24,0.0,1.566433,0,0.0,0.0,3,0,10
74228000,75772000,473977149,85596841,588450,0,0.25,0.0,1.0,1.0,0.0,0.0,0,0,15.259999,0.049999997,15.2699995,0.0,1.5674801,0,0.0,0.0,3,0,10
74432000,75972000,473977150,85597248,588445,0,0.25,0.0,1.0,1.0,0.0,0.0,0,0,15.259999,0.02,15.24,-0.02,1.5688764,0,0.0,0.0,3,0,10
74636000,76176000,473977151,85597662,588452,0,0.25,0.0,1.0,1.0,0.0,0.0,0,0,15.259999,0.049999997,15.259999,-0.03,1.5669565,0,0.0,0.0,3,0,10
74840000,76384000,473977152,85598086,588446,0,0.25,0.0,1.0,1.0,0.0,0.0,0,0,15.259999,0.07,15.2699995,0.0,1.5657349,0,0.0,0.0,3,0,10
75044000,76588000,473977154,85598500,588449,0,0.25,0.0,1.0,1.0,0.0,0.0,0,0,15.259999,0.049999997,15.24,-0.03,1.5671312,0,0.0,0.0,3,0,10
75248000,76788000,473977154,85598906,588455,0,0.25,0.0,1.0,1.0,0.0,0.0,0,0,15.259999,0.08,15.28,0.0,1.5653857,0,0.0,0.0,3,0,10
75452000,76996000,473977156,85599329,588457,0,0.25,0.0,1.0,1.0,0.0,0.0,0,0,15.259999,0.07,15.23,-0.01,1.5657349,0,0.0,0.0,3,0,10
75656000,77200000,473977157,85599744,588453,0,0.25,0.0,1.0,1.0,0.0,0.0,0,0,15.259999,0.06,15.25,0.0,1.566433,0,0.0,0.0,3,0,10
75860000,77400000,473977158,85600151,588453,0,0.25,0.0,1.0,1.0,0.0,0.0,0,0,15.259999,0.089999996,15.25,0.02,1.5645131,0,0.0,0.0,3,0,10
76064000,77608000,473977160,85600574,588461,0,0.25,0.0,1.0,1.0,0.0,0.0,0,0,15.259999,0.07,15.25,-0.01,1.5660839,0,0.0,0.0,3,0,10
76268000,77812000,473977161,85600988,588463,0,0.25,0.0,1.0,1.0,0.0,0.0,0,0,15.25,0.049999997,15.25,0.04,1.5671312,0,0.0,0.0,3,0,10
76472000,78012000,473977163,85601395,588467,0,0.25,0.0,1.0,1.0,0.0,0.0,0,0,15.25,0.07,15.25,-0.02,1.5655602,0,0.0,0.0,3,0,10
76676000,78216000,473977165,85601810,588469,0,0.25,0.0,1.0,1.0,0.0,0.0,0,0,15.25,0.089999996,15.2699995,0.02,1.5645131,0,0.0,0.0,3,0,10
76880000,78424000,473977167,85602232,588470,0,0.25,0.0,1.0,1.0,0.0,0.0,0,0,15.25,0.08,15.25,-0.04,1.5652113,0,0.0,0.0,3,0,10
77084000,78624000,473977168,85602639,588474,0,0.25,0.0,1.0,1.0,0.0,0.0,0,0,15.25,0.099999994,15.259999,-0.02,1.563815,0,0.0,0.0,3,0,10
77288000,78828000,473977170,85603054,588470,0,0.25,0.0,1.0,1.0,0.0,0.0,0,0,15.25,0.11,15.24,0.02,1.5632914,0,0.0,0.0,3,0,10
77492000,79036000,473977172,85603476,588464,0,0.25,0.0,1.0,1.0,0.0,0.0,0,0,15.25,0.11,15.24,-0.02,1.5634658,0,0.0,0.0,3,0,10
77696000,79236000,473977174,85603883,588470,0,0.25,0.0,1.0,1.0,0.0,0.0,0,0,15.25,0.12,15.24,-0.04,1.5625932,0,0.0,0.0,3,0,10
77900000,79440000,473977176,85604297,588475,0,0.25,0.0,1.0,1.0,0.0,0.0,0,0,15.25,0.13,15.25,0.03,1.5617205,0,0.0,0.0,3,0,10
78104000,79648000,473977179,85604720,588483,0,0.25,0.0,1.0,1.0,0.0,0.0,0,0,15.24,0.12,15.24,0.0,1.5625932,0,0.0,0.0,3,0,10
78308000,79852000,473977181,85605135,588493,0,0.25,0.0,1.0,1.0,0.0,0.0,0,0,15.24,0.14,15.24,-0.03,1.5613716,0,0.0,0.0,3,0,10
78512000,80052000,473977184,85605541,588487,0,0.25,0.0,1.0,1.0,0.0,0.0,0,0,15.24,0.14,15.24,-0.01,1.5611969,0,0.0,0.0,3,0,10
78716000,80260000,473977187,85605963,588491,0,0.25,0.0,1.0,1.0,0.0,0.0,0,0,15.24,0.14999999,15.23,-0.01,1.5606734,0,0.0,0.0,3,0,10
78920000,80464000,473977190,85606377,588480,0,0.25,0.0,1.0,1.0,0.0,0.0,0,0,15.24,0.16,15.259999,0.0,1.5596262,0,0.0,0.0,3,0,10
79128000,80664000,473977192,85606784,588478,0,0.25,0.0,1.0,1.0,0.0,0.0,0,0,15.24,0.14999999,15.24,-0.04,1.5603243,0,0.0,0.0,3,0,10
79328000,80872000,473977196,85607207,588492,0,0.25,0.0,1.0,1.0,0.0,0.0,0,0,15.24,0.19,15.23,0.02,1.5577064,0,0.0,0.0,3,0,10
79532000,81076000,473977199,85607620,588496,0,0.25,0.0,1.0,1.0,0.0,0.0,0,0,15.23,0.17,15.25,0.0,1.5594517,0,0.0,0.0,3,0,10
79736000,81276000,473977202,85608026,588499,0,0.25,0.0,1.0,1.0,0.0,0.0,0,0,15.23,0.16,15.25,-0.04,1.5601498,0,0.0,0.0,3,0,10
79940000,81480000,473977205,85608440,588506,0,0.25,0.0,1.0,1.0,0.0,0.0,0,0,15.219999,0.17,15.23,-0.03,1.5591025,0,0.0,0.0,3,0,10
80144000,81688000,473977209,85608862,588504,0,0.25,0.0,1.0,1.0,0.0,0.0,0,0,15.219999,0.16,15.23,-0.01,1.5596262,0,0.0,0.0,3,0,10
80348000,81888000,473977212,85609268,588505,0,0.25,0.0,1.0,1.0,0.0,0.0,0,0,15.219999,0.17,15.23,-0.01,1.559277,0,0.0,0.0,3,0,10
80552000,82092000,473977215,85609682,588504,0,0.25,0.0,1.0,1.0,0.0,0.0,0,0,15.23,0.16,15.23,-0.01,1.5596262,0,0.0,0.0,3,0,10
80756000,82300000,473977218,85610104,588513,0,0.25,0.0,1.0,1.0,0.0,0.0,0,0,15.23,0.16,15.21,0.02,1.5601498,0,0.0,0.0,3,0,10
80960000,82504000,473977221,85610518,588510,0,0.25,0.0,1.0,1.0,0.0,0.0,0,0,15.23,0.19,15.219999,0.02,1.5580554,0,0.0,0.0,3,0,10
81164000,82704000,473977225,85610924,588516,0,0.25,0.0,1.0,1.0,0.0,0.0,0,0,15.23,0.19,15.24,-0.02,1.5580554,0,0.0,0.0,3,0,10
81368000,82912000,473977228,85611346,588518,0,0.25,0.0,1.0,1.0,0.0,0.0,0,0,15.23,0.17999999,15.25,0.03,1.558579,0,0.0,0.0,3,0,10
81572000,83116000,473977232,85611760,588519,0,0.25,0.0,1.0,1.0,0.0,0.0,0,0,15.23,0.17999999,15.21,-0.01,1.558579,0,0.0,0.0,3,0,10
81776000,83316000,473977235,85612166,588525,0,0.25,0.0,1.0,1.0,0.0,0.0,0,0,15.219999,0.17,15.23,-0.02,1.559277,0,0.0,0.0,3,0,10
81980000,83524000,473977239,85612588,588519,0,0.25,0.0,1.0,1.0,0.0,0.0,0,0,15.219999,0.22,15.23,-0.02,1.5557865,0,0.0,0.0,3,0,10
82184000,83728000,473977242,85613001,588522,0,0.25,0.0,1.0,1.0,0.0,0.0,0,0,15.219999,0.17,15.23,-0.049999997,1.5591025,0,0.0,0.0,3,0,10
82388000,83928000,473977246,85613407,588523,0,0.25,0.0,1.0,1.0,0.0,0.0,0,0,15.219999,0.19999999,15.23,0.0,1.5573572,0,0.0,0.0,3,0,10
82592000,84132000,473977250,85613821,588517,0,0.25,0.0,1.0,1.0,0.0,0.0,0,0,15.219999,0.19,15.219999,-0.03,1.5577064,0,0.0,0.0,3,0,10
82796000,84340000,473977254,85614243,588509,0,0.25,0.0,1.0,1.0,0.0,0.0,0,0,15.219999,0.19999999,15.21,-0.03,1.5571828,0,0.0,0.0,3,0,10
83000000,84540000,473977258,85614649,588511,0,0.25,0.0,1.0,1.0,0.0,0.0,0,0,15.219999,0.24,15.21,-0.01,1.5549138,0,0.0,0.0,3,0,10
83204000,84744000,473977262,85615063,588513,0,0.25,0.0,1.0,1.0,0.0,0.0,0,0,15.219999,0.24,15.219999,0.02,1.5545647,0,0.0,0.0,3,0,10
83408000,84952000,473977266,85615484,588515,0,0.25,0.0,1.0,1.0,0.0,0.0,0,0,15.21,0.25,15.23,0.01,1.553692,0,0.0,0.0,3,0,10
83612000,85152000,473977271,85615890,588517,0,0.25,0.0,1.0,1.0,0.0,0.0,0,0,15.21,0.25,15.21,0.02,1.5540411,0,0.0,0.0,3,0,10
83816000,85356000,473977275,85616303,588521,0,0.25,0.0,1.0,1.0,0.0,0.0,0,0,15.21,0.19,15.2,-0.02,1.5578808,0,0.0,0.0,3,0,10
84020000,85564000,473977279,85616725,588506,0,0.25,0.0,1.0,1.0,0.0,0.0,0,0,15.21,0.19,15.219999,0.04,1.5580554,0,0.0,0.0,3,0,10
84224000,85768000,473977282,85617138,588506,0,0.25,0.0,1.0,1.0,0.0,0.0,0,0,15.21,0.17,15.19,0.02,1.559277,0,0.0,0.0,3,0,10
84428000,85968000,473977285,85617544,588510,0,0.25,0.0,1.0,1.0,0.0,0.0,0,0,15.219999,0.14,15.2,0.0,1.560848,0,0.0,0.0,3,0,10
84632000,86176000,473977288,85617965,588508,0,0.25,0.0,1.0,1.0,0.0,0.0,0,0,15.219999,0.11,15.219999,0.02,1.5629423,0,0.0,0.0,3,0,10
84836000,86380000,473977290,85618379,588501,0,0.25,0.0,1.0,1.0,0.0,0.0,0,0,15.219999,0.12,15.219999,0.03,1.5625932,0,0.0,0.0,3,0,10
85040000,86580000,473977292,85618785,588486,0,0.25,0.0,1.0,1.0,0.0,0.0,0,0,15.219999,0.049999997,15.219999,0.0,1.5673056,0,0.0,0.0,3,0,10
85244000,86788000,473977292,85619206,588485,0,0.25,0.0,1.0,1.0,0.0,0.0,0,0,15.219999,0.06,15.23,0.04,1.566782,0,0.0,0.0,3,0,10
85448000,86992000,473977293,85619621,588492,0,0.25,0.0,1.0,1.0,0.0,0.0,0,0,15.219999,0.01,15.219999,0.03,1.5699236,0,0.0,0.0,3,0,10
85652000,87192000,473977292,85620027,588487,0,0.25,0.0,1.0,1.0,0.0,0.0,0,0,15.23,-0.03,15.219999,0.01,1.5727162,0,0.0,0.0,3,0,10
85856000,87396000,473977291,85620441,588480,0,0.25,0.0,1.0,1.0,0.0,0.0,0,0,15.23,-0.04,15.219999,0.04,1.5735887,0,0.0,0.0,3,0,10
86060000,87604000,473977290,85620863,588471,0,0.25,0.0,1.0,1.0,0.0,0.0,0,0,15.23,-0.08,15.23,0.0,1.5760323,0,0.0,0.0,3,0,10
86264000,87804000,473977288,85621269,588470,0,0.25,0.0,1.0,1.0,0.0,0.0,0,0,15.24,-0.099999994,15.24,0.02,1.5776031,0,0.0,0.0,3,0,10
86468000,88008000,473977286,85621683,588469,0,0.25,0.0,1.0,1.0,0.0,0.0,0,0,15.24,-0.16,15.2699995,0.01,1.5814428,0,0.0,0.0,3,0,10
86672000,88216000,473977283,85622107,588458,0,0.25,0.0,1.0,1.0,0.0,0.0,0,0,15.25,-0.17999999,15.25,0.04,1.5831882,0,0.0,0.0,3,0,10
86876000,88416000,473977279,85622513,588456,0,0.25,0.0,1.0,1.0,0.0,0.0,0,0,15.25,-0.21,15.24,0.04,1.5849334,0,0.0,0.0,3,0,10
87080000,88620000,473977274,85622927,588452,0,0.25,0.0,1.0,1.0,0.0,0.0,0,0,15.25,-0.28,15.25,0.02,1.5892968,0,0.0,0.0,3,0,10
87284000,88828000,473977268,85623350,588454,0,0.25,0.0,1.0,1.0,0.0,0.0,0,0,15.25,-0.32999998,15.2699995,0.01,1.592613,0,0.0,0.0,3,0,10
87488000,89032000,473977262,85623765,588442,0,0.25,0.0,1.0,1.0,0.0,0.0,0,0,15.25,-0.39,15.24,0.04,1.5968016,0,0.0,0.0,3,0,10
87692000,89232000,473977254,85624171,588428,0,0.25,0.0,1.0,1.0,0.0,0.0,0,0,15.259999,-0.47,15.24,0.03,1.6022122,0,0.0,0.0,3,0,10
87896000,89440000,473977244,85624594,588410,0,0.25,0.0,1.0,1.0,0.0,0.0,0,0,15.2699995,-0.62,15.2699995,0.08,1.611637,0,0.0,0.0,3,0,10
88100000,89644000,473977230,85625009,588393,0,0.25,0.0,1.0,1.0,0.0,0.0,0,0,15.28,-0.88,15.25,0.08,1.6287413,0,0.0,0.0,3,0,10
88304000,89844000,473977210,85625415,588376,0,0.25,0.0,1.0,1.0,0.0,0.0,0,0,15.309999,-1.3,15.259999,0.17,1.6557938,0,0.0,0.0,3,0,10
88508000,90052000,473977180,85625838,588333,0,0.25,0.0,1.0,1.0,0.0,0.0,0,0,15.339999,-1.88,15.21,0.21,1.6938419,0,0.0,0.0,3,0,10
88712000,90256000,473977141,85626251,588287,0,0.25,0.0,1.0,1.0,0.0,0.0,0,0,15.38,-2.4099998,15.179999,0.31,1.7287486,0,0.0,0.0,3,0,10
88916000,90456000,473977093,85626656,588230,0,0.25,0.0,1.0,1.0,0.0,0.0,0,0,15.42,-2.82,15.16,0.31,1.7549285,0,0.0,0.0,3,0,10
89120000,90660000,473977037,85627067,588159,0,0.25,0.0,1.0,1.0,0.0,0.0,0,0,15.46,-3.1899998,15.13,0.35999998,1.778665,0,0.0,0.0,3,0,10
89324000,90868000,473976974,85627485,588091,0,0.25,0.0,1.0,1.0,0.0,0.0,0,0,15.48,-3.51,15.08,0.31,1.7997835,0,0.0,0.0,3,0,10
89528000,91068000,473976909,85627887,588018,0,0.25,0.0,1.0,1.0,0.0,0.0,0,0,15.509999,-3.77,15.03,0.28,1.8165386,0,0.0,0.0,3,0,10
89732000,91272000,473976836,85628295,587945,0,0.25,0.0,1.0,1.0,0.0,0.0,0,0,15.54,-4.0899997,14.99,0.32999998,1.836959,0,0.0,0.0,3,0,10
89936000,91480000,473976756,85628711,587867,0,0.25,0.0,1.0,1.0,0.0,0.0,0,0,15.57,-4.39,14.94,0.34,1.8565066,0,0.0,0.0,3,0,10
90140000,91680000,473976674,85629108,587794,0,0.25,0.0,1.0,1.0,0.0,0.0,0,0,15.589999,-4.7,14.889999,0.37,1.8769271,0,0.0,0.0,3,0,10
90344000,91884000,473976584,85629510,587721,0,0.25,0.0,1.0,1.0,0.0,0.0,0,0,15.62,-5.06,14.78,0.39999998,1.9010125,0,0.0,0.0,3,0,10
90548000,92092000,473976485,85629918,587634,0,0.25,0.0,1.0,1.0,0.0,0.0,0,0,15.65,-5.43,14.67,0.48999998,1.9254472,0,0.0,0.0,3,0,10
90752000,92296000,473976381,85630315,587530,0,0.25,0.0,1.0,1.0,0.0,0.0,0,0,15.69,-5.8799996,14.549999,0.51,1.9552923,0,0.0,0.0,3,0,10
90956000,92496000,473976271,85630700,587428,0,0.25,0.0,1.0,1.0,0.0,0.0,0,0,15.719999,-6.3199997,14.38,0.56,1.9851375,0,0.0,0.0,3,0,10
91160000,92704000,473976147,85631098,587301,0,0.25,0.0,1.0,1.0,0.0,0.0,0,0,15.7699995,-6.85,14.19,0.62,2.0203931,0,0.0,0.0,3,0,10
91364000,92908000,473976016,85631481,587173,0,0.25,0.0,1.0,1.0,0.0,0.0,0,0,15.809999,-7.39,13.98,0.68,2.0568705,0,0.0,0.0,3,0,10
91568000,93108000,473975877,85631850,587022,0,0.25,0.0,1.0,1.0,0.0,0.0,0,0,15.86,-7.97,13.7,0.77,2.097711,0,0.0,0.0,3,0,10
91772000,93316000,473975722,85632226,586850,0,0.25,0.0,1.0,1.0,0.0,0.0,0,0,15.92,-8.59,13.41,0.87,2.1406462,0,0.0,0.0,3,0,10
91976000,93520000,473975557,85632584,586663,0,0.25,0.0,1.0,1.0,0.0,0.0,0,0,15.98,-9.24,13.03,0.94,2.1872466,0,0.0,0.0,3,0,10
92180000,93720000,473975384,85632926,586480,0,0.25,0.0,1.0,1.0,0.0,0.0,0,0,16.039999,-9.92,12.599999,0.96,2.237512,0,0.0,0.0,3,0,10
92384000,93924000,473975195,85633262,586277,0,0.25,0.0,1.0,1.0,0.0,0.0,0,0,16.109999,-10.62,12.13,1.04,2.2896974,0,0.0,0.0,3,0,10
92588000,94132000,473974989,85633590,586061,0,0.25,0.0,1.0,1.0,0.0,0.0,0,0,16.18,-11.36,11.53,1.13,2.348515,0,0.0,0.0,3,0,10
92792000,94332000,473974777,85633887,585826,0,0.25,0.0,1.0,1.0,0.0,0.0,0,0,16.26,-12.12,10.83,1.16,2.4125686,0,0.0,0.0,3,0,10
92996000,94536000,473974547,85634171,585582,0,0.25,0.0,1.0,1.0,0.0,0.0,0,0,16.34,-12.87,10.07,1.1899999,2.477844,0,0.0,0.0,3,0,10
93200000,94744000,473974298,85634438,585327,0,0.25,0.0,1.0,1.0,0.0,0.0,0,0,16.42,-13.639999,9.15,1.25,2.5506241,0,0.0,0.0,3,0,10
93404000,94944000,473974045,85634668,585084,0,0.25,0.0,1.0,1.0,0.0,0.0,0,0,16.51,-14.34,8.13,1.24,2.6256733,0,0.0,0.0,3,0,10
93608000,95148000,473973774,85634873,584828,0,0.25,0.0,1.0,1.0,0.0,0.0,0,0,16.6,-15.049999,7.02,1.23,2.7049112,0,0.0,0.0,3,0,10
93812000,95356000,473973486,85635051,584580,0,0.25,0.0,1.0,1.0,0.0,0.0,0,0,16.699999,-15.66,5.7599998,1.1999999,2.7892106,0,0.0,0.0,3,0,10
94016000,95560000,473973192,85635190,584338,0,0.25,0.0,1.0,1.0,0.0,0.0,0,0,16.8,-16.21,4.47,1.15,2.872463,0,0.0,0.0,3,0,10
94220000,95760000,473972896,85635291,584106,0,0.25,0.0,1.0,1.0,0.0,0.0,0,0,16.9,-16.58,3.1599998,1.13,2.9529226,0,0.0,0.0,3,0,10
94424000,95968000,473972581,85635359,583878,0,0.25,0.0,1.0,1.0,0.0,0.0,0,0,17.0,-16.9,1.77,1.1,3.0368729,0,0.0,0.0,3,0,10
94628000,96172000,473972268,85635389,583657,0,0.25,0.0,1.0,1.0,0.0,0.0,0,0,17.1,-17.09,0.42,1.09,3.1166344,0,0.0,0.0,3,0,10
94832000,96372000,473971960,85635382,583423,0,0.25,0.0,1.0,1.0,0.0,0.0,0,0,17.19,-17.18,-0.89,1.11,3.1932542,0,0.0,0.0,3,0,10
95036000,96580000,473971637,85635337,583196,0,0.25,0.0,1.0,1.0,0.0,0.0,0,0,17.279999,-17.13,-2.25,1.11,3.2723176,0,0.0,0.0,3,0,10
95240000,96784000,473971323,85635257,582967,0,0.25,0.0,1.0,1.0,0.0,0.0,0,0,17.35,-16.99,-3.55,1.14,3.3478904,0,0.0,0.0,3,0,10
95444000,96984000,473971019,85635146,582746,0,0.25,0.0,1.0,1.0,0.0,0.0,0,0,17.41,-16.74,-4.83,1.0699999,3.422416,0,0.0,0.0,3,0,10
