timestamp,gps_hvel[0],gps_hvel[1],gps_vvel,gps_hpos[0],gps_hpos[1],gps_vpos,ev_hvel[0],ev_hvel[1],ev_vvel,ev_hpos[0],ev_hpos[1],ev_vpos,fake_hvel[0],fake_hvel[1],fake_vvel,fake_hpos[0],fake_hpos[1],fake_vpos,rng_vpos,baro_vpos,aux_hvel[0],aux_hvel[1],aux_vvel,flow[0],flow[1],heading,mag_field[0],mag_field[1],mag_field[2],drag[0],drag[1],airspeed,beta,hagl
1684000,0.0,0.00017511696,0.0,6.2379475e-09,0.23032013,0.0,0.0,0.08863508,0.0,0.0,6.36629e-09,0.0,nan,nan,nan,nan,nan,nan,0.0,6.813978e-06,0.0,0.0,nan,0.0,0.0,2.467501e-05,0.0,0.0,0.0,0.0,0.0,0.0,0.0,0.0
1884000,0.0,0.00014647596,0.0,1.4700193e-08,0.17088544,0.0,0.0,0.08391212,0.0,0.0,6.339438e-09,0.0,nan,nan,nan,nan,nan,nan,0.0,1.6177113e-05,0.0,0.0,nan,0.0,0.0,0.00058824976,0.0,0.0,0.0,0.0,0.0,0.0,0.0,0.0
2084000,0.0,0.00012841893,0.0,2.681364e-08,0.13208376,0.0,0.0,0.07843361,0.0,0.0,6.304927e-09,0.0,nan,nan,nan,nan,nan,nan,0.0,5.727302e-06,0.0,0.0,nan,0.0,0.0,9.7386626e-05,0.0,0.0,0.0,0.0,0.0,0.0,0.0,0.0
2284000,0.0,0.00011408122,0.0,4.1593367e-08,0.10785508,0.0,0.0,0.073210485,0.0,0.0,6.2555534e-09,0.0,nan,nan,nan,nan,nan,nan,0.0,2.9886469e-05,0.0,0.0,nan,0.0,0.0,1.3730609e-05,0.0,0.0,0.0,0.0,0.0,0.0,0.0,0.0
2480000,0.0,0.00010445267,0.0,5.1426255e-08,0.09370579,0.0,0.0,0.06887859,0.0,0.0,6.197827e-09,0.0,nan,nan,nan,nan,nan,nan,0.0,2.6689727e-06,0.0,0.0,nan,0.0,0.0,0.0002928282,0.0,0.0,0.0,0.0,0.0,0.0,0.0,0.0
2680000,0.0,9.648767e-05,0.0,5.992785e-08,0.084926285,0.0,0.0,0.06554136,0.0,0.0,6.1222547e-09,0.0,nan,nan,nan,nan,nan,nan,0.0,3.206806e-05,0.0,0.0,nan,0.0,0.0,1.0288517e-05,0.0,0.0,0.0,0.0,0.0,0.0,0.0,0.0
2880000,0.0,9.1264126e-05,0.0,6.551542e-08,0.08013136,0.0,0.0,0.06262649,0.0,0.0,6.038937e-09,0.0,nan,nan,nan,nan,nan,nan,0.0,1.21449975e-05,0.0,0.0,nan,0.0,0.0,0.00022517768,0.0,0.0,0.0,0.0,0.0,0.0,0.0,0.0
3080000,0.0,8.7340435e-05,0.0,6.875355e-08,0.077660754,0.0,0.0,0.060569886,0.0,0.0,5.9411627e-09,0.0,nan,nan,nan,nan,nan,nan,0.0,5.9642235e-07,0.0,0.0,nan,0.0,0.0,0.0003732829,0.0,0.0,0.0,0.0,0.0,0.0,0.0,0.0
3280000,0.0,8.383587e-05,0.0,6.94644e-08,0.07632135,0.0,0.0,0.059217222,0.0,0.0,5.8204552e-09,0.0,nan,nan,nan,nan,nan,nan,0.0,1.1509559e-07,0.0,0.0,nan,0.0,0.0,0.00036905764,0.0,0.0,0.0,0.0,0.0,0.0,0.0,0.0
3480000,0.0,8.184499e-05,0.0,7.4537326e-08,0.07528674,0.0,0.0,0.05839501,0.0,0.0,5.6957776e-09,0.0,nan,nan,nan,nan,nan,nan,0.0,5.73579e-05,0.0,0.0,nan,0.0,0.0,4.1008472e-05,0.0,0.0,0.0,0.0,0.0,0.0,0.0,0.0
3680000,0.0,7.983969e-05,0.0,7.782235e-08,0.07401684,0.0,0.0,0.057924666,0.0,0.0,5.5472125e-09,0.0,nan,nan,nan,nan,nan,nan,0.0,9.433918e-05,0.0,0.0,nan,0.0,0.0,2.484516e-05,0.0,0.0,0.0,0.0,0.0,0.0,0.0,0.0
3880000,0.0,7.8932106e-05,0.0,8.146645e-08,0.07221119,0.0,0.0,0.057638768,0.0,0.0,5.3986144e-09,0.0,nan,nan,nan,nan,nan,nan,0.0,6.7960034e-05,0.0,0.0,nan,0.0,0.0,0.0001893131,0.0,0.0,0.0,0.0,0.0,0.0,0.0,0.0
4080000,0.0,7.8402474e-05,0.0,8.6562636e-08,0.06976335,0.0,0.0,0.057396565,0.0,0.0,5.2390376e-09,0.0,nan,nan,nan,nan,nan,nan,0.0,1.0674117e-06,0.0,0.0,nan,0.0,0.0,1.90012e-05,0.0,0.0,0.0,0.0,0.0,0.0,0.0,0.0
4280000,0.0,7.7566816e-05,0.0,9.2008264e-08,0.06670982,0.0,0.0,0.057094056,0.0,0.0,5.0567306e-09,0.0,nan,nan,nan,nan,nan,nan,0.0,0.00015139884,0.0,0.0,nan,0.0,0.0,6.441181e-06,0.0,0.0,0.0,0.0,0.0,0.0,0.0,0.0
4480000,0.0,7.7493874e-05,0.0,9.3773195e-08,0.06317612,0.0,0.0,0.05666674,0.0,0.0,4.8814592e-09,0.0,nan,nan,nan,nan,nan,nan,0.0,3.519889e-05,0.0,0.0,nan,0.0,0.0,0.0009504692,0.0,0.0,0.0,0.0,0.0,0.0,0.0,0.0
4680000,0.0,7.752201e-05,0.0,8.4372026e-08,0.05932562,0.0,0.0,0.056085438,0.0,0.0,4.699996e-09,0.0,nan,nan,nan,nan,nan,nan,0.0,1.360031e-05,0.0,0.0,nan,0.0,0.0,0.00038560372,0.0,0.0,0.0,0.0,0.0,0.0,0.0,0.0
4880000,0.0,7.710363e-05,0.0,7.28442e-08,0.05532447,0.0,0.0,0.055348076,0.0,0.0,4.4999378e-09,0.0,nan,nan,nan,nan,nan,nan,0.0,2.6761834e-05,0.0,0.0,nan,0.0,0.0,5.411756e-06,0.0,0.0,0.0,0.0,0.0,0.0,0.0,0.0
5080000,0.0,0.00069069705,0.0,6.231937e-08,0.05131499,0.0,0.0,0.054470338,0.0,0.0,4.312806e-09,0.0,nan,nan,nan,nan,nan,nan,0.0,0.00010352569,0.0,0.0,nan,0.0,0.0,0.00017428148,0.0,0.0,0.0,0.0,0.0,0.0,0.0,0.0
5280000,0.0,0.00069069705,0.0,5.3672604e-08,0.047408227,0.0,0.0,0.053477246,0.0,0.0,4.1254165e-09,0.0,nan,nan,nan,nan,nan,nan,0.0,0.00017878407,0.0,0.0,nan,0.0,0.0,0.00011995751,0.0,0.0,0.0,0.0,0.0,0.0,0.0,0.0
5480000,0.0,7.7058576e-05,0.0,0.0,0.05638226,0.0,0.0,0.044056773,0.0,0.0,3.9243426e-09,0.0,nan,nan,nan,nan,nan,nan,0.0,0.00012264164,0.0,0.0,nan,0.0,0.0,7.7826255e-05,0.0,0.0,0.0,0.0,0.0,0.0,0.0,0.0
5680000,3.0301679e-05,7.719366e-05,3.4647786e-05,1.008028e-06,0.050737593,0.0,0.0,0.038569234,0.0,0.0,3.741634e-09,0.0,nan,nan,nan,nan,nan,nan,0.0,6.4154083e-06,0.0,0.0,nan,0.0,0.0,0.000111382724,0.0,0.0,0.0,0.0,0.0,0.0,0.0,0.0
5880000,7.3708934e-06,7.729098e-05,5.8826117e-06,6.5496124e-07,0.04492424,0.0,0.0,0.03689422,0.0,0.0,3.5619752e-09,0.0,nan,nan,nan,nan,nan,nan,0.0,0.00022390543,0.0,0.0,nan,0.0,0.0,2.5613254e-08,0.0,0.0,0.0,0.0,0.0,0.0,0.0,0.0
6080000,6.784787e-05,7.6749195e-05,2.7407539e-06,5.631744e-06,0.039110295,0.0,0.0,0.036767367,0.0,0.0,3.3723666e-09,0.0,nan,nan,nan,nan,nan,nan,0.0,3.9922375e-07,0.0,0.0,nan,0.0,0.0,1.8381497e-05,0.0,0.0,0.0,0.0,0.0,0.0,0.0,0.0
6280000,5.334775e-05,7.672201e-05,0.00028671933,2.4056815e-06,0.03362911,0.0,0.0,0.037095442,0.0,0.0,3.203087e-09,0.0,nan,nan,nan,nan,nan,nan,0.0,1.2565954e-05,0.0,0.0,nan,0.0,0.0,0.00011518645,0.0,0.0,0.0,0.0,0.0,0.0,0.0,0.0
6479999,8.053436e-05,7.608277e-05,0.00025106143,2.3384825e-06,0.028765403,0.0,0.0,0.037369166,0.0,0.0,3.026509e-09,0.0,nan,nan,nan,nan,nan,nan,0.0,6.681637e-06,0.0,0.0,nan,0.0,0.0,0.0002828719,0.0,0.0,0.0,0.0,0.0,0.0,0.0,0.0
6687999,0.00010685791,7.562501e-05,9.750276e-06,2.3207139e-07,0.024573674,0.0,0.0,0.03742354,0.0,0.0,2.8574618e-09,0.0,nan,nan,nan,nan,nan,nan,0.0,0.00013824967,0.0,0.0,nan,0.0,0.0,1.4734717e-06,0.0,0.0,0.0,0.0,0.0,0.0,0.0,0.0
6888000,0.0001475962,7.538901e-05,2.9224164e-05,6.0064117e-06,0.021331206,0.0,0.0,0.0371439,0.0,0.0,2.7083589e-09,0.0,nan,nan,nan,nan,nan,nan,0.0,1.9748633e-05,0.0,0.0,nan,0.0,0.0,2.995322e-05,0.0,0.0,0.0,0.0,0.0,0.0,0.0,0.0
7088000,0.00018530703,7.456302e-05,3.4865174e-05,8.070586e-06,0.01887728,0.0,0.0,0.036630217,0.0,0.0,2.5544846e-09,0.0,nan,nan,nan,nan,nan,nan,0.0,5.0399027e-05,0.0,0.0,nan,0.0,0.0,0.00014776872,0.0,0.0,0.0,0.0,0.0,0.0,0.0,0.0
7288000,0.000130525,7.421858e-05,2.9827186e-05,9.886713e-06,0.017132942,0.0,0.0,0.035962146,0.0,0.0,2.4195514e-09,0.0,nan,nan,nan,nan,nan,nan,0.0,1.8358943e-06,0.0,0.0,nan,0.0,0.0,0.00036437475,0.0,0.0,0.0,0.0,0.0,0.0,0.0,0.0
7488000,0.0005777862,7.3818395e-05,5.0831815e-05,1.3954171e-05,0.015995778,0.0,0.0,0.035217214,0.0,0.0,2.2910913e-09,0.0,nan,nan,nan,nan,nan,nan,0.0,9.604171e-08,0.0,0.0,nan,0.0,0.0,0.00010405203,0.0,0.0,0.0,0.0,0.0,0.0,0.0,0.0
7688000,0.00022325364,7.283982e-05,6.6722925e-05,3.1660613e-06,0.015363828,0.0,0.0,0.034466542,0.0,0.0,2.1592108e-09,0.0,nan,nan,nan,nan,nan,nan,0.0,1.7310816e-06,0.0,0.0,nan,0.0,0.0,0.00012121323,0.0,0.0,0.0,0.0,0.0,0.0,0.0,0.0
7888000,0.0004794834,7.2341114e-05,9.257818e-06,1.1848655e-05,0.015133939,0.0,0.0,0.03376434,0.0,0.0,2.0443374e-09,0.0,nan,nan,nan,nan,nan,nan,0.0,1.1637919e-06,0.0,0.0,nan,0.0,0.0,0.00017554467,0.0,0.0,0.0,0.0,0.0,0.0,0.0,0.0
8088000,9.74464e-05,7.133043e-05,0.0001608349,1.0739451e-05,0.015212935,0.0,0.0,0.03315344,0.0,0.0,1.9270583e-09,0.0,nan,nan,nan,nan,nan,nan,0.0,3.6944138e-07,0.0,0.0,nan,0.0,0.0,0.0001553028,0.0,0.0,0.0,0.0,0.0,0.0,0.0,0.0
8288000,8.328756e-05,7.077606e-05,2.7179662e-05,9.799085e-06,0.0155089535,0.0,0.0,0.032659397,0.0,0.0,1.8251625e-09,0.0,nan,nan,nan,nan,nan,nan,0.0,7.6085766e-05,0.0,0.0,nan,0.0,0.0,0.00023660768,0.0,0.0,0.0,0.0,0.0,0.0,0.0,0.0
8488000,0.00020748636,6.975126e-05,2.8188679e-06,8.74588e-06,0.01594463,0.0,0.0,0.032297954,0.0,0.0,1.7213443e-09,0.0,nan,nan,nan,nan,nan,nan,0.0,4.8911665e-05,0.0,0.0,nan,0.0,0.0,0.00016222845,0.0,0.0,0.0,0.0,0.0,0.0,0.0,0.0
8688000,8.99025e-05,6.917186e-05,0.00010853627,1.560407e-05,0.016443485,0.0,0.0,0.032069318,0.0,0.0,1.6312938e-09,0.0,nan,nan,nan,nan,nan,nan,0.0,6.7798836e-05,0.0,0.0,nan,0.0,0.0,0.0004220004,0.0,0.0,0.0,0.0,0.0,0.0,0.0,0.0
8888000,0.00015099629,6.855762e-05,8.9152316e-05,1.6186219e-05,0.016945247,0.0,0.0,0.03196686,0.0,0.0,1.5463429e-09,0.0,nan,nan,nan,nan,nan,nan,0.0,0.00011722042,0.0,0.0,nan,0.0,0.0,0.00024311892,0.0,0.0,0.0,0.0,0.0,0.0,0.0,0.0
9088000,0.000253647,6.749832e-05,1.7402617e-05,1.4408428e-05,0.01739369,0.0,0.0,0.031971414,0.0,0.0,1.4598042e-09,0.0,nan,nan,nan,nan,nan,nan,0.0,1.1280789e-05,0.0,0.0,nan,0.0,0.0,0.0001446819,0.0,0.0,0.0,0.0,0.0,0.0,0.0,0.0
9288000,0.00011202598,6.6851775e-05,1.098424e-06,9.81048e-06,0.017751561,0.0,0.0,0.032061882,0.0,0.0,1.3846332e-09,0.0,nan,nan,nan,nan,nan,nan,0.0,9.611814e-08,0.0,0.0,nan,0.0,0.0,0.0006968343,0.0,0.0,0.0,0.0,0.0,0.0,0.0,0.0
9488000,0.00016324721,6.619746e-05,1.1587666e-05,8.167607e-06,0.017987633,0.0,0.0,0.032209136,0.0,0.0,1.3139582e-09,0.0,nan,nan,nan,nan,nan,nan,0.0,8.436801e-05,0.0,0.0,nan,0.0,0.0,8.694878e-05,0.0,0.0,0.0,0.0,0.0,0.0,0.0,0.0
9688000,5.2853924e-05,6.5532484e-05,6.8762885e-05,4.9564574e-06,0.018090738,0.0,0.0,0.032388248,0.0,0.0,1.2474329e-09,0.0,nan,nan,nan,nan,nan,nan,0.0,5.853228e-06,0.0,0.0,nan,0.0,0.0,0.0005555266,0.0,0.0,0.0,0.0,0.0,0.0,0.0,0.0
9888000,4.913162e-05,6.445852e-05,1.2078101e-06,4.3470013e-06,0.01805354,0.0,0.0,0.03257101,0.0,0.0,1.1797326e-09,0.0,nan,nan,nan,nan,nan,nan,0.0,2.6382912e-05,0.0,0.0,nan,0.0,0.0,7.353466e-07,0.0,0.0,0.0,0.0,0.0,0.0,0.0,0.0
10088000,2.4957762e-05,6.379195e-05,4.5232737e-05,3.4093061e-06,0.017886003,0.0,0.0,0.03273803,0.0,0.0,1.1211644e-09,0.0,nan,nan,nan,nan,nan,nan,0.0,8.825291e-05,0.0,0.0,nan,0.0,0.0,0.0005496948,0.0,0.0,0.0,0.0,0.0,0.0,0.0,0.0
10288000,6.0085276e-05,6.2766296e-05,2.9990954e-06,2.830559e-06,0.017597776,0.0,0.0,0.032869387,0.0,0.0,1.0616645e-09,0.0,nan,nan,nan,nan,nan,nan,0.0,4.6346046e-05,0.0,0.0,nan,0.0,0.0,0.00019934031,0.0,0.0,0.0,0.0,0.0,0.0,0.0,0.0
10488000,8.076557e-06,6.209142e-05,3.771877e-05,7.928502e-08,0.017210085,0.0,0.0,0.032955676,0.0,0.0,1.0100419e-09,0.0,nan,nan,nan,nan,nan,nan,0.0,1.1196488e-05,0.0,0.0,nan,0.0,0.0,1.3606059e-05,0.0,0.0,0.0,0.0,0.0,0.0,0.0,0.0
10688000,8.6016635e-06,6.1423576e-05,6.7961715e-05,4.056123e-08,0.016739482,0.0,0.0,0.032987088,0.0,0.0,9.614628e-10,0.0,nan,nan,nan,nan,nan,nan,0.0,7.152685e-08,0.0,0.0,nan,0.0,0.0,0.00043123617,0.0,0.0,0.0,0.0,0.0,0.0,0.0,0.0
10888000,1.4524121e-05,6.07623e-05,5.9191952e-06,1.2811847e-07,0.016209202,0.0,0.0,0.032963254,0.0,0.0,9.157209e-10,0.0,nan,nan,nan,nan,nan,nan,0.0,5.2495114e-05,0.0,0.0,nan,0.0,0.0,3.948758e-05,0.0,0.0,0.0,0.0,0.0,0.0,0.0,0.0
11088000,1.512104e-05,6.0109272e-05,7.9415e-05,2.0424013e-06,0.015635127,0.0,0.0,0.032882273,0.0,0.0,8.725176e-10,0.0,nan,nan,nan,nan,nan,nan,0.0,2.7940914e-08,0.0,0.0,nan,0.0,0.0,8.2661085e-05,0.0,0.0,0.0,0.0,0.0,0.0,0.0,0.0
11288000,4.5931123e-05,5.9432456e-05,3.838721e-06,3.726757e-06,0.015036564,0.0,0.0,0.03274949,0.0,0.0,8.316168e-10,0.0,nan,nan,nan,nan,nan,nan,0.0,3.0596553e-07,0.0,0.0,nan,0.0,0.0,3.6750756e-05,0.0,0.0,0.0,0.0,0.0,0.0,0.0,0.0
11488000,1.9195722e-05,5.875518e-05,1.6519656e-05,8.130966e-07,0.014425659,0.0,0.0,0.032567423,0.0,0.0,7.93066e-10,0.0,nan,nan,nan,nan,nan,nan,0.0,0.00020025145,0.0,0.0,nan,0.0,0.0,0.00041246324,0.0,0.0,0.0,0.0,0.0,0.0,0.0,0.0
11688000,7.7004927e-07,5.8089758e-05,1.0416422e-06,4.0448322e-07,0.013816138,0.0,0.0,0.032343846,0.0,0.0,7.567174e-10,0.0,nan,nan,nan,nan,nan,nan,0.0,3.06492e-06,0.0,0.0,nan,0.0,0.0,0.00016129312,0.0,0.0,0.0,0.0,0.0,0.0,0.0,0.0
11888000,2.5381032e-05,5.711531e-05,1.3744838e-06,2.635618e-07,0.013215336,0.0,0.0,0.032082964,0.0,0.0,7.197261e-10,0.0,nan,nan,nan,nan,nan,nan,0.0,4.191427e-07,0.0,0.0,nan,0.0,0.0,1.53637e-06,0.0,0.0,0.0,0.0,0.0,0.0,0.0,0.0
12088000,7.468547e-05,5.64796e-05,1.8547227e-05,3.195489e-06,0.012631741,0.0,0.0,0.031792674,0.0,0.0,6.8764255e-10,0.0,nan,nan,nan,nan,nan,nan,0.0,3.326113e-08,0.0,0.0,nan,0.0,0.0,4.480633e-05,0.0,0.0,0.0,0.0,0.0,0.0,0.0,0.0
12288000,0.00012480894,5.556514e-05,1.305808e-05,1.7564247e-06,0.012068905,0.0,0.0,0.031477176,0.0,0.0,6.5494343e-10,0.0,nan,nan,nan,nan,nan,nan,0.0,5.1288454e-05,0.0,0.0,nan,0.0,0.0,1.6592254e-05,0.0,0.0,0.0,0.0,0.0,0.0,0.0,0.0
12488000,1.1761447e-05,5.4942717e-05,8.2998474e-07,4.0104783e-07,0.011531765,0.0,0.0,0.031143421,0.0,0.0,6.2654293e-10,0.0,nan,nan,nan,nan,nan,nan,0.0,3.793014e-05,0.0,0.0,nan,0.0,0.0,1.5276564e-06,0.0,0.0,0.0,0.0,0.0,0.0,0.0,0.0
12688000,0.015275246,4.8524158e-05,0.0021200445,4.6819976e-05,0.020962924,0.0,0.0,0.030787243,0.0,0.0,5.543093e-10,0.0,nan,nan,nan,nan,nan,nan,0.0,2.1690124e-05,0.0,0.25112054,nan,0.0,0.0,0.000119851175,0.0,0.0,0.0,0.0,0.0,0.023173425,0.0,0.0
12888000,0.02753521,3.8665876e-05,0.0056722616,8.95376e-05,0.03523108,0.0,0.0,0.030844942,0.0,0.0,4.616253e-10,0.0,nan,nan,nan,nan,nan,nan,0.0,5.914502e-06,0.0,0.117342345,nan,0.0,0.0,1.7078079e-05,0.0,0.0,0.0,0.0,0.0,0.06269109,0.0,0.0
13088000,0.026419677,2.9399727e-05,0.0071176244,0.00019594764,0.043291282,0.0,0.0,0.031714264,0.0,0.0,3.895636e-10,0.0,nan,nan,nan,nan,nan,nan,0.0,0.00024031641,0.0,0.0832327,nan,0.0,0.0,0.00012061096,0.0,0.0,0.0,0.0,0.0,0.09135641,0.0,0.0
13288000,0.017973136,2.5683772e-05,0.0074649076,0.00023640387,0.04405089,0.0,0.0,0.033104036,0.0,0.0,3.433796e-10,0.0,nan,nan,nan,nan,nan,nan,0.0,8.6144784e-05,0.0,0.065433316,nan,0.0,0.0,0.00025748645,0.0,0.0,0.0,0.0,0.0,0.12681246,2.0240093e-05,0.0
13488000,0.017973136,2.723351e-05,0.0074649076,0.00023640387,0.045458753,0.0,0.0,0.036198027,0.0,0.0,3.3772854e-10,0.0,nan,nan,nan,nan,nan,nan,0.0,1.727127e-05,0.0,0.05735077,nan,0.0,0.0,2.7853981e-05,0.0,0.0,0.0,0.0,0.0,0.12927553,5.4240627e-05,0.0
13688000,0.008059745,2.3865614e-05,0.0049549993,0.00044149006,0.03838369,0.0,0.0,0.03713319,0.0,0.0,3.1080788e-10,0.0,nan,nan,nan,nan,nan,nan,0.0,0.00015141681,0.0,0.049758207,nan,0.0,0.0,7.154289e-08,0.0,0.0,0.0,0.0,0.0,0.12212542,1.9067158e-05,0.0
13888000,0.0044027898,2.2403352e-05,0.0053280536,0.00062355073,0.03130817,0.0,0.0,0.03729971,0.0,0.0,2.950074e-10,0.0,nan,nan,nan,nan,nan,nan,0.0,0.000282049,0.0,0.044475075,nan,0.0,0.0,0.0013168014,0.0,0.0,0.0,0.0,0.0,0.09387991,8.302862e-06,0.0
14088000,0.0013312865,2.1749764e-05,0.0036518446,0.0009417335,0.025382781,0.0,0.0,0.036823004,0.0,0.0,2.8535072e-10,0.0,nan,nan,nan,nan,nan,nan,0.0,0.00046883387,0.0,0.040384386,nan,0.0,0.0,2.4949359e-05,0.0,0.0,0.0,0.0,0.0,0.07921628,2.3087243e-05,0.0
14288000,0.0018215207,2.1339312e-05,0.0018756172,0.0011554685,0.02079858,0.0,0.0,0.035956476,0.0,0.0,2.7939057e-10,0.0,nan,nan,nan,nan,nan,nan,0.0,0.00026923214,0.0,0.03730557,nan,0.0,0.0,0.0005749383,0.0,0.0,0.0,0.0,0.0,0.06478157,8.1988204e-05,0.0
14487999,0.0043897736,2.153324e-05,0.0012511289,0.0014053182,0.01739154,0.0,0.0,0.03487908,0.0,0.0,2.7715455e-10,0.0,nan,nan,nan,nan,nan,nan,0.0,8.706753e-05,0.0,0.034628894,nan,0.0,0.0,0.0,0.0001241604,0.0,0.0,0.0,0.0,0.051720876,0.00024240963,0.0
14688000,0.0020679524,2.1946718e-05,0.0023340255,0.001536294,0.014939364,0.0,0.0,0.033743262,0.0,0.0,2.7690464e-10,0.0,nan,nan,nan,nan,nan,nan,0.0,0.0003872885,0.0,0.032651022,nan,0.0,0.0,0.0,7.1263305e-05,0.0,0.0,0.0,0.0,0.035329897,0.00034785847,0.0
14888000,0.0028110438,2.2263954e-05,0.0008888318,0.0006759506,0.013206317,0.0,0.0,0.032636892,0.0,0.0,2.7652688e-10,0.0,nan,nan,nan,nan,nan,nan,0.0,7.133771e-05,0.0,0.030991767,nan,0.0,0.0,0.0,0.00023939795,0.0,0.0,0.0,0.0,0.031968627,0.00047302962,0.0
15095999,0.0037331823,2.2528768e-05,0.001304359,0.0040273247,0.011986017,0.0,0.0,0.031607736,0.0,0.0,2.75645e-10,0.0,nan,nan,nan,nan,nan,nan,0.0,0.0006466815,0.0,0.029480843,nan,0.0,0.0,0.0,8.8153356e-05,0.0,0.0,0.0,0.0,0.018435923,0.0007330002,0.0
15296000,0.0034977992,2.2519494e-05,0.0010211539,0.0020949936,0.011202121,0.0,0.0,0.030703496,0.0,0.0,2.7402328e-10,0.0,nan,nan,nan,nan,nan,nan,0.0,2.8044646e-05,0.0,0.028397426,nan,0.0,0.0,0.0,0.0005857446,0.0,0.0,0.0,0.0,0.013864357,0.0008783755,0.0
15496000,0.005383435,2.2214337e-05,0.00097531517,0.0023319214,0.0106852325,0.0,0.0,0.029939871,0.0,0.0,2.7178584e-10,0.0,nan,nan,nan,nan,nan,nan,0.0,0.0005241157,0.0,0.027455807,nan,0.0,0.0,0.0,0.00042746373,0.0,0.0,0.0,0.0,0.011498007,0.0009913582,0.0
15696000,0.0067311553,2.2169193e-05,0.0015312064,0.0010400374,0.010334532,0.0,0.0,0.02931959,0.0,0.0,2.6922733e-10,0.0,nan,nan,nan,nan,nan,nan,0.0,7.165451e-05,0.0,0.0264269,nan,0.0,0.0,0.0,0.000617271,0.0,0.0,0.0,0.0,0.006487101,0.0011484151,0.0
15896000,0.0064916355,2.2394144e-05,0.0009071308,0.0045786416,0.0100957025,0.0,0.0,0.028831502,0.0,0.0,2.6666952e-10,0.0,nan,nan,nan,nan,nan,nan,0.0,0.000193442,0.0,0.025580006,nan,0.0,0.0,0.0,0.0002443621,0.0,0.0,0.0,0.0,0.0092911925,0.0011769012,0.0
16096000,0.004107058,2.2393497e-05,0.0007796156,0.0024297815,0.009789434,0.0,0.0,0.028438812,0.0,0.0,2.6419555e-10,0.0,nan,nan,nan,nan,nan,nan,0.0,0.00027274762,0.0,0.024734914,nan,0.0,0.0,0.0,4.6757876e-05,0.0,0.0,0.0,0.0,0.0210014,0.0011976069,0.0
16296000,0.0044000666,2.2210457e-05,0.0006418887,0.0023471466,0.00954045,0.0,0.0,0.028086627,0.0,0.0,2.6111957e-10,0.0,nan,nan,nan,nan,nan,nan,0.0,0.00036240034,0.0,0.023805162,nan,0.0,0.0,0.0,0.00014793946,0.0,0.0,0.0,0.0,0.013819582,0.0014259762,0.0
16496000,0.003726755,2.3011155e-05,0.0010478045,0.000999222,0.009434024,0.0,0.0,0.02779965,0.0,0.0,2.578045e-10,0.0,nan,nan,nan,nan,nan,nan,0.0,0.0003175898,0.0,0.022696132,nan,0.0,0.0,0.0,0.00020860146,0.0,0.0,0.0,0.0,0.007889338,0.0012373079,0.0
16696000,0.0020360982,2.3990187e-05,0.00033424352,0.0039925976,0.009362567,0.0,0.0,0.027586777,0.0,0.0,2.5504707e-10,0.0,nan,nan,nan,nan,nan,nan,0.0,4.850266e-05,0.0,0.021668125,nan,0.0,0.0,0.0,0.00025980824,0.0,0.0,0.0,0.0,0.006445362,0.0010434305,0.0
16896000,0.0020226738,2.4949231e-05,0.0007353626,0.0020193907,0.00928351,0.0,0.0,0.027425464,0.0,0.0,2.5275268e-10,0.0,nan,nan,nan,nan,nan,nan,0.0,0.0003358694,0.0,0.02063999,nan,0.0,0.0,0.0,0.00028841582,0.0,0.0,0.0,0.0,0.0057941186,0.0009896967,0.0
17096000,0.0017801869,2.6175621e-05,0.000625881,0.0021199223,0.009203439,0.0,0.0,0.027298577,0.0,0.0,2.5069358e-10,0.0,nan,nan,nan,nan,nan,nan,0.0,0.00013272294,0.0,0.019411754,nan,0.0,0.0,0.0,0.00057356036,0.0,0.0,0.0,0.0,0.010085744,0.0008092956,0.0
17296000,0.003627313,2.7500162e-05,0.00042705296,0.0008108163,0.009119756,0.0,0.0,0.027194414,0.0,0.0,2.487405e-10,0.0,nan,nan,nan,nan,nan,nan,0.0,4.6370915e-05,0.0,0.018391192,nan,0.0,0.0,0.0,0.00058974675,0.0,0.0,0.0,0.0,0.00881624,0.0006396054,0.0
17496000,0.0017492095,2.8767488e-05,0.00024245237,0.0037191836,0.00903334,0.0,0.0,0.027106417,0.0,0.0,2.468394e-10,0.0,nan,nan,nan,nan,nan,nan,0.0,0.00048032546,0.0,0.017340291,nan,0.0,0.0,0.0,0.0006220476,0.0,0.0,0.0,0.0,0.009860382,0.0005195792,0.0
17696000,0.0020757508,3.0102561e-05,0.00010744373,0.0018475326,0.008943325,0.0,0.0,0.027028847,0.0,0.0,2.4493588e-10,0.0,nan,nan,nan,nan,nan,nan,0.0,0.0003780637,0.0,0.016304683,nan,0.0,0.0,0.0,0.00031997793,0.0,0.0,0.0,0.0,0.011467765,0.00032522494,0.0
17896000,0.0016831189,3.1474236e-05,0.00016522712,0.0016325972,0.008849202,0.0,0.0,0.02695886,0.0,0.0,2.4304472e-10,0.0,nan,nan,nan,nan,nan,nan,0.0,0.00040172978,0.0,0.01537937,nan,0.0,0.0,0.0,0.00046250466,0.0,0.0,0.0,0.0,0.010913917,0.00023311596,0.0
18096000,0.0013413106,3.2813994e-05,0.00012754837,0.0005761066,0.008750784,0.0,0.0,0.026892943,0.0,0.0,2.4116364e-10,0.0,nan,nan,nan,nan,nan,nan,0.0,8.083125e-05,0.0,0.014560366,nan,0.0,0.0,0.0,0.0004775005,0.0,0.0,0.0,0.0,0.013062936,0.00016131178,0.0
18296000,0.0020949468,3.415581e-05,0.00024156166,0.003133327,0.008648535,0.0,0.0,0.026829492,0.0,0.0,2.393341e-10,0.0,nan,nan,nan,nan,nan,nan,0.0,3.5573987e-05,0.0,0.013698429,nan,0.0,0.0,0.0,0.00011060727,0.0,0.0,0.0,0.0,0.00926781,6.528518e-05,0.0
18496000,0.0016061891,3.5523306e-05,0.000443358,0.0015333095,0.008542254,0.0,0.0,0.02676577,0.0,0.0,2.3756655e-10,0.0,nan,nan,nan,nan,nan,nan,0.0,8.336921e-05,0.0,0.013004568,nan,0.0,0.0,0.0,8.943456e-05,0.0,0.0,0.0,0.0,0.009871273,3.376401e-05,0.0
18696000,0.0022395814,3.68982e-05,0.00020868552,0.0013344743,0.008434285,0.0,0.0,0.02670089,0.0,0.0,2.359048e-10,0.0,nan,nan,nan,nan,nan,nan,0.0,5.3463864e-05,0.0,0.01233433,nan,0.0,0.0,0.0,0.0001087273,0.0,0.0,0.0,0.0,0.008521046,1.3698115e-05,0.0
18896000,0.0022459836,3.827066e-05,2.372105e-07,0.00044789634,0.008324602,0.0,0.0,0.026632987,0.0,0.0,2.343578e-10,0.0,nan,nan,nan,nan,nan,nan,0.0,0.00010295582,0.0,0.0117038125,nan,0.0,0.0,0.0,0.0003554417,0.0,0.0,0.0,0.0,0.008075959,6.2340064e-08,0.0
19096000,0.0021381427,3.9689166e-05,2.7136824e-05,0.0028511824,0.008215515,0.0,0.0,0.026561918,0.0,0.0,2.3295277e-10,0.0,nan,nan,nan,nan,nan,nan,0.0,7.37273e-05,0.0,0.0111401845,nan,0.0,0.0,0.0,6.740609e-05,0.0,0.0,0.0,0.0,0.009872869,4.6911687e-06,0.0
19296000,0.0018223338,4.111638e-05,3.8733015e-05,0.0012217277,0.008108004,0.0,0.0,0.026486646,0.0,0.0,2.3169028e-10,0.0,nan,nan,nan,nan,nan,nan,0.0,0.00023323581,0.0,0.01064762,nan,0.0,0.0,0.0,0.00068458315,0.0,0.0,0.0,0.0,0.007499778,1.4349699e-05,0.0
19496000,0.0017132579,4.2350446e-05,1.8526354e-05,0.0013062992,0.008004115,0.0,0.0,0.026407784,0.0,0.0,2.2920027e-10,0.0,nan,nan,nan,nan,nan,nan,0.0,4.153106e-06,0.0,0.010140779,nan,0.0,0.0,0.0,0.00026588707,0.0,0.0,0.0,0.0,0.0072471066,4.6757672e-05,0.0
19696000,0.0017039938,4.3422628e-05,0.00011195989,0.00041752082,0.00790452,0.0,0.0,0.026325138,0.0,0.0,2.2580426e-10,0.0,nan,nan,nan,nan,nan,nan,0.0,4.417622e-06,0.0,0.009726262,nan,0.0,0.0,0.0,0.00016190897,0.0,0.0,0.0,0.0,0.008933847,6.676481e-05,0.0
19896000,0.0021628672,4.4569653e-05,1.1776652e-05,0.0026396075,0.007811011,0.0,0.0,0.026240133,0.0,0.0,2.2286262e-10,0.0,nan,nan,nan,nan,nan,nan,0.0,1.075847e-06,0.0,0.0093244845,nan,0.0,0.0,0.0,0.00030035377,0.0,0.0,0.0,0.0,0.009295917,8.5889355e-05,0.0
20096000,0.0025989779,4.5712353e-05,2.8549835e-05,0.0010893113,0.0077235103,0.0,0.0,0.026152989,0.0,0.0,2.199814e-10,0.0,nan,nan,nan,nan,nan,nan,0.0,9.527758e-05,0.0,0.008970925,nan,0.0,0.0,0.0,0.00045692263,0.0,0.0,0.0,0.0,0.007816616,0.00010897045,0.0
20296000,0.002721058,4.6915673e-05,5.4548427e-06,0.0010506972,0.007643309,0.0,0.0,0.026065214,0.0,0.0,2.1746527e-10,0.0,nan,nan,nan,nan,nan,nan,0.0,4.8860842e-05,0.0,0.008606736,nan,0.0,0.0,0.0,0.0005106087,0.0,0.0,0.0,0.0,0.008910911,0.0001610449,0.0
20496000,0.0030887867,4.8161088e-05,1.9679372e-05,0.00036019552,0.0075698793,0.0,0.0,0.025977332,0.0,0.0,2.151017e-10,0.0,nan,nan,nan,nan,nan,nan,0.0,0.00010064026,0.0,0.008304642,nan,0.0,0.0,0.0,0.0007077434,0.0,0.0,0.0,0.0,0.007067235,0.00017969258,0.0
20696000,0.0024883107,4.940162e-05,8.952543e-05,0.0022502593,0.0075037726,0.0,0.0,0.025890877,0.0,0.0,2.1272843e-10,0.0,nan,nan,nan,nan,nan,nan,0.0,0.00010316034,0.0,0.008009516,nan,0.0,0.0,0.0,0.00099771,0.0,0.0,0.0,0.0,0.005234433,0.00020624086,0.0
20896000,0.0022115067,5.0707153e-05,1.8430377e-06,0.00092229387,0.007443882,0.0,0.0,0.025806254,0.0,0.0,2.1061708e-10,0.0,nan,nan,nan,nan,nan,nan,0.0,1.2192771e-06,0.0,0.007730036,nan,0.0,0.0,0.0,1.16021065e-05,0.0,0.0,0.0,0.0,0.005604702,0.00025475805,0.0
21096000,0.0020889915,5.200698e-05,0.00030564202,0.00086552755,0.007390562,0.0,0.0,0.025724769,0.0,0.0,2.084489e-10,0.0,nan,nan,nan,nan,nan,nan,0.0,3.9039023e-05,0.0,0.007474148,nan,0.0,0.0,0.0,0.0014639996,0.0,0.0,0.0,0.0,0.005730167,0.0002690646,0.0
21296000,0.0015285331,5.3366366e-05,0.00018272553,0.00041268527,0.00734328,0.0,0.0,0.025646469,0.0,0.0,2.0649385e-10,0.0,nan,nan,nan,nan,nan,nan,0.0,2.048861e-05,0.0,0.007245447,nan,0.0,0.0,0.0,0.00025980303,0.0,0.0,0.0,0.0,0.0044360175,0.00028923491,0.0
21496000,0.0028550946,5.471518e-05,1.2170646e-05,0.0020460105,0.0073020845,0.0,0.0,0.02557232,0.0,0.0,2.044494e-10,0.0,nan,nan,nan,nan,nan,nan,0.0,1.9969093e-05,0.0,0.0070060077,nan,0.0,0.0,0.0,0.00020394947,0.0,0.0,0.0,0.0,0.005938718,0.00033165212,0.0
21696000,0.0024818175,5.6113007e-05,0.00014297516,0.000670712,0.0072659673,0.0,0.0,0.025502222,0.0,0.0,2.0257464e-10,0.0,nan,nan,nan,nan,nan,nan,0.0,2.9650258e-07,0.0,0.0068050763,nan,0.0,0.0,0.0,0.00030471358,0.0,0.0,0.0,0.0,0.007608939,0.00034400346,0.0
21896000,0.0029515808,5.7530804e-05,2.2072904e-08,0.0006694872,0.007234607,0.0,0.0,0.025436912,0.0,0.0,2.0072263e-10,0.0,nan,nan,nan,nan,nan,nan,0.0,9.4051604e-05,0.0,0.006607044,nan,0.0,0.0,0.0,0.00040261185,0.0,0.0,0.0,0.0,0.008043102,0.00036494993,0.0
22096000,0.0013791587,5.893572e-05,7.956072e-05,0.00043100945,0.0072069163,0.0,0.0,0.025375996,0.0,0.0,1.9873626e-10,0.0,nan,nan,nan,nan,nan,nan,0.0,2.2985218e-05,0.0,0.0064179297,nan,0.0,0.0,0.0,0.00026105932,0.0,0.0,0.0,0.0,0.006136319,0.00040106935,0.0
22296000,0.0027855535,6.038037e-05,2.3431436e-05,0.0018371654,0.00718327,0.0,0.0,0.02532,0.0,0.0,1.9689575e-10,0.0,nan,nan,nan,nan,nan,nan,0.0,3.850009e-06,0.0,0.00624168,nan,0.0,0.0,0.0,9.979454e-05,0.0,0.0,0.0,0.0,0.0034368427,0.00040897977,0.0
22496000,0.0031894497,6.179285e-05,6.7108176e-06,0.0006099755,0.0071625244,0.0,0.0,0.025268365,0.0,0.0,1.9492222e-10,0.0,nan,nan,nan,nan,nan,nan,0.0,7.2319017e-06,0.0,0.0060829604,nan,0.0,0.0,0.0,0.00073845685,0.0,0.0,0.0,0.0,0.007015812,0.00042631337,0.0
22696000,0.0029978505,6.324699e-05,4.1049198e-06,0.0006043112,0.007144359,0.0,0.0,0.025221435,0.0,0.0,1.9307866e-10,0.0,nan,nan,nan,nan,nan,nan,0.0,3.8143728e-06,0.0,0.0059159016,nan,0.0,0.0,0.0,2.5910338e-05,0.0,0.0,0.0,0.0,0.004497445,0.00045638188,0.0
22896000,0.0022055253,6.465091e-05,0.00011917107,0.0003582885,0.0071278904,0.0,0.0,0.025178483,0.0,0.0,1.9108534e-10,0.0,nan,nan,nan,nan,nan,nan,0.0,3.526285e-05,0.0,0.005773662,nan,0.0,0.0,0.0,0.00043674058,0.0,0.0,0.0,0.0,0.0042388565,0.00046356532,0.0
23096000,0.0032317962,6.608267e-05,0.00030188874,0.0016092502,0.0071143103,0.0,0.0,0.025139764,0.0,0.0,1.8920544e-10,0.0,nan,nan,nan,nan,nan,nan,0.0,1.5881979e-07,0.0,0.0056314464,nan,0.0,0.0,0.0,0.00046938853,0.0,0.0,0.0,0.0,0.002643975,0.00047426941,0.0
23296000,0.0019548468,6.7516004e-05,0.00049642386,0.00056229974,0.0071022534,0.0,0.0,0.025104536,0.0,0.0,1.8730925e-10,0.0,nan,nan,nan,nan,nan,nan,0.0,1.1880252e-05,0.0,0.005494841,nan,0.0,0.0,0.0,0.00015334411,0.0,0.0,0.0,0.0,0.0030951288,0.0004937622,0.0
23496000,0.0017570696,6.8899426e-05,0.00016139394,0.00062883506,0.007092234,0.0,0.0,0.025073037,0.0,0.0,1.8527091e-10,0.0,nan,nan,nan,nan,nan,nan,0.0,3.102744e-05,0.0,0.0053664315,nan,0.0,0.0,0.0,0.00017824676,0.0,0.0,0.0,0.0,0.0039127776,0.0004999429,0.0
23696000,0.0015379137,7.029331e-05,0.00020556699,0.00034860938,0.007083786,0.0,0.0,0.025044646,0.0,0.0,1.8335093e-10,0.0,nan,nan,nan,nan,nan,nan,0.0,1.0201137e-06,0.0,0.0052501555,nan,0.0,0.0,0.0,0.00025770458,0.0,0.0,0.0,0.0,0.0041757952,0.0005073775,0.0
23896000,0.0019462571,7.166039e-05,7.2922194e-05,0.0016523562,0.007076051,0.0,0.0,0.025019519,0.0,0.0,1.812893e-10,0.0,nan,nan,nan,nan,nan,nan,0.0,2.0574555e-05,0.0,0.0051334347,nan,0.0,0.0,0.0,0.0010660236,0.0,0.0,0.0,0.0,0.0034369226,0.0005161056,0.0
24096000,0.0019462571,7.3133684e-05,7.2922194e-05,0.0016523562,0.00716386,0.0,0.0,0.025186334,0.0,0.0,1.7979485e-10,0.0,nan,nan,nan,nan,nan,nan,0.0,1.20906425e-05,0.0,0.005057207,nan,0.0,0.0,0.0,0.00024165153,0.0,0.0,0.0,0.0,0.0046951515,0.00053695147,0.0
24296000,0.0015484081,7.456894e-05,1.0995583e-05,0.0005396241,0.00718944,0.0,0.0,0.025168663,0.0,0.0,1.7791628e-10,0.0,nan,nan,nan,nan,nan,nan,0.0,9.217644e-06,0.0,0.0049505616,nan,0.0,0.0,0.0,0.0004695842,0.0,0.0,0.0,0.0,0.01186275,0.00057339855,0.0
24496000,0.0013761105,7.603994e-05,0.00036681755,0.00058403803,0.0072357794,0.0,0.0,0.02515879,0.0,0.0,1.7613241e-10,0.0,nan,nan,nan,nan,nan,nan,0.0,7.307563e-07,0.0,0.004853455,nan,0.0,0.0,0.0,0.0002906834,0.0,0.0,0.0,0.0,0.0075607514,0.0006307157,0.0
24696000,0.00041898314,7.762292e-05,4.7785317e-05,0.00026165706,0.0072949375,0.0,0.0,0.025157316,0.0,0.0,1.7465494e-10,0.0,nan,nan,nan,nan,nan,nan,0.0,1.5979043e-05,0.0,0.004748182,nan,0.0,0.0,0.0,2.4148703e-05,0.0,0.0,0.0,0.0,0.004712532,0.00069915893,0.0
24896000,0.00019674719,7.92279e-05,5.754528e-06,0.0014347977,0.007373023,0.0,0.0,0.025166238,0.0,0.0,1.7318498e-10,0.0,nan,nan,nan,nan,nan,nan,0.0,4.4629676e-05,0.0,0.0046554697,nan,0.0,0.0,0.0,0.00037222766,0.0,0.0,0.0,0.0,0.0074774697,0.0007233588,0.0
25096000,8.757198e-06,8.096349e-05,2.8871389e-05,0.00056462747,0.007465114,0.0,0.0,0.02518631,0.0,0.0,1.7193891e-10,0.0,nan,nan,nan,nan,nan,nan,0.0,8.603433e-05,0.0,0.0045598485,nan,0.0,0.0,0.0,0.0007193138,0.0,0.0,0.0,0.0,0.0044803643,0.00075536786,0.0
25296000,0.00018961704,8.276701e-05,6.453122e-05,0.0005518603,0.0075648664,0.0,0.0,0.025218656,0.0,0.0,1.707817e-10,0.0,nan,nan,nan,nan,nan,nan,0.0,3.2983903e-06,0.0,0.0044633183,nan,0.0,0.0,0.0,0.00017255417,0.0,0.0,0.0,0.0,0.0037966305,0.00079536036,0.0
25496000,0.00034568936,8.455743e-05,1.5403946e-05,9.1420836e-05,0.007664844,0.0,0.0,0.025262412,0.0,0.0,1.6961474e-10,0.0,nan,nan,nan,nan,nan,nan,0.0,1.5736341e-05,0.0,0.0043690917,nan,0.0,0.0,0.0,7.5022435e-05,0.0,0.0,0.0,0.0,0.0027285253,0.0008026664,0.0
25696000,0.00015146428,8.643741e-05,3.9929814e-06,0.0013393367,0.007766802,0.0,0.0,0.025317391,0.0,0.0,1.686117e-10,0.0,nan,nan,nan,nan,nan,nan,0.0,1.4148034e-06,0.0,0.0042801336,nan,0.0,0.0,0.0,0.00031318833,0.0,0.0,0.0,0.0,0.0021285806,0.0008232642,0.0
25896000,0.0010239467,8.831366e-05,3.381021e-05,0.00041725265,0.007862468,0.0,0.0,0.025381524,0.0,0.0,1.6758844e-10,0.0,nan,nan,nan,nan,nan,nan,0.0,5.853445e-05,0.0,0.004181911,nan,0.0,0.0,0.0,4.0922383e-05,0.0,0.0,0.0,0.0,0.0018914633,0.0008490555,0.0
26096000,0.0002404765,9.022459e-05,8.349665e-05,0.00047257432,0.007952813,0.0,0.0,0.025453737,0.0,0.0,1.6668911e-10,0.0,nan,nan,nan,nan,nan,nan,0.0,4.4789173e-05,0.0,0.0040951185,nan,0.0,0.0,0.0,3.3713008e-05,0.0,0.0,0.0,0.0,0.0024916388,0.00085861847,0.0
26296000,0.0011291899,9.211203e-05,5.1365838e-05,9.051886e-05,0.00803398,0.0,0.0,0.025531197,0.0,0.0,1.657483e-10,0.0,nan,nan,nan,nan,nan,nan,0.0,4.8527756e-05,0.0,0.004004963,nan,0.0,0.0,0.0,0.00036611795,0.0,0.0,0.0,0.0,0.0011741499,0.00085907447,0.0
26496000,0.0010686889,9.4021096e-05,5.8364885e-06,0.0013205666,0.008102357,0.0,0.0,0.025612105,0.0,0.0,1.6489861e-10,0.0,nan,nan,nan,nan,nan,nan,0.0,2.9023347e-05,0.0,0.003920369,nan,0.0,0.0,0.0,9.72013e-05,0.0,0.0,0.0,0.0,0.0001570078,0.0008642644,0.0
26696000,0.0008649446,9.594188e-05,1.6439335e-05,0.0004833924,0.008160976,0.0,0.0,0.025693292,0.0,0.0,1.6405777e-10,0.0,nan,nan,nan,nan,nan,nan,0.0,5.7833773e-09,0.0,0.003924914,nan,0.0,0.0,0.0,0.00042549646,0.0,0.0,0.0,0.0,0.0011417058,0.0008642804,0.0
26896000,0.00049350795,9.776574e-05,1.930361e-05,0.00053357624,0.008206848,0.0,0.0,0.025773276,0.0,0.0,1.631469e-10,0.0,nan,nan,nan,nan,nan,nan,0.0,7.313012e-06,0.0,0.003930862,nan,0.0,0.0,0.0,0.0002724787,0.0,0.0,0.0,0.0,0.000441928,0.0008675767,0.0
27096000,0.0011482867,9.9605306e-05,5.673105e-07,0.00012370742,0.008242827,0.0,0.0,0.025849294,0.0,0.0,1.6229915e-10,0.0,nan,nan,nan,nan,nan,nan,0.0,6.4669134e-06,0.0,0.00392618,nan,0.0,0.0,0.0,3.857026e-06,0.0,0.0,0.0,0.0,0.00051528076,0.0008695735,0.0
27296000,0.0005723012,0.000101359576,3.6338053e-05,0.001389326,0.008263395,0.0,0.0,0.025920007,0.0,0.0,1.6136789e-10,0.0,nan,nan,nan,nan,nan,nan,0.0,5.5087924e-07,0.0,0.0039273947,nan,0.0,0.0,0.0,0.00055010186,0.0,0.0,0.0,0.0,0.00011134604,0.0008733717,0.0
27496000,0.00039671565,0.00010312388,0.00010454912,0.000570297,0.008274069,0.0,0.0,0.02598317,0.0,0.0,1.6048907e-10,0.0,nan,nan,nan,nan,nan,nan,0.0,2.9316347e-05,0.0,0.003922463,nan,0.0,0.0,0.0,0.00013713191,0.0,0.0,0.0,0.0,0.0002990032,0.0008745266,0.0
27696000,0.00018026895,0.00010476351,9.6764496e-05,0.00054966623,0.008274231,0.0,0.0,0.026038354,0.0,0.0,1.5950864e-10,0.0,nan,nan,nan,nan,nan,nan,0.0,2.1496012e-06,0.0,0.0039209384,nan,0.0,0.0,0.0,0.0002681318,0.0,0.0,0.0,0.0,0.00019344043,0.000875563,0.0
27896000,2.3763874e-05,0.000106378815,7.118975e-05,0.00013841277,0.008265963,0.0,0.0,0.026084194,0.0,0.0,1.5857153e-10,0.0,nan,nan,nan,nan,nan,nan,0.0,0.0001299051,0.0,0.003912036,nan,0.0,0.0,0.0,3.5707482e-05,0.0,0.0,0.0,0.0,0.00012384396,0.0008758276,0.0
28096000,0.00010556458,0.000107880915,4.3146856e-06,0.0013713979,0.008252607,0.0,0.0,0.026121207,0.0,0.0,1.57521e-10,0.0,nan,nan,nan,nan,nan,nan,0.0,1.33901685e-05,0.0,0.003909064,nan,0.0,0.0,0.0,5.7249494e-05,0.0,0.0,0.0,0.0,0.00048887165,0.0008739687,0.0
28296000,8.4136685e-05,0.00010933382,2.9672805e-07,0.00048828666,0.008232338,0.0,0.0,0.026149016,0.0,0.0,1.5651085e-10,0.0,nan,nan,nan,nan,nan,nan,0.0,1.6539203e-05,0.0,0.0039013808,nan,0.0,0.0,0.0,0.00047462177,0.0,0.0,0.0,0.0,2.7680482e-05,0.0008739833,0.0
28496000,0.00013359544,0.00011068075,0.00013194555,0.00054434134,0.008206307,0.0,0.0,0.026168214,0.0,0.0,1.553736e-10,0.0,nan,nan,nan,nan,nan,nan,0.0,6.76993e-05,0.0,0.0038966108,nan,0.0,0.0,0.0,0.0001480764,0.0,0.0,0.0,0.0,3.265952e-05,0.0008734315,0.0
28696000,4.379258e-06,0.00011200994,0.00011404721,0.00012340843,0.008178052,0.0,0.0,0.02617871,0.0,0.0,1.5426893e-10,0.0,nan,nan,nan,nan,nan,nan,0.0,4.3922487e-06,0.0,0.003888878,nan,0.0,0.0,0.0,5.369384e-05,0.0,0.0,0.0,0.0,0.00071951083,0.0008683068,0.0
28896000,1.5365596e-05,0.00011318232,0.00028061742,0.0013817496,0.008149408,0.0,0.0,0.026182244,0.0,0.0,1.5303585e-10,0.0,nan,nan,nan,nan,nan,nan,0.0,4.6247355e-06,0.0,0.0038848259,nan,0.0,0.0,0.0,3.1851327e-05,0.0,0.0,0.0,0.0,0.0002585924,0.00086018693,0.0
29096000,0.00010213085,0.00011438129,5.6073573e-06,0.00058767374,0.008118635,0.0,0.0,0.02617893,0.0,0.0,1.5184072e-10,0.0,nan,nan,nan,nan,nan,nan,0.0,3.4994412e-06,0.0,0.0038758887,nan,0.0,0.0,0.0,0.00057756086,0.0,0.0,0.0,0.0,6.076032e-05,0.0008627306,0.0
29296000,0.00028467382,0.00011547518,0.0001388678,0.0005717008,0.0080886185,0.0,0.0,0.026170302,0.0,0.0,1.5060021e-10,0.0,nan,nan,nan,nan,nan,nan,0.0,1.1140594e-06,0.0,0.0038716192,nan,0.0,0.0,0.0,0.00016917638,0.0,0.0,0.0,0.0,0.0005890591,0.0008610601,0.0
29496000,0.00021171973,0.00011645296,5.8328143e-05,0.00013179515,0.008059929,0.0,0.0,0.026156701,0.0,0.0,1.4922548e-10,0.0,nan,nan,nan,nan,nan,nan,0.0,1.9212275e-05,0.0,0.0038634548,nan,0.0,0.0,0.0,0.0007529038,0.0,0.0,0.0,0.0,0.0004637265,0.00085997133,0.0
29696000,0.00041333764,0.00011744906,0.00020899437,0.0015180572,0.008033611,0.0,0.0,0.026140045,0.0,0.0,1.4790931e-10,0.0,nan,nan,nan,nan,nan,nan,0.0,3.8128066e-05,0.0,0.0038579013,nan,0.0,0.0,0.0,0.00016358164,0.0,0.0,0.0,0.0,1.4643781e-05,0.00086118374,0.0
29896000,0.0005879786,0.000118331474,3.4171342e-05,0.0006169239,0.008008094,0.0,0.0,0.026120419,0.0,0.0,1.4646619e-10,0.0,nan,nan,nan,nan,nan,nan,0.0,2.5189684e-07,0.0,0.0038492067,nan,0.0,0.0,0.0,0.0012866426,0.0,0.0,0.0,0.0,0.00025760703,0.0008607655,0.0
30096000,0.00025831838,0.00011921594,0.00011904882,0.0013965083,0.0079803215,0.0,0.0,0.026099222,0.0,0.0,1.4508975e-10,0.0,nan,nan,nan,nan,nan,nan,0.0,6.2669583e-06,0.0,0.0038437487,nan,0.0,0.0,0.0,0.0002680221,0.0,0.0,0.0,0.0,0.0023998744,0.0008547844,0.0
30296000,0.00087227445,0.00011958747,4.8997466e-05,0.00011302348,0.007841862,0.0,0.0,0.02606167,0.0,0.0,1.4330086e-10,0.0,nan,nan,nan,nan,nan,nan,0.0,1.5878295e-05,0.0,0.0038337484,nan,0.0,0.0,0.0,0.00019295172,0.0,0.0,0.0,0.0,0.014856033,0.00074949465,0.0
30496000,0.003049545,0.00011903153,2.6887737e-05,0.00067049614,0.007755751,0.0,0.0,0.025987573,0.0,0.0,1.4039443e-10,0.0,nan,nan,nan,nan,nan,nan,0.0,7.8892384e-07,0.0,0.0038266599,nan,0.0,0.0,0.0,4.518159e-05,0.0,0.0,0.0,0.0,0.006171123,0.00067322596,0.0
30695999,0.004459709,0.0001169393,1.1551818e-06,0.0007070576,0.0077695595,0.0,0.0,0.025893087,0.0,0.0,1.3592821e-10,0.0,nan,nan,nan,nan,nan,nan,0.0,1.6634563e-06,0.0,0.0038199753,nan,0.0,0.0,0.0,0.0002794195,0.0,0.0,0.0,0.0,0.0025208797,0.0006413624,0.0
30896000,0.007880231,0.000113346716,6.462959e-05,0.0007464583,0.007813744,0.0,0.0,0.025805902,0.0,0.0,1.3053415e-10,0.0,nan,nan,nan,nan,nan,nan,0.0,4.810163e-06,0.0,0.0038120092,nan,0.0,0.0,0.0,0.001126613,0.0,0.0,0.0,0.0,1.5928936e-06,0.00057144027,0.0
31103999,0.008681927,0.000109391,3.8971984e-06,0.00016714017,0.007855184,0.0,0.0,0.025745664,0.0,0.0,1.2509402e-10,0.0,nan,nan,nan,nan,nan,nan,0.0,7.866068e-06,0.0,0.0038096544,nan,0.0,0.0,0.0,0.00026711263,0.0,0.0,0.0,0.0,0.0006378991,0.0005318344,0.0
31304000,0.008315333,0.000106014566,4.4307297e-05,0.0020078018,0.007875665,0.0,0.0,0.025702402,0.0,0.0,1.202418e-10,0.0,nan,nan,nan,nan,nan,nan,0.0,3.3334425e-05,0.0,0.0038084113,nan,0.0,0.0,0.0,0.0004290502,0.0,0.0,0.0,0.0,0.0005549624,0.0005200954,0.0
31503999,0.006439228,0.000102912745,2.1372505e-06,0.00021796532,0.007887457,0.0,0.0,0.025676325,0.0,0.0,1.1569789e-10,0.0,nan,nan,nan,nan,nan,nan,0.0,0.0001946977,0.0,0.0038124986,nan,0.0,0.0,0.0,0.00023026363,0.0,0.0,0.0,0.0,5.050698e-05,0.00051993475,0.0
31704000,0.006955813,0.00010034786,3.4992907e-05,0.0019104034,0.0078985775,0.0,0.0,0.025663044,0.0,0.0,1.118253e-10,0.0,nan,nan,nan,nan,nan,nan,0.0,1.6491773e-05,0.0,0.0038173706,nan,0.0,0.0,0.0,0.0013005709,0.0,0.0,0.0,0.0,0.0002669251,0.00051221723,0.0
31904000,0.006414885,9.7942066e-05,5.6457822e-05,0.00081830064,0.007908922,0.0,0.0,0.02565796,0.0,0.0,1.08132774e-10,0.0,nan,nan,nan,nan,nan,nan,0.0,9.552715e-05,0.0,0.003827362,nan,0.0,0.0,0.0,0.0008957252,0.0,0.0,0.0,0.0,4.215857e-06,0.0004905397,0.0
32104000,0.0056042485,9.612231e-05,0.00038493163,0.0007994572,0.007920964,0.0,0.0,0.025659446,0.0,0.0,1.04967e-10,0.0,nan,nan,nan,nan,nan,nan,0.0,5.509154e-07,0.0,0.0038376371,nan,0.0,0.0,0.0,0.00019376549,0.0,0.0,0.0,0.0,0.00030385182,0.00048091033,0.0
32304000,0.0047792993,9.4580995e-05,0.0006066908,0.00087582413,0.007933531,0.0,0.0,0.025665255,0.0,0.0,1.0208003e-10,0.0,nan,nan,nan,nan,nan,nan,0.0,3.5548123e-07,0.0,0.0038523115,nan,0.0,0.0,0.0,0.0013381017,0.0,0.0,0.0,0.0,0.000113999864,0.00046702346,0.0
32504000,0.0038521695,9.308772e-05,0.00022423851,0.0008756206,0.007945434,0.0,0.0,0.025674913,0.0,0.0,9.9242246e-11,0.0,nan,nan,nan,nan,nan,nan,0.0,6.337398e-05,0.0,0.0038674052,nan,0.0,0.0,0.0,0.0009949475,0.0,0.0,0.0,0.0,3.38735e-06,0.00045222355,0.0
32704000,0.004108676,9.200891e-05,0.000109624256,0.00038762775,0.00795682,0.0,0.0,0.025687201,0.0,0.0,9.679921e-11,0.0,nan,nan,nan,nan,nan,nan,0.0,1.0733308e-05,0.0,0.0038869549,nan,0.0,0.0,0.0,0.0004087328,0.0,0.0,0.0,0.0,1.0074724e-05,0.00043926056,0.0
32904000,0.0031170025,9.093172e-05,0.0005191991,0.0021767183,0.007966056,0.0,0.0,0.025701985,0.0,0.0,9.436328e-11,0.0,nan,nan,nan,nan,nan,nan,0.0,1.069344e-05,0.0,0.0039058216,nan,0.0,0.0,0.0,0.0010955206,0.0,0.0,0.0,0.0,0.00023712948,0.00042821816,0.0
33104000,0.0024207174,9.01635e-05,0.00010088411,0.00036378505,0.0079729175,0.0,0.0,0.02571805,0.0,0.0,9.224455e-11,0.0,nan,nan,nan,nan,nan,nan,0.0,1.27754e-05,0.0,0.0039293235,nan,0.0,0.0,0.0,0.000111521425,0.0,0.0,0.0,0.0,0.00012176001,0.00041721584,0.0
33304000,0.0021266923,8.937299e-05,0.00027084313,0.0023659386,0.007977013,0.0,0.0,0.025735265,0.0,0.0,9.009761e-11,0.0,nan,nan,nan,nan,nan,nan,0.0,1.7647546e-05,0.0,0.003952364,nan,0.0,0.0,0.0,0.000407457,0.0,0.0,0.0,0.0,0.00020618865,0.00041603757,0.0
33504000,0.0011633754,8.884495e-05,0.0002900251,0.0010872406,0.007978655,0.0,0.0,0.0257525,0.0,0.0,8.821402e-11,0.0,nan,nan,nan,nan,nan,nan,0.0,0.00017037742,0.0,0.003978907,nan,0.0,0.0,0.0,0.0001298954,0.0,0.0,0.0,0.0,0.0007682922,0.0004036976,0.0
33704000,0.0015975214,8.825634e-05,0.0007065501,0.0011041887,0.007977982,0.0,0.0,0.025769725,0.0,0.0,8.6273974e-11,0.0,nan,nan,nan,nan,nan,nan,0.0,0.00013425027,0.0,0.0040047895,nan,0.0,0.0,0.0,4.0127466e-05,0.0,0.0,0.0,0.0,0.0016555846,0.00039868415,0.0
33904000,0.0013266351,8.785289e-05,2.0234282e-05,0.0011946396,0.007974141,0.0,0.0,0.02578588,0.0,0.0,8.454254e-11,0.0,nan,nan,nan,nan,nan,nan,0.0,2.5590329e-05,0.0,0.0040344913,nan,0.0,0.0,0.0,0.00082528644,0.0,0.0,0.0,0.0,1.0834603e-06,0.00038977247,0.0
34104000,0.0011702948,8.732895e-05,0.00014466525,0.0011001594,0.007967987,0.0,0.0,0.025800975,0.0,0.0,8.273477e-11,0.0,nan,nan,nan,nan,nan,nan,0.0,0.00013822567,0.0,0.0040621753,nan,0.0,0.0,0.0,0.00020097525,0.0,0.0,0.0,0.0,0.00015270701,0.00036891538,0.0
34304000,0.00082484435,8.697626e-05,0.00011832207,0.00041282125,0.007958796,0.0,0.0,0.025814086,0.0,0.0,8.110145e-11,0.0,nan,nan,nan,nan,nan,nan,0.0,4.3417963e-06,0.0,0.004094116,nan,0.0,0.0,0.0,0.0005623317,0.0,0.0,0.0,0.0,0.00011916717,0.00036238533,0.0
34504000,0.0007891673,8.653435e-05,0.00022058148,0.0026418213,0.0079468945,0.0,0.0,0.025825318,0.0,0.0,7.939132e-11,0.0,nan,nan,nan,nan,nan,nan,0.0,0.00036040883,0.0,0.004124001,nan,0.0,0.0,0.0,0.0003382053,0.0,0.0,0.0,0.0,1.6343582e-05,0.00035377615,0.0
34704000,0.0007891673,8.666475e-05,0.00022058148,0.0026418213,0.008049149,0.0,0.0,0.026060192,0.0,0.0,7.816014e-11,0.0,nan,nan,nan,nan,nan,nan,0.0,2.017879e-06,0.0,0.0041706464,nan,0.0,0.0,0.0,0.00022460606,0.0,0.0,0.0,0.0,7.739629e-05,0.00034762832,0.0
34904000,0.0013630738,8.623024e-05,0.0007966759,0.00050009927,0.008031516,0.0,0.0,0.026065383,0.0,0.0,7.655909e-11,0.0,nan,nan,nan,nan,nan,nan,0.0,9.671019e-05,0.0,0.0042020283,nan,0.0,0.0,0.0,0.0005831222,0.0,0.0,0.0,0.0,0.0006205778,0.00034007608,0.0
35104000,0.0027751077,8.59257e-05,8.2359016e-05,0.0029840346,0.00801169,0.0,0.0,0.026067866,0.0,0.0,7.5089684e-11,0.0,nan,nan,nan,nan,nan,nan,0.0,1.1420594e-05,0.0,0.0042368993,nan,0.0,0.0,0.0,0.0003964776,0.0,0.0,0.0,0.0,4.4147e-05,0.0003269283,0.0
35304000,0.0019506424,8.5467924e-05,0.0001257249,0.0014735197,0.007989867,0.0,0.0,0.026066842,0.0,0.0,7.3547994e-11,0.0,nan,nan,nan,nan,nan,nan,0.0,5.1906804e-06,0.0,0.0042687096,nan,0.0,0.0,0.0,0.00032636357,0.0,0.0,0.0,0.0,0.0007982395,0.00031466823,0.0
35504000,0.001768712,8.509946e-05,6.001526e-06,0.0015946829,0.007966659,0.0,0.0,0.026063006,0.0,0.0,7.212733e-11,0.0,nan,nan,nan,nan,nan,nan,0.0,3.9378534e-05,0.0,0.004304564,nan,0.0,0.0,0.0,0.00037087317,0.0,0.0,0.0,0.0,4.0926666e-06,0.00030014396,0.0
35704000,0.0017165141,8.469993e-05,1.5865553e-05,0.0017209068,0.007941324,0.0,0.0,0.026055612,0.0,0.0,7.072405e-11,0.0,nan,nan,nan,nan,nan,nan,0.0,0.00011392753,0.0,0.0043377336,nan,0.0,0.0,0.0,0.0001589689,0.0,0.0,0.0,0.0,4.018672e-05,0.00029047072,0.0
35904000,0.002605589,8.417279e-05,0.00038972142,0.001711739,0.007915206,0.0,0.0,0.026045434,0.0,0.0,6.926569e-11,0.0,nan,nan,nan,nan,nan,nan,0.0,9.539896e-05,0.0,0.0043744706,nan,0.0,0.0,0.0,0.0001099953,0.0,0.0,0.0,0.0,2.733076e-06,0.0002823194,0.0
36104000,0.0013042948,8.368931e-05,0.000526045,0.0007659421,0.0078877555,0.0,0.0,0.026031965,0.0,0.0,6.7916235e-11,0.0,nan,nan,nan,nan,nan,nan,0.0,5.9506307e-05,0.0,0.0044073975,nan,0.0,0.0,0.0,0.00015422767,0.0,0.0,0.0,0.0,1.5880346e-06,0.00026519573,0.0
36304000,0.0029094443,8.319202e-05,0.0008148528,0.0033178683,0.0078595085,0.0,0.0,0.026015978,0.0,0.0,6.659267e-11,0.0,nan,nan,nan,nan,nan,nan,0.0,7.856793e-05,0.0,0.0044445936,nan,0.0,0.0,0.0,0.0002538151,0.0,0.0,0.0,0.0,4.660727e-05,0.00025030406,0.0
36504000,0.0012426585,8.257714e-05,0.00074271805,0.0007731703,0.007830376,0.0,0.0,0.025996998,0.0,0.0,6.522095e-11,0.0,nan,nan,nan,nan,nan,nan,0.0,0.00028377507,0.0,0.0044784537,nan,0.0,0.0,0.0,0.00017021502,0.0,0.0,0.0,0.0,0.00010812961,0.00024076126,0.0
36704000,0.0012283379,8.2045415e-05,1.6845575e-05,0.0034679004,0.007801181,0.0,0.0,0.025975877,0.0,0.0,6.395811e-11,0.0,nan,nan,nan,nan,nan,nan,0.0,0.00017783276,0.0,0.0045153154,nan,0.0,0.0,0.0,1.97471e-05,0.0,0.0,0.0,0.0,0.00011707544,0.00022839781,0.0
36904000,0.0011282432,8.1428974e-05,0.0004877463,0.0018413444,0.0077717477,0.0,0.0,0.025952287,0.0,0.0,6.265401e-11,0.0,nan,nan,nan,nan,nan,nan,0.0,0.00020439438,0.0,0.004549196,nan,0.0,0.0,0.0,0.00071717444,0.0,0.0,0.0,0.0,1.6944381e-05,0.00021820754,0.0
37104000,0.0012875013,8.088803e-05,3.0345394e-05,0.0019372334,0.0077428184,0.0,0.0,0.025927125,0.0,0.0,6.145279e-11,0.0,nan,nan,nan,nan,nan,nan,0.0,0.0001400872,0.0,0.0045868494,nan,0.0,0.0,0.0,0.00014939054,0.0,0.0,0.0,0.0,1.392587e-05,0.0002059035,0.0
37304000,0.00086428854,8.0359314e-05,7.1994284e-05,0.0019087434,0.0077137984,0.0,0.0,0.025900107,0.0,0.0,6.0281724e-11,0.0,nan,nan,nan,nan,nan,nan,0.0,5.9039903e-05,0.0,0.0046197125,nan,0.0,0.0,0.0,0.00015182572,0.0,0.0,0.0,0.0,0.0002569549,0.00019498245,0.0
37504000,0.0013715962,7.973209e-05,0.00029674574,0.0019813103,0.0076854136,0.0,0.0,0.025872024,0.0,0.0,5.908455e-11,0.0,nan,nan,nan,nan,nan,nan,0.0,0.00019964267,0.0,0.004657457,nan,0.0,0.0,0.0,0.00014073086,0.0,0.0,0.0,0.0,5.2923838e-08,0.00018651331,0.0
37704000,0.0013323807,7.918389e-05,0.00069073023,0.0009403148,0.00765717,0.0,0.0,0.025842592,0.0,0.0,5.798493e-11,0.0,nan,nan,nan,nan,nan,nan,0.0,1.2258459e-05,0.0,0.004690981,nan,0.0,0.0,0.0,0.00048602335,0.0,0.0,0.0,0.0,7.3075944e-06,0.00017836897,0.0
37904000,0.0017818704,7.863934e-05,3.4577297e-05,0.0034886468,0.0076296637,0.0,0.0,0.025812568,0.0,0.0,5.6920312e-11,0.0,nan,nan,nan,nan,nan,nan,0.0,0.00020145497,0.0,0.0047278972,nan,0.0,0.0,0.0,0.00033466556,0.0,0.0,0.0,0.0,0.00019399502,0.000170835,0.0
38104000,0.0006506337,7.809702e-05,0.00041345696,0.0008302718,0.007602496,0.0,0.0,0.025781607,0.0,0.0,5.5889945e-11,0.0,nan,nan,nan,nan,nan,nan,0.0,1.37950465e-05,0.0,0.004761142,nan,0.0,0.0,0.0,6.9910704e-05,0.0,0.0,0.0,0.0,0.00067921914,0.0001664595,0.0
38304000,0.0005133584,7.748704e-05,0.00034410786,0.003466087,0.0075762267,0.0,0.0,0.025750473,0.0,0.0,5.4839702e-11,0.0,nan,nan,nan,nan,nan,nan,0.0,0.00014349827,0.0,0.004798916,nan,0.0,0.0,0.0,0.0004368731,0.0,0.0,0.0,0.0,9.851398e-05,0.00015905347,0.0
38504000,0.00100524,7.6937664e-05,0.0002995,0.0017954824,0.0075506107,0.0,0.0,0.025718834,0.0,0.0,5.3879193e-11,0.0,nan,nan,nan,nan,nan,nan,0.0,0.000104155886,0.0,0.0048313187,nan,0.0,0.0,0.0,0.00033101084,0.0,0.0,0.0,0.0,0.0013017855,0.0001468318,0.0
38704000,0.0010145654,7.6323806e-05,3.7675676e-05,0.0017374791,0.007525986,0.0,0.0,0.025687411,0.0,0.0,5.2899435e-11,0.0,nan,nan,nan,nan,nan,nan,0.0,0.00011766975,0.0,0.0048689963,nan,0.0,0.0,0.0,0.000216785,0.0,0.0,0.0,0.0,0.00026686842,0.00013812572,0.0
38904000,0.0007307681,7.581522e-05,0.0011285074,0.0017206531,0.0075017815,0.0,0.0,0.025655854,0.0,0.0,5.200615e-11,0.0,nan,nan,nan,nan,nan,nan,0.0,2.4075445e-05,0.0,0.004901802,nan,0.0,0.0,0.0,0.000115561015,0.0,0.0,0.0,0.0,0.00012050001,0.00013188359,0.0
39104000,0.0007934228,7.5257034e-05,0.00041681426,0.0016311634,0.0074787075,0.0,0.0,0.025624765,0.0,0.0,5.109514e-11,0.0,nan,nan,nan,nan,nan,nan,0.0,0.00055149756,0.0,0.0049388637,nan,0.0,0.0,0.0,0.00011039368,0.0,0.0,0.0,0.0,4.5531648e-05,0.00012747658,0.0
39304000,0.0007208577,7.476834e-05,0.00044383548,0.0007208547,0.0074562384,0.0,0.0,0.025593754,0.0,0.0,5.026649e-11,0.0,nan,nan,nan,nan,nan,nan,0.0,4.810419e-06,0.0,0.0049715703,nan,0.0,0.0,0.0,0.00045676017,0.0,0.0,0.0,0.0,8.739006e-06,0.00012470217,0.0
39504000,0.00051676854,7.423933e-05,0.00041784658,0.0030559325,0.007434638,0.0,0.0,0.025563424,0.0,0.0,4.941927e-11,0.0,nan,nan,nan,nan,nan,nan,0.0,7.495239e-05,0.0,0.005009063,nan,0.0,0.0,0.0,0.000528225,0.0,0.0,0.0,0.0,3.1129275e-05,0.00012137997,0.0
39704000,0.0007122533,7.3780444e-05,0.000774307,0.0006032162,0.007413662,0.0,0.0,0.02553336,0.0,0.0,4.8648537e-11,0.0,nan,nan,nan,nan,nan,nan,0.0,0.0001445283,0.0,0.0050412547,nan,0.0,0.0,0.0,9.445663e-05,0.0,0.0,0.0,0.0,9.16121e-06,0.000119077864,0.0
39904000,0.0003175834,7.3274765e-05,0.0007177205,0.0027675377,0.007393816,0.0,0.0,0.02550412,0.0,0.0,4.785741e-11,0.0,nan,nan,nan,nan,nan,nan,0.0,4.861289e-05,0.0,0.0050780186,nan,0.0,0.0,0.0,0.00031730055,0.0,0.0,0.0,0.0,0.00014498108,0.000112644244,0.0
40104000,0.00066974026,7.2873154e-05,0.0003818556,0.0014186696,0.0073747872,0.0,0.0,0.025475308,0.0,0.0,4.713932e-11,0.0,nan,nan,nan,nan,nan,nan,0.0,2.7568107e-05,0.0,0.0051099416,nan,0.0,0.0,0.0,0.00041993396,0.0,0.0,0.0,0.0,0.0008598749,0.0001089644,0.0
40304000,0.00039509955,7.239801e-05,0.0004560355,0.0013306598,0.007368354,0.0,0.0,0.025447838,0.0,0.0,4.6396855e-11,0.0,nan,nan,nan,nan,nan,nan,0.0,0.00010950784,0.0,0.005147013,nan,0.0,0.0,0.0,0.00059295486,0.0,0.0,0.0,0.0,0.0023801138,0.00010860273,0.0
40504000,0.0003177572,7.199702e-05,0.00097359804,0.0012631442,0.0073767486,0.0,0.0,0.025422368,0.0,0.0,4.5697723e-11,0.0,nan,nan,nan,nan,nan,nan,0.0,0.0001449715,0.0,0.0051824516,nan,0.0,0.0,0.0,0.0003296059,0.0,0.0,0.0,0.0,0.0043244865,0.00011963292,0.0
40704000,0.00049020746,7.1554576e-05,0.0001572821,0.0013248309,0.007392782,0.0,0.0,0.025400363,0.0,0.0,4.4970524e-11,0.0,nan,nan,nan,nan,nan,nan,0.0,0.00034967126,0.0,0.0052097496,nan,0.0,0.0,0.0,6.885151e-05,0.0,0.0,0.0,0.0,0.002423026,0.00011726337,0.0
40904000,0.0003111225,7.095076e-05,0.00056606915,0.000535423,0.0074135866,0.0,0.0,0.025382085,0.0,0.0,4.4156564e-11,0.0,nan,nan,nan,nan,nan,nan,0.0,2.4136849e-05,0.0,0.0052394415,nan,0.0,0.0,0.0,0.000270604,0.0,0.0,0.0,0.0,0.00079480844,0.00011795027,0.0
41104000,0.0008121179,7.040461e-05,0.00028138916,0.002358555,0.007445455,0.0,0.0,0.025369117,0.0,0.0,4.3373506e-11,0.0,nan,nan,nan,nan,nan,nan,0.0,8.6765554e-05,0.0,0.0052575157,nan,0.0,0.0,0.0,0.0003682545,0.0,0.0,0.0,0.0,0.0013028124,0.00010678694,0.0
41304000,0.00086178473,6.9854104e-05,0.00072765205,0.00046965288,0.0074859587,0.0,0.0,0.025362164,0.0,0.0,4.2578104e-11,0.0,nan,nan,nan,nan,nan,nan,0.0,1.509105e-05,0.0,0.005278584,nan,0.0,0.0,0.0,7.27307e-05,0.0,0.0,0.0,0.0,0.0012996062,0.00010852296,0.0
41504000,0.001251895,6.9256996e-05,0.0009152294,0.0023937165,0.007532432,0.0,0.0,0.025362458,0.0,0.0,4.178513e-11,0.0,nan,nan,nan,nan,nan,nan,0.0,0.00019615903,0.0,0.0052877124,nan,0.0,0.0,0.0,0.00045099025,0.0,0.0,0.0,0.0,1.6286696e-05,0.000105563675,0.0
41704000,0.0011397009,6.8624e-05,0.0001137861,0.0012191035,0.0075822882,0.0,0.0,0.025369778,0.0,0.0,4.1004446e-11,0.0,nan,nan,nan,nan,nan,nan,0.0,3.668423e-05,0.0,0.005298495,nan,0.0,0.0,0.0,0.00020052589,0.0,0.0,0.0,0.0,0.0008484653,8.950528e-05,0.0
41904000,0.0013689674,6.801362e-05,0.0005884712,0.0011448553,0.007634997,0.0,0.0,0.025384614,0.0,0.0,4.0246733e-11,0.0,nan,nan,nan,nan,nan,nan,0.0,0.00015291722,0.0,0.0052983207,nan,0.0,0.0,0.0,5.259268e-05,0.0,0.0,0.0,0.0,5.5210154e-07,8.843797e-05,0.0
42104000,0.00076872355,6.73942e-05,0.00027192477,0.0011275273,0.007688435,0.0,0.0,0.025406191,0.0,0.0,3.9517747e-11,0.0,nan,nan,nan,nan,nan,nan,0.0,0.00012342252,0.0,0.0053014318,nan,0.0,0.0,0.0,0.0002009094,0.0,0.0,0.0,0.0,6.035596e-05,8.180347e-05,0.0
42304000,0.0017708689,6.672405e-05,6.722035e-05,0.0011060602,0.0077403886,0.0,0.0,0.025434418,0.0,0.0,3.8777943e-11,0.0,nan,nan,nan,nan,nan,nan,0.0,2.2290162e-05,0.0,0.005292283,nan,0.0,0.0,0.0,0.00019038646,0.0,0.0,0.0,0.0,1.9418794e-05,7.2128925e-05,0.0
42504000,0.0012428391,6.61607e-05,0.000117651696,0.00036083255,0.00778977,0.0,0.0,0.025467845,0.0,0.0,3.8121478e-11,0.0,nan,nan,nan,nan,nan,nan,0.0,6.801194e-05,0.0,0.0052879425,nan,0.0,0.0,0.0,4.720811e-05,0.0,0.0,0.0,0.0,0.0001569653,7.306479e-05,0.0
42704000,0.0010010117,6.561578e-05,0.00043600862,0.001841064,0.007835199,0.0,0.0,0.025505925,0.0,0.0,3.7502928e-11,0.0,nan,nan,nan,nan,nan,nan,0.0,1.2387644e-05,0.0,0.005272816,nan,0.0,0.0,0.0,0.00088092894,0.0,0.0,0.0,0.0,0.00036945028,6.787454e-05,0.0
42904000,0.0013541973,6.501172e-05,2.610724e-05,0.00034336754,0.007876402,0.0,0.0,0.025546871,0.0,0.0,3.6878407e-11,0.0,nan,nan,nan,nan,nan,nan,0.0,9.054219e-05,0.0,0.0052619376,nan,0.0,0.0,0.0,3.6505047e-05,0.0,0.0,0.0,0.0,0.00044382093,5.9303227e-05,0.0
43104000,0.0014194153,6.450689e-05,8.526189e-05,0.0018716365,0.007912516,0.0,0.0,0.02559012,0.0,0.0,3.632965e-11,0.0,nan,nan,nan,nan,nan,nan,0.0,0.00022281523,0.0,0.0052413656,nan,0.0,0.0,0.0,0.00011603316,0.0,0.0,0.0,0.0,0.0004007596,5.796032e-05,0.0
43304000,0.0017341226,6.394222e-05,6.215168e-07,0.0008605245,0.007941883,0.0,0.0,0.025633747,0.0,0.0,3.5774918e-11,0.0,nan,nan,nan,nan,nan,nan,0.0,9.9317895e-06,0.0,0.005226223,nan,0.0,0.0,0.0,0.00022903232,0.0,0.0,0.0,0.0,7.45227e-05,5.3843924e-05,0.0
43504000,0.0012504432,6.347461e-05,0.0004529424,0.00085866597,0.007964166,0.0,0.0,0.025677003,0.0,0.0,3.5286798e-11,0.0,nan,nan,nan,nan,nan,nan,0.0,7.5119538e-06,0.0,0.005201854,nan,0.0,0.0,0.0,0.00027494578,0.0,0.0,0.0,0.0,7.293524e-05,4.9419763e-05,0.0
43704000,0.0011191001,6.29597e-05,4.7328842e-05,0.0008125629,0.007980637,0.0,0.0,0.025718004,0.0,0.0,3.479091e-11,0.0,nan,nan,nan,nan,nan,nan,0.0,7.244263e-05,0.0,0.0051829955,nan,0.0,0.0,0.0,7.956011e-05,0.0,0.0,0.0,0.0,4.091622e-05,4.5325367e-05,0.0
43904000,0.0011280539,6.252267e-05,7.138034e-05,0.0007340532,0.007991499,0.0,0.0,0.025756601,0.0,0.0,3.4354946e-11,0.0,nan,nan,nan,nan,nan,nan,0.0,1.2088907e-05,0.0,0.005155716,nan,0.0,0.0,0.0,0.00013603256,0.0,0.0,0.0,0.0,0.0004744981,4.2873166e-05,0.0
44104000,0.0010689702,6.203037e-05,9.4395555e-06,0.00021559239,0.007995441,0.0,0.0,0.025791224,0.0,0.0,3.3909747e-11,0.0,nan,nan,nan,nan,nan,nan,0.0,2.4446522e-06,0.0,0.005134465,nan,0.0,0.0,0.0,0.00016053619,0.0,0.0,0.0,0.0,0.000103420214,4.0154344e-05,0.0
44304000,0.0002858377,6.161562e-05,4.6753914e-05,0.0014980352,0.007994055,0.0,0.0,0.025821682,0.0,0.0,3.3517935e-11,0.0,nan,nan,nan,nan,nan,nan,0.0,1.6813854e-05,0.0,0.0051050684,nan,0.0,0.0,0.0,0.0003046666,0.0,0.0,0.0,0.0,2.1129348e-05,3.72939e-05,0.0
44504000,0.0016899658,6.115437e-05,0.000112878944,0.00021378417,0.007988259,0.0,0.0,0.025846958,0.0,0.0,3.3115843e-11,0.0,nan,nan,nan,nan,nan,nan,0.0,2.9538035e-06,0.0,0.0050820336,nan,0.0,0.0,0.0,6.913137e-05,0.0,0.0,0.0,0.0,6.3881605e-05,3.540838e-05,0.0
44704000,0.00089544326,6.077077e-05,2.134076e-05,0.0014530262,0.007978031,0.0,0.0,0.025867352,0.0,0.0,3.276168e-11,0.0,nan,nan,nan,nan,nan,nan,0.0,8.036052e-05,0.0,0.0050512385,nan,0.0,0.0,0.0,0.00016419603,0.0,0.0,0.0,0.0,5.452654e-05,3.4007535e-05,0.0
44904000,0.00089544326,6.061011e-05,2.134076e-05,0.0014530262,0.008081414,0.0,0.0,0.026107434,0.0,0.0,3.251236e-11,0.0,nan,nan,nan,nan,nan,nan,0.0,1.2191847e-06,0.0,0.0050548106,nan,0.0,0.0,0.0,3.6613084e-05,0.0,0.0,0.0,0.0,1.0824058e-06,3.1249627e-05,0.0
45104000,0.00042121715,6.016894e-05,1.5516085e-05,0.0005473059,0.008065857,0.0,0.0,0.026117492,0.0,0.0,3.2155476e-11,0.0,nan,nan,nan,nan,nan,nan,0.0,3.6839513e-06,0.0,0.0050230473,nan,0.0,0.0,0.0,0.00018119522,0.0,0.0,0.0,0.0,0.0003478158,2.893013e-05,0.0
45304000,0.00025991202,5.978793e-05,1.170053e-05,0.00053649733,0.008050328,0.0,0.0,0.026123092,0.0,0.0,3.184018e-11,0.0,nan,nan,nan,nan,nan,nan,0.0,8.822855e-05,0.0,0.004996828,nan,0.0,0.0,0.0,0.00012724461,0.0,0.0,0.0,0.0,0.0005488694,2.7984845e-05,0.0
45504000,0.00023696029,5.9369264e-05,0.00011977692,0.0004753882,0.00803206,0.0,0.0,0.02612392,0.0,0.0,3.151349e-11,0.0,nan,nan,nan,nan,nan,nan,0.0,5.736581e-07,0.0,0.004964272,nan,0.0,0.0,0.0,0.00015034822,0.0,0.0,0.0,0.0,0.00056972774,2.7914763e-05,0.0
45704000,0.00012575333,5.9040987e-05,5.02276e-06,0.00049139134,0.008012698,0.0,0.0,0.026120733,0.0,0.0,3.122534e-11,0.0,nan,nan,nan,nan,nan,nan,0.0,6.477904e-05,0.0,0.0049369824,nan,0.0,0.0,0.0,0.00016162705,0.0,0.0,0.0,0.0,0.00010871952,2.70994e-05,0.0
45904000,0.00037029147,5.8714963e-05,1.4621625e-06,0.00013552258,0.007994022,0.0,0.0,0.026113644,0.0,0.0,3.0948633e-11,0.0,nan,nan,nan,nan,nan,nan,0.0,4.3528602e-05,0.0,0.004903751,nan,0.0,0.0,0.0,0.00037841944,0.0,0.0,0.0,0.0,0.00025641502,2.8138073e-05,0.0
46104000,2.6187392e-05,5.8342637e-05,0.00035699154,0.00113997,0.007975776,0.0,0.0,0.026103893,0.0,0.0,3.0659596e-11,0.0,nan,nan,nan,nan,nan,nan,0.0,4.1898642e-05,0.0,0.0048758253,nan,0.0,0.0,0.0,0.0005083341,0.0,0.0,0.0,0.0,0.0005079199,2.8475839e-05,0.0
46304000,0.00012867224,5.803346e-05,2.59372e-06,0.0001273433,0.007958184,0.0,0.0,0.026091322,0.0,0.0,3.0405303e-11,0.0,nan,nan,nan,nan,nan,nan,0.0,6.07055e-08,0.0,0.004842232,nan,0.0,0.0,0.0,1.0677072e-05,0.0,0.0,0.0,0.0,8.5538435e-05,2.6688173e-05,0.0
46504000,0.00019299066,5.7798574e-05,0.00018549955,0.0011288105,0.007941155,0.0,0.0,0.02607715,0.0,0.0,3.0183283e-11,0.0,nan,nan,nan,nan,nan,nan,0.0,1.9266028e-05,0.0,0.0048136283,nan,0.0,0.0,0.0,6.39376e-05,0.0,0.0,0.0,0.0,3.5786098e-07,2.643729e-05,0.0
46704000,0.00027125413,5.7484365e-05,0.0004948124,0.00040419705,0.007925289,0.0,0.0,0.026061159,0.0,0.0,2.992547e-11,0.0,nan,nan,nan,nan,nan,nan,0.0,1.6862767e-05,0.0,0.004779488,nan,0.0,0.0,0.0,0.0011630203,0.0,0.0,0.0,0.0,2.7627824e-05,2.6740552e-05,0.0
46904000,0.00024070566,5.723566e-05,2.0900616e-05,0.00044470286,0.0079107275,0.0,0.0,0.02604459,0.0,0.0,2.9700683e-11,0.0,nan,nan,nan,nan,nan,nan,0.0,3.5146884e-05,0.0,0.0047505544,nan,0.0,0.0,0.0,5.4363616e-05,0.0,0.0,0.0,0.0,9.4258125e-05,2.6854304e-05,0.0
47104000,0.00022868454,5.6942816e-05,3.7496966e-06,0.0004377171,0.007896704,0.0,0.0,0.026027061,0.0,0.0,2.9463973e-11,0.0,nan,nan,nan,nan,nan,nan,0.0,3.409121e-06,0.0,0.0047163414,nan,0.0,0.0,0.0,0.000371849,0.0,0.0,0.0,0.0,9.483153e-07,2.5997984e-05,0.0
47304000,4.2519427e-05,5.671933e-05,9.673513e-05,0.00045059103,0.007883703,0.0,0.0,0.02600952,0.0,0.0,2.9258e-11,0.0,nan,nan,nan,nan,nan,nan,0.0,1.7748698e-05,0.0,0.004686984,nan,0.0,0.0,0.0,0.0002973489,0.0,0.0,0.0,0.0,9.8372504e-05,2.5700423e-05,0.0
47504000,0.0001294367,5.6470963e-05,0.00023369488,9.4657604e-05,0.0078711845,0.0,0.0,0.025991514,0.0,0.0,2.9040255e-11,0.0,nan,nan,nan,nan,nan,nan,0.0,6.482161e-06,0.0,0.004652527,nan,0.0,0.0,0.0,0.001064254,0.0,0.0,0.0,0.0,7.9068544e-05,2.6179127e-05,0.0
47704000,4.108732e-05,5.6277542e-05,0.00017559358,0.0011961884,0.007860267,0.0,0.0,0.02597397,0.0,0.0,2.885118e-11,0.0,nan,nan,nan,nan,nan,nan,0.0,3.897268e-06,0.0,0.004623174,nan,0.0,0.0,0.0,0.00032338858,0.0,0.0,0.0,0.0,0.00036794532,2.5446803e-05,0.0
47904000,0.00011799225,5.6045392e-05,4.4758897e-07,6.692703e-05,0.007850007,0.0,0.0,0.025956487,0.0,0.0,2.8650606e-11,0.0,nan,nan,nan,nan,nan,nan,0.0,3.232149e-05,0.0,0.0045889835,nan,0.0,0.0,0.0,0.00040367182,0.0,0.0,0.0,0.0,9.313432e-05,2.6057052e-05,0.0
48104000,2.739579e-05,5.5869146e-05,4.4152407e-06,0.00124015,0.007840899,0.0,0.0,0.025939887,0.0,0.0,2.847786e-11,0.0,nan,nan,nan,nan,nan,nan,0.0,3.941794e-05,0.0,0.0045595495,nan,0.0,0.0,0.0,0.00074987696,0.0,0.0,0.0,0.0,0.0001452903,2.8762179e-05,0.0
48304000,0.00010856252,5.5719185e-05,4.389476e-05,0.0004356513,0.007831887,0.0,0.0,0.025923552,0.0,0.0,2.8312538e-11,0.0,nan,nan,nan,nan,nan,nan,0.0,4.625037e-06,0.0,0.004525554,nan,0.0,0.0,0.0,0.00036943692,0.0,0.0,0.0,0.0,7.694816e-05,3.1043754e-05,0.0
48504000,0.0002022024,5.553627e-05,0.0003527851,0.0004055279,0.007824432,0.0,0.0,0.025908185,0.0,0.0,2.8135917e-11,0.0,nan,nan,nan,nan,nan,nan,0.0,1.6322122e-06,0.0,0.004496532,nan,0.0,0.0,0.0,0.0004441884,0.0,0.0,0.0,0.0,1.14819e-05,3.2393655e-05,0.0
48704000,7.452831e-05,5.541621e-05,0.00048426597,0.0004493957,0.007817377,0.0,0.0,0.025893373,0.0,0.0,2.7984521e-11,0.0,nan,nan,nan,nan,nan,nan,0.0,0.00015117232,0.0,0.004463018,nan,0.0,0.0,0.0,0.000102236154,0.0,0.0,0.0,0.0,0.000100043624,3.4384448e-05,0.0
48904000,3.1458435e-06,5.527391e-05,0.00010546659,0.00044650756,0.0078112944,0.0,0.0,0.025879733,0.0,0.0,2.7821708e-11,0.0,nan,nan,nan,nan,nan,nan,0.0,9.16378e-05,0.0,0.0044342224,nan,0.0,0.0,0.0,0.001032113,0.0,0.0,0.0,0.0,2.4785584e-05,3.5650068e-05,0.0
49104000,8.254861e-05,5.5196662e-05,0.00014628503,8.783916e-05,0.00780558,0.0,0.0,0.025866734,0.0,0.0,2.7682622e-11,0.0,nan,nan,nan,nan,nan,nan,0.0,4.1901138e-05,0.0,0.004401157,nan,0.0,0.0,0.0,0.00032749132,0.0,0.0,0.0,0.0,0.0008403024,3.624718e-05,0.0
49304000,7.1790244e-05,5.5090048e-05,0.00051693845,0.0011368741,0.007800417,0.0,0.0,0.025854854,0.0,0.0,2.7531942e-11,0.0,nan,nan,nan,nan,nan,nan,0.0,1.9579406e-06,0.0,0.0043728338,nan,0.0,0.0,0.0,0.0019456118,0.0,0.0,0.0,0.0,0.00030039417,3.6488756e-05,0.0
49504000,6.459271e-05,5.5027358e-05,7.9570025e-05,8.587708e-05,0.0077953083,0.0,0.0,0.025843512,0.0,0.0,2.7403019e-11,0.0,nan,nan,nan,nan,nan,nan,0.0,1.6714126e-05,0.0,0.004340422,nan,0.0,0.0,0.0,0.0003436539,0.0,0.0,0.0,0.0,0.0001069558,3.584408e-05,0.0
49704000,8.5192994e-05,5.4999815e-05,4.811506e-05,0.0011918861,0.007790821,0.0,0.0,0.025833199,0.0,0.0,2.7277592e-11,0.0,nan,nan,nan,nan,nan,nan,0.0,3.9304497e-05,0.0,0.0043124966,nan,0.0,0.0,0.0,0.00023057293,0.0,0.0,0.0,0.0,9.733875e-06,3.468738e-05,0.0
49904000,9.9750505e-05,5.4936012e-05,0.00038737128,0.00042013102,0.0077862325,0.0,0.0,0.025823249,0.0,0.0,2.7139757e-11,0.0,nan,nan,nan,nan,nan,nan,0.0,3.749513e-05,0.0,0.0042804927,nan,0.0,0.0,0.0,0.0008236167,0.0,0.0,0.0,0.0,0.00027464936,3.4081808e-05,0.0
