timestamp,indicated_airspeed_m_s,true_airspeed_m_s,air_temperature_celsius,confidence
180000,-0.3598805,-0.36848843,11.828796,1.0
188000,1.0748178,1.1005383,11.828796,1.0
192000,-1.0221819,-1.046639,11.828796,1.0
196000,-0.5095926,-0.5217857,11.828796,1.0
200000,-0.06727079,-0.0688806,11.828796,1.0
208000,-1.412497,-1.4463013,11.828796,1.0
212000,-1.4515257,-1.4862802,11.828796,1.0
216000,-0.7094269,-0.7264031,11.828796,1.0
220000,0.78040594,0.79908067,11.828796,1.0
224000,-1.3745495,-1.4074377,11.828796,1.0
228000,-0.55010766,-0.5632787,11.828796,1.0
232000,-0.9303406,-0.95260614,11.828796,1.0
236000,0.3771694,0.38619015,11.828796,1.0
240000,-1.7483584,-1.7901982,11.828796,1.0
244000,0.78259385,0.8013146,11.828796,1.0
248000,0.7725795,0.79106975,11.828796,1.0
252000,-1.2164962,-1.2455993,11.828796,1.0
256000,1.4016657,1.4352303,11.828796,1.0
260000,0.91806203,0.94003135,11.828796,1.0
264000,1.3900772,1.4233369,11.828796,1.0
268000,0.8528778,0.87328154,11.828796,1.0
272000,-0.9717304,-0.9949773,11.828796,1.0
276000,0.22795746,0.23341057,11.828796,1.0
280000,-1.0861988,-1.1121889,11.828796,1.0
284000,1.3219141,1.353545,11.828796,1.0
288000,1.3000594,1.3311685,11.828796,1.0
292000,-1.6764238,-1.7165481,11.828796,1.0
296000,-0.25167727,-0.25769925,11.828796,1.0
300000,-1.1740186,-1.2021035,11.828796,1.0
304000,1.5483751,1.5854129,11.828796,1.0
308000,-1.0097214,-1.0338815,11.828796,1.0
312000,-1.0683674,-1.0939267,11.828796,1.0
316000,-1.4023,-1.4358541,11.828796,1.0
320000,-2.029754,-2.0783117,11.828796,1.0
324000,-0.9053289,-0.92698705,11.828796,1.0
328000,-0.31246266,-0.3199396,11.828796,1.0
332000,-0.9085869,-0.9303286,11.828796,1.0
336000,0.20469476,0.2095938,11.828796,1.0
340000,0.9348641,0.95722866,11.828796,1.0
344000,1.5543116,1.5914952,11.828796,1.0
348000,-0.92446965,-0.94659394,11.828796,1.0
352000,1.2725035,1.3029492,11.828796,1.0
356000,0.58808386,0.6021569,11.828796,1.0
360000,-1.5926806,-1.6307939,11.828796,1.0
364000,-1.7825555,-1.8252021,11.828796,1.0
368000,-1.5121124,-1.5483059,11.828796,1.0
372000,-1.1695977,-1.1975898,11.828796,1.0
376000,-0.85613185,-0.87661964,11.828796,1.0
380000,1.1109664,1.1375507,11.828796,1.0
384000,-0.30204326,-0.30926996,11.828796,1.0
388000,1.2420452,1.2717665,11.828796,1.0
392000,0.9659616,0.9890709,11.828796,1.0
396000,1.9468714,1.9934678,11.828796,1.0
400000,1.4704742,1.5056686,11.828796,1.0
404000,-0.7629171,-0.78117234,11.828796,1.0
408000,0.736727,0.75435555,11.828796,1.0
412000,-0.42989987,-0.4401875,11.828796,1.0
416000,-0.7364419,-0.7540658,11.828796,1.0
420000,-0.83228797,-0.85220784,11.828796,1.0
424000,0.16501126,0.1689614,11.828796,1.0
428000,1.3519185,1.3842676,11.828796,1.0
432000,0.56114084,0.5745649,11.828796,1.0
436000,1.8239988,1.8676337,11.828796,1.0
440000,0.5677323,0.5813218,11.828796,1.0
444000,1.205178,1.2340207,11.828796,1.0
448000,1.3174939,1.3490137,11.828796,1.0
452000,-1.3875973,-1.4208015,11.828796,1.0
456000,1.4615341,1.4965078,11.828796,1.0
460000,1.4501367,1.4848437,11.828796,1.0
464000,-1.7119975,-1.7529805,11.828796,1.0
468000,1.3171139,1.3486284,11.828796,1.0
472000,1.1242121,1.1511052,11.828796,1.0
476000,-0.82363284,-0.8433424,11.828796,1.0
480000,0.5856357,0.59965247,11.828796,1.0
484000,1.092464,1.1186112,11.828796,1.0
488000,0.50189924,0.5139112,11.828796,1.0
492000,-0.44072694,-0.45127508,11.828796,1.0
496000,1.0954438,1.1216578,11.828796,1.0
500000,1.4472164,1.4818484,11.828796,1.0
504000,0.194278,0.19892646,11.828796,1.0
508000,0.5436802,0.5566909,11.828796,1.0
512000,1.1041944,1.1306282,11.828796,1.0
516000,0.50135905,0.51335657,11.828796,1.0
520000,1.7057829,1.7465973,11.828796,1.0
524000,-1.4272594,-1.4614058,11.828796,1.0
528000,-0.235052,-0.24067774,11.828796,1.0
532000,0.3111064,0.3185517,11.828796,1.0
536000,0.78721756,0.80604815,11.828796,1.0
540000,0.6294697,0.64453495,11.828796,1.0
544000,-1.6908057,-1.731246,11.828796,1.0
548000,1.3047994,1.3360074,11.828796,1.0
552000,1.4225427,1.4565849,11.828796,1.0
556000,0.42380854,0.4339505,11.828796,1.0
560000,-1.2180437,-1.2471967,11.828796,1.0
564000,1.6128014,1.6514019,11.828796,1.0
568000,1.3095398,1.3408675,11.828796,1.0
572000,2.1305451,2.1815135,11.828796,1.0
576000,-0.5559792,-0.5692852,11.828796,1.0
580000,-1.4957346,-1.5315235,11.828796,1.0
584000,1.8407975,1.8848429,11.828796,1.0
588000,0.113048136,0.11575308,11.828796,1.0
592000,-1.3998263,-1.4333044,11.828796,1.0
596000,0.2295176,0.2350101,11.828796,1.0
600000,-1.0346755,-1.0594354,11.828796,1.0
604000,-0.41939285,-0.42942604,11.828796,1.0
608000,-0.26048476,-0.26671636,11.828796,1.0
612000,-0.8376231,-0.8576697,11.828796,1.0
616000,-0.6746849,-0.69082636,11.828796,1.0
620000,1.2423602,1.272083,11.828796,1.0
624000,-1.8668561,-1.9115348,11.828796,1.0
628000,1.6477253,1.6871496,11.828796,1.0
632000,1.5408839,1.5777488,11.828796,1.0
636000,-2.0522733,-2.1014,11.828796,1.0
640000,2.0391066,2.0878925,11.828796,1.0
648000,1.2879623,1.3187821,11.828796,1.0
652000,-0.771722,-0.7901914,11.828796,1.0
656000,-2.0463142,-2.0952957,11.828796,1.0
660000,1.7365443,1.7780985,11.828796,1.0
664000,-0.5382343,-0.55111915,11.828796,1.0
668000,-1.696046,-1.736629,11.828796,1.0
672000,0.66366076,0.67954063,11.828796,1.0
676000,-1.5792701,-1.6170701,11.828796,1.0
680000,1.0940882,1.1202693,11.828796,1.0
684000,0.67552596,0.6916865,11.828796,1.0
688000,1.7446538,1.786391,11.828796,1.0
696000,-1.5853119,-1.6232603,11.828796,1.0
700000,1.2520274,1.2819753,11.828796,1.0
704000,0.9411722,0.9636845,11.828796,1.0
708000,-1.5941991,-1.6323446,11.828796,1.0
712000,0.5082251,0.52038574,11.828796,1.0
716000,1.1179818,1.1447332,11.828796,1.0
724000,1.0627311,1.0881612,11.828796,1.0
728000,-0.84094596,-0.8610793,11.828796,1.0
732000,-1.3167828,-1.3482803,11.828796,1.0
736000,0.17709468,0.1813308,11.828796,1.0
740000,1.6560345,1.6956645,11.828796,1.0
744000,-1.0636401,-1.0890937,11.828796,1.0
752000,-0.50014055,-0.51210535,11.828796,1.0
756000,-0.7356123,-0.75321436,11.828796,1.0
760000,0.59997,0.6143288,11.828796,1.0
764000,-1.7905451,-1.8333659,11.828796,1.0
768000,-1.1007141,-1.1270376,11.828796,1.0
776000,-1.1455117,-1.1729149,11.828796,1.0
784000,-1.4016548,-1.4351798,11.828796,1.0
788000,0.41416663,0.42407274,11.828796,1.0
792000,-1.0205967,-1.0450146,11.828796,1.0
796000,-1.5320067,-1.5686582,11.828796,1.0
804000,-0.2025719,-0.20741832,11.828796,1.0
808000,1.354154,1.3865459,11.828796,1.0
812000,1.3829658,1.4160632,11.828796,1.0
816000,-0.9120195,-0.9338461,11.828796,1.0
820000,-0.6880116,-0.7044747,11.828796,1.0
824000,-0.68535477,-0.7017543,11.828796,1.0
832000,-0.9982279,-1.0221137,11.828796,1.0
836000,-0.56022733,-0.57363254,11.828796,1.0
844000,1.701431,1.7421523,11.828796,1.0
848000,-1.29578,-1.3267872,11.828796,1.0
856000,-0.5146445,-0.52695835,11.828796,1.0
864000,0.9110749,0.93288076,11.828796,1.0
868000,-0.8621534,-0.88278586,11.828796,1.0
872000,0.3389848,0.347096,11.828796,1.0
876000,0.41015273,0.41996685,11.828796,1.0
880000,1.515441,1.5517014,11.828796,1.0
884000,-0.83171946,-0.851622,11.828796,1.0
888000,1.0596069,1.0849661,11.828796,1.0
892000,0.6263164,0.6413058,11.828796,1.0
896000,1.2917627,1.3226701,11.828796,1.0
900000,1.4057381,1.4393725,11.828796,1.0
904000,-0.83796304,-0.85801494,11.828796,1.0
908000,1.0765928,1.1023605,11.828796,1.0
916000,1.6774701,1.7176095,11.828796,1.0
924000,0.91577303,0.9376801,11.828796,1.0
928000,0.74075496,0.7584855,11.828796,1.0
936000,-0.9493673,-0.9720891,11.828796,1.0
940000,1.1928916,1.2214262,11.828796,1.0
944000,1.2571136,1.2871965,11.828796,1.0
948000,1.0391278,1.0639944,11.828796,1.0
952000,0.77364576,0.7921606,11.828796,1.0
956000,-1.0798591,-1.1057022,11.828796,1.0
960000,-0.63229805,-0.647431,11.828796,1.0
964000,-0.6831355,-0.6994852,11.828796,1.0
968000,-1.3788495,-1.4118454,11.828796,1.0
972000,0.6817401,0.6980605,11.828796,1.0
976000,-1.036195,-1.0609931,11.828796,1.0
980000,1.464464,1.4995112,11.828796,1.0
984000,0.6549398,0.6706162,11.828796,1.0
988000,0.71798223,0.73516524,11.828796,1.0
992000,0.85075223,0.87110966,11.828796,1.0
996000,1.1400878,1.1673688,11.828796,1.0
1000000,0.66573375,0.68166316,11.828796,1.0
1004000,-0.24801764,-0.25395057,11.828796,1.0
1012000,-0.67095464,-0.68701017,11.828796,1.0
1016000,-1.192377,-1.220899,11.828796,1.0
1020000,1.5808815,1.6186967,11.828796,1.0
1028000,-0.3440494,-0.35228252,11.828796,1.0
1032000,-1.3741772,-1.4070609,11.828796,1.0
1036000,-1.2717377,-1.3021705,11.828796,1.0
1040000,1.1347692,1.1619332,11.828796,1.0
1044000,0.70116186,0.7179371,11.828796,1.0
1048000,-0.33562085,-0.34365293,11.828796,1.0
1052000,1.5480361,1.5850837,11.828796,1.0
1056000,1.3049837,1.3362031,11.828796,1.0
1060000,-0.6330693,-0.6482143,11.828796,1.0
1064000,1.0910372,1.1171435,11.828796,1.0
1068000,0.7501223,0.7680713,11.828796,1.0
1072000,0.82876104,0.84859514,11.828796,1.0
1076000,-1.1080346,-1.1345524,11.828796,1.0
1080000,-0.452497,-0.4633225,11.828796,1.0
1084000,-2.4548306,-2.5135598,11.828796,1.0
1088000,-0.71534413,-0.7324664,11.828796,1.0
1092000,-0.18593939,-0.19038998,11.828796,1.0
1096000,-2.229489,-2.2828364,11.828796,1.0
1100000,0.5267196,0.53932434,11.828796,1.0
1104000,0.39283043,0.402228,11.828796,1.0
1108000,-1.1378185,-1.1650381,11.828796,1.0
1112000,-0.8552126,-0.87567097,11.828796,1.0
1116000,-0.34866366,-0.35700503,11.828796,1.0
1120000,0.79090065,0.80983245,11.828796,1.0
1124000,-0.84411174,-0.86431605,11.828796,1.0
1128000,0.8871253,0.9083562,11.828796,1.0
1132000,-0.65420246,-0.669859,11.828796,1.0
1136000,-0.7226034,-0.7398981,11.828796,1.0
1140000,1.1888405,1.2172941,11.828796,1.0
1144000,-1.7333552,-1.7748355,11.828796,1.0
1152000,-1.5287101,-1.5652837,11.828796,1.0
1156000,-1.7920011,-1.8348738,11.828796,1.0
1160000,-1.2788504,-1.3094543,11.828796,1.0
1164000,1.514274,1.5505091,11.828796,1.0
1172000,-1.3596506,-1.3921822,11.828796,1.0
1176000,-0.6092853,-0.6238706,11.828796,1.0
1180000,-1.1409258,-1.1682287,11.828796,1.0
1184000,1.6281539,1.667114,11.828796,1.0
1188000,0.717969,0.7351541,11.828796,1.0
1192000,0.7506501,0.7686186,11.828796,1.0
1196000,-0.9283284,-0.95055,11.828796,1.0
1200000,1.4179584,1.4518931,11.828796,1.0
1204000,-0.13536821,-0.13860717,11.828796,1.0
1208000,-0.66662717,-0.68257874,11.828796,1.0
1212000,1.5015706,1.5374922,11.828796,1.0
1216000,1.4629582,1.497963,11.828796,1.0
1224000,0.95402056,0.9768473,11.828796,1.0
1228000,-1.5644095,-1.6018409,11.828796,1.0
1232000,-1.4521579,-1.486897,11.828796,1.0
1236000,-1.6144347,-1.6530677,11.828796,1.0
1240000,-1.3184034,-1.3499482,11.828796,1.0
1244000,-1.1490618,-1.1765548,11.828796,1.0
1248000,0.8484114,0.8687109,11.828796,1.0
1252000,1.2712157,1.301639,11.828796,1.0
1256000,-1.420936,-1.4549513,11.828796,1.0
1260000,-0.84569246,-0.865922,11.828796,1.0
1264000,1.1694964,1.1974875,11.828796,1.0
1268000,0.7030254,0.71984917,11.828796,1.0
1272000,-1.3115317,-1.3429211,11.828796,1.0
1276000,0.7363926,0.7540159,11.828796,1.0
1280000,-1.9677851,-2.0148711,11.828796,1.0
1284000,-1.4350872,-1.469419,11.828796,1.0
1288000,-1.165393,-1.1932836,11.828796,1.0
1292000,1.1631247,1.1909561,11.828796,1.0
1296000,-0.92056674,-0.94259423,11.828796,1.0
1300000,0.7233998,0.74071336,11.828796,1.0
1304000,-1.2083498,-1.2372808,11.828796,1.0
1308000,-0.30773243,-0.31509504,11.828796,1.0
1312000,-1.0092989,-1.0334526,11.828796,1.0
1316000,-1.3117973,-1.343193,11.828796,1.0
1320000,-0.78484416,-0.80361915,11.828796,1.0
1324000,1.117802,1.144546,11.828796,1.0
1328000,1.3878529,1.4210665,11.828796,1.0
1332000,-1.6862097,-1.72657,11.828796,1.0
1336000,0.90526354,0.9269099,11.828796,1.0
1340000,-1.6856464,-1.7259778,11.828796,1.0
1344000,-1.1564918,-1.1841664,11.828796,1.0
1348000,1.7190207,1.7601609,11.828796,1.0
1352000,0.44354495,0.4541565,11.828796,1.0
1356000,-0.868461,-0.8892413,11.828796,1.0
1360000,0.98093235,1.0043981,11.828796,1.0
1364000,-1.907493,-1.9531238,11.828796,1.0
1368000,-1.0026901,-1.026685,11.828796,1.0
1372000,0.70621276,0.72310746,11.828796,1.0
1376000,-1.4974215,-1.5332483,11.828796,1.0
1380000,-0.67860633,-0.69484246,11.828796,1.0
1384000,1.4040142,1.4376051,11.828796,1.0
1388000,-0.9018404,-0.9234214,11.828796,1.0
1392000,1.1551571,1.1828007,11.828796,1.0
1396000,-0.89344436,-0.91482496,11.828796,1.0
1400000,-1.3364763,-1.3684522,11.828796,1.0
1404000,0.4782361,0.48967817,11.828796,1.0
1408000,1.0537239,1.0789438,11.828796,1.0
1412000,-1.00564,-1.0297071,11.828796,1.0
1416000,-1.8934555,-1.938769,11.828796,1.0
1420000,0.93625486,0.95866096,11.828796,1.0
1424000,0.5021097,0.51412624,11.828796,1.0
1428000,-0.9650905,-0.9881653,11.828796,1.0
1432000,-0.4418261,-0.4523992,11.828796,1.0
1436000,1.8645458,1.909154,11.828796,1.0
1440000,-1.4137563,-1.447586,11.828796,1.0
1444000,0.97874963,1.0021701,11.828796,1.0
1452000,1.2609576,1.2911236,11.828796,1.0
1456000,0.887931,0.9091789,11.828796,1.0
1460000,1.7179849,1.7590958,11.828796,1.0
1464000,1.2299349,1.2593588,11.828796,1.0
1468000,0.20292623,0.20778085,11.828796,1.0
1472000,0.9136618,0.93551695,11.828796,1.0
1476000,1.2575477,1.2876288,11.828796,1.0
1480000,-1.2615736,-1.2917528,11.828796,1.0
1484000,1.3751179,1.4080166,11.828796,1.0
1488000,0.7123561,0.72940284,11.828796,1.0
1492000,0.8770167,0.89799803,11.828796,1.0
1496000,1.2688867,1.2992438,11.828796,1.0
1500000,1.1604676,1.1882398,11.828796,1.0
1504000,1.4730284,1.5082886,11.828796,1.0
1508000,0.8939183,0.9153162,11.828796,1.0
1512000,-1.856777,-1.9011908,11.828796,1.0
1516000,-1.4291826,-1.4633938,11.828796,1.0
1520000,1.3779857,1.4109648,11.828796,1.0
1524000,-0.52133805,-0.533815,11.828796,1.0
1532000,-0.59695995,-0.61124676,11.828796,1.0
1536000,0.8166585,0.83620566,11.828796,1.0
1544000,-0.6918546,-0.70841485,11.828796,1.0
1548000,-0.37786794,-0.38690895,11.828796,1.0
1556000,2.026331,2.0748124,11.828796,1.0
1560000,1.7291062,1.7704794,11.828796,1.0
1564000,-1.3944315,-1.4277993,11.828796,1.0
1568000,1.1106445,1.1372087,11.828796,1.0
1572000,0.47145516,0.48273447,11.828796,1.0
1576000,1.0071765,1.0312779,11.828796,1.0
1580000,-0.7644251,-0.782714,11.828796,1.0
1584000,-0.9293267,-0.95156235,11.828796,1.0
1588000,-0.5093582,-0.52154547,11.828796,1.0
1592000,0.5746655,0.58841926,11.828796,1.0
1596000,0.71572876,0.73285365,11.828796,1.0
1604000,1.6367949,1.6759595,11.828796,1.0
1608000,1.4920201,1.5277207,11.828796,1.0
1612000,0.88002735,0.9010835,11.828796,1.0
1620000,1.260182,1.2903309,11.828796,1.0
1624000,-0.6810583,-0.69735503,11.828796,1.0
1628000,-1.1209722,-1.1477915,11.828796,1.0
1632000,0.73963416,0.75733125,11.828796,1.0
1636000,-1.1128304,-1.1394633,11.828796,1.0
1640000,1.8729556,1.9177775,11.828796,1.0
1644000,-0.86662763,-0.887367,11.828796,1.0
1648000,0.34551212,0.3537811,11.828796,1.0
1652000,1.2411667,1.270865,11.828796,1.0
1656000,-0.802945,-0.8221576,11.828796,1.0
1660000,1.5479068,1.5849504,11.828796,1.0
1664000,-1.38461,-1.4177573,11.828796,1.0
1668000,-1.0396576,-1.0645467,11.828796,1.0
1672000,0.43328765,0.44365832,11.828796,1.0
1676000,-1.1890178,-1.2174685,11.828796,1.0
1680000,1.2519549,1.2819182,11.828796,1.0
1684000,-1.4432156,-1.4777564,11.828796,1.0
1688000,-0.60772437,-0.62226593,11.828796,1.0
1692000,2.1199784,2.1707182,11.828796,1.0
1696000,-0.9104252,-0.93220013,11.828796,1.0
1700000,-0.500305,-0.5122715,11.828796,1.0
1704000,1.2297583,1.2591854,11.828796,1.0
1708000,-1.2786238,-1.3092203,11.828796,1.0
1712000,1.0191652,1.0435604,11.828796,1.0
1716000,-1.6976231,-1.7382356,11.828796,1.0
1720000,-0.4811505,-0.4926615,11.828796,1.0
1724000,-0.22716798,-0.23260596,11.828796,1.0
1728000,1.0074008,1.0315031,11.828796,1.0
1732000,-0.7868169,-0.8056417,11.828796,1.0
1736000,0.8845533,0.90572655,11.828796,1.0
1740000,1.2685453,1.2988862,11.828796,1.0
1748000,0.110698886,0.11334759,11.828796,1.0
1752000,1.4649005,1.4999597,11.828796,1.0
1756000,0.33810425,0.34619603,11.828796,1.0
1760000,1.8768264,1.9217275,11.828796,1.0
1764000,-1.2983942,-1.3294569,11.828796,1.0
1768000,0.34186074,0.3500382,11.828796,1.0
1772000,0.6804959,0.69678056,11.828796,1.0
1776000,1.051206,1.0763497,11.828796,1.0
1780000,-1.1114453,-1.1380299,11.828796,1.0
1784000,-1.5572863,-1.5945288,11.828796,1.0
1788000,1.3655885,1.3982694,11.828796,1.0
1796000,-0.90529597,-0.92696625,11.828796,1.0
1800000,-0.7478964,-0.76579607,11.828796,1.0
1804000,1.1772311,1.2054062,11.828796,1.0
1808000,1.461772,1.4967568,11.828796,1.0
1812000,0.8505731,0.8709264,11.828796,1.0
1816000,-0.78734803,-0.8061868,11.828796,1.0
1820000,-0.9057126,-0.9273835,11.828796,1.0
1824000,-1.356826,-1.3892913,11.828796,1.0
1828000,1.0850201,1.1109874,11.828796,1.0
1832000,1.2255391,1.2548691,11.828796,1.0
1836000,1.1936368,1.2221943,11.828796,1.0
1840000,1.7109672,1.7519072,11.828796,1.0
1844000,-1.2711415,-1.301549,11.828796,1.0
1848000,-0.83750236,-0.85754514,11.828796,1.0
1852000,-1.1715575,-1.1995949,11.828796,1.0
1856000,-0.92866355,-0.9508895,11.828796,1.0
1860000,1.0625553,1.0879833,11.828796,1.0
1864000,-1.3492754,-1.381538,11.828796,1.0
1868000,1.2303724,1.2598139,11.828796,1.0
1872000,-0.61073685,-0.6253511,11.828796,1.0
1876000,-1.7246671,-1.7659198,11.828796,1.0
1880000,1.2217288,1.2509516,11.828796,1.0
1884000,1.7050271,1.7458167,11.828796,1.0
1888000,-0.9559794,-0.97884715,11.828796,1.0
1896000,0.9213187,0.94336087,11.828796,1.0
1900000,-0.87359536,-0.89449555,11.828796,1.0
1904000,1.1060017,1.1324621,11.828796,1.0
1912000,-0.93190426,-0.9542028,11.828796,1.0
1916000,-1.1324037,-1.1595023,11.828796,1.0
1920000,0.31740275,0.32499242,11.828796,1.0
1928000,-0.80666304,-0.8259681,11.828796,1.0
1932000,-0.7313775,-0.748882,11.828796,1.0
1940000,-0.7022004,-0.7190042,11.828796,1.0
1944000,-0.9116829,-0.93350387,11.828796,1.0
1948000,1.5427637,1.579668,11.828796,1.0
1952000,-0.38201138,-0.39115408,11.828796,1.0
1956000,-1.1558269,-1.1834669,11.828796,1.0
1960000,-1.0640935,-1.0895494,11.828796,1.0
1964000,-1.1466777,-1.1741178,11.828796,1.0
1968000,-1.5479414,-1.5849696,11.828796,1.0
1972000,0.9886286,1.0122973,11.828796,1.0
1976000,1.4880137,1.5236213,11.828796,1.0
1980000,-1.7497363,-1.7916049,11.828796,1.0
1984000,1.2713975,1.3018202,11.828796,1.0
1988000,0.6011264,0.6155123,11.828796,1.0
1992000,-0.69206697,-0.7086279,11.828796,1.0
1996000,-0.8999891,-0.9215255,11.828796,1.0
2000000,0.72183895,0.7391093,11.828796,1.0
2004000,0.6948563,0.71147794,11.828796,1.0
2008000,1.1105253,1.137094,11.828796,1.0
2012000,-1.3885528,-1.4217732,11.828796,1.0
2016000,-1.5896347,-1.6276766,11.828796,1.0
2020000,-1.0333648,-1.0580943,11.828796,1.0
2024000,-1.3429822,-1.3751211,11.828796,1.0
2032000,1.4672698,1.5023829,11.828796,1.0
2036000,1.1146121,1.1412814,11.828796,1.0
2040000,0.92831826,0.9505282,11.828796,1.0
2044000,0.8825937,0.9037097,11.828796,1.0
2048000,-0.5252631,-0.53782964,11.828796,1.0
2052000,-1.5078175,-1.5438919,11.828796,1.0
2056000,-1.455274,-1.4901036,11.828796,1.0
2060000,0.47083205,0.4820983,11.828796,1.0
2064000,-1.1371392,-1.1643438,11.828796,1.0
2068000,0.94795126,0.9706298,11.828796,1.0
2072000,0.8494611,0.8697878,11.828796,1.0
2076000,1.4835193,1.5190184,11.828796,1.0
2080000,-0.21564043,-0.22080007,11.828796,1.0
2084000,-1.2044854,-1.2333093,11.828796,1.0
2088000,1.7900548,1.8328916,11.828796,1.0
2092000,-1.4719279,-1.507161,11.828796,1.0
2096000,-1.456441,-1.4912907,11.828796,1.0
2100000,0.82883525,0.8486599,11.828796,1.0
2104000,-0.59838575,-0.612702,11.828796,1.0
2108000,1.4974935,1.533315,11.828796,1.0
2112000,1.0754799,1.1012182,11.828796,1.0
2116000,0.85594106,0.876423,11.828796,1.0
2120000,-0.95272124,-0.9755155,11.828796,1.0
2124000,1.0238901,1.0483941,11.828796,1.0
2128000,-1.5233419,-1.5598034,11.828796,1.0
2132000,-0.84503347,-0.8652498,11.828796,1.0
2136000,1.1686894,1.1966592,11.828796,1.0
2140000,-1.2519789,-1.2819364,11.828796,1.0
2144000,0.6740928,0.6902205,11.828796,1.0
2148000,-1.2473184,-1.2771764,11.828796,1.0
2152000,-0.7321252,-0.7496477,11.828796,1.0
2156000,-0.9772774,-1.0006646,11.828796,1.0
2160000,-0.7798549,-0.7985111,11.828796,1.0
2164000,1.0276853,1.0522797,11.828796,1.0
2168000,-1.1193,-1.1460831,11.828796,1.0
2172000,-0.34631836,-0.3546045,11.828796,1.0
2176000,-1.1191314,-1.1459109,11.828796,1.0
2180000,0.99844754,1.0223442,11.828796,1.0
2184000,-1.2803532,-1.3109946,11.828796,1.0
2188000,-0.62091535,-0.6357748,11.828796,1.0
2192000,0.5952066,0.6094482,11.828796,1.0
2196000,-0.9994294,-1.023347,11.828796,1.0
2200000,1.0506643,1.0758036,11.828796,1.0
2204000,1.6043826,1.6427748,11.828796,1.0
2208000,-1.6172007,-1.6559123,11.828796,1.0
2212000,-0.8565334,-0.8770344,11.828796,1.0
2216000,0.5051248,0.5172134,11.828796,1.0
2220000,-0.8432632,-0.86344105,11.828796,1.0
2224000,-0.36230427,-0.37097147,11.828796,1.0
2228000,0.79563993,0.8146824,11.828796,1.0
2232000,1.1655234,1.1934186,11.828796,1.0
2236000,-0.90194345,-0.9235247,11.828796,1.0
2240000,1.0193462,1.0437424,11.828796,1.0
2244000,1.0416214,1.0665473,11.828796,1.0
2248000,1.6198053,1.658567,11.828796,1.0
2252000,-1.0712032,-1.0968369,11.828796,1.0
2256000,-1.081429,-1.1073081,11.828796,1.0
2260000,1.0579655,1.083288,11.828796,1.0
2264000,-0.48295927,-0.49451745,11.828796,1.0
2268000,0.14033842,0.143697,11.828796,1.0
2272000,-0.83470196,-0.8546785,11.828796,1.0
2276000,1.2715251,1.3019398,11.828796,1.0
2280000,-0.74524677,-0.76308006,11.828796,1.0
2284000,0.8823284,0.9034476,11.828796,1.0
2288000,1.4456581,1.4802502,11.828796,1.0
2292000,1.3453195,1.3775004,11.828796,1.0
2296000,-1.5668014,-1.6042863,11.828796,1.0
2300000,1.4406005,1.4750661,11.828796,1.0
2304000,1.487156,1.5227484,11.828796,1.0
2308000,1.1749965,1.2031207,11.828796,1.0
2316000,-1.2154143,-1.2444957,11.828796,1.0
2324000,-1.3443754,-1.3765488,11.828796,1.0
2328000,-0.5038783,-0.51593477,11.828796,1.0
2332000,1.3662472,1.3989347,11.828796,1.0
2336000,1.9389503,1.9853377,11.828796,1.0
2340000,1.2851746,1.3159232,11.828796,1.0
2344000,-0.26468933,-0.27102494,11.828796,1.0
2347999,-0.602494,-0.6169059,11.828796,1.0
2352000,-1.051349,-1.0765015,11.828796,1.0
2355999,-0.7013651,-0.71815,11.828796,1.0
2363999,0.92644525,0.94861627,11.828796,1.0
2368000,0.95010376,0.97282976,11.828796,1.0
2371999,-0.5462475,-0.5593168,11.828796,1.0
2376000,1.4061309,1.4397871,11.828796,1.0
2379999,1.501295,1.5372148,11.828796,1.0
2384000,1.285102,1.3158399,11.828796,1.0
2387999,-0.46961564,-0.48085368,11.828796,1.0
2392000,1.4800304,1.5154364,11.828796,1.0
2400000,-1.4365722,-1.4709504,11.828796,1.0
2403999,-0.3079979,-0.3153685,11.828796,1.0
2411999,0.7444852,0.7622974,11.828796,1.0
2416000,-1.9567804,-2.003605,11.828796,1.0
2424000,-0.58271617,-0.5966548,11.828796,1.0
2432000,-0.82577866,-0.84553397,11.828796,1.0
2435999,-1.0323657,-1.0570681,11.828796,1.0
2443999,-1.2438844,-1.2736621,11.828796,1.0
2448000,-0.99349105,-1.0172642,11.828796,1.0
2451999,-0.9853581,-1.0089322,11.828796,1.0
2456000,1.1621969,1.1900139,11.828796,1.0
2459999,-1.0460607,-1.071098,11.828796,1.0
2464000,1.614867,1.653497,11.828796,1.0
2467999,1.0693648,1.0949545,11.828796,1.0
2475999,1.7517383,1.7936503,11.828796,1.0
2480000,1.3336929,1.3656024,11.828796,1.0
2488000,1.4143907,1.4482286,11.828796,1.0
2491999,-1.2118183,-1.2408088,11.828796,1.0
2496000,-2.3029513,-2.3580523,11.828796,1.0
2499999,-1.7953876,-1.8383561,11.828796,1.0
2504000,0.72538596,0.7427422,11.828796,1.0
2507999,-1.6317625,-1.6708152,11.828796,1.0
2512000,-1.5410075,-1.5778832,11.828796,1.0
2515999,1.5929747,1.6310865,11.828796,1.0
2520000,-0.6419408,-0.65729904,11.828796,1.0
2523999,-1.1378043,-1.1650354,11.828796,1.0
2528000,1.4430149,1.4775426,11.828796,1.0
2531999,-0.97676826,-1.0001446,11.828796,1.0
2536000,0.9695786,0.99278474,11.828796,1.0
2540000,1.2548013,1.2848294,11.828796,1.0
2544000,1.924499,1.9705497,11.828796,1.0
2552000,-1.0251056,-1.0496322,11.828796,1.0
2556000,0.894331,0.9157259,11.828796,1.0
2560000,2.0966916,2.1468573,11.828796,1.0
2564000,1.0118718,1.036091,11.828796,1.0
2568000,1.5322777,1.5689365,11.828796,1.0
2572000,-1.3669503,-1.3996373,11.828796,1.0
2576000,0.538226,0.5511059,11.828796,1.0
2584000,-1.2623012,-1.2924999,11.828796,1.0
2588000,0.8425146,0.86266875,11.828796,1.0
2592000,-1.5856196,-1.6235679,11.828796,1.0
2596000,1.4249364,1.4590392,11.828796,1.0
2600000,-1.3718207,-1.404646,11.828796,1.0
2604000,-0.76511455,-0.78342277,11.828796,1.0
2608000,1.1452777,1.1726906,11.828796,1.0
2612000,0.8463631,0.8666106,11.828796,1.0
2616000,-1.0201514,-1.0445741,11.828796,1.0
2620000,-1.2879397,-1.3187712,11.828796,1.0
2624000,1.662024,1.7018106,11.828796,1.0
2628000,1.5007778,1.5366685,11.828796,1.0
2636000,1.9893188,2.036905,11.828796,1.0
2644000,0.5502943,0.5634626,11.828796,1.0
2648000,1.0626514,1.0880818,11.828796,1.0
2652000,-1.5782541,-1.6160239,11.828796,1.0
2656000,1.3860663,1.4192319,11.828796,1.0
2660000,-1.4563872,-1.4912431,11.828796,1.0
2664000,1.756094,1.7981137,11.828796,1.0
2672000,0.8921367,0.91347945,11.828796,1.0
2676000,-1.5426577,-1.5795703,11.828796,1.0
2680000,-1.4940754,-1.529822,11.828796,1.0
2684000,-1.0957434,-1.1219597,11.828796,1.0
2688000,-0.5994486,-0.61379814,11.828796,1.0
2692000,-1.6624894,-1.7022713,11.828796,1.0
2700000,-0.7299418,-0.74741125,11.828796,1.0
2704000,-1.0893761,-1.115445,11.828796,1.0
2708000,1.0160168,1.0403359,11.828796,1.0
2712000,1.7284064,1.7697607,11.828796,1.0
2720000,1.3263682,1.3581021,11.828796,1.0
2724000,-1.2723802,-1.3028413,11.828796,1.0
2728000,-0.31997624,-0.32763264,11.828796,1.0
2732000,0.18400726,0.1884088,11.828796,1.0
2736000,0.58013356,0.5940171,11.828796,1.0
2740000,-1.0877594,-1.1137912,11.828796,1.0
2744000,0.7941826,0.813189,11.828796,1.0
2748000,-1.0730387,-1.098716,11.828796,1.0
2752000,-0.25566673,-0.26178247,11.828796,1.0
2756000,1.1564322,1.1840992,11.828796,1.0
2760000,-0.41908425,-0.4291101,11.828796,1.0
2764000,1.3481256,1.3803767,11.828796,1.0
2768000,-0.5537552,-0.5670046,11.828796,1.0
2772000,0.094552055,0.09681476,11.828796,1.0
2780000,0.9548127,0.9776595,11.828796,1.0
2784000,-1.3108088,-1.3421717,11.828796,1.0
2788000,0.42348042,0.43361625,11.828796,1.0
2792000,0.24336356,0.24918628,11.828796,1.0
2796000,-1.4096425,-1.4433696,11.828796,1.0
2800000,-0.49722326,-0.5091213,11.828796,1.0
2804000,-0.83530396,-0.8552972,11.828796,1.0
2808000,-1.0779289,-1.103723,11.828796,1.0
2812000,0.35094583,0.35934374,11.828796,1.0
2816000,0.7711478,0.789603,11.828796,1.0
2824000,-0.66877955,-0.6847912,11.828796,1.0
2828000,-1.9584423,-2.0053074,11.828796,1.0
2836000,-0.69099927,-0.70753545,11.828796,1.0
2840000,0.76164234,0.7798688,11.828796,1.0
2844000,1.498802,1.5346689,11.828796,1.0
2848000,-0.9993564,-1.0232747,11.828796,1.0
2856000,1.28449,1.3152213,11.828796,1.0
2860000,1.2442048,1.2739813,11.828796,1.0
2864000,1.367742,1.400468,11.828796,1.0
2868000,-1.220988,-1.2502129,11.828796,1.0
2876000,0.92156947,0.9436243,11.828796,1.0
2880000,0.6159529,0.6306911,11.828796,1.0
2884000,-0.83357817,-0.8535274,11.828796,1.0
2888000,-0.83596486,-0.85597116,11.828796,1.0
2896000,-1.3164021,-1.3478955,11.828796,1.0
2900000,0.5773291,0.59114605,11.828796,1.0
2904000,1.8237418,1.8673925,11.828796,1.0
2912000,-1.8020036,-1.8451265,11.828796,1.0
2920000,-0.67349005,-0.6896015,11.828796,1.0
2924000,-0.50722486,-0.5193646,11.828796,1.0
2928000,1.3178161,1.3493476,11.828796,1.0
2932000,0.81612706,0.83566076,11.828796,1.0
2936000,-1.2421671,-1.2718978,11.828796,1.0
2940000,-1.3424063,-1.3745238,11.828796,1.0
2948000,1.1989322,1.2276113,11.828796,1.0
2952000,-1.8066041,-1.8498366,11.828796,1.0
2960000,1.1797665,1.2079942,11.828796,1.0
2968000,-1.4563543,-1.4912078,11.828796,1.0
2972000,1.4579569,1.4928539,11.828796,1.0
2980000,1.63207,1.6711081,11.828796,1.0
2984000,-0.5449737,-0.5580111,11.828796,1.0
2992000,-0.9077172,-0.92943484,11.828796,1.0
2996000,-1.9684949,-2.0155947,11.828796,1.0
3004000,1.2612892,1.2914724,11.828796,1.0
3008000,-0.43025008,-0.44054317,11.828796,1.0
3016000,1.0331969,1.0579183,11.828796,1.0
3020000,1.0866022,1.1126035,11.828796,1.0
3028000,1.6606926,1.7004386,11.828796,1.0
3036000,1.0595702,1.0849291,11.828796,1.0
3040000,-2.004499,-2.0524786,11.828796,1.0
3044000,-1.2076124,-1.2365129,11.828796,1.0
3048000,0.30208698,0.30931342,11.828796,1.0
3056000,-0.8709792,-0.8918214,11.828796,1.0
3064000,-1.3362226,-1.3681992,11.828796,1.0
3068000,0.96917355,0.99236643,11.828796,1.0
3072000,-1.073812,-1.0995064,11.828796,1.0
3076000,1.5743461,1.6120064,11.828796,1.0
3080000,1.4345093,1.4688277,11.828796,1.0
3084000,-1.217523,-1.2466528,11.828796,1.0
3088000,-0.860428,-0.8810139,11.828796,1.0
3092000,-0.5548137,-0.56808776,11.828796,1.0
3096000,-1.4726644,-1.5079103,11.828796,1.0
3104000,0.44605586,0.45672676,11.828796,1.0
3108000,-0.5037334,-0.5157926,11.828796,1.0
3112000,1.0899458,1.1160204,11.828796,1.0
3116000,0.6821149,0.6984417,11.828796,1.0
3120000,0.2497211,0.25569734,11.828796,1.0
3124000,-0.8128563,-0.83230424,11.828796,1.0
3128000,-1.1950685,-1.2236644,11.828796,1.0
3132000,-1.302528,-1.3336992,11.828796,1.0
3136000,-1.491003,-1.5267012,11.828796,1.0
3140000,-0.8908837,-0.9122046,11.828796,1.0
3148000,1.5728602,1.610496,11.828796,1.0
3156000,-0.86252534,-0.8831678,11.828796,1.0
3160000,0.40575376,0.41546085,11.828796,1.0
3168000,-0.6116225,-0.62625766,11.828796,1.0
3172000,-1.0009682,-1.0249248,11.828796,1.0
3176000,2.2291117,2.282462,11.828796,1.0
3180000,-1.2735705,-1.3040398,11.828796,1.0
3184000,-1.1795787,-1.2077936,11.828796,1.0
3188000,1.7802147,1.8228209,11.828796,1.0
3196000,0.6500458,0.6656082,11.828796,1.0
3200000,-0.41046706,-0.4202896,11.828796,1.0
3204000,-1.2867621,-1.3175604,11.828796,1.0
3208000,-0.8636557,-0.88432354,11.828796,1.0
3212000,-1.0406528,-1.0655563,11.828796,1.0
3216000,1.0511539,1.0763015,11.828796,1.0
3220000,-0.66331196,-0.679182,11.828796,1.0
3224000,-0.8452459,-0.86548066,11.828796,1.0
3228000,-1.591236,-1.6293159,11.828796,1.0
3232000,-0.7846571,-0.80342877,11.828796,1.0
3236000,0.80507433,0.82433444,11.828796,1.0
3240000,-1.6918592,-1.7323369,11.828796,1.0
3244000,1.0280399,1.0526456,11.828796,1.0
3248000,1.7684025,1.8107327,11.828796,1.0
3252000,0.7673048,0.785668,11.828796,1.0
3256000,0.6145061,0.62920964,11.828796,1.0
3260000,0.83681816,0.85684997,11.828796,1.0
3264000,0.9761541,0.9995118,11.828796,1.0
3268000,-1.0911915,-1.1172928,11.828796,1.0
3272000,-1.5081962,-1.5442958,11.828796,1.0
3276000,1.3066789,1.3379471,11.828796,1.0
3284000,1.7675687,1.809856,11.828796,1.0
3288000,-1.2547723,-1.2847968,11.828796,1.0
3292000,-1.2422514,-1.271971,11.828796,1.0
3300000,0.67657405,0.69276565,11.828796,1.0
3304000,-0.6330552,-0.64820296,11.828796,1.0
3308000,1.1217782,1.1486202,11.828796,1.0
3312000,0.099013574,0.10138268,11.828796,1.0
3316000,-0.70359874,-0.72043383,11.828796,1.0
3320000,0.97137237,0.9946195,11.828796,1.0
3324000,0.61971253,0.63453734,11.828796,1.0
3328000,0.322993,0.33072302,11.828796,1.0
3332000,1.4349415,1.4692832,11.828796,1.0
3340000,-1.947587,-1.9941639,11.828796,1.0
3344000,0.7492911,0.76722556,11.828796,1.0
3352000,-1.5107368,-1.546899,11.828796,1.0
3356000,0.43754724,0.4480157,11.828796,1.0
3360000,1.2386278,1.2682612,11.828796,1.0
3364000,0.27474883,0.2813207,11.828796,1.0
3368000,-0.33639643,-0.34444743,11.828796,1.0
3372000,1.1075912,1.1341007,11.828796,1.0
3376000,1.263249,1.2934756,11.828796,1.0
3380000,-0.05325781,-0.054532148,11.828796,1.0
3388000,1.3400445,1.3721075,11.828796,1.0
3392000,1.1635963,1.1914426,11.828796,1.0
3396000,0.48504466,0.49665087,11.828796,1.0
3400000,0.7425872,0.76035607,11.828796,1.0
3404000,-0.978166,-1.0015718,11.828796,1.0
3408000,1.1786749,1.2068855,11.828796,1.0
3412000,1.2008332,1.2295741,11.828796,1.0
3420000,-1.1354653,-1.1626368,11.828796,1.0
3424000,1.6129471,1.6515508,11.828796,1.0
3428000,0.62577295,0.64074945,11.828796,1.0
3432000,-1.5321512,-1.5688024,11.828796,1.0
3436000,-1.5052657,-1.5412953,11.828796,1.0
3440000,-1.1032189,-1.1296084,11.828796,1.0
3444000,-0.9896718,-1.0133452,11.828796,1.0
3448000,1.0663769,1.091897,11.828796,1.0
3452000,-1.4410759,-1.4755608,11.828796,1.0
3456000,1.4168432,1.4507529,11.828796,1.0
3460000,-2.1084065,-2.158854,11.828796,1.0
3464000,1.4449909,1.479571,11.828796,1.0
3468000,1.6263542,1.6652682,11.828796,1.0
3472000,1.3006175,1.3317326,11.828796,1.0
3480000,-1.8950918,-1.940432,11.828796,1.0
3488000,1.1017374,1.1281024,11.828796,1.0
3492000,-1.9114956,-1.9572483,11.828796,1.0
3496000,-1.3537557,-1.3861578,11.828796,1.0
3500000,1.1507485,1.1782916,11.828796,1.0
3504000,-1.2939955,-1.32495,11.828796,1.0
3508000,1.0191863,1.0435668,11.828796,1.0
3512000,-1.3580685,-1.3905691,11.828796,1.0
3516000,-1.6023017,-1.6406446,11.828796,1.0
3520000,-1.0330667,-1.0577855,11.828796,1.0
3524000,-1.4541657,-1.4889609,11.828796,1.0
3528000,-1.2925196,-1.3234609,11.828796,1.0
3532000,0.6226199,0.6375269,11.828796,1.0
3536000,0.40095642,0.4105527,11.828796,1.0
3540000,0.6312336,0.6463412,11.828796,1.0
3544000,0.524901,0.53746283,11.828796,1.0
3548000,-0.44472462,-0.45536453,11.828796,1.0
3552000,-0.99004906,-1.0137447,11.828796,1.0
3560000,-0.9006357,-0.92218864,11.828796,1.0
3564000,0.17454469,0.17872185,11.828796,1.0
3568000,-0.38193575,-0.39107513,11.828796,1.0
3572000,-1.1258966,-1.1528414,11.828796,1.0
3576000,0.3655816,0.3743286,11.828796,1.0
3584000,1.2863603,1.3171318,11.828796,1.0
3588000,-1.9883146,-2.035877,11.828796,1.0
3592000,-0.8204389,-0.84007376,11.828796,1.0
3600000,-1.8399571,-1.8839778,11.828796,1.0
3604000,0.49289343,0.5046861,11.828796,1.0
3608000,0.73375654,0.75130814,11.828796,1.0
3612000,-0.49887738,-0.51081795,11.828796,1.0
3616000,0.21362102,0.21873347,11.828796,1.0
3620000,-1.1271174,-1.154092,11.828796,1.0
3624000,-1.5654336,-1.6028787,11.828796,1.0
3628000,0.83245504,0.85237086,11.828796,1.0
3632000,1.6102623,1.6487868,11.828796,1.0
3636000,-1.6556733,-1.6952826,11.828796,1.0
3640000,0.8020743,0.82126725,11.828796,1.0
3644000,1.3514446,1.3837835,11.828796,1.0
3648000,-0.92902297,-0.9512549,11.828796,1.0
3652000,-1.1464887,-1.1739198,11.828796,1.0
3656000,-0.99934906,-1.0232652,11.828796,1.0
3660000,1.7112559,1.7522092,11.828796,1.0
3664000,-1.3003787,-1.3314923,11.828796,1.0
3668000,-1.1326019,-1.15971,11.828796,1.0
3676000,-1.9324402,-1.9786838,11.828796,1.0
3680000,-0.96290964,-0.98594975,11.828796,1.0
3688000,-1.2376864,-1.2672976,11.828796,1.0
3692000,-0.73851854,-0.7561874,11.828796,1.0
3700000,-1.794297,-1.8372246,11.828796,1.0
3704000,-1.1630473,-1.1908772,11.828796,1.0
3708000,-1.1414434,-1.1687522,11.828796,1.0
3716000,1.0415999,1.0665245,11.828796,1.0
3720000,-1.6775194,-1.7176746,11.828796,1.0
3728000,0.51860476,0.5310176,11.828796,1.0
3732000,-0.41374364,-0.4236458,11.828796,1.0
3740000,-0.7931164,-0.8120913,11.828796,1.0
3748000,-0.96988386,-0.99309397,11.828796,1.0
3752000,-0.90207475,-0.9236643,11.828796,1.0
3760000,-1.5133498,-1.5495634,11.828796,1.0
3764000,-1.0915071,-1.117633,11.828796,1.0
3768000,-0.91499937,-0.9368917,11.828796,1.0
3772000,-0.8306882,-0.8505646,11.828796,1.0
3776000,0.98302263,1.0065416,11.828796,1.0
3784000,0.61989516,0.634723,11.828796,1.0
3788000,0.8137422,0.8332165,11.828796,1.0
3792000,-1.6941736,-1.7346989,11.828796,1.0
3796000,0.45440984,0.46527952,11.828796,1.0
3804000,-1.8922138,-1.9375002,11.828796,1.0
3808000,-0.57155275,-0.58522624,11.828796,1.0
3812000,-0.65420383,-0.66985846,11.828796,1.0
3820000,0.36150303,0.37015396,11.828796,1.0
3824000,0.9354023,0.95778203,11.828796,1.0
3828000,1.4515934,1.4863347,11.828796,1.0
3832000,0.77648646,0.7950619,11.828796,1.0
3836000,-0.92362714,-0.945736,11.828796,1.0
3840000,-0.41408888,-0.42399687,11.828796,1.0
3844000,-1.3255028,-1.3572121,11.828796,1.0
3848000,0.46455202,0.47566923,11.828796,1.0
3852000,0.85346186,0.8738882,11.828796,1.0
3856000,0.3405287,0.34867498,11.828796,1.0
3860000,-1.3019197,-1.3330648,11.828796,1.0
3864000,1.0245825,1.0490971,11.828796,1.0
3868000,1.4196249,1.4536103,11.828796,1.0
3872000,0.62386304,0.6387907,11.828796,1.0
3876000,-1.2960715,-1.3270801,11.828796,1.0
3880000,-1.3394178,-1.3714793,11.828796,1.0
3884000,-1.7017746,-1.7425116,11.828796,1.0
3892000,-1.1741601,-1.2022514,11.828796,1.0
3896000,0.26687178,0.2732605,11.828796,1.0
3904000,1.2765832,1.3071284,11.828796,1.0
3908000,-1.4646803,-1.499733,11.828796,1.0
3912000,0.82895666,0.8487972,11.828796,1.0
3916000,-0.8884375,-0.9097017,11.828796,1.0
3920000,-0.838852,-0.85892886,11.828796,1.0
3924000,-1.1947235,-1.2233185,11.828796,1.0
3928000,-1.0169793,-1.0413154,11.828796,1.0
3932000,0.7741225,0.7926541,11.828796,1.0
3936000,0.68724865,0.7036933,11.828796,1.0
3940000,-0.8903408,-0.9116513,11.828796,1.0
3944000,-1.0321735,-1.0568682,11.828796,1.0
3948000,0.41355452,0.42345092,11.828796,1.0
3952000,1.6184707,1.657188,11.828796,1.0
3960000,-0.6886723,-0.70515424,11.828796,1.0
3964000,1.2622252,1.2924303,11.828796,1.0
3968000,-1.6602478,-1.6999776,11.828796,1.0
3972000,1.0762343,1.1019846,11.828796,1.0
3976000,1.3119527,1.3433585,11.828796,1.0
3980000,0.80114543,0.8203144,11.828796,1.0
3984000,1.3094518,1.340783,11.828796,1.0
3988000,-0.9341058,-0.9564548,11.828796,1.0
3992000,1.5053529,1.5413859,11.828796,1.0
3996000,-1.6409744,-1.6802262,11.828796,1.0
4000000,1.6945796,1.7351304,11.828796,1.0
4004000,-0.41265416,-0.42252886,11.828796,1.0
4008000,1.5195721,1.5559307,11.828796,1.0
4016000,0.9712425,0.9944825,11.828796,1.0
4020000,-1.7147052,-1.7557349,11.828796,1.0
4024000,0.854148,0.87458736,11.828796,1.0
4028000,-1.0990666,-1.1253713,11.828796,1.0
4032000,2.0227983,2.0711892,11.828796,1.0
4036000,-0.51201826,-0.52426714,11.828796,1.0
4040000,1.2153064,1.2443942,11.828796,1.0
4048000,-1.6567875,-1.6964397,11.828796,1.0
4052000,0.4643176,0.47542685,11.828796,1.0
4056000,-1.1884059,-1.2168407,11.828796,1.0
4064000,1.4183606,1.4523184,11.828796,1.0
4072000,1.4333813,1.4676764,11.828796,1.0
4076000,-1.0766914,-1.1024485,11.828796,1.0
4080000,1.1506764,1.1782069,11.828796,1.0
4084000,1.2750626,1.3055604,11.828796,1.0
4092000,-0.6328404,-0.6479836,11.828796,1.0
4096000,-1.7462864,-1.7880847,11.828796,1.0
4100000,-0.69026035,-0.706774,11.828796,1.0
4104000,0.8652405,0.8859417,11.828796,1.0
4108000,1.1485528,1.1760323,11.828796,1.0
4112000,1.3455455,1.377749,11.828796,1.0
4120000,-1.9984646,-2.0462925,11.828796,1.0
4124000,0.22943936,0.23493068,11.828796,1.0
4128000,-1.5489852,-1.5860522,11.828796,1.0
4132000,-1.0297737,-1.0544091,11.828796,1.0
4136000,-1.5585505,-1.59584,11.828796,1.0
4140000,1.090195,1.1162814,11.828796,1.0
4144000,1.0918709,1.1179987,11.828796,1.0
4148000,-0.636959,-0.65219945,11.828796,1.0
4152000,1.567594,1.6051143,11.828796,1.0
4156000,1.7331201,1.7745838,11.828796,1.0
4160000,-1.3386431,-1.3706748,11.828796,1.0
4164000,1.4504368,1.4851484,11.828796,1.0
4168000,1.13081,1.1578723,11.828796,1.0
4172000,-0.9350697,-0.9574475,11.828796,1.0
4176000,1.1244186,1.1513283,11.828796,1.0
4180000,-0.9947142,-1.0185198,11.828796,1.0
4184000,0.9314319,0.9537181,11.828796,1.0
4188000,0.6566721,0.67238116,11.828796,1.0
4192000,-0.754687,-0.77274257,11.828796,1.0
4196000,1.3820449,1.4151264,11.828796,1.0
4200000,-0.64833146,-0.6638455,11.828796,1.0
4204000,0.9217648,0.9438151,11.828796,1.0
4208000,0.50505877,0.51714426,11.828796,1.0
4212000,1.0158741,1.0401828,11.828796,1.0
4216000,-0.40145892,-0.41107,11.828796,1.0
4220000,-0.90645134,-0.9281344,11.828796,1.0
4224000,1.4132632,1.4470898,11.828796,1.0
4228000,1.0569619,1.0822529,11.828796,1.0
4232000,-0.9276738,-0.94986403,11.828796,1.0
4236000,0.57138807,0.5850558,11.828796,1.0
4240000,0.53559685,0.5484127,11.828796,1.0
4244000,1.6469295,1.6863346,11.828796,1.0
4248000,0.36036044,0.3689838,11.828796,1.0
4252000,-0.8540206,-0.8744572,11.828796,1.0
4256000,-1.4779763,-1.5133489,11.828796,1.0
4264000,-1.15401,-1.1816276,11.828796,1.0
4268000,1.3765054,1.4094477,11.828796,1.0
4272000,-0.8131177,-0.83257693,11.828796,1.0
4276000,-0.7336893,-0.75124437,11.828796,1.0
4280000,1.432608,1.4668999,11.828796,1.0
4284000,0.97241926,0.9956811,11.828796,1.0
4288000,1.1551249,1.1827667,11.828796,1.0
4292000,-1.9460355,-1.9926072,11.828796,1.0
4296000,-1.3601779,-1.3927284,11.828796,1.0
4300000,1.6587611,1.6984738,11.828796,1.0
4304000,1.5709456,1.6085298,11.828796,1.0
4308000,-1.2398261,-1.2694937,11.828796,1.0
4312000,0.7221365,0.7394228,11.828796,1.0
4316000,0.70882976,0.72579074,11.828796,1.0
4320000,1.0578803,1.0831934,11.828796,1.0
4324000,-1.3652927,-1.3979584,11.828796,1.0
4328000,-1.1027006,-1.1290883,11.828796,1.0
4336000,-0.9162774,-0.9382078,11.828796,1.0
4340000,-1.030189,-1.0548458,11.828796,1.0
4344000,-0.8503019,-0.8706486,11.828796,1.0
4352000,1.617005,1.6556942,11.828796,1.0
4356000,-0.8816766,-0.90276974,11.828796,1.0
4360000,0.59011465,0.6042325,11.828796,1.0
4364000,-0.62036705,-0.6352069,11.828796,1.0
4368000,0.70134777,0.71813285,11.828796,1.0
4372000,1.0746007,1.1003166,11.828796,1.0
4376000,-1.1858695,-1.2142453,11.828796,1.0
4380000,1.2681717,1.298529,11.828796,1.0
4388000,-0.9745091,-0.9978299,11.828796,1.0
4392000,-1.0085355,-1.0326635,11.828796,1.0
4396000,-1.1101089,-1.1366799,11.828796,1.0
4400000,1.0688053,1.0943719,11.828796,1.0
4404000,-1.6189961,-1.6577269,11.828796,1.0
4408000,-0.9551058,-0.97796506,11.828796,1.0
4412000,1.2315555,1.2610335,11.828796,1.0
4420000,0.47795096,0.48938802,11.828796,1.0
4424000,-0.9143829,-0.9362616,11.828796,1.0
4428000,-1.0535204,-1.0787327,11.828796,1.0
4432000,1.8736647,1.9184957,11.828796,1.0
4436000,0.72470653,0.7420486,11.828796,1.0
4444000,-0.28509834,-0.29191685,11.828796,1.0
4448000,-0.6707605,-0.6868123,11.828796,1.0
4452000,-1.2406067,-1.2702953,11.828796,1.0
4456000,0.38434467,0.39353848,11.828796,1.0
4460000,-1.2136977,-1.2427328,11.828796,1.0
4464000,1.7941666,1.8370901,11.828796,1.0
4468000,1.3552222,1.3876499,11.828796,1.0
4472000,-1.5393412,-1.5761825,11.828796,1.0
4476000,1.1288335,1.1558489,11.828796,1.0
4480000,-1.8831382,-1.9282137,11.828796,1.0
4484000,-0.28390953,-0.2907053,11.828796,1.0
4488000,0.22686335,0.23229147,11.828796,1.0
4492000,-0.45451784,-0.46539617,11.828796,1.0
4500000,-0.8684343,-0.88921446,11.828796,1.0
4508000,1.2737234,1.3042076,11.828796,1.0
4512000,-0.776977,-0.7955729,11.828796,1.0
4520000,1.2111819,1.240165,11.828796,1.0
4524000,0.9738671,0.9971734,11.828796,1.0
4528000,1.2127106,1.2417243,11.828796,1.0
4536000,-0.7463286,-0.7641868,11.828796,1.0
4540000,1.524764,1.5612458,11.828796,1.0
4544000,2.0229301,2.0713422,11.828796,1.0
4548000,1.4618427,1.4968297,11.828796,1.0
4552000,-1.1889609,-1.2174065,11.828796,1.0
4556000,-0.81190115,-0.8313308,11.828796,1.0
4560000,-0.9501262,-0.97286254,11.828796,1.0
4564000,0.9176033,0.9395574,11.828796,1.0
4568000,0.8875884,0.90882677,11.828796,1.0
4572000,1.2822368,1.3129184,11.828796,1.0
4576000,-0.6651103,-0.6810261,11.828796,1.0
4580000,-0.87024206,-0.8910676,11.828796,1.0
4584000,0.4099365,0.41974634,11.828796,1.0
4588000,-0.35880256,-0.36738583,11.828796,1.0
4592000,1.634932,1.6740367,11.828796,1.0
4596000,-1.1075886,-1.1340964,11.828796,1.0
4600000,0.9175688,0.93952215,11.828796,1.0
4604000,-0.7712257,-0.7896777,11.828796,1.0
4608000,1.0900075,1.1160873,11.828796,1.0
4612000,-1.1979432,-1.2266164,11.828796,1.0
4616000,0.85375684,0.8741878,11.828796,1.0
4620000,0.9219076,0.9439673,11.828796,1.0
4624000,-0.6658363,-0.68176603,11.828796,1.0
4628000,0.31878898,0.32641584,11.828796,1.0
4632000,-0.7276485,-0.7450577,11.828796,1.0
4640000,0.7361499,0.7537612,11.828796,1.0
4648000,-0.8378146,-0.8578633,11.828796,1.0
4652000,-1.2790232,-1.3096329,11.828796,1.0
4656000,0.81961286,0.839224,11.828796,1.0
4660000,-0.5613063,-0.57473874,11.828796,1.0
4664000,-0.8406633,-0.8607745,11.828796,1.0
4668000,-1.7636701,-1.8058435,11.828796,1.0
4672000,1.3263178,1.3580663,11.828796,1.0
4676000,1.2207441,1.2499623,11.828796,1.0
4680000,-1.1122972,-1.1389081,11.828796,1.0
4684000,-1.5490621,-1.5861224,11.828796,1.0
4688000,-1.237432,-1.2670424,11.828796,1.0
4692000,0.675495,0.6916641,11.828796,1.0
4696000,-0.3770305,-0.38605285,11.828796,1.0
4700000,1.5588484,1.5961449,11.828796,1.0
4704000,1.2255892,1.2549073,11.828796,1.0
4708000,-1.2560793,-1.2861267,11.828796,1.0
4712000,-0.8369026,-0.8569316,11.828796,1.0
4716000,2.1190221,2.1697347,11.828796,1.0
4720000,1.0479236,1.0730026,11.828796,1.0
4724000,1.3279465,1.3597296,11.828796,1.0
4728000,1.3538,1.3862019,11.828796,1.0
4732000,-0.5467584,-0.55983776,11.828796,1.0
4736000,1.4948654,1.5306348,11.828796,1.0
4740000,-1.0837103,-1.1096423,11.828796,1.0
4744000,0.90552753,0.9272047,11.828796,1.0
4748000,1.4856492,1.5212198,11.828796,1.0
4752000,-0.6548907,-0.6705707,11.828796,1.0
4756000,0.41561067,0.42555463,11.828796,1.0
4760000,1.0854969,1.1114687,11.828796,1.0
4764000,1.7576735,1.7997423,11.828796,1.0
4768000,1.6548494,1.6944572,11.828796,1.0
4772000,0.21339399,0.21849898,11.828796,1.0
4776000,-1.278896,-1.3095047,11.828796,1.0
4780000,-1.399793,-1.433287,11.828796,1.0
4784000,-2.07659,-2.1262913,11.828796,1.0
4788000,1.9249215,1.9709893,11.828796,1.0
4792000,1.398879,1.4323467,11.828796,1.0
4796000,0.8649095,0.8856127,11.828796,1.0
4800000,-1.0795605,-1.1053993,11.828796,1.0
4804000,-1.862481,-1.9070545,11.828796,1.0
4808000,0.7552467,0.77331704,11.828796,1.0
4812000,-0.85056955,-0.8709285,11.828796,1.0
4816000,0.36877438,0.37759808,11.828796,1.0
4820000,0.5662833,0.5798307,11.828796,1.0
4824000,0.71354413,0.73061836,11.828796,1.0
4828000,-2.059859,-2.109149,11.828796,1.0
4832000,0.60998356,0.62457407,11.828796,1.0
4836000,-1.4212556,-1.4552495,11.828796,1.0
4840000,-0.46927154,-0.48050147,11.828796,1.0
4848000,0.9291557,0.951381,11.828796,1.0
4852000,1.1013578,1.127713,11.828796,1.0
4856000,0.96045613,0.9834321,11.828796,1.0
4860000,-1.2624114,-1.2926272,11.828796,1.0
4864000,-1.4184487,-1.4523982,11.828796,1.0
4868000,1.2765783,1.3071322,11.828796,1.0
4872000,0.86983764,0.8906548,11.828796,1.0
4876000,-1.6032782,-1.6416501,11.828796,1.0
4880000,-1.8219196,-1.8655105,11.828796,1.0
4884000,-1.0431039,-1.0680681,11.828796,1.0
4892000,1.5892392,1.6272682,11.828796,1.0
4896000,-1.4301662,-1.464379,11.828796,1.0
4900000,-1.5468227,-1.5838261,11.828796,1.0
4904000,0.38474745,0.39395058,11.828796,1.0
4912000,1.3437494,1.3758985,11.828796,1.0
4916000,-1.9318507,-1.9780843,11.828796,1.0
4920000,0.6114061,0.6260364,11.828796,1.0
4924000,-1.3194364,-1.3510133,11.828796,1.0
4928000,0.10311341,0.10558153,11.828796,1.0
4932000,1.4400358,1.4744841,11.828796,1.0
4936000,-0.747544,-0.76542884,11.828796,1.0
4940000,0.25787377,0.26404336,11.828796,1.0
4944000,-0.8786871,-0.899711,11.828796,1.0
4948000,0.7446447,0.76246417,11.828796,1.0
4952000,-0.9562505,-0.9791312,11.828796,1.0
4956000,1.1373643,1.164581,11.828796,1.0
4960000,1.8541166,1.8984848,11.828796,1.0
4964000,1.7496905,1.7915691,11.828796,1.0
4968000,0.39949214,0.40905192,11.828796,1.0
4972000,1.7157393,1.7567978,11.828796,1.0
4976000,0.4013705,0.41097537,11.828796,1.0
4980000,-0.484763,-0.49636388,11.828796,1.0
4984000,0.9437438,0.96632767,11.828796,1.0
4988000,-1.3654479,-1.3981186,11.828796,1.0
4992000,0.8768481,0.8978282,11.828796,1.0
4996000,-1.7757094,-1.8182052,11.828796,1.0
5000000,-0.42570627,-0.43589973,11.828796,1.0
5004000,1.360993,1.3935819,11.828796,1.0
5012000,-0.23329797,-0.23888047,11.828796,1.0
5016000,1.3973874,1.430822,11.828796,1.0
5020000,-0.9249143,-0.9470459,11.828796,1.0
5024000,0.89524055,0.91666204,11.828796,1.0
5032000,-0.68858147,-0.7050606,11.828796,1.0
5040000,-0.83796644,-0.85801893,11.828796,1.0
5044000,-0.77147764,-0.78994155,11.828796,1.0
5048000,1.1721294,1.2001741,11.828796,1.0
5052000,1.7935855,1.8364993,11.828796,1.0
5056000,-0.8721,-0.8929634,11.828796,1.0
5060000,0.7933971,0.8123912,11.828796,1.0
5064000,-1.4256898,-1.459801,11.828796,1.0
5068000,1.331334,1.3631853,11.828796,1.0
5072000,-0.88818157,-0.90943485,11.828796,1.0
5076000,-0.99601865,-1.019851,11.828796,1.0
5080000,-0.41259965,-0.42246833,11.828796,1.0
5084000,-0.26154974,-0.26780936,11.828796,1.0
5088000,0.25558233,0.26170114,11.828796,1.0
5092000,-0.86991125,-0.89073014,11.828796,1.0
5096000,0.66743153,0.68340385,11.828796,1.0
5100000,0.89622706,0.91766816,11.828796,1.0
5104000,0.96780413,0.9909629,11.828796,1.0
5108000,-0.58875203,-0.6028404,11.828796,1.0
5112000,0.27502128,0.2815985,11.828796,1.0
5116000,1.8704661,1.9152251,11.828796,1.0
5120000,1.1409732,1.1682724,11.828796,1.0
5124000,-1.705757,-1.7465694,11.828796,1.0
5128000,1.1178648,1.1446103,11.828796,1.0
5132000,1.3280761,1.3598452,11.828796,1.0
5136000,0.9224451,0.94451654,11.828796,1.0
5140000,1.2123142,1.241322,11.828796,1.0
5144000,1.208665,1.2375845,11.828796,1.0
5148000,-1.1233909,-1.1502669,11.828796,1.0
5152000,0.7974478,0.816521,11.828796,1.0
5156000,-1.1428933,-1.1702288,11.828796,1.0
5160000,1.3440607,1.3762182,11.828796,1.0
5164000,1.2654496,1.2957277,11.828796,1.0
5168000,0.5380986,0.55097324,11.828796,1.0
5172000,0.9174386,0.9393895,11.828796,1.0
5176000,-1.4453161,-1.479898,11.828796,1.0
5180000,0.89099425,0.9123178,11.828796,1.0
5184000,-0.73737466,-0.75501746,11.828796,1.0
5188000,-0.60438836,-0.6188493,11.828796,1.0
5192000,-1.1050649,-1.1314967,11.828796,1.0
5196000,1.4490691,1.4837384,11.828796,1.0
5200000,0.80463266,0.8238879,11.828796,1.0
5204000,1.6168692,1.6555616,11.828796,1.0
5208000,-1.3960661,-1.4294889,11.828796,1.0
5212000,0.2978082,0.3049337,11.828796,1.0
5216000,0.6812976,0.69759864,11.828796,1.0
5220000,-0.38367537,-0.39285788,11.828796,1.0
5224000,0.63461286,0.64979863,11.828796,1.0
5228000,-0.8087965,-0.8281504,11.828796,1.0
5236000,-1.415673,-1.4495431,11.828796,1.0
5240000,-0.40026042,-0.4098367,11.828796,1.0
5244000,0.8019584,0.8211491,11.828796,1.0
5248000,1.0536886,1.0788941,11.828796,1.0
5252000,-0.97388697,-0.99719566,11.828796,1.0
5256000,0.9360009,0.95839375,11.828796,1.0
5260000,-1.2752135,-1.3057352,11.828796,1.0
5264000,0.9832038,1.0067374,11.828796,1.0
5268000,-1.461978,-1.4969577,11.828796,1.0
5272000,1.4421711,1.4766772,11.828796,1.0
5276000,-1.2280874,-1.2574596,11.828796,1.0
5280000,-1.3665702,-1.3992656,11.828796,1.0
5284000,1.0640844,1.0895535,11.828796,1.0
5288000,-1.3771955,-1.4101627,11.828796,1.0
5292000,1.2392594,1.2689164,11.828796,1.0
5296000,-1.4655305,-1.5005957,11.828796,1.0
5300000,-1.383289,-1.4163989,11.828796,1.0
5304000,-0.83215725,-0.8520672,11.828796,1.0
5308000,-1.1958158,-1.2244198,11.828796,1.0
5312000,1.1904988,1.2189782,11.828796,1.0
5316000,-0.8417846,-0.86192197,11.828796,1.0
5320000,0.22348186,0.22883081,11.828796,1.0
5324000,-0.47055545,-0.48181656,11.828796,1.0
5328000,-1.7213974,-1.762593,11.828796,1.0
5332000,1.2428849,1.2726207,11.828796,1.0
5336000,0.5906925,0.60482603,11.828796,1.0
5340000,1.1922152,1.2207406,11.828796,1.0
5344000,-0.7706996,-0.7891349,11.828796,1.0
5352000,-1.0860115,-1.1119955,11.828796,1.0
5356000,1.4814653,1.5169109,11.828796,1.0
5360000,0.26370674,0.2700164,11.828796,1.0
5368000,-1.5601343,-1.5974692,11.828796,1.0
5372000,-0.9066341,-0.92833036,11.828796,1.0
5376000,-0.89390403,-0.91530126,11.828796,1.0
5380000,1.1336322,1.1607654,11.828796,1.0
5388000,-1.7184509,-1.7595725,11.828796,1.0
5392000,-0.26057655,-0.26681098,11.828796,1.0
5396000,-0.7859714,-0.8047762,11.828796,1.0
5400000,-1.226447,-1.2558066,11.828796,1.0
5404000,0.965286,0.98838145,11.828796,1.0
5412000,-1.451235,-1.485956,11.828796,1.0
5416000,-1.0712599,-1.0968943,11.828796,1.0
5420000,0.9925735,1.016325,11.828796,1.0
5424000,-1.6829317,-1.7231971,11.828796,1.0
5428000,-1.5950719,-1.6332352,11.828796,1.0
5432000,-1.4069583,-1.440625,11.828796,1.0
5436000,-0.8159267,-0.8354441,11.828796,1.0
5440000,1.0763195,1.1020653,11.828796,1.0
5444000,-0.62636566,-0.6413509,11.828796,1.0
5448000,0.9573379,0.9802425,11.828796,1.0
5452000,1.1401321,1.1674101,11.828796,1.0
5456000,1.406177,1.4398333,11.828796,1.0
5460000,1.5378246,1.5746318,11.828796,1.0
5468000,-0.9859156,-1.0095036,11.828796,1.0
5472000,1.2493743,1.2792712,11.828796,1.0
5476000,-1.7063389,-1.7471709,11.828796,1.0
5480000,1.1323787,1.159479,11.828796,1.0
5484000,-1.261378,-1.2915565,11.828796,1.0
5488000,0.9964135,1.0202619,11.828796,1.0
5496000,-2.116204,-2.1668386,11.828796,1.0
5500000,0.8815736,0.90266377,11.828796,1.0
5504000,-1.7848631,-1.8275778,11.828796,1.0
5508000,0.24352553,0.24935423,11.828796,1.0
5512000,0.50537485,0.51746887,11.828796,1.0
5516000,1.8874745,1.932641,11.828796,1.0
5524000,-1.3848243,-1.4179664,11.828796,1.0
5528000,0.88953435,0.9108211,11.828796,1.0
5532000,-1.1599343,-1.1876911,11.828796,1.0
5536000,-0.93823946,-0.96069115,11.828796,1.0
5540000,1.110405,1.1369677,11.828796,1.0
5544000,-0.40285593,-0.4124989,11.828796,1.0
5548000,-0.7039916,-0.7208384,11.828796,1.0
5556000,-0.63912356,-0.654415,11.828796,1.0
5560000,0.7073256,0.72424906,11.828796,1.0
5564000,1.0977393,1.1240039,11.828796,1.0
5568000,1.0120173,1.0362327,11.828796,1.0
5576000,0.5736979,0.5874249,11.828796,1.0
5580000,1.1132425,1.1398765,11.828796,1.0
5584000,-1.7327108,-1.774182,11.828796,1.0
5592000,0.55604255,0.5693489,11.828796,1.0
5596000,-0.47299272,-0.48431164,11.828796,1.0
5600000,0.41833565,0.4283476,11.828796,1.0
5608000,-0.9237354,-0.94584155,11.828796,1.0
5612000,1.3741769,1.4070626,11.828796,1.0
5616000,-1.4442813,-1.4788477,11.828796,1.0
5624000,1.8033531,1.846501,11.828796,1.0
5628000,-1.6636142,-1.7034297,11.828796,1.0
5632000,-0.74846804,-0.76638234,11.828796,1.0
5640000,-1.9203582,-1.9662997,11.828796,1.0
5648000,-0.34066197,-0.3488129,11.828796,1.0
5652000,0.52565444,0.5382316,11.828796,1.0
5656000,1.7993926,1.8424506,11.828796,1.0
5660000,0.56548756,0.57901996,11.828796,1.0
5668000,1.5568522,1.594116,11.828796,1.0
5676000,0.8175372,0.83709484,11.828796,1.0
5680000,-0.41569287,-0.4256367,11.828796,1.0
5688000,1.0065126,1.030601,11.828796,1.0
5692000,-0.9509381,-0.9736894,11.828796,1.0
5696000,1.4534876,1.4882452,11.828796,1.0
5700000,-1.2272079,-1.2565553,11.828796,1.0
5704000,-0.7891967,-0.8080803,11.828796,1.0
5708000,-0.7653325,-0.7836479,11.828796,1.0
5712000,-0.610647,-0.62526274,11.828796,1.0
5716000,1.3093582,1.3406966,11.828796,1.0
5720000,1.2801063,1.3107244,11.828796,1.0
5724000,0.51101094,0.5232328,11.828796,1.0
5728000,-1.1616157,-1.1894168,11.828796,1.0
5732000,0.48252386,0.49407214,11.828796,1.0
5736000,1.0701041,1.0957099,11.828796,1.0
5740000,-1.0625619,-1.0879824,11.828796,1.0
5744000,0.4452038,0.4558548,11.828796,1.0
5748000,-1.1260775,-1.1530176,11.828796,1.0
5752000,-1.5243863,-1.560866,11.828796,1.0
5756000,-1.1776114,-1.205802,11.828796,1.0
5760000,-1.1356847,-1.1628716,11.828796,1.0
5764000,-1.0402617,-1.065156,11.828796,1.0
5768000,-0.816381,-0.8359155,11.828796,1.0
5772000,0.4594901,0.47048813,11.828796,1.0
5776000,-0.8237608,-0.84347737,11.828796,1.0
5780000,1.7290102,1.7703862,11.828796,1.0
5784000,1.2301139,1.2595389,11.828796,1.0
5788000,-1.8594046,-1.903889,11.828796,1.0
5792000,0.9050082,0.9266658,11.828796,1.0
5796000,-0.30145636,-0.3086684,11.828796,1.0
5800000,1.3891674,1.4224097,11.828796,1.0
5804000,-1.257226,-1.2873112,11.828796,1.0
5808000,0.6399919,0.65530676,11.828796,1.0
5812000,-1.281359,-1.3120131,11.828796,1.0
5816000,-0.5357995,-0.548617,11.828796,1.0
5820000,-1.2823172,-1.312993,11.828796,1.0
5824000,-0.681568,-0.69787616,11.828796,1.0
5828000,-1.2028337,-1.2316146,11.828796,1.0
5836000,-1.3817942,-1.4148484,11.828796,1.0
5840000,1.1699555,1.1979468,11.828796,1.0
5844000,2.0509908,2.1000593,11.828796,1.0
5848000,-1.2647732,-1.2950506,11.828796,1.0
5852000,-1.0069083,-1.0309993,11.828796,1.0
5856000,0.95325184,0.97606677,11.828796,1.0
5860000,-0.9747037,-0.99803203,11.828796,1.0
5864000,-0.85678154,-0.8772947,11.828796,1.0
5868000,1.4335476,1.4678558,11.828796,1.0
5872000,1.6521777,1.6917182,11.828796,1.0
5876000,-1.2307025,-1.2601418,11.828796,1.0
5880000,-0.23286958,-0.23844153,11.828796,1.0
5884000,-0.33037746,-0.33828425,11.828796,1.0
5888000,-0.5715425,-0.58522147,11.828796,1.0
5892000,1.0700477,1.0956576,11.828796,1.0
5896000,-0.4801571,-0.49164903,11.828796,1.0
5900000,-1.2080674,-1.2369771,11.828796,1.0
5904000,-1.1585032,-1.1862129,11.828796,1.0
5908000,1.4583555,1.4932373,11.828796,1.0
5912000,-0.81158334,-0.83101046,11.828796,1.0
5916000,0.65185267,0.66745627,11.828796,1.0
5920000,-1.3242799,-1.3559709,11.828796,1.0
5924000,1.4323319,1.4666047,11.828796,1.0
5928000,0.78126013,0.79995453,11.828796,1.0
5932000,0.5463213,0.55939394,11.828796,1.0
5936000,1.8099911,1.8533098,11.828796,1.0
5940000,0.90816426,0.9298888,11.828796,1.0
5944000,1.2954803,1.3264794,11.828796,1.0
5948000,-1.8693889,-1.9141212,11.828796,1.0
5952000,1.2407568,1.270445,11.828796,1.0
5956000,-1.0950423,-1.1212406,11.828796,1.0
5960000,0.99989134,1.0238209,11.828796,1.0
5964000,0.52390176,0.5364372,11.828796,1.0
5968000,-1.3090214,-1.3403424,11.828796,1.0
5972000,1.6820021,1.7222527,11.828796,1.0
5976000,1.006885,1.0309806,11.828796,1.0
5980000,-1.5515187,-1.5886483,11.828796,1.0
5984000,1.0473974,1.0724537,11.828796,1.0
5988000,-0.82639533,-0.8461647,11.828796,1.0
5992000,0.69441944,0.7110385,11.828796,1.0
5996000,-0.9311266,-0.9534083,11.828796,1.0
6000000,-0.47480398,-0.48616597,11.828796,1.0
6004000,0.8537844,0.8742149,11.828796,1.0
6008000,-0.9116847,-0.9335092,11.828796,1.0
6012000,-1.4513394,-1.4860628,11.828796,1.0
6016000,-1.2159802,-1.2450649,11.828796,1.0
6020000,-0.85757977,-0.8781,11.828796,1.0
6024000,0.95303696,0.97584265,11.828796,1.0
6028000,0.19846988,0.20321916,11.828796,1.0
6032000,-1.3382474,-1.3702625,11.828796,1.0
6036000,-1.2053285,-1.2341641,11.828796,1.0
6040000,-1.3109037,-1.3422651,11.828796,1.0
6044000,-0.98616743,-1.0097616,11.828796,1.0
6048000,-0.73327684,-0.75082266,11.828796,1.0
6052000,-1.3863114,-1.4194826,11.828796,1.0
6056000,0.24111871,0.24688838,11.828796,1.0
6064000,0.992959,1.0167218,11.828796,1.0
6072000,-1.0898421,-1.1159108,11.828796,1.0
6076000,-1.2549856,-1.2850045,11.828796,1.0
6084000,1.0132827,1.0375332,11.828796,1.0
6088000,-1.2467979,-1.2766224,11.828796,1.0
6092000,-0.9644651,-0.9875415,11.828796,1.0
6096000,-1.048497,-1.0735979,11.828796,1.0
6100000,0.35894585,0.36753434,11.828796,1.0
6108000,-1.2075281,-1.2364221,11.828796,1.0
6112000,-1.5238006,-1.5602623,11.828796,1.0
6116000,-1.5265504,-1.5630779,11.828796,1.0
6120000,-0.40767702,-0.4174334,11.828796,1.0
6124000,1.4284925,1.4626818,11.828796,1.0
6132000,-0.7055121,-0.72239554,11.828796,1.0
6136000,0.8489718,0.86928743,11.828796,1.0
6144000,0.9762824,0.9996442,11.828796,1.0
6148000,-0.9007731,-0.92233545,11.828796,1.0
6152000,0.5050123,0.5170895,11.828796,1.0
6156000,1.0614076,1.0868148,11.828796,1.0
6160000,0.42537305,0.43555424,11.828796,1.0
6164000,-1.510301,-1.5464364,11.828796,1.0
6168000,-1.3406067,-1.3726795,11.828796,1.0
6172000,-1.4534913,-1.4882839,11.828796,1.0
6180000,0.8400742,0.8601746,11.828796,1.0
6184000,-1.2889951,-1.3198466,11.828796,1.0
6188000,0.8960432,0.9174895,11.828796,1.0
6192000,0.54237974,0.5553623,11.828796,1.0
6196000,-0.6368494,-0.6520888,11.828796,1.0
6200000,-1.4798527,-1.515263,11.828796,1.0
6204000,-1.3430489,-1.3751916,11.828796,1.0
6208000,-0.13149826,-0.13464543,11.828796,1.0
6216000,-0.22027393,-0.22554365,11.828796,1.0
6220000,-1.5777003,-1.6154565,11.828796,1.0
6228000,1.5153028,1.5515504,11.828796,1.0
6232000,1.1451904,1.1725866,11.828796,1.0
6240000,0.5538143,0.5670675,11.828796,1.0
6244000,1.6295623,1.668559,11.828796,1.0
6248000,-1.3527168,-1.3850831,11.828796,1.0
6252000,1.9046192,1.9502037,11.828796,1.0
6256000,1.0542134,1.0794392,11.828796,1.0
6260000,-0.92025965,-0.94228286,11.828796,1.0
6264000,-1.9437238,-1.9902284,11.828796,1.0
6268000,-1.1246924,-1.1516092,11.828796,1.0
6272000,1.1934105,1.2219744,11.828796,1.0
6276000,-0.46358368,-0.4746723,11.828796,1.0
6280000,0.38049167,0.38959733,11.828796,1.0
6284000,1.1233605,1.150244,11.828796,1.0
6288000,1.7596653,1.8017634,11.828796,1.0
6292000,-0.6652661,-0.6811833,11.828796,1.0
6300000,1.7110516,1.7519988,11.828796,1.0
6304000,-0.59259117,-0.60677063,11.828796,1.0
6312000,0.5297728,0.5424489,11.828796,1.0
6316000,1.5962919,1.6345007,11.828796,1.0
6324000,0.53744626,0.55030984,11.828796,1.0
6328000,-0.061593983,-0.06306791,11.828796,1.0
6336000,1.5422012,1.5790918,11.828796,1.0
6344000,-1.7640032,-1.8062313,11.828796,1.0
6348000,-0.3861017,-0.39534366,11.828796,1.0
6351999,0.8956772,0.9171036,11.828796,1.0
6356000,-0.82807106,-0.8478801,11.828796,1.0
6360000,-0.9085268,-0.9302694,11.828796,1.0
