timestamp,roll_body,pitch_body,yaw_body,yaw_sp_move_rate,q_d[0],q_d[1],q_d[2],q_d[3],thrust_body[0],thrust_body[1],thrust_body[2],q_d_valid,roll_reset_integral,pitch_reset_integral,yaw_reset_integral,fw_control_yaw,apply_flaps
12008000,0.0025701304,0.0,1.9673967,0.0,0.5539468,0.00071185816,0.001069883,0.83255106,0.15,0.0,0.0,1,0,0,0,0,0
12032000,0.0028992651,0.0,1.9673967,0.0,0.5539467,0.00080301974,0.0012068938,0.8325509,0.15,0.0,0.0,1,0,0,0,0,0
12056000,0.0032107998,0.0,1.9673967,0.0,0.55394655,0.0008893065,0.0013365779,0.8325507,0.15,0.0,0.0,1,0,0,0,0,0
12080000,0.0031610357,0.0,1.9673967,0.0,0.55394655,0.00087552314,0.0013158624,0.83255076,0.15,0.0,0.0,1,0,0,0,0,0
12104000,0.003409598,0.0,1.9673967,0.0,0.5539465,0.0009443683,0.0014193328,0.8325506,0.15,0.0,0.0,1,0,0,0,0,0
12128000,0.0032085062,0.0,1.9673967,0.0,0.55394655,0.0008886712,0.0013356232,0.8325507,0.15,0.0,0.0,1,0,0,0,0,0
12152000,0.0034130034,0.0,1.9673967,0.0,0.5539465,0.0009453115,0.0014207504,0.8325506,0.15,0.0,0.0,1,0,0,0,0,0
12176000,0.0034594133,0.0,1.9673967,0.0,0.55394644,0.00095816585,0.0014400696,0.8325505,0.15,0.0,0.0,1,0,0,0,0,0
12200000,0.0036089197,0.0,1.9673967,0.0,0.5539464,0.0009995751,0.0015023055,0.83255047,0.15,0.0,0.0,1,0,0,0,0,0
12224000,0.0037942303,0.0,1.9673967,0.0,0.55394626,0.0010509011,0.0015794457,0.8325503,0.15,0.0,0.0,1,0,0,0,0,0
12248000,0.0,0.0,1.6131141,0.0,0.691988,0.0,0.0,0.721909,0.0,0.0,0.0,1,1,1,0,1,2
12272000,0.0,0.0,1.6131141,0.0,0.691988,0.0,0.0,0.721909,1.0,0.0,0.0,1,1,1,0,1,2
12296000,0.0,0.0,1.6131141,0.0,0.691988,0.0,0.0,0.721909,1.0,0.0,0.0,1,1,1,0,1,2
12320000,0.0,0.0,1.6131141,0.0,0.691988,0.0,0.0,0.721909,1.0,0.0,0.0,1,1,1,0,1,2
12344000,0.0,0.0,1.6131141,0.0,0.691988,0.0,0.0,0.721909,1.0,0.0,0.0,1,1,1,0,1,2
12368000,0.0,0.0,1.6131141,0.0,0.691988,0.0,0.0,0.721909,1.0,0.0,0.0,1,1,1,0,1,2
12392000,0.0,0.0,1.6131141,0.0,0.691988,0.0,0.0,0.721909,1.0,0.0,0.0,1,1,1,0,1,2
12416000,0.0,0.0,1.6131141,0.0,0.691988,0.0,0.0,0.721909,1.0,0.0,0.0,1,1,1,0,1,2
12440000,0.0,0.0,1.6131141,0.0,0.691988,0.0,0.0,0.721909,1.0,0.0,0.0,1,1,1,0,1,2
12464000,0.0,0.0,1.6131141,0.0,0.691988,0.0,0.0,0.721909,1.0,0.0,0.0,1,1,1,0,1,2
12488000,0.0,0.0,1.6131141,0.0,0.691988,0.0,0.0,0.721909,1.0,0.0,0.0,1,1,1,0,1,2
12512000,0.0,0.0,1.6131141,0.0,0.691988,0.0,0.0,0.721909,1.0,0.0,0.0,1,1,1,0,1,2
12536000,0.0,0.0,1.6131141,0.0,0.691988,0.0,0.0,0.721909,1.0,0.0,0.0,1,1,1,0,1,2
12560000,0.0,0.0,1.6131141,0.0,0.691988,0.0,0.0,0.721909,1.0,0.0,0.0,1,1,1,0,1,2
12584000,0.0,0.0,1.6131141,0.0,0.691988,0.0,0.0,0.721909,1.0,0.0,0.0,1,1,1,0,1,2
12608000,0.0,0.0,1.6131141,0.0,0.691988,0.0,0.0,0.721909,1.0,0.0,0.0,1,1,1,0,1,2
12632000,0.0,0.0,1.6131141,0.0,0.691988,0.0,0.0,0.721909,1.0,0.0,0.0,1,1,1,0,1,2
12656000,0.0,0.0,1.6131141,0.0,0.691988,0.0,0.0,0.721909,1.0,0.0,0.0,1,1,1,0,1,2
12680000,0.0,0.0,1.6131141,0.0,0.691988,0.0,0.0,0.721909,1.0,0.0,0.0,1,1,1,0,1,2
12704000,0.0,0.0,1.6131141,0.0,0.691988,0.0,0.0,0.721909,1.0,0.0,0.0,1,1,1,0,1,2
12728000,0.0,-0.3138921,1.6131141,0.0,0.68348294,0.1128362,-0.108159475,0.7130362,1.0,0.0,0.0,1,0,0,0,1,2
12752000,0.0,-0.29962727,1.6131141,0.0,0.684237,0.107747704,-0.10328188,0.71382284,1.0,0.0,0.0,1,0,0,0,1,2
12776000,0.0,-0.28615156,1.6131141,0.0,0.68491733,0.10293566,-0.09866928,0.7145326,1.0,0.0,0.0,1,0,0,0,1,2
12800000,0.0,-0.27350548,1.6131141,0.0,0.6855275,0.09841561,-0.09433658,0.7151692,1.0,0.0,0.0,1,0,0,0,1,2
12824000,0.0,-0.2615514,1.6131141,0.0,0.68607914,0.09413929,-0.09023749,0.7157446,1.0,0.0,0.0,1,0,0,0,1,2
12848000,0.0,-0.25018033,1.6131141,0.0,0.6865811,0.09006839,-0.086335324,0.7162683,1.0,0.0,0.0,1,0,0,0,1,2
12872000,0.0,-0.23930453,1.6131141,0.0,0.6870404,0.08617209,-0.082600504,0.71674746,1.0,0.0,0.0,1,0,0,0,1,2
12896000,0.0,-0.22893873,1.6131141,0.0,0.6874593,0.08245611,-0.07903855,0.7171845,1.0,0.0,0.0,1,0,0,0,1,2
12920000,0.0,-0.21900733,1.6131141,0.0,0.6878433,0.07889379,-0.07562388,0.7175851,1.0,0.0,0.0,1,0,0,0,1,2
12944000,0.0,-0.20944823,1.6131141,0.0,0.6881969,0.07546317,-0.072335444,0.717954,1.0,0.0,0.0,1,0,0,0,1,2
12968000,0.0,-0.20020974,1.6131141,0.0,0.6885237,0.07214597,-0.06915573,0.71829486,1.0,0.0,0.0,1,0,0,0,1,2
12992000,0.0,-0.19130056,1.6131141,0.0,0.6888249,0.06894555,-0.06608796,0.71860915,1.0,0.0,0.0,1,0,0,0,1,2
13016000,0.0,-0.1826756,1.6131141,0.0,0.68910354,0.06584594,-0.06311682,0.7188998,1.0,0.0,0.0,1,0,0,0,1,2
13040000,0.0,-0.17429669,1.6131141,0.0,0.6893619,0.06283357,-0.060229305,0.7191693,1.0,0.0,0.0,1,0,0,0,1,2
13064000,0.0,-0.16613123,1.6131141,0.0,0.6896021,0.059896875,-0.057414327,0.7194199,1.0,0.0,0.0,1,0,0,0,1,2
13088000,0.0,-0.1581837,1.6131141,0.0,0.68982476,0.057037607,-0.054673564,0.7196522,1.0,0.0,0.0,1,0,0,0,1,2
13112000,0.0,-0.15042545,1.6131141,0.0,0.69003165,0.054245565,-0.051997244,0.719868,1.0,0.0,0.0,1,0,0,0,1,2
13136000,0.0,-0.14283174,1.6131141,0.0,0.69022405,0.051511943,-0.049376927,0.7200688,1.0,0.0,0.0,1,0,0,0,1,2
13160000,0.0,-0.13538101,1.6131141,0.0,0.6904032,0.048829075,-0.04680525,0.72025573,1.0,0.0,0.0,1,0,0,0,1,2
13184000,0.0,-0.1280732,1.6131141,0.0,0.6905697,0.04619701,-0.04428228,0.72042936,1.0,0.0,0.0,1,0,0,0,1,2
13208000,0.0,-0.12088975,1.6131141,0.0,0.69072425,0.043609135,-0.041801665,0.7205906,1.0,0.0,0.0,1,0,0,0,1,2
13232000,0.0,-0.11381438,1.6131141,0.0,0.6908678,0.04105964,-0.039357837,0.7207404,1.0,0.0,0.0,1,0,0,0,1,2
13256000,0.0,-0.10683263,1.6131141,0.0,0.691001,0.03854338,-0.036945872,0.7208793,1.0,0.0,0.0,1,0,0,0,1,2
13280000,0.0,-0.099931315,1.6131141,0.0,0.6911244,0.03605565,-0.03456125,0.72100806,1.0,0.0,0.0,1,0,0,0,1,2
13304000,0.0,-0.093110874,1.6131141,0.0,0.6912382,0.03359665,-0.032204166,0.7211268,1.0,0.0,0.0,1,0,0,0,1,2
13328000,0.0,-0.08636,1.6131141,0.0,0.691343,0.031162344,-0.029870756,0.7212361,1.0,0.0,0.0,1,0,0,0,1,2
13352000,0.0,-0.079668485,1.6131141,0.0,0.69143903,0.028749092,-0.027557528,0.7213363,1.0,0.0,0.0,1,0,0,0,1,2
13376000,0.0,-0.07302708,1.6131141,0.0,0.6915267,0.026353596,-0.025261316,0.7214278,1.0,0.0,0.0,1,0,0,0,1,2
13400000,0.0,-0.06643769,1.6131141,0.0,0.6916062,0.023976572,-0.022982815,0.7215107,1.0,0.0,0.0,1,0,0,0,1,2
13424000,0.0,-0.05989203,1.6131141,0.0,0.6916777,0.021615066,-0.020719185,0.7215853,1.0,0.0,0.0,1,0,0,0,1,2
13448000,0.0,-0.05338253,1.6131141,0.0,0.6917415,0.019266376,-0.018467844,0.72165185,1.0,0.0,0.0,1,0,0,0,1,2
13472000,0.0,-0.046902273,1.6131141,0.0,0.69179773,0.016928034,-0.016226416,0.7217105,1.0,0.0,0.0,1,0,0,0,1,2
13496000,0.0,-0.040449448,1.6131141,0.0,0.6918465,0.014599415,-0.013994312,0.72176135,1.0,0.0,0.0,1,0,0,0,1,2
13520000,0.0,-0.03401805,1.6131141,0.0,0.6918879,0.012278377,-0.0117694745,0.72180456,1.0,0.0,0.0,1,0,0,0,1,2
13544000,0.0,-0.027602557,1.6131141,0.0,0.69192207,0.009962951,-0.009550016,0.7218402,1.0,0.0,0.0,1,0,0,0,1,2
13568000,0.0,-0.021197923,1.6131141,0.0,0.6919491,0.007651342,-0.0073342165,0.72186846,1.0,0.0,0.0,1,0,0,0,1,2
13592000,0.0,-0.014804503,1.6131141,0.0,0.69196904,0.005343703,-0.0051222225,0.7218892,1.0,0.0,0.0,1,0,0,0,1,2
13616000,0.0,-0.008417852,1.6131141,0.0,0.69198185,0.0030384525,-0.0029125176,0.72190255,1.0,0.0,0.0,1,0,0,0,1,2
13640000,0.0,-0.0020338707,1.6131141,0.0,0.69198763,0.0007341346,-0.0007037069,0.7219086,1.0,0.0,0.0,1,0,0,0,1,2
13664000,0.0,0.004351198,1.6131141,0.0,0.6919863,-0.0015705833,0.0015054874,0.72190726,1.0,0.0,0.0,1,0,0,0,1,2
13688000,0.0,0.010738083,1.6131141,0.0,0.69197804,-0.0038759408,0.0037152946,0.72189856,1.0,0.0,0.0,1,0,0,0,1,2
13712000,0.0,0.017130038,1.6131141,0.0,0.6919626,-0.0061830888,0.005926818,0.7218825,1.0,0.0,0.0,1,0,0,0,1,2
13736000,0.0,0.023530034,1.6131141,0.0,0.6919401,-0.008493076,0.008141063,0.72185904,1.0,0.0,0.0,1,0,0,0,1,2
13760000,0.0,0.0299408,1.6131141,0.0,0.69191045,-0.010806863,0.010358951,0.7218281,1.0,0.0,0.0,1,0,0,0,1,2
13784000,0.0,0.03636275,1.6131141,0.0,0.6918736,-0.013124574,0.0125806,0.72178966,1.0,0.0,0.0,1,0,0,0,1,2
13808000,0.0,0.04279818,1.6131141,0.0,0.69182956,-0.015447016,0.014806783,0.7217437,1.0,0.0,0.0,1,0,0,0,1,2
13832000,0.0,0.049249176,1.6131141,0.0,0.6917782,-0.017774915,0.017038196,0.7216901,1.0,0.0,0.0,1,0,0,0,1,2
13856000,0.0,0.055717632,1.6131141,0.0,0.6917194,-0.020108927,0.019275472,0.72162884,1.0,0.0,0.0,1,0,0,0,1,2
13880000,0.0,0.062205262,1.6131141,0.0,0.6916533,-0.02244965,0.021519177,0.7215598,1.0,0.0,0.0,1,0,0,0,1,2
13904000,0.0,0.06871199,1.6131141,0.0,0.69157964,-0.024797022,0.02376926,0.721483,1.0,0.0,0.0,1,0,0,0,1,2
13928000,0.0,0.0752392,1.6131141,0.0,0.6914984,-0.02715152,0.026026169,0.72139823,1.0,0.0,0.0,1,0,0,0,1,2
13952000,0.0,0.081788145,1.6131141,0.0,0.6914094,-0.029513571,0.028290322,0.72130543,1.0,0.0,0.0,1,0,0,0,1,2
13976000,0.0,0.08835993,1.6131141,0.0,0.69131273,-0.031883538,0.03056206,0.7212046,1.0,0.0,0.0,1,0,0,0,1,2
14000000,0.0,0.09495473,1.6131141,0.0,0.69120824,-0.03426146,0.032841425,0.7210955,1.0,0.0,0.0,1,0,0,0,1,2
14024000,0.0,0.10157339,1.6131141,0.0,0.69109577,-0.036647614,0.03512868,0.7209782,1.0,0.0,0.0,1,0,0,0,1,2
14048000,0.0,0.108216636,1.6131141,0.0,0.6909753,-0.039042223,0.03742404,0.7208525,1.0,0.0,0.0,1,0,0,0,1,2
14072000,0.0,0.114885055,1.6131141,0.0,0.6908466,-0.041445475,0.039727684,0.72071826,1.0,0.0,0.0,1,0,0,0,1,2
14096000,0.0,0.12157827,1.6131141,0.0,0.6907098,-0.043857202,0.04203945,0.7205756,1.0,0.0,0.0,1,0,0,0,1,2
14120000,0.0,0.12829663,1.6131141,0.0,0.69056475,-0.04627749,0.044359423,0.7204242,1.0,0.0,0.0,1,0,0,0,1,2
14144000,0.0,0.1350404,1.6131141,0.0,0.6904112,-0.048706412,0.046687678,0.720264,1.0,0.0,0.0,1,0,0,0,1,2
14168000,0.0,0.14180975,1.6131141,0.0,0.69024926,-0.051143985,0.04902422,0.72009504,1.0,0.0,0.0,1,0,0,0,1,2
14192000,0.0,0.1486057,1.6131141,0.0,0.6900787,-0.053590555,0.051369384,0.7199171,1.0,0.0,0.0,1,0,0,0,1,2
14216000,0.0,0.15542822,1.6131141,0.0,0.68989944,-0.056046057,0.053723115,0.71973014,1.0,0.0,0.0,1,0,0,0,1,2
14240000,0.0,0.16227713,1.6131141,0.0,0.6897114,-0.05851041,0.05608533,0.719534,1.0,0.0,0.0,1,0,0,0,1,2
14264000,0.0,0.16915224,1.6131141,0.0,0.6895145,-0.0609835,0.058455914,0.7193286,1.0,0.0,0.0,1,0,0,0,1,2
14288000,0.0,0.17605464,1.6131141,0.0,0.68930864,-0.06346568,0.06083521,0.7191138,1.0,0.0,0.0,1,0,0,0,1,2
14312000,0.0,0.18298395,1.6131141,0.0,0.68909377,-0.06595677,0.06322306,0.71888965,1.0,0.0,0.0,1,0,0,0,1,2
14336000,0.0,0.1899397,1.6131141,0.0,0.6888697,-0.068456575,0.06561925,0.7186559,1.0,0.0,0.0,1,0,0,0,1,2
14359999,0.0,0.19692105,1.6131141,0.0,0.6886365,-0.070964746,0.068023466,0.7184126,1.0,0.0,0.0,1,0,0,0,1,2
14384000,0.0,0.20392837,1.6131141,0.0,0.68839395,-0.07348138,0.07043579,0.7181595,1.0,0.0,0.0,1,0,0,0,1,2
14408000,0.0,0.21096013,1.6131141,0.0,0.688142,-0.07600588,0.07285567,0.7178967,1.0,0.0,0.0,1,0,0,0,1,2
14432000,0.0,0.21801594,1.6131141,0.0,0.6878807,-0.078538075,0.07528291,0.7176241,1.0,0.0,0.0,1,0,0,0,1,2
14455999,0.0,0.22509478,1.6131141,0.0,0.6876099,-0.08107755,0.077717125,0.7173416,1.0,0.0,0.0,1,0,0,0,1,2
14480000,0.0,0.23219681,1.6131141,0.0,0.6873296,-0.083624326,0.080158345,0.7170492,1.0,0.0,0.0,1,0,0,0,1,2
14504000,0.0,0.23932163,1.6131141,0.0,0.68703973,-0.08617822,0.08260638,0.71674675,1.0,0.0,0.0,1,0,0,0,1,2
14528000,0.0,0.2464687,1.6131141,0.0,0.68674016,-0.08873898,0.085061006,0.71643424,1.0,0.0,0.0,1,0,0,0,1,2
14551999,0.0,0.25363678,1.6131141,0.0,0.6864309,-0.091306135,0.08752176,0.7161116,1.0,0.0,0.0,1,0,0,0,1,2
14576000,0.0,0.2608259,1.6131141,0.0,0.68611187,-0.09387964,0.089988604,0.71577877,1.0,0.0,0.0,1,0,0,0,1,2
14600000,0.0,0.26803523,1.6131141,0.0,0.68578297,-0.09645917,0.09246122,0.7154357,1.0,0.0,0.0,1,0,0,0,1,2
14624000,0.0,0.27526408,1.6131141,0.0,0.6854443,-0.09904443,0.09493933,0.71508235,1.0,0.0,0.0,1,0,0,0,1,2
14647999,0.0,0.28251117,1.6131141,0.0,0.6850958,-0.1016349,0.097422436,0.71471876,1.0,0.0,0.0,1,0,0,0,1,2
14672000,0.0,0.28977644,1.6131141,0.0,0.6847374,-0.10423053,0.09991048,0.71434486,1.0,0.0,0.0,1,0,0,0,1,2
14696000,0.0,0.29705986,1.6131141,0.0,0.684369,-0.10683128,0.10240344,0.7139606,1.0,0.0,0.0,1,0,0,0,1,2
14720000,0.0,0.30436072,1.6131141,0.0,0.6839906,-0.109436825,0.104900986,0.7135658,1.0,0.0,0.0,1,0,0,0,1,2
14743999,0.0,0.31167763,1.6131141,0.0,0.6836023,-0.11204664,0.10740263,0.71316063,1.0,0.0,0.0,1,0,0,0,1,2
14768000,0.0,0.3190105,1.6131141,0.0,0.6832039,-0.11466062,0.109908275,0.7127451,1.0,0.0,0.0,1,0,0,0,1,2
14792000,0.0,0.32635677,1.6131141,0.0,0.6827956,-0.11727786,0.112417035,0.7123191,1.0,0.0,0.0,1,0,0,0,1,2
14816000,0.0,0.33371577,1.6131141,0.0,0.6823773,-0.11989803,0.11492861,0.7118827,1.0,0.0,0.0,1,0,0,0,1,2
14839999,0.0,0.34108618,1.6131141,0.0,0.68194914,-0.12252065,0.117442526,0.7114361,1.0,0.0,0.0,1,0,0,0,1,2
14864000,0.0,0.34846795,1.6131141,0.0,0.68151104,-0.12514564,0.11995872,0.71097904,1.0,0.0,0.0,1,0,0,0,1,2
14888000,0.0,0.34906584,1.6131141,0.0,0.6814751,-0.12535818,0.12016246,0.71094155,1.0,0.0,0.0,1,0,0,0,1,2
14912000,0.0,0.34906584,1.6131141,0.0,0.6814751,-0.12535818,0.12016246,0.71094155,1.0,0.0,0.0,1,0,0,0,1,2
14935999,0.0,0.34906584,1.6131141,0.0,0.6814751,-0.12535818,0.12016246,0.71094155,1.0,0.0,0.0,1,0,0,0,1,2
14960000,0.0,0.34906584,1.6131141,0.0,0.6814751,-0.12535818,0.12016246,0.71094155,1.0,0.0,0.0,1,0,0,0,1,2
14984000,0.0,0.34906584,1.6131141,0.0,0.6814751,-0.12535818,0.12016246,0.71094155,1.0,0.0,0.0,1,0,0,0,1,2
15008000,-0.18119675,0.34906584,1.5731441,0.0,0.6815715,-0.18535689,0.059063487,0.705418,1.0,0.0,0.0,1,0,0,0,0,2
15031999,-0.18727696,0.34906584,1.569189,0.0,0.6823989,-0.18731514,0.057289213,0.7042462,1.0,0.0,0.0,1,0,0,0,0,2
15056000,-0.18915096,0.34906584,1.5691936,0.0,0.6822214,-0.1879546,0.056628868,0.7043012,1.0,0.0,0.0,1,0,0,0,0,2
15080000,-0.19097218,0.34906584,1.5692,0.0,0.6820477,-0.18857595,0.05598689,0.70435464,1.0,0.0,0.0,1,0,0,0,0,2
15104000,-0.1927006,0.34906584,1.569205,0.0,0.6818827,-0.18916544,0.055377685,0.7044045,1.0,0.0,0.0,1,0,0,0,0,2
15128000,-0.1983176,0.34906584,1.5652194,0.0,0.6827515,-0.19097297,0.053779833,0.703198,1.0,0.0,0.0,1,0,0,0,0,2
15152000,-0.19987977,0.34906584,1.5652201,0.0,0.6826018,-0.1915062,0.053230487,0.70324004,1.0,0.0,0.0,1,0,0,0,0,2
15176000,-0.20129478,0.34906584,1.5652213,0.0,0.68246573,-0.19198914,0.052732818,0.70327795,1.0,0.0,0.0,1,0,0,0,0,2
15200000,-0.20265856,0.34906584,1.565224,0.0,0.6823337,-0.19245452,0.052252986,0.70331466,1.0,0.0,0.0,1,0,0,0,0,2
15224000,-0.20786186,0.34906584,1.5612121,0.0,0.6832404,-0.19412753,0.05081255,0.70207906,1.0,0.0,0.0,1,0,0,0,0,2
15248000,-0.20889343,0.34906584,1.5612091,0.0,0.68314135,-0.19447984,0.05045072,0.70210415,1.0,0.0,0.0,1,0,0,0,0,2
15272000,-0.2097584,0.34906584,1.561209,0.0,0.6830572,-0.19477528,0.05014707,0.7021259,1.0,0.0,0.0,1,0,0,0,0,2
15296000,-0.21045527,0.34906584,1.5612069,0.0,0.68298995,-0.1950132,0.049902618,0.7021426,1.0,0.0,0.0,1,0,0,0,0,2
15320000,-0.21507983,0.34906584,1.5571752,0.0,0.6839515,-0.19649422,0.048675142,0.70087874,1.0,0.0,0.0,1,0,0,0,0,2
15344000,-0.21575016,0.34906584,1.5571748,0.0,0.68388575,-0.19672343,0.048440263,0.70089495,1.0,0.0,0.0,1,0,0,0,0,2
15368000,-0.21629442,0.34906584,1.5571724,0.0,0.683833,-0.19690949,0.048249766,0.70090723,1.0,0.0,0.0,1,0,0,0,0,2
15392000,-0.21677224,0.34906584,1.5571712,0.0,0.68378645,-0.19707283,0.04808244,0.7009184,1.0,0.0,0.0,1,0,0,0,0,2
15416000,-0.2211144,0.34906584,1.5531269,0.0,0.684773,-0.19846235,0.046961978,0.6996378,1.0,0.0,0.0,1,0,0,0,0,2
15440000,-0.22138117,0.34906584,1.5531247,0.0,0.6847474,-0.19855364,0.046868883,0.6996433,1.0,0.0,0.0,1,0,0,0,0,2
15464000,-0.22152753,0.34906584,1.5531214,0.0,0.684734,-0.19860366,0.046818018,0.69964564,1.0,0.0,0.0,1,0,0,0,0,2
15488000,-0.22163126,0.34906584,1.5531186,0.0,0.68472457,-0.19863911,0.046782,0.699647,1.0,0.0,0.0,1,0,0,0,0,2
15512000,-0.22563395,0.34906584,1.5490618,0.0,0.6857437,-0.19991663,0.045787282,0.6983498,1.0,0.0,0.0,1,0,0,0,0,2
15536000,-0.22563241,0.34906584,1.5490607,0.0,0.68574417,-0.19991606,0.04578793,0.69834936,1.0,0.0,0.0,1,0,0,0,0,2
15560000,-0.2256842,0.34906584,1.5490611,0.0,0.6857389,-0.19993383,0.045769818,0.6983506,1.0,0.0,0.0,1,0,0,0,0,2
15584000,-0.22560047,0.34906584,1.5490605,0.0,0.68574744,-0.1999051,0.04579909,0.6983486,1.0,0.0,0.0,1,0,0,0,0,2
15608000,-0.22941102,0.34906584,1.5449958,0.0,0.6867834,-0.2011205,0.0448773,0.69704026,1.0,0.0,0.0,1,0,0,0,0,2
15632000,-0.22916108,0.34906584,1.544994,0.0,0.6868092,-0.20103464,0.044964597,0.697034,1.0,0.0,0.0,1,0,0,0,0,2
15656000,-0.22885391,0.34906584,1.54499,0.0,0.6868415,-0.20092905,0.045072056,0.6970257,1.0,0.0,0.0,1,0,0,0,0,2
15680000,-0.22854286,0.34906584,1.5449868,0.0,0.68687373,-0.20082216,0.045180775,0.69701755,1.0,0.0,0.0,1,0,0,0,0,2
15704000,-0.23207584,0.34906584,1.5409138,0.0,0.6879362,-0.20194528,0.044360787,0.6956968,1.0,0.0,0.0,1,0,0,0,0,2
15728000,-0.23157865,0.34906584,1.5409096,0.0,0.6879878,-0.20177415,0.044534154,0.69568425,1.0,0.0,0.0,1,0,0,0,0,2
15752000,-0.2311538,0.34906584,1.540912,0.0,0.68802977,-0.20162807,0.04468169,0.6956756,1.0,0.0,0.0,1,0,0,0,0,2
15776000,-0.23471133,0.34158167,1.5368376,0.0,0.6898452,-0.20027235,0.04117266,0.69448507,0.38562572,0.0,0.0,1,0,0,0,0,2
15800000,-0.23422669,0.33410287,1.5368263,0.0,0.6906459,-0.19761342,0.038658783,0.69459534,0.4080104,0.0,0.0,1,0,0,0,0,2
15824000,-0.23342203,0.32662842,1.5367233,0.0,0.69149834,-0.19484057,0.03626603,0.6946597,0.42910272,0.0,0.0,1,0,0,0,0,2
15848000,-0.23256072,0.3191572,1.5365865,0.0,0.6923557,-0.19204548,0.033896632,0.6947035,0.4489077,0.0,0.0,1,0,0,0,0,2
15872000,-0.2355145,0.3116882,1.5323083,0.0,0.69427603,-0.19050717,0.030596502,0.69336253,0.46744692,0.0,0.0,1,0,0,0,0,2
15896000,-0.23445536,0.30421388,1.5321356,0.0,0.6951464,-0.18764235,0.028290614,0.6933696,0.48567325,0.0,0.0,1,0,0,0,0,2
15920000,-0.23333266,0.29673374,1.5319641,0.0,0.6960102,-0.18475044,0.026003726,0.69336927,0.5025574,0.0,0.0,1,0,0,0,0,2
15944000,-0.23218274,0.28924745,1.5317973,0.0,0.69686264,-0.18184403,0.02372285,0.69336313,0.5180992,0.0,0.0,1,0,0,0,0,2
15968000,-0.23500878,0.28175488,1.5274379,0.0,0.69879764,-0.18027669,0.020438485,0.691928,0.5323966,0.0,0.0,1,0,0,0,0,2
15992000,-0.23379616,0.27424568,1.5272663,0.0,0.6996394,-0.17734113,0.018163934,0.6918996,0.5468029,0.0,0.0,1,0,0,0,0,2
16016000,-0.23252113,0.26672024,1.5271064,0.0,0.7004706,-0.17437533,0.015903331,0.69186795,0.55988705,0.0,0.0,1,0,0,0,0,2
16040000,-0.23123062,0.2591791,1.5269561,0.0,0.7012878,-0.17139593,0.013640955,0.6918328,0.5717839,0.0,0.0,1,0,0,0,0,2
16064000,-0.23381376,0.25162286,1.5225568,0.0,0.70323354,-0.16974628,0.010393247,0.6903194,0.5825359,0.0,0.0,1,0,0,0,0,2
16088000,-0.232477,0.24404441,1.5224264,0.0,0.70402944,-0.16673857,0.008124225,0.69027156,0.593331,0.0,0.0,1,0,0,0,0,2
16112000,-0.23110466,0.2364448,1.522314,0.0,0.70481,-0.16370827,0.00585784,0.69022334,0.6029499,0.0,0.0,1,0,0,0,0,2
16136000,-0.22978856,0.2288252,1.522221,0.0,0.70556694,-0.16068807,0.0035628006,0.69017535,0.61147094,0.0,0.0,1,0,0,0,0,2
16160000,-0.22856246,0.22118683,1.5221529,0.0,0.7062956,-0.15769039,0.0012276098,0.69012946,0.6191381,0.0,0.0,1,0,0,0,0,2
16184000,-0.23131487,0.2135265,1.5177951,0.0,0.7081818,-0.1560935,-0.0021537244,0.68855554,0.6263871,0.0,0.0,1,0,0,0,0,2
16208000,-0.23006876,0.20584568,1.51776,0.0,0.7088824,-0.15307501,-0.004506737,0.688501,0.6329138,0.0,0.0,1,0,0,0,0,2
16232000,-0.2288206,0.19939665,1.5177383,0.0,0.7094723,-0.15046664,-0.0064135566,0.68845314,0.6386136,0.0,0.0,1,0,0,0,0,2
16256000,-0.2275947,0.20085505,1.5177305,0.0,0.7094579,-0.15052179,-0.005462222,0.6884641,0.64356846,0.0,0.0,1,0,0,0,0,2
16280000,-0.23023833,0.202136,1.51342,0.0,0.7106437,-0.151902,-0.005580455,0.68693537,0.6477882,0.0,0.0,1,0,0,0,0,2
16304000,-0.22893271,0.20331596,1.5134376,0.0,0.71064746,-0.15183339,-0.0047046915,0.6869531,0.6515527,0.0,0.0,1,0,0,0,0,2
16328000,-0.2276056,0.20441201,1.5134698,0.0,0.7106542,-0.151729,-0.003853105,0.68697447,0.6547722,0.0,0.0,1,0,0,0,0,2
16352000,-0.22625719,0.20537032,1.5135074,0.0,0.7106711,-0.1515709,-0.0030446574,0.6869959,0.6573944,0.0,0.0,1,0,0,0,0,2
16376000,-0.22893839,0.20623572,1.5092456,0.0,0.7118637,-0.15282081,-0.0033256412,0.6854814,0.6595162,0.0,0.0,1,0,0,0,0,2
16400000,-0.22759493,0.20699677,1.5092977,0.0,0.7118905,-0.15259688,-0.002592139,0.68550664,0.66162854,0.0,0.0,1,0,0,0,0,2
16424000,-0.22625616,0.20771234,1.5093542,0.0,0.71191883,-0.15235944,-0.0018771142,0.6855324,0.6633308,0.0,0.0,1,0,0,0,0,2
16448000,-0.22486424,0.20837525,1.5094066,0.0,0.71195644,-0.1520855,-0.0011627004,0.68555564,0.66466546,0.0,0.0,1,0,0,0,0,2
16472000,-0.22340967,0.20893446,1.5094551,0.0,0.71200794,-0.15175462,-0.00046426058,0.68557644,0.66558135,0.0,0.0,1,0,0,0,0,2
16496000,-0.22587667,0.20947146,1.5052023,0.0,0.71323556,-0.15281427,-0.0007895306,0.6840631,0.66630584,0.0,0.0,1,0,0,0,0,2
16520000,-0.22429647,0.20995066,1.5052428,0.0,0.7133058,-0.15241048,-7.737428e-05,0.68408036,0.66670954,0.0,0.0,1,0,0,0,0,2
16544000,-0.22268046,0.21041222,1.5052825,0.0,0.71338016,-0.15198803,0.0006406605,0.6840965,0.6668883,0.0,0.0,1,0,0,0,0,2
16568000,-0.22109991,0.21090189,1.505326,0.0,0.71344805,-0.1515876,0.0013565496,0.6841135,0.6669401,0.0,0.0,1,0,0,0,0,2
16592000,-0.21951239,0.21129127,1.5053666,0.0,0.713525,-0.1511512,0.0020385012,0.68412817,0.66690874,0.0,0.0,1,0,0,0,0,2
16616000,-0.2218375,0.21161312,1.5011115,0.0,0.71477824,-0.15208472,0.001684092,0.6826123,0.6665733,0.0,0.0,1,0,0,0,0,2
16640000,-0.22016366,0.21195717,1.501146,0.0,0.7148675,-0.151601,0.0023784786,0.6826244,0.66614145,0.0,0.0,1,0,0,0,0,2
16664000,-0.21842459,0.21227385,1.5011781,0.0,0.7149641,-0.15108481,0.0030853227,0.6826347,0.6655429,0.0,0.0,1,0,0,0,0,2
16688000,-0.21669507,0.21261911,1.5012122,0.0,0.7150569,-0.1505815,0.0037992,0.68264514,0.6647589,0.0,0.0,1,0,0,0,0,2
16712000,-0.2149737,0.21293806,1.5012407,0.0,0.71515256,-0.15007226,0.004501134,0.6826527,0.66382027,0.0,0.0,1,0,0,0,0,2
16736000,-0.21718279,0.21322429,1.496979,0.0,0.71641785,-0.15094882,0.004173368,0.6811332,0.6627377,0.0,0.0,1,0,0,0,0,2
16760000,-0.21543393,0.21352464,1.4970045,0.0,0.71651834,-0.15042216,0.0048769936,0.68113947,0.6616167,0.0,0.0,1,0,0,0,0,2
16784000,-0.21376057,0.21379119,1.4970396,0.0,0.716612,-0.14991125,0.0055418387,0.6811484,0.66033304,0.0,0.0,1,0,0,0,0,2
16808000,-0.21202774,0.21407159,1.4970663,0.0,0.7167115,-0.14938357,0.0062326193,0.6811536,0.65902114,0.0,0.0,1,0,0,0,0,2
16832000,-0.2102552,0.21431391,1.4970921,0.0,0.7168168,-0.14882894,0.006923072,0.68115765,0.65760976,0.0,0.0,1,0,0,0,0,2
16856000,-0.20850538,0.21456577,1.4971149,0.0,0.7169204,-0.14828554,0.007609546,0.6811598,0.65618443,0.0,0.0,1,0,0,0,0,2
16880000,-0.21074477,0.21482587,1.4928557,0.0,0.7181834,-0.14915949,0.0072597265,0.67964053,0.65474224,0.0,0.0,1,0,0,0,0,2
16904000,-0.20896417,0.21501085,1.492882,0.0,0.7182932,-0.14858148,0.007930681,0.67964363,0.6534641,0.0,0.0,1,0,0,0,0,2
16928000,-0.20711853,0.2152563,1.4929035,0.0,0.7184046,-0.14800006,0.008646309,0.67964405,0.6522626,0.0,0.0,1,0,0,0,0,2
16952000,-0.20524645,0.21546221,1.4929221,0.0,0.7185213,-0.14739594,0.009356618,0.6796427,0.65097773,0.0,0.0,1,0,0,0,0,2
16976000,-0.20346725,0.21567585,1.4929436,0.0,0.71862906,-0.14682768,0.010037988,0.6796419,0.6496975,0.0,0.0,1,0,0,0,0,2
17000000,-0.20165321,0.21585742,1.4929626,0.0,0.7187422,-0.14623615,0.010719642,0.6796394,0.6482577,0.0,0.0,1,0,0,0,0,2
17024000,-0.20380731,0.21604934,1.4886968,0.0,0.7200181,-0.14705208,0.010371678,0.6781165,0.6468251,0.0,0.0,1,0,0,0,0,2
17048000,-0.20199034,0.21634114,1.4887105,0.0,0.72012544,-0.1464946,0.011093944,0.678112,0.6455666,0.0,0.0,1,0,0,0,0,2
17072000,-0.2001744,0.2164949,1.4887264,0.0,0.72024137,-0.14589167,0.011764988,0.6781073,0.64407253,0.0,0.0,1,0,0,0,0,2
17096000,-0.19832267,0.21668662,1.4887363,0.0,0.7203589,-0.14528832,0.012462541,0.67809963,0.64277023,0.0,0.0,1,0,0,0,0,2
17120000,-0.19646135,0.21688592,1.4887482,0.0,0.72047526,-0.14468393,0.013165981,0.6780919,0.6414542,0.0,0.0,1,0,0,0,0,2
17144000,-0.19458559,0.21708843,1.4887573,0.0,0.7205929,-0.1440753,0.0138757005,0.6780823,0.64015186,0.0,0.0,1,0,0,0,0,2
17168000,-0.19679508,0.21729417,1.4844882,0.0,0.7218641,-0.14491093,0.013511524,0.67655784,0.63884985,0.0,0.0,1,0,0,0,0,2
17192000,-0.19505855,0.21748234,1.4844958,0.0,0.7219735,-0.14434636,0.014167689,0.67654836,0.63769686,0.0,0.0,1,0,0,0,0,2
17216000,-0.19330397,0.21763009,1.484509,0.0,0.72208464,-0.14376184,0.0148146525,0.6765403,0.63645375,0.0,0.0,1,0,0,0,0,2
17240000,-0.1915061,0.21782805,1.4845164,0.0,0.7221968,-0.14317818,0.015495144,0.6765291,0.6353127,0.0,0.0,1,0,0,0,0,2
17264000,-0.18969618,0.21798065,1.4845207,0.0,0.72231364,-0.14257506,0.016163245,0.67651594,0.6341007,0.0,0.0,1,0,0,0,0,2
17288000,-0.18789586,0.21816812,1.4845258,0.0,0.72242665,-0.14198685,0.01684086,0.67650265,0.63306874,0.0,0.0,1,0,0,0,0,2
17312000,-0.18615572,0.21836208,1.4845243,0.0,0.7225366,-0.14142238,0.017500963,0.6764867,0.63204587,0.0,0.0,1,0,0,0,0,2
17336000,-0.18844356,0.21851018,1.4802344,0.0,0.72381324,-0.14226146,0.017086811,0.67495495,0.6309535,0.0,0.0,1,0,0,0,0,2
17360000,-0.18668918,0.21866,1.4802294,0.0,0.7239287,-0.14167587,0.017734468,0.67493755,0.6298739,0.0,0.0,1,0,0,0,0,2
17384000,-0.18496403,0.21881188,1.4802334,0.0,0.7240385,-0.14110154,0.01837238,0.67492306,0.62876034,0.0,0.0,1,0,0,0,0,2
17408000,-0.18325701,0.21901676,1.4802424,0.0,0.7241411,-0.14055124,0.019023359,0.6749097,0.6277186,0.0,0.0,1,0,0,0,0,2
17432000,-0.18150936,0.2191746,1.4802469,0.0,0.724251,-0.13997056,0.019671004,0.6748939,0.6266013,0.0,0.0,1,0,0,0,0,2
17456000,-0.17977153,0.21933347,1.4802476,0.0,0.72436094,-0.13939366,0.020315968,0.6748762,0.62550277,0.0,0.0,1,0,0,0,0,2
17480000,-0.178029,0.21949297,1.4802468,0.0,0.7244713,-0.13881516,0.020962834,0.6748574,0.6244175,0.0,0.0,1,0,0,0,0,2
17504000,-0.17626801,0.21963704,1.4802475,0.0,0.7245828,-0.13822481,0.021610118,0.6748382,0.6234397,0.0,0.0,1,0,0,0,0,2
17528000,-0.17453559,0.21983169,1.4802382,0.0,0.7246919,-0.13766131,0.022267088,0.6748149,0.62255937,0.0,0.0,1,0,0,0,0,2
17552000,-0.17694007,0.21997975,1.4759355,0.0,0.7259657,-0.13853475,0.021808475,0.6732803,0.62160355,0.0,0.0,1,0,0,0,0,2
17576000,-0.17531392,0.22012918,1.4759301,0.0,0.72606945,-0.13799363,0.022411488,0.67325974,0.62065387,0.0,0.0,1,0,0,0,0,2
17600000,-0.1736898,0.22023888,1.4759259,0.0,0.72617507,-0.13744009,0.022999022,0.6732393,0.6200342,0.0,0.0,1,0,0,0,0,2
17624000,-0.17203833,0.22035438,1.4759196,0.0,0.7262825,-0.1368784,0.023598038,0.67321706,0.6194208,0.0,0.0,1,0,0,0,0,2
17648000,-0.17038299,0.22047149,1.475918,0.0,0.726388,-0.13631582,0.024198607,0.67319614,0.6187932,0.0,0.0,1,0,0,0,0,2
17672000,-0.16873185,0.22058977,1.4759132,0.0,0.7264938,-0.13575503,0.0247984,0.6731735,0.6181594,0.0,0.0,1,0,0,0,0,2
17696000,-0.16712935,0.22072226,1.4759119,0.0,0.7265937,-0.13521656,0.025386825,0.673152,0.61738354,0.0,0.0,1,0,0,0,0,2
17720000,-0.16552265,0.22085795,1.4759016,0.0,0.72669625,-0.13467744,0.025978412,0.6731269,0.61660016,0.0,0.0,1,0,0,0,0,2
17744000,-0.1639603,0.22099516,1.4758939,0.0,0.72679454,-0.13415489,0.026555452,0.6731026,0.6158306,0.0,0.0,1,0,0,0,0,2
17768000,-0.16236934,0.22117975,1.4758834,0.0,0.72689193,-0.13363743,0.027159777,0.67307615,0.6151479,0.0,0.0,1,0,0,0,0,2
17792000,-0.1650047,0.22129682,1.4715765,0.0,0.7281551,-0.13457675,0.026605986,0.67154396,0.6145359,0.0,0.0,1,0,0,0,0,2
17816000,-0.16349573,0.22141771,1.4715736,0.0,0.7282492,-0.13406709,0.027157594,0.6715219,0.6139138,0.0,0.0,1,0,0,0,0,2
17840000,-0.16197065,0.22149271,1.471571,0.0,0.728347,-0.13353637,0.027697578,0.6714995,0.6131949,0.0,0.0,1,0,0,0,0,2
17864000,-0.16048405,0.22161679,1.4715621,0.0,0.7284406,-0.13303567,0.028243221,0.6714746,0.612555,0.0,0.0,1,0,0,0,0,2
17888000,-0.15901068,0.22179607,1.471554,0.0,0.72852904,-0.13255791,0.028804775,0.67144924,0.6119043,0.0,0.0,1,0,0,0,0,2
17912000,-0.15748729,0.22193359,1.4715478,0.0,0.7286227,-0.13204814,0.029367518,0.67142373,0.6111437,0.0,0.0,1,0,0,0,0,2
17936000,-0.15602651,0.22207074,1.4715372,0.0,0.7287133,-0.13156092,0.029909376,0.6713971,0.6103827,0.0,0.0,1,0,0,0,0,2
17960000,-0.15456778,0.22220917,1.471525,0.0,0.728804,-0.13107482,0.030451104,0.67136943,0.6096247,0.0,0.0,1,0,0,0,0,2
17984000,-0.15312192,0.22227497,1.471509,0.0,0.72889954,-0.13056934,0.030961853,0.6713408,0.608986,0.0,0.0,1,0,0,0,0,2
18008000,-0.15175265,0.22243847,1.471497,0.0,0.7289819,-0.13012394,0.031482752,0.6713136,0.60850006,0.0,0.0,1,0,0,0,0,2
18032000,-0.15035461,0.22255535,1.4714835,0.0,0.7290695,-0.12965262,0.03199616,0.6712854,0.60793316,0.0,0.0,1,0,0,0,0,2
18056000,-0.14896141,0.2226729,1.471476,0.0,0.72915447,-0.12918334,0.032507762,0.67125905,0.60734314,0.0,0.0,1,0,0,0,0,2
18080000,-0.15173952,0.22279191,1.4671503,0.0,0.73041654,-0.13016656,0.031900954,0.6697243,0.6067389,0.0,0.0,1,0,0,0,0,2
18104000,-0.15037061,0.22286,1.467141,0.0,0.73050416,-0.12968881,0.032385208,0.66969824,0.6060648,0.0,0.0,1,0,0,0,0,2
18128000,-0.14905845,0.22302696,1.4671276,0.0,0.7305825,-0.12926418,0.03288735,0.66967034,0.60554516,0.0,0.0,1,0,0,0,0,2
18152000,-0.14771274,0.22314698,1.4671118,0.0,0.73066676,-0.12881175,0.033383466,0.6696411,0.6049427,0.0,0.0,1,0,0,0,0,2
18176000,-0.1463776,0.22326918,1.4670959,0.0,0.73074985,-0.12836385,0.03387683,0.6696116,0.6043335,0.0,0.0,1,0,0,0,0,2
18200000,-0.14516659,0.2233469,1.4670881,0.0,0.730825,-0.1279468,0.03431159,0.6695873,0.6040605,0.0,0.0,1,0,0,0,0,2
18224000,-0.14392123,0.22343135,1.4670782,0.0,0.7309024,-0.12751928,0.034760464,0.66956127,0.6037765,0.0,0.0,1,0,0,0,0,2
18248000,-0.14270481,0.2235183,1.4670668,0.0,0.7309779,-0.12710312,0.035200663,0.6695348,0.60347116,0.0,0.0,1,0,0,0,0,2
18272000,-0.14150548,0.2236087,1.4670584,0.0,0.731051,-0.12669434,0.03563621,0.66950965,0.60313094,0.0,0.0,1,0,0,0,0,2
18296000,-0.14034785,0.22368619,1.4670482,0.0,0.73112255,-0.12629648,0.036053095,0.6694842,0.60288596,0.0,0.0,1,0,0,0,0,2
18320000,-0.1391555,0.22377142,1.4670353,0.0,0.7311965,-0.12588838,0.036484636,0.6694569,0.6025945,0.0,0.0,1,0,0,0,0,2
18344000,-0.13796738,0.22386017,1.4670244,0.0,0.7312691,-0.12548298,0.036915924,0.66943014,0.6022794,0.0,0.0,1,0,0,0,0,2
18368000,-0.1367548,0.22395238,1.4670109,0.0,0.73134375,-0.1250697,0.037356824,0.6694016,0.60195404,0.0,0.0,1,0,0,0,0,2
18392000,-0.13558763,0.22406517,1.4669964,0.0,0.7314142,-0.12467971,0.037790183,0.669373,0.60142446,0.0,0.0,1,0,0,0,0,2
18416000,-0.13449302,0.2241843,1.466991,0.0,0.7314765,-0.12431848,0.03820103,0.66934866,0.6008738,0.0,0.0,1,0,0,0,0,2
18440000,-0.13339548,0.22430404,1.4669873,0.0,0.73153824,-0.12395638,0.038612965,0.6693247,0.6002923,0.0,0.0,1,0,0,0,0,2
18464000,-0.13230136,0.22442509,1.46698,0.0,0.73160076,-0.12359588,0.039024465,0.66929924,0.59970444,0.0,0.0,1,0,0,0,0,2
18488000,-0.13126235,0.22451994,1.4669645,0.0,0.731664,-0.1232467,0.03940828,0.66927195,0.5993419,0.0,0.0,1,0,0,0,0,2
18512000,-0.13020465,0.22462048,1.4669584,0.0,0.73172474,-0.12289272,0.039799858,0.6692475,0.5989383,0.0,0.0,1,0,0,0,0,2
18536000,-0.13336383,0.22472335,1.4626145,0.0,0.7329752,-0.12399773,0.039050225,0.6677178,0.5985165,0.0,0.0,1,0,0,0,0,2
18560000,-0.132335,0.22483063,1.4626031,0.0,0.7330358,-0.123655654,0.03943426,0.667692,0.59808046,0.0,0.0,1,0,0,0,0,2
18584000,-0.13125359,0.22492617,1.4625922,0.0,0.7331001,-0.12329044,0.039831445,0.6676654,0.5977106,0.0,0.0,1,0,0,0,0,2
18608000,-0.13029692,0.22502677,1.4625854,0.0,0.73315495,-0.12297265,0.040188596,0.6676424,0.5973103,0.0,0.0,1,0,0,0,0,2
18632000,-0.1293294,0.22513011,1.4625777,0.0,0.73321044,-0.122651756,0.040550422,0.66761863,0.5968867,0.0,0.0,1,0,0,0,0,2
18656000,-0.1284072,0.22523753,1.462569,0.0,0.733263,-0.122348756,0.0408987,0.6675952,0.5964478,0.0,0.0,1,0,0,0,0,2
18680000,-0.1274912,0.22534795,1.4625595,0.0,0.7333153,-0.12204899,0.04124604,0.6675714,0.59599423,0.0,0.0,1,0,0,0,0,2
18704000,-0.1265293,0.22545671,1.4625496,0.0,0.73337024,-0.1217318,0.041608106,0.66754633,0.5955387,0.0,0.0,1,0,0,0,0,2
18728000,-0.12564465,0.2255722,1.4625385,0.0,0.73342055,-0.12144511,0.041946936,0.66752213,0.5950614,0.0,0.0,1,0,0,0,0,2
18752000,-0.12472345,0.22569157,1.462527,0.0,0.7334727,-0.12114625,0.04229943,0.6674968,0.5945704,0.0,0.0,1,0,0,0,0,2
18776000,-0.12379423,0.2258128,1.4625152,0.0,0.73352545,-0.12084505,0.042655293,0.66747105,0.59407055,0.0,0.0,1,0,0,0,0,2
18800000,-0.12290773,0.2259775,1.4625083,0.0,0.73357093,-0.12057386,0.043012727,0.6674471,0.5936915,0.0,0.0,1,0,0,0,0,2
18824000,-0.12212673,0.226049,1.4625002,0.0,0.73361623,-0.120310724,0.04330042,0.66742617,0.5931222,0.0,0.0,1,0,0,0,0,2
18848000,-0.121310204,0.22617091,1.4624908,0.0,0.7336608,-0.12005104,0.04361873,0.6674031,0.59261864,0.0,0.0,1,0,0,0,0,2
18872000,-0.120523684,0.22629435,1.4624791,0.0,0.73370427,-0.11980283,0.043927748,0.6673797,0.5920985,0.0,0.0,1,0,0,0,0,2
18896000,-0.11971198,0.22640005,1.4624715,0.0,0.73374885,-0.11953962,0.04423831,0.66735744,0.59172195,0.0,0.0,1,0,0,0,0,2
18920000,-0.118933335,0.22651105,1.4624598,0.0,0.73379236,-0.11929016,0.04454003,0.66733414,0.5913297,0.0,0.0,1,0,0,0,0,2
18944000,-0.11816944,0.22662334,1.4624465,0.0,0.73383546,-0.11904649,0.044837426,0.6673103,0.5909136,0.0,0.0,1,0,0,0,0,2
18968000,-0.11742881,0.22673805,1.4624404,0.0,0.7338745,-0.11881231,0.0451275,0.6672897,0.5904621,0.0,0.0,1,0,0,0,0,2
18992000,-0.11665697,0.22683722,1.4624313,0.0,0.7339171,-0.11856148,0.045422375,0.6672672,0.59012014,0.0,0.0,1,0,0,0,0,2
19016000,-0.11594783,0.22694327,1.4624231,0.0,0.7339554,-0.11833592,0.045698836,0.6672463,0.589738,0.0,0.0,1,0,0,0,0,2
19040000,-0.115238495,0.22705214,1.4624127,0.0,0.7339941,-0.11811116,0.045976523,0.6672245,0.58933955,0.0,0.0,1,0,0,0,0,2
19064000,-0.11456765,0.22716494,1.4624033,0.0,0.73402995,-0.11790182,0.046242766,0.6672037,0.58892184,0.0,0.0,1,0,0,0,0,2
19088000,-0.1138858,0.22729962,1.4623989,0.0,0.7340633,-0.117695734,0.04652049,0.667184,0.58829737,0.0,0.0,1,0,0,0,0,2
19112000,-0.11319491,0.2274385,1.4623896,0.0,0.7340986,-0.117487594,0.04680309,0.6671622,0.58765334,0.0,0.0,1,0,0,0,0,2
19136000,-0.11251438,0.22757792,1.4623779,0.0,0.734134,-0.117283374,0.04708256,0.66713953,0.58699423,0.0,0.0,1,0,0,0,0,2
19160000,-0.111860394,0.2277196,1.4623616,0.0,0.73416907,-0.11708952,0.04735427,0.6671157,0.58633983,0.0,0.0,1,0,0,0,0,2
19184000,-0.111154765,0.2278223,1.4623464,0.0,0.73420924,-0.11686389,0.047628652,0.66709167,0.5860277,0.0,0.0,1,0,0,0,0,2
19208000,-0.11052127,0.22793017,1.46233,0.0,0.7342451,-0.11666641,0.04788096,0.66706854,0.5857,0.0,0.0,1,0,0,0,0,2
19232000,-0.10989504,0.2280396,1.4623244,0.0,0.7342769,-0.11647236,0.048130795,0.6670495,0.58533615,0.0,0.0,1,0,0,0,0,2
19256000,-0.109291345,0.22815219,1.4623182,0.0,0.7343072,-0.11628759,0.0483743,0.6670307,0.5849458,0.0,0.0,1,0,0,0,0,2
19280000,-0.108733125,0.22826675,1.4623033,0.0,0.73433775,-0.11611995,0.048603877,0.66700965,0.58454907,0.0,0.0,1,0,0,0,0,2
19304000,-0.10817968,0.22837715,1.4622885,0.0,0.7343681,-0.115952685,0.04883029,0.66698873,0.58417106,0.0,0.0,1,0,0,0,0,2
19328000,-0.10761454,0.22849426,1.462277,0.0,0.73439765,-0.11578341,0.049062908,0.6669686,0.5837521,0.0,0.0,1,0,0,0,0,2
19352000,-0.10706561,0.2286136,1.4622635,0.0,0.73442674,-0.11562076,0.049291063,0.66694796,0.58330417,0.0,0.0,1,0,0,0,0,2
19376000,-0.10649083,0.2287357,1.4622486,0.0,0.73445755,-0.11544948,0.04952892,0.6669261,0.5828402,0.0,0.0,1,0,0,0,0,2
19400000,-0.10594181,0.22883578,1.4622325,0.0,0.7344886,-0.11528039,0.049750086,0.6669047,0.58257353,0.0,0.0,1,0,0,0,0,2
19424000,-0.10543242,0.22893739,1.462218,0.0,0.7345166,-0.11512637,0.049958494,0.6668848,0.5822805,0.0,0.0,1,0,0,0,0,2
19448000,-0.104966864,0.2290432,1.4622076,0.0,0.7345406,-0.11498994,0.050153624,0.66686726,0.58195597,0.0,0.0,1,0,0,0,0,2
19472000,-0.10446285,0.22915068,1.462193,0.0,0.73456794,-0.11483982,0.050362412,0.6668473,0.58161294,0.0,0.0,1,0,0,0,0,2
19496000,-0.10399277,0.22929893,1.4621828,0.0,0.7345895,-0.11471568,0.050574772,0.6668289,0.5808456,0.0,0.0,1,0,0,0,0,2
19520000,-0.103481874,0.22945282,1.4621708,0.0,0.73461366,-0.11457835,0.050802927,0.66680866,0.5800608,0.0,0.0,1,0,0,0,0,2
19544000,-0.10296824,0.22960767,1.4621589,0.0,0.7346377,-0.11444034,0.05103235,0.6667882,0.5792821,0.0,0.0,1,0,0,0,0,2
19568000,-0.10247739,0.22976358,1.4621439,0.0,0.7346615,-0.11431095,0.05125474,0.6667671,0.578499,0.0,0.0,1,0,0,0,0,2
19592000,-0.10198387,0.2299006,1.4621313,0.0,0.7346858,-0.11417441,0.051470846,0.6667472,0.57787716,0.0,0.0,1,0,0,0,0,2
19616000,-0.101513185,0.23004265,1.4621128,0.0,0.73471034,-0.11404778,0.051681552,0.6667256,0.57724935,0.0,0.0,1,0,0,0,0,2
19640000,-0.10106452,0.2301849,1.4621001,0.0,0.7347317,-0.11392942,0.051884647,0.66670644,0.5766072,0.0,0.0,1,0,0,0,0,2
19664000,-0.10063913,0.23032916,1.4620844,0.0,0.73475254,-0.113820195,0.052080903,0.6666868,0.57596457,0.0,0.0,1,0,0,0,0,2
19688000,-0.100189164,0.23046213,1.4620719,0.0,0.7347744,-0.113698326,0.052280974,0.6666678,0.5754203,0.0,0.0,1,0,0,0,0,2
19712000,-0.09975356,0.2305998,1.4620588,0.0,0.73479533,-0.113583244,0.05247803,0.66664886,0.57485914,0.0,0.0,1,0,0,0,0,2
19736000,-0.09932055,0.23073976,1.4620402,0.0,0.7348178,-0.11346972,0.05267536,0.6666278,0.57429737,0.0,0.0,1,0,0,0,0,2
19760000,-0.09889095,0.23088135,1.4620205,0.0,0.73484033,-0.11335795,0.052872233,0.6666064,0.5737396,0.0,0.0,1,0,0,0,0,2
19784000,-0.0985171,0.23100963,1.4620082,0.0,0.73485804,-0.11326249,0.05304515,0.6665895,0.573254,0.0,0.0,1,0,0,0,0,2
19808000,-0.09811617,0.23114444,1.4619936,0.0,0.73487765,-0.11315913,0.05322965,0.6665707,0.572749,0.0,0.0,1,0,0,0,0,2
19832000,-0.09778383,0.23127982,1.4619836,0.0,0.7348919,-0.11308131,0.05339124,0.6665554,0.57222086,0.0,0.0,1,0,0,0,0,2
19856000,-0.09746829,0.23141772,1.4619701,0.0,0.73490596,-0.11301038,0.05354835,0.66653913,0.57169473,0.0,0.0,1,0,0,0,0,2
19880000,-0.09713856,0.23155679,1.461954,0.0,0.73492163,-0.11293455,0.053710762,0.66652155,0.5711637,0.0,0.0,1,0,0,0,0,2
19904000,-0.09680051,0.23167844,1.461939,0.0,0.7349386,-0.112849966,0.053869426,0.66650444,0.5707747,0.0,0.0,1,0,0,0,0,2
19928000,-0.09644565,0.23180456,1.4619178,0.0,0.7349583,-0.1127605,0.054035693,0.66648453,0.5703791,0.0,0.0,1,0,0,0,0,2
19952000,-0.09609223,0.2319324,1.4618963,0.0,0.7349778,-0.112672105,0.05420212,0.6664644,0.56996965,0.0,0.0,1,0,0,0,0,2
19976000,-0.09577506,0.23206186,1.4618827,0.0,0.7349925,-0.11259778,0.054356642,0.66644806,0.5695327,0.0,0.0,1,0,0,0,0,2
20000000,-0.09544666,0.2321662,1.4618636,0.0,0.7350113,-0.112510905,0.05450587,0.66642994,0.56932425,0.0,0.0,1,0,0,0,0,2
20024000,-0.09514165,0.23227985,1.4618484,0.0,0.73502684,-0.1124358,0.054650556,0.6664136,0.5690765,0.0,0.0,1,0,0,0,0,2
20048000,-0.094883844,0.23239574,1.4618387,0.0,0.73503774,-0.11237894,0.054780018,0.6664006,0.56880486,0.0,0.0,1,0,0,0,0,2
20072000,-0.09463113,0.23251335,1.4618193,0.0,0.7350514,-0.11232422,0.054908965,0.66638404,0.5685288,0.0,0.0,1,0,0,0,0,2
20096000,-0.094352774,0.23265046,1.4618024,0.0,0.7350647,-0.112266585,0.055053554,0.66636723,0.568056,0.0,0.0,1,0,0,0,0,2
20120000,-0.09406113,0.23279214,1.4617847,0.0,0.73507863,-0.112205535,0.0552043,0.66634977,0.56756204,0.0,0.0,1,0,0,0,0,2
20144000,-0.093752086,0.2329347,1.4617668,0.0,0.73509353,-0.112138376,0.055361193,0.6663315,0.5670653,0.0,0.0,1,0,0,0,0,2
20168000,-0.09342435,0.23307818,1.461749,0.0,0.7351093,-0.11206463,0.055524632,0.66631275,0.5665461,0.0,0.0,1,0,0,0,0,2
20192000,-0.09316379,0.23319624,1.4617331,0.0,0.7351224,-0.11200728,0.055656157,0.6662972,0.56625915,0.0,0.0,1,0,0,0,0,2
20216000,-0.09284406,0.23331979,1.4617138,0.0,0.73513937,-0.111929886,0.055809602,0.66627854,0.5659417,0.0,0.0,1,0,0,0,0,2
20240000,-0.09259595,0.23344398,1.4617062,0.0,0.7351485,-0.11187935,0.05593878,0.6662661,0.56559366,0.0,0.0,1,0,0,0,0,2
20264000,-0.0923885,0.23356943,1.4616913,0.0,0.7351578,-0.11184396,0.056055278,0.6662521,0.5652259,0.0,0.0,1,0,0,0,0,2
20288000,-0.09217792,0.2336708,1.4616741,0.0,0.7351693,-0.111799434,0.05616402,0.66623765,0.56506974,0.0,0.0,1,0,0,0,0,2
20312000,-0.09193355,0.23377815,1.461654,0.0,0.73518336,-0.111744374,0.056286395,0.66622096,0.5648848,0.0,0.0,1,0,0,0,0,2
20336000,-0.0917097,0.23388842,1.461636,0.0,0.73519546,-0.111697875,0.056402892,0.66620564,0.56468326,0.0,0.0,1,0,0,0,0,2
20360000,-0.0914763,0.2340022,1.4616196,0.0,0.73520726,-0.11164906,0.05652379,0.6661905,0.5644566,0.0,0.0,1,0,0,0,0,2
20384000,-0.09125712,0.23412527,1.4615961,0.0,0.7352201,-0.11160833,0.056643777,0.6661731,0.5641381,0.0,0.0,1,0,0,0,0,2
20408000,-0.091003254,0.23425375,1.4615755,0.0,0.73523355,-0.11155671,0.05677717,0.66615546,0.5637937,0.0,0.0,1,0,0,0,0,2
20432000,-0.090800665,0.23438418,1.4615661,0.0,0.7352404,-0.11152489,0.05689358,0.6661433,0.56340784,0.0,0.0,1,0,0,0,0,2
20456000,-0.09061931,0.23451549,1.4615474,0.0,0.73524904,-0.111500904,0.057003774,0.6661283,0.56300837,0.0,0.0,1,0,0,0,0,2
20480000,-0.09044784,0.23464793,1.4615316,0.0,0.73525614,-0.11148101,0.057110917,0.6661147,0.5625848,0.0,0.0,1,0,0,0,0,2
20504000,-0.090314895,0.2347773,1.4615215,0.0,0.73525935,-0.111474425,0.057203777,0.6661043,0.5621443,0.0,0.0,1,0,0,0,0,2
20528000,-0.09012204,0.23491104,1.4615055,0.0,0.7352675,-0.11144708,0.05731854,0.6660899,0.5616728,0.0,0.0,1,0,0,0,0,2
20552000,-0.08991383,0.23504706,1.461491,0.0,0.73527604,-0.11141488,0.057439175,0.6660755,0.5611891,0.0,0.0,1,0,0,0,0,2
20576000,-0.089695565,0.23518372,1.4614757,0.0,0.7352852,-0.11137918,0.05756343,0.6660606,0.56067985,0.0,0.0,1,0,0,0,0,2
20600000,-0.089557536,0.23528217,1.4614644,0.0,0.73529094,-0.111360505,0.057646576,0.66605014,0.5605468,0.0,0.0,1,0,0,0,0,2
20624000,-0.08937573,0.2353858,1.4614521,0.0,0.7352991,-0.11132741,0.057746265,0.6660381,0.5603709,0.0,0.0,1,0,0,0,0,2
20648000,-0.089220904,0.23549274,1.4614406,0.0,0.73530537,-0.111305356,0.057838164,0.666027,0.56016344,0.0,0.0,1,0,0,0,0,2
20672000,-0.08904036,0.23560295,1.4614335,0.0,0.73531127,-0.11127505,0.057939578,0.66601664,0.55993634,0.0,0.0,1,0,0,0,0,2
20696000,-0.088914946,0.23571777,1.46142,0.0,0.7353161,-0.11126633,0.058024704,0.66600543,0.55964655,0.0,0.0,1,0,0,0,0,2
20720000,-0.088708244,0.23583949,1.4614083,0.0,0.7353244,-0.11123006,0.05813937,0.6659923,0.5593361,0.0,0.0,1,0,0,0,0,2
20744000,-0.08856851,0.23596224,1.4613968,0.0,0.7353288,-0.11121875,0.058232095,0.6659813,0.5589996,0.0,0.0,1,0,0,0,0,2
20768000,-0.088386044,0.23608834,1.4613872,0.0,0.73533475,-0.111192875,0.05834019,0.6659695,0.5586497,0.0,0.0,1,0,0,0,0,2
20792000,-0.0881708,0.23622921,1.4613798,0.0,0.73534095,-0.11115989,0.05846456,0.6659573,0.5581418,0.0,0.0,1,0,0,0,0,2
20816000,-0.088018976,0.23637539,1.4613683,0.0,0.7353446,-0.111151844,0.05856999,0.6659452,0.55762225,0.0,0.0,1,0,0,0,0,2
20840000,-0.08789678,0.23652327,1.4613589,0.0,0.7353459,-0.1111553,0.058666088,0.66593474,0.5570898,0.0,0.0,1,0,0,0,0,2
20864000,-0.08776742,0.23667334,1.4613543,0.0,0.7353459,-0.111157,0.05876512,0.66592586,0.5565282,0.0,0.0,1,0,0,0,0,2
20888000,-0.08762857,0.23680058,1.4613523,0.0,0.73534685,-0.11114776,0.05885868,0.6659181,0.55618817,0.0,0.0,1,0,0,0,0,2
20912000,-0.08750996,0.23693445,1.4613383,0.0,0.7353503,-0.111147806,0.058948644,0.6659063,0.5558396,0.0,0.0,1,0,0,0,0,2
20936000,-0.08739362,0.23707044,1.4613335,0.0,0.7353503,-0.11114964,0.059038103,0.66589797,0.5554623,0.0,0.0,1,0,0,0,0,2
20960000,-0.087232195,0.23720954,1.4613214,0.0,0.7353552,-0.11113569,0.05914415,0.66588545,0.55507815,0.0,0.0,1,0,0,0,0,2
20984000,-0.08710099,0.23736535,1.4613099,0.0,0.73535717,-0.1111384,0.059246287,0.66587377,0.5545068,0.0,0.0,1,0,0,0,0,2
21008000,-0.08693023,0.23752621,1.4612949,0.0,0.73536235,-0.11112811,0.059363678,0.66585946,0.55392885,0.0,0.0,1,0,0,0,0,2
21032000,-0.086800046,0.2376873,1.4612744,0.0,0.7353669,-0.11113265,0.05946795,0.6658442,0.5533638,0.0,0.0,1,0,0,0,0,2
21056000,-0.08672883,0.23785067,1.4612601,0.0,0.7353661,-0.1111598,0.05955307,0.665833,0.5527943,0.0,0.0,1,0,0,0,0,2
21080000,-0.086613044,0.23801447,1.4612485,0.0,0.7353668,-0.11117078,0.059653044,0.66582143,0.5522046,0.0,0.0,1,0,0,0,0,2
21104000,-0.0865157,0.23813672,1.4612348,0.0,0.7353697,-0.111174814,0.059731588,0.6658106,0.5520279,0.0,0.0,1,0,0,0,0,2
21128000,-0.086361624,0.23826489,1.4612229,0.0,0.7353747,-0.11115998,0.059831105,0.6657986,0.55181164,0.0,0.0,1,0,0,0,0,2
21152000,-0.08625183,0.23839632,1.4612122,0.0,0.7353767,-0.11116254,0.059917033,0.6657883,0.55157083,0.0,0.0,1,0,0,0,0,2
21176000,-0.08615342,0.2385305,1.4611979,0.0,0.73537904,-0.11117008,0.060000382,0.66577685,0.5513101,0.0,0.0,1,0,0,0,0,2
21200000,-0.08604804,0.23866902,1.4611886,0.0,0.73537993,-0.111176655,0.06008739,0.665767,0.550965,0.0,0.0,1,0,0,0,0,2
21224000,-0.0858669,0.23881313,1.4611735,0.0,0.7353865,-0.111157015,0.060202,0.6657526,0.5506067,0.0,0.0,1,0,0,0,0,2
21248000,-0.08578929,0.23895958,1.4611584,0.0,0.7353873,-0.11117621,0.060283028,0.66574115,0.55023646,0.0,0.0,1,0,0,0,0,2
21272000,-0.08572742,0.23910801,1.4611444,0.0,0.7353867,-0.111201875,0.06035947,0.66573066,0.5498625,0.0,0.0,1,0,0,0,0,2
21296000,-0.08566022,0.23925419,1.4611244,0.0,0.7353886,-0.111224666,0.060437202,0.6657178,0.5495,0.0,0.0,1,0,0,0,0,2
21320000,-0.08556518,0.239405,1.4611149,0.0,0.73538816,-0.11123906,0.06052534,0.66570777,0.5491064,0.0,0.0,1,0,0,0,0,2
21344000,-0.08550252,0.2395575,1.4610991,0.0,0.735388,-0.11126572,0.060603656,0.66569644,0.54870254,0.0,0.0,1,0,0,0,0,2
21368000,-0.08542059,0.23971118,1.4610847,0.0,0.73538834,-0.11128573,0.06068876,0.66568494,0.54828566,0.0,0.0,1,0,0,0,0,2
21392000,-0.08529985,0.23985632,1.4610716,0.0,0.73539084,-0.11128868,0.060783535,0.6656729,0.547938,0.0,0.0,1,0,0,0,0,2
21416000,-0.085214995,0.24000798,1.461056,0.0,0.735392,-0.11130692,0.06086894,0.665661,0.5475742,0.0,0.0,1,0,0,0,0,2
21440000,-0.08512571,0.24016197,1.4610422,0.0,0.7353924,-0.11132434,0.060956568,0.6656494,0.5472014,0.0,0.0,1,0,0,0,0,2
21464000,-0.08507878,0.24031757,1.4610307,0.0,0.7353897,-0.11135792,0.061030567,0.66563994,0.5468085,0.0,0.0,1,0,0,0,0,2
21488000,-0.085028924,0.2404661,1.4610196,0.0,0.7353874,-0.11138812,0.061102897,0.66563076,0.5464752,0.0,0.0,1,0,0,0,0,2
21512000,-0.08494677,0.24061847,1.4610056,0.0,0.73538774,-0.11140761,0.061187565,0.6656194,0.5461156,0.0,0.0,1,0,0,0,0,2
21536000,-0.08487918,0.2407728,1.4609923,0.0,0.73538685,-0.11143313,0.06126807,0.66560876,0.54574794,0.0,0.0,1,0,0,0,0,2
21560000,-0.08479283,0.24092807,1.4609815,0.0,0.7353862,-0.11145213,0.061355025,0.66559833,0.54535526,0.0,0.0,1,0,0,0,0,2
21584000,-0.08472739,0.24107456,1.4609692,0.0,0.7353853,-0.1114759,0.061431855,0.6655882,0.545025,0.0,0.0,1,0,0,0,0,2
21608000,-0.08464484,0.24122599,1.4609497,0.0,0.7353875,-0.111494765,0.0615166,0.66557485,0.54467696,0.0,0.0,1,0,0,0,0,2
21632000,-0.084532596,0.24137853,1.4609299,0.0,0.73539144,-0.111503065,0.061611675,0.6655603,0.5443113,0.0,0.0,1,0,0,0,0,2
21656000,-0.080185704,0.24153244,1.4653797,0.0,0.73414075,-0.110095285,0.06287039,0.667056,0.5439295,0.0,0.0,1,0,0,0,0,2
21680000,-0.08011793,0.24168783,1.4653635,0.0,0.7341408,-0.11012116,0.06295143,0.667044,0.5435429,0.0,0.0,1,0,0,0,0,2
21704000,-0.080049664,0.24184258,1.465351,0.0,0.7341398,-0.11014677,0.06303218,0.66703326,0.5431404,0.0,0.0,1,0,0,0,0,2
21728000,-0.08007161,0.24199979,1.4653422,0.0,0.73413235,-0.11020641,0.063083574,0.6670267,0.542705,0.0,0.0,1,0,0,0,0,2
21752000,-0.08000525,0.24215943,1.4653325,0.0,0.73413,-0.11023441,0.06316535,0.667017,0.54225844,0.0,0.0,1,0,0,0,0,2
21776000,-0.079962485,0.24232046,1.4653172,0.0,0.734128,-0.110271364,0.06324009,0.6670059,0.54181236,0.0,0.0,1,0,0,0,0,2
21800000,-0.07990757,0.24246131,1.4653018,0.0,0.73412806,-0.11029718,0.0633114,0.66699487,0.54159254,0.0,0.0,1,0,0,0,0,2
21824000,-0.079865545,0.24260639,1.4652897,0.0,0.7341259,-0.11032923,0.06337981,0.66698533,0.5413492,0.0,0.0,1,0,0,0,0,2
21848000,-0.079751074,0.24275362,1.4652847,0.0,0.7341253,-0.110335626,0.06347278,0.6669761,0.541081,0.0,0.0,1,0,0,0,0,2
21872000,-0.07969779,0.24290244,1.4652708,0.0,0.7341243,-0.11036471,0.06354642,0.6669655,0.5407951,0.0,0.0,1,0,0,0,0,2
21896000,-0.079702444,0.24306926,1.4652617,0.0,0.7341173,-0.11042118,0.06360714,0.666958,0.5402957,0.0,0.0,1,0,0,0,0,2
21920000,-0.0796355,0.24324103,1.4652517,0.0,0.73411435,-0.11045294,0.06369362,0.6669477,0.53978133,0.0,0.0,1,0,0,0,0,2
21944000,-0.07957889,0.2434158,1.4652418,0.0,0.73411065,-0.11048952,0.06377777,0.6669378,0.53926235,0.0,0.0,1,0,0,0,0,2
21968000,-0.07955977,0.2435926,1.465228,0.0,0.73410594,-0.110540375,0.06385036,0.6669275,0.5387395,0.0,0.0,1,0,0,0,0,2
21992000,-0.07951246,0.2437598,1.4652137,0.0,0.7341036,-0.1105777,0.06392885,0.66691643,0.5383234,0.0,0.0,1,0,0,0,0,2
22016000,-0.079472944,0.24392954,1.4651957,0.0,0.73410195,-0.11061861,0.064005874,0.66690415,0.5378888,0.0,0.0,1,0,0,0,0,2
22040000,-0.07937267,0.2441016,1.4651833,0.0,0.7341015,-0.11063817,0.06410371,0.66689193,0.53744626,0.0,0.0,1,0,0,0,0,2
22064000,-0.079315126,0.24427494,1.4651625,0.0,0.73410153,-0.11067356,0.06418823,0.6668779,0.5370091,0.0,0.0,1,0,0,0,0,2
22088000,-0.079235494,0.24443367,1.4651461,0.0,0.73410213,-0.11069616,0.06427447,0.6668652,0.5366872,0.0,0.0,1,0,0,0,0,2
22112000,-0.07920987,0.24459858,1.4651331,0.0,0.73409826,-0.110740736,0.064344786,0.66685534,0.5363291,0.0,0.0,1,0,0,0,0,2
22136000,-0.07916503,0.24476466,1.4651098,0.0,0.73409873,-0.110778295,0.06442252,0.66684103,0.5359762,0.0,0.0,1,0,0,0,0,2
22160000,-0.0790733,0.24493201,1.465091,0.0,0.73410034,-0.110799216,0.06451612,0.6668267,0.53560126,0.0,0.0,1,0,0,0,0,2
22184000,-0.07898958,0.24508752,1.465071,0.0,0.73410255,-0.11081913,0.06460272,0.66681254,0.53533584,0.0,0.0,1,0,0,0,0,2
22208000,-0.07892196,0.24524869,1.4650525,0.0,0.734103,-0.11084686,0.06468596,0.6667994,0.5350498,0.0,0.0,1,0,0,0,0,2
22232000,-0.07885117,0.24541117,1.465034,0.0,0.7341036,-0.11087388,0.06477076,0.6667861,0.5347521,0.0,0.0,1,0,0,0,0,2
22256000,-0.07875909,0.24557495,1.465013,0.0,0.7341061,-0.11089341,0.06486326,0.66677105,0.5344448,0.0,0.0,1,0,0,0,0,2
22280000,-0.07873349,0.24574034,1.464995,0.0,0.73410386,-0.11093798,0.06493403,0.66675925,0.53412783,0.0,0.0,1,0,0,0,0,2
22304000,-0.078693554,0.24588354,1.4649786,0.0,0.73410326,-0.11097002,0.065001294,0.6667481,0.5340694,0.0,0.0,1,0,0,0,0,2
22328000,-0.07868077,0.24603128,1.4649568,0.0,0.7341025,-0.11101333,0.065061465,0.66673577,0.5339999,0.0,0.0,1,0,0,0,0,2
22352000,-0.07867752,0.24618126,1.4649454,0.0,0.73409766,-0.11106123,0.065118715,0.6667275,0.5339039,0.0,0.0,1,0,0,0,0,2
22376000,-0.0785956,0.24633457,1.4649309,0.0,0.7340981,-0.11108124,0.06520359,0.66671544,0.5337841,0.0,0.0,1,0,0,0,0,2
22400000,-0.078494415,0.24647254,1.4649162,0.0,0.73410046,-0.111089125,0.06528923,0.6667031,0.53380775,0.0,0.0,1,0,0,0,0,2
22424000,-0.07840023,0.24661751,1.4649017,0.0,0.7341021,-0.11110189,0.06537511,0.6666908,0.5337954,0.0,0.0,1,0,0,0,0,2
22448000,-0.07834544,0.24676444,1.4648902,0.0,0.7341003,-0.11112985,0.0654484,0.66668093,0.5337578,0.0,0.0,1,0,0,0,0,2
22472000,-0.07829879,0.24691327,1.4648769,0.0,0.7340986,-0.11116137,0.06551981,0.66667056,0.5336977,0.0,0.0,1,0,0,0,0,2
22496000,-0.07828829,0.2470691,1.4648649,0.0,0.73409396,-0.111208506,0.06558168,0.6666616,0.5335236,0.0,0.0,1,0,0,0,0,2
22520000,-0.0782328,0.24722862,1.4648476,0.0,0.7340935,-0.11124018,0.0656602,0.66664916,0.53332824,0.0,0.0,1,0,0,0,0,2
22544000,-0.078133464,0.2473904,1.4648335,0.0,0.73409414,-0.11125659,0.065754004,0.6666364,0.53311414,0.0,0.0,1,0,0,0,0,2
22568000,-0.078101054,0.24755296,1.464819,0.0,0.7340913,-0.111297816,0.0658258,0.6666256,0.5328748,0.0,0.0,1,0,0,0,0,2
22592000,-0.07803016,0.24769646,1.464814,0.0,0.7340885,-0.111318946,0.065902844,0.66661763,0.5328474,0.0,0.0,1,0,0,0,0,2
22616000,-0.077959776,0.24784282,1.4647996,0.0,0.73408854,-0.111340895,0.065981284,0.6666061,0.5327842,0.0,0.0,1,0,0,0,0,2
22640000,-0.077902265,0.24799053,1.4647814,0.0,0.73408914,-0.111367896,0.06605617,0.66659355,0.5327055,0.0,0.0,1,0,0,0,0,2
22664000,-0.07780545,0.24814105,1.4647713,0.0,0.7340891,-0.11138165,0.066144735,0.6665826,0.5325991,0.0,0.0,1,0,0,0,0,2
22688000,-0.077742435,0.24831444,1.4647583,0.0,0.7340867,-0.11141527,0.066230655,0.6665711,0.5321477,0.0,0.0,1,0,0,0,0,2
22712000,-0.07772905,0.2484929,1.4647485,0.0,0.73408014,-0.11146886,0.06630174,0.6665622,0.53165734,0.0,0.0,1,0,0,0,0,2
22736000,-0.07769267,0.24867204,1.464737,0.0,0.7340754,-0.111514196,0.06638083,0.66655195,0.53116167,0.0,0.0,1,0,0,0,0,2
22760000,-0.07767171,0.24885225,1.4647267,0.0,0.7340694,-0.11156557,0.066455126,0.66654253,0.53065246,0.0,0.0,1,0,0,0,0,2
22784000,-0.07764015,0.24902098,1.4647173,0.0,0.73406434,-0.111609295,0.06652863,0.6665334,0.5302336,0.0,0.0,1,0,0,0,0,2
22808000,-0.07764965,0.24919634,1.4647038,0.0,0.734058,-0.11167015,0.06659114,0.66652405,0.5297967,0.0,0.0,1,0,0,0,0,2
22832000,-0.077612475,0.24937367,1.4646988,0.0,0.7340513,-0.11171481,0.06666947,0.6665162,0.52933943,0.0,0.0,1,0,0,0,0,2
22856000,-0.07752158,0.2495535,1.4646833,0.0,0.7340509,-0.1117402,0.066767216,0.66650254,0.5288881,0.0,0.0,1,0,0,0,0,2
22880000,-0.077475615,0.24973503,1.4646716,0.0,0.7340466,-0.111782774,0.066850394,0.6664917,0.5284366,0.0,0.0,1,0,0,0,0,2
22904000,-0.077410094,0.24990124,1.4646589,0.0,0.7340447,-0.111813106,0.06693448,0.6664803,0.52819395,0.0,0.0,1,0,0,0,0,2
22928000,-0.07738939,0.2500704,1.4646498,0.0,0.7340389,-0.11186096,0.06700452,0.66647166,0.5279362,0.0,0.0,1,0,0,0,0,2
22952000,-0.07733336,0.25024003,1.4646337,0.0,0.73403734,-0.111895785,0.0670869,0.6664592,0.5276714,0.0,0.0,1,0,0,0,0,2
22976000,-0.07302277,0.25041193,1.4691393,0.0,0.7327638,-0.11052438,0.06833797,0.6679607,0.5274018,0.0,0.0,1,0,0,0,0,2
23000000,-0.072950564,0.2505756,1.4691238,0.0,0.73276335,-0.11055151,0.068423405,0.66794795,0.5272112,0.0,0.0,1,0,0,0,0,2
23024000,-0.072875395,0.2507452,1.4691079,0.0,0.73276293,-0.11057948,0.06851205,0.6679347,0.52698624,0.0,0.0,1,0,0,0,0,2
23048000,-0.072820336,0.2509162,1.4690936,0.0,0.7327607,-0.11061535,0.068594396,0.6679227,0.52674437,0.0,0.0,1,0,0,0,0,2
23072000,-0.07274598,0.25108933,1.4690807,0.0,0.73275906,-0.11064489,0.06868391,0.66791046,0.52647936,0.0,0.0,1,0,0,0,0,2
23096000,-0.07273267,0.25126836,1.4690654,0.0,0.73275447,-0.110698685,0.06875533,0.6678993,0.526115,0.0,0.0,1,0,0,0,0,2
23120000,-0.072728984,0.25145262,1.4690545,0.0,0.73274744,-0.11075786,0.06882523,0.6678899,0.5257187,0.0,0.0,1,0,0,0,0,2
23144000,-0.07270617,0.2516381,1.4690388,0.0,0.7327431,-0.11081028,0.068902254,0.66787803,0.525321,0.0,0.0,1,0,0,0,0,2
23168000,-0.07266749,0.25182474,1.4690285,0.0,0.7327377,-0.11085744,0.068984695,0.66786754,0.5249053,0.0,0.0,1,0,0,0,0,2
23192000,-0.07261942,0.252006,1.4690175,0.0,0.7327334,-0.11089936,0.069068305,0.66785675,0.5245486,0.0,0.0,1,0,0,0,0,2
23216000,-0.07261846,0.25219163,1.4690055,0.0,0.73272663,-0.110959955,0.06913787,0.6678469,0.524179,0.0,0.0,1,0,0,0,0,2
23240000,-0.07257126,0.25237927,1.4689958,0.0,0.7327214,-0.111004345,0.069223486,0.6678363,0.52380514,0.0,0.0,1,0,0,0,0,2
23264000,-0.07251077,0.25256863,1.4689784,0.0,0.7327195,-0.111044176,0.069314614,0.6678225,0.5234385,0.0,0.0,1,0,0,0,0,2
23288000,-0.07249269,0.25275648,1.4689649,0.0,0.732714,-0.111099176,0.06939079,0.66781145,0.5230901,0.0,0.0,1,0,0,0,0,2
23312000,-0.07249293,0.25294834,1.4689454,0.0,0.7327092,-0.11116199,0.06946268,0.6677987,0.5227355,0.0,0.0,1,0,0,0,0,2
23336000,-0.07249562,0.25314218,1.4689305,0.0,0.7327026,-0.11122652,0.06953421,0.66778773,0.52236843,0.0,0.0,1,0,0,0,0,2
23360000,-0.07247471,0.25333637,1.4689143,0.0,0.7326977,-0.111282475,0.06961383,0.66777545,0.521987,0.0,0.0,1,0,0,0,0,2
23384000,-0.072447516,0.2535029,1.4689009,0.0,0.732694,-0.1113271,0.06968519,0.66776484,0.5219452,0.0,0.0,1,0,0,0,0,2
23408000,-0.07243389,0.25367594,1.4688897,0.0,0.73268825,-0.11137889,0.06975427,0.66775525,0.52186465,0.0,0.0,1,0,0,0,0,2
23432000,-0.07237858,0.25385085,1.4688694,0.0,0.7326877,-0.11141572,0.06983848,0.6677407,0.52178097,0.0,0.0,1,0,0,0,0,2
23456000,-0.07239196,0.25402677,1.4688497,0.0,0.7326833,-0.111478075,0.0699001,0.6677289,0.52168465,0.0,0.0,1,0,0,0,0,2
23480000,-0.07232048,0.25420508,1.4688348,0.0,0.7326817,-0.111510284,0.069990665,0.6677157,0.52156687,0.0,0.0,1,0,0,0,0,2
23504000,-0.07235158,0.25438005,1.4688194,0.0,0.7326748,-0.11157896,0.07004578,0.66770613,0.5214831,0.0,0.0,1,0,0,0,0,2
23528000,-0.072358176,0.2545565,1.468799,0.0,0.73267084,-0.11163898,0.07010991,0.66769373,0.52138984,0.0,0.0,1,0,0,0,0,2
23552000,-0.07234606,0.25473335,1.4687815,0.0,0.73266685,-0.11169237,0.07018025,0.66768175,0.5212763,0.0,0.0,1,0,0,0,0,2
23576000,-0.072332114,0.2549123,1.4687713,0.0,0.7326604,-0.11174601,0.07025157,0.6676723,0.5211471,0.0,0.0,1,0,0,0,0,2
23600000,-0.072326474,0.25509015,1.4687593,0.0,0.7326543,-0.11180231,0.07031984,0.6676625,0.5209614,0.0,0.0,1,0,0,0,0,2
23624000,-0.072282776,0.2552752,1.4687531,0.0,0.73264784,-0.111847214,0.07040313,0.66765326,0.5207274,0.0,0.0,1,0,0,0,0,2
23648000,-0.07219392,0.2554618,1.468739,0.0,0.7326464,-0.111875825,0.070502505,0.66763943,0.5204841,0.0,0.0,1,0,0,0,0,2
23672000,-0.07214974,0.25565022,1.4687259,0.0,0.73264205,-0.11192144,0.07058759,0.6676276,0.52024394,0.0,0.0,1,0,0,0,0,2
23696000,-0.072120585,0.25584808,1.4687073,0.0,0.7326382,-0.11197547,0.070671454,0.66761386,0.51984864,0.0,0.0,1,0,0,0,0,2
23720000,-0.072111726,0.25604972,1.4686904,0.0,0.73263234,-0.11203825,0.07074984,0.66760147,0.5194462,0.0,0.0,1,0,0,0,0,2
23744000,-0.07212043,0.25625202,1.4686776,0.0,0.7326242,-0.11210782,0.07082239,0.66759115,0.51902366,0.0,0.0,1,0,0,0,0,2
23768000,-0.07215025,0.25645414,1.4686593,0.0,0.7326166,-0.11218487,0.07088812,0.66757953,0.51859415,0.0,0.0,1,0,0,0,0,2
23792000,-0.07215869,0.2566374,1.4686474,0.0,0.7326093,-0.11224808,0.07095367,0.66757005,0.51837444,0.0,0.0,1,0,0,0,0,2
23816000,-0.07209001,0.24828695,1.4686307,0.0,0.7331086,-0.109462716,0.06789227,0.6678027,0.48877847,0.0,0.0,1,0,0,0,0,2
23840000,-0.07206469,0.2399347,1.4686034,0.0,0.73359627,-0.106690444,0.064815074,0.6680214,0.45778108,0.0,0.0,1,0,0,0,0,2
23864000,-0.07204677,0.23158066,1.4685545,0.0,0.73407805,-0.10391783,0.06173466,0.6682209,0.42918664,0.0,0.0,1,0,0,0,0,2
23888000,-0.072048984,0.22322313,1.4684755,0.0,0.7345563,-0.10114891,0.05864656,0.66839844,0.40303856,0.0,0.0,1,0,0,0,0,2
23912000,-0.072087735,0.21486193,1.4683577,0.0,0.7350331,-0.098389596,0.055545527,0.66855115,0.37901312,0.0,0.0,1,0,0,0,0,2
23936000,-0.07214309,0.20649672,1.4682068,0.0,0.73550755,-0.09563284,0.052437738,0.66868025,0.35724655,0.0,0.0,1,0,0,0,0,2
23960000,-0.07222269,0.19812715,1.468026,0.0,0.7359784,-0.092881665,0.049320295,0.6687871,0.33732,0.0,0.0,1,0,0,0,0,2
23984000,-0.072294,0.1897486,1.467822,0.0,0.7364453,-0.09012288,0.04620196,0.6688734,0.31972772,0.0,0.0,1,0,0,0,0,2
24008000,-0.07233851,0.18136081,1.4676045,0.0,0.7369054,-0.08734995,0.04308836,0.6689423,0.30371228,0.0,0.0,1,0,0,0,0,2
24032000,-0.07245541,0.17296353,1.4673737,0.0,0.7373547,-0.08459945,0.039946236,0.6689958,0.28931892,0.0,0.0,1,0,0,0,0,2
24056000,-0.07256398,0.16455653,1.4671322,0.0,0.73779553,-0.08184172,0.036802363,0.6690331,0.27620932,0.0,0.0,1,0,0,0,0,2
24080000,-0.072648704,0.15613961,1.4668856,0.0,0.73822683,-0.079071164,0.033661664,0.66905594,0.26455766,0.0,0.0,1,0,0,0,0,2
24104000,-0.068470985,0.1477072,1.4712913,0.0,0.7372485,-0.07479456,0.03176589,0.670717,0.25454646,0.0,0.0,1,0,0,0,0,2
24128000,-0.06860262,0.13925937,1.4710553,0.0,0.7376441,-0.07202184,0.028601572,0.670728,0.24544933,0.0,0.0,1,0,0,0,0,2
24152000,-0.06865247,0.13079625,1.4708096,0.0,0.7380335,-0.06921323,0.02545818,0.67072207,0.2374285,0.0,0.0,1,0,0,0,0,2
24176000,-0.06872598,0.122318,1.4705642,0.0,0.7384094,-0.06640783,0.022300076,0.67070436,0.23014638,0.0,0.0,1,0,0,0,0,2
24200000,-0.06875631,0.11381549,1.4703343,0.0,0.73876923,-0.06357814,0.019145878,0.67067975,0.22444996,0.0,0.0,1,0,0,0,0,2
24224000,-0.068743564,0.10528928,1.4701033,0.0,0.7391182,-0.060724203,0.015996374,0.67064226,0.21940139,0.0,0.0,1,0,0,0,0,2
24248000,-0.06877559,0.09674002,1.4698766,0.0,0.7394517,-0.057878762,0.012822231,0.67059445,0.21482831,0.0,0.0,1,0,0,0,0,2
24272000,-0.06880128,0.0881684,1.4696563,0.0,0.73977035,-0.055023216,0.009640865,0.67053664,0.21072455,0.0,0.0,1,0,0,0,0,2
24296000,-0.0687899,0.07957289,1.4694319,0.0,0.7400785,-0.052145645,0.006462369,0.6704647,0.20729554,0.0,0.0,1,0,0,0,0,2
24320000,-0.06879301,0.070954345,1.4692179,0.0,0.7403697,-0.0492655,0.0032694396,0.6703842,0.19946116,0.0,0.0,1,0,0,0,0,2
24344000,-0.06879843,0.062313654,1.4690113,0.0,0.74064505,-0.046378583,6.667897e-05,0.6702939,0.18730174,0.0,0.0,1,0,0,0,0,2
