timestamp,altitude_sp,altitude_filtered,height_rate_setpoint,height_rate,airspeed_sp,airspeed_filtered,airspeed_derivative_sp,airspeed_derivative,total_energy_error,energy_distribution_error,total_energy_rate_error,energy_distribution_rate_error,throttle_integ,pitch_integ,mode
13448000,487.93753,487.92554,0.40037996,0.0029252917,13.31119,25.80844,-0.24994498,11.09198,-244.32622,488.8878,-313.60165,585.43475,0.10999999,-31.206562,6
13640000,488.07623,488.06424,0.40037996,0.9139666,13.31114,26.315865,-0.2600945,8.095071,-257.55145,515.33826,-255.55246,439.7468,0.10999999,-40.769154,6
13832000,488.3842,488.3722,0.40037996,1.6537762,13.311258,26.042484,-0.25462452,5.6922903,-250.39304,501.02142,-195.62848,309.74487,0.10999999,-50.246967,6
14048000,488.8892,488.8772,0.40037996,2.4093955,13.311537,25.288843,-0.23954612,3.6703706,-231.0466,462.32855,-140.05022,197.75455,0.10999999,-59.833008,6
14240000,489.4692,489.4572,0.40037996,3.0881672,13.3120165,24.529434,-0.22434835,2.3547535,-212.124,424.48334,-104.55849,126.527824,0.10999999,-67.1199,6
14455999,490.26486,490.25287,0.40039662,3.7930744,13.312434,23.731695,-0.20838521,1.2983966,-192.86856,385.97247,-78.299194,71.516975,0.10999999,-73.97318,6
14647999,491.0948,491.08282,0.39937776,4.41095,13.312984,23.180733,-0.19735496,0.63358456,-179.93823,360.11084,-64.120636,38.523575,0.10999999,-79.07924,6
14839999,492.04034,492.02835,0.40039662,5.050322,13.313567,22.792917,-0.189587,0.15632382,-171.01534,342.26602,-56.299202,15.768634,0.10999999,-83.4918,6
15056000,493.2444,493.2324,0.4003633,5.750144,13.314373,22.499447,-0.18370147,-0.2053291,-164.35861,328.95258,-52.74431,-0.9732199,0.10999999,-87.8845,6
15248000,494.42746,494.41547,0.40037996,6.1971765,13.31504,22.373798,-0.18117517,-0.37767616,-161.53061,323.29657,-52.3113,-8.792947,0.10999999,-91.44706,6
15464000,495.83783,495.82587,0.39936116,6.4931626,13.315746,22.35154,-0.18071586,-0.42963287,-161.02344,322.28223,-53.492355,-11.127357,0.10999999,-95.25096,6
15656000,497.13416,497.12216,0.40037996,6.658455,13.316775,22.398275,-0.18163,-0.40717083,-162.05545,324.34625,-55.309994,-10.103452,0.10999999,-98.55712,6
15848000,497.93832,498.44388,1.612499,6.7535815,13.317594,22.486341,-0.18337496,-0.69713306,-169.09665,159.18066,-50.161816,-61.969337,0.107082464,-98.667915,0
16064000,498.62753,499.9412,3.0186272,6.813067,13.3185005,22.233276,-0.17829551,-1.6897948,-171.35086,145.58496,-16.498505,-70.81633,0.10033342,-95.37807,0
16256000,499.4468,501.25366,3.5158176,6.497541,13.319362,21.769163,-0.16899602,-1.7086701,-165.96477,130.52637,-0.37424332,-62.75814,0.09445078,-92.75232,0
16448000,500.3462,502.472,3.7246838,5.9160814,13.32023,21.491207,-0.16341954,-1.3108994,-163.06842,121.375,3.126062,-46.150993,0.08871099,-90.35315,0
16664000,501.39807,503.73157,3.817041,5.508509,13.321083,21.367193,-0.1609222,-0.9047431,-162.43665,116.668945,0.861912,-32.481003,0.08231815,-87.79577,0
16856000,502.34796,504.79755,3.8488748,5.317256,13.321655,21.395521,-0.16147731,-0.6491459,-164.17339,116.12842,-2.427606,-24.833828,0.076609276,-85.56532,0
17048000,503.3036,505.83224,3.8622146,5.1703124,13.322411,21.448854,-0.16252887,-0.48905638,-166.0812,116.48584,-4.89102,-19.831703,0.07083291,-83.333374,0
17264000,504.3815,506.96713,3.8654695,5.069337,13.323137,21.509008,-0.16371742,-0.3813654,-167.92218,117.20947,-6.557952,-16.4873,0.06425701,-80.807556,0
17456000,505.3408,507.9615,3.866768,5.0246377,13.323795,21.540161,-0.16432731,-0.3293076,-168.9277,117.52734,-7.438409,-14.908524,0.058366895,-78.554306,0
17648000,506.30045,508.94757,3.866464,5.0020366,13.324375,21.535755,-0.16422759,-0.30485496,-169.08437,117.16553,-7.938569,-14.1646805,0.05245195,-76.29874,0
17864000,507.38022,510.0513,3.865266,4.9776573,13.324925,21.507826,-0.16365801,-0.28546962,-168.71082,116.322266,-8.196664,-13.528736,0.045808196,-73.77738,0
18056000,508.34015,511.02975,3.8653572,4.9778414,13.325687,21.478643,-0.16305912,-0.2739185,-168.25555,115.50244,-8.427289,-13.290855,0.039916005,-71.55134,0
18248000,509.30008,512.0076,3.86446,4.9777746,13.326277,21.418022,-0.16183491,-0.2646376,-167.12277,114.01904,-8.649751,-13.11972,0.034051158,-69.347206,0
18464000,510.38004,513.10455,3.8636115,4.970821,13.326994,21.339178,-0.16024368,-0.24629727,-165.59415,112.157715,-8.908302,-12.694328,0.027517246,-66.91009,0
18656000,511.34,514.0778,3.8629463,4.9681754,13.327747,21.269497,-0.158835,-0.23526393,-164.23045,110.53223,-9.101567,-12.464195,0.021755084,-64.77456,0
18848000,512.3,515.0466,3.8625083,4.9602976,13.328365,21.21792,-0.1577911,-0.22830527,-163.21198,109.34277,-9.216548,-12.261795,0.016034046,-62.665714,0
19064000,513.37994,516.1346,3.8621054,4.9587355,13.32902,21.1471,-0.15636161,-0.21727434,-161.78223,107.75488,-9.3758745,-12.042397,0.009644833,-60.322422,0
19256000,514.3399,517.09955,3.8618553,4.9575534,13.32957,21.103163,-0.15547186,-0.21425334,-160.89552,106.77051,-9.463907,-11.985603,0.004001737,-58.261803,0
19448000,515.29987,518.06323,3.861669,4.9644856,13.330207,21.038527,-0.15416639,-0.21103124,-159.5617,105.36328,-9.53333,-12.011288,-0.0015988799,-56.226128,0
19664000,516.3798,519.14703,3.861477,4.969504,13.330954,21.027424,-0.1539294,-0.21287605,-159.35632,105.08203,-9.634206,-12.105526,-0.007869145,-53.95438,0
19856000,517.3398,520.1065,3.8615012,4.9678035,13.331611,20.999048,-0.15334874,-0.21754876,-158.74641,104.48193,-9.552749,-12.197258,-0.013429006,-51.943108,0
20048000,518.29974,521.0633,3.86166,4.960406,13.332374,20.94238,-0.15220015,-0.22185574,-157.51663,103.31445,-9.394121,-12.233768,-0.018957978,-49.94807,0
20264000,519.3797,522.13617,3.8620138,4.954869,13.3328905,20.889248,-0.15112714,-0.22451137,-156.3291,102.265625,-9.202428,-12.250187,-0.025129108,-47.72821,0
20456000,520.33966,523.0889,3.862374,4.9507556,13.333475,20.819874,-0.14972797,-0.22807615,-154.80373,100.881836,-9.090187,-12.304573,-0.030561049,-45.78173,0
20648000,521.2996,524.0432,3.8626578,4.9429455,13.334081,20.761631,-0.148551,-0.21447594,-153.52908,99.71826,-9.147571,-11.962711,-0.035952475,-43.854977,0
20864000,522.3796,525.11316,3.8631582,4.9256163,13.334665,20.710089,-0.14750847,-0.20455445,-152.35437,98.740234,-9.185462,-11.600582,-0.041959547,-41.71627,0
21056000,523.33954,526.05707,3.863961,4.911834,13.335342,20.68175,-0.14692813,-0.20541187,-151.6011,98.302246,-9.170578,-11.485668,-0.047266997,-39.827732,0
21248000,524.2995,526.9971,3.8649588,4.9056277,13.336027,20.628376,-0.14584698,-0.19758189,-150.29425,97.38623,-9.151159,-11.272686,-0.052541852,-37.95016,0
21464000,525.37946,528.0504,3.8662894,4.884447,13.336669,20.587757,-0.14502177,-0.19758436,-149.18787,96.80078,-8.979966,-11.06686,-0.058428865,-35.85391,0
21656000,526.3394,528.9846,3.8675773,4.8778224,13.337259,20.54911,-0.14423703,-0.19800122,-148.13214,96.25098,-8.853575,-11.011925,-0.06362371,-34.001385,0
21848000,527.2994,529.91815,3.8688986,4.8668694,13.337825,20.510567,-0.14345483,-0.19773415,-147.07452,95.711426,-8.734962,-10.900047,-0.06878418,-32.158005,0
22064000,528.37933,530.9621,3.8706992,4.8481407,13.338412,20.492607,-0.1430839,-0.19868656,-146.34499,95.688965,-8.575844,-10.724873,-0.07455226,-30.09159,0
22256000,529.3393,531.8868,3.8724632,4.841903,13.339226,20.454659,-0.14230865,-0.20117027,-145.211,95.24707,-8.408495,-10.710953,-0.07964704,-28.258854,0
22448000,530.29926,532.8081,3.874395,4.8234434,13.33985,20.376184,-0.14072667,-0.20285138,-143.22168,94.015625,-8.163031,-10.572849,-0.084687226,-26.44216,0
22664000,531.3792,533.844,3.8765984,4.8079114,13.340195,20.296913,-0.13913436,-0.19768065,-141.17334,92.83057,-7.9751277,-10.321369,-0.09027718,-24.424765,0
22856000,532.3392,534.7656,3.8785148,4.7965374,13.341159,20.287865,-0.13893412,-0.1875859,-140.60086,93.010254,-8.002981,-9.989769,-0.095202155,-22.64023,0
23048000,533.29913,535.6823,3.8806784,4.784578,13.341574,20.247322,-0.13811496,-0.19087346,-139.34932,92.60693,-7.8762836,-9.932446,-0.10009471,-20.858047,0
23264000,534.3791,536.70856,3.883364,4.7716002,13.342213,20.225763,-0.13767101,-0.18749276,-138.37769,92.688965,-7.7918863,-9.7183075,-0.10555347,-18.857456,0
23456000,535.33905,537.61487,3.8860464,4.763611,13.342981,20.184767,-0.13683571,-0.19262056,-137.01318,92.376465,-7.5914135,-9.731972,-0.110369235,-17.078716,0
23648000,536.299,538.5202,3.8887777,4.7562575,13.343564,20.131742,-0.13576357,-0.19203702,-135.40039,91.83594,-7.407664,-9.63995,-0.115125805,-15.311973,0
23864000,537.31525,539.53705,2.840977,4.7466674,13.344251,20.110025,-0.1353155,-0.21414723,-134.96062,91.3833,-10.771883,-20.27375,-0.120434955,-13.327454,0
24056000,537.76917,540.43365,1.1363068,4.620532,13.344799,19.983341,-0.13277084,-0.6932547,-136.755,84.49512,-20.83968,-45.36892,-0.12518829,-11.636512,0
24248000,537.9646,541.2826,0.3813822,4.2287445,13.345342,19.650826,-0.12610967,-1.2357261,-136.56648,71.49072,-18.691257,-59.534615,-0.12997854,-10.144936,0
24464000,538.05505,542.1194,0.008371994,3.543248,13.345932,19.154697,-0.11617531,-1.5817921,-134.25168,54.53662,-10.555215,-62.73874,-0.13530609,-8.802828,0
24656000,538.0876,542.7256,-0.14034729,2.8421938,13.346113,18.61803,-0.105438344,-1.7403747,-129.73907,38.77295,-2.5929377,-59.688034,-0.13990851,-7.930589,0
24848000,538.10156,543.206,-0.21656598,2.2268486,13.34656,18.180525,-0.09667931,-1.7723181,-126.25804,26.142578,3.7805057,-54.425705,-0.14437531,-7.3261847,0
25064000,538.10803,543.6144,-0.25904137,1.6127577,13.346854,17.743294,-0.08792879,-1.6975528,-122.341995,14.34375,8.51994,-46.91611,-0.14925165,-6.9097886,0
25256000,538.1104,543.86993,-0.28187257,1.1184014,13.347026,17.397556,-0.08101061,-1.5603222,-118.747375,5.7841797,11.071542,-39.468403,-0.15344912,-6.7347217,0
25448000,538.11145,544.03845,-0.29431558,0.6920072,13.347184,17.141735,-0.07589102,-1.3962501,-115.9699,-0.2783203,12.425053,-32.305767,-0.1575451,-6.692145,0
25664000,538.11194,544.1369,-0.30124816,0.28140357,13.34737,16.949856,-0.072049715,-1.1960732,-113.657135,-4.5117188,13.134937,-24.765898,-0.16205299,-6.753632,0
25856000,538.11194,544.1553,-0.30216676,-0.024812246,13.347281,16.869509,-0.07044455,-1.0319917,-112.47985,-6.0498047,13.398889,-18.940748,-0.16600178,-6.859582,0
26048000,538.11194,544.1218,-0.3004944,-0.2692143,13.347288,16.792326,-0.06890076,-0.8837469,-110.85258,-7.020508,13.424494,-13.989915,-0.16990507,-6.986054,0
26264000,538.11194,544.03467,-0.29613647,-0.49091095,13.347259,16.700481,-0.06706446,-0.7240124,-108.46041,-7.7036133,13.109599,-9.061262,-0.17421478,-7.146542,0
26456000,538.11194,543.92004,-0.29040527,-0.6494936,13.347252,16.6621,-0.06629696,-0.6082132,-106.69623,-7.2197266,12.707192,-5.508009,-0.17797041,-7.2910843,0
26648000,538.11194,543.78046,-0.2834259,-0.7704698,13.347219,16.639019,-0.06583599,-0.513557,-104.943214,-6.234375,12.395325,-2.6733696,-0.18166636,-7.4195566,0
26864000,538.11194,543.6011,-0.2744568,-0.8758497,13.347011,16.603142,-0.06512262,-0.41880473,-102.59089,-5.069336,11.946545,0.025415063,-0.18574056,-7.542031,0
27056000,538.11194,543.4275,-0.2657776,-0.9468895,13.346781,16.598455,-0.06503349,-0.3423956,-100.81353,-3.4414062,11.527721,2.075644,-0.18929285,-7.6219277,0
27248000,538.11194,543.2422,-0.25651246,-0.99265474,13.346803,16.55629,-0.06418974,-0.27231532,-98.29733,-2.3237305,10.976759,3.7733026,-0.19277194,-7.6739926,0
27464000,538.11194,543.0252,-0.24566345,-1.0304507,13.346711,16.534891,-0.063763596,-0.21501344,-95.816574,-0.5488281,10.442334,5.1952343,-0.19658537,-7.7023716,0
27656000,538.11194,542.82776,-0.23579101,-1.0484785,13.346619,16.525007,-0.06356777,-0.16837746,-93.71791,1.2260742,9.952562,6.2377605,-0.19989362,-7.6939883,0
27848000,538.11194,542.62933,-0.22586976,-1.0552404,13.346361,16.516455,-0.06340187,-0.13678454,-91.634254,3.0336914,9.552549,6.9213266,-0.2031305,-7.650183,0
28064000,538.11194,542.40393,-0.21459961,-1.0524875,13.34628,16.482607,-0.062726535,-0.11602752,-88.86641,4.6870117,9.222895,7.3383346,-0.20667326,-7.5653715,0
28256000,538.11194,542.2061,-0.20470886,-1.0438448,13.346234,16.483938,-0.06275408,-0.08247325,-86.94903,6.649414,8.801379,7.904063,-0.20973904,-7.455959,0
28448000,538.11194,542.00946,-0.1948761,-1.0308622,13.345933,16.478443,-0.0626502,-0.06205843,-84.934265,8.490723,8.373778,8.207975,-0.21274082,-7.307451,0
28664000,538.11194,541.79266,-0.18403625,-1.0130422,13.3457985,16.469881,-0.06248165,-0.04895698,-82.66854,10.478027,8.0142975,8.352521,-0.2160356,-7.098004,0
28856000,538.11194,541.60455,-0.17463075,-0.990039,13.345839,16.462225,-0.062327728,-0.028068502,-80.69721,12.196289,7.6616545,8.560408,-0.21888697,-6.878139,0
29048000,538.11194,541.4222,-0.16551208,-0.9670683,13.34565,16.465641,-0.062399823,-0.011846475,-78.96789,14.042969,7.2396045,8.692975,-0.2216731,-6.6244383,0
29264000,538.11194,541.2222,-0.15551452,-0.9375586,13.345556,16.487957,-0.06284802,-0.0016549728,-77.37589,16.373047,6.8384295,8.678181,-0.22473595,-6.2976694,0
29456000,538.11194,541.0486,-0.14683227,-0.9126356,13.34534,16.490208,-0.062897354,-0.003599299,-75.71276,18.11621,6.651309,8.487803,-0.22740516,-5.9661174,0
29648000,538.11194,540.87823,-0.13831483,-0.8846436,13.345102,16.501516,-0.06312828,-0.0024320288,-74.23208,19.976074,6.449264,8.320565,-0.23002028,-5.599664,0
29864000,538.11194,540.6944,-0.12912293,-0.8516154,13.345222,16.486176,-0.062819056,0.004732773,-72.174706,21.524414,6.1120787,8.198902,-0.23289521,-5.1490793,0
30056000,538.45703,540.5381,2.174593,-0.809334,15.39804,16.586336,-0.023765925,0.71597755,-39.41117,-1.4042969,15.024682,41.53196,-0.23432748,-5.244424,0
30248000,539.1523,540.4122,3.1962829,-0.466488,15.3979025,17.054346,-0.033128873,1.976168,-39.233124,14.521973,8.349247,70.18676,-0.23568287,-5.1145473,0
30463999,540.10974,540.4074,3.6980884,0.44263703,15.397866,18.03774,-0.05279749,2.7824888,-47.05184,41.213867,-10.658397,83.06723,-0.23737732,-4.488395,0
30655999,541.0256,540.58856,3.897583,1.4013282,15.398104,18.963179,-0.0713015,2.7924185,-56.96463,65.53613,-24.504356,78.785126,-0.23922363,-3.4263499,0
30847999,541.9665,540.94257,3.9981365,2.2126873,15.398304,19.625189,-0.08453769,2.4251678,-63.978622,84.06201,-30.447426,66.76272,-0.24136235,-1.9586084,0
31064000,543.0377,541.5055,4.055938,2.9403257,15.398714,20.06286,-0.09328292,1.8711139,-67.67311,97.7251,-29.755264,50.351837,-0.24397056,0.03232588,0
31256000,543.99457,542.1239,4.0850663,3.449008,15.399095,20.187899,-0.09577608,1.4081587,-66.86435,103.55469,-26.197823,36.598885,-0.24633132,1.9804254,0
31472000,545.073,542.9224,4.103297,3.8782709,15.399626,20.200686,-0.09602119,1.0122383,-64.36977,106.54932,-21.9008,24.594357,-0.24890877,4.257504,0
31664000,546.0324,543.7054,4.114154,4.1734533,15.400043,20.139898,-0.09479711,0.7538392,-61.406784,107.04736,-18.982897,16.509918,-0.25110263,6.3113537,0
31856000,546.99207,544.5401,4.1224356,4.400811,15.40085,20.04329,-0.09284878,0.56212837,-58.22821,106.31885,-16.812254,10.397966,-0.25318393,8.358399,0
32072000,548.072,545.5225,4.127312,4.5963464,15.401412,19.985348,-0.091678716,0.41131872,-56.103363,106.10742,-15.231517,5.452923,-0.2554183,10.6485195,0
32264000,549.032,546.42456,4.1302085,4.730971,15.402311,19.902111,-0.089995995,0.303976,-53.861588,105.00098,-14.177148,1.9494057,-0.25734246,12.678296,0
32456000,549.99194,547.3495,4.1319604,4.840803,15.4030075,19.878435,-0.08950855,0.22120184,-53.03621,104.86328,-13.447477,-0.77493286,-0.25920868,14.693135,0
32672000,551.0719,548.4154,4.1326623,4.938852,15.40369,19.889074,-0.08970768,0.13638863,-53.099533,105.20215,-12.73473,-3.4091759,-0.26129493,16.962423,0
32864000,552.03186,549.37805,4.132528,5.0045238,15.404556,19.904097,-0.0899908,0.063018516,-53.411453,105.46094,-11.979598,-5.505844,-0.26315567,18.984343,0
33056000,552.9918,550.34973,4.131942,5.0602794,15.405158,19.917217,-0.09024118,0.0033367341,-53.778168,105.598145,-11.304142,-7.2400703,-0.2650296,21.01068,0
33272000,554.0718,551.4549,4.1306815,5.102015,15.405916,19.907959,-0.090040855,-0.056223735,-53.829697,105.15527,-10.548865,-8.852299,-0.2671482,23.287857,0
33464000,555.03174,552.4448,4.1291833,5.126739,15.40676,19.921097,-0.09028673,-0.103170514,-54.37227,105.10986,-9.855216,-10.039337,-0.26904294,25.307621,0
33656000,555.9917,553.4414,4.127352,5.1482434,15.407344,19.915668,-0.09016649,-0.13654388,-54.614044,104.6333,-9.315951,-10.935162,-0.2709526,27.323004,0
33872000,557.07166,554.569,4.124972,5.173336,15.408331,19.860584,-0.08904506,-0.17153881,-53.970108,103.055664,-8.808677,-11.919315,-0.2730887,29.565409,0
34064000,558.0316,555.5744,4.1226983,5.187699,15.409182,19.889091,-0.089598194,-0.1886908,-54.969376,103.163574,-8.612378,-12.4149475,-0.27499714,31.546354,0
34256000,558.9916,556.5824,4.1202965,5.1968675,15.409801,19.860134,-0.08900667,-0.21006878,-54.8555,102.10742,-8.319382,-12.961861,-0.2769179,33.516426,0
34472000,560.07153,557.7179,4.1175194,5.1987486,15.410582,19.809328,-0.08797493,-0.22677664,-54.380188,100.54297,-7.9418654,-13.352806,-0.27906206,35.701385,0
34664000,561.0315,558.7266,4.115081,5.1969604,15.411372,19.780287,-0.08737829,-0.22919151,-54.271652,99.47754,-7.838438,-13.414719,-0.2809601,37.619736,0
34856000,561.99146,559.73773,4.1125236,5.2035866,15.4120655,19.742407,-0.08660682,-0.2337391,-54.01436,98.21631,-7.809057,-13.60442,-0.28284872,39.514103,0
35072000,563.0714,560.8741,4.1097035,5.200034,15.413007,19.702692,-0.085793704,-0.23304752,-53.769302,96.86621,-7.7591376,-13.593784,-0.2849724,41.62171,0
35264000,564.0314,561.8816,4.1073265,5.196436,15.413898,19.67848,-0.08529163,-0.23284003,-53.745132,95.90918,-7.7584763,-13.584042,-0.28684917,43.469753,0
35456000,564.99133,562.8918,4.104815,5.2024374,15.414496,19.643766,-0.0845854,-0.23666115,-53.54608,94.7251,-7.7593675,-13.751335,-0.28872788,45.30049,0
35672000,566.0713,564.0274,4.1020317,5.192402,15.415476,19.6172,-0.084034495,-0.23561361,-53.554886,93.64307,-7.74675,-13.666439,-0.29083076,47.331642,0
35864000,567.03125,565.03503,4.099648,5.1851206,15.416166,19.570898,-0.083094634,-0.23609802,-53.10475,92.257324,-7.695632,-13.639263,-0.29269248,49.113625,0
36056000,567.9912,566.04297,4.0972495,5.1847663,15.417039,19.564268,-0.08294458,-0.23180921,-53.431793,91.643555,-7.7259064,-13.577324,-0.29455402,50.87753,0
36272000,569.07117,567.178,4.0944967,5.174739,15.417783,19.565975,-0.08296385,-0.23823765,-53.994263,91.125,-7.6294413,-13.631638,-0.29666787,52.85085,0
36464000,570.031,568.1874,4.089984,5.1750817,15.418457,19.513134,-0.08189354,-0.23833723,-53.436707,89.59717,-7.561677,-13.693882,-0.29854482,54.58409,0
36656000,570.99097,569.19543,4.089614,5.1662064,15.419113,19.465391,-0.08092556,-0.2439653,-52.967804,88.18457,-7.4619675,-13.731396,-0.3004061,56.2902,0
36872000,572.0709,570.32745,4.087011,5.162093,15.420068,19.403017,-0.079658985,-0.2382476,-52.251633,86.447266,-7.3857393,-13.620052,-0.30247262,58.17348,0
37064000,573.0309,571.33105,4.084829,5.1511397,15.420881,19.400028,-0.07958294,-0.23155567,-52.609314,85.94824,-7.485673,-13.405216,-0.30430442,59.82655,0
37256000,573.99084,572.33044,4.0828576,5.139131,15.421711,19.332094,-0.078207664,-0.22974946,-51.667633,84.23291,-7.4464707,-13.288124,-0.30612013,61.455364,0
37472000,575.0708,573.45447,4.080654,5.1345844,15.422381,19.280893,-0.07717024,-0.22102053,-51.100906,82.802246,-7.5503464,-13.109089,-0.30814263,63.25909,0
37664000,576.03076,574.45276,4.0787377,5.132416,15.423237,19.270756,-0.07695038,-0.221745,-51.267807,82.21826,-7.5479445,-13.123356,-0.30993435,64.843605,0
37856000,576.9907,575.45087,4.0768304,5.125943,15.424043,19.262163,-0.07676241,-0.21515894,-51.463852,81.666016,-7.638965,-12.954102,-0.31173003,66.41579,0
38072000,578.0707,576.57117,4.074813,5.1128907,15.424667,19.226212,-0.07603088,-0.21169274,-51.158356,80.56885,-7.607694,-12.78833,-0.31375068,68.16831,0
38264000,579.03064,577.5646,4.0731406,5.1093793,15.425314,19.18035,-0.075100705,-0.21211748,-50.595306,79.3501,-7.529783,-12.790062,-0.31552953,69.70277,0
38456000,579.9906,578.5569,4.071523,5.1017756,15.426368,19.127508,-0.07402281,-0.20719677,-49.884308,78.004395,-7.4894896,-12.650612,-0.3172852,71.21218,0
38672000,581.07056,579.6737,4.0696797,5.095839,15.426942,19.090933,-0.07327982,-0.20480521,-49.538345,76.93506,-7.5591288,-12.574131,-0.31923738,72.88299,0
38864000,582.0305,580.66547,4.06809,5.085912,15.4278145,19.06361,-0.07271591,-0.19943951,-49.31566,76.08789,-7.595188,-12.397236,-0.3209657,74.35132,0
39056000,582.9905,581.65674,4.0665245,5.0824714,15.428644,19.038815,-0.072203405,-0.2097807,-49.137115,75.29639,-7.4364977,-12.582344,-0.32268232,75.801476,0
39272000,584.07043,582.7726,4.06473,5.0727053,15.429548,19.025272,-0.07191448,-0.2058264,-49.217484,74.67236,-7.356359,-12.432575,-0.3246192,77.421715,0
39464000,585.0304,583.76294,4.06321,5.0669146,15.430149,18.976616,-0.07092933,-0.20569614,-48.581528,73.44092,-7.2659893,-12.400398,-0.3263236,78.839966,0
39656000,585.99036,584.7528,4.0617146,5.059214,15.431013,18.940807,-0.07019588,-0.19856721,-48.182785,72.45508,-7.3361845,-12.213585,-0.3280185,80.24171,0
39872000,587.06647,585.8665,3.931661,5.058583,15.431763,18.916021,-0.06968517,-0.19820875,-48.071198,71.60498,-7.575262,-13.482483,-0.3299097,81.79651,0
40064000,587.6619,586.85205,1.7067535,4.987388,15.432388,18.828842,-0.067929074,-0.53954875,-50.24096,66.12598,-18.99509,-41.05209,-0.33162436,83.122314,0
40256000,587.9183,587.7988,0.72415257,4.645327,15.433395,18.529314,-0.06191837,-1.2229457,-51.401505,53.74463,-19.320883,-59.96663,-0.33341098,84.266785,0
40472000,588.037,588.75586,0.2427836,3.9873037,15.434094,18.014544,-0.05160898,-1.7212948,-50.206055,36.106445,-10.866149,-66.79982,-0.33541608,85.220146,0
40664000,588.0798,589.47076,0.050486244,3.2517524,15.43462,17.437101,-0.040049627,-1.8719561,-46.553123,19.271973,-3.0013678,-63.336838,-0.3371009,85.729095,0
40856000,588.09814,590.04755,-0.04660747,2.5669284,15.435174,16.916992,-0.029636363,-1.8574916,-43.086716,4.8535156,2.8012528,-56.55184,-0.33865705,85.93807,0
41072000,588.1066,590.54974,-0.10181071,1.9122535,15.435474,16.431532,-0.01992115,-1.7471657,-39.829666,-8.088379,7.13082,-48.132496,-0.34028095,85.88306,0
41264000,588.1097,590.8831,-0.13053386,1.398917,15.435904,16.140533,-0.014092598,-1.5863736,-38.32309,-16.07373,9.456525,-40.376244,-0.3416333,85.632904,0
41456000,588.111,591.126,-0.14667867,0.96288633,15.435965,15.8972025,-0.009224758,-1.3988937,-36.792923,-22.34082,10.76954,-32.972965,-0.3429379,85.25126,0
41672000,588.11163,591.30786,-0.1577769,0.55741096,15.4363165,15.75837,-0.006441078,-1.1822222,-36.367424,-26.32129,11.361564,-25.541992,-0.34437403,84.71681,0
41864000,588.11176,591.4015,-0.16448669,0.2671,15.436335,15.669088,-0.004655075,-1.0082029,-35.88118,-28.641113,11.491193,-19.9571,-0.34563315,84.18315,0
42056000,588.11176,591.44385,-0.16660462,0.029710341,15.436297,15.538996,-0.0020539665,-0.84461796,-34.26731,-31.086426,11.304074,-15.01779,-0.34685355,83.60399,0
42272000,588.11176,591.44214,-0.16651917,-0.18465249,15.436356,15.511806,-0.0015089988,-0.683022,-33.827187,-31.492188,10.924469,-10.39367,-0.34818828,82.924126,0
42464000,588.11176,591.40546,-0.16468506,-0.3295306,15.436306,15.5246725,-0.0017673301,-0.5571406,-33.66825,-30.932129,10.4590025,-7.005406,-0.34937206,82.32691,0
42656000,588.11176,591.34283,-0.16155396,-0.43926153,15.436197,15.545283,-0.0021817207,-0.44958964,-33.375862,-29.996094,9.911232,-4.2317023,-0.35054505,81.7433,0
42872000,588.11176,591.2498,-0.15690307,-0.5268736,15.436241,15.527132,-0.0018178177,-0.35174066,-32.18107,-29.3667,9.35318,-1.8051267,-0.35183194,81.10232,0
43064000,588.11176,591.1545,-0.15213624,-0.5838677,15.436145,15.5394745,-0.0020665932,-0.2791392,-31.439217,-28.238281,8.805829,-0.071722865,-0.35294133,80.5497,0
43256000,588.11176,591.052,-0.14701234,-0.622743,15.436075,15.500037,-0.0012792397,-0.21171123,-29.823357,-27.844727,8.210497,1.4036207,-0.35400978,80.01208,0
43472000,588.11176,590.9255,-0.14068604,-0.65297973,15.435807,15.499419,-0.0012722396,-0.1460467,-28.577187,-26.608887,7.5396185,2.7799654,-0.35515296,79.42377,0
43664000,588.11176,590.80817,-0.13482057,-0.6651838,15.435836,15.478092,-0.0008451271,-0.10817255,-27.096024,-25.78955,7.08425,3.5398626,-0.3561243,78.92231,0
43856000,588.11176,590.6866,-0.12874146,-0.6680829,15.435736,15.459994,-0.00048517226,-0.07079928,-25.625237,-24.875488,6.6034517,4.2020774,-0.35703927,78.43505,0
44072000,588.11176,590.5483,-0.12182617,-0.66512847,15.435652,15.4597845,-0.00048265455,-0.024704821,-24.266846,-23.521484,5.974995,4.953506,-0.35801822,77.91432,0
44264000,588.11176,590.4264,-0.11573181,-0.65102845,15.435582,15.437944,-4.7245023e-05,-0.0024154382,-22.735191,-22.66211,5.502985,5.212907,-0.35883608,77.47187,0
44456000,588.11176,590.30664,-0.109744266,-0.639626,15.43531,15.45338,-0.00036138535,0.029695634,-21.803482,-21.245605,5.016164,5.6608477,-0.35960472,77.04772,0
44672000,588.11176,590.1717,-0.102996826,-0.62153614,15.435368,15.465157,-0.0005957794,0.041612394,-20.661415,-19.74121,4.5824256,5.73789,-0.36044085,76.608894,0
44864000,588.11176,590.05786,-0.0973053,-0.5958635,15.4351845,15.506643,-0.0014291763,0.053120036,-20.190498,-17.979492,4.258836,5.735061,-0.36115107,76.247444,0
45056000,588.11176,589.9488,-0.09185181,-0.5663486,15.435088,15.525566,-0.0018095588,0.05567068,-19.415764,-16.614746,3.8958278,5.5456376,-0.36184192,75.9172,0
45272000,588.11176,589.8293,-0.085876465,-0.5378303,15.435142,15.481353,-0.00092422485,0.060793556,-17.55761,-16.128906,3.6089613,5.3876276,-0.3625677,75.56582,0
45464000,588.11176,589.7284,-0.08083191,-0.51225775,15.4349,15.502499,-0.0013519669,0.0760631,-16.899666,-14.808594,3.2087963,5.430969,-0.36316764,75.27001,0
45656000,588.11176,589.6314,-0.07598267,-0.48929334,15.43494,15.5329895,-0.0019609833,0.0773303,-16.42102,-13.384766,2.9171107,5.284824,-0.36375326,75.00355,0
45872000,588.11176,589.5307,-0.07094727,-0.4600488,15.434843,15.548181,-0.0022667502,0.07513437,-15.6708145,-12.15918,2.7326903,5.0192294,-0.36438027,74.728165,0
46064000,588.11176,589.4479,-0.06680603,-0.43529686,15.43471,15.569273,-0.002691269,0.07204519,-15.1890335,-11.01709,2.4919343,4.777253,-0.36491466,74.50501,0
46256000,588.11176,589.37006,-0.06291504,-0.41072074,15.434849,15.601713,-0.0033372878,0.06585254,-14.929291,-9.750488,2.3806415,4.4902883,-0.36544195,74.30806,0
46472000,588.11176,589.28876,-0.0588501,-0.3798832,15.434598,15.6107,-0.0035220336,0.06438107,-14.276039,-8.808594,2.1839366,4.2082744,-0.36601213,74.10756,0
46664000,588.11176,589.2237,-0.055596925,-0.35691214,15.434654,15.589705,-0.0031010245,0.048416037,-13.309479,-8.499023,2.1517296,3.7580287,-0.36649805,73.94507,0
46856000,588.11176,589.1609,-0.052456666,-0.33669418,15.434641,15.609248,-0.0034921456,0.047312606,-12.998817,-7.5786133,2.0324316,3.5804417,-0.36695743,73.79205,0
47072000,588.11176,589.09467,-0.04914551,-0.31507403,15.434466,15.649856,-0.004307785,0.04691011,-12.986778,-6.291504,1.9207436,3.409421,-0.36746565,73.642334,0
47264000,588.11176,589.03674,-0.04624939,-0.29772526,15.434589,15.627576,-0.0038597297,0.048070516,-12.068092,-6.0737305,1.7526658,3.27768,-0.36789787,73.52184,0
47456000,588.11176,588.9813,-0.043478396,-0.28231415,15.434498,15.6071005,-0.003452053,0.044785894,-11.206276,-5.8481445,1.6254646,3.0950332,-0.3683042,73.4085,0
47672000,588.11176,588.9221,-0.04051819,-0.26632473,15.434355,15.61297,-0.0035723113,0.03732406,-10.719543,-5.1743164,1.5600256,2.8529196,-0.36874402,73.29579,0
47864000,588.11176,588.8736,-0.038092043,-0.25495127,15.434244,15.605453,-0.0034241676,0.033928655,-10.128319,-4.813965,1.5575969,2.7095702,-0.36911175,73.202896,0
48056000,588.11176,588.8261,-0.035717774,-0.23893021,15.43441,15.616587,-0.0036435318,0.041808914,-9.8337555,-4.176758,1.3876843,2.7026455,-0.36945793,73.11626,0
48272000,588.11176,588.7765,-0.033236694,-0.22515313,15.434293,15.667415,-0.0046624374,0.042362068,-10.144287,-2.894043,1.2054176,2.61881,-0.36985576,73.04389,0
48464000,588.11176,588.73584,-0.031204224,-0.2109405,15.434169,15.687056,-0.0050577354,0.036392227,-10.055191,-2.1850586,1.1597638,2.4128387,-0.37020326,72.99323,0
48656000,588.11176,588.70056,-0.029440308,-0.19829862,15.434112,15.691736,-0.0051524923,0.023299549,-9.783806,-1.7651367,1.1980078,2.1023962,-0.37054887,72.95567,0
48872000,588.11176,588.66565,-0.027694702,-0.18437211,15.434135,15.709485,-0.0055069923,0.009863463,-9.71933,-1.144043,1.2579819,1.7779424,-0.37092817,72.92283,0
49064000,588.11176,588.6363,-0.026226807,-0.17858908,15.43413,15.733845,-0.005994301,0.009561488,-9.814796,-0.47314453,1.260825,1.7389158,-0.37127528,72.91115,0
49256000,588.11176,588.61096,-0.024960328,-0.16424954,15.434112,15.7198515,-0.005714798,0.004160094,-9.346466,-0.44482422,1.2396827,1.5211924,-0.3716116,72.903854,0
49472000,588.11176,588.58527,-0.023675537,-0.1472276,15.434095,15.720057,-0.005719223,-0.0040052235,-9.097992,-0.18896484,1.1872506,1.2385762,-0.37197214,72.896416,0
49664000,588.11176,588.5641,-0.022616578,-0.13754551,15.434025,15.729813,-0.005915756,-0.003370734,-9.044975,0.17285156,1.1414837,1.1671007,-0.37228736,72.895836,0
49856000,588.11176,588.547,-0.021762086,-0.12708661,15.434111,15.725895,-0.0058356854,-0.007730987,-8.814064,0.27783203,1.1041241,1.0030755,-0.3725936,72.897385,0
50072000,588.11176,588.5299,-0.020907594,-0.11898228,15.434128,15.718868,-0.005694809,-0.013953056,-8.535851,0.33496094,1.0703175,0.8319738,-0.37293336,72.9037,0
50264000,588.11176,588.51654,-0.020239258,-0.11249952,15.433926,15.699677,-0.0053150365,-0.013839033,-8.106636,0.16699219,1.0745679,0.7709402,-0.3732248,72.909225,0
50456000,588.11176,588.5046,-0.019641114,-0.10454083,15.433952,15.6834755,-0.004990463,-0.009627455,-7.734314,0.030273438,0.9944918,0.7598577,-0.37349752,72.90918,0
50672000,588.11176,588.4925,-0.019036865,-0.10105574,15.434017,15.664405,-0.004607754,-0.011548691,-7.316231,-0.15136719,0.93399656,0.6956048,-0.37379166,72.90719,0
50864000,588.11176,588.48364,-0.01859436,-0.09805852,15.434089,15.648285,-0.004283924,-0.012069581,-6.9758377,-0.3178711,0.93297625,0.6574451,-0.37403396,72.89876,0
51056000,588.11176,588.4778,-0.018301392,-0.089489564,15.434071,15.657921,-0.004477005,-0.0052787666,-7.0693283,-0.109375,0.7793706,0.68556356,-0.37427518,72.89256,0
51272000,588.11176,588.4729,-0.018057251,-0.07892448,15.434026,15.660673,-0.0045329477,-0.008182078,-7.0652695,-0.017578125,0.6701393,0.53975576,-0.37455636,72.89308,0
51464000,588.11176,588.47076,-0.01795044,-0.06945138,15.433868,15.647892,-0.0042804717,-0.0075228685,-6.8466187,-0.19433594,0.5920372,0.454315,-0.3748028,72.89296,0
51656000,588.11176,588.4683,-0.01782837,-0.06203819,15.43388,15.6742,-0.004806404,-0.021234829,-7.2345276,0.24121094,0.63996524,0.17604783,-0.37505156,72.89484,0
51872000,588.11176,588.464,-0.017611695,-0.06276257,15.434146,15.639669,-0.00411047,-0.023499079,-6.6473007,-0.2607422,0.7199789,0.13954744,-0.37532738,72.89625,0
52064000,588.11176,588.4626,-0.017541504,-0.059829734,15.434064,15.662492,-0.0045685577,-0.019506227,-6.9920883,0.111328125,0.6913066,0.18074477,-0.37556186,72.89275,0
52256000,588.11176,588.46326,-0.017575074,-0.058603954,15.434009,15.610514,-0.0035301016,-0.02358664,-6.187027,-0.70751953,0.70558584,0.08926301,-0.37579587,72.889114,0
52472000,588.11176,588.4665,-0.017736817,-0.05760413,15.4342375,15.608025,-0.0034757422,-0.022192085,-6.1763763,-0.7817383,0.6812665,0.09883967,-0.37603146,72.86879,0
52664000,588.11176,588.4703,-0.017926026,-0.05390854,15.434189,15.635964,-0.004035511,-0.025760408,-6.650711,-0.38134766,0.6875375,0.013178222,-0.37625933,72.85957,0
52856000,588.11176,588.47595,-0.01820984,-0.043658286,15.434097,15.624354,-0.0038051414,-0.02818192,-6.5263214,-0.6171875,0.6412878,-0.13130742,-0.376499,72.855034,0
53072000,588.11176,588.4817,-0.018496705,-0.038841683,15.434214,15.61218,-0.0035593223,-0.02864877,-6.3905334,-0.8652344,0.608138,-0.19218488,-0.37675026,72.83731,0
53264000,588.11176,588.48785,-0.018804932,-0.037831996,15.434064,15.59439,-0.00320652,-0.03538064,-6.175812,-1.2011719,0.6363728,-0.31514397,-0.3769703,72.817535,0
53456000,588.11176,588.4938,-0.019100953,-0.037773058,15.4340315,15.594859,-0.0032165525,-0.033763923,-6.2412415,-1.2509766,0.66499436,-0.29327112,-0.3771868,72.79349,0
53672000,588.11176,588.49994,-0.01940918,-0.035199862,15.434056,15.58012,-0.002921276,-0.039456643,-6.071663,-1.5415039,0.70849264,-0.4143717,-0.37743,72.76368,0
53864000,588.11176,588.5035,-0.019586181,-0.032845255,15.434066,15.599328,-0.0033052443,-0.039253607,-6.405632,-1.2768555,0.6967112,-0.43074322,-0.37764904,72.73695,0
54056000,588.11176,588.5077,-0.019796753,-0.03367247,15.433915,15.595936,-0.0032404135,-0.04667816,-6.396553,-1.3691406,0.72508156,-0.54137796,-0.37787515,72.71275,0
54272000,588.11176,588.5133,-0.020077515,-0.030848237,15.434111,15.5685,-0.0026877783,-0.052510012,-6.021187,-1.8549805,0.8587858,-0.67003274,-0.37812018,72.67831,0
54464000,588.11176,588.5188,-0.020352174,-0.03360541,15.434242,15.56979,-0.0027109527,-0.05172122,-6.0929565,-1.890625,0.88754094,-0.6331097,-0.37833118,72.641754,0
54656000,588.11176,588.52374,-0.020599365,-0.036626097,15.434128,15.565254,-0.002622528,-0.050758414,-6.072464,-2.0073242,0.88126796,-0.59207875,-0.3785465,72.605774,0
54872000,588.11176,588.5299,-0.020907594,-0.03328384,15.434214,15.554266,-0.0024010467,-0.044929106,-5.9607086,-2.2402344,0.8270536,-0.5401232,-0.37878558,72.56112,0
55064000,588.11176,588.53723,-0.021273805,-0.032061655,15.43405,15.532513,-0.001969261,-0.045142125,-5.6968994,-2.6479492,0.7705093,-0.56479037,-0.37899315,72.51613,0
55256000,588.11176,588.54395,-0.021609498,-0.031867906,15.434064,15.542275,-0.0021642302,-0.047570225,-5.9142838,-2.5620117,0.784828,-0.60511184,-0.3791957,72.46569,0
55472000,588.11176,588.549,-0.021862794,-0.03304568,15.434058,15.562561,-0.0025700568,-0.044701494,-6.279663,-2.2963867,0.77146655,-0.5460064,-0.37944007,72.41546,0
55664000,588.11176,588.55237,-0.02203064,-0.033726305,15.43408,15.577485,-0.0028680991,-0.04359674,-6.544403,-2.097168,0.7663184,-0.5197545,-0.37967083,72.37676,0
55856000,588.11176,588.55676,-0.022250367,-0.03183029,15.434017,15.56415,-0.0026026533,-0.048611693,-6.381195,-2.347168,0.79086864,-0.62214464,-0.37989634,72.33385,0
56072000,588.11176,588.5593,-0.02237854,-0.03212585,15.434328,15.51943,-0.0017020416,-0.046788137,-5.7062683,-3.0722656,0.81765264,-0.60412204,-0.38013116,72.27363,0
56264000,588.11176,588.5642,-0.02262268,-0.03409576,15.434223,15.537953,-0.002074604,-0.039368488,-6.0433884,-2.8305664,0.7121964,-0.46695814,-0.38033462,72.2159,0
56456000,588.11176,588.569,-0.022860719,-0.03644846,15.434176,15.500882,-0.001334114,-0.038966227,-5.5156555,-3.4521484,0.7382654,-0.45008072,-0.38053387,72.15389,0
56672000,588.11176,588.5711,-0.02296753,-0.03819034,15.434082,15.458301,-0.00048437118,-0.03198249,-4.8789673,-4.1308594,0.66232556,-0.33762264,-0.3807363,72.0708,0
56864000,588.11176,588.57294,-0.023059083,-0.03748177,15.434219,15.436726,-5.012512e-05,-0.02844081,-4.561142,-4.4833984,0.6058926,-0.296821,-0.38089296,71.983536,0
57056000,588.11176,588.5732,-0.023071289,-0.034870405,15.433997,15.479821,-0.000916481,-0.023705775,-5.2332,-3.8164062,0.5426248,-0.23706439,-0.38106027,71.90167,0
57272000,588.11176,588.5743,-0.02312622,-0.032648355,15.434153,15.461785,-0.00055265427,-0.03030525,-4.962509,-4.1088867,0.5438819,-0.36664802,-0.38126844,71.82034,0
57464000,588.11176,588.57825,-0.023324585,-0.031003887,15.434205,15.464043,-0.00059675216,-0.026588237,-5.0356674,-4.1137695,0.52252454,-0.3266252,-0.3814464,71.74309,0
57656000,588.11176,588.5818,-0.023501588,-0.027306493,15.434128,15.459324,-0.0005039215,-0.022074014,-4.9985733,-4.220215,0.39692187,-0.29614568,-0.38162124,71.66278,0
57872000,588.11176,588.58826,-0.023825074,-0.022843176,15.43415,15.433273,1.7528533e-05,-0.021955416,-4.6593246,-4.6865234,0.34712005,-0.34874356,-0.38181502,71.568596,0
58064000,588.11176,588.59344,-0.024084473,-0.019388724,15.433981,15.429402,9.1571805e-05,-0.020209882,-4.652977,-4.7944336,0.29464728,-0.35928887,-0.38198006,71.478615,0
58256000,588.11176,588.598,-0.024313355,-0.012715134,15.434124,15.434941,-1.6345977e-05,-0.019078728,-4.781166,-4.7558594,0.21064381,-0.40796643,-0.38214433,71.38642,0
58472000,588.11176,588.60254,-0.024539186,-0.009111147,15.434225,15.462875,-0.00057300564,-0.02562034,-5.2555923,-4.370117,0.24506666,-0.53860116,-0.3823434,71.28865,0
58664000,588.11176,588.6075,-0.024786377,-0.012539583,15.434005,15.420275,0.00027460098,-0.022140581,-4.6495132,-5.073242,0.25383744,-0.4657483,-0.38251403,71.19644,0
58856000,588.11176,588.6096,-0.024893189,-0.015737493,15.434078,15.425607,0.00016942977,-0.020187907,-4.75161,-5.0131836,0.23394643,-0.40381098,-0.38267595,71.09816,0
59072000,588.11176,588.60913,-0.024868775,-0.018145585,15.434252,15.42853,0.00011444092,-0.013128051,-4.7891464,-4.9658203,0.18730637,-0.27024415,-0.3828632,70.99022,0
59264000,588.11176,588.6086,-0.024841309,-0.020549087,15.434146,15.453863,-0.00039434433,-0.025310373,-5.1765823,-4.567383,0.27443102,-0.42714125,-0.38303947,70.89987,0
59456000,588.11176,588.6083,-0.02482605,-0.020717729,15.434134,15.457462,-0.0004665756,-0.031356264,-5.2294693,-4.508789,0.38254932,-0.51776505,-0.38322318,70.81373,0
59672000,588.11176,588.6083,-0.02482605,-0.02485365,15.434225,15.420195,0.00028060912,-0.03798163,-4.6526947,-5.085449,0.5280301,-0.5897405,-0.38341546,70.709045,0
59864000,588.11176,588.6066,-0.024743652,-0.031635456,15.434223,15.421388,0.00025671005,-0.033402998,-4.6550064,-5.0507812,0.6045627,-0.45149386,-0.3835761,70.61053,0
60056000,588.11176,588.6045,-0.02463684,-0.0374867,15.434109,15.405528,0.0005716133,-0.030872893,-4.3913193,-5.272949,0.6091179,-0.35840514,-0.3837315,70.51005,0
60272000,588.11176,588.60144,-0.024484253,-0.041365054,15.434119,15.387272,0.00093694683,-0.023060188,-4.0802994,-5.523926,0.5628989,-0.20370632,-0.3839005,70.39471,0
60464000,588.11176,588.5982,-0.02432251,-0.03957405,15.434099,15.360822,0.0014655495,-0.011410746,-3.6422272,-5.8984375,0.4397354,-0.048223972,-0.38403007,70.282166,0
60656000,588.11176,588.5955,-0.024188234,-0.03815227,15.434124,15.323436,0.0022137642,-0.009820932,-3.0418854,-6.446289,0.33725026,-0.04747249,-0.38414627,70.16343,0
60872000,588.11176,588.5941,-0.024118042,-0.04248503,15.434103,15.33181,0.0020458603,0.0064816047,-3.1568985,-6.304199,0.19754742,0.2481266,-0.38426474,70.02377,0
61064000,588.11176,588.59033,-0.023928834,-0.043597575,15.434035,15.35047,0.0016713142,0.0045656394,-3.4070969,-5.979492,0.1512227,0.23731375,-0.3843781,69.90514,0
61256000,588.11176,588.5868,-0.02375183,-0.042463996,15.434025,15.330804,0.0020644187,-0.0017053275,-3.0709076,-6.246582,0.1802235,0.1257104,-0.3844898,69.787056,0
61472000,588.11176,588.58514,-0.023669435,-0.040833708,15.434137,15.3516245,0.001650257,-0.0009093386,-3.372467,-5.9125977,0.17685646,0.12903008,-0.3846253,69.66058,0
61664000,588.11176,588.5821,-0.023516847,-0.040870782,15.434197,15.379608,0.0010917854,-0.007392142,-3.7712555,-5.4536133,0.2695132,0.03970453,-0.38475102,69.552,0
61856000,588.11176,588.57855,-0.023339843,-0.04139591,15.434126,15.371615,0.0012502098,-0.012039466,-3.6147919,-5.5405273,0.35478923,-0.027214274,-0.38487613,69.44435,0
62072000,588.11176,588.57526,-0.02317505,-0.042183634,15.43421,15.392581,0.0008325767,-0.01799811,-3.9037704,-5.1870117,0.42118543,-0.103442356,-0.38502845,69.33101,0
62264000,588.11176,588.5715,-0.02298584,-0.04004917,15.434169,15.381263,0.0010581207,-0.017257389,-3.6931458,-5.3237305,0.4592922,-0.11438158,-0.3851643,69.23189,0
62479999,588.11176,588.569,-0.022860719,-0.03732969,15.43421,15.3503275,0.0016776467,-0.017898826,-3.192749,-5.7749023,0.44832835,-0.15861312,-0.3852966,69.11048,0
62672000,588.11176,588.56854,-0.022839356,-0.03735927,15.434148,15.368033,0.0013222885,-0.009368271,-3.461258,-5.4975586,0.34787682,-0.02190113,-0.38541934,69.0058,0
62863999,588.11176,588.5671,-0.022766113,-0.036833294,15.434033,15.370264,0.0012753868,-0.011483817,-3.4831467,-5.4472656,0.33492154,-0.05816041,-0.3855427,68.901825,0
63080000,588.11176,588.5665,-0.022738649,-0.032650825,15.43394,15.381609,0.0010466194,-0.021343699,-3.653656,-5.2661133,0.36556217,-0.24719386,-0.38568392,68.78656,0
63272000,588.11176,588.5659,-0.022708131,-0.03249348,15.43418,15.421663,0.0002503395,-0.02595621,-4.2605057,-4.6464844,0.46801066,-0.3081871,-0.38581964,68.689995,0
63464000,588.11176,588.56665,-0.02274475,-0.029974353,15.434175,15.40804,0.00052268984,-0.026738893,-4.0579147,-4.864258,0.48649716,-0.3491494,-0.38596135,68.596664,0
63680000,588.11176,588.5669,-0.022756958,-0.028964035,15.434148,15.401332,0.0006563187,-0.029672876,-3.957428,-4.9692383,0.50635934,-0.4062394,-0.3861213,68.49166,0
63872000,588.11176,588.5675,-0.022787476,-0.025431294,15.434028,15.407596,0.00052864075,-0.025174988,-4.0616302,-4.876953,0.4576932,-0.37010413,-0.38626003,68.39646,0
64088000,588.11176,588.56976,-0.022900391,-0.025046203,15.433974,15.373112,0.0012172508,-0.0351207,-3.5541992,-5.429199,0.55184996,-0.5375841,-0.38640028,68.2798,0
64280000,588.11176,588.5707,-0.022946168,-0.022683444,15.434112,15.340972,0.0018627929,-0.028828084,-3.0672913,-5.9335938,0.4945013,-0.47340435,-0.38652185,68.17388,0
64472000,588.11176,588.57275,-0.023049926,-0.017879216,15.434117,15.318395,0.002314453,-0.019371144,-2.7416153,-6.300293,0.35594833,-0.3828959,-0.38662443,68.05705,0
64687999,588.11176,588.5778,-0.023303224,-0.014028311,15.434119,15.323679,0.002208805,-0.01319541,-2.8718643,-6.2685547,0.18084204,-0.32700506,-0.38673583,67.92185,0
64880000,588.11176,588.58167,-0.023495484,-0.0087345755,15.434142,15.329111,0.0021006202,-0.013377475,-2.9928513,-6.224121,0.13300955,-0.3820205,-0.3868395,67.8025,0
65095999,588.11176,588.5851,-0.023666382,-0.0066827415,15.434069,15.324647,0.0021884346,-0.010684812,-2.9587631,-6.324707,0.047099378,-0.36383057,-0.38695577,67.66639,0
65288000,588.11176,588.58856,-0.023840332,-0.007491268,15.434132,15.296567,0.0027512931,-0.01340582,-2.5620499,-6.789551,0.086187795,-0.40747792,-0.3870548,67.541794,0
65480000,588.11176,588.5916,-0.02399292,-0.0077540847,15.43413,15.298935,0.0027038956,-0.0093711335,-2.62809,-6.782715,0.06079887,-0.34398365,-0.38713855,67.40754,0
65696000,588.11176,588.5953,-0.024176026,-0.0012844809,15.434185,15.300556,0.0026725768,-0.0052134283,-2.688179,-6.794922,-0.06273114,-0.34514964,-0.38724354,67.26104,0
65888000,588.11176,588.59955,-0.024389649,-0.0002990301,15.434234,15.304922,0.002586231,-0.0034038988,-2.7962265,-6.7714844,-0.11476086,-0.32792673,-0.38733587,67.12883,0
66080000,588.11176,588.6043,-0.024627686,0.00045709874,15.434009,15.29602,0.0027597807,-0.0035897829,-2.709877,-6.9506836,-0.15040539,-0.34312075,-0.38743553,66.99887,0
66296000,588.11176,588.60803,-0.024813844,-0.0016917408,15.434135,15.291727,0.0028481674,0.0019116891,-2.6788864,-7.0546875,-0.175523,-0.24107075,-0.38753703,66.845024,0
66488000,588.11176,588.6111,-0.024966432,-0.00023595968,15.434199,15.300196,0.0026800728,-8.238069e-05,-2.8377151,-6.956543,-0.21201012,-0.28478914,-0.38763773,66.71279,0
66680000,588.11176,588.61365,-0.025094604,0.0010046918,15.434046,15.279914,0.0030826377,0.00047253468,-2.5548782,-7.2890625,-0.21522455,-0.29582882,-0.38773322,66.576675,0
66896000,588.11176,588.6166,-0.02524109,0.0036669534,15.434101,15.285451,0.0029730033,0.0040885294,-2.66745,-7.234375,-0.2668905,-0.26643974,-0.38783565,66.419655,0
67088000,588.11176,588.6196,-0.025393678,0.008884217,15.433956,15.301358,0.0026519585,0.0011257054,-2.942749,-7.0180664,-0.3006016,-0.35950506,-0.38793314,66.28242,0
67280000,588.11176,588.6221,-0.025515748,0.012091551,15.434037,15.267285,0.0033350373,-0.0042120945,-2.444641,-7.564453,-0.27375707,-0.48402584,-0.38802937,66.14359,0
67496000,588.11176,588.62463,-0.02564392,0.018130876,15.434085,15.29046,0.0028725052,-0.00219189,-2.823372,-7.236328,-0.31495315,-0.506721,-0.3881363,65.985435,0
67688000,588.11176,588.62573,-0.025698854,0.020959776,15.434115,15.265645,0.0033694075,-2.046302e-05,-2.4545288,-7.626465,-0.3928293,-0.50931346,-0.38822722,65.84197,0
67880000,588.11176,588.6266,-0.025741577,0.026356662,15.43421,15.257473,0.0035347366,-0.003003798,-2.3366547,-7.7612305,-0.4160893,-0.6106707,-0.3883086,65.692924,0
68096000,588.11176,588.62915,-0.025869751,0.024713922,15.434234,15.240225,0.0038801765,-0.0063504074,-2.0981674,-8.049316,-0.386817,-0.6519728,-0.3883906,65.51923,0
68288000,588.11176,588.62866,-0.025845338,0.024700575,15.434042,15.241329,0.0038542557,0.0014368062,-2.1135635,-8.025391,-0.42404675,-0.5325312,-0.38846758,65.366615,0
68480000,588.11176,588.6273,-0.025778199,0.031751763,15.434111,15.262514,0.0034319304,0.0021372973,-2.422432,-7.6899414,-0.5209339,-0.58393556,-0.38854527,65.21489,0
68696000,588.11176,588.6249,-0.025656128,0.031210272,15.434019,15.263038,0.0034196281,-0.0051766695,-2.4079132,-7.6567383,-0.47007084,-0.6888745,-0.388641,65.04957,0
68888000,588.11176,588.6218,-0.02550354,0.035390977,15.434091,15.307558,0.002530651,-0.0029839706,-3.057045,-6.9467773,-0.46357423,-0.6815866,-0.3887346,64.90839,0
69080000,588.11176,588.6205,-0.025436401,0.036385734,15.434264,15.315138,0.0023825264,-0.008460152,-3.1572418,-6.8203125,-0.4726801,-0.77232516,-0.38884416,64.77675,0
69296000,588.11176,588.6184,-0.025332643,0.034216575,15.434089,15.326859,0.0021445847,-0.013311684,-3.319519,-6.617676,-0.38753763,-0.8208744,-0.38897187,64.63181,0
69488000,588.11176,588.61755,-0.025289917,0.032270074,15.434046,15.320677,0.0022673798,-0.022568706,-3.216652,-6.7036133,-0.25821117,-0.94497633,-0.3890863,64.50409,0
69680000,588.11176,588.61597,-0.025210572,0.030015623,15.434273,15.286069,0.0029640768,-0.022519702,-2.6683884,-7.2211914,-0.16284427,-0.93113077,-0.38918832,64.369804,0
69896000,588.11176,588.6111,-0.024966432,0.019459672,15.434085,15.245803,0.00376564,-0.017105723,-2.0087357,-7.7851562,-0.10886739,-0.7538719,-0.38928193,64.20868,0
70088000,588.11176,588.60455,-0.024639893,0.011931525,15.434117,15.244143,0.0037994955,-0.010162772,-1.9184723,-7.746582,-0.16003834,-0.5714859,-0.3893482,64.05838,0
70280000,588.11176,588.59436,-0.02413025,0.0051328605,15.433923,15.264406,0.0033903313,-0.003385674,-2.1309662,-7.334961,-0.1577191,-0.3904048,-0.38942024,63.9144,0
70496000,588.11176,588.5814,-0.023483276,0.0033230097,15.433915,15.244828,0.0037817382,0.0013383793,-1.7054825,-7.5063477,-0.19414024,-0.30012846,-0.38949436,63.753628,0
70688000,588.11176,588.57275,-0.023049926,0.0038859728,15.434111,15.24488,0.0037846183,0.00528716,-1.6182861,-7.423828,-0.24724403,-0.24124487,-0.38955364,63.61121,0
70880000,588.11176,588.5649,-0.02265625,0.007045877,15.434082,15.251345,0.003654747,0.008511055,-1.6401596,-7.2475586,-0.34647894,-0.21721315,-0.38961187,63.47134,0
71096000,588.11176,588.5586,-0.02234192,0.010430967,15.434135,15.248733,0.0037080573,0.015333983,-1.5374908,-7.2265625,-0.47762707,-0.14411162,-0.38967502,63.315655,0
71288000,588.11176,588.55444,-0.022134399,0.014748043,15.433892,15.246988,0.003738079,0.0069084056,-1.4741211,-7.208496,-0.44728285,-0.31335527,-0.3897255,63.175987,0
71480000,588.11176,588.5497,-0.021896362,0.017495377,15.434083,15.284791,0.0029858397,0.0038210396,-2.0013885,-6.5874023,-0.41137642,-0.37353516,-0.3897879,63.04452,0
71696000,588.11176,588.54517,-0.021670533,0.01907037,15.4340315,15.293975,0.0028011322,-0.0066495603,-2.0986557,-6.4023438,-0.352753,-0.5440704,-0.389874,62.907314,0
71888000,588.11176,588.54224,-0.021524047,0.024918819,15.43401,15.288806,0.0029040717,-0.001690076,-1.9911499,-6.4521484,-0.31396317,-0.52568793,-0.38994315,62.782722,0
72080000,588.11176,588.53937,-0.021380616,0.022923997,15.434074,15.257269,0.0035361098,-0.009370433,-1.4801636,-6.9067383,-0.28544685,-0.63139844,-0.39000472,62.65507,0
72296000,588.11176,588.5377,-0.021298219,0.025970977,15.434064,15.259984,0.0034815979,-0.004290233,-1.5056381,-6.848633,-0.30321804,-0.58215046,-0.39006254,62.506157,0
72488000,588.11176,588.5382,-0.021322632,0.026274288,15.434164,15.269883,0.0032856178,-0.0030645663,-1.66008,-6.70459,-0.33634266,-0.5637329,-0.39011833,62.376427,0
72680000,588.11176,588.5403,-0.021426393,0.027726052,15.433926,15.254832,0.003581867,-0.005766473,-1.4545593,-6.9506836,-0.34314558,-0.6246282,-0.39017,62.24376,0
72896000,588.11176,588.5431,-0.021566773,0.026599528,15.434103,15.249798,0.0036861037,-0.012307951,-1.4023819,-7.057617,-0.2658686,-0.7162562,-0.3902274,62.09315,0
73088000,588.11176,588.54517,-0.021670533,0.025403207,15.434033,15.265367,0.0033733367,-0.011997601,-1.6615067,-6.8393555,-0.22749087,-0.6962787,-0.39028135,61.95985,0
73280000,588.11176,588.5462,-0.021722412,0.023222335,15.434152,15.25642,0.00355463,-0.016982771,-1.5329132,-6.9873047,-0.17018114,-0.7540846,-0.390342,61.8297,0
73496000,588.11176,588.5483,-0.021826172,0.020534147,15.434023,15.256194,0.0035565756,-0.021881502,-1.5519638,-7.0097656,-0.08186862,-0.80350107,-0.3904037,61.679058,0
73688000,588.11176,588.55054,-0.021939088,0.018024025,15.433907,15.231849,0.0040411567,-0.017979607,-1.2046051,-7.400879,-0.050537974,-0.7273212,-0.39045072,61.54006,0
73880000,588.11176,588.5512,-0.021972656,0.01412202,15.434166,15.2389345,0.0039046286,-0.006895122,-1.3153915,-7.303711,-0.15396108,-0.51854455,-0.39049137,61.396942,0
74096000,588.11176,588.5489,-0.02185669,0.011194553,15.434053,15.221379,0.004253483,-0.0047188974,-1.0268097,-7.5463867,-0.17703491,-0.460694,-0.39053681,61.23625,0
74288000,588.11176,588.546,-0.021713257,0.0072017713,15.434111,15.218286,0.0043165013,-0.005041328,-0.95101166,-7.5664062,-0.15499368,-0.42596966,-0.3905743,61.092873,0
74480000,588.11176,588.5443,-0.021627808,0.005201902,15.434028,15.233725,0.0040060612,0.0028306483,-1.1702728,-7.3129883,-0.22198439,-0.28101552,-0.3906094,60.949062,0
74696000,588.11176,588.544,-0.02161255,0.0048724893,15.434003,15.253013,0.0036198043,-0.0017842376,-1.4617386,-7.015625,-0.20811923,-0.34215742,-0.39065737,60.79229,0
74888000,588.11176,588.5449,-0.021658326,0.004174522,15.434115,15.243154,0.0038192368,-0.006828937,-1.3189545,-7.177246,-0.122694075,-0.41564545,-0.39070565,60.65578,0
75080000,588.11176,588.5428,-0.021551514,-0.00028643623,15.434007,15.239283,0.0038944816,-0.00827923,-1.2406387,-7.213867,-0.09096407,-0.3940578,-0.3907528,60.518936,0
75296000,588.11176,588.5398,-0.021401977,-0.0010283845,15.433969,15.200838,0.004662609,-0.012590035,-0.62680054,-7.7685547,0.0067440514,-0.46205136,-0.39078316,60.35366,0
75488000,588.11176,588.5381,-0.021316528,-0.0033326284,15.433962,15.224708,0.004185085,-0.0057954555,-0.9729309,-7.3881836,-0.01386357,-0.32831264,-0.3908121,60.20878,0
75680000,588.11176,588.5355,-0.021188354,-0.003964005,15.434128,15.250918,0.0036641883,-0.0045775343,-1.3448715,-6.9663086,-0.044112563,-0.294607,-0.39085206,60.070663,0
75896000,588.11176,588.53186,-0.021005249,-0.0037771973,15.434082,15.281521,0.0030512237,-0.004473183,-1.776619,-6.4628906,-0.068407185,-0.28393385,-0.39090934,59.923412,0
76088000,588.11176,588.5306,-0.020941162,-0.0025114624,15.434054,15.278426,0.003112564,-0.012800667,-1.7175598,-6.4970703,0.01081608,-0.42386276,-0.39097464,59.801464,0
76280000,588.11176,588.5314,-0.020980835,-0.004467769,15.433946,15.247146,0.003736,-0.013911195,-1.2496185,-6.980957,0.101241425,-0.4310072,-0.39102122,59.66919,0
76496000,588.11176,588.53064,-0.020944213,-0.007808587,15.433913,15.221678,0.004244709,-0.011462746,-0.8548126,-7.361328,0.11451402,-0.3679103,-0.3910619,59.513893,0
76688000,588.11176,588.52954,-0.020889282,-0.01003454,15.434035,15.252691,0.0036268805,0.0041977745,-1.314743,-6.8793945,-0.033658996,-0.09774098,-0.3910989,59.376625,0
76880000,588.11176,588.52594,-0.02070923,-0.014217545,15.434134,15.247595,0.003730774,-0.00042815856,-1.1998596,-6.92334,-0.07072606,-0.12707539,-0.39114314,59.244354,0
77096000,588.11176,588.5251,-0.020666504,-0.01561011,15.434069,15.199313,0.00469511,0.0045291665,-0.45754242,-7.648926,-0.021375969,-0.052108526,-0.3911748,59.086624,0
77288000,588.11176,588.52496,-0.0206604,-0.016375536,15.4340515,15.241888,0.0038432693,0.005656097,-1.1048508,-6.9995117,-0.069343306,-0.014389247,-0.39120468,58.947414,0
77480000,588.11176,588.5247,-0.020648194,-0.015817778,15.434035,15.241783,0.003845043,0.0075724013,-1.101059,-6.998535,-0.082506955,0.009441376,-0.39124346,58.813126,0
77696000,588.11176,588.52673,-0.020748902,-0.0086162295,15.434078,15.251362,0.0036543272,0.010936537,-1.2659683,-6.8725586,-0.16741934,-0.007917255,-0.39128911,58.662823,0
77888000,588.11176,588.5311,-0.020968629,-0.0028271924,15.433996,15.248726,0.003705406,0.004631671,-1.2704926,-6.955078,-0.18694253,-0.16378236,-0.39133662,58.531754,0
78080000,588.11176,588.53357,-0.0210907,-0.0036243438,15.434094,15.243235,0.0038171958,-0.003944805,-1.2091827,-7.063965,-0.113628715,-0.28960446,-0.39137834,58.396076,0
78296000,588.11176,588.5354,-0.021182252,-0.0054097655,15.434152,15.212914,0.0044247434,0.0035374423,-0.76416016,-7.5444336,-0.08965579,-0.1681737,-0.39140913,58.233833,0
78488000,588.11176,588.5371,-0.021267701,-0.0069817645,15.434074,15.210103,0.0044794274,0.005448959,-0.7396774,-7.6030273,-0.13383654,-0.1253505,-0.3914382,58.089893,0
78680000,588.11176,588.54016,-0.021420289,-0.0068465783,15.434074,15.201132,0.0046588513,0.007675319,-0.633049,-7.7695312,-0.14371333,-0.09706557,-0.39146513,57.94399,0
78896000,588.11176,588.5443,-0.021627808,-0.0082803825,15.434033,15.205555,0.0045695687,0.01192457,-0.7414627,-7.741699,-0.22786836,-0.019056648,-0.39149022,57.77537,0
79088000,588.11176,588.5475,-0.0217865,-0.008257247,15.433997,15.241121,0.0038575171,0.008235853,-1.3147049,-7.230957,-0.21922116,-0.06594589,-0.39152768,57.632397,0
79280000,588.11176,588.54895,-0.02185974,-0.009274613,15.434066,15.232549,0.004030342,0.0016564465,-1.19767,-7.3774414,-0.1539048,-0.15957843,-0.39157405,57.493423,0
79496000,588.11176,588.55054,-0.021939088,-0.008014195,15.434003,15.262272,0.0034346199,-0.004417898,-1.6669769,-6.9384766,-0.06384286,-0.25640383,-0.39163885,57.343456,0
79688000,588.11176,588.5527,-0.0220459,-0.005995721,15.434205,15.263578,0.0034125326,-0.013618463,-1.7047958,-6.942871,0.054182302,-0.4173524,-0.3917007,57.21185,0
79880000,588.11176,588.557,-0.022262573,-0.005555378,15.434148,15.220451,0.0042739296,-0.015829077,-1.0908203,-7.6416016,0.10873426,-0.46981847,-0.3917515,57.072742,0
80096000,588.11176,588.5601,-0.022418214,-0.0121484585,15.433987,15.174347,0.005192795,-0.005079243,-0.42340088,-8.370605,0.09203032,-0.25658333,-0.3917738,56.8956,0
80288000,588.11176,588.562,-0.022512818,-0.017874802,15.434062,15.168422,0.005312805,0.005783318,-0.35090637,-8.47998,0.0011167862,-0.03834644,-0.39178944,56.73489,0
80480000,588.11176,588.5622,-0.022521973,-0.021291193,15.433972,15.1203,0.006273441,0.009637075,0.3745346,-9.209473,-0.048815783,0.038789302,-0.39178684,56.563816,0
80696000,588.11176,588.5612,-0.022473145,-0.022611,15.434144,15.172844,0.0052260016,0.015913168,-0.40891266,-8.406738,-0.1597246,0.1635066,-0.39178792,56.373795,0
80888000,588.11176,588.5606,-0.022442628,-0.020887751,15.434121,15.186739,0.0049476433,0.0185314,-0.6143265,-8.189453,-0.19910064,0.19104487,-0.39180762,56.215508,0
81080000,588.11176,588.5626,-0.022543335,-0.015909033,15.434121,15.196464,0.004753151,0.0145521,-0.7815933,-8.061035,-0.22988702,0.08384907,-0.39183182,56.059444,0
81296000,588.11176,588.56445,-0.022634888,-0.014611567,15.434158,15.224184,0.0041994858,0.012960847,-1.2207184,-7.658203,-0.22286196,0.05470264,-0.39187032,55.889168,0
81488000,588.11176,588.5663,-0.02272644,-0.009374853,15.434181,15.230107,0.004081478,0.012779552,-1.3286285,-7.586426,-0.24004248,0.0015382171,-0.3919174,55.74412,0
81680000,588.11176,588.56903,-0.02286377,-0.0038432055,15.433981,15.216813,0.004343357,0.0070342016,-1.1561966,-7.8125,-0.23062311,-0.14558193,-0.39196166,55.596794,0
81896000,588.11176,588.57227,-0.023025513,-0.0109538,15.434035,15.181164,0.0050574304,0.005511787,-0.64525604,-8.386719,-0.15011966,-0.11148542,-0.39199096,55.418365,0
82088000,588.11176,588.57556,-0.023190308,-0.013288587,15.434209,15.176631,0.0051515577,0.0061491234,-0.6060028,-8.490723,-0.13348134,-0.08196305,-0.39201388,55.256813,0
82280000,588.11176,588.57684,-0.023254395,-0.017338747,15.4340515,15.184008,0.005000877,0.009684533,-0.7331085,-8.38916,-0.14085719,0.013103992,-0.39203873,55.095417,0
82496000,588.11176,588.577,-0.02326355,-0.020485144,15.433924,15.214217,0.004394131,0.0026731743,-1.1957016,-7.929199,-0.058007173,-0.053429842,-0.39207354,54.917435,0
82688000,588.11176,588.5772,-0.023272706,-0.016398648,15.43416,15.196938,0.0047444534,-0.0021639275,-0.93125916,-8.197266,0.0051994054,-0.1723977,-0.39211458,54.764797,0
82880000,588.11176,588.57715,-0.023269653,-0.01836888,15.434187,15.208308,0.0045175743,-0.0042531774,-1.1032181,-8.024414,0.0598351,-0.18144846,-0.39214692,54.60721,0
83096000,588.11176,588.5771,-0.023266602,-0.022858232,15.434089,15.229719,0.004087391,-0.011800663,-1.4301071,-7.6967773,0.18291295,-0.24597535,-0.39219972,54.439095,0
83288000,588.11176,588.5766,-0.023242189,-0.024789497,15.4341545,15.227,0.0041430853,-0.010415153,-1.3828049,-7.734375,0.23582596,-0.2065044,-0.39224672,54.28978,0
83480000,588.11176,588.5757,-0.023196412,-0.027285418,15.434048,15.194529,0.0047903825,-0.009881708,-0.8817444,-8.217773,0.23478445,-0.18283606,-0.39228895,54.13803,0
83696000,588.11176,588.5718,-0.023001099,-0.031649742,15.434168,15.192041,0.004842529,-0.004013145,-0.80352783,-8.219238,0.22930817,-0.04972154,-0.3923195,53.959156,0
83888000,588.11176,588.567,-0.022763062,-0.036667716,15.43401,15.1931,0.0048181913,-0.00540417,-0.775177,-8.153809,0.26753813,-0.018951267,-0.3923475,53.802258,0
84080000,588.11176,588.56195,-0.022509767,-0.04061196,15.434017,15.209495,0.004490452,-0.0016891804,-0.9749527,-7.8549805,0.2671331,0.08353281,-0.39237827,53.648746,0
84296000,588.11176,588.5546,-0.022143556,-0.046704948,15.434117,15.188932,0.004903698,0.0013664078,-0.5891113,-8.097168,0.31318307,0.1871373,-0.39240637,53.47518,0
84488000,588.11176,588.5478,-0.021801759,-0.04888718,15.43414,15.209845,0.004485912,0.0038176663,-0.83922577,-7.7124023,0.29201502,0.25545335,-0.3924344,53.32524,0
84680000,588.11176,588.5425,-0.021536255,-0.04881941,15.434023,15.214997,0.004380512,0.0076460005,-0.8676605,-7.5805664,0.23260528,0.31724077,-0.39246136,53.176964,0
84896000,588.11176,588.53577,-0.021200562,-0.04901368,15.434076,15.25932,0.003495121,0.0096185515,-1.4762726,-6.840332,0.20473349,0.3661929,-0.39250827,53.02183,0
85088000,588.11176,588.531,-0.020962525,-0.049718216,15.434175,15.238965,0.00390419,0.0065292786,-1.117485,-7.1054688,0.24186799,0.32200065,-0.39255226,52.887337,0
85280000,588.11176,588.52594,-0.02070923,-0.05234478,15.434009,15.265499,0.0033701896,0.002368613,-1.4749451,-6.6484375,0.2703319,0.29494923,-0.3925979,52.755585,0
85496000,588.11176,588.5197,-0.02039795,-0.055463716,15.434152,15.215893,0.004365177,-0.0012137542,-0.65566254,-7.345215,0.38258475,0.25898924,-0.39263198,52.600243,0
85688000,588.11176,588.5129,-0.020056153,-0.060097083,15.433981,15.222299,0.004233646,0.006829397,-0.6888962,-7.1782227,0.37480474,0.4321807,-0.392653,52.45957,0
85880000,588.11176,588.5073,-0.019778444,-0.060789514,15.433962,15.217253,0.0043341825,0.009756666,-0.5581894,-7.2006836,0.32928407,0.4846965,-0.3926738,52.321125,0
86096000,588.11176,588.5021,-0.019515991,-0.059759803,15.433981,15.215492,0.004369774,0.010372711,-0.47935486,-7.1762695,0.29161048,0.4859946,-0.39269498,52.16629,0
86288000,588.11176,588.49817,-0.01932068,-0.05947383,15.434197,15.212035,0.004443245,0.011892655,-0.38533783,-7.1938477,0.26276526,0.5070886,-0.39270788,52.02722,0
86480000,588.11176,588.4953,-0.019177247,-0.059994504,15.434196,15.247401,0.0037359046,0.012205276,-0.89564514,-6.626953,0.2696558,0.5294165,-0.39273188,51.895523,0
86696000,588.11176,588.4939,-0.019107057,-0.058232214,15.4339905,15.25429,0.003594017,0.015418586,-0.99020386,-6.504883,0.22707054,0.5640622,-0.39276165,51.749783,0
86888000,588.11176,588.4928,-0.019052124,-0.055380687,15.434074,15.289629,0.0028889084,0.014487499,-1.517868,-5.9560547,0.19857097,0.53359973,-0.39280817,51.63162,0
