timestamp,gps_hvel[0],gps_hvel[1],gps_vvel,gps_hpos[0],gps_hpos[1],gps_vpos,ev_hvel[0],ev_hvel[1],ev_vvel,ev_hpos[0],ev_hpos[1],ev_vpos,fake_hvel[0],fake_hvel[1],fake_vvel,fake_hpos[0],fake_hpos[1],fake_vpos,rng_vpos,baro_vpos,aux_hvel[0],aux_hvel[1],aux_vvel,flow[0],flow[1],heading,mag_field[0],mag_field[1],mag_field[2],drag[0],drag[1],airspeed,beta,hagl
1684000,0.0,0.0,0.0,0.25819677,0.25819677,0.0,0.0,0.0,0.0,0.0,0.0,0.0,nan,nan,nan,nan,nan,nan,0.0,4.0906434,0.0,0.0,nan,0.0,0.0,0.091500215,0.0,0.0,0.0,0.0,0.0,0.0,0.0,0.0
1884000,0.0,0.0,0.0,0.2573268,0.25732678,0.0,0.0,0.0,0.0,0.0,0.0,0.0,nan,nan,nan,nan,nan,nan,0.0,4.08571,0.0,0.0,nan,0.0,0.0,0.09125225,0.0,0.0,0.0,0.0,0.0,0.0,0.0,0.0
2084000,0.0,0.0,0.0,0.25696686,0.25696686,0.0,0.0,0.0,0.0,0.0,0.0,0.0,nan,nan,nan,nan,nan,nan,0.0,4.0800023,0.0,0.0,nan,0.0,0.0,0.09109468,0.0,0.0,0.0,0.0,0.0,0.0,0.0,0.0
2284000,0.0,0.0,0.0,0.2569243,0.2569243,0.0,0.0,0.0,0.0,0.0,0.0,0.0,nan,nan,nan,nan,nan,nan,0.0,4.0745754,0.0,0.0,nan,0.0,0.0,0.09097219,0.0,0.0,0.0,0.0,0.0,0.0,0.0,0.0
2488000,0.0,0.0,0.0,0.2570132,0.25701317,0.0,0.0,0.0,0.0,0.0,0.0,0.0,nan,nan,nan,nan,nan,nan,0.0,4.0699167,0.0,0.0,nan,0.0,0.0,0.09088922,0.0,0.0,0.0,0.0,0.0,0.0,0.0,0.0
2688000,0.0,0.0,0.0,0.25713354,0.2571335,0.0,0.0,0.0,0.0,0.0,0.0,0.0,nan,nan,nan,nan,nan,nan,0.0,4.066494,0.0,0.0,nan,0.0,0.0,0.09082086,0.0,0.0,0.0,0.0,0.0,0.0,0.0,0.0
2888000,0.0,0.0,0.0,0.2570882,0.25708818,0.0,0.0,0.0,0.0,0.0,0.0,0.0,nan,nan,nan,nan,nan,nan,0.0,4.063522,0.0,0.0,nan,0.0,0.0,0.0907763,0.0,0.0,0.0,0.0,0.0,0.0,0.0,0.0
3088000,0.0,0.0,0.0,0.25697693,0.2569769,0.0,0.0,0.0,0.0,0.0,0.0,0.0,nan,nan,nan,nan,nan,nan,0.0,4.0614324,0.0,0.0,nan,0.0,0.0,0.09073883,0.0,0.0,0.0,0.0,0.0,0.0,0.0,0.0
3288000,0.0,0.0,0.0,0.25682095,0.25682092,0.0,0.0,0.0,0.0,0.0,0.0,0.0,nan,nan,nan,nan,nan,nan,0.0,4.060064,0.0,0.0,nan,0.0,0.0,0.09071321,0.0,0.0,0.0,0.0,0.0,0.0,0.0,0.0
3488000,0.0,0.0,0.0,0.25664878,0.25664875,0.0,0.0,0.0,0.0,0.0,0.0,0.0,nan,nan,nan,nan,nan,nan,0.0,4.059235,0.0,0.0,nan,0.0,0.0,0.09069294,0.0,0.0,0.0,0.0,0.0,0.0,0.0,0.0
3688000,0.0,0.0,0.0,0.25648275,0.25648266,0.0,0.0,0.0,0.0,0.0,0.0,0.0,nan,nan,nan,nan,nan,nan,0.0,4.0587616,0.0,0.0,nan,0.0,0.0,0.09067958,0.0,0.0,0.0,0.0,0.0,0.0,0.0,0.0
3888000,0.0,0.0,0.0,0.25633708,0.25633696,0.0,0.0,0.0,0.0,0.0,0.0,0.0,nan,nan,nan,nan,nan,nan,0.0,4.0584717,0.0,0.0,nan,0.0,0.0,0.09066956,0.0,0.0,0.0,0.0,0.0,0.0,0.0,0.0
4088000,0.0,0.0,0.0,0.25621676,0.25621662,0.0,0.0,0.0,0.0,0.0,0.0,0.0,nan,nan,nan,nan,nan,nan,0.0,4.0582213,0.0,0.0,nan,0.0,0.0,0.09066553,0.0,0.0,0.0,0.0,0.0,0.0,0.0,0.0
4288000,0.0,0.0,0.0,0.2561216,0.25612143,0.0,0.0,0.0,0.0,0.0,0.0,0.0,nan,nan,nan,nan,nan,nan,0.0,4.057906,0.0,0.0,nan,0.0,0.0,0.0906615,0.0,0.0,0.0,0.0,0.0,0.0,0.0,0.0
4488000,0.0,0.0,0.0,0.25604638,0.2560462,0.0,0.0,0.0,0.0,0.0,0.0,0.0,nan,nan,nan,nan,nan,nan,0.0,4.0574603,0.0,0.0,nan,0.0,0.0,0.09066143,0.0,0.0,0.0,0.0,0.0,0.0,0.0,0.0
4688000,0.0,0.0,0.0,0.25598398,0.25598377,0.0,0.0,0.0,0.0,0.0,0.0,0.0,nan,nan,nan,nan,nan,nan,0.0,4.0568557,0.0,0.0,nan,0.0,0.0,0.090659864,0.0,0.0,0.0,0.0,0.0,0.0,0.0,0.0
4888000,0.0,0.0,0.0,0.25592664,0.2559264,0.0,0.0,0.0,0.0,0.0,0.0,0.0,nan,nan,nan,nan,nan,nan,0.0,4.0560913,0.0,0.0,nan,0.0,0.0,0.09065913,0.0,0.0,0.0,0.0,0.0,0.0,0.0,0.0
5088000,0.0,0.0,0.0,0.25586852,0.25586832,0.0,0.0,0.0,0.0,0.0,0.0,0.0,nan,nan,nan,nan,nan,nan,0.0,4.0551834,0.0,0.0,nan,0.0,0.0,0.09066098,0.0,0.0,0.0,0.0,0.0,0.0,0.0,0.0
5288000,0.0,0.0,0.0,0.2558044,0.25580415,0.0,0.0,0.0,0.0,0.0,0.0,0.0,nan,nan,nan,nan,nan,nan,0.0,4.054159,0.0,0.0,nan,0.0,0.0,0.09066041,0.0,0.0,0.0,0.0,0.0,0.0,0.0,0.0
5488000,0.3125,0.3125,0.625,2.0,2.0,0.0,0.0,0.0,0.0,0.0,0.0,0.0,nan,nan,nan,nan,nan,nan,0.0,4.044203,0.0,0.0,nan,0.0,0.0,0.090659745,0.0,0.0,0.0,0.0,0.0,0.0,0.0,0.0
5696000,0.3008063,0.30080613,0.6188729,1.5016706,1.5016706,0.0,0.0,0.0,0.0,0.0,0.0,0.0,nan,nan,nan,nan,nan,nan,0.0,4.0387497,0.0,0.0,nan,0.0,0.0,0.090658695,0.0,0.0,0.0,0.0,0.0,0.0,0.0,0.0
5888000,0.29427662,0.2942761,0.6128792,1.3375298,1.3375298,0.0,0.0,0.0,0.0,0.0,0.0,0.0,nan,nan,nan,nan,nan,nan,0.0,4.0372467,0.0,0.0,nan,0.0,0.0,0.09065954,0.0,0.0,0.0,0.0,0.0,0.0,0.0,0.0
6088000,0.2908216,0.29082066,0.60675937,1.2566143,1.2566143,0.0,0.0,0.0,0.0,0.0,0.0,0.0,nan,nan,nan,nan,nan,nan,0.0,4.037161,0.0,0.0,nan,0.0,0.0,0.090657495,0.0,0.0,0.0,0.0,0.0,0.0,0.0,0.0
6288000,0.28983268,0.28983086,0.6006391,1.2094107,1.2094107,0.0,0.0,0.0,0.0,0.0,0.0,0.0,nan,nan,nan,nan,nan,nan,0.0,4.0375032,0.0,0.0,nan,0.0,0.0,0.09065473,0.0,0.0,0.0,0.0,0.0,0.0,0.0,0.0
6495999,0.29029506,0.29029256,0.59511834,1.1787055,1.1787052,0.0,0.0,0.0,0.0,0.0,0.0,0.0,nan,nan,nan,nan,nan,nan,0.0,4.0378246,0.0,0.0,nan,0.0,0.0,0.09065141,0.0,0.0,0.0,0.0,0.0,0.0,0.0,0.0
6696000,0.29234493,0.29234126,0.5902165,1.1580116,1.1580113,0.0,0.0,0.0,0.0,0.0,0.0,0.0,nan,nan,nan,nan,nan,nan,0.0,4.037813,0.0,0.0,nan,0.0,0.0,0.09064782,0.0,0.0,0.0,0.0,0.0,0.0,0.0,0.0
6896000,0.2947775,0.29477316,0.5863053,1.1430533,1.1430529,0.0,0.0,0.0,0.0,0.0,0.0,0.0,nan,nan,nan,nan,nan,nan,0.0,4.0375133,0.0,0.0,nan,0.0,0.0,0.0906434,0.0,0.0,0.0,0.0,0.0,0.0,0.0,0.0
7096000,0.2980599,0.29805425,0.58317846,1.1325992,1.1325989,0.0,0.0,0.0,0.0,0.0,0.0,0.0,nan,nan,nan,nan,nan,nan,0.0,4.036978,0.0,0.0,nan,0.0,0.0,0.09063887,0.0,0.0,0.0,0.0,0.0,0.0,0.0,0.0
7296000,0.3007787,0.3007719,0.5809438,1.1245733,1.1245728,0.0,0.0,0.0,0.0,0.0,0.0,0.0,nan,nan,nan,nan,nan,nan,0.0,4.0362887,0.0,0.0,nan,0.0,0.0,0.09063349,0.0,0.0,0.0,0.0,0.0,0.0,0.0,0.0
7496000,0.30368567,0.3036784,0.5793751,1.1190836,1.1190829,0.0,0.0,0.0,0.0,0.0,0.0,0.0,nan,nan,nan,nan,nan,nan,0.0,4.035526,0.0,0.0,nan,0.0,0.0,0.090630025,0.0,0.0,0.0,0.0,0.0,0.0,0.0,0.0
7696000,0.3054408,0.30543327,0.57843894,1.11458,1.1145791,0.0,0.0,0.0,0.0,0.0,0.0,0.0,nan,nan,nan,nan,nan,nan,0.0,4.0347605,0.0,0.0,nan,0.0,0.0,0.09062415,0.0,0.0,0.0,0.0,0.0,0.0,0.0,0.0
7896000,0.30709612,0.30708838,0.57798374,1.1117183,1.1117172,0.0,0.0,0.0,0.0,0.0,0.0,0.0,nan,nan,nan,nan,nan,nan,0.0,4.034047,0.0,0.0,nan,0.0,0.0,0.09061749,0.0,0.0,0.0,0.0,0.0,0.0,0.0,0.0
8096000,0.3074487,0.30744085,0.577906,1.1090916,1.1090906,0.0,0.0,0.0,0.0,0.0,0.0,0.0,nan,nan,nan,nan,nan,nan,0.0,4.033429,0.0,0.0,nan,0.0,0.0,0.0906111,0.0,0.0,0.0,0.0,0.0,0.0,0.0,0.0
8296000,0.30777767,0.30777037,0.5781307,1.1076565,1.1076553,0.0,0.0,0.0,0.0,0.0,0.0,0.0,nan,nan,nan,nan,nan,nan,0.0,4.032932,0.0,0.0,nan,0.0,0.0,0.09060397,0.0,0.0,0.0,0.0,0.0,0.0,0.0,0.0
8496000,0.3069837,0.3069768,0.5785185,1.1060469,1.1060457,0.0,0.0,0.0,0.0,0.0,0.0,0.0,nan,nan,nan,nan,nan,nan,0.0,4.03257,0.0,0.0,nan,0.0,0.0,0.09059723,0.0,0.0,0.0,0.0,0.0,0.0,0.0,0.0
8696000,0.3063947,0.3063887,0.57905006,1.1053966,1.1053953,0.0,0.0,0.0,0.0,0.0,0.0,0.0,nan,nan,nan,nan,nan,nan,0.0,4.032343,0.0,0.0,nan,0.0,0.0,0.09058977,0.0,0.0,0.0,0.0,0.0,0.0,0.0,0.0
8896000,0.30492938,0.30492374,0.5795759,1.104346,1.1043447,0.0,0.0,0.0,0.0,0.0,0.0,0.0,nan,nan,nan,nan,nan,nan,0.0,4.032244,0.0,0.0,nan,0.0,0.0,0.09058433,0.0,0.0,0.0,0.0,0.0,0.0,0.0,0.0
9096000,0.30379644,0.30379134,0.5801131,1.104133,1.1041316,0.0,0.0,0.0,0.0,0.0,0.0,0.0,nan,nan,nan,nan,nan,nan,0.0,4.0322537,0.0,0.0,nan,0.0,0.0,0.09057714,0.0,0.0,0.0,0.0,0.0,0.0,0.0,0.0
9296000,0.30203763,0.3020333,0.5805293,1.103391,1.1033897,0.0,0.0,0.0,0.0,0.0,0.0,0.0,nan,nan,nan,nan,nan,nan,0.0,4.0323496,0.0,0.0,nan,0.0,0.0,0.09057134,0.0,0.0,0.0,0.0,0.0,0.0,0.0,0.0
9496000,0.30067247,0.30066895,0.58086455,1.1034188,1.1034174,0.0,0.0,0.0,0.0,0.0,0.0,0.0,nan,nan,nan,nan,nan,nan,0.0,4.0325017,0.0,0.0,nan,0.0,0.0,0.090563364,0.0,0.0,0.0,0.0,0.0,0.0,0.0,0.0
9696000,0.29885486,0.29885212,0.58102584,1.1028482,1.1028467,0.0,0.0,0.0,0.0,0.0,0.0,0.0,nan,nan,nan,nan,nan,nan,0.0,4.0326853,0.0,0.0,nan,0.0,0.0,0.09055739,0.0,0.0,0.0,0.0,0.0,0.0,0.0,0.0
9896000,0.29743594,0.29743364,0.5810649,1.1030059,1.1030045,0.0,0.0,0.0,0.0,0.0,0.0,0.0,nan,nan,nan,nan,nan,nan,0.0,4.0328712,0.0,0.0,nan,0.0,0.0,0.09055025,0.0,0.0,0.0,0.0,0.0,0.0,0.0,0.0
10096000,0.2956849,0.29568306,0.5809341,1.1025268,1.1025255,0.0,0.0,0.0,0.0,0.0,0.0,0.0,nan,nan,nan,nan,nan,nan,0.0,4.0330405,0.0,0.0,nan,0.0,0.0,0.090542234,0.0,0.0,0.0,0.0,0.0,0.0,0.0,0.0
10296000,0.29435542,0.29435346,0.580684,1.1027464,1.1027452,0.0,0.0,0.0,0.0,0.0,0.0,0.0,nan,nan,nan,nan,nan,nan,0.0,4.0331726,0.0,0.0,nan,0.0,0.0,0.090534925,0.0,0.0,0.0,0.0,0.0,0.0,0.0,0.0
10496000,0.29271668,0.29271525,0.5803058,1.1023135,1.1023126,0.0,0.0,0.0,0.0,0.0,0.0,0.0,nan,nan,nan,nan,nan,nan,0.0,4.033258,0.0,0.0,nan,0.0,0.0,0.0905289,0.0,0.0,0.0,0.0,0.0,0.0,0.0,0.0
10696000,0.29146108,0.29145992,0.57983714,1.1025598,1.1025589,0.0,0.0,0.0,0.0,0.0,0.0,0.0,nan,nan,nan,nan,nan,nan,0.0,4.0332875,0.0,0.0,nan,0.0,0.0,0.09052107,0.0,0.0,0.0,0.0,0.0,0.0,0.0,0.0
10896000,0.28996775,0.28996623,0.57929415,1.1021456,1.1021447,0.0,0.0,0.0,0.0,0.0,0.0,0.0,nan,nan,nan,nan,nan,nan,0.0,4.0332603,0.0,0.0,nan,0.0,0.0,0.09051513,0.0,0.0,0.0,0.0,0.0,0.0,0.0,0.0
11096000,0.28881878,0.28881714,0.5786965,1.1023935,1.1023928,0.0,0.0,0.0,0.0,0.0,0.0,0.0,nan,nan,nan,nan,nan,nan,0.0,4.033175,0.0,0.0,nan,0.0,0.0,0.090509124,0.0,0.0,0.0,0.0,0.0,0.0,0.0,0.0
11296000,0.2874718,0.28747037,0.578072,1.1019814,1.1019808,0.0,0.0,0.0,0.0,0.0,0.0,0.0,nan,nan,nan,nan,nan,nan,0.0,4.033037,0.0,0.0,nan,0.0,0.0,0.09050474,0.0,0.0,0.0,0.0,0.0,0.0,0.0,0.0
11496000,0.2864338,0.28643247,0.5774238,1.1022185,1.1022179,0.0,0.0,0.0,0.0,0.0,0.0,0.0,nan,nan,nan,nan,nan,nan,0.0,4.0328493,0.0,0.0,nan,0.0,0.0,0.09049869,0.0,0.0,0.0,0.0,0.0,0.0,0.0,0.0
11696000,0.2852245,0.28522322,0.5767833,1.101801,1.1018004,0.0,0.0,0.0,0.0,0.0,0.0,0.0,nan,nan,nan,nan,nan,nan,0.0,4.0326195,0.0,0.0,nan,0.0,0.0,0.09049104,0.0,0.0,0.0,0.0,0.0,0.0,0.0,0.0
11896000,0.2843082,0.28430676,0.57614076,1.102019,1.1020184,0.0,0.0,0.0,0.0,0.0,0.0,0.0,nan,nan,nan,nan,nan,nan,0.0,4.032352,0.0,0.0,nan,0.0,0.0,0.09048415,0.0,0.0,0.0,0.0,0.0,0.0,0.0,0.0
12096000,0.28322443,0.2832231,0.5755266,1.1015917,1.1015911,0.0,0.0,0.0,0.0,0.0,0.0,0.0,nan,nan,nan,nan,nan,nan,0.0,4.032055,0.0,0.0,nan,0.0,0.0,0.09047687,0.0,0.0,0.0,0.0,0.0,0.0,0.0,0.0
12296000,0.28239748,0.28239623,0.5749232,1.1017897,1.1017892,0.0,0.0,0.0,0.0,0.0,0.0,0.0,nan,nan,nan,nan,nan,nan,0.0,4.0317326,0.0,0.0,nan,0.0,0.0,0.090470314,0.0,0.0,0.0,0.0,0.0,0.0,0.0,0.0
12496000,0.28143,0.28142864,0.5743588,1.1013513,1.1013509,0.0,0.0,0.0,0.0,0.0,0.0,0.0,nan,nan,nan,nan,nan,nan,0.0,4.0313916,0.0,0.0,nan,0.0,0.0,0.090463385,0.0,0.0,0.0,0.0,0.0,0.0,0.0,0.0
12696000,0.31362665,0.28127804,0.58367175,1.1015929,1.1013745,0.0,0.0,0.0,0.0,0.0,0.0,0.0,nan,nan,nan,nan,nan,nan,0.0,4.0310326,0.0,0.0,nan,0.0,0.0,0.090410665,0.0,0.0,0.0,0.0,0.0,2.2924461,0.0,0.0
12896000,0.3519141,0.28136832,0.59964114,1.1010765,1.1005754,0.0,0.0,0.0,0.0,0.0,0.0,0.0,nan,nan,nan,nan,nan,nan,0.0,4.031131,0.0,0.0,nan,0.0,0.0,0.09032699,0.0,0.0,0.0,0.0,0.0,2.1598513,0.0,0.0
13096000,0.35917804,0.28181738,0.60978305,1.1012187,1.100241,0.0,0.0,0.0,0.0,0.0,0.0,0.0,nan,nan,nan,nan,nan,nan,0.0,4.0320597,0.0,0.0,nan,0.0,0.0,0.09025831,0.0,0.0,0.0,0.0,0.0,2.1224267,0.0,0.0
13296000,0.3450792,0.2820271,0.61071044,1.1009222,1.0992951,0.0,0.0,0.0,0.0,0.0,0.0,0.0,nan,nan,nan,nan,nan,nan,0.0,4.0334964,0.0,0.0,nan,0.0,0.0,0.090263665,0.0,0.0,0.0,0.0,0.0,2.1074357,0.30916804,0.0
13496000,0.32897446,0.28236642,0.60584795,1.1013799,1.0989054,0.0,0.0,0.0,0.0,0.0,0.0,0.0,nan,nan,nan,nan,nan,nan,0.0,4.034845,0.0,0.0,nan,0.0,0.0,0.09022178,0.0,0.0,0.0,0.0,0.0,2.099149,0.3081942,0.0
13696000,0.31675017,0.28410432,0.5989883,1.1011422,1.0979502,0.0,0.0,0.0,0.0,0.0,0.0,0.0,nan,nan,nan,nan,nan,nan,0.0,4.0356917,0.0,0.0,nan,0.0,0.0,0.0901935,0.0,0.0,0.0,0.0,0.0,2.0962045,0.30756298,0.0
13896000,0.31675017,0.28410432,0.5989883,1.1011422,1.0979502,0.0,0.0,0.0,0.0,0.0,0.0,0.0,nan,nan,nan,nan,nan,nan,0.0,4.03772,0.0,0.0,nan,0.0,0.0,0.09017678,0.0,0.0,0.0,0.0,0.0,2.094194,0.30695313,0.0
14096000,0.30911025,0.28643024,0.5921197,1.101618,1.0976708,0.0,0.0,0.0,0.0,0.0,0.0,0.0,nan,nan,nan,nan,nan,nan,0.0,4.037206,0.0,0.0,nan,0.0,0.0,0.09016851,0.0,0.0,0.0,0.0,0.0,2.0929298,0.30679375,0.0
14296000,0.30394593,0.2873889,0.5866294,1.1014305,1.0969949,0.0,0.0,0.0,0.0,0.0,0.0,0.0,nan,nan,nan,nan,nan,nan,0.0,4.036302,0.0,0.0,nan,0.0,0.0,0.090164214,0.0,0.0,0.0,0.0,0.0,2.0926542,0.30667457,0.0
14496000,0.30165407,0.28840882,0.5823136,1.1018677,1.0969723,0.0,0.0,0.0,0.0,0.0,0.0,0.0,nan,nan,nan,nan,nan,nan,0.0,4.035191,0.0,0.0,nan,0.0,0.0,0.09016227,0.0028189863,0.0028406493,0.0028335864,0.0,0.0,2.0924656,0.30653837,0.0
14696000,0.3004907,0.2887529,0.5792141,1.1016196,1.0965335,0.0,0.0,0.0,0.0,0.0,0.0,0.0,nan,nan,nan,nan,nan,nan,0.0,4.0340266,0.0,0.0,nan,0.0,0.0,0.09016227,0.002629619,0.002632257,0.002628197,0.0,0.0,2.092561,0.30648425,0.0
14903999,0.30061817,0.28906533,0.5769421,1.10199,1.0967549,0.0,0.0,0.0,0.0,0.0,0.0,0.0,nan,nan,nan,nan,nan,nan,0.0,4.032888,0.0,0.0,nan,0.0,0.0,0.09016227,0.0025837184,0.0025824353,0.002579365,0.0,0.0,2.092821,0.3064341,0.0
15104000,0.30081263,0.2888584,0.5753822,1.1016612,1.0965282,0.0,0.0,0.0,0.0,0.0,0.0,0.0,nan,nan,nan,nan,nan,nan,0.0,4.031849,0.0,0.0,nan,0.0,0.0,0.09016227,0.0025631962,0.0025587145,0.0025563627,0.0,0.0,2.0930238,0.3063625,0.0
15304000,0.3017387,0.28872582,0.574284,1.1019456,1.0969502,0.0,0.0,0.0,0.0,0.0,0.0,0.0,nan,nan,nan,nan,nan,nan,0.0,4.030931,0.0,0.0,nan,0.0,0.0,0.09016227,0.0025526509,0.0025466147,0.0025453467,0.0,0.0,2.0931458,0.3063083,0.0
15504000,0.30158845,0.28795612,0.5735841,1.1015788,1.096888,0.0,0.0,0.0,0.0,0.0,0.0,0.0,nan,nan,nan,nan,nan,nan,0.0,4.0301576,0.0,0.0,nan,0.0,0.0,0.09016227,0.0025437982,0.0025420652,0.0025434212,0.0,0.0,2.0922718,0.30629027,0.0
15704000,0.30075675,0.28704628,0.57311904,1.10185,1.0974523,0.0,0.0,0.0,0.0,0.0,0.0,0.0,nan,nan,nan,nan,nan,nan,0.0,4.029531,0.0,0.0,nan,0.0,0.0,0.09016227,0.0025372503,0.0025415896,0.0025447542,0.0,0.0,2.091458,0.306185,0.0
15904000,0.29869753,0.28574428,0.5728136,1.1014808,1.097456,0.0,0.0,0.0,0.0,0.0,0.0,0.0,nan,nan,nan,nan,nan,nan,0.0,4.0290384,0.0,0.0,nan,0.0,0.0,0.09016227,0.0025318074,0.0025408787,0.002544702,0.0,0.0,2.0904472,0.30607873,0.0
16104000,0.29676604,0.28469226,0.57260525,1.1017382,1.0980344,0.0,0.0,0.0,0.0,0.0,0.0,0.0,nan,nan,nan,nan,nan,nan,0.0,4.0286407,0.0,0.0,nan,0.0,0.0,0.09016227,0.0025286805,0.0025434452,0.0025485284,0.0,0.0,2.0898972,0.30602032,0.0
16304000,0.29595128,0.28349003,0.5722668,1.1013669,1.098008,0.0,0.0,0.0,0.0,0.0,0.0,0.0,nan,nan,nan,nan,nan,nan,0.0,4.028284,0.0,0.0,nan,0.0,0.0,0.09016227,0.002524774,0.0025491666,0.002554887,0.0,0.0,2.0896735,0.306287,0.0
16504000,0.29445076,0.28248993,0.5720615,1.1016263,1.098545,0.0,0.0,0.0,0.0,0.0,0.0,0.0,nan,nan,nan,nan,nan,nan,0.0,4.0279956,0.0,0.0,nan,0.0,0.0,0.09016227,0.0025210585,0.002548607,0.0025512953,0.0,0.0,2.0897977,0.3061995,0.0
16704000,0.29064494,0.28113863,0.5719754,1.1012697,1.0984596,0.0,0.0,0.0,0.0,0.0,0.0,0.0,nan,nan,nan,nan,nan,nan,0.0,4.027782,0.0,0.0,nan,0.0,0.0,0.09016227,0.002519575,0.0025440175,0.0025447786,0.0,0.0,2.089895,0.30605197,0.0
16904000,0.28762063,0.28021625,0.5719065,1.1014704,1.0988775,0.0,0.0,0.0,0.0,0.0,0.0,0.0,nan,nan,nan,nan,nan,nan,0.0,4.02762,0.0,0.0,nan,0.0,0.0,0.09016227,0.002518638,0.0025378407,0.0025377828,0.0,0.0,2.090355,0.3059001,0.0
17104000,0.2853471,0.2793938,0.5718271,1.1010195,1.0986608,0.0,0.0,0.0,0.0,0.0,0.0,0.0,nan,nan,nan,nan,nan,nan,0.0,4.0274925,0.0,0.0,nan,0.0,0.0,0.09016227,0.0025182266,0.0025330908,0.0025323704,0.0,0.0,2.0902915,0.30560964,0.0
17304000,0.28364813,0.27883086,0.5717498,1.1011556,1.098977,0.0,0.0,0.0,0.0,0.0,0.0,0.0,nan,nan,nan,nan,nan,nan,0.0,4.0273876,0.0,0.0,nan,0.0,0.0,0.09016227,0.0025180355,0.0025288162,0.0025276055,0.0,0.0,2.0904455,0.30545545,0.0
17504000,0.2820595,0.27815995,0.57166535,1.1006814,1.0986907,0.0,0.0,0.0,0.0,0.0,0.0,0.0,nan,nan,nan,nan,nan,nan,0.0,4.027299,0.0,0.0,nan,0.0,0.0,0.09016227,0.0025178182,0.0025254283,0.0025240127,0.0,0.0,2.0901597,0.3053035,0.0
17704000,0.28086403,0.2776703,0.57158047,1.1007885,1.0989424,0.0,0.0,0.0,0.0,0.0,0.0,0.0,nan,nan,nan,nan,nan,nan,0.0,4.0272202,0.0,0.0,nan,0.0,0.0,0.09016227,0.002517742,0.0025223866,0.0025207717,0.0,0.0,2.0897923,0.305051,0.0
17904000,0.27964813,0.27702537,0.57148856,1.1003035,1.09861,0.0,0.0,0.0,0.0,0.0,0.0,0.0,nan,nan,nan,nan,nan,nan,0.0,4.0271497,0.0,0.0,nan,0.0,0.0,0.09016227,0.0025177766,0.0025200725,0.0025183167,0.0,0.0,2.089212,0.30493253,0.0
18104000,0.27868068,0.27650267,0.5713948,1.1003952,1.0988184,0.0,0.0,0.0,0.0,0.0,0.0,0.0,nan,nan,nan,nan,nan,nan,0.0,4.027083,0.0,0.0,nan,0.0,0.0,0.09016227,0.0025177733,0.00251794,0.002516119,0.0,0.0,2.0887148,0.30483165,0.0
18304000,0.27765474,0.2758204,0.5712939,1.0999041,1.0984541,0.0,0.0,0.0,0.0,0.0,0.0,0.0,nan,nan,nan,nan,nan,nan,0.0,4.0270185,0.0,0.0,nan,0.0,0.0,0.09016227,0.0025177624,0.0025162809,0.002514437,0.0,0.0,2.08787,0.30462682,0.0
18504000,0.27684176,0.27525106,0.57119095,1.0999782,1.0986271,0.0,0.0,0.0,0.0,0.0,0.0,0.0,nan,nan,nan,nan,nan,nan,0.0,4.0269537,0.0,0.0,nan,0.0,0.0,0.09016227,0.0025177693,0.00251483,0.0025129686,0.0,0.0,2.0872874,0.3045373,0.0
18704000,0.2759479,0.27453217,0.5710824,1.0994819,1.0982383,0.0,0.0,0.0,0.0,0.0,0.0,0.0,nan,nan,nan,nan,nan,nan,0.0,4.026888,0.0,0.0,nan,0.0,0.0,0.09016227,0.0025177777,0.002513737,0.0025118883,0.0,0.0,2.086473,0.30446285,0.0
18904000,0.27523863,0.2739282,0.57097334,1.0995389,1.0983796,0.0,0.0,0.0,0.0,0.0,0.0,0.0,nan,nan,nan,nan,nan,nan,0.0,4.0268188,0.0,0.0,nan,0.0,0.0,0.09016227,0.002517786,0.0025128433,0.002511011,0.0,0.0,2.0858245,0.30430722,0.0
19104000,0.27446267,0.2732109,0.570862,1.0990359,1.0979677,0.0,0.0,0.0,0.0,0.0,0.0,0.0,nan,nan,nan,nan,nan,nan,0.0,4.0267463,0.0,0.0,nan,0.0,0.0,0.09016227,0.002517762,0.0025120731,0.0025102561,0.0,0.0,2.0851316,0.3042367,0.0
19304000,0.2738696,0.27261937,0.5707527,1.0990753,1.0980774,0.0,0.0,0.0,0.0,0.0,0.0,0.0,nan,nan,nan,nan,nan,nan,0.0,4.02667,0.0,0.0,nan,0.0,0.0,0.09016227,0.0025176979,0.0025115137,0.002509699,0.0,0.0,2.084565,0.3041802,0.0
19504000,0.27321756,0.27195284,0.57064515,1.098566,1.0976428,0.0,0.0,0.0,0.0,0.0,0.0,0.0,nan,nan,nan,nan,nan,nan,0.0,4.0265894,0.0,0.0,nan,0.0,0.0,0.09016227,0.00251724,0.00251093,0.0025091695,0.0,0.0,2.0839617,0.30406022,0.0
19704000,0.2727197,0.27141792,0.5705424,1.0985839,1.0977209,0.0,0.0,0.0,0.0,0.0,0.0,0.0,nan,nan,nan,nan,nan,nan,0.0,4.0265055,0.0,0.0,nan,0.0,0.0,0.09016227,0.0025165305,0.0025104154,0.0025087327,0.0,0.0,2.083431,0.30400613,0.0
19904000,0.27216038,0.27083462,0.5704444,1.0980681,1.0972654,0.0,0.0,0.0,0.0,0.0,0.0,0.0,nan,nan,nan,nan,nan,nan,0.0,4.026419,0.0,0.0,nan,0.0,0.0,0.09016227,0.002515848,0.0025099523,0.0025083357,0.0,0.0,2.082927,0.30396307,0.0
20104000,0.27174824,0.27038398,0.5703536,1.0980778,1.0973148,0.0,0.0,0.0,0.0,0.0,0.0,0.0,nan,nan,nan,nan,nan,nan,0.0,4.0263305,0.0,0.0,nan,0.0,0.0,0.09016227,0.0025152473,0.0025095886,0.002508018,0.0,0.0,2.0825984,0.30386943,0.0
20304000,0.2712738,0.26988497,0.5702688,1.0975649,1.0968431,0.0,0.0,0.0,0.0,0.0,0.0,0.0,nan,nan,nan,nan,nan,nan,0.0,4.026242,0.0,0.0,nan,0.0,0.0,0.09016227,0.0025147195,0.0025092824,0.0025077397,0.0,0.0,2.082232,0.30382764,0.0
20504000,0.27094653,0.26953018,0.57019264,1.0975702,1.0968676,0.0,0.0,0.0,0.0,0.0,0.0,0.0,nan,nan,nan,nan,nan,nan,0.0,4.0261526,0.0,0.0,nan,0.0,0.0,0.09016227,0.0025141742,0.0025089874,0.0025074692,0.0,0.0,2.0820148,0.3037952,0.0
20704000,0.27055565,0.26913476,0.5701225,1.0970639,1.0963846,0.0,0.0,0.0,0.0,0.0,0.0,0.0,nan,nan,nan,nan,nan,nan,0.0,4.026065,0.0,0.0,nan,0.0,0.0,0.09016227,0.0025137058,0.0025087441,0.0025072428,0.0,0.0,2.0817356,0.30375785,0.0
20904000,0.27028883,0.26886973,0.5700609,1.0970687,1.096393,0.0,0.0,0.0,0.0,0.0,0.0,0.0,nan,nan,nan,nan,nan,nan,0.0,4.025979,0.0,0.0,nan,0.0,0.0,0.09016227,0.002513231,0.0025085113,0.0025070186,0.0,0.0,2.0816352,0.30368295,0.0
21104000,0.26995626,0.2685626,0.5700043,1.0965732,1.0959071,0.0,0.0,0.0,0.0,0.0,0.0,0.0,nan,nan,nan,nan,nan,nan,0.0,4.0258965,0.0,0.0,nan,0.0,0.0,0.09016227,0.002512824,0.0025083164,0.002506827,0.0,0.0,2.0814948,0.30365434,0.0
21304000,0.26975545,0.26838556,0.5699563,1.0965797,1.0959079,0.0,0.0,0.0,0.0,0.0,0.0,0.0,nan,nan,nan,nan,nan,nan,0.0,4.0258174,0.0,0.0,nan,0.0,0.0,0.09016227,0.002512426,0.0025081248,0.0025066338,0.0,0.0,2.0814474,0.3036197,0.0
21504000,0.26949543,0.2681682,0.5699124,1.0960957,1.0954281,0.0,0.0,0.0,0.0,0.0,0.0,0.0,nan,nan,nan,nan,nan,nan,0.0,4.025742,0.0,0.0,nan,0.0,0.0,0.09016227,0.0025120936,0.00250796,0.0025064687,0.0,0.0,2.0814002,0.30355635,0.0
21704000,0.26934567,0.26806176,0.5698766,1.0961105,1.0954324,0.0,0.0,0.0,0.0,0.0,0.0,0.0,nan,nan,nan,nan,nan,nan,0.0,4.0256715,0.0,0.0,nan,0.0,0.0,0.09016227,0.0025117546,0.0025077949,0.0025062992,0.0,0.0,2.0814464,0.3035327,0.0
21904000,0.26914397,0.2679188,0.5698432,1.0956438,1.0949667,0.0,0.0,0.0,0.0,0.0,0.0,0.0,nan,nan,nan,nan,nan,nan,0.0,4.025605,0.0,0.0,nan,0.0,0.0,0.09016227,0.002511495,0.0025076577,0.0025061544,0.0,0.0,2.0814276,0.3035037,0.0
22104000,0.26904503,0.26787934,0.5698171,1.0956707,1.0949837,0.0,0.0,0.0,0.0,0.0,0.0,0.0,nan,nan,nan,nan,nan,nan,0.0,4.0255437,0.0,0.0,nan,0.0,0.0,0.09016227,0.0025112329,0.0025075218,0.0025060154,0.0,0.0,2.0815349,0.30345023,0.0
22304000,0.2688774,0.2677845,0.5697919,1.0952235,1.0945407,0.0,0.0,0.0,0.0,0.0,0.0,0.0,nan,nan,nan,nan,nan,nan,0.0,4.025487,0.0,0.0,nan,0.0,0.0,0.09016227,0.0025109556,0.002507384,0.0025058696,0.0,0.0,2.0815644,0.3034302,0.0
22504000,0.26882035,0.2678011,0.5697731,1.0952654,1.0945784,0.0,0.0,0.0,0.0,0.0,0.0,0.0,nan,nan,nan,nan,nan,nan,0.0,4.025435,0.0,0.0,nan,0.0,0.0,0.09016227,0.002510739,0.0025072605,0.002505744,0.0,0.0,2.0817137,0.30340555,0.0
22704000,0.26867473,0.26773924,0.56975424,1.0948386,1.0941639,0.0,0.0,0.0,0.0,0.0,0.0,0.0,nan,nan,nan,nan,nan,nan,0.0,4.025388,0.0,0.0,nan,0.0,0.0,0.09016227,0.0025105192,0.002507139,0.0025056147,0.0,0.0,2.0817828,0.30335996,0.0
22904000,0.26864147,0.26778528,0.5697403,1.0948973,1.094228,0.0,0.0,0.0,0.0,0.0,0.0,0.0,nan,nan,nan,nan,nan,nan,0.0,4.0253444,0.0,0.0,nan,0.0,0.0,0.09016227,0.0025103306,0.0025070265,0.002505501,0.0,0.0,2.0819788,0.30334088,0.0
23104000,0.2685318,0.26775488,0.569726,1.0944935,1.0938445,0.0,0.0,0.0,0.0,0.0,0.0,0.0,nan,nan,nan,nan,nan,nan,0.0,4.0253053,0.0,0.0,nan,0.0,0.0,0.09016227,0.0025101595,0.002506925,0.0025053946,0.0,0.0,2.0819595,0.30331707,0.0
23304000,0.2685216,0.26782414,0.5697168,1.0945699,1.0939381,0.0,0.0,0.0,0.0,0.0,0.0,0.0,nan,nan,nan,nan,nan,nan,0.0,4.0252695,0.0,0.0,nan,0.0,0.0,0.09016227,0.002509978,0.0025068163,0.0025052836,0.0,0.0,2.0822115,0.30327415,0.0
23504000,0.26842803,0.26780927,0.5697065,1.0941876,1.0935862,0.0,0.0,0.0,0.0,0.0,0.0,0.0,nan,nan,nan,nan,nan,nan,0.0,4.025238,0.0,0.0,nan,0.0,0.0,0.09016227,0.002509823,0.0025067176,0.0025051872,0.0,0.0,2.0822742,0.30325735,0.0
23704000,0.26843393,0.26789343,0.56970125,1.0942826,1.0937096,0.0,0.0,0.0,0.0,0.0,0.0,0.0,nan,nan,nan,nan,nan,nan,0.0,4.025209,0.0,0.0,nan,0.0,0.0,0.09016227,0.0025096687,0.0025066189,0.0025050882,0.0,0.0,2.0825245,0.30323744,0.0
23904000,0.26834399,0.26788166,0.56969327,1.093919,1.0933871,0.0,0.0,0.0,0.0,0.0,0.0,0.0,nan,nan,nan,nan,nan,nan,0.0,4.0251837,0.0,0.0,nan,0.0,0.0,0.09016227,0.0025095656,0.002506578,0.0025050072,0.0,0.0,2.0825799,0.30320048,0.0
24104000,0.26830715,0.26795143,0.56969446,1.0940366,1.0935407,0.0,0.0,0.0,0.0,0.0,0.0,0.0,nan,nan,nan,nan,nan,nan,0.0,4.0251613,0.0,0.0,nan,0.0,0.0,0.09016227,0.0025094491,0.0025064931,0.002504921,0.0,0.0,2.082705,0.30319163,0.0
24304000,0.2678393,0.26769057,0.5697214,1.0936997,1.0932505,0.0,0.0,0.0,0.0,0.0,0.0,0.0,nan,nan,nan,nan,nan,nan,0.0,4.0251436,0.0,0.0,nan,0.0,0.0,0.09016227,0.0025094205,0.0025064042,0.0025048554,0.0,0.0,2.0841196,0.30324286,0.0
24504000,0.2678393,0.26769057,0.5697214,1.0936997,1.0932505,0.0,0.0,0.0,0.0,0.0,0.0,0.0,nan,nan,nan,nan,nan,nan,0.0,4.0253253,0.0,0.0,nan,0.0,0.0,0.09016227,0.002509761,0.0025064072,0.0025049178,0.0,0.0,2.0840409,0.3033303,0.0
24704000,0.26727995,0.26723278,0.569774,1.0938193,1.0934143,0.0,0.0,0.0,0.0,0.0,0.0,0.0,nan,nan,nan,nan,nan,nan,0.0,4.0253243,0.0,0.0,nan,0.0,0.0,0.09016227,0.0025109104,0.0025064906,0.0025051471,0.0,0.0,2.0837147,0.3035102,0.0
24904000,0.2666239,0.26658323,0.5698347,1.0934488,1.0930954,0.0,0.0,0.0,0.0,0.0,0.0,0.0,nan,nan,nan,nan,nan,nan,0.0,4.025334,0.0,0.0,nan,0.0,0.0,0.09016227,0.0025122056,0.0025065776,0.0025053998,0.0,0.0,2.0834537,0.30359226,0.0
25104000,0.2661768,0.26607728,0.5699217,1.0934832,1.093185,0.0,0.0,0.0,0.0,0.0,0.0,0.0,nan,nan,nan,nan,nan,nan,0.0,4.025355,0.0,0.0,nan,0.0,0.0,0.09016227,0.002513622,0.0025066412,0.0025056524,0.0,0.0,2.0832434,0.30366695,0.0
25304000,0.2658506,0.2656691,0.57001525,1.0930374,1.0927957,0.0,0.0,0.0,0.0,0.0,0.0,0.0,nan,nan,nan,nan,nan,nan,0.0,4.0253882,0.0,0.0,nan,0.0,0.0,0.09016227,0.0025150818,0.002506653,0.0025058857,0.0,0.0,2.08312,0.3037934,0.0
25504000,0.2656687,0.26541254,0.5701242,1.0930165,1.0928321,0.0,0.0,0.0,0.0,0.0,0.0,0.0,nan,nan,nan,nan,nan,nan,0.0,4.025433,0.0,0.0,nan,0.0,0.0,0.09016227,0.002516199,0.0025065662,0.0025060198,0.0,0.0,2.082971,0.30383414,0.0
25704000,0.26547316,0.26518926,0.57022494,1.0925486,1.0924202,0.0,0.0,0.0,0.0,0.0,0.0,0.0,nan,nan,nan,nan,nan,nan,0.0,4.0254893,0.0,0.0,nan,0.0,0.0,0.09016227,0.0025170243,0.0025064365,0.0025061013,0.0,0.0,2.0829551,0.30386168,0.0
25904000,0.26538366,0.26511368,0.5703337,1.0925226,1.0924476,0.0,0.0,0.0,0.0,0.0,0.0,0.0,nan,nan,nan,nan,nan,nan,0.0,4.0255547,0.0,0.0,nan,0.0,0.0,0.09016227,0.0025174634,0.0025063127,0.0025061325,0.0,0.0,2.0829268,0.30389595,0.0
26104000,0.26526126,0.2650485,0.5704302,1.0920773,1.0920506,0.0,0.0,0.0,0.0,0.0,0.0,0.0,nan,nan,nan,nan,nan,nan,0.0,4.025628,0.0,0.0,nan,0.0,0.0,0.09016227,0.0025175207,0.0025061667,0.002506104,0.0,0.0,2.082985,0.3038955,0.0
26304000,0.26522884,0.2651214,0.5705275,1.0920773,1.092102,0.0,0.0,0.0,0.0,0.0,0.0,0.0,nan,nan,nan,nan,nan,nan,0.0,4.025707,0.0,0.0,nan,0.0,0.0,0.09016227,0.0025173235,0.0025060344,0.0025060456,0.0,0.0,2.0830371,0.30388513,0.0
26504000,0.2651576,0.26518908,0.5706064,1.0916659,1.0917424,0.0,0.0,0.0,0.0,0.0,0.0,0.0,nan,nan,nan,nan,nan,nan,0.0,4.0257893,0.0,0.0,nan,0.0,0.0,0.09016227,0.0025169037,0.0025059092,0.0025059623,0.0,0.0,2.0832853,0.303851,0.0
26704000,0.265178,0.265373,0.57068,1.0917097,1.0918413,0.0,0.0,0.0,0.0,0.0,0.0,0.0,nan,nan,nan,nan,nan,nan,0.0,4.0258713,0.0,0.0,nan,0.0,0.0,0.09016227,0.002516425,0.0025058172,0.0025058743,0.0,0.0,2.083429,0.30382213,0.0
26904000,0.2651602,0.26552242,0.5707364,1.0913403,1.0915332,0.0,0.0,0.0,0.0,0.0,0.0,0.0,nan,nan,nan,nan,nan,nan,0.0,4.025953,0.0,0.0,nan,0.0,0.0,0.09016227,0.0025158236,0.0025057334,0.002505775,0.0,0.0,2.0836668,0.30378842,0.0
27104000,0.26523778,0.26577365,0.5707859,1.0914202,1.0916873,0.0,0.0,0.0,0.0,0.0,0.0,0.0,nan,nan,nan,nan,nan,nan,0.0,4.0260296,0.0,0.0,nan,0.0,0.0,0.09016227,0.0025151293,0.0025056642,0.002505665,0.0,0.0,2.0837505,0.30372053,0.0
27304000,0.26528168,0.26596898,0.5708167,1.0910941,1.0914336,0.0,0.0,0.0,0.0,0.0,0.0,0.0,nan,nan,nan,nan,nan,nan,0.0,4.026101,0.0,0.0,nan,0.0,0.0,0.09016227,0.0025144648,0.0025056049,0.0025055597,0.0,0.0,2.084021,0.30367744,0.0
27504000,0.265421,0.26625365,0.5708397,1.0912107,1.0916433,0.0,0.0,0.0,0.0,0.0,0.0,0.0,nan,nan,nan,nan,nan,nan,0.0,4.026165,0.0,0.0,nan,0.0,0.0,0.09016227,0.0025137712,0.0025055578,0.0025054554,0.0,0.0,2.084053,0.30363235,0.0
27704000,0.26551634,0.2664655,0.57084733,1.0909156,1.0914388,0.0,0.0,0.0,0.0,0.0,0.0,0.0,nan,nan,nan,nan,nan,nan,0.0,4.0262203,0.0,0.0,nan,0.0,0.0,0.09016227,0.0025131558,0.0025055185,0.002505359,0.0,0.0,2.0842054,0.30355176,0.0
27904000,0.265707,0.26675263,0.5708481,1.0910666,1.0916989,0.0,0.0,0.0,0.0,0.0,0.0,0.0,nan,nan,nan,nan,nan,nan,0.0,4.0262666,0.0,0.0,nan,0.0,0.0,0.09016227,0.0025125323,0.002505484,0.0025052617,0.0,0.0,2.084267,0.3035084,0.0
28104000,0.26584864,0.26695415,0.57083786,1.0908086,1.0915362,0.0,0.0,0.0,0.0,0.0,0.0,0.0,nan,nan,nan,nan,nan,nan,0.0,4.026304,0.0,0.0,nan,0.0,0.0,0.09016227,0.002511991,0.0025054505,0.002505171,0.0,0.0,2.0843017,0.3034636,0.0
28304000,0.26607296,0.26722497,0.5708261,1.0909934,1.0918373,0.0,0.0,0.0,0.0,0.0,0.0,0.0,nan,nan,nan,nan,nan,nan,0.0,4.0263314,0.0,0.0,nan,0.0,0.0,0.09016227,0.0025114303,0.0025054177,0.0025050761,0.0,0.0,2.0843074,0.30343077,0.0
28504000,0.26622632,0.26739645,0.57080245,1.0907623,1.091704,0.0,0.0,0.0,0.0,0.0,0.0,0.0,nan,nan,nan,nan,nan,nan,0.0,4.026351,0.0,0.0,nan,0.0,0.0,0.09016227,0.0025109802,0.0025053811,0.0025049904,0.0,0.0,2.0843747,0.30334938,0.0
28704000,0.26646045,0.26763594,0.5707787,1.0909798,1.0920343,0.0,0.0,0.0,0.0,0.0,0.0,0.0,nan,nan,nan,nan,nan,nan,0.0,4.026361,0.0,0.0,nan,0.0,0.0,0.09016227,0.0025105285,0.0025053502,0.002504901,0.0,0.0,2.084287,0.30331057,0.0
28904000,0.26660883,0.267765,0.5707504,1.090783,1.0919207,0.0,0.0,0.0,0.0,0.0,0.0,0.0,nan,nan,nan,nan,nan,nan,0.0,4.0263643,0.0,0.0,nan,0.0,0.0,0.09016227,0.0025101479,0.0025053082,0.0025048146,0.0,0.0,2.0843122,0.30328202,0.0
29104000,0.26682654,0.26796505,0.5707246,1.0910304,1.0922681,0.0,0.0,0.0,0.0,0.0,0.0,0.0,nan,nan,nan,nan,nan,nan,0.0,4.0263605,0.0,0.0,nan,0.0,0.0,0.09016227,0.002509823,0.002505277,0.0025047348,0.0,0.0,2.0842226,0.3032128,0.0
29304000,0.26695332,0.26805186,0.5706933,1.0908585,1.0921619,0.0,0.0,0.0,0.0,0.0,0.0,0.0,nan,nan,nan,nan,nan,nan,0.0,4.026352,0.0,0.0,nan,0.0,0.0,0.09016227,0.0025094887,0.0025052354,0.0025046347,0.0,0.0,2.084239,0.30317977,0.0
29504000,0.26713982,0.26820743,0.5706667,1.0911312,1.0925158,0.0,0.0,0.0,0.0,0.0,0.0,0.0,nan,nan,nan,nan,nan,nan,0.0,4.0263376,0.0,0.0,nan,0.0,0.0,0.09016227,0.0025092259,0.0025051923,0.0025045467,0.0,0.0,2.0841076,0.30315623,0.0
29704000,0.26720807,0.26824525,0.5706396,1.0909718,1.0924059,0.0,0.0,0.0,0.0,0.0,0.0,0.0,nan,nan,nan,nan,nan,nan,0.0,4.0263205,0.0,0.0,nan,0.0,0.0,0.09016227,0.0025089737,0.002505147,0.0025044468,0.0,0.0,2.0840893,0.30310103,0.0
29904000,0.2673476,0.26835766,0.57061696,1.0912623,1.0927567,0.0,0.0,0.0,0.0,0.0,0.0,0.0,nan,nan,nan,nan,nan,nan,0.0,4.0263004,0.0,0.0,nan,0.0,0.0,0.09016227,0.0025087611,0.002505094,0.0025043536,0.0,0.0,2.0839543,0.30307385,0.0
30104000,0.26738515,0.26836,0.5705927,1.09112,1.0926386,0.0,0.0,0.0,0.0,0.0,0.0,0.0,nan,nan,nan,nan,nan,nan,0.0,4.026279,0.0,0.0,nan,0.0,0.0,0.09016227,0.0025085628,0.0025050396,0.0025042533,0.0,0.0,2.083938,0.30305603,0.0
30304000,0.26801035,0.2684376,0.5704971,1.0914128,1.0929778,0.0,0.0,0.0,0.0,0.0,0.0,0.0,nan,nan,nan,nan,nan,nan,0.0,4.0262394,0.0,0.0,nan,0.0,0.0,0.09016227,0.0025081914,0.002505065,0.0025041862,0.0,0.0,2.0839782,0.3027915,0.0
30503999,0.2705559,0.2688055,0.57037157,1.0912654,1.0928261,0.0,0.0,0.0,0.0,0.0,0.0,0.0,nan,nan,nan,nan,nan,nan,0.0,4.0261626,0.0,0.0,nan,0.0,0.0,0.09016227,0.0025076536,0.0025052426,0.002504148,0.0,0.0,2.0845888,0.30256268,0.0
30704000,0.2745466,0.26988953,0.57036024,1.0916404,1.0931559,0.0,0.0,0.0,0.0,0.0,0.0,0.0,nan,nan,nan,nan,nan,nan,0.0,4.026067,0.0,0.0,nan,0.0,0.0,0.09016227,0.0025077413,0.0025054784,0.0025042985,0.0,0.0,2.085342,0.30237922,0.0
30911999,0.27705362,0.27096054,0.5704013,1.0916893,1.0930657,0.0,0.0,0.0,0.0,0.0,0.0,0.0,nan,nan,nan,nan,nan,nan,0.0,4.0259843,0.0,0.0,nan,0.0,0.0,0.09016227,0.0025083534,0.0025056058,0.0025044794,0.0,0.0,2.0859783,0.3021589,0.0
31112000,0.27789626,0.27182928,0.57044744,1.0923492,1.09352,0.0,0.0,0.0,0.0,0.0,0.0,0.0,nan,nan,nan,nan,nan,nan,0.0,4.025919,0.0,0.0,nan,0.0,0.0,0.09016227,0.0025089725,0.0025055688,0.002504506,0.0,0.0,2.0864756,0.3021002,0.0
31312000,0.27737838,0.27219263,0.57047224,1.0925803,1.093509,0.0,0.0,0.0,0.0,0.0,0.0,0.0,nan,nan,nan,nan,nan,nan,0.0,4.0258756,0.0,0.0,nan,0.0,0.0,0.09016227,0.0025095781,0.0025054344,0.0025044316,0.0,0.0,2.0866578,0.30206355,0.0
31512000,0.27644598,0.27235785,0.57049173,1.0933138,1.093991,0.0,0.0,0.0,0.0,0.0,0.0,0.0,nan,nan,nan,nan,nan,nan,0.0,4.0258503,0.0,0.0,nan,0.0,0.0,0.09016227,0.0025099637,0.002505248,0.0025043008,0.0,0.0,2.0868382,0.30201495,0.0
31719999,0.27526838,0.27212957,0.57050294,1.0934936,1.093953,0.0,0.0,0.0,0.0,0.0,0.0,0.0,nan,nan,nan,nan,nan,nan,0.0,4.0258455,0.0,0.0,nan,0.0,0.0,0.09016227,0.0025102252,0.0025050472,0.002504132,0.0,0.0,2.086911,0.3019952,0.0
31920000,0.2742126,0.2718511,0.57051957,1.0941267,1.0943872,0.0,0.0,0.0,0.0,0.0,0.0,0.0,nan,nan,nan,nan,nan,nan,0.0,4.025841,0.0,0.0,nan,0.0,0.0,0.09016227,0.0025103944,0.002504853,0.002503965,0.0,0.0,2.086677,0.30197817,0.0
32120000,0.27311802,0.27136233,0.5705313,1.0941806,1.0942882,0.0,0.0,0.0,0.0,0.0,0.0,0.0,nan,nan,nan,nan,nan,nan,0.0,4.025843,0.0,0.0,nan,0.0,0.0,0.09016227,0.0025104193,0.0025046815,0.002503824,0.0,0.0,2.0865765,0.30194548,0.0
32320000,0.27219474,0.27091408,0.5705502,1.0946639,1.0946441,0.0,0.0,0.0,0.0,0.0,0.0,0.0,nan,nan,nan,nan,nan,nan,0.0,4.02585,0.0,0.0,nan,0.0,0.0,0.09016227,0.0025103746,0.0025045448,0.0025037162,0.0,0.0,2.086282,0.30192906,0.0
32520000,0.2712599,0.27036905,0.5705626,1.0945718,1.0944669,0.0,0.0,0.0,0.0,0.0,0.0,0.0,nan,nan,nan,nan,nan,nan,0.0,4.02586,0.0,0.0,nan,0.0,0.0,0.09016227,0.002510291,0.0025044293,0.002503633,0.0,0.0,2.0861027,0.3019175,0.0
32720000,0.2704897,0.2699243,0.57058036,1.094907,1.0947425,0.0,0.0,0.0,0.0,0.0,0.0,0.0,nan,nan,nan,nan,nan,nan,0.0,4.0258727,0.0,0.0,nan,0.0,0.0,0.09016227,0.0025101318,0.0025043355,0.0025035685,0.0,0.0,2.0858183,0.30189258,0.0
32920000,0.26970574,0.2694174,0.5705903,1.0946785,1.0944908,0.0,0.0,0.0,0.0,0.0,0.0,0.0,nan,nan,nan,nan,nan,nan,0.0,4.025888,0.0,0.0,nan,0.0,0.0,0.09016227,0.0025099642,0.0025042507,0.0025035127,0.0,0.0,2.0856328,0.3018808,0.0
33120000,0.2690722,0.2690355,0.5706032,1.0948869,1.0946991,0.0,0.0,0.0,0.0,0.0,0.0,0.0,nan,nan,nan,nan,nan,nan,0.0,4.025904,0.0,0.0,nan,0.0,0.0,0.09016227,0.002509796,0.00250418,0.0025034726,0.0,0.0,2.085458,0.30187598,0.0
33320000,0.2684474,0.26862386,0.57060784,1.0945617,1.0944004,0.0,0.0,0.0,0.0,0.0,0.0,0.0,nan,nan,nan,nan,nan,nan,0.0,4.025922,0.0,0.0,nan,0.0,0.0,0.09016227,0.0025096016,0.0025041227,0.0025034358,0.0,0.0,2.0853763,0.30186805,0.0
33520000,0.2679515,0.26833147,0.5706153,1.0946677,1.0945579,0.0,0.0,0.0,0.0,0.0,0.0,0.0,nan,nan,nan,nan,nan,nan,0.0,4.0259395,0.0,0.0,nan,0.0,0.0,0.09016227,0.002509405,0.002504071,0.002503403,0.0,0.0,2.0852156,0.3018602,0.0
33720000,0.26744294,0.26799768,0.5706147,1.094258,1.094219,0.0,0.0,0.0,0.0,0.0,0.0,0.0,nan,nan,nan,nan,nan,nan,0.0,4.0259566,0.0,0.0,nan,0.0,0.0,0.09016227,0.0025092144,0.0025040293,0.0025033718,0.0,0.0,2.0851517,0.30185503,0.0
33920000,0.26707393,0.2678033,0.5706161,1.0942882,1.0943426,0.0,0.0,0.0,0.0,0.0,0.0,0.0,nan,nan,nan,nan,nan,nan,0.0,4.0259733,0.0,0.0,nan,0.0,0.0,0.09016227,0.0025090629,0.0025039932,0.0025033413,0.0,0.0,2.0850437,0.301849,0.0
34120000,0.26670167,0.26758075,0.57060975,1.0938345,1.0939883,0.0,0.0,0.0,0.0,0.0,0.0,0.0,nan,nan,nan,nan,nan,nan,0.0,4.025988,0.0,0.0,nan,0.0,0.0,0.09016227,0.002508891,0.0025039609,0.0025033127,0.0,0.0,2.0851474,0.30184656,0.0
34320000,0.2664321,0.26746875,0.5706052,1.0938184,1.0940964,0.0,0.0,0.0,0.0,0.0,0.0,0.0,nan,nan,nan,nan,nan,nan,0.0,4.0260015,0.0,0.0,nan,0.0,0.0,0.09016227,0.00250874,0.0025039294,0.002503283,0.0,0.0,2.0851789,0.30184156,0.0
34520000,0.2661349,0.26731184,0.57059294,1.0933349,1.0937364,0.0,0.0,0.0,0.0,0.0,0.0,0.0,nan,nan,nan,nan,nan,nan,0.0,4.0260124,0.0,0.0,nan,0.0,0.0,0.09016227,0.002508579,0.0025039045,0.0025032475,0.0,0.0,2.0853302,0.30183643,0.0
34720000,0.26593482,0.26724765,0.5705824,1.0932946,1.0938427,0.0,0.0,0.0,0.0,0.0,0.0,0.0,nan,nan,nan,nan,nan,nan,0.0,4.026021,0.0,0.0,nan,0.0,0.0,0.09016227,0.002508462,0.0025039387,0.0025032249,0.0,0.0,2.0853248,0.30183634,0.0
34920000,0.26571065,0.2671361,0.57056504,1.0928111,1.0934908,0.0,0.0,0.0,0.0,0.0,0.0,0.0,nan,nan,nan,nan,nan,nan,0.0,4.0260267,0.0,0.0,nan,0.0,0.0,0.09016227,0.0025083232,0.002503859,0.002503164,0.0,0.0,2.0855653,0.30183044,0.0
35120000,0.26557776,0.26712292,0.5705489,1.092766,1.0936034,0.0,0.0,0.0,0.0,0.0,0.0,0.0,nan,nan,nan,nan,nan,nan,0.0,4.026029,0.0,0.0,nan,0.0,0.0,0.09016227,0.002508226,0.0025038943,0.0025031476,0.0,0.0,2.0869586,0.3018228,0.0
35320000,0.26539093,0.26703656,0.5705271,1.092287,1.0932637,0.0,0.0,0.0,0.0,0.0,0.0,0.0,nan,nan,nan,nan,nan,nan,0.0,4.0260286,0.0,0.0,nan,0.0,0.0,0.09016227,0.0025081069,0.0025038756,0.0025031015,0.0,0.0,2.0859292,0.30182067,0.0
35520000,0.26539093,0.26703656,0.5705271,1.092287,1.0932637,0.0,0.0,0.0,0.0,0.0,0.0,0.0,nan,nan,nan,nan,nan,nan,0.0,4.0262513,0.0,0.0,nan,0.0,0.0,0.09016227,0.0025080435,0.0025038612,0.0025030642,0.0,0.0,2.0873165,0.3018125,0.0
35720000,0.2653087,0.26705515,0.5705071,1.0922561,1.0933907,0.0,0.0,0.0,0.0,0.0,0.0,0.0,nan,nan,nan,nan,nan,nan,0.0,4.026243,0.0,0.0,nan,0.0,0.0,0.09016227,0.002507952,0.0025038412,0.0025030267,0.0,0.0,2.0875764,0.30180463,0.0
35920000,0.26516816,0.2669919,0.57048166,1.0917965,1.0930686,0.0,0.0,0.0,0.0,0.0,0.0,0.0,nan,nan,nan,nan,nan,nan,0.0,4.0262327,0.0,0.0,nan,0.0,0.0,0.09016227,0.002507861,0.0025038263,0.002502982,0.0,0.0,2.0877528,0.30179992,0.0
36120000,0.2650937,0.2670037,0.57045865,1.0917778,1.0932112,0.0,0.0,0.0,0.0,0.0,0.0,0.0,nan,nan,nan,nan,nan,nan,0.0,4.026219,0.0,0.0,nan,0.0,0.0,0.09016227,0.0025078028,0.0025038116,0.002502952,0.0,0.0,2.0879781,0.30179116,0.0
36320000,0.264985,0.26695237,0.5704309,1.0913483,1.092907,0.0,0.0,0.0,0.0,0.0,0.0,0.0,nan,nan,nan,nan,nan,nan,0.0,4.026202,0.0,0.0,nan,0.0,0.0,0.09016227,0.0025077334,0.0025037942,0.002502915,0.0,0.0,2.0881336,0.3017808,0.0
36520000,0.2649419,0.26696882,0.5704055,1.091351,1.0930653,0.0,0.0,0.0,0.0,0.0,0.0,0.0,nan,nan,nan,nan,nan,nan,0.0,4.0261827,0.0,0.0,nan,0.0,0.0,0.09016227,0.0025076708,0.0025037786,0.0025028854,0.0,0.0,2.0883772,0.30177578,0.0
36720000,0.2648555,0.2669117,0.570376,1.0909482,1.0927767,0.0,0.0,0.0,0.0,0.0,0.0,0.0,nan,nan,nan,nan,nan,nan,0.0,4.026161,0.0,0.0,nan,0.0,0.0,0.09016227,0.0025076068,0.0025037625,0.002502854,0.0,0.0,2.0884922,0.30176646,0.0
36920000,0.26483196,0.26693568,0.5703496,1.0909749,1.0929487,0.0,0.0,0.0,0.0,0.0,0.0,0.0,nan,nan,nan,nan,nan,nan,0.0,4.026137,0.0,0.0,nan,0.0,0.0,0.09016227,0.002507554,0.0025037504,0.002502823,0.0,0.0,2.0887794,0.30175686,0.0
37120000,0.26475114,0.2668824,0.5703199,1.0905931,1.0926735,0.0,0.0,0.0,0.0,0.0,0.0,0.0,nan,nan,nan,nan,nan,nan,0.0,4.0261116,0.0,0.0,nan,0.0,0.0,0.09016227,0.0025075153,0.002503741,0.0025027925,0.0,0.0,2.088944,0.30174795,0.0
37320000,0.26474532,0.26690385,0.57029366,1.09065,1.0928588,0.0,0.0,0.0,0.0,0.0,0.0,0.0,nan,nan,nan,nan,nan,nan,0.0,4.026084,0.0,0.0,nan,0.0,0.0,0.09016227,0.0025074636,0.002503726,0.0025027615,0.0,0.0,2.0891516,0.30174074,0.0
37520000,0.26466623,0.26683068,0.5702644,1.090294,1.0925957,0.0,0.0,0.0,0.0,0.0,0.0,0.0,nan,nan,nan,nan,nan,nan,0.0,4.0260553,0.0,0.0,nan,0.0,0.0,0.09016227,0.0025074189,0.0025037169,0.0025027317,0.0,0.0,2.0892708,0.30173114,0.0
37720000,0.26466364,0.2668428,0.57023877,1.0903661,1.0927889,0.0,0.0,0.0,0.0,0.0,0.0,0.0,nan,nan,nan,nan,nan,nan,0.0,4.0260253,0.0,0.0,nan,0.0,0.0,0.09016227,0.002507387,0.0025037082,0.0025027068,0.0,0.0,2.0894723,0.30172122,0.0
37920000,0.26461262,0.26677018,0.57021034,1.0900397,1.0925338,0.0,0.0,0.0,0.0,0.0,0.0,0.0,nan,nan,nan,nan,nan,nan,0.0,4.025995,0.0,0.0,nan,0.0,0.0,0.09016227,0.0025073544,0.0025036996,0.0025026836,0.0,0.0,2.0896242,0.30171415,0.0
38120000,0.26462555,0.26676425,0.5701856,1.0901405,1.0927331,0.0,0.0,0.0,0.0,0.0,0.0,0.0,nan,nan,nan,nan,nan,nan,0.0,4.0259633,0.0,0.0,nan,0.0,0.0,0.09016227,0.0025073115,0.0025036861,0.00250266,0.0,0.0,2.089869,0.30170533,0.0
38320000,0.2645671,0.26667583,0.57015824,1.0898296,1.0924814,0.0,0.0,0.0,0.0,0.0,0.0,0.0,nan,nan,nan,nan,nan,nan,0.0,4.0259314,0.0,0.0,nan,0.0,0.0,0.09016227,0.0025072745,0.0025036782,0.0025026347,0.0,0.0,2.0899725,0.30169627,0.0
38520000,0.26458162,0.2666673,0.5701349,1.0899416,1.0926806,0.0,0.0,0.0,0.0,0.0,0.0,0.0,nan,nan,nan,nan,nan,nan,0.0,4.0258994,0.0,0.0,nan,0.0,0.0,0.09016227,0.0025072438,0.0025036687,0.0025026114,0.0,0.0,2.0901802,0.3016898,0.0
38720000,0.26453862,0.2665731,0.5701092,1.089656,1.09243,0.0,0.0,0.0,0.0,0.0,0.0,0.0,nan,nan,nan,nan,nan,nan,0.0,4.0258675,0.0,0.0,nan,0.0,0.0,0.09016227,0.0025072133,0.0025036621,0.0025025934,0.0,0.0,2.090279,0.3016811,0.0
38920000,0.26455566,0.2665595,0.57008743,1.0897852,1.092629,0.0,0.0,0.0,0.0,0.0,0.0,0.0,nan,nan,nan,nan,nan,nan,0.0,4.0258355,0.0,0.0,nan,0.0,0.0,0.09016227,0.00250718,0.00250365,0.0025025716,0.0,0.0,2.0904956,0.30167273,0.0
39120000,0.26450554,0.2664588,0.57006323,1.0895091,1.0923772,0.0,0.0,0.0,0.0,0.0,0.0,0.0,nan,nan,nan,nan,nan,nan,0.0,4.025804,0.0,0.0,nan,0.0,0.0,0.09016227,0.0025071504,0.0025036426,0.002502554,0.0,0.0,2.0905738,0.3016654,0.0
39320000,0.26453012,0.26644123,0.5700432,1.089652,1.0925727,0.0,0.0,0.0,0.0,0.0,0.0,0.0,nan,nan,nan,nan,nan,nan,0.0,4.0257726,0.0,0.0,nan,0.0,0.0,0.09016227,0.0025071143,0.002503629,0.002502536,0.0,0.0,2.090802,0.30165866,0.0
39520000,0.264494,0.26635173,0.57002074,1.0893962,1.0923187,0.0,0.0,0.0,0.0,0.0,0.0,0.0,nan,nan,nan,nan,nan,nan,0.0,4.025742,0.0,0.0,nan,0.0,0.0,0.09016227,0.0025070834,0.00250362,0.0025025208,0.0,0.0,2.0908823,0.30165106,0.0
39720000,0.2645161,0.26633018,0.5700022,1.0895513,1.0925107,0.0,0.0,0.0,0.0,0.0,0.0,0.0,nan,nan,nan,nan,nan,nan,0.0,4.0257115,0.0,0.0,nan,0.0,0.0,0.09016227,0.002507058,0.0025036077,0.0025025022,0.0,0.0,2.09109,0.3016445,0.0
39920000,0.26447588,0.26624203,0.56998134,1.0892997,1.0922532,0.0,0.0,0.0,0.0,0.0,0.0,0.0,nan,nan,nan,nan,nan,nan,0.0,4.025682,0.0,0.0,nan,0.0,0.0,0.09016227,0.002507028,0.002503599,0.0025024868,0.0,0.0,2.0911732,0.30163798,0.0
40120000,0.26450396,0.26622516,0.56996465,1.0894647,1.0924418,0.0,0.0,0.0,0.0,0.0,0.0,0.0,nan,nan,nan,nan,nan,nan,0.0,4.0256524,0.0,0.0,nan,0.0,0.0,0.09016227,0.002506999,0.0025035855,0.0025024693,0.0,0.0,2.0913913,0.3016312,0.0
40320000,0.26448178,0.26609692,0.56995034,1.0892295,1.092187,0.0,0.0,0.0,0.0,0.0,0.0,0.0,nan,nan,nan,nan,nan,nan,0.0,4.0256248,0.0,0.0,nan,0.0,0.0,0.09016227,0.0025068996,0.002503565,0.0025024062,0.0,0.0,2.091503,0.30169034,0.0
40520000,0.26450986,0.26580948,0.56995755,1.0894085,1.0923734,0.0,0.0,0.0,0.0,0.0,0.0,0.0,nan,nan,nan,nan,nan,nan,0.0,4.0255995,0.0,0.0,nan,0.0,0.0,0.09016227,0.002506826,0.0025035483,0.0025023543,0.0,0.0,2.0914605,0.30175334,0.0
40720000,0.2644236,0.26532906,0.5699715,1.0891684,1.0920802,0.0,0.0,0.0,0.0,0.0,0.0,0.0,nan,nan,nan,nan,nan,nan,0.0,4.025577,0.0,0.0,nan,0.0,0.0,0.09016227,0.0025069925,0.0025035625,0.0025023716,0.0,0.0,2.0914721,0.3018159,0.0
40920000,0.26431644,0.26485083,0.5699951,1.0893195,1.0921745,0.0,0.0,0.0,0.0,0.0,0.0,0.0,nan,nan,nan,nan,nan,nan,0.0,4.025559,0.0,0.0,nan,0.0,0.0,0.09016227,0.0025074072,0.0025035853,0.0025024603,0.0,0.0,2.0913355,0.30188212,0.0
41120000,0.2641946,0.2644348,0.5700228,1.0890313,1.0917774,0.0,0.0,0.0,0.0,0.0,0.0,0.0,nan,nan,nan,nan,nan,nan,0.0,4.0255466,0.0,0.0,nan,0.0,0.0,0.09016227,0.0025078964,0.0025036053,0.0025025748,0.0,0.0,2.0912747,0.30197293,0.0
41320000,0.2641918,0.26418838,0.57006764,1.0891235,1.0917695,0.0,0.0,0.0,0.0,0.0,0.0,0.0,nan,nan,nan,nan,nan,nan,0.0,4.0255404,0.0,0.0,nan,0.0,0.0,0.09016227,0.0025084151,0.0025036181,0.0025026954,0.0,0.0,2.091164,0.30202022,0.0
41520000,0.2641302,0.26397273,0.5701131,1.0888194,1.091323,0.0,0.0,0.0,0.0,0.0,0.0,0.0,nan,nan,nan,nan,nan,nan,0.0,4.0255413,0.0,0.0,nan,0.0,0.0,0.09016227,0.0025089083,0.0025036202,0.0025027974,0.0,0.0,2.0912104,0.3020488,0.0
41720000,0.2641116,0.26388186,0.5701696,1.0889143,1.0912914,0.0,0.0,0.0,0.0,0.0,0.0,0.0,nan,nan,nan,nan,nan,nan,0.0,4.0255494,0.0,0.0,nan,0.0,0.0,0.09016227,0.0025093295,0.002503611,0.0025028673,0.0,0.0,2.0911455,0.30208454,0.0
41920000,0.26402432,0.2637921,0.5702225,1.0886265,1.090854,0.0,0.0,0.0,0.0,0.0,0.0,0.0,nan,nan,nan,nan,nan,nan,0.0,4.025565,0.0,0.0,nan,0.0,0.0,0.09016227,0.0025096003,0.0025035942,0.0025029134,0.0,0.0,2.0911489,0.30210415,0.0
42120000,0.2639912,0.26380762,0.5702843,1.0887502,1.0908481,0.0,0.0,0.0,0.0,0.0,0.0,0.0,nan,nan,nan,nan,nan,nan,0.0,4.0255876,0.0,0.0,nan,0.0,0.0,0.09016227,0.0025097807,0.0025035832,0.0025029439,0.0,0.0,2.0911796,0.30210856,0.0
42320000,0.2638842,0.26379296,0.57033795,1.0884804,1.0904503,0.0,0.0,0.0,0.0,0.0,0.0,0.0,nan,nan,nan,nan,nan,nan,0.0,4.0256166,0.0,0.0,nan,0.0,0.0,0.09016227,0.0025098766,0.0025035688,0.0025029592,0.0,0.0,2.0912244,0.30210456,0.0
42520000,0.2638342,0.26386887,0.5703962,1.0886201,1.0904886,0.0,0.0,0.0,0.0,0.0,0.0,0.0,nan,nan,nan,nan,nan,nan,0.0,4.025651,0.0,0.0,nan,0.0,0.0,0.09016227,0.002509861,0.0025035578,0.0025029539,0.0,0.0,2.0912054,0.3021075,0.0
42720000,0.26373997,0.26390973,0.5704435,1.0883758,1.0901427,0.0,0.0,0.0,0.0,0.0,0.0,0.0,nan,nan,nan,nan,nan,nan,0.0,4.02569,0.0,0.0,nan,0.0,0.0,0.09016227,0.0025097984,0.002503555,0.0025029448,0.0,0.0,2.0913274,0.30209774,0.0
42920000,0.2637157,0.26403302,0.5704934,1.0885297,1.0902332,0.0,0.0,0.0,0.0,0.0,0.0,0.0,nan,nan,nan,nan,nan,nan,0.0,4.025732,0.0,0.0,nan,0.0,0.0,0.09016227,0.0025096652,0.0025035532,0.0025029227,0.0,0.0,2.0912929,0.30207255,0.0
43120000,0.2636585,0.26410657,0.57053125,1.0882967,1.0899386,0.0,0.0,0.0,0.0,0.0,0.0,0.0,nan,nan,nan,nan,nan,nan,0.0,4.0257764,0.0,0.0,nan,0.0,0.0,0.09016227,0.0025095078,0.0025035501,0.0025028964,0.0,0.0,2.091302,0.3020669,0.0
43320000,0.26367065,0.26424402,0.5705686,1.0884604,1.0900795,0.0,0.0,0.0,0.0,0.0,0.0,0.0,nan,nan,nan,nan,nan,nan,0.0,4.0258207,0.0,0.0,nan,0.0,0.0,0.09016227,0.0025093306,0.0025035518,0.0025028684,0.0,0.0,2.091343,0.30205128,0.0
43520000,0.2636452,0.26432645,0.57059264,1.0882286,1.0898281,0.0,0.0,0.0,0.0,0.0,0.0,0.0,nan,nan,nan,nan,nan,nan,0.0,4.0258646,0.0,0.0,nan,0.0,0.0,0.09016227,0.0025091523,0.0025035508,0.002502838,0.0,0.0,2.0914068,0.30201656,0.0
43720000,0.26369843,0.26447076,0.57061577,1.088398,1.0900102,0.0,0.0,0.0,0.0,0.0,0.0,0.0,nan,nan,nan,nan,nan,nan,0.0,4.0259056,0.0,0.0,nan,0.0,0.0,0.09016227,0.0025089553,0.0025035562,0.0025028083,0.0,0.0,2.0913882,0.30200624,0.0
43920000,0.26371983,0.26455367,0.57062775,1.0881792,1.0897946,0.0,0.0,0.0,0.0,0.0,0.0,0.0,nan,nan,nan,nan,nan,nan,0.0,4.0259447,0.0,0.0,nan,0.0,0.0,0.09016227,0.002508774,0.0025035574,0.002502779,0.0,0.0,2.0913887,0.3019889,0.0
44120000,0.26381174,0.26469854,0.57063764,1.0883571,1.090009,0.0,0.0,0.0,0.0,0.0,0.0,0.0,nan,nan,nan,nan,nan,nan,0.0,4.0259795,0.0,0.0,nan,0.0,0.0,0.09016227,0.0025085793,0.002503563,0.0025027478,0.0,0.0,2.0914214,0.30195296,0.0
44320000,0.26385817,0.2647782,0.5706365,1.088141,1.0898182,0.0,0.0,0.0,0.0,0.0,0.0,0.0,nan,nan,nan,nan,nan,nan,0.0,4.02601,0.0,0.0,nan,0.0,0.0,0.09016227,0.0025084096,0.0025035632,0.0025027187,0.0,0.0,2.091375,0.3019415,0.0
44520000,0.2639801,0.2649171,0.5706354,1.0883299,1.0900577,0.0,0.0,0.0,0.0,0.0,0.0,0.0,nan,nan,nan,nan,nan,nan,0.0,4.0260353,0.0,0.0,nan,0.0,0.0,0.09016227,0.0025082296,0.0025035674,0.002502687,0.0,0.0,2.0914164,0.30192375,0.0
44720000,0.26405078,0.26498196,0.5706249,1.0881333,1.089888,0.0,0.0,0.0,0.0,0.0,0.0,0.0,nan,nan,nan,nan,nan,nan,0.0,4.026056,0.0,0.0,nan,0.0,0.0,0.09016227,0.002508089,0.002503564,0.002502662,0.0,0.0,2.0913966,0.30190596,0.0
44920000,0.26418695,0.26511297,0.57061684,1.088337,1.0901448,0.0,0.0,0.0,0.0,0.0,0.0,0.0,nan,nan,nan,nan,nan,nan,0.0,4.0260706,0.0,0.0,nan,0.0,0.0,0.09016227,0.0025079704,0.0025036274,0.0025026472,0.0,0.0,2.091341,0.30187812,0.0
45120000,0.26427105,0.26517496,0.57060146,1.0881555,1.0899875,0.0,0.0,0.0,0.0,0.0,0.0,0.0,nan,nan,nan,nan,nan,nan,0.0,4.0260806,0.0,0.0,nan,0.0,0.0,0.09016227,0.0025078019,0.0025035618,0.0025026014,0.0,0.0,2.0913413,0.3018622,0.0
45320000,0.2644086,0.26528925,0.57058936,1.0883778,1.0902582,0.0,0.0,0.0,0.0,0.0,0.0,0.0,nan,nan,nan,nan,nan,nan,0.0,4.0260854,0.0,0.0,nan,0.0,0.0,0.09016227,0.0025077004,0.0025036193,0.0025025858,0.0,0.0,2.092405,0.30184788,0.0
45520000,0.26447788,0.26532838,0.57057077,1.0882062,1.0901074,0.0,0.0,0.0,0.0,0.0,0.0,0.0,nan,nan,nan,nan,nan,nan,0.0,4.0260863,0.0,0.0,nan,0.0,0.0,0.09016227,0.0025075779,0.0025036163,0.002502555,0.0,0.0,2.0913436,0.30182472,0.0
45720000,0.26447788,0.26532838,0.57057077,1.0882062,1.0901074,0.0,0.0,0.0,0.0,0.0,0.0,0.0,nan,nan,nan,nan,nan,nan,0.0,4.02631,0.0,0.0,nan,0.0,0.0,0.09016227,0.002507476,0.0025036042,0.002502526,0.0,0.0,2.092389,0.30181012,0.0
45920000,0.2646048,0.26542318,0.57055503,1.0884459,1.0903846,0.0,0.0,0.0,0.0,0.0,0.0,0.0,nan,nan,nan,nan,nan,nan,0.0,4.0263023,0.0,0.0,nan,0.0,0.0,0.09016227,0.0025073886,0.0025035976,0.002502497,0.0,0.0,2.0924213,0.30179775,0.0
46120000,0.26466185,0.26544377,0.5705364,1.0882956,1.0902374,0.0,0.0,0.0,0.0,0.0,0.0,0.0,nan,nan,nan,nan,nan,nan,0.0,4.0262923,0.0,0.0,nan,0.0,0.0,0.09016227,0.002507292,0.0025035879,0.0025024635,0.0,0.0,2.0923486,0.3017777,0.0
46320000,0.26477483,0.26552996,0.5705216,1.0885502,1.0905156,0.0,0.0,0.0,0.0,0.0,0.0,0.0,nan,nan,nan,nan,nan,nan,0.0,4.026279,0.0,0.0,nan,0.0,0.0,0.09016227,0.0025072254,0.0025035732,0.002502429,0.0,0.0,2.092396,0.30176643,0.0
46520000,0.26481125,0.26553836,0.570504,1.0884107,1.0903667,0.0,0.0,0.0,0.0,0.0,0.0,0.0,nan,nan,nan,nan,nan,nan,0.0,4.0262647,0.0,0.0,nan,0.0,0.0,0.09016227,0.0025071695,0.0025035604,0.002502399,0.0,0.0,2.092349,0.3017554,0.0
46720000,0.2649052,0.26560906,0.5704906,1.0886841,1.0906461,0.0,0.0,0.0,0.0,0.0,0.0,0.0,nan,nan,nan,nan,nan,nan,0.0,4.0262485,0.0,0.0,nan,0.0,0.0,0.09016227,0.0025070838,0.002503546,0.0025023634,0.0,0.0,2.0924125,0.30173975,0.0
46920000,0.2649208,0.26560554,0.5704751,1.0885507,1.0904939,0.0,0.0,0.0,0.0,0.0,0.0,0.0,nan,nan,nan,nan,nan,nan,0.0,4.0262313,0.0,0.0,nan,0.0,0.0,0.09016227,0.0025070203,0.0025035257,0.002502331,0.0,0.0,2.0922458,0.301731,0.0
47120000,0.26498318,0.26566014,0.570464,1.0888224,1.0907687,0.0,0.0,0.0,0.0,0.0,0.0,0.0,nan,nan,nan,nan,nan,nan,0.0,4.0262136,0.0,0.0,nan,0.0,0.0,0.09016227,0.002506954,0.0025035113,0.002502298,0.0,0.0,2.0923383,0.30172154,0.0
47320000,0.26496547,0.26563454,0.5704501,1.088682,1.0906094,0.0,0.0,0.0,0.0,0.0,0.0,0.0,nan,nan,nan,nan,nan,nan,0.0,4.026196,0.0,0.0,nan,0.0,0.0,0.09016227,0.002506899,0.0025034999,0.0025022754,0.0,0.0,2.0922606,0.30170774,0.0
47520000,0.2650099,0.26567563,0.5704408,1.0889537,1.0908784,0.0,0.0,0.0,0.0,0.0,0.0,0.0,nan,nan,nan,nan,nan,nan,0.0,4.0261774,0.0,0.0,nan,0.0,0.0,0.09016227,0.0025068414,0.002503499,0.0025022593,0.0,0.0,2.0922651,0.3016992,0.0
47720000,0.26498556,0.26564294,0.57042867,1.0888177,1.0907129,0.0,0.0,0.0,0.0,0.0,0.0,0.0,nan,nan,nan,nan,nan,nan,0.0,4.02616,0.0,0.0,nan,0.0,0.0,0.09016227,0.002506792,0.0025034882,0.002502241,0.0,0.0,2.0921776,0.30169043,0.0
47920000,0.26501092,0.26566926,0.5704216,1.0890852,1.0909747,0.0,0.0,0.0,0.0,0.0,0.0,0.0,nan,nan,nan,nan,nan,nan,0.0,4.026142,0.0,0.0,nan,0.0,0.0,0.09016227,0.0025067455,0.0025034794,0.0025022165,0.0,0.0,2.0921826,0.3016789,0.0
48120000,0.26496106,0.26561916,0.57041156,1.0889338,1.0907975,0.0,0.0,0.0,0.0,0.0,0.0,0.0,nan,nan,nan,nan,nan,nan,0.0,4.0261254,0.0,0.0,nan,0.0,0.0,0.09016227,0.002506705,0.0025034614,0.0025021906,0.0,0.0,2.092079,0.3016707,0.0
48320000,0.26497766,0.26563868,0.57040626,1.0891931,1.0910484,0.0,0.0,0.0,0.0,0.0,0.0,0.0,nan,nan,nan,nan,nan,nan,0.0,4.0261087,0.0,0.0,nan,0.0,0.0,0.09016227,0.0025066652,0.0025034472,0.0025021618,0.0,0.0,2.0920575,0.30166197,0.0
48520000,0.2649297,0.26558968,0.57039773,1.0890402,1.0908623,0.0,0.0,0.0,0.0,0.0,0.0,0.0,nan,nan,nan,nan,nan,nan,0.0,4.026093,0.0,0.0,nan,0.0,0.0,0.09016227,0.0025066172,0.0025034295,0.002502129,0.0,0.0,2.091991,0.30165368,0.0
48720000,0.26493546,0.265608,0.57039434,1.0892899,1.091103,0.0,0.0,0.0,0.0,0.0,0.0,0.0,nan,nan,nan,nan,nan,nan,0.0,4.026078,0.0,0.0,nan,0.0,0.0,0.09016227,0.002506574,0.0025034086,0.002502099,0.0,0.0,2.0920506,0.30164325,0.0
48920000,0.26487774,0.26555634,0.57038766,1.0891261,1.090908,0.0,0.0,0.0,0.0,0.0,0.0,0.0,nan,nan,nan,nan,nan,nan,0.0,4.0260644,0.0,0.0,nan,0.0,0.0,0.09016227,0.0025065346,0.00250339,0.0025020698,0.0,0.0,2.0919242,0.3016361,0.0
49120000,0.2648745,0.2655722,0.57038575,1.0893649,1.0911405,0.0,0.0,0.0,0.0,0.0,0.0,0.0,nan,nan,nan,nan,nan,nan,0.0,4.0260515,0.0,0.0,nan,0.0,0.0,0.09016227,0.002506486,0.0025033697,0.0025020433,0.0,0.0,2.0919287,0.30163437,0.0
49320000,0.2648026,0.2655156,0.5703801,1.0891814,1.0909363,0.0,0.0,0.0,0.0,0.0,0.0,0.0,nan,nan,nan,nan,nan,nan,0.0,4.0260396,0.0,0.0,nan,0.0,0.0,0.09016227,0.002506443,0.0025033555,0.002502019,0.0,0.0,2.091831,0.3016207,0.0
49520000,0.26479742,0.2655317,0.5703791,1.0894079,1.091162,0.0,0.0,0.0,0.0,0.0,0.0,0.0,nan,nan,nan,nan,nan,nan,0.0,4.026028,0.0,0.0,nan,0.0,0.0,0.09016227,0.0025064077,0.0025033376,0.002501996,0.0,0.0,2.0917888,0.3016146,0.0
49720000,0.26474118,0.26549163,0.5703742,1.089221,1.0909537,0.0,0.0,0.0,0.0,0.0,0.0,0.0,nan,nan,nan,nan,nan,nan,0.0,4.0260177,0.0,0.0,nan,0.0,0.0,0.09016227,0.0025063718,0.0025033262,0.0025019783,0.0,0.0,2.0917642,0.30161375,0.0
49920000,0.26473618,0.2655088,0.5703737,1.0894369,1.0911753,0.0,0.0,0.0,0.0,0.0,0.0,0.0,nan,nan,nan,nan,nan,nan,0.0,4.0260077,0.0,0.0,nan,0.0,0.0,0.09016227,0.0025063267,0.0025033155,0.0025019594,0.0,0.0,2.0916579,0.30160108,0.0
50120000,0.26467478,0.26546305,0.57036936,1.0892402,1.0909634,0.0,0.0,0.0,0.0,0.0,0.0,0.0,nan,nan,nan,nan,nan,nan,0.0,4.0259986,0.0,0.0,nan,0.0,0.0,0.09016227,0.002506291,0.0025033015,0.0025019431,0.0,0.0,2.0916424,0.30159545,0.0
50320000,0.26467043,0.26548213,0.5703694,1.0894463,1.091181,0.0,0.0,0.0,0.0,0.0,0.0,0.0,nan,nan,nan,nan,nan,nan,0.0,4.0259895,0.0,0.0,nan,0.0,0.0,0.09016227,0.0025062456,0.0025032936,0.0025019275,0.0,0.0,2.0916703,0.30159494,0.0
50520000,0.2646023,0.26543278,0.57036537,1.0892328,1.0909631,0.0,0.0,0.0,0.0,0.0,0.0,0.0,nan,nan,nan,nan,nan,nan,0.0,4.0259814,0.0,0.0,nan,0.0,0.0,0.09016227,0.0025062237,0.0025032803,0.0025019157,0.0,0.0,2.0915468,0.3015829,0.0
50720000,0.26460236,0.26545766,0.5703657,1.0894296,1.0911766,0.0,0.0,0.0,0.0,0.0,0.0,0.0,nan,nan,nan,nan,nan,nan,0.0,4.025974,0.0,0.0,nan,0.0,0.0,0.09016227,0.0025062,0.0025032728,0.002501903,0.0,0.0,2.0915556,0.30157632,0.0
50920000,0.26454398,0.2654139,0.5703619,1.089217,1.0909585,0.0,0.0,0.0,0.0,0.0,0.0,0.0,nan,nan,nan,nan,nan,nan,0.0,4.0259666,0.0,0.0,nan,0.0,0.0,0.09016227,0.002506169,0.0025032605,0.0025018912,0.0,0.0,2.0914538,0.30157623,0.0
51120000,0.26454392,0.2654371,0.5703625,1.0894067,1.0911698,0.0,0.0,0.0,0.0,0.0,0.0,0.0,nan,nan,nan,nan,nan,nan,0.0,4.025959,0.0,0.0,nan,0.0,0.0,0.09016227,0.0025061436,0.002503256,0.0025018808,0.0,0.0,2.0914528,0.3015631,0.0
51320000,0.2644869,0.26539662,0.570359,1.0891804,1.0909474,0.0,0.0,0.0,0.0,0.0,0.0,0.0,nan,nan,nan,nan,nan,nan,0.0,4.0259523,0.0,0.0,nan,0.0,0.0,0.09016227,0.002506118,0.002503246,0.0025018689,0.0,0.0,2.0913727,0.30155632,0.0
51520000,0.26449597,0.2654272,0.5703598,1.089365,1.0911571,0.0,0.0,0.0,0.0,0.0,0.0,0.0,nan,nan,nan,nan,nan,nan,0.0,4.0259457,0.0,0.0,nan,0.0,0.0,0.09016227,0.0025060938,0.0025032402,0.0025018584,0.0,0.0,2.0913298,0.30155665,0.0
51720000,0.26445103,0.2653947,0.5703565,1.0891436,1.0909363,0.0,0.0,0.0,0.0,0.0,0.0,0.0,nan,nan,nan,nan,nan,nan,0.0,4.0259395,0.0,0.0,nan,0.0,0.0,0.09016227,0.002506066,0.0025032312,0.0025018477,0.0,0.0,2.0912762,0.3015452,0.0
51920000,0.26446262,0.2654274,0.5703575,1.0893254,1.0911459,0.0,0.0,0.0,0.0,0.0,0.0,0.0,nan,nan,nan,nan,nan,nan,0.0,4.0259333,0.0,0.0,nan,0.0,0.0,0.09016227,0.0025060396,0.0025032256,0.0025018372,0.0,0.0,2.0912561,0.3015397,0.0
52120000,0.2644085,0.26538745,0.5703543,1.0890945,1.0909234,0.0,0.0,0.0,0.0,0.0,0.0,0.0,nan,nan,nan,nan,nan,nan,0.0,4.0259275,0.0,0.0,nan,0.0,0.0,0.09016227,0.0025060084,0.0025032165,0.0025018277,0.0,0.0,2.0912352,0.30154073,0.0
52320000,0.26442033,0.26541537,0.57035536,1.0892738,1.0911325,0.0,0.0,0.0,0.0,0.0,0.0,0.0,nan,nan,nan,nan,nan,nan,0.0,4.0259213,0.0,0.0,nan,0.0,0.0,0.09016227,0.0025059886,0.0025032128,0.002501819,0.0,0.0,2.091192,0.30153453,0.0
52520000,0.2643772,0.26537937,0.5703523,1.0890496,1.0909117,0.0,0.0,0.0,0.0,0.0,0.0,0.0,nan,nan,nan,nan,nan,nan,0.0,4.025916,0.0,0.0,nan,0.0,0.0,0.09016227,0.0025059683,0.0025032037,0.0025018114,0.0,0.0,2.091135,0.30152258,0.0
52720000,0.2643915,0.2654088,0.57035357,1.0892277,1.0911208,0.0,0.0,0.0,0.0,0.0,0.0,0.0,nan,nan,nan,nan,nan,nan,0.0,4.0259104,0.0,0.0,nan,0.0,0.0,0.09016227,0.002505952,0.0025032,0.002501804,0.0,0.0,2.091157,0.30152348,0.0
52920000,0.26434842,0.26537102,0.57035065,1.0889951,1.0908976,0.0,0.0,0.0,0.0,0.0,0.0,0.0,nan,nan,nan,nan,nan,nan,0.0,4.025905,0.0,0.0,nan,0.0,0.0,0.09016227,0.0025059322,0.0025031918,0.0025017941,0.0,0.0,2.091094,0.30151784,0.0
53120000,0.26437128,0.2654094,0.57035214,1.0891733,1.0911064,0.0,0.0,0.0,0.0,0.0,0.0,0.0,nan,nan,nan,nan,nan,nan,0.0,4.0258994,0.0,0.0,nan,0.0,0.0,0.09016227,0.0025059097,0.002503189,0.0025017862,0.0,0.0,2.0911076,0.30150622,0.0
53320000,0.26433778,0.2653741,0.57034934,1.0889508,1.090887,0.0,0.0,0.0,0.0,0.0,0.0,0.0,nan,nan,nan,nan,nan,nan,0.0,4.025894,0.0,0.0,nan,0.0,0.0,0.09016227,0.002505905,0.0025031846,0.0025017802,0.0,0.0,2.0910318,0.30150768,0.0
53520000,0.2643584,0.26540378,0.57035094,1.0891302,1.0910968,0.0,0.0,0.0,0.0,0.0,0.0,0.0,nan,nan,nan,nan,nan,nan,0.0,4.025889,0.0,0.0,nan,0.0,0.0,0.09016227,0.0025058843,0.002503176,0.0025017734,0.0,0.0,2.0909653,0.3015021,0.0
53720000,0.26432332,0.26536825,0.57034844,1.0889093,1.0908773,0.0,0.0,0.0,0.0,0.0,0.0,0.0,nan,nan,nan,nan,nan,nan,0.0,4.0258837,0.0,0.0,nan,0.0,0.0,0.09016227,0.0025058815,0.002503173,0.0025017676,0.0,0.0,2.0909164,0.30149063,0.0
53920000,0.264349,0.26540446,0.5703503,1.0890899,1.0910873,0.0,0.0,0.0,0.0,0.0,0.0,0.0,nan,nan,nan,nan,nan,nan,0.0,4.0258784,0.0,0.0,nan,0.0,0.0,0.09016227,0.0025058633,0.0025031695,0.0025017597,0.0,0.0,2.0909226,0.3014927,0.0
54120000,0.26431772,0.26537108,0.5703479,1.0888711,1.0908687,0.0,0.0,0.0,0.0,0.0,0.0,0.0,nan,nan,nan,nan,nan,nan,0.0,4.0258737,0.0,0.0,nan,0.0,0.0,0.09016227,0.0025058452,0.0025031609,0.002501752,0.0,0.0,2.0908716,0.30148697,0.0
54320000,0.2643439,0.26540315,0.5703499,1.0890539,1.0910797,0.0,0.0,0.0,0.0,0.0,0.0,0.0,nan,nan,nan,nan,nan,nan,0.0,4.0258684,0.0,0.0,nan,0.0,0.0,0.09016227,0.0025058326,0.0025031564,0.0025017455,0.0,0.0,2.090888,0.3014766,0.0
54520000,0.26431462,0.26536882,0.57034767,1.0888373,1.0908619,0.0,0.0,0.0,0.0,0.0,0.0,0.0,nan,nan,nan,nan,nan,nan,0.0,4.0258636,0.0,0.0,nan,0.0,0.0,0.09016227,0.0025058207,0.0025031527,0.0025017404,0.0,0.0,2.0908093,0.30147877,0.0
54720000,0.26433727,0.26539722,0.5703499,1.0890223,1.0910736,0.0,0.0,0.0,0.0,0.0,0.0,0.0,nan,nan,nan,nan,nan,nan,0.0,4.025859,0.0,0.0,nan,0.0,0.0,0.09016227,0.002505809,0.0025031436,0.0025017343,0.0,0.0,2.0908203,0.30147323,0.0
54920000,0.26430094,0.26536,0.57034785,1.0887995,1.0908537,0.0,0.0,0.0,0.0,0.0,0.0,0.0,nan,nan,nan,nan,nan,nan,0.0,4.025854,0.0,0.0,nan,0.0,0.0,0.09016227,0.0025057981,0.00250314,0.0025017273,0.0,0.0,2.0907059,0.30146164,0.0
55120000,0.26432803,0.2653891,0.57035017,1.0889862,1.0910653,0.0,0.0,0.0,0.0,0.0,0.0,0.0,nan,nan,nan,nan,nan,nan,0.0,4.02585,0.0,0.0,nan,0.0,0.0,0.09016227,0.0025058156,0.0025031997,0.0025017376,0.0,0.0,2.090711,0.30146348,0.0
55320000,0.26430038,0.2653541,0.57034826,1.0887741,1.0908478,0.0,0.0,0.0,0.0,0.0,0.0,0.0,nan,nan,nan,nan,nan,nan,0.0,4.025845,0.0,0.0,nan,0.0,0.0,0.09016227,0.0025057802,0.0025031276,0.0025017157,0.0,0.0,2.0906508,0.30145776,0.0
55520000,0.26432735,0.2653842,0.5703507,1.0889629,1.0910594,0.0,0.0,0.0,0.0,0.0,0.0,0.0,nan,nan,nan,nan,nan,nan,0.0,4.0258408,0.0,0.0,nan,0.0,0.0,0.09016227,0.0025057986,0.0025031888,0.0025017262,0.0,0.0,2.0906942,0.30144674,0.0
55720000,0.2642913,0.26534605,0.5703489,1.0887448,1.09084,0.0,0.0,0.0,0.0,0.0,0.0,0.0,nan,nan,nan,nan,nan,nan,0.0,4.0258365,0.0,0.0,nan,0.0,0.0,0.09016227,0.0025057911,0.0025031844,0.0025017213,0.0,0.0,2.0918658,0.3014486,0.0
55920000,0.2642913,0.26534605,0.5703489,1.0887448,1.09084,0.0,0.0,0.0,0.0,0.0,0.0,0.0,nan,nan,nan,nan,nan,nan,0.0,4.026048,0.0,0.0,nan,0.0,0.0,0.09016227,0.0025057814,0.002503176,0.0025017147,0.0,0.0,2.0918477,0.30144292,0.0
56120000,0.26431912,0.2653731,0.5703514,1.0889354,1.0910517,0.0,0.0,0.0,0.0,0.0,0.0,0.0,nan,nan,nan,nan,nan,nan,0.0,4.026044,0.0,0.0,nan,0.0,0.0,0.09016227,0.0025057697,0.0025031732,0.002501709,0.0,0.0,2.091758,0.30143765,0.0
56320000,0.26429242,0.26533824,0.5703497,1.0887275,1.0908344,0.0,0.0,0.0,0.0,0.0,0.0,0.0,nan,nan,nan,nan,nan,nan,0.0,4.02604,0.0,0.0,nan,0.0,0.0,0.09016227,0.0025057602,0.0025031655,0.0025017045,0.0,0.0,2.091811,0.30143362,0.0
