timestamp,baro_alt_meter,baro_temp_celcius,baro_pressure_pa,rho
180000,488.06995,11.828796,95598.414,1.1358674
188000,488.24835,11.828796,95596.35,1.1358428
192000,488.19202,11.828796,95597.03,1.1358509
200000,488.25305,11.828796,95596.3,1.1358422
208000,488.28592,11.828796,95595.914,1.1358376
212000,488.46902,11.828796,95593.836,1.1358129
216000,488.23898,11.828796,95596.45,1.135844
220000,488.23898,11.828796,95596.45,1.135844
224000,488.19202,11.828796,95596.99,1.1358504
228000,488.45493,11.828796,95594.0,1.1358149
232000,488.29062,11.828796,95595.84,1.1358367
236000,488.03708,11.828796,95598.78,1.1358716
240000,488.26245,11.828796,95596.18,1.1358408
244000,488.1075,11.828796,95597.945,1.1358618
252000,488.14508,11.828796,95597.53,1.1358569
260000,488.24835,11.828796,95596.33,1.1358426
264000,488.19202,11.828796,95596.99,1.1358504
272000,488.13568,11.828796,95597.64,1.135858
276000,488.1122,11.828796,95597.92,1.1358614
280000,488.20612,11.828796,95596.805,1.1358482
284000,488.21548,11.828796,95596.72,1.1358472
288000,488.23428,11.828796,95596.52,1.1358448
292000,488.3235,11.828796,95595.51,1.1358328
296000,488.20142,11.828796,95596.86,1.1358489
300000,488.1169,11.828796,95597.86,1.1358607
304000,488.0934,11.828796,95598.13,1.135864
308000,488.20612,11.828796,95596.8,1.135848
312000,488.14508,11.828796,95597.52,1.1358567
316000,488.21548,11.828796,95596.74,1.1358474
320000,488.13098,11.828796,95597.67,1.1358585
324000,488.13098,11.828796,95597.67,1.1358585
328000,488.23428,11.828796,95596.5,1.1358446
332000,488.23428,11.828796,95596.5,1.1358446
336000,488.3047,11.828796,95595.72,1.1358353
340000,488.13098,11.828796,95597.695,1.1358588
344000,488.13098,11.828796,95597.695,1.1358588
348000,488.27652,11.828796,95596.01,1.1358387
352000,488.17795,11.828796,95597.13,1.1358521
356000,488.25305,11.828796,95596.29,1.1358421
360000,488.25305,11.828796,95596.29,1.1358421
364000,488.15915,11.828796,95597.39,1.1358552
368000,488.34225,11.828796,95595.3,1.1358303
372000,488.29532,11.828796,95595.8,1.1358362
376000,488.25775,11.828796,95596.234,1.1358414
380000,488.23428,11.828796,95596.54,1.1358451
384000,488.18262,11.828796,95597.086,1.1358515
388000,488.23898,11.828796,95596.47,1.1358442
392000,488.14508,11.828796,95597.53,1.1358569
396000,488.3141,11.828796,95595.6,1.1358339
400000,488.3141,11.828796,95595.6,1.1358339
404000,488.22018,11.828796,95596.695,1.1358469
408000,488.22018,11.828796,95596.695,1.1358469
412000,488.25305,11.828796,95596.3,1.1358422
416000,488.26715,11.828796,95596.125,1.13584
420000,488.3094,11.828796,95595.62,1.1358341
424000,488.38922,11.828796,95594.73,1.1358235
428000,488.22018,11.828796,95596.664,1.1358465
432000,488.13098,11.828796,95597.695,1.1358588
436000,488.13098,11.828796,95597.71,1.1358589
440000,488.35165,11.828796,95595.125,1.1358283
444000,488.28592,11.828796,95595.914,1.1358376
448000,488.14975,11.828796,95597.47,1.135856
452000,488.23428,11.828796,95596.49,1.1358445
456000,488.23898,11.828796,95596.47,1.1358442
460000,488.3094,11.828796,95595.67,1.1358347
464000,488.38922,11.828796,95594.74,1.1358237
468000,488.20142,11.828796,95596.914,1.1358495
472000,488.1122,11.828796,95597.92,1.1358614
476000,488.24835,11.828796,95596.34,1.1358427
480000,488.3188,11.828796,95595.56,1.1358334
484000,488.3188,11.828796,95595.56,1.1358334
488000,488.29532,11.828796,95595.81,1.1358364
492000,488.3047,11.828796,95595.69,1.1358349
496000,488.24835,11.828796,95596.33,1.1358426
500000,488.24835,11.828796,95596.33,1.1358426
504000,488.19672,11.828796,95596.945,1.1358498
508000,488.26245,11.828796,95596.21,1.1358411
512000,488.4033,11.828796,95594.57,1.1358216
516000,488.24835,11.828796,95596.36,1.1358429
520000,488.20142,11.828796,95596.89,1.1358492
524000,488.15445,11.828796,95597.414,1.1358554
528000,488.3141,11.828796,95595.6,1.1358339
532000,488.27652,11.828796,95596.04,1.1358391
536000,488.0934,11.828796,95598.13,1.135864
540000,488.30002,11.828796,95595.734,1.1358354
544000,488.05118,11.828796,95598.63,1.1358699
548000,488.05118,11.828796,95598.63,1.1358699
552000,488.25775,11.828796,95596.24,1.1358415
556000,488.25775,11.828796,95596.24,1.1358415
560000,488.3188,11.828796,95595.55,1.1358333
564000,488.3094,11.828796,95595.65,1.1358345
568000,488.13098,11.828796,95597.73,1.1358591
572000,488.13098,11.828796,95597.73,1.1358591
576000,488.28592,11.828796,95595.88,1.1358372
580000,488.20142,11.828796,95596.86,1.1358489
584000,488.20142,11.828796,95596.86,1.1358489
588000,488.20142,11.828796,95596.86,1.1358489
592000,488.0183,11.828796,95598.98,1.135874
596000,488.26245,11.828796,95596.22,1.1358413
600000,488.24835,11.828796,95596.33,1.1358426
604000,488.13568,11.828796,95597.64,1.135858
608000,488.13568,11.828796,95597.64,1.135858
612000,488.29062,11.828796,95595.84,1.1358367
616000,488.15915,11.828796,95597.38,1.1358551
620000,488.15915,11.828796,95597.38,1.1358551
624000,488.29062,11.828796,95595.87,1.1358371
628000,488.19202,11.828796,95596.99,1.1358504
632000,488.15915,11.828796,95597.375,1.135855
636000,488.37512,11.828796,95594.91,1.1358256
640000,488.17325,11.828796,95597.24,1.1358534
648000,488.23428,11.828796,95596.5,1.1358446
652000,488.29062,11.828796,95595.84,1.1358367
660000,488.23428,11.828796,95596.49,1.1358445
664000,488.3986,11.828796,95594.64,1.1358224
668000,488.21548,11.828796,95596.72,1.1358472
672000,488.2108,11.828796,95596.78,1.1358479
676000,488.3282,11.828796,95595.41,1.1358316
680000,488.24365,11.828796,95596.414,1.1358435
684000,488.13568,11.828796,95597.664,1.1358584
688000,488.13568,11.828796,95597.664,1.1358584
696000,488.37042,11.828796,95594.96,1.1358262
700000,488.07465,11.828796,95598.31,1.135866
704000,488.07465,11.828796,95598.31,1.135866
708000,488.2108,11.828796,95596.78,1.1358479
712000,488.2108,11.828796,95596.78,1.1358479
716000,488.22018,11.828796,95596.68,1.1358467
724000,488.23428,11.828796,95596.52,1.1358448
728000,488.43146,11.828796,95594.234,1.1358176
732000,488.0887,11.828796,95598.21,1.1358649
736000,488.0887,11.828796,95598.21,1.1358649
740000,488.26245,11.828796,95596.22,1.1358413
744000,488.26245,11.828796,95596.22,1.1358413
752000,488.13098,11.828796,95597.69,1.1358587
756000,488.22488,11.828796,95596.61,1.1358459
760000,488.28592,11.828796,95595.88,1.1358372
764000,488.0042,11.828796,95599.17,1.1358763
768000,488.0042,11.828796,95599.17,1.1358763
776000,488.12158,11.828796,95597.805,1.1358601
784000,488.05588,11.828796,95598.56,1.135869
788000,488.05588,11.828796,95598.56,1.135869
792000,488.16855,11.828796,95597.266,1.1358536
796000,488.14508,11.828796,95597.5,1.1358564
804000,488.15915,11.828796,95597.38,1.1358551
808000,488.0934,11.828796,95598.13,1.135864
812000,488.28592,11.828796,95595.94,1.1358379
816000,488.28592,11.828796,95595.94,1.1358379
820000,488.22488,11.828796,95596.61,1.1358459
824000,488.22488,11.828796,95596.61,1.1358459
832000,488.22018,11.828796,95596.695,1.1358469
836000,488.22018,11.828796,95596.695,1.1358469
844000,488.3047,11.828796,95595.69,1.1358349
848000,488.23898,11.828796,95596.45,1.135844
856000,488.19672,11.828796,95596.945,1.1358498
864000,488.3188,11.828796,95595.55,1.1358333
868000,488.26715,11.828796,95596.11,1.1358399
872000,488.21548,11.828796,95596.75,1.1358476
876000,488.21548,11.828796,95596.75,1.1358476
880000,488.20142,11.828796,95596.86,1.1358489
884000,488.23898,11.828796,95596.47,1.1358442
888000,488.29062,11.828796,95595.86,1.135837
892000,488.29062,11.828796,95595.86,1.135837
896000,488.19202,11.828796,95597.0,1.1358505
900000,488.19202,11.828796,95597.0,1.1358505
904000,488.23898,11.828796,95596.47,1.1358442
908000,488.3235,11.828796,95595.51,1.1358328
916000,488.22488,11.828796,95596.63,1.1358461
924000,488.1169,11.828796,95597.836,1.1358604
928000,488.34225,11.828796,95595.26,1.1358298
936000,488.3094,11.828796,95595.664,1.1358346
940000,488.0934,11.828796,95598.12,1.1358638
944000,488.25305,11.828796,95596.305,1.1358422
948000,488.25305,11.828796,95596.305,1.1358422
952000,488.27652,11.828796,95596.0,1.1358386
956000,488.27652,11.828796,95596.0,1.1358386
960000,488.30002,11.828796,95595.74,1.1358355
964000,488.30002,11.828796,95595.74,1.1358355
968000,488.24835,11.828796,95596.33,1.1358426
972000,488.4033,11.828796,95594.6,1.135822
976000,488.27652,11.828796,95596.0,1.1358386
980000,488.27652,11.828796,95596.0,1.1358386
984000,488.34225,11.828796,95595.3,1.1358303
988000,488.28592,11.828796,95595.914,1.1358376
992000,488.22958,11.828796,95596.57,1.1358454
996000,488.22958,11.828796,95596.57,1.1358454
1000000,488.20612,11.828796,95596.805,1.1358482
1004000,488.1075,11.828796,95597.96,1.1358619
1012000,488.23898,11.828796,95596.47,1.1358442
1016000,488.0887,11.828796,95598.164,1.1358644
1020000,488.0887,11.828796,95598.164,1.1358644
1028000,488.24835,11.828796,95596.35,1.1358428
1032000,488.24365,11.828796,95596.4,1.1358434
1036000,488.24835,11.828796,95596.35,1.1358428
1040000,488.37512,11.828796,95594.875,1.1358253
1044000,488.16385,11.828796,95597.28,1.1358539
1048000,488.28122,11.828796,95595.984,1.1358384
1052000,488.28122,11.828796,95595.984,1.1358384
1056000,488.13568,11.828796,95597.63,1.135858
1060000,488.13568,11.828796,95597.63,1.135858
1064000,488.21548,11.828796,95596.72,1.1358472
1068000,488.21548,11.828796,95596.72,1.1358472
1072000,488.28592,11.828796,95595.93,1.1358378
1076000,488.28592,11.828796,95595.93,1.1358378
1080000,488.14508,11.828796,95597.5,1.1358564
1084000,488.14508,11.828796,95597.5,1.1358564
1088000,488.34225,11.828796,95595.28,1.13583
1092000,488.34225,11.828796,95595.28,1.13583
1096000,488.21548,11.828796,95596.72,1.1358472
1100000,488.25775,11.828796,95596.26,1.1358417
1104000,488.13098,11.828796,95597.73,1.1358591
1108000,488.13098,11.828796,95597.73,1.1358591
1112000,488.1169,11.828796,95597.836,1.1358604
1116000,488.14508,11.828796,95597.5,1.1358564
1120000,488.36105,11.828796,95595.05,1.1358273
1124000,488.33755,11.828796,95595.33,1.1358306
1128000,488.28592,11.828796,95595.94,1.1358379
1132000,488.28592,11.828796,95595.94,1.1358379
1136000,488.3094,11.828796,95595.625,1.1358342
1140000,488.3094,11.828796,95595.625,1.1358342
1144000,488.26245,11.828796,95596.22,1.1358413
1152000,488.15915,11.828796,95597.39,1.1358552
1156000,488.15915,11.828796,95597.39,1.1358552
1160000,488.26245,11.828796,95596.21,1.1358411
1164000,488.23428,11.828796,95596.52,1.1358448
1172000,488.19202,11.828796,95597.0,1.1358505
1176000,488.38452,11.828796,95594.766,1.135824
1180000,488.25775,11.828796,95596.24,1.1358415
1184000,488.23428,11.828796,95596.52,1.1358448
1188000,488.34225,11.828796,95595.3,1.1358303
1192000,488.36572,11.828796,95594.99,1.1358266
1196000,488.36572,11.828796,95594.99,1.1358266
1200000,488.28122,11.828796,95595.95,1.135838
1204000,488.20142,11.828796,95596.88,1.1358491
1208000,488.22958,11.828796,95596.57,1.1358454
1212000,488.13098,11.828796,95597.73,1.1358591
1216000,488.20142,11.828796,95596.86,1.1358489
1224000,488.19672,11.828796,95596.945,1.1358498
1228000,488.19672,11.828796,95596.945,1.1358498
1232000,488.12628,11.828796,95597.75,1.1358594
1236000,488.24365,11.828796,95596.4,1.1358434
1240000,488.19202,11.828796,95597.0,1.1358505
1244000,488.19202,11.828796,95597.0,1.1358505
1248000,488.19202,11.828796,95597.016,1.1358507
1252000,488.28592,11.828796,95595.9,1.1358374
1256000,488.38922,11.828796,95594.74,1.1358237
1260000,488.0934,11.828796,95598.1,1.1358635
1264000,488.3188,11.828796,95595.55,1.1358333
1268000,488.25775,11.828796,95596.24,1.1358415
1272000,488.3047,11.828796,95595.72,1.1358353
1276000,488.28122,11.828796,95595.984,1.1358384
1280000,488.22488,11.828796,95596.64,1.1358463
1284000,488.13568,11.828796,95597.63,1.135858
1288000,488.28592,11.828796,95595.91,1.1358376
1292000,488.22018,11.828796,95596.69,1.1358467
1296000,488.22018,11.828796,95596.69,1.1358467
1300000,488.3047,11.828796,95595.69,1.1358349
1304000,488.45493,11.828796,95594.01,1.1358149
1308000,488.17325,11.828796,95597.23,1.1358532
1312000,488.26715,11.828796,95596.13,1.1358402
1316000,488.3047,11.828796,95595.72,1.1358353
1320000,488.1169,11.828796,95597.85,1.1358606
1324000,488.17795,11.828796,95597.18,1.1358527
1328000,488.27652,11.828796,95596.04,1.1358391
1332000,488.33755,11.828796,95595.33,1.1358306
1336000,487.95258,11.828796,95599.75,1.1358832
1340000,488.19202,11.828796,95597.02,1.1358508
1344000,488.24365,11.828796,95596.38,1.1358432
1348000,488.28592,11.828796,95595.91,1.1358376
1352000,488.15445,11.828796,95597.414,1.1358554
1356000,488.2108,11.828796,95596.78,1.1358479
1360000,488.1122,11.828796,95597.88,1.135861
1364000,488.1122,11.828796,95597.88,1.135861
1368000,488.25775,11.828796,95596.26,1.1358417
1372000,488.13568,11.828796,95597.664,1.1358584
1376000,488.17795,11.828796,95597.17,1.1358526
1380000,488.17795,11.828796,95597.17,1.1358526
1384000,488.16385,11.828796,95597.3,1.135854
1388000,488.24835,11.828796,95596.36,1.1358429
1392000,488.25775,11.828796,95596.24,1.1358415
1396000,488.25775,11.828796,95596.24,1.1358415
1400000,488.17325,11.828796,95597.19,1.1358527
1404000,488.17325,11.828796,95597.19,1.1358527
1408000,488.3188,11.828796,95595.58,1.1358336
1412000,488.28122,11.828796,95595.95,1.135838
1416000,488.27652,11.828796,95596.04,1.1358391
1420000,488.27652,11.828796,95596.04,1.1358391
1424000,488.28122,11.828796,95595.97,1.1358383
1428000,487.9103,11.828796,95600.195,1.1358885
1432000,488.25775,11.828796,95596.27,1.1358418
1436000,488.15915,11.828796,95597.39,1.1358552
1440000,488.23428,11.828796,95596.52,1.1358448
1444000,488.23428,11.828796,95596.52,1.1358448
1452000,488.13568,11.828796,95597.625,1.1358579
1456000,488.24365,11.828796,95596.4,1.1358434
1460000,488.24365,11.828796,95596.4,1.1358434
1464000,488.13568,11.828796,95597.66,1.1358583
1468000,488.13568,11.828796,95597.66,1.1358583
1472000,488.0934,11.828796,95598.14,1.135864
1476000,488.0934,11.828796,95598.14,1.135864
1480000,488.1169,11.828796,95597.86,1.1358607
1484000,488.15445,11.828796,95597.42,1.1358556
1488000,488.24835,11.828796,95596.33,1.1358426
1492000,488.14038,11.828796,95597.56,1.1358572
1496000,488.15445,11.828796,95597.42,1.1358556
1500000,488.27652,11.828796,95596.0,1.1358386
1504000,488.36572,11.828796,95595.016,1.135827
1508000,488.36572,11.828796,95595.016,1.135827
1512000,488.07935,11.828796,95598.26,1.1358654
1516000,488.37042,11.828796,95594.94,1.135826
1520000,488.29062,11.828796,95595.83,1.1358366
1524000,488.29062,11.828796,95595.86,1.135837
1532000,488.29062,11.828796,95595.875,1.1358371
1536000,488.33755,11.828796,95595.33,1.1358306
1544000,488.34695,11.828796,95595.23,1.1358294
1548000,488.19202,11.828796,95597.03,1.1358509
1556000,488.17795,11.828796,95597.13,1.1358521
1560000,488.20612,11.828796,95596.805,1.1358482
1564000,488.23898,11.828796,95596.46,1.1358441
1568000,488.05118,11.828796,95598.62,1.1358697
1572000,488.15915,11.828796,95597.39,1.1358552
1576000,488.24365,11.828796,95596.414,1.1358435
1580000,488.16855,11.828796,95597.266,1.1358536
1584000,488.19202,11.828796,95596.984,1.1358503
1588000,488.19202,11.828796,95596.984,1.1358503
1592000,488.3047,11.828796,95595.69,1.1358349
1596000,488.19202,11.828796,95597.0,1.1358505
1604000,488.20612,11.828796,95596.82,1.1358484
1608000,488.2108,11.828796,95596.78,1.1358479
1612000,488.19672,11.828796,95596.96,1.1358501
1620000,488.15445,11.828796,95597.42,1.1358556
1624000,488.22488,11.828796,95596.625,1.135846
1628000,488.16855,11.828796,95597.266,1.1358536
1632000,488.19672,11.828796,95596.945,1.1358498
1636000,488.29062,11.828796,95595.86,1.135837
1640000,488.26715,11.828796,95596.125,1.13584
1644000,488.26715,11.828796,95596.125,1.13584
1648000,488.28592,11.828796,95595.88,1.1358372
1652000,488.2108,11.828796,95596.77,1.1358478
1656000,488.2108,11.828796,95596.77,1.1358478
1660000,488.27182,11.828796,95596.06,1.1358393
1664000,488.408,11.828796,95594.54,1.1358212
1668000,488.408,11.828796,95594.54,1.1358212
1672000,488.3282,11.828796,95595.44,1.135832
1676000,488.21548,11.828796,95596.74,1.1358474
1680000,488.30002,11.828796,95595.77,1.1358359
1684000,488.30002,11.828796,95595.77,1.1358359
1688000,488.21548,11.828796,95596.74,1.1358474
1692000,488.3188,11.828796,95595.58,1.1358336
1700000,488.06055,11.828796,95598.49,1.1358682
1704000,488.23898,11.828796,95596.484,1.1358443
1708000,488.23898,11.828796,95596.484,1.1358443
1712000,488.35165,11.828796,95595.13,1.1358283
1716000,488.13568,11.828796,95597.63,1.135858
1724000,488.38452,11.828796,95594.82,1.1358246
1728000,488.17325,11.828796,95597.23,1.1358532
1736000,488.35635,11.828796,95595.1,1.1358279
1740000,488.05118,11.828796,95598.62,1.1358697
1744000,488.13568,11.828796,95597.64,1.135858
1748000,488.20142,11.828796,95596.89,1.1358492
1752000,488.29062,11.828796,95595.83,1.1358366
1756000,488.29062,11.828796,95595.83,1.1358366
1760000,488.14975,11.828796,95597.46,1.135856
1764000,488.14975,11.828796,95597.46,1.135856
1768000,488.0934,11.828796,95598.14,1.135864
1772000,488.25775,11.828796,95596.26,1.1358417
1776000,488.06995,11.828796,95598.41,1.1358672
1780000,488.06995,11.828796,95598.41,1.1358672
1784000,488.0042,11.828796,95599.15,1.135876
1788000,488.27652,11.828796,95596.016,1.1358387
1796000,488.36572,11.828796,95595.016,1.135827
1800000,488.3047,11.828796,95595.7,1.135835
1804000,488.3047,11.828796,95595.7,1.135835
1808000,488.30002,11.828796,95595.76,1.1358358
1812000,488.22958,11.828796,95596.555,1.1358452
1816000,488.19672,11.828796,95596.945,1.1358498
1820000,488.19672,11.828796,95596.945,1.1358498
1824000,488.20612,11.828796,95596.836,1.1358485
1828000,488.28592,11.828796,95595.88,1.1358372
1832000,488.28592,11.828796,95595.914,1.1358376
1836000,488.16385,11.828796,95597.33,1.1358544
1840000,488.21548,11.828796,95596.72,1.1358472
1844000,488.1075,11.828796,95597.95,1.1358619
1848000,488.27652,11.828796,95596.055,1.1358392
1852000,488.27652,11.828796,95596.055,1.1358392
1856000,488.30002,11.828796,95595.74,1.1358355
1860000,488.26245,11.828796,95596.18,1.1358408
1864000,487.94318,11.828796,95599.875,1.1358846
1868000,488.22958,11.828796,95596.555,1.1358452
1872000,488.22958,11.828796,95596.555,1.1358452
1876000,488.06995,11.828796,95598.37,1.1358668
1880000,488.06995,11.828796,95598.37,1.1358668
1884000,488.13568,11.828796,95597.64,1.135858
1888000,488.0981,11.828796,95598.086,1.1358634
1896000,488.15915,11.828796,95597.36,1.1358547
1900000,488.15445,11.828796,95597.41,1.1358553
1904000,488.15445,11.828796,95597.41,1.1358553
1912000,488.21548,11.828796,95596.75,1.1358476
1916000,488.24835,11.828796,95596.35,1.1358428
1920000,487.95258,11.828796,95599.734,1.135883
1928000,488.28122,11.828796,95595.99,1.1358385
1932000,488.3094,11.828796,95595.66,1.1358346
1940000,488.25305,11.828796,95596.305,1.1358422
1944000,488.3282,11.828796,95595.44,1.135832
1948000,488.0981,11.828796,95598.03,1.1358627
1952000,488.29532,11.828796,95595.8,1.1358362
1956000,487.98074,11.828796,95599.4,1.135879
1960000,488.13098,11.828796,95597.72,1.135859
1964000,488.24835,11.828796,95596.35,1.1358428
1968000,488.0981,11.828796,95598.055,1.1358631
1972000,488.42676,11.828796,95594.31,1.1358186
1976000,488.23898,11.828796,95596.44,1.1358439
1980000,488.22488,11.828796,95596.61,1.1358459
1984000,488.22488,11.828796,95596.61,1.1358459
1988000,488.27652,11.828796,95596.05,1.1358392
1992000,488.23898,11.828796,95596.43,1.1358438
1996000,488.23898,11.828796,95596.43,1.1358438
2000000,488.17325,11.828796,95597.22,1.135853
2004000,488.1028,11.828796,95598.016,1.1358626
2008000,488.15915,11.828796,95597.39,1.1358552
2012000,488.15915,11.828796,95597.39,1.1358552
2016000,488.26715,11.828796,95596.11,1.1358399
2020000,488.26245,11.828796,95596.164,1.1358405
2024000,488.26245,11.828796,95596.164,1.1358405
2032000,488.26245,11.828796,95596.18,1.1358408
2036000,488.20142,11.828796,95596.914,1.1358495
2040000,488.16385,11.828796,95597.28,1.1358539
2044000,488.16385,11.828796,95597.28,1.1358539
2048000,488.15445,11.828796,95597.41,1.1358553
2052000,488.16385,11.828796,95597.28,1.1358539
2056000,488.3047,11.828796,95595.71,1.1358352
2060000,488.22488,11.828796,95596.64,1.1358463
2064000,488.14508,11.828796,95597.52,1.1358567
2068000,488.14508,11.828796,95597.52,1.1358567
2072000,488.23428,11.828796,95596.52,1.1358448
2076000,488.23428,11.828796,95596.52,1.1358448
2080000,488.20142,11.828796,95596.88,1.1358491
2084000,488.25775,11.828796,95596.27,1.1358418
2088000,488.25775,11.828796,95596.27,1.1358418
2092000,488.36105,11.828796,95595.08,1.1358277
2096000,488.21548,11.828796,95596.74,1.1358474
2100000,488.06055,11.828796,95598.47,1.135868
2104000,488.16385,11.828796,95597.33,1.1358544
2108000,488.0981,11.828796,95598.03,1.1358627
2112000,488.28122,11.828796,95595.984,1.1358384
2116000,488.23428,11.828796,95596.5,1.1358446
2120000,488.17325,11.828796,95597.21,1.135853
2124000,488.28592,11.828796,95595.94,1.1358379
2128000,488.33286,11.828796,95595.375,1.1358312
2132000,488.14508,11.828796,95597.52,1.1358567
2136000,488.29062,11.828796,95595.84,1.1358367
2140000,488.22018,11.828796,95596.695,1.1358469
2144000,488.16385,11.828796,95597.305,1.1358541
2148000,488.37042,11.828796,95594.92,1.1358258
2152000,488.3047,11.828796,95595.68,1.1358348
2156000,488.26245,11.828796,95596.164,1.1358405
2160000,488.13098,11.828796,95597.71,1.1358589
2164000,488.27652,11.828796,95596.0,1.1358386
2168000,488.22488,11.828796,95596.64,1.1358463
2172000,488.19202,11.828796,95597.02,1.1358508
2176000,488.22958,11.828796,95596.58,1.1358455
2180000,488.3094,11.828796,95595.62,1.1358341
2184000,488.28122,11.828796,95595.99,1.1358385
2188000,488.27182,11.828796,95596.06,1.1358393
2192000,488.20142,11.828796,95596.89,1.1358492
2196000,488.26715,11.828796,95596.11,1.1358399
2200000,488.20142,11.828796,95596.88,1.1358491
2204000,488.24365,11.828796,95596.414,1.1358435
2208000,488.37042,11.828796,95594.98,1.1358265
2212000,488.3282,11.828796,95595.45,1.1358321
2216000,488.27652,11.828796,95596.0,1.1358386
2220000,488.22018,11.828796,95596.664,1.1358465
2224000,488.12158,11.828796,95597.77,1.1358597
2228000,488.3047,11.828796,95595.69,1.1358349
2232000,488.3094,11.828796,95595.66,1.1358346
2236000,488.20612,11.828796,95596.83,1.1358484
2240000,488.30002,11.828796,95595.76,1.1358358
2244000,488.24365,11.828796,95596.39,1.1358433
2248000,488.24365,11.828796,95596.38,1.1358432
2252000,488.24365,11.828796,95596.38,1.1358432
2256000,488.25775,11.828796,95596.24,1.1358415
2260000,488.3282,11.828796,95595.4,1.1358315
2264000,488.28122,11.828796,95595.984,1.1358384
2268000,488.28122,11.828796,95595.984,1.1358384
2272000,488.28592,11.828796,95595.88,1.1358372
2276000,488.07935,11.828796,95598.26,1.1358654
2280000,488.23898,11.828796,95596.47,1.1358442
2284000,488.34225,11.828796,95595.26,1.1358298
2288000,488.22018,11.828796,95596.664,1.1358465
2292000,488.0934,11.828796,95598.1,1.1358635
2296000,488.15915,11.828796,95597.38,1.1358551
2300000,488.15915,11.828796,95597.38,1.1358551
2304000,488.30002,11.828796,95595.766,1.1358359
2308000,488.33755,11.828796,95595.33,1.1358306
2316000,488.20142,11.828796,95596.875,1.135849
2324000,488.27652,11.828796,95596.01,1.1358387
2328000,488.20142,11.828796,95596.86,1.1358489
2332000,488.16855,11.828796,95597.266,1.1358536
2336000,488.14975,11.828796,95597.47,1.135856
2340000,488.17795,11.828796,95597.164,1.1358525
2344000,488.34695,11.828796,95595.23,1.1358294
2347999,488.0887,11.828796,95598.16,1.1358643
2352000,488.14975,11.828796,95597.48,1.1358562
2355999,488.27652,11.828796,95596.016,1.1358387
2363999,488.26715,11.828796,95596.11,1.1358399
2368000,488.07465,11.828796,95598.305,1.135866
2371999,488.17795,11.828796,95597.164,1.1358525
2376000,488.33286,11.828796,95595.35,1.1358309
2379999,488.18262,11.828796,95597.11,1.1358519
2384000,488.06055,11.828796,95598.47,1.135868
2387999,488.25305,11.828796,95596.29,1.1358421
2392000,488.12628,11.828796,95597.75,1.1358594
2400000,488.26245,11.828796,95596.22,1.1358413
2403999,488.26245,11.828796,95596.22,1.1358413
2411999,488.17795,11.828796,95597.18,1.1358527
2416000,488.23898,11.828796,95596.47,1.1358442
2424000,488.0887,11.828796,95598.21,1.1358649
2432000,488.13568,11.828796,95597.62,1.1358578
2435999,488.21548,11.828796,95596.74,1.1358474
2443999,488.3986,11.828796,95594.625,1.1358223
2448000,488.23428,11.828796,95596.54,1.1358451
2451999,488.15915,11.828796,95597.38,1.1358551
2456000,488.3282,11.828796,95595.45,1.1358321
2459999,488.3282,11.828796,95595.45,1.1358321
2464000,488.1122,11.828796,95597.94,1.1358616
2467999,488.24365,11.828796,95596.375,1.135843
2475999,488.18262,11.828796,95597.11,1.1358519
2480000,488.17795,11.828796,95597.17,1.1358526
2488000,488.14975,11.828796,95597.48,1.1358562
2491999,488.13568,11.828796,95597.625,1.1358579
2496000,488.18732,11.828796,95597.055,1.1358511
2499999,488.29062,11.828796,95595.85,1.1358368
2504000,488.19672,11.828796,95596.94,1.1358497
2507999,488.29062,11.828796,95595.83,1.1358366
2512000,488.23898,11.828796,95596.43,1.1358438
2515999,488.16385,11.828796,95597.305,1.1358541
2520000,488.15915,11.828796,95597.336,1.1358545
2523999,488.29532,11.828796,95595.8,1.1358362
2528000,488.20612,11.828796,95596.82,1.1358484
2531999,488.28592,11.828796,95595.91,1.1358376
2536000,488.3188,11.828796,95595.56,1.1358334
2540000,488.25775,11.828796,95596.26,1.1358417
2544000,488.22488,11.828796,95596.6,1.1358458
2552000,488.18262,11.828796,95597.11,1.1358519
2556000,488.13098,11.828796,95597.695,1.1358588
2560000,488.18262,11.828796,95597.07,1.1358514
2564000,488.3282,11.828796,95595.43,1.1358318
2568000,488.15445,11.828796,95597.414,1.1358554
2572000,487.96198,11.828796,95599.625,1.1358817
2576000,488.25305,11.828796,95596.3,1.1358422
2584000,488.14038,11.828796,95597.56,1.1358572
2588000,488.1122,11.828796,95597.94,1.1358616
2592000,488.29062,11.828796,95595.82,1.1358365
2596000,488.29062,11.828796,95595.82,1.1358365
2600000,488.22018,11.828796,95596.66,1.1358464
2604000,488.22958,11.828796,95596.57,1.1358454
2608000,488.33755,11.828796,95595.33,1.1358306
2612000,488.13098,11.828796,95597.67,1.1358585
2616000,488.4127,11.828796,95594.44,1.13582
2620000,488.38922,11.828796,95594.734,1.1358236
2624000,488.38922,11.828796,95594.734,1.1358236
2628000,487.9995,11.828796,95599.2,1.1358767
2636000,488.0981,11.828796,95598.03,1.1358627
2644000,488.23898,11.828796,95596.43,1.1358438
2648000,488.26715,11.828796,95596.125,1.13584
2652000,488.26715,11.828796,95596.09,1.1358397
2656000,488.2108,11.828796,95596.766,1.1358477
2660000,488.30002,11.828796,95595.76,1.1358358
2664000,488.21548,11.828796,95596.75,1.1358476
2672000,488.13568,11.828796,95597.63,1.135858
2676000,488.21548,11.828796,95596.74,1.1358474
2680000,488.17325,11.828796,95597.195,1.1358528
2684000,488.17325,11.828796,95597.195,1.1358528
2688000,488.37512,11.828796,95594.89,1.1358254
2692000,488.23428,11.828796,95596.5,1.1358446
2700000,488.29062,11.828796,95595.85,1.1358368
2704000,488.24835,11.828796,95596.32,1.1358424
2708000,488.34225,11.828796,95595.3,1.1358303
2712000,488.18732,11.828796,95597.055,1.1358511
2720000,488.17325,11.828796,95597.22,1.135853
2724000,488.4127,11.828796,95594.45,1.1358203
2728000,488.21548,11.828796,95596.72,1.1358472
2732000,488.0934,11.828796,95598.12,1.1358638
2736000,488.27652,11.828796,95596.04,1.1358391
2740000,488.27652,11.828796,95596.04,1.1358391
2744000,488.28122,11.828796,95595.97,1.1358383
2748000,488.24365,11.828796,95596.414,1.1358435
2752000,488.0981,11.828796,95598.086,1.1358634
2756000,488.15915,11.828796,95597.39,1.1358552
2760000,488.13568,11.828796,95597.62,1.1358578
2764000,488.13568,11.828796,95597.664,1.1358584
2768000,488.19202,11.828796,95597.016,1.1358507
2772000,488.26245,11.828796,95596.21,1.1358411
2780000,488.21548,11.828796,95596.72,1.1358472
2784000,488.19202,11.828796,95597.03,1.1358509
2788000,488.3235,11.828796,95595.49,1.1358325
2792000,488.18262,11.828796,95597.08,1.1358514
2796000,488.18262,11.828796,95597.08,1.1358514
2800000,488.23428,11.828796,95596.55,1.1358451
2804000,488.33286,11.828796,95595.35,1.1358309
2808000,488.23898,11.828796,95596.46,1.1358441
2812000,488.23898,11.828796,95596.46,1.1358441
2816000,488.28122,11.828796,95595.97,1.1358383
2824000,488.43616,11.828796,95594.18,1.1358169
2828000,488.24365,11.828796,95596.375,1.135843
2836000,488.26245,11.828796,95596.2,1.135841
2840000,488.25775,11.828796,95596.27,1.1358418
2844000,488.25775,11.828796,95596.27,1.1358418
2848000,488.3094,11.828796,95595.67,1.1358347
2856000,488.16385,11.828796,95597.3,1.135854
2860000,488.28592,11.828796,95595.93,1.1358378
2864000,488.20142,11.828796,95596.89,1.1358492
2868000,488.33286,11.828796,95595.34,1.1358309
2876000,488.27652,11.828796,95596.0,1.1358386
2880000,488.20612,11.828796,95596.83,1.1358484
2884000,488.28122,11.828796,95595.96,1.1358382
2888000,488.28122,11.828796,95595.984,1.1358384
2892000,488.21548,11.828796,95596.74,1.1358474
2896000,488.14508,11.828796,95597.5,1.1358564
2900000,488.28592,11.828796,95595.88,1.1358372
2904000,488.3235,11.828796,95595.47,1.1358323
2912000,488.25775,11.828796,95596.25,1.1358416
2920000,488.12158,11.828796,95597.78,1.1358597
2924000,488.3094,11.828796,95595.664,1.1358346
2928000,488.20142,11.828796,95596.89,1.1358492
2932000,488.3235,11.828796,95595.484,1.1358325
2936000,488.3188,11.828796,95595.52,1.1358329
2940000,488.17325,11.828796,95597.23,1.1358532
2948000,488.0934,11.828796,95598.11,1.1358637
2952000,488.24835,11.828796,95596.32,1.1358424
2960000,488.19202,11.828796,95597.016,1.1358507
2968000,488.28122,11.828796,95595.95,1.135838
2972000,488.33755,11.828796,95595.31,1.1358304
2980000,488.07465,11.828796,95598.31,1.135866
2984000,488.13568,11.828796,95597.66,1.1358583
2992000,488.17325,11.828796,95597.195,1.1358528
2996000,488.19672,11.828796,95596.94,1.1358497
3004000,488.25775,11.828796,95596.266,1.1358417
3008000,488.14038,11.828796,95597.56,1.1358572
3016000,488.20142,11.828796,95596.89,1.1358492
3020000,488.23428,11.828796,95596.54,1.1358451
3028000,488.3047,11.828796,95595.7,1.135835
3036000,488.30002,11.828796,95595.77,1.1358359
3040000,488.34695,11.828796,95595.234,1.1358296
3044000,488.28122,11.828796,95595.99,1.1358385
3048000,488.1122,11.828796,95597.89,1.135861
3056000,488.23898,11.828796,95596.44,1.1358439
3064000,488.25775,11.828796,95596.25,1.1358416
3068000,488.25775,11.828796,95596.25,1.1358416
3072000,488.22018,11.828796,95596.69,1.1358467
3076000,488.1028,11.828796,95597.98,1.1358621
3080000,488.14508,11.828796,95597.55,1.135857
3084000,488.17795,11.828796,95597.18,1.1358527
3088000,488.16855,11.828796,95597.25,1.1358535
3092000,488.17325,11.828796,95597.23,1.1358532
3096000,488.3047,11.828796,95595.71,1.1358352
3104000,488.13098,11.828796,95597.695,1.1358588
3108000,488.408,11.828796,95594.54,1.1358212
3112000,488.13098,11.828796,95597.67,1.1358585
3116000,488.33755,11.828796,95595.32,1.1358305
3120000,488.27652,11.828796,95596.04,1.1358391
3128000,488.22018,11.828796,95596.66,1.1358464
3132000,488.26715,11.828796,95596.11,1.1358399
3136000,488.45026,11.828796,95594.05,1.1358154
3140000,488.28592,11.828796,95595.914,1.1358376
3148000,488.22018,11.828796,95596.664,1.1358465
3156000,488.28592,11.828796,95595.88,1.1358372
3160000,488.14508,11.828796,95597.53,1.1358569
3168000,488.22018,11.828796,95596.65,1.1358464
3172000,488.3047,11.828796,95595.7,1.135835
3176000,488.3047,11.828796,95595.7,1.135835
3180000,488.15445,11.828796,95597.41,1.1358553
3188000,488.30002,11.828796,95595.77,1.1358359
3196000,488.4174,11.828796,95594.41,1.1358197
3200000,488.25305,11.828796,95596.305,1.1358422
3204000,488.3235,11.828796,95595.47,1.1358323
3208000,488.26245,11.828796,95596.22,1.1358413
3212000,488.26245,11.828796,95596.22,1.1358413
3216000,488.14508,11.828796,95597.516,1.1358566
3224000,488.4033,11.828796,95594.586,1.1358218
3228000,488.26245,11.828796,95596.164,1.1358405
3232000,488.14038,11.828796,95597.586,1.1358575
3236000,488.14038,11.828796,95597.586,1.1358575
3240000,488.16385,11.828796,95597.305,1.1358541
3244000,488.3188,11.828796,95595.52,1.1358329
3248000,488.36105,11.828796,95595.05,1.1358273
3252000,488.28122,11.828796,95595.95,1.135838
3256000,488.20612,11.828796,95596.84,1.1358486
3260000,488.37982,11.828796,95594.85,1.1358249
3264000,488.22018,11.828796,95596.68,1.1358467
3268000,488.08405,11.828796,95598.23,1.1358651
3272000,488.33755,11.828796,95595.33,1.1358306
3276000,488.23898,11.828796,95596.44,1.1358439
3280000,488.43146,11.828796,95594.23,1.1358175
3284000,488.14975,11.828796,95597.48,1.1358562
3288000,488.22018,11.828796,95596.664,1.1358465
3292000,488.14975,11.828796,95597.48,1.1358562
3296000,488.27652,11.828796,95596.02,1.1358389
3304000,488.21548,11.828796,95596.71,1.1358471
3308000,488.21548,11.828796,95596.71,1.1358471
3312000,488.20142,11.828796,95596.89,1.1358492
3316000,488.20142,11.828796,95596.89,1.1358492
3320000,488.28592,11.828796,95595.94,1.1358379
3324000,488.1169,11.828796,95597.83,1.1358603
3328000,488.28592,11.828796,95595.9,1.1358374
3332000,488.28592,11.828796,95595.9,1.1358374
3340000,488.0089,11.828796,95599.12,1.1358757
3344000,488.33286,11.828796,95595.38,1.1358312
3352000,488.35635,11.828796,95595.09,1.1358279
3356000,488.17325,11.828796,95597.23,1.1358532
3360000,488.15445,11.828796,95597.41,1.1358553
3364000,488.07465,11.828796,95598.31,1.135866
3368000,488.29532,11.828796,95595.79,1.1358361
3372000,488.3188,11.828796,95595.54,1.1358331
3376000,488.2108,11.828796,95596.78,1.1358479
3380000,488.2108,11.828796,95596.78,1.1358479
3388000,488.19672,11.828796,95596.93,1.1358497
3392000,488.26715,11.828796,95596.11,1.1358399
3396000,488.22018,11.828796,95596.69,1.1358467
3400000,488.22018,11.828796,95596.664,1.1358465
3404000,488.22018,11.828796,95596.664,1.1358465
3408000,488.3188,11.828796,95595.57,1.1358335
3412000,488.3188,11.828796,95595.57,1.1358335
3420000,488.24365,11.828796,95596.38,1.1358432
3424000,488.3094,11.828796,95595.664,1.1358346
3428000,488.29062,11.828796,95595.83,1.1358366
3432000,488.1075,11.828796,95597.96,1.1358619
3436000,488.34225,11.828796,95595.3,1.1358303
3440000,488.0887,11.828796,95598.16,1.1358643
3444000,488.0887,11.828796,95598.16,1.1358643
3448000,488.27652,11.828796,95596.04,1.1358391
3452000,488.24835,11.828796,95596.36,1.1358429
3456000,488.30002,11.828796,95595.74,1.1358355
3460000,488.19672,11.828796,95596.945,1.1358498
3464000,488.26245,11.828796,95596.164,1.1358405
3468000,488.20142,11.828796,95596.88,1.1358491
3472000,488.14038,11.828796,95597.58,1.1358573
3480000,488.16855,11.828796,95597.27,1.1358538
3488000,488.25775,11.828796,95596.266,1.1358417
3492000,488.33755,11.828796,95595.31,1.1358304
3496000,488.3282,11.828796,95595.43,1.1358318
3500000,488.3282,11.828796,95595.43,1.1358318
3504000,488.1122,11.828796,95597.92,1.1358614
3508000,488.1122,11.828796,95597.92,1.1358614
3512000,488.27182,11.828796,95596.07,1.1358395
3516000,488.24365,11.828796,95596.375,1.135843
3520000,488.20612,11.828796,95596.82,1.1358484
3524000,488.21548,11.828796,95596.75,1.1358476
3528000,488.3939,11.828796,95594.695,1.1358231
3532000,488.45026,11.828796,95594.04,1.1358153
3536000,488.3047,11.828796,95595.69,1.1358349
3540000,488.3047,11.828796,95595.69,1.1358349
3544000,488.27652,11.828796,95596.0,1.1358386
3548000,488.15915,11.828796,95597.336,1.1358545
3552000,488.3094,11.828796,95595.65,1.1358345
3560000,488.26245,11.828796,95596.21,1.1358411
3564000,488.27652,11.828796,95596.016,1.1358387
3568000,488.23428,11.828796,95596.516,1.1358447
3572000,488.28122,11.828796,95595.984,1.1358384
3576000,488.18732,11.828796,95597.05,1.135851
3584000,488.1075,11.828796,95597.945,1.1358618
3588000,488.0981,11.828796,95598.055,1.1358631
3592000,488.28122,11.828796,95595.97,1.1358383
3600000,488.16385,11.828796,95597.33,1.1358544
3604000,488.17325,11.828796,95597.21,1.135853
3608000,488.0887,11.828796,95598.195,1.1358647
3612000,488.3282,11.828796,95595.44,1.135832
3616000,488.28592,11.828796,95595.91,1.1358376
3620000,488.28592,11.828796,95595.91,1.1358376
3624000,488.08405,11.828796,95598.24,1.1358652
3628000,488.15445,11.828796,95597.43,1.1358556
3632000,488.15445,11.828796,95597.414,1.1358554
3636000,488.14038,11.828796,95597.586,1.1358575
3640000,488.23428,11.828796,95596.5,1.1358446
3644000,488.23428,11.828796,95596.5,1.1358446
3648000,488.25775,11.828796,95596.27,1.1358418
3652000,488.18732,11.828796,95597.055,1.1358511
3656000,488.27652,11.828796,95596.02,1.1358389
3660000,488.27652,11.828796,95596.02,1.1358389
3664000,488.19672,11.828796,95596.97,1.1358501
3668000,488.3235,11.828796,95595.51,1.1358328
3676000,488.25305,11.828796,95596.305,1.1358422
3680000,488.20612,11.828796,95596.805,1.1358482
3688000,488.15915,11.828796,95597.336,1.1358545
3692000,488.15915,11.828796,95597.336,1.1358545
3700000,488.15915,11.828796,95597.39,1.1358552
3704000,488.22018,11.828796,95596.65,1.1358464
3708000,488.16385,11.828796,95597.33,1.1358544
3716000,488.23898,11.828796,95596.484,1.1358443
3720000,488.36572,11.828796,95595.016,1.135827
3728000,488.3282,11.828796,95595.41,1.1358316
3732000,488.29532,11.828796,95595.79,1.1358361
3740000,488.15915,11.828796,95597.39,1.1358552
3748000,488.26245,11.828796,95596.2,1.135841
3752000,488.30002,11.828796,95595.77,1.1358359
3760000,488.23898,11.828796,95596.45,1.135844
3764000,488.34225,11.828796,95595.28,1.13583
3768000,488.18262,11.828796,95597.086,1.1358515
3772000,488.2108,11.828796,95596.77,1.1358478
3776000,488.16855,11.828796,95597.25,1.1358535
3784000,488.08405,11.828796,95598.23,1.1358651
3788000,488.27652,11.828796,95596.016,1.1358387
3792000,488.0887,11.828796,95598.16,1.1358643
3796000,488.0887,11.828796,95598.16,1.1358643
3804000,488.29532,11.828796,95595.79,1.1358361
3808000,488.14038,11.828796,95597.57,1.1358572
3812000,488.23428,11.828796,95596.49,1.1358445
3820000,488.25775,11.828796,95596.27,1.1358418
3824000,488.17325,11.828796,95597.234,1.1358533
3828000,488.30002,11.828796,95595.77,1.1358359
3832000,488.12628,11.828796,95597.75,1.1358594
3836000,488.36105,11.828796,95595.04,1.1358272
3840000,488.20142,11.828796,95596.875,1.135849
3844000,488.12158,11.828796,95597.77,1.1358597
3848000,488.26245,11.828796,95596.164,1.1358405
3852000,488.3047,11.828796,95595.69,1.1358349
3856000,488.12158,11.828796,95597.77,1.1358597
3860000,488.12158,11.828796,95597.77,1.1358597
3864000,488.19202,11.828796,95597.03,1.1358509
3868000,488.408,11.828796,95594.55,1.1358213
3872000,488.2108,11.828796,95596.766,1.1358477
3876000,488.16855,11.828796,95597.27,1.1358538
3880000,488.36105,11.828796,95595.07,1.1358275
3884000,488.37512,11.828796,95594.875,1.1358253
3892000,488.15915,11.828796,95597.36,1.1358547
3896000,488.3986,11.828796,95594.625,1.1358223
3900000,488.29532,11.828796,95595.79,1.1358361
3904000,488.20612,11.828796,95596.85,1.1358488
3908000,488.28122,11.828796,95595.99,1.1358385
3912000,488.3188,11.828796,95595.54,1.1358331
3916000,488.3188,11.828796,95595.54,1.1358331
3920000,488.3094,11.828796,95595.63,1.1358342
3924000,488.3188,11.828796,95595.54,1.1358331
3928000,488.24365,11.828796,95596.39,1.1358433
3932000,488.3939,11.828796,95594.68,1.1358229
3936000,488.22018,11.828796,95596.695,1.1358469
3940000,488.33286,11.828796,95595.38,1.1358312
3944000,488.16385,11.828796,95597.3,1.135854
3948000,488.24835,11.828796,95596.33,1.1358426
3952000,488.12158,11.828796,95597.81,1.1358602
3960000,488.29532,11.828796,95595.81,1.1358364
3964000,488.24835,11.828796,95596.34,1.1358427
3968000,488.24835,11.828796,95596.34,1.1358427
3972000,488.18732,11.828796,95597.055,1.1358511
3976000,488.37982,11.828796,95594.83,1.1358247
3980000,488.20142,11.828796,95596.914,1.1358495
3984000,488.20142,11.828796,95596.914,1.1358495
3988000,488.17795,11.828796,95597.18,1.1358527
3992000,488.35635,11.828796,95595.1,1.1358279
3996000,488.07935,11.828796,95598.26,1.1358654
4000000,488.24365,11.828796,95596.4,1.1358434
4004000,488.24365,11.828796,95596.4,1.1358434
4008000,488.19672,11.828796,95596.94,1.1358497
4016000,488.22018,11.828796,95596.695,1.1358469
4020000,488.22018,11.828796,95596.695,1.1358469
4024000,488.24365,11.828796,95596.414,1.1358435
4028000,488.3094,11.828796,95595.664,1.1358346
4036000,488.13098,11.828796,95597.72,1.135859
4040000,488.3188,11.828796,95595.52,1.1358329
4048000,488.30002,11.828796,95595.766,1.1358359
4052000,488.18262,11.828796,95597.086,1.1358515
4056000,488.19672,11.828796,95596.93,1.1358497
4064000,488.43616,11.828796,95594.17,1.1358169
4068000,488.43616,11.828796,95594.17,1.1358169
4072000,488.18262,11.828796,95597.08,1.1358514
4076000,488.12628,11.828796,95597.75,1.1358594
4080000,488.17325,11.828796,95597.195,1.1358528
4084000,488.06055,11.828796,95598.48,1.1358681
4092000,488.23428,11.828796,95596.54,1.1358451
4096000,488.33755,11.828796,95595.33,1.1358306
4100000,488.14508,11.828796,95597.52,1.1358567
4108000,488.17325,11.828796,95597.23,1.1358532
4112000,488.3047,11.828796,95595.72,1.1358353
4116000,488.20142,11.828796,95596.89,1.1358492
4120000,488.28592,11.828796,95595.914,1.1358376
4128000,488.24365,11.828796,95596.39,1.1358433
4132000,488.13568,11.828796,95597.63,1.135858
4136000,488.17795,11.828796,95597.14,1.1358522
4140000,488.22018,11.828796,95596.664,1.1358465
4144000,488.23898,11.828796,95596.47,1.1358442
4148000,488.19672,11.828796,95596.93,1.1358497
4152000,488.3282,11.828796,95595.43,1.1358318
4156000,488.15445,11.828796,95597.41,1.1358553
4160000,488.22488,11.828796,95596.625,1.135846
4164000,488.27652,11.828796,95596.0,1.1358386
4168000,488.27652,11.828796,95596.016,1.1358387
4172000,488.27652,11.828796,95596.016,1.1358387
4180000,488.28122,11.828796,95595.97,1.1358383
4188000,488.12158,11.828796,95597.81,1.1358602
4192000,488.15915,11.828796,95597.35,1.1358547
4200000,488.23428,11.828796,95596.5,1.1358446
4204000,488.1169,11.828796,95597.87,1.1358608
4208000,488.22958,11.828796,95596.555,1.1358452
4212000,488.22958,11.828796,95596.555,1.1358452
4220000,488.0981,11.828796,95598.086,1.1358634
4224000,488.3282,11.828796,95595.4,1.1358315
4228000,488.21548,11.828796,95596.74,1.1358474
4232000,488.0887,11.828796,95598.164,1.1358644
4236000,488.0887,11.828796,95598.164,1.1358644
4240000,488.22018,11.828796,95596.695,1.1358469
4244000,488.19202,11.828796,95597.02,1.1358508
4248000,488.24365,11.828796,95596.38,1.1358432
4252000,488.24365,11.828796,95596.38,1.1358432
4256000,488.30002,11.828796,95595.76,1.1358358
4264000,488.27652,11.828796,95596.01,1.1358387
4268000,488.27652,11.828796,95596.01,1.1358387
4272000,488.27652,11.828796,95596.055,1.1358392
4280000,488.35635,11.828796,95595.1,1.1358279
4284000,488.1122,11.828796,95597.91,1.1358613
4288000,488.24365,11.828796,95596.41,1.1358434
4292000,488.27652,11.828796,95596.055,1.1358392
4296000,488.26715,11.828796,95596.13,1.1358402
4300000,488.43146,11.828796,95594.266,1.135818
4304000,488.15915,11.828796,95597.35,1.1358547
4308000,488.22958,11.828796,95596.555,1.1358452
4312000,488.37512,11.828796,95594.91,1.1358256
4316000,488.22018,11.828796,95596.695,1.1358469
4320000,488.22018,11.828796,95596.695,1.1358469
4324000,488.17795,11.828796,95597.13,1.1358521
4328000,488.24835,11.828796,95596.35,1.1358428
4336000,488.3188,11.828796,95595.55,1.1358333
4340000,488.3188,11.828796,95595.55,1.1358333
4344000,488.22958,11.828796,95596.58,1.1358455
4348000,488.22488,11.828796,95596.61,1.1358459
4352000,488.19202,11.828796,95596.99,1.1358504
4356000,488.14508,11.828796,95597.5,1.1358564
4360000,488.14508,11.828796,95597.5,1.1358564
4364000,488.1028,11.828796,95598.016,1.1358626
4368000,488.29062,11.828796,95595.86,1.135837
4372000,488.26245,11.828796,95596.22,1.1358413
4376000,488.22018,11.828796,95596.664,1.1358465
4380000,488.37512,11.828796,95594.87,1.1358252
4388000,488.26245,11.828796,95596.19,1.1358409
4392000,488.14508,11.828796,95597.516,1.1358566
4396000,488.33755,11.828796,95595.33,1.1358306
4400000,488.0934,11.828796,95598.1,1.1358635
4404000,488.13098,11.828796,95597.73,1.1358591
4408000,488.3094,11.828796,95595.65,1.1358345
4412000,488.34225,11.828796,95595.28,1.13583
4420000,488.23898,11.828796,95596.47,1.1358442
4424000,488.20612,11.828796,95596.84,1.1358486
4428000,488.27182,11.828796,95596.08,1.1358396
4432000,488.19672,11.828796,95596.93,1.1358497
4436000,488.24365,11.828796,95596.375,1.135843
4444000,488.02768,11.828796,95598.88,1.1358728
4448000,488.26245,11.828796,95596.22,1.1358413
4452000,488.26245,11.828796,95596.22,1.1358413
4456000,488.0981,11.828796,95598.06,1.1358631
4460000,488.13098,11.828796,95597.695,1.1358588
4464000,488.14975,11.828796,95597.46,1.135856
4468000,488.21548,11.828796,95596.75,1.1358476
4472000,488.30002,11.828796,95595.77,1.1358359
4476000,488.28122,11.828796,95595.96,1.1358382
4480000,488.35165,11.828796,95595.16,1.1358286
4484000,488.35165,11.828796,95595.16,1.1358286
4488000,488.19672,11.828796,95596.93,1.1358497
4492000,488.3094,11.828796,95595.65,1.1358345
4500000,488.22018,11.828796,95596.66,1.1358464
4508000,488.30002,11.828796,95595.77,1.1358359
4512000,488.3047,11.828796,95595.68,1.1358348
4520000,488.24365,11.828796,95596.414,1.1358435
4524000,488.27652,11.828796,95596.016,1.1358387
4528000,488.15915,11.828796,95597.36,1.1358547
4536000,488.21548,11.828796,95596.72,1.1358472
4540000,488.18732,11.828796,95597.04,1.1358509
4544000,488.27652,11.828796,95596.04,1.1358391
4548000,488.3047,11.828796,95595.69,1.1358349
4552000,488.15915,11.828796,95597.336,1.1358545
4556000,488.26245,11.828796,95596.164,1.1358405
4560000,488.24365,11.828796,95596.375,1.135843
4564000,488.17325,11.828796,95597.22,1.135853
4568000,488.22018,11.828796,95596.695,1.1358469
4572000,488.22018,11.828796,95596.695,1.1358469
4576000,488.23898,11.828796,95596.44,1.1358439
4580000,488.26245,11.828796,95596.21,1.1358411
4584000,488.25305,11.828796,95596.305,1.1358422
4588000,488.1169,11.828796,95597.85,1.1358606
4592000,488.05588,11.828796,95598.53,1.1358687
4596000,488.29062,11.828796,95595.82,1.1358365
4600000,488.17325,11.828796,95597.195,1.1358528
4604000,488.17325,11.828796,95597.195,1.1358528
4608000,488.18732,11.828796,95597.04,1.1358509
4612000,488.33286,11.828796,95595.35,1.1358309
4616000,488.26245,11.828796,95596.22,1.1358413
4620000,488.22018,11.828796,95596.664,1.1358465
4624000,488.15915,11.828796,95597.38,1.1358551
4628000,488.15915,11.828796,95597.38,1.1358551
4632000,488.17325,11.828796,95597.23,1.1358532
4640000,488.14038,11.828796,95597.56,1.1358572
4648000,488.24365,11.828796,95596.41,1.1358434
4652000,488.28122,11.828796,95595.97,1.1358383
4656000,488.20142,11.828796,95596.86,1.1358489
4660000,488.25775,11.828796,95596.234,1.1358414
4664000,488.13568,11.828796,95597.66,1.1358583
4668000,487.96198,11.828796,95599.64,1.1358819
4672000,488.36572,11.828796,95594.984,1.1358266
4676000,488.3235,11.828796,95595.47,1.1358323
4680000,488.15445,11.828796,95597.414,1.1358554
4684000,488.15445,11.828796,95597.414,1.1358554
4688000,488.22958,11.828796,95596.555,1.1358452
4692000,488.35635,11.828796,95595.12,1.1358281
4696000,488.24835,11.828796,95596.34,1.1358427
4700000,488.17795,11.828796,95597.17,1.1358526
4704000,488.1122,11.828796,95597.914,1.1358614
4708000,488.1122,11.828796,95597.914,1.1358614
4712000,488.28592,11.828796,95595.914,1.1358376
4716000,488.28122,11.828796,95595.97,1.1358383
4720000,488.28122,11.828796,95595.97,1.1358383
4724000,488.3141,11.828796,95595.59,1.1358337
4728000,488.3141,11.828796,95595.59,1.1358337
4732000,488.1122,11.828796,95597.92,1.1358614
4736000,488.22018,11.828796,95596.695,1.1358469
4740000,488.22958,11.828796,95596.555,1.1358452
4748000,488.45493,11.828796,95593.96,1.1358144
4752000,488.45493,11.828796,95593.96,1.1358144
4756000,488.18262,11.828796,95597.07,1.1358514
4760000,488.18262,11.828796,95597.07,1.1358514
4764000,488.3188,11.828796,95595.54,1.1358331
4768000,488.3188,11.828796,95595.54,1.1358331
4772000,488.13098,11.828796,95597.695,1.1358588
4776000,488.3094,11.828796,95595.63,1.1358342
4780000,488.2108,11.828796,95596.766,1.1358477
4784000,488.3141,11.828796,95595.59,1.1358337
4788000,488.28592,11.828796,95595.914,1.1358376
4792000,488.15915,11.828796,95597.36,1.1358547
4800000,488.3188,11.828796,95595.52,1.1358329
4804000,488.28592,11.828796,95595.91,1.1358376
4808000,488.19202,11.828796,95597.03,1.1358509
4812000,488.34225,11.828796,95595.28,1.13583
4816000,488.20142,11.828796,95596.89,1.1358492
4820000,488.14038,11.828796,95597.586,1.1358575
4824000,488.22958,11.828796,95596.57,1.1358454
4828000,488.22958,11.828796,95596.57,1.1358454
4832000,488.07465,11.828796,95598.31,1.135866
4836000,488.05588,11.828796,95598.555,1.135869
4840000,488.25775,11.828796,95596.26,1.1358417
4848000,488.08405,11.828796,95598.23,1.1358651
4852000,488.24365,11.828796,95596.41,1.1358434
4856000,488.1169,11.828796,95597.85,1.1358606
4860000,488.3282,11.828796,95595.41,1.1358316
4864000,488.3188,11.828796,95595.56,1.1358334
4868000,488.3188,11.828796,95595.56,1.1358334
4872000,488.28592,11.828796,95595.94,1.1358379
4876000,488.3047,11.828796,95595.72,1.1358353
4880000,488.17795,11.828796,95597.13,1.1358521
4884000,488.28592,11.828796,95595.88,1.1358372
4892000,488.23428,11.828796,95596.54,1.1358451
4900000,488.12158,11.828796,95597.8,1.13586
4904000,488.08405,11.828796,95598.23,1.1358651
4912000,488.16385,11.828796,95597.28,1.1358539
4916000,488.28592,11.828796,95595.91,1.1358376
4920000,488.23428,11.828796,95596.52,1.1358448
4924000,488.28122,11.828796,95595.97,1.1358383
4928000,488.34695,11.828796,95595.24,1.1358296
4932000,488.1122,11.828796,95597.88,1.135861
4936000,488.16385,11.828796,95597.32,1.1358544
4940000,488.16385,11.828796,95597.32,1.1358544
4944000,488.19202,11.828796,95597.016,1.1358507
4948000,488.25305,11.828796,95596.305,1.1358422
4952000,488.20612,11.828796,95596.82,1.1358484
4956000,488.24365,11.828796,95596.414,1.1358435
4960000,488.24365,11.828796,95596.414,1.1358435
4964000,488.3282,11.828796,95595.45,1.1358321
4968000,488.24365,11.828796,95596.39,1.1358433
4972000,488.25775,11.828796,95596.26,1.1358417
4980000,488.26245,11.828796,95596.164,1.1358405
4984000,488.24835,11.828796,95596.34,1.1358427
4992000,488.19672,11.828796,95596.96,1.1358501
4996000,488.27652,11.828796,95596.016,1.1358387
5000000,488.4878,11.828796,95593.586,1.1358099
5004000,488.4878,11.828796,95593.586,1.1358099
5012000,488.22488,11.828796,95596.59,1.1358457
5016000,488.19202,11.828796,95596.99,1.1358504
5020000,488.22018,11.828796,95596.68,1.1358467
5024000,488.22018,11.828796,95596.69,1.1358467
5032000,488.28122,11.828796,95595.99,1.1358385
5040000,488.24835,11.828796,95596.36,1.1358429
5044000,488.30002,11.828796,95595.76,1.1358358
5048000,488.18732,11.828796,95597.04,1.1358509
5052000,488.18732,11.828796,95597.04,1.1358509
5060000,488.4127,11.828796,95594.45,1.1358203
5064000,488.18262,11.828796,95597.1,1.1358517
5068000,488.15445,11.828796,95597.414,1.1358554
5072000,488.23428,11.828796,95596.54,1.1358451
5076000,488.20612,11.828796,95596.8,1.135848
5080000,488.05588,11.828796,95598.53,1.1358687
5084000,488.29062,11.828796,95595.83,1.1358366
5088000,488.4221,11.828796,95594.35,1.1358191
5092000,488.28592,11.828796,95595.93,1.1358378
5096000,488.26245,11.828796,95596.164,1.1358405
5100000,488.14508,11.828796,95597.52,1.1358567
5104000,488.23428,11.828796,95596.49,1.1358445
5108000,488.23428,11.828796,95596.49,1.1358445
5112000,488.0089,11.828796,95599.09,1.1358753
5116000,488.23898,11.828796,95596.47,1.1358442
5120000,488.18732,11.828796,95597.04,1.1358509
5124000,488.18732,11.828796,95597.04,1.1358509
5128000,488.17325,11.828796,95597.21,1.135853
5132000,488.1028,11.828796,95598.01,1.1358625
5136000,488.20142,11.828796,95596.88,1.1358491
5140000,488.20612,11.828796,95596.8,1.135848
5144000,488.19672,11.828796,95596.96,1.1358501
5148000,488.14975,11.828796,95597.47,1.135856
5152000,488.04648,11.828796,95598.64,1.13587
5156000,488.04648,11.828796,95598.64,1.13587
5160000,488.17795,11.828796,95597.17,1.1358526
5164000,488.19672,11.828796,95596.96,1.1358501
5168000,488.18732,11.828796,95597.05,1.135851
5172000,488.18732,11.828796,95597.05,1.135851
5176000,488.19672,11.828796,95596.945,1.1358498
5180000,488.28592,11.828796,95595.91,1.1358376
5184000,488.19202,11.828796,95597.0,1.1358505
5188000,488.19202,11.828796,95597.0,1.1358505
5192000,488.06525,11.828796,95598.445,1.1358677
5196000,488.16855,11.828796,95597.25,1.1358535
5200000,488.25775,11.828796,95596.27,1.1358418
5204000,488.25775,11.828796,95596.27,1.1358418
5208000,488.4221,11.828796,95594.35,1.1358191
5212000,488.19202,11.828796,95597.0,1.1358505
5216000,488.19202,11.828796,95597.0,1.1358505
5220000,488.29532,11.828796,95595.8,1.1358362
5224000,488.23898,11.828796,95596.484,1.1358443
5228000,488.23898,11.828796,95596.484,1.1358443
5236000,488.16855,11.828796,95597.27,1.1358538
5240000,488.17325,11.828796,95597.24,1.1358534
5244000,488.24365,11.828796,95596.39,1.1358433
5252000,488.3047,11.828796,95595.68,1.1358348
5256000,488.14975,11.828796,95597.47,1.135856
5260000,488.3235,11.828796,95595.48,1.1358324
5264000,488.33755,11.828796,95595.33,1.1358306
5268000,488.18732,11.828796,95597.05,1.135851
5272000,488.19202,11.828796,95597.016,1.1358507
5276000,488.03708,11.828796,95598.76,1.1358714
5280000,488.16855,11.828796,95597.25,1.1358535
5284000,488.33286,11.828796,95595.375,1.1358312
5288000,488.37512,11.828796,95594.875,1.1358253
5292000,488.26715,11.828796,95596.11,1.1358399
5296000,488.19672,11.828796,95596.97,1.1358501
5300000,488.34225,11.828796,95595.3,1.1358303
5304000,488.17795,11.828796,95597.17,1.1358526
5308000,488.0887,11.828796,95598.2,1.1358649
5312000,488.12158,11.828796,95597.81,1.1358602
5316000,488.12158,11.828796,95597.81,1.1358602
5320000,488.3235,11.828796,95595.49,1.1358325
5324000,488.27182,11.828796,95596.08,1.1358396
5328000,488.27182,11.828796,95596.08,1.1358396
5332000,488.16385,11.828796,95597.33,1.1358544
5336000,488.20142,11.828796,95596.914,1.1358495
5344000,488.0887,11.828796,95598.195,1.1358647
5352000,488.18262,11.828796,95597.086,1.1358515
5356000,488.18262,11.828796,95597.086,1.1358515
5360000,488.19672,11.828796,95596.93,1.1358497
5364000,488.19672,11.828796,95596.93,1.1358497
5368000,488.25775,11.828796,95596.26,1.1358417
5372000,488.25775,11.828796,95596.26,1.1358417
5376000,488.36105,11.828796,95595.07,1.1358275
5380000,488.3235,11.828796,95595.47,1.1358323
5388000,488.23898,11.828796,95596.45,1.135844
5392000,488.17325,11.828796,95597.19,1.1358527
5396000,488.17325,11.828796,95597.19,1.1358527
5400000,488.38922,11.828796,95594.7,1.1358232
5404000,488.18262,11.828796,95597.086,1.1358515
5412000,488.16855,11.828796,95597.266,1.1358536
5416000,488.23898,11.828796,95596.484,1.1358443
5420000,488.23898,11.828796,95596.484,1.1358443
5424000,488.17795,11.828796,95597.13,1.1358521
5428000,488.17795,11.828796,95597.13,1.1358521
5432000,488.22488,11.828796,95596.6,1.1358458
5436000,488.0934,11.828796,95598.12,1.1358638
5440000,488.0887,11.828796,95598.17,1.1358644
5444000,488.15445,11.828796,95597.445,1.1358558
5448000,488.17325,11.828796,95597.23,1.1358532
5452000,488.17325,11.828796,95597.23,1.1358532
5456000,488.3235,11.828796,95595.484,1.1358325
5460000,488.3235,11.828796,95595.484,1.1358325
5468000,488.16385,11.828796,95597.28,1.1358539
5476000,488.24365,11.828796,95596.414,1.1358435
5480000,488.28592,11.828796,95595.94,1.1358379
5484000,488.16385,11.828796,95597.305,1.1358541
5488000,488.3188,11.828796,95595.56,1.1358334
5492000,488.3188,11.828796,95595.56,1.1358334
5496000,488.20142,11.828796,95596.89,1.1358492
5500000,488.13568,11.828796,95597.62,1.1358578
5504000,488.27652,11.828796,95596.05,1.1358392
5508000,488.3235,11.828796,95595.484,1.1358325
5516000,488.24365,11.828796,95596.414,1.1358435
5520000,488.1169,11.828796,95597.86,1.1358607
5524000,488.28592,11.828796,95595.914,1.1358376
5528000,488.25305,11.828796,95596.305,1.1358422
5532000,488.24365,11.828796,95596.414,1.1358435
5536000,488.24365,11.828796,95596.414,1.1358435
5540000,488.1122,11.828796,95597.91,1.1358613
5544000,488.35165,11.828796,95595.13,1.1358283
5548000,488.25775,11.828796,95596.27,1.1358418
5552000,488.15445,11.828796,95597.414,1.1358554
5556000,488.17795,11.828796,95597.164,1.1358525
5560000,488.18262,11.828796,95597.08,1.1358514
5564000,488.18262,11.828796,95597.08,1.1358514
5568000,488.21548,11.828796,95596.74,1.1358474
5572000,488.06995,11.828796,95598.38,1.1358669
5580000,488.15915,11.828796,95597.336,1.1358545
5584000,488.3188,11.828796,95595.55,1.1358333
5592000,488.25775,11.828796,95596.27,1.1358418
5596000,488.25775,11.828796,95596.27,1.1358418
5600000,488.29062,11.828796,95595.83,1.1358366
5608000,488.26715,11.828796,95596.11,1.1358399
5612000,488.26715,11.828796,95596.11,1.1358399
5616000,488.30002,11.828796,95595.734,1.1358354
5624000,488.19202,11.828796,95596.99,1.1358504
5628000,488.30002,11.828796,95595.766,1.1358359
5632000,488.3235,11.828796,95595.49,1.1358325
5640000,488.14038,11.828796,95597.57,1.1358572
5648000,488.19672,11.828796,95596.96,1.1358501
5652000,488.19672,11.828796,95596.96,1.1358501
5660000,488.25775,11.828796,95596.24,1.1358415
5664000,488.15915,11.828796,95597.36,1.1358547
5668000,488.33286,11.828796,95595.35,1.1358309
5676000,488.13098,11.828796,95597.71,1.1358589
5680000,488.1028,11.828796,95597.99,1.1358622
5688000,488.29062,11.828796,95595.87,1.1358371
5692000,488.16855,11.828796,95597.27,1.1358538
5696000,487.97604,11.828796,95599.48,1.1358799
5700000,487.99014,11.828796,95599.33,1.1358782
5704000,488.20612,11.828796,95596.805,1.1358482
5708000,488.26715,11.828796,95596.11,1.1358399
5712000,488.3282,11.828796,95595.45,1.1358321
5716000,488.3188,11.828796,95595.58,1.1358336
5720000,488.06055,11.828796,95598.5,1.1358683
5724000,488.03708,11.828796,95598.76,1.1358714
5728000,488.29532,11.828796,95595.8,1.1358362
5732000,488.29532,11.828796,95595.8,1.1358362
5736000,488.22018,11.828796,95596.66,1.1358464
5740000,488.14508,11.828796,95597.5,1.1358564
5744000,488.14508,11.828796,95597.5,1.1358564
5748000,488.14508,11.828796,95597.5,1.1358564
5752000,488.26245,11.828796,95596.21,1.1358411
5756000,488.3939,11.828796,95594.695,1.1358231
5760000,488.3939,11.828796,95594.695,1.1358231
5764000,488.26245,11.828796,95596.21,1.1358411
5768000,488.22018,11.828796,95596.695,1.1358469
5772000,488.33286,11.828796,95595.35,1.1358309
5776000,488.3282,11.828796,95595.45,1.1358321
5780000,488.25775,11.828796,95596.27,1.1358418
5784000,488.0934,11.828796,95598.12,1.1358638
5792000,488.26245,11.828796,95596.19,1.1358409
5796000,488.14975,11.828796,95597.46,1.135856
5800000,488.23898,11.828796,95596.43,1.1358438
5804000,488.24365,11.828796,95596.38,1.1358432
5808000,488.24365,11.828796,95596.38,1.1358432
5812000,488.13568,11.828796,95597.64,1.135858
5816000,488.12158,11.828796,95597.8,1.13586
5820000,488.12158,11.828796,95597.8,1.13586
5824000,488.20142,11.828796,95596.86,1.1358489
5828000,488.20612,11.828796,95596.8,1.135848
5836000,488.1028,11.828796,95597.98,1.1358621
5840000,488.16855,11.828796,95597.27,1.1358538
5844000,488.15445,11.828796,95597.42,1.1358556
5848000,488.3939,11.828796,95594.67,1.1358229
5852000,488.17795,11.828796,95597.17,1.1358526
5856000,488.3094,11.828796,95595.63,1.1358342
5860000,488.3094,11.828796,95595.63,1.1358342
5864000,488.44556,11.828796,95594.086,1.1358159
5868000,488.28592,11.828796,95595.91,1.1358376
5872000,488.28592,11.828796,95595.91,1.1358376
5876000,488.0981,11.828796,95598.06,1.1358631
5880000,488.20612,11.828796,95596.85,1.1358488
5884000,488.28592,11.828796,95595.88,1.1358372
5888000,488.3047,11.828796,95595.71,1.1358352
5892000,488.3047,11.828796,95595.71,1.1358352
5896000,488.3094,11.828796,95595.67,1.1358347
5900000,488.25775,11.828796,95596.25,1.1358416
5904000,488.06055,11.828796,95598.49,1.1358682
5908000,488.06055,11.828796,95598.49,1.1358682
5912000,488.37042,11.828796,95594.98,1.1358265
5916000,488.37042,11.828796,95594.98,1.1358265
5920000,488.25775,11.828796,95596.234,1.1358414
5924000,488.21548,11.828796,95596.75,1.1358476
5928000,488.22488,11.828796,95596.61,1.1358459
5932000,488.22488,11.828796,95596.61,1.1358459
5936000,488.29532,11.828796,95595.79,1.1358361
5940000,488.1075,11.828796,95597.945,1.1358618
5944000,488.22958,11.828796,95596.58,1.1358455
5948000,488.22958,11.828796,95596.58,1.1358455
5952000,488.20612,11.828796,95596.8,1.135848
5956000,488.15915,11.828796,95597.38,1.1358551
